{"data": {"bikes": [{"name": "5a0d90694070a5998f71d1ad6a137840", "type": "electric_scooter", "lat": 38.866941, "is_reserved": 0, "lon": -76.98714433333333, "fusion_lon": 0.0, "is_disabled": 0, "fusion_lat": 0.0, "bike_id": "5a0d90694070a5998f71d1ad6a137840", "rental_uris": {"ios": "https://dc.lft.to/lastmile_qr_scan", "android": "https://dc.lft.to/lastmile_qr_scan"}}, {"name": "c50a1727ad144090c3e8b3a0f6c2653e", "type": "electric_scooter", "lat": 38.902869, "is_reserved": 0, "lon": -77.03860233333333, "fusion_lon": 0.0, "is_disabled": 0, "fusion_lat": 0.0, "bike_id": "c50a1727ad144090c3e8b3a0f6c2653e", "rental_uris": {"ios": "https://dc.lft.to/lastmile_qr_scan", "android": "https://dc.lft.to/lastmile_qr_scan"}}, {"name": "6deaefd54453b3d7d5fa86385d319f6a", "type": "electric_scooter", "lat": 38.939809333333336, "is_reserved": 0, "lon": -77.02897583333333, "fusion_lon": 0.0, "is_disabled": 0, "fusion_lat": 0.0, "bike_id": "6deaefd54453b3d7d5fa86385d319f6a", "rental_uris": {"ios": "https://dc.lft.to/lastmile_qr_scan", "android": "https://dc.lft.to/lastmile_qr_scan"}}, {"name": "52f4da479c557600f7a78e9c8a401383", "type": "electric_scooter", "lat": 38.899539, "is_reserved": 0, "lon": -77.03197433333334, "fusion_lon": 0.0, "is_disabled": 0, "fusion_lat": 0.0, "bike_id": "52f4da479c557600f7a78e9c8a401383", "rental_uris": {"ios": "https://dc.lft.to/lastmile_qr_scan", "android": "https://dc.lft.to/lastmile_qr_scan"}}, {"name": "cf0c26593ec1cb389304081987460da7", "type": "electric_bike", "lat": 38.9662365, "is_reserved": 0, "lon": -76.976691, "fusion_lon": 0.0, "is_disabled": 0, "fusion_lat": 0.0, "bike_id": "cf0c26593ec1cb389304081987460da7", "rental_uris": {"ios": "https://dc.lft.to/lastmile_qr_scan", "android": "https://dc.lft.to/lastmile_qr_scan"}}, {"name": "d03540b5115a8c9a130e0c35e305a332", "type": "electric_scooter", "lat": 38.912706666666665, "is_reserved": 0, "lon": -77.02225416666667, "fusion_lon": 0.0, "is_disabled": 0, "fusion_lat": 0.0, "bike_id": "d03540b5115a8c9a130e0c35e305a332", "rental_uris": {"ios": "https://dc.lft.to/lastmile_qr_scan", "android": "https://dc.lft.to/lastmile_qr_scan"}}, {"name": "26cd59a1fbe8cb185a2c5e144575ed38", "type": "electric_bike", "lat": 38.999380333333335, "is_reserved": 0, "lon": -77.01770866666666, "fusion_lon": 0.0, "is_disabled": 0, "fusion_lat": 0.0, "bike_id": "26cd59a1fbe8cb185a2c5e144575ed38", "rental_uris": {"ios": "https://dc.lft.to/lastmile_qr_scan", "android": "https://dc.lft.to/lastmile_qr_scan"}}, {"name": "15d2ccc75e77929b1288a3413072f4a5", "type": "electric_scooter", "lat": 38.930554, "is_reserved": 0, "lon": -77.038193, "fusion_lon": 0.0, "is_disabled": 0, "fusion_lat": 0.0, "bike_id": "15d2ccc75e77929b1288a3413072f4a5", "rental_uris": {"ios": "https://dc.lft.to/lastmile_qr_scan", "android": "https://dc.lft.to/lastmile_qr_scan"}}, {"name": "abf846524ec03918cc90ffcc69f5b6bc", "type": "electric_scooter", "lat": 38.90007133333334, "is_reserved": 0, "lon": -77.04482266666666, "fusion_lon": 0.0, "is_disabled": 0, "fusion_lat": 0.0, "bike_id": "abf846524ec03918cc90ffcc69f5b6bc", "rental_uris": {"ios": "https://dc.lft.to/lastmile_qr_scan", "android": "https://dc.lft.to/lastmile_qr_scan"}}, {"name": "81ab3438963a268d91a26dded7f3f371", "type": "electric_scooter", "lat": 38.916661833333336, "is_reserved": 0, "lon": -77.02312666666667, "fusion_lon": 0.0, "is_disabled": 0, "fusion_lat": 0.0, "bike_id": "81ab3438963a268d91a26dded7f3f371", "rental_uris": {"ios": "https://dc.lft.to/lastmile_qr_scan", "android": "https://dc.lft.to/lastmile_qr_scan"}}, {"name": "040903852db3489537c350d431ade3f4", "type": "electric_scooter", "lat": 38.920513666666665, "is_reserved": 0, "lon": -77.03340183333333, "fusion_lon": 0.0, "is_disabled": 0, "fusion_lat": 0.0, "bike_id": "040903852db3489537c350d431ade3f4", "rental_uris": {"ios": "https://dc.lft.to/lastmile_qr_scan", "android": "https://dc.lft.to/lastmile_qr_scan"}}, {"name": "d5d717c3e0d219e0b1a214090fd64681", "type": "electric_scooter", "lat": 38.9307835, "is_reserved": 0, "lon": -77.02796533333333, "fusion_lon": 0.0, "is_disabled": 0, "fusion_lat": 0.0, "bike_id": "d5d717c3e0d219e0b1a214090fd64681", "rental_uris": {"ios": "https://dc.lft.to/lastmile_qr_scan", "android": "https://dc.lft.to/lastmile_qr_scan"}}, {"name": "8e463a1dce55dd987e823b526e4f8cae", "type": "electric_scooter", "lat": 38.88402116666666, "is_reserved": 0, "lon": -77.0176655, "fusion_lon": 0.0, "is_disabled": 0, "fusion_lat": 0.0, "bike_id": "8e463a1dce55dd987e823b526e4f8cae", "rental_uris": {"ios": "https://dc.lft.to/lastmile_qr_scan", "android": "https://dc.lft.to/lastmile_qr_scan"}}, {"name": "2c000425c07d44e588951c4429e7bbb2", "type": "electric_scooter", "lat": 38.9047405, "is_reserved": 0, "lon": -77.00218266666667, "fusion_lon": 0.0, "is_disabled": 0, "fusion_lat": 0.0, "bike_id": "2c000425c07d44e588951c4429e7bbb2", "rental_uris": {"ios": "https://dc.lft.to/lastmile_qr_scan", "android": "https://dc.lft.to/lastmile_qr_scan"}}, {"name": "053340f7c1e5a54883d0236070fe0d74", "type": "electric_scooter", "lat": 38.886190166666665, "is_reserved": 0, "lon": -77.01532833333333, "fusion_lon": 0.0, "is_disabled": 0, "fusion_lat": 0.0, "bike_id": "053340f7c1e5a54883d0236070fe0d74", "rental_uris": {"ios": "https://dc.lft.to/lastmile_qr_scan", "android": "https://dc.lft.to/lastmile_qr_scan"}}, {"name": "790acdb8836b78e059282472cd0740ed", "type": "electric_scooter", "lat": 38.89856916666667, "is_reserved": 0, "lon": -77.03211533333334, "fusion_lon": 0.0, "is_disabled": 0, "fusion_lat": 0.0, "bike_id": "790acdb8836b78e059282472cd0740ed", "rental_uris": {"ios": "https://dc.lft.to/lastmile_qr_scan", "android": "https://dc.lft.to/lastmile_qr_scan"}}, {"name": "478865ddf2242cdbfd3b660fa8d87f34", "type": "electric_scooter", "lat": 38.894736333333334, "is_reserved": 0, "lon": -76.99539366666667, "fusion_lon": 0.0, "is_disabled": 0, "fusion_lat": 0.0, "bike_id": "478865ddf2242cdbfd3b660fa8d87f34", "rental_uris": {"ios": "https://dc.lft.to/lastmile_qr_scan", "android": "https://dc.lft.to/lastmile_qr_scan"}}, {"name": "fbfe59e0284fb4bb6986d76459c4206e", "type": "electric_scooter", "lat": 38.903799, "is_reserved": 0, "lon": -77.03838033333334, "fusion_lon": 0.0, "is_disabled": 0, "fusion_lat": 0.0, "bike_id": "fbfe59e0284fb4bb6986d76459c4206e", "rental_uris": {"ios": "https://dc.lft.to/lastmile_qr_scan", "android": "https://dc.lft.to/lastmile_qr_scan"}}, {"name": "838e2924a5c2016156a0870139e3f2a9", "type": "electric_scooter", "lat": 38.923575166666666, "is_reserved": 0, "lon": -77.05243283333333, "fusion_lon": 0.0, "is_disabled": 0, "fusion_lat": 0.0, "bike_id": "838e2924a5c2016156a0870139e3f2a9", "rental_uris": {"ios": "https://dc.lft.to/lastmile_qr_scan", "android": "https://dc.lft.to/lastmile_qr_scan"}}, {"name": "90faf63640655448b14691670d54c9dc", "type": "electric_scooter", "lat": 38.90024833333333, "is_reserved": 0, "lon": -77.0301485, "fusion_lon": 0.0, "is_disabled": 0, "fusion_lat": 0.0, "bike_id": "90faf63640655448b14691670d54c9dc", "rental_uris": {"ios": "https://dc.lft.to/lastmile_qr_scan", "android": "https://dc.lft.to/lastmile_qr_scan"}}, {"name": "1aa764626c606cb4e2067822dbc31fc9", "type": "electric_scooter", "lat": 38.93201616666666, "is_reserved": 0, "lon": -77.0385125, "fusion_lon": 0.0, "is_disabled": 0, "fusion_lat": 0.0, "bike_id": "1aa764626c606cb4e2067822dbc31fc9", "rental_uris": {"ios": "https://dc.lft.to/lastmile_qr_scan", "android": "https://dc.lft.to/lastmile_qr_scan"}}, {"name": "d5d0f38bde491d8e01a9fe9ec1cbf604", "type": "electric_scooter", "lat": 38.928678833333336, "is_reserved": 0, "lon": -77.03480133333333, "fusion_lon": 0.0, "is_disabled": 0, "fusion_lat": 0.0, "bike_id": "d5d0f38bde491d8e01a9fe9ec1cbf604", "rental_uris": {"ios": "https://dc.lft.to/lastmile_qr_scan", "android": "https://dc.lft.to/lastmile_qr_scan"}}, {"name": "cf0e9c89507084aff81e91cfee005e87", "type": "electric_scooter", "lat": 38.924668, "is_reserved": 0, "lon": -77.02835766666666, "fusion_lon": 0.0, "is_disabled": 0, "fusion_lat": 0.0, "bike_id": "cf0e9c89507084aff81e91cfee005e87", "rental_uris": {"ios": "https://dc.lft.to/lastmile_qr_scan", "android": "https://dc.lft.to/lastmile_qr_scan"}}, {"name": "1cd653412fcc9c0a749f69ea035ba8c0", "type": "electric_scooter", "lat": 38.92318233333334, "is_reserved": 0, "lon": -77.04034516666667, "fusion_lon": 0.0, "is_disabled": 0, "fusion_lat": 0.0, "bike_id": "1cd653412fcc9c0a749f69ea035ba8c0", "rental_uris": {"ios": "https://dc.lft.to/lastmile_qr_scan", "android": "https://dc.lft.to/lastmile_qr_scan"}}, {"name": "d3919b36799ed48b8c93af3784bd348e", "type": "electric_scooter", "lat": 38.9210285, "is_reserved": 0, "lon": -76.99388116666667, "fusion_lon": 0.0, "is_disabled": 0, "fusion_lat": 0.0, "bike_id": "d3919b36799ed48b8c93af3784bd348e", "rental_uris": {"ios": "https://dc.lft.to/lastmile_qr_scan", "android": "https://dc.lft.to/lastmile_qr_scan"}}, {"name": "738125a16d70c6ee8fd1b25374df6a3c", "type": "electric_scooter", "lat": 38.926823666666664, "is_reserved": 0, "lon": -77.02155766666667, "fusion_lon": 0.0, "is_disabled": 0, "fusion_lat": 0.0, "bike_id": "738125a16d70c6ee8fd1b25374df6a3c", "rental_uris": {"ios": "https://dc.lft.to/lastmile_qr_scan", "android": "https://dc.lft.to/lastmile_qr_scan"}}, {"name": "11298c43dc8a0a1e768683c11fec81a9", "type": "electric_bike", "lat": 38.8543855, "is_reserved": 0, "lon": -77.11706116666667, "fusion_lon": 0.0, "is_disabled": 0, "fusion_lat": 0.0, "bike_id": "11298c43dc8a0a1e768683c11fec81a9", "rental_uris": {"ios": "https://dc.lft.to/lastmile_qr_scan", "android": "https://dc.lft.to/lastmile_qr_scan"}}, {"name": "f8059b70d10ba886fe31608675e88a5d", "type": "electric_scooter", "lat": 38.89951766666667, "is_reserved": 0, "lon": -77.0505715, "fusion_lon": 0.0, "is_disabled": 0, "fusion_lat": 0.0, "bike_id": "f8059b70d10ba886fe31608675e88a5d", "rental_uris": {"ios": "https://dc.lft.to/lastmile_qr_scan", "android": "https://dc.lft.to/lastmile_qr_scan"}}, {"name": "559c8757ce5f37ff8f974c1476427ac0", "type": "electric_scooter", "lat": 38.895249166666666, "is_reserved": 0, "lon": -77.0161465, "fusion_lon": 0.0, "is_disabled": 0, "fusion_lat": 0.0, "bike_id": "559c8757ce5f37ff8f974c1476427ac0", "rental_uris": {"ios": "https://dc.lft.to/lastmile_qr_scan", "android": "https://dc.lft.to/lastmile_qr_scan"}}, {"name": "5a401a54c7f6e93723fa93269869b778", "type": "electric_scooter", "lat": 38.935024166666665, "is_reserved": 0, "lon": -77.02851616666666, "fusion_lon": 0.0, "is_disabled": 0, "fusion_lat": 0.0, "bike_id": "5a401a54c7f6e93723fa93269869b778", "rental_uris": {"ios": "https://dc.lft.to/lastmile_qr_scan", "android": "https://dc.lft.to/lastmile_qr_scan"}}, {"name": "dadfb911ceb7d764c51e958b667aafa0", "type": "electric_scooter", "lat": 38.885064666666665, "is_reserved": 0, "lon": -77.02096383333334, "fusion_lon": 0.0, "is_disabled": 0, "fusion_lat": 0.0, "bike_id": "dadfb911ceb7d764c51e958b667aafa0", "rental_uris": {"ios": "https://dc.lft.to/lastmile_qr_scan", "android": "https://dc.lft.to/lastmile_qr_scan"}}, {"name": "b3b759eabe22f2e042dceee4d7935b9b", "type": "electric_scooter", "lat": 38.90261433333333, "is_reserved": 0, "lon": -77.029118, "fusion_lon": 0.0, "is_disabled": 0, "fusion_lat": 0.0, "bike_id": "b3b759eabe22f2e042dceee4d7935b9b", "rental_uris": {"ios": "https://dc.lft.to/lastmile_qr_scan", "android": "https://dc.lft.to/lastmile_qr_scan"}}, {"name": "37009d613e58dc447abc2fe34f480c88", "type": "electric_bike", "lat": 38.91038416666667, "is_reserved": 0, "lon": -77.04130383333333, "fusion_lon": 0.0, "is_disabled": 0, "fusion_lat": 0.0, "bike_id": "37009d613e58dc447abc2fe34f480c88", "rental_uris": {"ios": "https://dc.lft.to/lastmile_qr_scan", "android": "https://dc.lft.to/lastmile_qr_scan"}}, {"name": "e8361e33bf2d01cd7575b3121420208a", "type": "electric_scooter", "lat": 38.92128683333333, "is_reserved": 0, "lon": -77.01026883333333, "fusion_lon": 0.0, "is_disabled": 0, "fusion_lat": 0.0, "bike_id": "e8361e33bf2d01cd7575b3121420208a", "rental_uris": {"ios": "https://dc.lft.to/lastmile_qr_scan", "android": "https://dc.lft.to/lastmile_qr_scan"}}, {"name": "c02bfc133c5e11774dd5e5bc3c8f2d66", "type": "electric_scooter", "lat": 38.910780833333334, "is_reserved": 0, "lon": -77.04477766666666, "fusion_lon": 0.0, "is_disabled": 0, "fusion_lat": 0.0, "bike_id": "c02bfc133c5e11774dd5e5bc3c8f2d66", "rental_uris": {"ios": "https://dc.lft.to/lastmile_qr_scan", "android": "https://dc.lft.to/lastmile_qr_scan"}}, {"name": "5e356797f2bd3728c35a93dfa76beea5", "type": "electric_scooter", "lat": 38.94174433333333, "is_reserved": 0, "lon": -77.03093016666666, "fusion_lon": 0.0, "is_disabled": 0, "fusion_lat": 0.0, "bike_id": "5e356797f2bd3728c35a93dfa76beea5", "rental_uris": {"ios": "https://dc.lft.to/lastmile_qr_scan", "android": "https://dc.lft.to/lastmile_qr_scan"}}, {"name": "4ef3fab07cb99f2354fab4bd68d9a67c", "type": "electric_scooter", "lat": 38.92848633333333, "is_reserved": 0, "lon": -77.05425216666667, "fusion_lon": 0.0, "is_disabled": 0, "fusion_lat": 0.0, "bike_id": "4ef3fab07cb99f2354fab4bd68d9a67c", "rental_uris": {"ios": "https://dc.lft.to/lastmile_qr_scan", "android": "https://dc.lft.to/lastmile_qr_scan"}}, {"name": "623db6d0397d6700718db1c964595a42", "type": "electric_scooter", "lat": 38.891297333333334, "is_reserved": 0, "lon": -77.00343733333334, "fusion_lon": 0.0, "is_disabled": 0, "fusion_lat": 0.0, "bike_id": "623db6d0397d6700718db1c964595a42", "rental_uris": {"ios": "https://dc.lft.to/lastmile_qr_scan", "android": "https://dc.lft.to/lastmile_qr_scan"}}, {"name": "c6c9bb11142c9330f84ccc6a6d3a8aa0", "type": "electric_scooter", "lat": 38.89195483333334, "is_reserved": 0, "lon": -77.01550366666666, "fusion_lon": 0.0, "is_disabled": 0, "fusion_lat": 0.0, "bike_id": "c6c9bb11142c9330f84ccc6a6d3a8aa0", "rental_uris": {"ios": "https://dc.lft.to/lastmile_qr_scan", "android": "https://dc.lft.to/lastmile_qr_scan"}}, {"name": "60fe517a8597b12d8748184377c5d8d6", "type": "electric_scooter", "lat": 38.90256883333333, "is_reserved": 0, "lon": -77.01804416666667, "fusion_lon": 0.0, "is_disabled": 0, "fusion_lat": 0.0, "bike_id": "60fe517a8597b12d8748184377c5d8d6", "rental_uris": {"ios": "https://dc.lft.to/lastmile_qr_scan", "android": "https://dc.lft.to/lastmile_qr_scan"}}, {"name": "8fc85d97f042b8214952e5ecbcf3f9c9", "type": "electric_scooter", "lat": 38.908291166666665, "is_reserved": 0, "lon": -76.99704366666667, "fusion_lon": 0.0, "is_disabled": 0, "fusion_lat": 0.0, "bike_id": "8fc85d97f042b8214952e5ecbcf3f9c9", "rental_uris": {"ios": "https://dc.lft.to/lastmile_qr_scan", "android": "https://dc.lft.to/lastmile_qr_scan"}}, {"name": "23d127746c6435e69ad25d70d1bcf8e7", "type": "electric_scooter", "lat": 38.928848, "is_reserved": 0, "lon": -77.03289916666667, "fusion_lon": 0.0, "is_disabled": 0, "fusion_lat": 0.0, "bike_id": "23d127746c6435e69ad25d70d1bcf8e7", "rental_uris": {"ios": "https://dc.lft.to/lastmile_qr_scan", "android": "https://dc.lft.to/lastmile_qr_scan"}}, {"name": "8d0c930df66c12716c636744d4a8c3a8", "type": "electric_scooter", "lat": 38.89566766666667, "is_reserved": 0, "lon": -77.02586266666667, "fusion_lon": 0.0, "is_disabled": 0, "fusion_lat": 0.0, "bike_id": "8d0c930df66c12716c636744d4a8c3a8", "rental_uris": {"ios": "https://dc.lft.to/lastmile_qr_scan", "android": "https://dc.lft.to/lastmile_qr_scan"}}, {"name": "d049676eeb703f9fc6921832da6a752d", "type": "electric_scooter", "lat": 38.902518, "is_reserved": 0, "lon": -77.03343666666666, "fusion_lon": 0.0, "is_disabled": 0, "fusion_lat": 0.0, "bike_id": "d049676eeb703f9fc6921832da6a752d", "rental_uris": {"ios": "https://dc.lft.to/lastmile_qr_scan", "android": "https://dc.lft.to/lastmile_qr_scan"}}, {"name": "2471686c312cadd6b9840e0e64b087d2", "type": "electric_scooter", "lat": 38.90381333333333, "is_reserved": 0, "lon": -77.04163516666667, "fusion_lon": 0.0, "is_disabled": 0, "fusion_lat": 0.0, "bike_id": "2471686c312cadd6b9840e0e64b087d2", "rental_uris": {"ios": "https://dc.lft.to/lastmile_qr_scan", "android": "https://dc.lft.to/lastmile_qr_scan"}}, {"name": "226d57ecc5d18a0accfff0d0f8c1fe32", "type": "electric_scooter", "lat": 38.87991916666667, "is_reserved": 0, "lon": -76.98543216666667, "fusion_lon": 0.0, "is_disabled": 0, "fusion_lat": 0.0, "bike_id": "226d57ecc5d18a0accfff0d0f8c1fe32", "rental_uris": {"ios": "https://dc.lft.to/lastmile_qr_scan", "android": "https://dc.lft.to/lastmile_qr_scan"}}, {"name": "c04d3330b7c93f9b3f551117d499555d", "type": "electric_bike", "lat": 39.03047766666667, "is_reserved": 0, "lon": -77.0948965, "fusion_lon": 0.0, "is_disabled": 0, "fusion_lat": 0.0, "bike_id": "c04d3330b7c93f9b3f551117d499555d", "rental_uris": {"ios": "https://dc.lft.to/lastmile_qr_scan", "android": "https://dc.lft.to/lastmile_qr_scan"}}, {"name": "17aab1423acfadd6eaf778bf50690532", "type": "electric_scooter", "lat": 38.897313, "is_reserved": 0, "lon": -77.02717066666666, "fusion_lon": 0.0, "is_disabled": 0, "fusion_lat": 0.0, "bike_id": "17aab1423acfadd6eaf778bf50690532", "rental_uris": {"ios": "https://dc.lft.to/lastmile_qr_scan", "android": "https://dc.lft.to/lastmile_qr_scan"}}, {"name": "739ea994f79016f5890f4a643aecbb1a", "type": "electric_scooter", "lat": 38.88424933333334, "is_reserved": 0, "lon": -76.99599416666666, "fusion_lon": 0.0, "is_disabled": 0, "fusion_lat": 0.0, "bike_id": "739ea994f79016f5890f4a643aecbb1a", "rental_uris": {"ios": "https://dc.lft.to/lastmile_qr_scan", "android": "https://dc.lft.to/lastmile_qr_scan"}}, {"name": "518b2ad44c9d9dc628a7225532319e68", "type": "electric_scooter", "lat": 38.90374033333333, "is_reserved": 0, "lon": -77.00744966666667, "fusion_lon": 0.0, "is_disabled": 0, "fusion_lat": 0.0, "bike_id": "518b2ad44c9d9dc628a7225532319e68", "rental_uris": {"ios": "https://dc.lft.to/lastmile_qr_scan", "android": "https://dc.lft.to/lastmile_qr_scan"}}, {"name": "3074252c1d3160fbfbce06f4250575d2", "type": "electric_scooter", "lat": 38.903818666666666, "is_reserved": 0, "lon": -77.044476, "fusion_lon": 0.0, "is_disabled": 0, "fusion_lat": 0.0, "bike_id": "3074252c1d3160fbfbce06f4250575d2", "rental_uris": {"ios": "https://dc.lft.to/lastmile_qr_scan", "android": "https://dc.lft.to/lastmile_qr_scan"}}, {"name": "04f9317af6bf623a7b9c999d736544b2", "type": "electric_scooter", "lat": 38.902723, "is_reserved": 0, "lon": -77.03372466666667, "fusion_lon": 0.0, "is_disabled": 0, "fusion_lat": 0.0, "bike_id": "04f9317af6bf623a7b9c999d736544b2", "rental_uris": {"ios": "https://dc.lft.to/lastmile_qr_scan", "android": "https://dc.lft.to/lastmile_qr_scan"}}, {"name": "05f0030e3b7d3e62958728c9c13670f1", "type": "electric_scooter", "lat": 38.923650333333335, "is_reserved": 0, "lon": -77.02126433333333, "fusion_lon": 0.0, "is_disabled": 0, "fusion_lat": 0.0, "bike_id": "05f0030e3b7d3e62958728c9c13670f1", "rental_uris": {"ios": "https://dc.lft.to/lastmile_qr_scan", "android": "https://dc.lft.to/lastmile_qr_scan"}}, {"name": "75b1446566ca3b07a1c056da5b8e23dc", "type": "electric_scooter", "lat": 38.949695166666665, "is_reserved": 0, "lon": -77.07898416666667, "fusion_lon": 0.0, "is_disabled": 0, "fusion_lat": 0.0, "bike_id": "75b1446566ca3b07a1c056da5b8e23dc", "rental_uris": {"ios": "https://dc.lft.to/lastmile_qr_scan", "android": "https://dc.lft.to/lastmile_qr_scan"}}, {"name": "6c3832ed625e5cae92a4336fb4429139", "type": "electric_scooter", "lat": 38.8983445, "is_reserved": 0, "lon": -76.94638666666667, "fusion_lon": 0.0, "is_disabled": 0, "fusion_lat": 0.0, "bike_id": "6c3832ed625e5cae92a4336fb4429139", "rental_uris": {"ios": "https://dc.lft.to/lastmile_qr_scan", "android": "https://dc.lft.to/lastmile_qr_scan"}}, {"name": "41ec5bebd1c72882990891f502f29c2c", "type": "electric_scooter", "lat": 38.923733, "is_reserved": 0, "lon": -77.051807, "fusion_lon": 0.0, "is_disabled": 0, "fusion_lat": 0.0, "bike_id": "41ec5bebd1c72882990891f502f29c2c", "rental_uris": {"ios": "https://dc.lft.to/lastmile_qr_scan", "android": "https://dc.lft.to/lastmile_qr_scan"}}, {"name": "3b4e3bbad6e4b1a62a6d960966fad38f", "type": "electric_scooter", "lat": 38.923700333333336, "is_reserved": 0, "lon": -77.03138466666667, "fusion_lon": 0.0, "is_disabled": 0, "fusion_lat": 0.0, "bike_id": "3b4e3bbad6e4b1a62a6d960966fad38f", "rental_uris": {"ios": "https://dc.lft.to/lastmile_qr_scan", "android": "https://dc.lft.to/lastmile_qr_scan"}}, {"name": "e8e7d51998f9bb3079cddc61a6768735", "type": "electric_scooter", "lat": 38.897444, "is_reserved": 0, "lon": -77.02736766666666, "fusion_lon": 0.0, "is_disabled": 0, "fusion_lat": 0.0, "bike_id": "e8e7d51998f9bb3079cddc61a6768735", "rental_uris": {"ios": "https://dc.lft.to/lastmile_qr_scan", "android": "https://dc.lft.to/lastmile_qr_scan"}}, {"name": "34bac07d6a80d4e8b20714cbe950c8c4", "type": "electric_scooter", "lat": 38.87776916666667, "is_reserved": 0, "lon": -77.008262, "fusion_lon": 0.0, "is_disabled": 0, "fusion_lat": 0.0, "bike_id": "34bac07d6a80d4e8b20714cbe950c8c4", "rental_uris": {"ios": "https://dc.lft.to/lastmile_qr_scan", "android": "https://dc.lft.to/lastmile_qr_scan"}}, {"name": "0ba3d76ad8bd8c328662085041fff76a", "type": "electric_scooter", "lat": 38.9180585, "is_reserved": 0, "lon": -77.03113933333333, "fusion_lon": 0.0, "is_disabled": 0, "fusion_lat": 0.0, "bike_id": "0ba3d76ad8bd8c328662085041fff76a", "rental_uris": {"ios": "https://dc.lft.to/lastmile_qr_scan", "android": "https://dc.lft.to/lastmile_qr_scan"}}, {"name": "3a63a04665b4ea8a133edf2f425f03c3", "type": "electric_scooter", "lat": 38.91996316666667, "is_reserved": 0, "lon": -76.9580895, "fusion_lon": 0.0, "is_disabled": 0, "fusion_lat": 0.0, "bike_id": "3a63a04665b4ea8a133edf2f425f03c3", "rental_uris": {"ios": "https://dc.lft.to/lastmile_qr_scan", "android": "https://dc.lft.to/lastmile_qr_scan"}}, {"name": "bb013af9ab29056dd04dae4d6051a02f", "type": "electric_scooter", "lat": 38.9622455, "is_reserved": 0, "lon": -77.029789, "fusion_lon": 0.0, "is_disabled": 0, "fusion_lat": 0.0, "bike_id": "bb013af9ab29056dd04dae4d6051a02f", "rental_uris": {"ios": "https://dc.lft.to/lastmile_qr_scan", "android": "https://dc.lft.to/lastmile_qr_scan"}}, {"name": "48741becbe52d082fb7d64e9a63e512b", "type": "electric_scooter", "lat": 38.890132333333334, "is_reserved": 0, "lon": -76.93732316666667, "fusion_lon": 0.0, "is_disabled": 0, "fusion_lat": 0.0, "bike_id": "48741becbe52d082fb7d64e9a63e512b", "rental_uris": {"ios": "https://dc.lft.to/lastmile_qr_scan", "android": "https://dc.lft.to/lastmile_qr_scan"}}, {"name": "b9f5d1922a3468ba72ecd86b4bd99f70", "type": "electric_bike", "lat": 38.90093983333333, "is_reserved": 0, "lon": -76.98011966666667, "fusion_lon": 0.0, "is_disabled": 0, "fusion_lat": 0.0, "bike_id": "b9f5d1922a3468ba72ecd86b4bd99f70", "rental_uris": {"ios": "https://dc.lft.to/lastmile_qr_scan", "android": "https://dc.lft.to/lastmile_qr_scan"}}, {"name": "c1fcd8f306b6178738c3efca63767986", "type": "electric_scooter", "lat": 38.9032745, "is_reserved": 0, "lon": -77.03861933333333, "fusion_lon": 0.0, "is_disabled": 0, "fusion_lat": 0.0, "bike_id": "c1fcd8f306b6178738c3efca63767986", "rental_uris": {"ios": "https://dc.lft.to/lastmile_qr_scan", "android": "https://dc.lft.to/lastmile_qr_scan"}}, {"name": "90b634a5e828ff9e93f3b0a15bbab802", "type": "electric_scooter", "lat": 38.8904815, "is_reserved": 0, "lon": -76.93749666666666, "fusion_lon": 0.0, "is_disabled": 0, "fusion_lat": 0.0, "bike_id": "90b634a5e828ff9e93f3b0a15bbab802", "rental_uris": {"ios": "https://dc.lft.to/lastmile_qr_scan", "android": "https://dc.lft.to/lastmile_qr_scan"}}, {"name": "75f7179de3022f529ddc8b8787b0c492", "type": "electric_scooter", "lat": 38.90998366666667, "is_reserved": 0, "lon": -77.02185433333334, "fusion_lon": 0.0, "is_disabled": 0, "fusion_lat": 0.0, "bike_id": "75f7179de3022f529ddc8b8787b0c492", "rental_uris": {"ios": "https://dc.lft.to/lastmile_qr_scan", "android": "https://dc.lft.to/lastmile_qr_scan"}}, {"name": "01216056ff55e4581be9847122d0a439", "type": "electric_scooter", "lat": 38.900206833333336, "is_reserved": 0, "lon": -76.99448483333333, "fusion_lon": 0.0, "is_disabled": 0, "fusion_lat": 0.0, "bike_id": "01216056ff55e4581be9847122d0a439", "rental_uris": {"ios": "https://dc.lft.to/lastmile_qr_scan", "android": "https://dc.lft.to/lastmile_qr_scan"}}, {"name": "9725fbf8e690d01a099355936774ee50", "type": "electric_scooter", "lat": 38.93223283333333, "is_reserved": 0, "lon": -77.03539016666667, "fusion_lon": 0.0, "is_disabled": 0, "fusion_lat": 0.0, "bike_id": "9725fbf8e690d01a099355936774ee50", "rental_uris": {"ios": "https://dc.lft.to/lastmile_qr_scan", "android": "https://dc.lft.to/lastmile_qr_scan"}}, {"name": "15435dfc9f40e9e7acf00b2d5ad8581d", "type": "electric_scooter", "lat": 38.92551383333333, "is_reserved": 0, "lon": -77.0326575, "fusion_lon": 0.0, "is_disabled": 0, "fusion_lat": 0.0, "bike_id": "15435dfc9f40e9e7acf00b2d5ad8581d", "rental_uris": {"ios": "https://dc.lft.to/lastmile_qr_scan", "android": "https://dc.lft.to/lastmile_qr_scan"}}, {"name": "0c1f4042100d37d77a63b59c54c58622", "type": "electric_bike", "lat": 38.97321633333333, "is_reserved": 0, "lon": -77.0214685, "fusion_lon": 0.0, "is_disabled": 0, "fusion_lat": 0.0, "bike_id": "0c1f4042100d37d77a63b59c54c58622", "rental_uris": {"ios": "https://dc.lft.to/lastmile_qr_scan", "android": "https://dc.lft.to/lastmile_qr_scan"}}, {"name": "fafeaf9b95c992192c08f08df131771f", "type": "electric_scooter", "lat": 38.917088666666665, "is_reserved": 0, "lon": -77.0323215, "fusion_lon": 0.0, "is_disabled": 0, "fusion_lat": 0.0, "bike_id": "fafeaf9b95c992192c08f08df131771f", "rental_uris": {"ios": "https://dc.lft.to/lastmile_qr_scan", "android": "https://dc.lft.to/lastmile_qr_scan"}}, {"name": "92738713396df18fa7e0f7ecea007732", "type": "electric_scooter", "lat": 38.904207166666666, "is_reserved": 0, "lon": -77.02954316666667, "fusion_lon": 0.0, "is_disabled": 0, "fusion_lat": 0.0, "bike_id": "92738713396df18fa7e0f7ecea007732", "rental_uris": {"ios": "https://dc.lft.to/lastmile_qr_scan", "android": "https://dc.lft.to/lastmile_qr_scan"}}, {"name": "2b6a2727a8dd5dd411316acbbdb6bce8", "type": "electric_bike", "lat": 38.83858166666667, "is_reserved": 0, "lon": -77.088663, "fusion_lon": 0.0, "is_disabled": 0, "fusion_lat": 0.0, "bike_id": "2b6a2727a8dd5dd411316acbbdb6bce8", "rental_uris": {"ios": "https://dc.lft.to/lastmile_qr_scan", "android": "https://dc.lft.to/lastmile_qr_scan"}}, {"name": "9990a151fb63ed7c93d93d7bc3e167a2", "type": "electric_scooter", "lat": 38.930677833333334, "is_reserved": 0, "lon": -77.03800966666667, "fusion_lon": 0.0, "is_disabled": 0, "fusion_lat": 0.0, "bike_id": "9990a151fb63ed7c93d93d7bc3e167a2", "rental_uris": {"ios": "https://dc.lft.to/lastmile_qr_scan", "android": "https://dc.lft.to/lastmile_qr_scan"}}, {"name": "8463052194d221af5da691c998cc7233", "type": "electric_scooter", "lat": 38.9237505, "is_reserved": 0, "lon": -77.0517785, "fusion_lon": 0.0, "is_disabled": 0, "fusion_lat": 0.0, "bike_id": "8463052194d221af5da691c998cc7233", "rental_uris": {"ios": "https://dc.lft.to/lastmile_qr_scan", "android": "https://dc.lft.to/lastmile_qr_scan"}}, {"name": "271267120f063ce71326b8b94ac523fb", "type": "electric_scooter", "lat": 38.906016, "is_reserved": 0, "lon": -77.05147183333334, "fusion_lon": 0.0, "is_disabled": 0, "fusion_lat": 0.0, "bike_id": "271267120f063ce71326b8b94ac523fb", "rental_uris": {"ios": "https://dc.lft.to/lastmile_qr_scan", "android": "https://dc.lft.to/lastmile_qr_scan"}}, {"name": "5d589d257cdd2446b9411ad1e755c181", "type": "electric_scooter", "lat": 38.88501216666667, "is_reserved": 0, "lon": -77.005675, "fusion_lon": 0.0, "is_disabled": 0, "fusion_lat": 0.0, "bike_id": "5d589d257cdd2446b9411ad1e755c181", "rental_uris": {"ios": "https://dc.lft.to/lastmile_qr_scan", "android": "https://dc.lft.to/lastmile_qr_scan"}}, {"name": "3c5be62a1b247b1ba7714d75a09e0418", "type": "electric_scooter", "lat": 38.89665883333333, "is_reserved": 0, "lon": -77.05096766666666, "fusion_lon": 0.0, "is_disabled": 0, "fusion_lat": 0.0, "bike_id": "3c5be62a1b247b1ba7714d75a09e0418", "rental_uris": {"ios": "https://dc.lft.to/lastmile_qr_scan", "android": "https://dc.lft.to/lastmile_qr_scan"}}, {"name": "9b2611a19ee50ddade7b3aa00870764e", "type": "electric_scooter", "lat": 38.87330333333333, "is_reserved": 0, "lon": -76.96787066666667, "fusion_lon": 0.0, "is_disabled": 0, "fusion_lat": 0.0, "bike_id": "9b2611a19ee50ddade7b3aa00870764e", "rental_uris": {"ios": "https://dc.lft.to/lastmile_qr_scan", "android": "https://dc.lft.to/lastmile_qr_scan"}}, {"name": "b3741ebfd1f7a8ec0d48cb69af0ca600", "type": "electric_scooter", "lat": 38.939637833333336, "is_reserved": 0, "lon": -77.0532105, "fusion_lon": 0.0, "is_disabled": 0, "fusion_lat": 0.0, "bike_id": "b3741ebfd1f7a8ec0d48cb69af0ca600", "rental_uris": {"ios": "https://dc.lft.to/lastmile_qr_scan", "android": "https://dc.lft.to/lastmile_qr_scan"}}, {"name": "38c4e1e04c29c4d87f96d5f493dee224", "type": "electric_scooter", "lat": 38.90305016666667, "is_reserved": 0, "lon": -77.06031466666667, "fusion_lon": 0.0, "is_disabled": 0, "fusion_lat": 0.0, "bike_id": "38c4e1e04c29c4d87f96d5f493dee224", "rental_uris": {"ios": "https://dc.lft.to/lastmile_qr_scan", "android": "https://dc.lft.to/lastmile_qr_scan"}}, {"name": "4968fb62eb8c4b86c23e4c47551beda2", "type": "electric_scooter", "lat": 38.91555666666667, "is_reserved": 0, "lon": -77.04152816666667, "fusion_lon": 0.0, "is_disabled": 0, "fusion_lat": 0.0, "bike_id": "4968fb62eb8c4b86c23e4c47551beda2", "rental_uris": {"ios": "https://dc.lft.to/lastmile_qr_scan", "android": "https://dc.lft.to/lastmile_qr_scan"}}, {"name": "07a25db2208501a42d227660f648fb4f", "type": "electric_scooter", "lat": 38.935757833333334, "is_reserved": 0, "lon": -77.03283816666666, "fusion_lon": 0.0, "is_disabled": 0, "fusion_lat": 0.0, "bike_id": "07a25db2208501a42d227660f648fb4f", "rental_uris": {"ios": "https://dc.lft.to/lastmile_qr_scan", "android": "https://dc.lft.to/lastmile_qr_scan"}}, {"name": "33144d4d4624c48e0e6b0a6ab0608a95", "type": "electric_scooter", "lat": 38.879198333333335, "is_reserved": 0, "lon": -77.01342916666667, "fusion_lon": 0.0, "is_disabled": 0, "fusion_lat": 0.0, "bike_id": "33144d4d4624c48e0e6b0a6ab0608a95", "rental_uris": {"ios": "https://dc.lft.to/lastmile_qr_scan", "android": "https://dc.lft.to/lastmile_qr_scan"}}, {"name": "81426c416de994c680c6ae112b095cf6", "type": "electric_bike", "lat": 38.8960565, "is_reserved": 0, "lon": -77.03166666666667, "fusion_lon": 0.0, "is_disabled": 0, "fusion_lat": 0.0, "bike_id": "81426c416de994c680c6ae112b095cf6", "rental_uris": {"ios": "https://dc.lft.to/lastmile_qr_scan", "android": "https://dc.lft.to/lastmile_qr_scan"}}, {"name": "42b6d1ca47223f1c839301975baef4c4", "type": "electric_scooter", "lat": 38.916902, "is_reserved": 0, "lon": -77.0342395, "fusion_lon": 0.0, "is_disabled": 0, "fusion_lat": 0.0, "bike_id": "42b6d1ca47223f1c839301975baef4c4", "rental_uris": {"ios": "https://dc.lft.to/lastmile_qr_scan", "android": "https://dc.lft.to/lastmile_qr_scan"}}, {"name": "2e686bd7f4a7e46fd3b0be3ec1c4f0cc", "type": "electric_scooter", "lat": 38.9012325, "is_reserved": 0, "lon": -77.04997666666667, "fusion_lon": 0.0, "is_disabled": 0, "fusion_lat": 0.0, "bike_id": "2e686bd7f4a7e46fd3b0be3ec1c4f0cc", "rental_uris": {"ios": "https://dc.lft.to/lastmile_qr_scan", "android": "https://dc.lft.to/lastmile_qr_scan"}}, {"name": "8d1cc5d4ff853be7377b999120976a29", "type": "electric_scooter", "lat": 38.90154066666667, "is_reserved": 0, "lon": -76.97512533333334, "fusion_lon": 0.0, "is_disabled": 0, "fusion_lat": 0.0, "bike_id": "8d1cc5d4ff853be7377b999120976a29", "rental_uris": {"ios": "https://dc.lft.to/lastmile_qr_scan", "android": "https://dc.lft.to/lastmile_qr_scan"}}, {"name": "81188bfbbc7c3934076ad61d19446060", "type": "electric_scooter", "lat": 38.93331716666667, "is_reserved": 0, "lon": -77.032875, "fusion_lon": 0.0, "is_disabled": 0, "fusion_lat": 0.0, "bike_id": "81188bfbbc7c3934076ad61d19446060", "rental_uris": {"ios": "https://dc.lft.to/lastmile_qr_scan", "android": "https://dc.lft.to/lastmile_qr_scan"}}, {"name": "423f5729631f65437d815000845a84fe", "type": "electric_scooter", "lat": 38.897426833333334, "is_reserved": 0, "lon": -77.02605616666666, "fusion_lon": 0.0, "is_disabled": 0, "fusion_lat": 0.0, "bike_id": "423f5729631f65437d815000845a84fe", "rental_uris": {"ios": "https://dc.lft.to/lastmile_qr_scan", "android": "https://dc.lft.to/lastmile_qr_scan"}}, {"name": "2a0611e39005ac3fe3dcf53c89d5b7eb", "type": "electric_bike", "lat": 38.83800733333333, "is_reserved": 0, "lon": -76.9983485, "fusion_lon": 0.0, "is_disabled": 0, "fusion_lat": 0.0, "bike_id": "2a0611e39005ac3fe3dcf53c89d5b7eb", "rental_uris": {"ios": "https://dc.lft.to/lastmile_qr_scan", "android": "https://dc.lft.to/lastmile_qr_scan"}}, {"name": "1d18663d568c0e2a6a029fe0345c0942", "type": "electric_bike", "lat": 38.902984000000004, "is_reserved": 0, "lon": -76.94440916666667, "fusion_lon": 0.0, "is_disabled": 0, "fusion_lat": 0.0, "bike_id": "1d18663d568c0e2a6a029fe0345c0942", "rental_uris": {"ios": "https://dc.lft.to/lastmile_qr_scan", "android": "https://dc.lft.to/lastmile_qr_scan"}}, {"name": "510b653bf2fcd2d4e00169c347eb2911", "type": "electric_scooter", "lat": 38.9097125, "is_reserved": 0, "lon": -77.03384383333334, "fusion_lon": 0.0, "is_disabled": 0, "fusion_lat": 0.0, "bike_id": "510b653bf2fcd2d4e00169c347eb2911", "rental_uris": {"ios": "https://dc.lft.to/lastmile_qr_scan", "android": "https://dc.lft.to/lastmile_qr_scan"}}, {"name": "beca631c71f08c8082e4c9ef700f0b15", "type": "electric_scooter", "lat": 38.905546333333334, "is_reserved": 0, "lon": -77.039863, "fusion_lon": 0.0, "is_disabled": 0, "fusion_lat": 0.0, "bike_id": "beca631c71f08c8082e4c9ef700f0b15", "rental_uris": {"ios": "https://dc.lft.to/lastmile_qr_scan", "android": "https://dc.lft.to/lastmile_qr_scan"}}, {"name": "3ab1742effeab4cf909786ba6e0c36a0", "type": "electric_scooter", "lat": 38.917131499999996, "is_reserved": 0, "lon": -77.03858283333334, "fusion_lon": 0.0, "is_disabled": 0, "fusion_lat": 0.0, "bike_id": "3ab1742effeab4cf909786ba6e0c36a0", "rental_uris": {"ios": "https://dc.lft.to/lastmile_qr_scan", "android": "https://dc.lft.to/lastmile_qr_scan"}}, {"name": "79e07925a9a3db800ac51ef316d3113c", "type": "electric_scooter", "lat": 38.90577233333333, "is_reserved": 0, "lon": -77.040028, "fusion_lon": 0.0, "is_disabled": 0, "fusion_lat": 0.0, "bike_id": "79e07925a9a3db800ac51ef316d3113c", "rental_uris": {"ios": "https://dc.lft.to/lastmile_qr_scan", "android": "https://dc.lft.to/lastmile_qr_scan"}}, {"name": "8c6a2d0653e97358a2b3d269469ef775", "type": "electric_scooter", "lat": 38.92834, "is_reserved": 0, "lon": -77.0140405, "fusion_lon": 0.0, "is_disabled": 0, "fusion_lat": 0.0, "bike_id": "8c6a2d0653e97358a2b3d269469ef775", "rental_uris": {"ios": "https://dc.lft.to/lastmile_qr_scan", "android": "https://dc.lft.to/lastmile_qr_scan"}}, {"name": "390728d6bcc69488fa304ecfdaf78a3a", "type": "electric_scooter", "lat": 38.868270833333334, "is_reserved": 0, "lon": -76.986174, "fusion_lon": 0.0, "is_disabled": 0, "fusion_lat": 0.0, "bike_id": "390728d6bcc69488fa304ecfdaf78a3a", "rental_uris": {"ios": "https://dc.lft.to/lastmile_qr_scan", "android": "https://dc.lft.to/lastmile_qr_scan"}}, {"name": "892a99595aab1ca7c2b5dbd0d7968bad", "type": "electric_scooter", "lat": 38.88535683333333, "is_reserved": 0, "lon": -77.00581383333333, "fusion_lon": 0.0, "is_disabled": 0, "fusion_lat": 0.0, "bike_id": "892a99595aab1ca7c2b5dbd0d7968bad", "rental_uris": {"ios": "https://dc.lft.to/lastmile_qr_scan", "android": "https://dc.lft.to/lastmile_qr_scan"}}, {"name": "795e5618e35cec3eb0056f56396a0325", "type": "electric_scooter", "lat": 38.932819333333335, "is_reserved": 0, "lon": -77.02982366666667, "fusion_lon": 0.0, "is_disabled": 0, "fusion_lat": 0.0, "bike_id": "795e5618e35cec3eb0056f56396a0325", "rental_uris": {"ios": "https://dc.lft.to/lastmile_qr_scan", "android": "https://dc.lft.to/lastmile_qr_scan"}}, {"name": "44ba653de8ab5a708d1a1d3d979df90f", "type": "electric_scooter", "lat": 38.90584666666667, "is_reserved": 0, "lon": -77.04443066666667, "fusion_lon": 0.0, "is_disabled": 0, "fusion_lat": 0.0, "bike_id": "44ba653de8ab5a708d1a1d3d979df90f", "rental_uris": {"ios": "https://dc.lft.to/lastmile_qr_scan", "android": "https://dc.lft.to/lastmile_qr_scan"}}, {"name": "152558cd0b5fff07a1b8f5c735c28c4c", "type": "electric_scooter", "lat": 38.883009666666666, "is_reserved": 0, "lon": -76.9861585, "fusion_lon": 0.0, "is_disabled": 0, "fusion_lat": 0.0, "bike_id": "152558cd0b5fff07a1b8f5c735c28c4c", "rental_uris": {"ios": "https://dc.lft.to/lastmile_qr_scan", "android": "https://dc.lft.to/lastmile_qr_scan"}}, {"name": "81378f6b53460387d0380193fa3bd997", "type": "electric_scooter", "lat": 38.9084705, "is_reserved": 0, "lon": -77.03184316666666, "fusion_lon": 0.0, "is_disabled": 0, "fusion_lat": 0.0, "bike_id": "81378f6b53460387d0380193fa3bd997", "rental_uris": {"ios": "https://dc.lft.to/lastmile_qr_scan", "android": "https://dc.lft.to/lastmile_qr_scan"}}, {"name": "0c4b68c59b223573763a90590a5f1b22", "type": "electric_scooter", "lat": 38.927184, "is_reserved": 0, "lon": -77.02087333333333, "fusion_lon": 0.0, "is_disabled": 0, "fusion_lat": 0.0, "bike_id": "0c4b68c59b223573763a90590a5f1b22", "rental_uris": {"ios": "https://dc.lft.to/lastmile_qr_scan", "android": "https://dc.lft.to/lastmile_qr_scan"}}, {"name": "a5fd8c16e788d89bc4e2f49d53d53993", "type": "electric_scooter", "lat": 38.899666333333336, "is_reserved": 0, "lon": -77.02107216666667, "fusion_lon": 0.0, "is_disabled": 0, "fusion_lat": 0.0, "bike_id": "a5fd8c16e788d89bc4e2f49d53d53993", "rental_uris": {"ios": "https://dc.lft.to/lastmile_qr_scan", "android": "https://dc.lft.to/lastmile_qr_scan"}}, {"name": "d3194399e28bafd62079e181b20d5197", "type": "electric_scooter", "lat": 38.9027475, "is_reserved": 0, "lon": -77.03639016666666, "fusion_lon": 0.0, "is_disabled": 0, "fusion_lat": 0.0, "bike_id": "d3194399e28bafd62079e181b20d5197", "rental_uris": {"ios": "https://dc.lft.to/lastmile_qr_scan", "android": "https://dc.lft.to/lastmile_qr_scan"}}, {"name": "fdad808db820634ba7335898d225a6ae", "type": "electric_scooter", "lat": 38.917212666666664, "is_reserved": 0, "lon": -77.036602, "fusion_lon": 0.0, "is_disabled": 0, "fusion_lat": 0.0, "bike_id": "fdad808db820634ba7335898d225a6ae", "rental_uris": {"ios": "https://dc.lft.to/lastmile_qr_scan", "android": "https://dc.lft.to/lastmile_qr_scan"}}, {"name": "0bf3fb3d5374636a3ec57bf4975d0a80", "type": "electric_bike", "lat": 39.05636333333333, "is_reserved": 0, "lon": -77.12529233333333, "fusion_lon": 0.0, "is_disabled": 0, "fusion_lat": 0.0, "bike_id": "0bf3fb3d5374636a3ec57bf4975d0a80", "rental_uris": {"ios": "https://dc.lft.to/lastmile_qr_scan", "android": "https://dc.lft.to/lastmile_qr_scan"}}, {"name": "44cb0b97ac574ee01ca0ee0fe68001db", "type": "electric_scooter", "lat": 38.90567333333333, "is_reserved": 0, "lon": -77.02520433333333, "fusion_lon": 0.0, "is_disabled": 0, "fusion_lat": 0.0, "bike_id": "44cb0b97ac574ee01ca0ee0fe68001db", "rental_uris": {"ios": "https://dc.lft.to/lastmile_qr_scan", "android": "https://dc.lft.to/lastmile_qr_scan"}}, {"name": "703b36c915898771e101379d168c6122", "type": "electric_bike", "lat": 38.87677466666667, "is_reserved": 0, "lon": -77.01454883333334, "fusion_lon": 0.0, "is_disabled": 0, "fusion_lat": 0.0, "bike_id": "703b36c915898771e101379d168c6122", "rental_uris": {"ios": "https://dc.lft.to/lastmile_qr_scan", "android": "https://dc.lft.to/lastmile_qr_scan"}}, {"name": "3f609ccbb12e4554b7cf05a245c9f379", "type": "electric_scooter", "lat": 38.9138685, "is_reserved": 0, "lon": -77.045694, "fusion_lon": 0.0, "is_disabled": 0, "fusion_lat": 0.0, "bike_id": "3f609ccbb12e4554b7cf05a245c9f379", "rental_uris": {"ios": "https://dc.lft.to/lastmile_qr_scan", "android": "https://dc.lft.to/lastmile_qr_scan"}}, {"name": "944c7d51742467fb22e172ffab318c96", "type": "electric_scooter", "lat": 38.895489, "is_reserved": 0, "lon": -77.00926983333333, "fusion_lon": 0.0, "is_disabled": 0, "fusion_lat": 0.0, "bike_id": "944c7d51742467fb22e172ffab318c96", "rental_uris": {"ios": "https://dc.lft.to/lastmile_qr_scan", "android": "https://dc.lft.to/lastmile_qr_scan"}}, {"name": "84de673f898bb921214ab10a78afda69", "type": "electric_bike", "lat": 38.959549, "is_reserved": 0, "lon": -77.10093166666667, "fusion_lon": 0.0, "is_disabled": 0, "fusion_lat": 0.0, "bike_id": "84de673f898bb921214ab10a78afda69", "rental_uris": {"ios": "https://dc.lft.to/lastmile_qr_scan", "android": "https://dc.lft.to/lastmile_qr_scan"}}, {"name": "9e9d9c711468403110e2ee8bb37f48a4", "type": "electric_scooter", "lat": 38.8849615, "is_reserved": 0, "lon": -77.007305, "fusion_lon": 0.0, "is_disabled": 0, "fusion_lat": 0.0, "bike_id": "9e9d9c711468403110e2ee8bb37f48a4", "rental_uris": {"ios": "https://dc.lft.to/lastmile_qr_scan", "android": "https://dc.lft.to/lastmile_qr_scan"}}, {"name": "eb8a1e8278e34a15793a1698ad3f5000", "type": "electric_scooter", "lat": 38.932024, "is_reserved": 0, "lon": -77.0274165, "fusion_lon": 0.0, "is_disabled": 0, "fusion_lat": 0.0, "bike_id": "eb8a1e8278e34a15793a1698ad3f5000", "rental_uris": {"ios": "https://dc.lft.to/lastmile_qr_scan", "android": "https://dc.lft.to/lastmile_qr_scan"}}, {"name": "25aaa04e3a4731dff1144573b471ac3d", "type": "electric_scooter", "lat": 38.911896666666664, "is_reserved": 0, "lon": -77.060992, "fusion_lon": 0.0, "is_disabled": 0, "fusion_lat": 0.0, "bike_id": "25aaa04e3a4731dff1144573b471ac3d", "rental_uris": {"ios": "https://dc.lft.to/lastmile_qr_scan", "android": "https://dc.lft.to/lastmile_qr_scan"}}, {"name": "d519800cc1c6c3adcbb42ae4ac3fba20", "type": "electric_bike", "lat": 38.935832166666664, "is_reserved": 0, "lon": -77.05850516666666, "fusion_lon": 0.0, "is_disabled": 0, "fusion_lat": 0.0, "bike_id": "d519800cc1c6c3adcbb42ae4ac3fba20", "rental_uris": {"ios": "https://dc.lft.to/lastmile_qr_scan", "android": "https://dc.lft.to/lastmile_qr_scan"}}, {"name": "9d4874e61f0e6c68ddd0df5b66cdd243", "type": "electric_scooter", "lat": 38.90266466666667, "is_reserved": 0, "lon": -77.029873, "fusion_lon": 0.0, "is_disabled": 0, "fusion_lat": 0.0, "bike_id": "9d4874e61f0e6c68ddd0df5b66cdd243", "rental_uris": {"ios": "https://dc.lft.to/lastmile_qr_scan", "android": "https://dc.lft.to/lastmile_qr_scan"}}, {"name": "5a86f0bce4842f9f54705cfce44611c7", "type": "electric_scooter", "lat": 38.90669916666667, "is_reserved": 0, "lon": -77.00904333333334, "fusion_lon": 0.0, "is_disabled": 0, "fusion_lat": 0.0, "bike_id": "5a86f0bce4842f9f54705cfce44611c7", "rental_uris": {"ios": "https://dc.lft.to/lastmile_qr_scan", "android": "https://dc.lft.to/lastmile_qr_scan"}}, {"name": "7d1a301224ec5e2931b3505925bde920", "type": "electric_scooter", "lat": 38.902717333333335, "is_reserved": 0, "lon": -77.05964133333333, "fusion_lon": 0.0, "is_disabled": 0, "fusion_lat": 0.0, "bike_id": "7d1a301224ec5e2931b3505925bde920", "rental_uris": {"ios": "https://dc.lft.to/lastmile_qr_scan", "android": "https://dc.lft.to/lastmile_qr_scan"}}, {"name": "925235ffb72633d62119444f7aa4d2bc", "type": "electric_scooter", "lat": 38.897346, "is_reserved": 0, "lon": -77.02725216666667, "fusion_lon": 0.0, "is_disabled": 0, "fusion_lat": 0.0, "bike_id": "925235ffb72633d62119444f7aa4d2bc", "rental_uris": {"ios": "https://dc.lft.to/lastmile_qr_scan", "android": "https://dc.lft.to/lastmile_qr_scan"}}, {"name": "6fc02414993f1b23d7b286918ebc3c24", "type": "electric_scooter", "lat": 38.911957666666666, "is_reserved": 0, "lon": -77.07319533333333, "fusion_lon": 0.0, "is_disabled": 0, "fusion_lat": 0.0, "bike_id": "6fc02414993f1b23d7b286918ebc3c24", "rental_uris": {"ios": "https://dc.lft.to/lastmile_qr_scan", "android": "https://dc.lft.to/lastmile_qr_scan"}}, {"name": "f8014e788a36a646098e8cfed1a9d5d5", "type": "electric_scooter", "lat": 38.90412283333333, "is_reserved": 0, "lon": -77.04370233333333, "fusion_lon": 0.0, "is_disabled": 0, "fusion_lat": 0.0, "bike_id": "f8014e788a36a646098e8cfed1a9d5d5", "rental_uris": {"ios": "https://dc.lft.to/lastmile_qr_scan", "android": "https://dc.lft.to/lastmile_qr_scan"}}, {"name": "5b4edd40eff681cc093917662ceb004a", "type": "electric_scooter", "lat": 38.92211316666667, "is_reserved": 0, "lon": -77.0423955, "fusion_lon": 0.0, "is_disabled": 0, "fusion_lat": 0.0, "bike_id": "5b4edd40eff681cc093917662ceb004a", "rental_uris": {"ios": "https://dc.lft.to/lastmile_qr_scan", "android": "https://dc.lft.to/lastmile_qr_scan"}}, {"name": "53cf66500bf245a44944872db1d495d5", "type": "electric_scooter", "lat": 38.929849, "is_reserved": 0, "lon": -77.0248585, "fusion_lon": 0.0, "is_disabled": 0, "fusion_lat": 0.0, "bike_id": "53cf66500bf245a44944872db1d495d5", "rental_uris": {"ios": "https://dc.lft.to/lastmile_qr_scan", "android": "https://dc.lft.to/lastmile_qr_scan"}}, {"name": "96180b795247245a151c9631809d9332", "type": "electric_scooter", "lat": 38.9214915, "is_reserved": 0, "lon": -77.03534366666666, "fusion_lon": 0.0, "is_disabled": 0, "fusion_lat": 0.0, "bike_id": "96180b795247245a151c9631809d9332", "rental_uris": {"ios": "https://dc.lft.to/lastmile_qr_scan", "android": "https://dc.lft.to/lastmile_qr_scan"}}, {"name": "adf1fb5123eff13ebcdbd04a094d28e5", "type": "electric_scooter", "lat": 38.89507616666667, "is_reserved": 0, "lon": -77.00337433333333, "fusion_lon": 0.0, "is_disabled": 0, "fusion_lat": 0.0, "bike_id": "adf1fb5123eff13ebcdbd04a094d28e5", "rental_uris": {"ios": "https://dc.lft.to/lastmile_qr_scan", "android": "https://dc.lft.to/lastmile_qr_scan"}}, {"name": "eefa7442fe3b50f8f2433fdc337a3960", "type": "electric_scooter", "lat": 38.903599166666666, "is_reserved": 0, "lon": -77.03757283333333, "fusion_lon": 0.0, "is_disabled": 0, "fusion_lat": 0.0, "bike_id": "eefa7442fe3b50f8f2433fdc337a3960", "rental_uris": {"ios": "https://dc.lft.to/lastmile_qr_scan", "android": "https://dc.lft.to/lastmile_qr_scan"}}, {"name": "dee6e3feb60ef84507282c19f3a91a1d", "type": "electric_scooter", "lat": 38.9261165, "is_reserved": 0, "lon": -77.02164616666667, "fusion_lon": 0.0, "is_disabled": 0, "fusion_lat": 0.0, "bike_id": "dee6e3feb60ef84507282c19f3a91a1d", "rental_uris": {"ios": "https://dc.lft.to/lastmile_qr_scan", "android": "https://dc.lft.to/lastmile_qr_scan"}}, {"name": "fd024d56091907a0e96a1d811b0d6e06", "type": "electric_scooter", "lat": 38.915531333333334, "is_reserved": 0, "lon": -77.031736, "fusion_lon": 0.0, "is_disabled": 0, "fusion_lat": 0.0, "bike_id": "fd024d56091907a0e96a1d811b0d6e06", "rental_uris": {"ios": "https://dc.lft.to/lastmile_qr_scan", "android": "https://dc.lft.to/lastmile_qr_scan"}}, {"name": "54806318c6d422a0a6cfd15c2483d2eb", "type": "electric_scooter", "lat": 38.92518833333333, "is_reserved": 0, "lon": -77.023551, "fusion_lon": 0.0, "is_disabled": 0, "fusion_lat": 0.0, "bike_id": "54806318c6d422a0a6cfd15c2483d2eb", "rental_uris": {"ios": "https://dc.lft.to/lastmile_qr_scan", "android": "https://dc.lft.to/lastmile_qr_scan"}}, {"name": "d4ecbbdc8936fef74232abe170562b10", "type": "electric_scooter", "lat": 38.904107333333336, "is_reserved": 0, "lon": -77.03658333333334, "fusion_lon": 0.0, "is_disabled": 0, "fusion_lat": 0.0, "bike_id": "d4ecbbdc8936fef74232abe170562b10", "rental_uris": {"ios": "https://dc.lft.to/lastmile_qr_scan", "android": "https://dc.lft.to/lastmile_qr_scan"}}, {"name": "a7e3dfabf33d6191c0c8eaad6724728f", "type": "electric_scooter", "lat": 38.898852, "is_reserved": 0, "lon": -76.931763, "fusion_lon": 0.0, "is_disabled": 0, "fusion_lat": 0.0, "bike_id": "a7e3dfabf33d6191c0c8eaad6724728f", "rental_uris": {"ios": "https://dc.lft.to/lastmile_qr_scan", "android": "https://dc.lft.to/lastmile_qr_scan"}}, {"name": "90dc35cdb85eae2b049be042a82caca2", "type": "electric_scooter", "lat": 38.8624295, "is_reserved": 0, "lon": -76.99499566666667, "fusion_lon": 0.0, "is_disabled": 0, "fusion_lat": 0.0, "bike_id": "90dc35cdb85eae2b049be042a82caca2", "rental_uris": {"ios": "https://dc.lft.to/lastmile_qr_scan", "android": "https://dc.lft.to/lastmile_qr_scan"}}, {"name": "000bb6d15d7607c08d58b7339219a74b", "type": "electric_scooter", "lat": 38.893526666666666, "is_reserved": 0, "lon": -77.00334216666667, "fusion_lon": 0.0, "is_disabled": 0, "fusion_lat": 0.0, "bike_id": "000bb6d15d7607c08d58b7339219a74b", "rental_uris": {"ios": "https://dc.lft.to/lastmile_qr_scan", "android": "https://dc.lft.to/lastmile_qr_scan"}}, {"name": "04b5d620d01dbce725ccfa35e5fb108c", "type": "electric_scooter", "lat": 38.8442165, "is_reserved": 0, "lon": -76.99778333333333, "fusion_lon": 0.0, "is_disabled": 0, "fusion_lat": 0.0, "bike_id": "04b5d620d01dbce725ccfa35e5fb108c", "rental_uris": {"ios": "https://dc.lft.to/lastmile_qr_scan", "android": "https://dc.lft.to/lastmile_qr_scan"}}, {"name": "2d416ef5aa3a62a68b7c6e1e646409d1", "type": "electric_scooter", "lat": 38.872141, "is_reserved": 0, "lon": -77.00573266666666, "fusion_lon": 0.0, "is_disabled": 0, "fusion_lat": 0.0, "bike_id": "2d416ef5aa3a62a68b7c6e1e646409d1", "rental_uris": {"ios": "https://dc.lft.to/lastmile_qr_scan", "android": "https://dc.lft.to/lastmile_qr_scan"}}, {"name": "778fe332bf5dff724bf4b7e883d59922", "type": "electric_bike", "lat": 38.960963, "is_reserved": 0, "lon": -77.08532133333334, "fusion_lon": 0.0, "is_disabled": 0, "fusion_lat": 0.0, "bike_id": "778fe332bf5dff724bf4b7e883d59922", "rental_uris": {"ios": "https://dc.lft.to/lastmile_qr_scan", "android": "https://dc.lft.to/lastmile_qr_scan"}}, {"name": "e4dd16939f5c741b6c07f7b18647b6d4", "type": "electric_scooter", "lat": 38.915843833333334, "is_reserved": 0, "lon": -76.98384966666667, "fusion_lon": 0.0, "is_disabled": 0, "fusion_lat": 0.0, "bike_id": "e4dd16939f5c741b6c07f7b18647b6d4", "rental_uris": {"ios": "https://dc.lft.to/lastmile_qr_scan", "android": "https://dc.lft.to/lastmile_qr_scan"}}, {"name": "e0f21ec9f5701afaf59e27c44c874451", "type": "electric_scooter", "lat": 38.89506033333333, "is_reserved": 0, "lon": -77.00338183333334, "fusion_lon": 0.0, "is_disabled": 0, "fusion_lat": 0.0, "bike_id": "e0f21ec9f5701afaf59e27c44c874451", "rental_uris": {"ios": "https://dc.lft.to/lastmile_qr_scan", "android": "https://dc.lft.to/lastmile_qr_scan"}}, {"name": "6050ac90d103821bedef9d33f900f13b", "type": "electric_scooter", "lat": 38.89677616666667, "is_reserved": 0, "lon": -76.99621933333333, "fusion_lon": 0.0, "is_disabled": 0, "fusion_lat": 0.0, "bike_id": "6050ac90d103821bedef9d33f900f13b", "rental_uris": {"ios": "https://dc.lft.to/lastmile_qr_scan", "android": "https://dc.lft.to/lastmile_qr_scan"}}, {"name": "3d169449b960df989cd65a221453f81f", "type": "electric_scooter", "lat": 38.920030833333335, "is_reserved": 0, "lon": -77.03890583333333, "fusion_lon": 0.0, "is_disabled": 0, "fusion_lat": 0.0, "bike_id": "3d169449b960df989cd65a221453f81f", "rental_uris": {"ios": "https://dc.lft.to/lastmile_qr_scan", "android": "https://dc.lft.to/lastmile_qr_scan"}}, {"name": "06bac491b0a76e110a370a8b96023f5c", "type": "electric_scooter", "lat": 38.8973575, "is_reserved": 0, "lon": -77.01312966666667, "fusion_lon": 0.0, "is_disabled": 0, "fusion_lat": 0.0, "bike_id": "06bac491b0a76e110a370a8b96023f5c", "rental_uris": {"ios": "https://dc.lft.to/lastmile_qr_scan", "android": "https://dc.lft.to/lastmile_qr_scan"}}, {"name": "6df50a4d33bf2a896c5d619858e27b6b", "type": "electric_scooter", "lat": 38.9032735, "is_reserved": 0, "lon": -77.0386955, "fusion_lon": 0.0, "is_disabled": 0, "fusion_lat": 0.0, "bike_id": "6df50a4d33bf2a896c5d619858e27b6b", "rental_uris": {"ios": "https://dc.lft.to/lastmile_qr_scan", "android": "https://dc.lft.to/lastmile_qr_scan"}}, {"name": "ba6fb11f39ad991cf6ad8e194184e604", "type": "electric_scooter", "lat": 38.9274425, "is_reserved": 0, "lon": -77.0120355, "fusion_lon": 0.0, "is_disabled": 0, "fusion_lat": 0.0, "bike_id": "ba6fb11f39ad991cf6ad8e194184e604", "rental_uris": {"ios": "https://dc.lft.to/lastmile_qr_scan", "android": "https://dc.lft.to/lastmile_qr_scan"}}, {"name": "0d06a1b0d9001c126585a17f5fbf840f", "type": "electric_scooter", "lat": 38.9133315, "is_reserved": 0, "lon": -77.03123566666666, "fusion_lon": 0.0, "is_disabled": 0, "fusion_lat": 0.0, "bike_id": "0d06a1b0d9001c126585a17f5fbf840f", "rental_uris": {"ios": "https://dc.lft.to/lastmile_qr_scan", "android": "https://dc.lft.to/lastmile_qr_scan"}}, {"name": "a6c0af3bd89c4396980f963e52aa6de0", "type": "electric_scooter", "lat": 38.90366316666667, "is_reserved": 0, "lon": -77.01905116666667, "fusion_lon": 0.0, "is_disabled": 0, "fusion_lat": 0.0, "bike_id": "a6c0af3bd89c4396980f963e52aa6de0", "rental_uris": {"ios": "https://dc.lft.to/lastmile_qr_scan", "android": "https://dc.lft.to/lastmile_qr_scan"}}, {"name": "5403ff7c49f2c9015ba2a905b415b069", "type": "electric_scooter", "lat": 38.940485333333335, "is_reserved": 0, "lon": -77.09270766666667, "fusion_lon": 0.0, "is_disabled": 0, "fusion_lat": 0.0, "bike_id": "5403ff7c49f2c9015ba2a905b415b069", "rental_uris": {"ios": "https://dc.lft.to/lastmile_qr_scan", "android": "https://dc.lft.to/lastmile_qr_scan"}}, {"name": "d6a38840673bd85e2a83be53bead0add", "type": "electric_scooter", "lat": 38.9742255, "is_reserved": 0, "lon": -77.01527183333333, "fusion_lon": 0.0, "is_disabled": 0, "fusion_lat": 0.0, "bike_id": "d6a38840673bd85e2a83be53bead0add", "rental_uris": {"ios": "https://dc.lft.to/lastmile_qr_scan", "android": "https://dc.lft.to/lastmile_qr_scan"}}, {"name": "2f45f4e17f58f6d70daa935d9b4d89d9", "type": "electric_scooter", "lat": 38.86694083333333, "is_reserved": 0, "lon": -76.98718383333333, "fusion_lon": 0.0, "is_disabled": 0, "fusion_lat": 0.0, "bike_id": "2f45f4e17f58f6d70daa935d9b4d89d9", "rental_uris": {"ios": "https://dc.lft.to/lastmile_qr_scan", "android": "https://dc.lft.to/lastmile_qr_scan"}}, {"name": "fb313d0e219245701d040edc2f80ba30", "type": "electric_scooter", "lat": 38.84292833333333, "is_reserved": 0, "lon": -76.9994645, "fusion_lon": 0.0, "is_disabled": 0, "fusion_lat": 0.0, "bike_id": "fb313d0e219245701d040edc2f80ba30", "rental_uris": {"ios": "https://dc.lft.to/lastmile_qr_scan", "android": "https://dc.lft.to/lastmile_qr_scan"}}, {"name": "ffc7a7d77e9550dd440666d2f3482618", "type": "electric_scooter", "lat": 38.91911, "is_reserved": 0, "lon": -77.02420333333333, "fusion_lon": 0.0, "is_disabled": 0, "fusion_lat": 0.0, "bike_id": "ffc7a7d77e9550dd440666d2f3482618", "rental_uris": {"ios": "https://dc.lft.to/lastmile_qr_scan", "android": "https://dc.lft.to/lastmile_qr_scan"}}, {"name": "98f49218977e445ab9d2e2fe33796f6c", "type": "electric_scooter", "lat": 38.9174025, "is_reserved": 0, "lon": -77.007495, "fusion_lon": 0.0, "is_disabled": 0, "fusion_lat": 0.0, "bike_id": "98f49218977e445ab9d2e2fe33796f6c", "rental_uris": {"ios": "https://dc.lft.to/lastmile_qr_scan", "android": "https://dc.lft.to/lastmile_qr_scan"}}, {"name": "4751cfece35f5d03b2cf84e339671c33", "type": "electric_scooter", "lat": 38.884119166666665, "is_reserved": 0, "lon": -76.97605166666666, "fusion_lon": 0.0, "is_disabled": 0, "fusion_lat": 0.0, "bike_id": "4751cfece35f5d03b2cf84e339671c33", "rental_uris": {"ios": "https://dc.lft.to/lastmile_qr_scan", "android": "https://dc.lft.to/lastmile_qr_scan"}}, {"name": "fcf7d64ca69dc517bfc73e8530a1fc41", "type": "electric_scooter", "lat": 38.90740316666667, "is_reserved": 0, "lon": -77.00106316666667, "fusion_lon": 0.0, "is_disabled": 0, "fusion_lat": 0.0, "bike_id": "fcf7d64ca69dc517bfc73e8530a1fc41", "rental_uris": {"ios": "https://dc.lft.to/lastmile_qr_scan", "android": "https://dc.lft.to/lastmile_qr_scan"}}, {"name": "e88e2d4a3d02571996eb75992b42cd2c", "type": "electric_scooter", "lat": 38.92436716666667, "is_reserved": 0, "lon": -77.04254383333334, "fusion_lon": 0.0, "is_disabled": 0, "fusion_lat": 0.0, "bike_id": "e88e2d4a3d02571996eb75992b42cd2c", "rental_uris": {"ios": "https://dc.lft.to/lastmile_qr_scan", "android": "https://dc.lft.to/lastmile_qr_scan"}}, {"name": "5b3a87448f9056f7250270aeaea7a4c1", "type": "electric_scooter", "lat": 38.90275416666667, "is_reserved": 0, "lon": -77.03857583333334, "fusion_lon": 0.0, "is_disabled": 0, "fusion_lat": 0.0, "bike_id": "5b3a87448f9056f7250270aeaea7a4c1", "rental_uris": {"ios": "https://dc.lft.to/lastmile_qr_scan", "android": "https://dc.lft.to/lastmile_qr_scan"}}, {"name": "ab15a9678b29ddbba546cfe70bc4e17d", "type": "electric_scooter", "lat": 38.86957916666667, "is_reserved": 0, "lon": -77.01375716666666, "fusion_lon": 0.0, "is_disabled": 0, "fusion_lat": 0.0, "bike_id": "ab15a9678b29ddbba546cfe70bc4e17d", "rental_uris": {"ios": "https://dc.lft.to/lastmile_qr_scan", "android": "https://dc.lft.to/lastmile_qr_scan"}}, {"name": "99966bc63057834eb0b5c0b621d25537", "type": "electric_scooter", "lat": 38.89724566666666, "is_reserved": 0, "lon": -77.02730666666666, "fusion_lon": 0.0, "is_disabled": 0, "fusion_lat": 0.0, "bike_id": "99966bc63057834eb0b5c0b621d25537", "rental_uris": {"ios": "https://dc.lft.to/lastmile_qr_scan", "android": "https://dc.lft.to/lastmile_qr_scan"}}, {"name": "de89ced4650db77774c029ebb799c083", "type": "electric_bike", "lat": 38.95929133333333, "is_reserved": 0, "lon": -76.9253525, "fusion_lon": 0.0, "is_disabled": 0, "fusion_lat": 0.0, "bike_id": "de89ced4650db77774c029ebb799c083", "rental_uris": {"ios": "https://dc.lft.to/lastmile_qr_scan", "android": "https://dc.lft.to/lastmile_qr_scan"}}, {"name": "bd0b4dd93f8ca6d0e0ea94e7331d1f99", "type": "electric_scooter", "lat": 38.9749385, "is_reserved": 0, "lon": -77.01687666666666, "fusion_lon": 0.0, "is_disabled": 0, "fusion_lat": 0.0, "bike_id": "bd0b4dd93f8ca6d0e0ea94e7331d1f99", "rental_uris": {"ios": "https://dc.lft.to/lastmile_qr_scan", "android": "https://dc.lft.to/lastmile_qr_scan"}}, {"name": "4c44c36a3f012d4ab9218e7ff0fce316", "type": "electric_scooter", "lat": 38.89690433333333, "is_reserved": 0, "lon": -77.029537, "fusion_lon": 0.0, "is_disabled": 0, "fusion_lat": 0.0, "bike_id": "4c44c36a3f012d4ab9218e7ff0fce316", "rental_uris": {"ios": "https://dc.lft.to/lastmile_qr_scan", "android": "https://dc.lft.to/lastmile_qr_scan"}}, {"name": "d3ba3b90e4d6999ddcd1fd30f5cd40e1", "type": "electric_scooter", "lat": 38.92012783333333, "is_reserved": 0, "lon": -77.03776166666667, "fusion_lon": 0.0, "is_disabled": 0, "fusion_lat": 0.0, "bike_id": "d3ba3b90e4d6999ddcd1fd30f5cd40e1", "rental_uris": {"ios": "https://dc.lft.to/lastmile_qr_scan", "android": "https://dc.lft.to/lastmile_qr_scan"}}, {"name": "bdc6a2dbf69827352c68e889c752e86a", "type": "electric_scooter", "lat": 38.91236116666666, "is_reserved": 0, "lon": -77.04876883333333, "fusion_lon": 0.0, "is_disabled": 0, "fusion_lat": 0.0, "bike_id": "bdc6a2dbf69827352c68e889c752e86a", "rental_uris": {"ios": "https://dc.lft.to/lastmile_qr_scan", "android": "https://dc.lft.to/lastmile_qr_scan"}}, {"name": "12c7344e7b3f066079c849417b19ac4f", "type": "electric_scooter", "lat": 38.900266, "is_reserved": 0, "lon": -76.99855016666666, "fusion_lon": 0.0, "is_disabled": 0, "fusion_lat": 0.0, "bike_id": "12c7344e7b3f066079c849417b19ac4f", "rental_uris": {"ios": "https://dc.lft.to/lastmile_qr_scan", "android": "https://dc.lft.to/lastmile_qr_scan"}}, {"name": "19515664458b689e5b0ce23f7dae2b7d", "type": "electric_scooter", "lat": 38.93251733333334, "is_reserved": 0, "lon": -77.04004983333333, "fusion_lon": 0.0, "is_disabled": 0, "fusion_lat": 0.0, "bike_id": "19515664458b689e5b0ce23f7dae2b7d", "rental_uris": {"ios": "https://dc.lft.to/lastmile_qr_scan", "android": "https://dc.lft.to/lastmile_qr_scan"}}, {"name": "f1573715ab247f5729fb24662ebdb7e8", "type": "electric_scooter", "lat": 38.91077216666667, "is_reserved": 0, "lon": -77.030368, "fusion_lon": 0.0, "is_disabled": 0, "fusion_lat": 0.0, "bike_id": "f1573715ab247f5729fb24662ebdb7e8", "rental_uris": {"ios": "https://dc.lft.to/lastmile_qr_scan", "android": "https://dc.lft.to/lastmile_qr_scan"}}, {"name": "81131c953c5ba2d7256b257efec5479d", "type": "electric_scooter", "lat": 38.86693566666667, "is_reserved": 0, "lon": -76.98718983333333, "fusion_lon": 0.0, "is_disabled": 0, "fusion_lat": 0.0, "bike_id": "81131c953c5ba2d7256b257efec5479d", "rental_uris": {"ios": "https://dc.lft.to/lastmile_qr_scan", "android": "https://dc.lft.to/lastmile_qr_scan"}}, {"name": "52d305622ac610bc45158528eaa67380", "type": "electric_scooter", "lat": 38.8839775, "is_reserved": 0, "lon": -76.930395, "fusion_lon": 0.0, "is_disabled": 0, "fusion_lat": 0.0, "bike_id": "52d305622ac610bc45158528eaa67380", "rental_uris": {"ios": "https://dc.lft.to/lastmile_qr_scan", "android": "https://dc.lft.to/lastmile_qr_scan"}}, {"name": "453062622912d9fee8c5066627a9927f", "type": "electric_bike", "lat": 38.945480833333335, "is_reserved": 0, "lon": -76.89540766666667, "fusion_lon": 0.0, "is_disabled": 0, "fusion_lat": 0.0, "bike_id": "453062622912d9fee8c5066627a9927f", "rental_uris": {"ios": "https://dc.lft.to/lastmile_qr_scan", "android": "https://dc.lft.to/lastmile_qr_scan"}}, {"name": "0a39f3de7c83d7b8154757305e499fc7", "type": "electric_bike", "lat": 38.97326533333333, "is_reserved": 0, "lon": -77.02148766666667, "fusion_lon": 0.0, "is_disabled": 0, "fusion_lat": 0.0, "bike_id": "0a39f3de7c83d7b8154757305e499fc7", "rental_uris": {"ios": "https://dc.lft.to/lastmile_qr_scan", "android": "https://dc.lft.to/lastmile_qr_scan"}}, {"name": "80edbe9ac3168d80ff82b43f5650a5fa", "type": "electric_scooter", "lat": 38.844241333333336, "is_reserved": 0, "lon": -76.99777533333334, "fusion_lon": 0.0, "is_disabled": 0, "fusion_lat": 0.0, "bike_id": "80edbe9ac3168d80ff82b43f5650a5fa", "rental_uris": {"ios": "https://dc.lft.to/lastmile_qr_scan", "android": "https://dc.lft.to/lastmile_qr_scan"}}, {"name": "f36fcbdcdd3a0fd93b5dc65958bbe7b1", "type": "electric_scooter", "lat": 38.92568333333333, "is_reserved": 0, "lon": -77.02720116666667, "fusion_lon": 0.0, "is_disabled": 0, "fusion_lat": 0.0, "bike_id": "f36fcbdcdd3a0fd93b5dc65958bbe7b1", "rental_uris": {"ios": "https://dc.lft.to/lastmile_qr_scan", "android": "https://dc.lft.to/lastmile_qr_scan"}}, {"name": "351faaa279a216aae8abb76603bbdf90", "type": "electric_scooter", "lat": 38.91115416666667, "is_reserved": 0, "lon": -77.03294433333333, "fusion_lon": 0.0, "is_disabled": 0, "fusion_lat": 0.0, "bike_id": "351faaa279a216aae8abb76603bbdf90", "rental_uris": {"ios": "https://dc.lft.to/lastmile_qr_scan", "android": "https://dc.lft.to/lastmile_qr_scan"}}, {"name": "e9e9178f3872ce7e69cdd793b21b7ae3", "type": "electric_scooter", "lat": 38.93330666666667, "is_reserved": 0, "lon": -77.032684, "fusion_lon": 0.0, "is_disabled": 0, "fusion_lat": 0.0, "bike_id": "e9e9178f3872ce7e69cdd793b21b7ae3", "rental_uris": {"ios": "https://dc.lft.to/lastmile_qr_scan", "android": "https://dc.lft.to/lastmile_qr_scan"}}, {"name": "f4ef893748af50a58d03603dfc037c80", "type": "electric_scooter", "lat": 38.873572333333335, "is_reserved": 0, "lon": -76.9716715, "fusion_lon": 0.0, "is_disabled": 0, "fusion_lat": 0.0, "bike_id": "f4ef893748af50a58d03603dfc037c80", "rental_uris": {"ios": "https://dc.lft.to/lastmile_qr_scan", "android": "https://dc.lft.to/lastmile_qr_scan"}}, {"name": "90caa86b4e237a441cde4bc21e548688", "type": "electric_scooter", "lat": 38.9054905, "is_reserved": 0, "lon": -77.04755683333333, "fusion_lon": 0.0, "is_disabled": 0, "fusion_lat": 0.0, "bike_id": "90caa86b4e237a441cde4bc21e548688", "rental_uris": {"ios": "https://dc.lft.to/lastmile_qr_scan", "android": "https://dc.lft.to/lastmile_qr_scan"}}, {"name": "26369f8715cb8b0d399fa96e88f31680", "type": "electric_scooter", "lat": 38.89828, "is_reserved": 0, "lon": -76.94632433333334, "fusion_lon": 0.0, "is_disabled": 0, "fusion_lat": 0.0, "bike_id": "26369f8715cb8b0d399fa96e88f31680", "rental_uris": {"ios": "https://dc.lft.to/lastmile_qr_scan", "android": "https://dc.lft.to/lastmile_qr_scan"}}, {"name": "e342f1eaddece0e17f5cfaa191abce1b", "type": "electric_bike", "lat": 38.90544166666667, "is_reserved": 0, "lon": -77.05717383333334, "fusion_lon": 0.0, "is_disabled": 0, "fusion_lat": 0.0, "bike_id": "e342f1eaddece0e17f5cfaa191abce1b", "rental_uris": {"ios": "https://dc.lft.to/lastmile_qr_scan", "android": "https://dc.lft.to/lastmile_qr_scan"}}, {"name": "e31a96008e474e64797610d621be404c", "type": "electric_scooter", "lat": 38.910087, "is_reserved": 0, "lon": -76.99389516666666, "fusion_lon": 0.0, "is_disabled": 0, "fusion_lat": 0.0, "bike_id": "e31a96008e474e64797610d621be404c", "rental_uris": {"ios": "https://dc.lft.to/lastmile_qr_scan", "android": "https://dc.lft.to/lastmile_qr_scan"}}, {"name": "74bf069fa9e7accd83df43379b5bc1a2", "type": "electric_scooter", "lat": 38.906974, "is_reserved": 0, "lon": -77.04507383333333, "fusion_lon": 0.0, "is_disabled": 0, "fusion_lat": 0.0, "bike_id": "74bf069fa9e7accd83df43379b5bc1a2", "rental_uris": {"ios": "https://dc.lft.to/lastmile_qr_scan", "android": "https://dc.lft.to/lastmile_qr_scan"}}, {"name": "89b6d6b081508127c36f93a69fb54eea", "type": "electric_scooter", "lat": 38.894837833333334, "is_reserved": 0, "lon": -77.01222516666667, "fusion_lon": 0.0, "is_disabled": 0, "fusion_lat": 0.0, "bike_id": "89b6d6b081508127c36f93a69fb54eea", "rental_uris": {"ios": "https://dc.lft.to/lastmile_qr_scan", "android": "https://dc.lft.to/lastmile_qr_scan"}}, {"name": "d3cb10d26b3107ccddf6a105922d9b62", "type": "electric_scooter", "lat": 38.933336833333335, "is_reserved": 0, "lon": -77.032826, "fusion_lon": 0.0, "is_disabled": 0, "fusion_lat": 0.0, "bike_id": "d3cb10d26b3107ccddf6a105922d9b62", "rental_uris": {"ios": "https://dc.lft.to/lastmile_qr_scan", "android": "https://dc.lft.to/lastmile_qr_scan"}}, {"name": "45fffe30cef89150f7eef5ee880b6ca0", "type": "electric_scooter", "lat": 38.916949833333334, "is_reserved": 0, "lon": -77.02262833333333, "fusion_lon": 0.0, "is_disabled": 0, "fusion_lat": 0.0, "bike_id": "45fffe30cef89150f7eef5ee880b6ca0", "rental_uris": {"ios": "https://dc.lft.to/lastmile_qr_scan", "android": "https://dc.lft.to/lastmile_qr_scan"}}, {"name": "9337eac2f7a4a0c9d1fedaea296abd70", "type": "electric_scooter", "lat": 38.9270595, "is_reserved": 0, "lon": -77.020802, "fusion_lon": 0.0, "is_disabled": 0, "fusion_lat": 0.0, "bike_id": "9337eac2f7a4a0c9d1fedaea296abd70", "rental_uris": {"ios": "https://dc.lft.to/lastmile_qr_scan", "android": "https://dc.lft.to/lastmile_qr_scan"}}, {"name": "61031faa3517ee70dac9829dd17127ab", "type": "electric_scooter", "lat": 38.933312, "is_reserved": 0, "lon": -77.034611, "fusion_lon": 0.0, "is_disabled": 0, "fusion_lat": 0.0, "bike_id": "61031faa3517ee70dac9829dd17127ab", "rental_uris": {"ios": "https://dc.lft.to/lastmile_qr_scan", "android": "https://dc.lft.to/lastmile_qr_scan"}}, {"name": "d0276ba75937c68992b0c95b4d58191c", "type": "electric_scooter", "lat": 38.934470166666664, "is_reserved": 0, "lon": -77.02845066666667, "fusion_lon": 0.0, "is_disabled": 0, "fusion_lat": 0.0, "bike_id": "d0276ba75937c68992b0c95b4d58191c", "rental_uris": {"ios": "https://dc.lft.to/lastmile_qr_scan", "android": "https://dc.lft.to/lastmile_qr_scan"}}, {"name": "20b44a6b9c08681d74b51fb3d73ff72e", "type": "electric_scooter", "lat": 38.91572016666667, "is_reserved": 0, "lon": -77.0318255, "fusion_lon": 0.0, "is_disabled": 0, "fusion_lat": 0.0, "bike_id": "20b44a6b9c08681d74b51fb3d73ff72e", "rental_uris": {"ios": "https://dc.lft.to/lastmile_qr_scan", "android": "https://dc.lft.to/lastmile_qr_scan"}}, {"name": "457fb1bda955502087d53fe2076d7b6a", "type": "electric_bike", "lat": 38.897741833333335, "is_reserved": 0, "lon": -76.90445766666667, "fusion_lon": 0.0, "is_disabled": 0, "fusion_lat": 0.0, "bike_id": "457fb1bda955502087d53fe2076d7b6a", "rental_uris": {"ios": "https://dc.lft.to/lastmile_qr_scan", "android": "https://dc.lft.to/lastmile_qr_scan"}}, {"name": "1f346bbb44959b9a28b5a7721c135bfc", "type": "electric_scooter", "lat": 38.924679166666664, "is_reserved": 0, "lon": -77.03776166666667, "fusion_lon": 0.0, "is_disabled": 0, "fusion_lat": 0.0, "bike_id": "1f346bbb44959b9a28b5a7721c135bfc", "rental_uris": {"ios": "https://dc.lft.to/lastmile_qr_scan", "android": "https://dc.lft.to/lastmile_qr_scan"}}, {"name": "478b615010632fa393611095a65c985f", "type": "electric_scooter", "lat": 38.88340916666667, "is_reserved": 0, "lon": -77.01769816666666, "fusion_lon": 0.0, "is_disabled": 0, "fusion_lat": 0.0, "bike_id": "478b615010632fa393611095a65c985f", "rental_uris": {"ios": "https://dc.lft.to/lastmile_qr_scan", "android": "https://dc.lft.to/lastmile_qr_scan"}}, {"name": "22c97adb2fad745b06697ace922becc2", "type": "electric_scooter", "lat": 38.93251866666667, "is_reserved": 0, "lon": -77.0295025, "fusion_lon": 0.0, "is_disabled": 0, "fusion_lat": 0.0, "bike_id": "22c97adb2fad745b06697ace922becc2", "rental_uris": {"ios": "https://dc.lft.to/lastmile_qr_scan", "android": "https://dc.lft.to/lastmile_qr_scan"}}, {"name": "2d54f1e227eabe08acb024ddfd7b8429", "type": "electric_scooter", "lat": 38.9185015, "is_reserved": 0, "lon": -77.03902683333334, "fusion_lon": 0.0, "is_disabled": 0, "fusion_lat": 0.0, "bike_id": "2d54f1e227eabe08acb024ddfd7b8429", "rental_uris": {"ios": "https://dc.lft.to/lastmile_qr_scan", "android": "https://dc.lft.to/lastmile_qr_scan"}}, {"name": "624bb1b0a476acfcd7b98129a7295cf1", "type": "electric_bike", "lat": 38.95633933333333, "is_reserved": 0, "lon": -76.93883833333334, "fusion_lon": 0.0, "is_disabled": 0, "fusion_lat": 0.0, "bike_id": "624bb1b0a476acfcd7b98129a7295cf1", "rental_uris": {"ios": "https://dc.lft.to/lastmile_qr_scan", "android": "https://dc.lft.to/lastmile_qr_scan"}}, {"name": "b28761e2de300720cf40603ba0f38a91", "type": "electric_scooter", "lat": 38.899421333333336, "is_reserved": 0, "lon": -77.03199566666666, "fusion_lon": 0.0, "is_disabled": 0, "fusion_lat": 0.0, "bike_id": "b28761e2de300720cf40603ba0f38a91", "rental_uris": {"ios": "https://dc.lft.to/lastmile_qr_scan", "android": "https://dc.lft.to/lastmile_qr_scan"}}, {"name": "3c79654268ccb1703996d78193914cfc", "type": "electric_scooter", "lat": 38.93119633333333, "is_reserved": 0, "lon": -77.03600016666667, "fusion_lon": 0.0, "is_disabled": 0, "fusion_lat": 0.0, "bike_id": "3c79654268ccb1703996d78193914cfc", "rental_uris": {"ios": "https://dc.lft.to/lastmile_qr_scan", "android": "https://dc.lft.to/lastmile_qr_scan"}}, {"name": "97a088c872335d886a6e6d6b37ab5444", "type": "electric_scooter", "lat": 38.897730833333334, "is_reserved": 0, "lon": -77.02695983333334, "fusion_lon": 0.0, "is_disabled": 0, "fusion_lat": 0.0, "bike_id": "97a088c872335d886a6e6d6b37ab5444", "rental_uris": {"ios": "https://dc.lft.to/lastmile_qr_scan", "android": "https://dc.lft.to/lastmile_qr_scan"}}, {"name": "a537139a08535e6f7646e891b6e556fb", "type": "electric_scooter", "lat": 38.89795316666667, "is_reserved": 0, "lon": -76.99163883333334, "fusion_lon": 0.0, "is_disabled": 0, "fusion_lat": 0.0, "bike_id": "a537139a08535e6f7646e891b6e556fb", "rental_uris": {"ios": "https://dc.lft.to/lastmile_qr_scan", "android": "https://dc.lft.to/lastmile_qr_scan"}}, {"name": "fae993b42a902c13b80d78ca669416ef", "type": "electric_scooter", "lat": 38.86694766666667, "is_reserved": 0, "lon": -76.98717216666667, "fusion_lon": 0.0, "is_disabled": 0, "fusion_lat": 0.0, "bike_id": "fae993b42a902c13b80d78ca669416ef", "rental_uris": {"ios": "https://dc.lft.to/lastmile_qr_scan", "android": "https://dc.lft.to/lastmile_qr_scan"}}, {"name": "5a67cc6d73aa47138606be482752c952", "type": "electric_scooter", "lat": 38.931027, "is_reserved": 0, "lon": -77.03469483333333, "fusion_lon": 0.0, "is_disabled": 0, "fusion_lat": 0.0, "bike_id": "5a67cc6d73aa47138606be482752c952", "rental_uris": {"ios": "https://dc.lft.to/lastmile_qr_scan", "android": "https://dc.lft.to/lastmile_qr_scan"}}, {"name": "545d54a408e0253886b118456ecfacea", "type": "electric_bike", "lat": 38.90365416666667, "is_reserved": 0, "lon": -77.03907383333333, "fusion_lon": 0.0, "is_disabled": 0, "fusion_lat": 0.0, "bike_id": "545d54a408e0253886b118456ecfacea", "rental_uris": {"ios": "https://dc.lft.to/lastmile_qr_scan", "android": "https://dc.lft.to/lastmile_qr_scan"}}, {"name": "0b7c10f457bc97e30ad46a01d710d17e", "type": "electric_scooter", "lat": 38.921534, "is_reserved": 0, "lon": -77.0242335, "fusion_lon": 0.0, "is_disabled": 0, "fusion_lat": 0.0, "bike_id": "0b7c10f457bc97e30ad46a01d710d17e", "rental_uris": {"ios": "https://dc.lft.to/lastmile_qr_scan", "android": "https://dc.lft.to/lastmile_qr_scan"}}, {"name": "f6797c36b63cd94a3ec3ae5ee800cc6f", "type": "electric_scooter", "lat": 38.89792666666666, "is_reserved": 0, "lon": -77.01206983333333, "fusion_lon": 0.0, "is_disabled": 0, "fusion_lat": 0.0, "bike_id": "f6797c36b63cd94a3ec3ae5ee800cc6f", "rental_uris": {"ios": "https://dc.lft.to/lastmile_qr_scan", "android": "https://dc.lft.to/lastmile_qr_scan"}}, {"name": "b1b7be7e09e2a181eee4ba427504a636", "type": "electric_scooter", "lat": 38.92340333333333, "is_reserved": 0, "lon": -77.04350483333333, "fusion_lon": 0.0, "is_disabled": 0, "fusion_lat": 0.0, "bike_id": "b1b7be7e09e2a181eee4ba427504a636", "rental_uris": {"ios": "https://dc.lft.to/lastmile_qr_scan", "android": "https://dc.lft.to/lastmile_qr_scan"}}, {"name": "1abd6583ec717ce4231bfa4e8b802143", "type": "electric_scooter", "lat": 38.937601, "is_reserved": 0, "lon": -77.02267683333334, "fusion_lon": 0.0, "is_disabled": 0, "fusion_lat": 0.0, "bike_id": "1abd6583ec717ce4231bfa4e8b802143", "rental_uris": {"ios": "https://dc.lft.to/lastmile_qr_scan", "android": "https://dc.lft.to/lastmile_qr_scan"}}, {"name": "b334c4df81359f1750c3a77282488e35", "type": "electric_scooter", "lat": 38.9307885, "is_reserved": 0, "lon": -77.02799433333334, "fusion_lon": 0.0, "is_disabled": 0, "fusion_lat": 0.0, "bike_id": "b334c4df81359f1750c3a77282488e35", "rental_uris": {"ios": "https://dc.lft.to/lastmile_qr_scan", "android": "https://dc.lft.to/lastmile_qr_scan"}}, {"name": "e322a418c574f25f8db673d26401e9d5", "type": "electric_scooter", "lat": 38.89820783333333, "is_reserved": 0, "lon": -76.9465315, "fusion_lon": 0.0, "is_disabled": 0, "fusion_lat": 0.0, "bike_id": "e322a418c574f25f8db673d26401e9d5", "rental_uris": {"ios": "https://dc.lft.to/lastmile_qr_scan", "android": "https://dc.lft.to/lastmile_qr_scan"}}, {"name": "003e34d277a5c09afd855b00f933b6f8", "type": "electric_scooter", "lat": 38.8665695, "is_reserved": 0, "lon": -76.99014783333334, "fusion_lon": 0.0, "is_disabled": 0, "fusion_lat": 0.0, "bike_id": "003e34d277a5c09afd855b00f933b6f8", "rental_uris": {"ios": "https://dc.lft.to/lastmile_qr_scan", "android": "https://dc.lft.to/lastmile_qr_scan"}}, {"name": "8b2ae87f01e401bf9410e10cba3a23ca", "type": "electric_scooter", "lat": 38.9008135, "is_reserved": 0, "lon": -77.05058016666666, "fusion_lon": 0.0, "is_disabled": 0, "fusion_lat": 0.0, "bike_id": "8b2ae87f01e401bf9410e10cba3a23ca", "rental_uris": {"ios": "https://dc.lft.to/lastmile_qr_scan", "android": "https://dc.lft.to/lastmile_qr_scan"}}, {"name": "288050fb114f5064bc9fa6767df8a200", "type": "electric_bike", "lat": 38.839861, "is_reserved": 0, "lon": -77.0056835, "fusion_lon": 0.0, "is_disabled": 0, "fusion_lat": 0.0, "bike_id": "288050fb114f5064bc9fa6767df8a200", "rental_uris": {"ios": "https://dc.lft.to/lastmile_qr_scan", "android": "https://dc.lft.to/lastmile_qr_scan"}}, {"name": "ead81075c4454c9efc639f2530f79c7f", "type": "electric_scooter", "lat": 38.900543, "is_reserved": 0, "lon": -77.051398, "fusion_lon": 0.0, "is_disabled": 0, "fusion_lat": 0.0, "bike_id": "ead81075c4454c9efc639f2530f79c7f", "rental_uris": {"ios": "https://dc.lft.to/lastmile_qr_scan", "android": "https://dc.lft.to/lastmile_qr_scan"}}, {"name": "80e3539a504e161b705cae7870d93e7e", "type": "electric_scooter", "lat": 38.91986883333333, "is_reserved": 0, "lon": -77.0346705, "fusion_lon": 0.0, "is_disabled": 0, "fusion_lat": 0.0, "bike_id": "80e3539a504e161b705cae7870d93e7e", "rental_uris": {"ios": "https://dc.lft.to/lastmile_qr_scan", "android": "https://dc.lft.to/lastmile_qr_scan"}}, {"name": "ac087e855a4e196ace2f90d97def5e7c", "type": "electric_scooter", "lat": 38.90533116666667, "is_reserved": 0, "lon": -77.05996083333334, "fusion_lon": 0.0, "is_disabled": 0, "fusion_lat": 0.0, "bike_id": "ac087e855a4e196ace2f90d97def5e7c", "rental_uris": {"ios": "https://dc.lft.to/lastmile_qr_scan", "android": "https://dc.lft.to/lastmile_qr_scan"}}, {"name": "2f45f6bf580001e85c5689ab1945df7c", "type": "electric_scooter", "lat": 38.901476833333334, "is_reserved": 0, "lon": -77.02915666666667, "fusion_lon": 0.0, "is_disabled": 0, "fusion_lat": 0.0, "bike_id": "2f45f6bf580001e85c5689ab1945df7c", "rental_uris": {"ios": "https://dc.lft.to/lastmile_qr_scan", "android": "https://dc.lft.to/lastmile_qr_scan"}}, {"name": "13e54b96ba09f7340ffa782aea655584", "type": "electric_scooter", "lat": 38.91680866666667, "is_reserved": 0, "lon": -77.02973683333333, "fusion_lon": 0.0, "is_disabled": 0, "fusion_lat": 0.0, "bike_id": "13e54b96ba09f7340ffa782aea655584", "rental_uris": {"ios": "https://dc.lft.to/lastmile_qr_scan", "android": "https://dc.lft.to/lastmile_qr_scan"}}, {"name": "6e802369df55e4a0689da27330e0ae15", "type": "electric_scooter", "lat": 38.92547666666667, "is_reserved": 0, "lon": -77.00095216666666, "fusion_lon": 0.0, "is_disabled": 0, "fusion_lat": 0.0, "bike_id": "6e802369df55e4a0689da27330e0ae15", "rental_uris": {"ios": "https://dc.lft.to/lastmile_qr_scan", "android": "https://dc.lft.to/lastmile_qr_scan"}}, {"name": "bb6336d271e7162c18f26a48b9110549", "type": "electric_scooter", "lat": 38.90534266666667, "is_reserved": 0, "lon": -77.06523, "fusion_lon": 0.0, "is_disabled": 0, "fusion_lat": 0.0, "bike_id": "bb6336d271e7162c18f26a48b9110549", "rental_uris": {"ios": "https://dc.lft.to/lastmile_qr_scan", "android": "https://dc.lft.to/lastmile_qr_scan"}}, {"name": "abd97dd02c8ab584d7ca16e04af8b7ac", "type": "electric_scooter", "lat": 38.90374833333333, "is_reserved": 0, "lon": -77.04486716666666, "fusion_lon": 0.0, "is_disabled": 0, "fusion_lat": 0.0, "bike_id": "abd97dd02c8ab584d7ca16e04af8b7ac", "rental_uris": {"ios": "https://dc.lft.to/lastmile_qr_scan", "android": "https://dc.lft.to/lastmile_qr_scan"}}, {"name": "15d4379e8ad7c2831ce17d2c32e5aa5d", "type": "electric_scooter", "lat": 38.899497, "is_reserved": 0, "lon": -77.052788, "fusion_lon": 0.0, "is_disabled": 0, "fusion_lat": 0.0, "bike_id": "15d4379e8ad7c2831ce17d2c32e5aa5d", "rental_uris": {"ios": "https://dc.lft.to/lastmile_qr_scan", "android": "https://dc.lft.to/lastmile_qr_scan"}}, {"name": "1cf40980ae3b994363553316ff812175", "type": "electric_scooter", "lat": 38.9226915, "is_reserved": 0, "lon": -77.01820483333333, "fusion_lon": 0.0, "is_disabled": 0, "fusion_lat": 0.0, "bike_id": "1cf40980ae3b994363553316ff812175", "rental_uris": {"ios": "https://dc.lft.to/lastmile_qr_scan", "android": "https://dc.lft.to/lastmile_qr_scan"}}, {"name": "3b9425350b910f3a7f142d3b1ae2285f", "type": "electric_scooter", "lat": 38.90123033333333, "is_reserved": 0, "lon": -76.99711783333333, "fusion_lon": 0.0, "is_disabled": 0, "fusion_lat": 0.0, "bike_id": "3b9425350b910f3a7f142d3b1ae2285f", "rental_uris": {"ios": "https://dc.lft.to/lastmile_qr_scan", "android": "https://dc.lft.to/lastmile_qr_scan"}}, {"name": "1aa0ef969cc2b4e234e2e22d7920d780", "type": "electric_scooter", "lat": 38.927083, "is_reserved": 0, "lon": -77.04049683333334, "fusion_lon": 0.0, "is_disabled": 0, "fusion_lat": 0.0, "bike_id": "1aa0ef969cc2b4e234e2e22d7920d780", "rental_uris": {"ios": "https://dc.lft.to/lastmile_qr_scan", "android": "https://dc.lft.to/lastmile_qr_scan"}}, {"name": "82c7d4489f41b700369faa3d6077e9b8", "type": "electric_scooter", "lat": 38.90958116666667, "is_reserved": 0, "lon": -77.046542, "fusion_lon": 0.0, "is_disabled": 0, "fusion_lat": 0.0, "bike_id": "82c7d4489f41b700369faa3d6077e9b8", "rental_uris": {"ios": "https://dc.lft.to/lastmile_qr_scan", "android": "https://dc.lft.to/lastmile_qr_scan"}}, {"name": "561c4a25944fc60c2de01503fcbc4fc2", "type": "electric_scooter", "lat": 38.95924483333334, "is_reserved": 0, "lon": -77.033276, "fusion_lon": 0.0, "is_disabled": 0, "fusion_lat": 0.0, "bike_id": "561c4a25944fc60c2de01503fcbc4fc2", "rental_uris": {"ios": "https://dc.lft.to/lastmile_qr_scan", "android": "https://dc.lft.to/lastmile_qr_scan"}}, {"name": "bbdb75e55f413bcc8d71cbc5fae5268a", "type": "electric_scooter", "lat": 38.90357866666667, "is_reserved": 0, "lon": -77.03829833333333, "fusion_lon": 0.0, "is_disabled": 0, "fusion_lat": 0.0, "bike_id": "bbdb75e55f413bcc8d71cbc5fae5268a", "rental_uris": {"ios": "https://dc.lft.to/lastmile_qr_scan", "android": "https://dc.lft.to/lastmile_qr_scan"}}, {"name": "ea9176abb982b0cb6988df59230036fc", "type": "electric_scooter", "lat": 38.905704166666666, "is_reserved": 0, "lon": -77.0218225, "fusion_lon": 0.0, "is_disabled": 0, "fusion_lat": 0.0, "bike_id": "ea9176abb982b0cb6988df59230036fc", "rental_uris": {"ios": "https://dc.lft.to/lastmile_qr_scan", "android": "https://dc.lft.to/lastmile_qr_scan"}}, {"name": "4400d7ee26c83d3cec029e491a661173", "type": "electric_scooter", "lat": 38.90572866666667, "is_reserved": 0, "lon": -77.03973283333333, "fusion_lon": 0.0, "is_disabled": 0, "fusion_lat": 0.0, "bike_id": "4400d7ee26c83d3cec029e491a661173", "rental_uris": {"ios": "https://dc.lft.to/lastmile_qr_scan", "android": "https://dc.lft.to/lastmile_qr_scan"}}, {"name": "9351ada10f69de05216233b2b0f0d098", "type": "electric_bike", "lat": 38.90502333333333, "is_reserved": 0, "lon": -77.06021716666666, "fusion_lon": 0.0, "is_disabled": 0, "fusion_lat": 0.0, "bike_id": "9351ada10f69de05216233b2b0f0d098", "rental_uris": {"ios": "https://dc.lft.to/lastmile_qr_scan", "android": "https://dc.lft.to/lastmile_qr_scan"}}, {"name": "df77240c90d1b4513484d02ace94f0d4", "type": "electric_scooter", "lat": 38.86199883333333, "is_reserved": 0, "lon": -76.99467366666667, "fusion_lon": 0.0, "is_disabled": 0, "fusion_lat": 0.0, "bike_id": "df77240c90d1b4513484d02ace94f0d4", "rental_uris": {"ios": "https://dc.lft.to/lastmile_qr_scan", "android": "https://dc.lft.to/lastmile_qr_scan"}}, {"name": "0356020f4dd18937f6db4320085d9def", "type": "electric_scooter", "lat": 38.914206166666666, "is_reserved": 0, "lon": -77.03902116666667, "fusion_lon": 0.0, "is_disabled": 0, "fusion_lat": 0.0, "bike_id": "0356020f4dd18937f6db4320085d9def", "rental_uris": {"ios": "https://dc.lft.to/lastmile_qr_scan", "android": "https://dc.lft.to/lastmile_qr_scan"}}, {"name": "286f93910108bd7bc10577c4577949c8", "type": "electric_scooter", "lat": 38.90028066666667, "is_reserved": 0, "lon": -77.01158266666667, "fusion_lon": 0.0, "is_disabled": 0, "fusion_lat": 0.0, "bike_id": "286f93910108bd7bc10577c4577949c8", "rental_uris": {"ios": "https://dc.lft.to/lastmile_qr_scan", "android": "https://dc.lft.to/lastmile_qr_scan"}}, {"name": "3644f4126dc1302903c1b4bde612eea2", "type": "electric_scooter", "lat": 38.929704666666666, "is_reserved": 0, "lon": -77.03265883333333, "fusion_lon": 0.0, "is_disabled": 0, "fusion_lat": 0.0, "bike_id": "3644f4126dc1302903c1b4bde612eea2", "rental_uris": {"ios": "https://dc.lft.to/lastmile_qr_scan", "android": "https://dc.lft.to/lastmile_qr_scan"}}, {"name": "a1fe4ee392a3ee406469f757ff4963e0", "type": "electric_scooter", "lat": 38.87734616666667, "is_reserved": 0, "lon": -76.97283783333333, "fusion_lon": 0.0, "is_disabled": 0, "fusion_lat": 0.0, "bike_id": "a1fe4ee392a3ee406469f757ff4963e0", "rental_uris": {"ios": "https://dc.lft.to/lastmile_qr_scan", "android": "https://dc.lft.to/lastmile_qr_scan"}}, {"name": "7d710b5865031197506c890ebe411f38", "type": "electric_scooter", "lat": 38.94829633333333, "is_reserved": 0, "lon": -77.02554583333334, "fusion_lon": 0.0, "is_disabled": 0, "fusion_lat": 0.0, "bike_id": "7d710b5865031197506c890ebe411f38", "rental_uris": {"ios": "https://dc.lft.to/lastmile_qr_scan", "android": "https://dc.lft.to/lastmile_qr_scan"}}, {"name": "a2daad0b94850efc0f26a34a6faf204e", "type": "electric_scooter", "lat": 38.90379866666667, "is_reserved": 0, "lon": -77.01755366666667, "fusion_lon": 0.0, "is_disabled": 0, "fusion_lat": 0.0, "bike_id": "a2daad0b94850efc0f26a34a6faf204e", "rental_uris": {"ios": "https://dc.lft.to/lastmile_qr_scan", "android": "https://dc.lft.to/lastmile_qr_scan"}}, {"name": "ffd151199582dce67ebf07d0bd82e905", "type": "electric_scooter", "lat": 38.93495816666667, "is_reserved": 0, "lon": -77.02723316666666, "fusion_lon": 0.0, "is_disabled": 0, "fusion_lat": 0.0, "bike_id": "ffd151199582dce67ebf07d0bd82e905", "rental_uris": {"ios": "https://dc.lft.to/lastmile_qr_scan", "android": "https://dc.lft.to/lastmile_qr_scan"}}, {"name": "9a640e0fc2e6fc5caf90a9090fb2b0d4", "type": "electric_scooter", "lat": 38.89477983333333, "is_reserved": 0, "lon": -77.05022416666667, "fusion_lon": 0.0, "is_disabled": 0, "fusion_lat": 0.0, "bike_id": "9a640e0fc2e6fc5caf90a9090fb2b0d4", "rental_uris": {"ios": "https://dc.lft.to/lastmile_qr_scan", "android": "https://dc.lft.to/lastmile_qr_scan"}}, {"name": "85d8af034b2387ea2fd4f608a35cd2ba", "type": "electric_scooter", "lat": 38.90448416666667, "is_reserved": 0, "lon": -77.02897883333333, "fusion_lon": 0.0, "is_disabled": 0, "fusion_lat": 0.0, "bike_id": "85d8af034b2387ea2fd4f608a35cd2ba", "rental_uris": {"ios": "https://dc.lft.to/lastmile_qr_scan", "android": "https://dc.lft.to/lastmile_qr_scan"}}, {"name": "a962b3091faaff5575b930e7da7fee33", "type": "electric_bike", "lat": 38.903406333333336, "is_reserved": 0, "lon": -77.04483483333334, "fusion_lon": 0.0, "is_disabled": 0, "fusion_lat": 0.0, "bike_id": "a962b3091faaff5575b930e7da7fee33", "rental_uris": {"ios": "https://dc.lft.to/lastmile_qr_scan", "android": "https://dc.lft.to/lastmile_qr_scan"}}, {"name": "667dfbde63552195012b1545730f5fdc", "type": "electric_scooter", "lat": 38.939725833333334, "is_reserved": 0, "lon": -77.03589566666666, "fusion_lon": 0.0, "is_disabled": 0, "fusion_lat": 0.0, "bike_id": "667dfbde63552195012b1545730f5fdc", "rental_uris": {"ios": "https://dc.lft.to/lastmile_qr_scan", "android": "https://dc.lft.to/lastmile_qr_scan"}}, {"name": "530984cb4f80c57ebf49e46e4406217a", "type": "electric_scooter", "lat": 38.93249316666667, "is_reserved": 0, "lon": -77.03284183333334, "fusion_lon": 0.0, "is_disabled": 0, "fusion_lat": 0.0, "bike_id": "530984cb4f80c57ebf49e46e4406217a", "rental_uris": {"ios": "https://dc.lft.to/lastmile_qr_scan", "android": "https://dc.lft.to/lastmile_qr_scan"}}, {"name": "7dd6f451f18565e268e3e41ae2df9d66", "type": "electric_scooter", "lat": 38.905836666666666, "is_reserved": 0, "lon": -77.03859716666666, "fusion_lon": 0.0, "is_disabled": 0, "fusion_lat": 0.0, "bike_id": "7dd6f451f18565e268e3e41ae2df9d66", "rental_uris": {"ios": "https://dc.lft.to/lastmile_qr_scan", "android": "https://dc.lft.to/lastmile_qr_scan"}}, {"name": "06c4ee94fe1716fb51b1db8044cb31af", "type": "electric_scooter", "lat": 38.924499, "is_reserved": 0, "lon": -77.03370416666667, "fusion_lon": 0.0, "is_disabled": 0, "fusion_lat": 0.0, "bike_id": "06c4ee94fe1716fb51b1db8044cb31af", "rental_uris": {"ios": "https://dc.lft.to/lastmile_qr_scan", "android": "https://dc.lft.to/lastmile_qr_scan"}}, {"name": "daa4647cdaa758b95dd55bd79926fb75", "type": "electric_scooter", "lat": 38.89525616666667, "is_reserved": 0, "lon": -77.03352866666667, "fusion_lon": 0.0, "is_disabled": 0, "fusion_lat": 0.0, "bike_id": "daa4647cdaa758b95dd55bd79926fb75", "rental_uris": {"ios": "https://dc.lft.to/lastmile_qr_scan", "android": "https://dc.lft.to/lastmile_qr_scan"}}, {"name": "1ff9e5bbb56622900469f6d6984e04d0", "type": "electric_bike", "lat": 38.94511383333333, "is_reserved": 0, "lon": -77.00681616666667, "fusion_lon": 0.0, "is_disabled": 0, "fusion_lat": 0.0, "bike_id": "1ff9e5bbb56622900469f6d6984e04d0", "rental_uris": {"ios": "https://dc.lft.to/lastmile_qr_scan", "android": "https://dc.lft.to/lastmile_qr_scan"}}, {"name": "84f02632d92bdd837273581538c64c2b", "type": "electric_scooter", "lat": 38.972366, "is_reserved": 0, "lon": -77.02712683333333, "fusion_lon": 0.0, "is_disabled": 0, "fusion_lat": 0.0, "bike_id": "84f02632d92bdd837273581538c64c2b", "rental_uris": {"ios": "https://dc.lft.to/lastmile_qr_scan", "android": "https://dc.lft.to/lastmile_qr_scan"}}, {"name": "24f1ad8494f9a2984c490397e48a9b82", "type": "electric_scooter", "lat": 38.90633583333333, "is_reserved": 0, "lon": -77.05142, "fusion_lon": 0.0, "is_disabled": 0, "fusion_lat": 0.0, "bike_id": "24f1ad8494f9a2984c490397e48a9b82", "rental_uris": {"ios": "https://dc.lft.to/lastmile_qr_scan", "android": "https://dc.lft.to/lastmile_qr_scan"}}, {"name": "4db2561241d87a406c626c441ef4547a", "type": "electric_scooter", "lat": 38.901526833333335, "is_reserved": 0, "lon": -77.0332495, "fusion_lon": 0.0, "is_disabled": 0, "fusion_lat": 0.0, "bike_id": "4db2561241d87a406c626c441ef4547a", "rental_uris": {"ios": "https://dc.lft.to/lastmile_qr_scan", "android": "https://dc.lft.to/lastmile_qr_scan"}}, {"name": "b15ccd25bcbd2002eb54f29b80ad00a9", "type": "electric_scooter", "lat": 38.91405833333334, "is_reserved": 0, "lon": -77.045701, "fusion_lon": 0.0, "is_disabled": 0, "fusion_lat": 0.0, "bike_id": "b15ccd25bcbd2002eb54f29b80ad00a9", "rental_uris": {"ios": "https://dc.lft.to/lastmile_qr_scan", "android": "https://dc.lft.to/lastmile_qr_scan"}}, {"name": "ec65ace204ece76ee752bedf63b084b2", "type": "electric_scooter", "lat": 38.85899083333334, "is_reserved": 0, "lon": -76.96699583333333, "fusion_lon": 0.0, "is_disabled": 0, "fusion_lat": 0.0, "bike_id": "ec65ace204ece76ee752bedf63b084b2", "rental_uris": {"ios": "https://dc.lft.to/lastmile_qr_scan", "android": "https://dc.lft.to/lastmile_qr_scan"}}, {"name": "7ce95c45ae40550f8b445fffc8ebc0d2", "type": "electric_scooter", "lat": 38.9244255, "is_reserved": 0, "lon": -77.0203965, "fusion_lon": 0.0, "is_disabled": 0, "fusion_lat": 0.0, "bike_id": "7ce95c45ae40550f8b445fffc8ebc0d2", "rental_uris": {"ios": "https://dc.lft.to/lastmile_qr_scan", "android": "https://dc.lft.to/lastmile_qr_scan"}}, {"name": "f4a24dffb8357a69400497e809900bbb", "type": "electric_scooter", "lat": 38.918014666666664, "is_reserved": 0, "lon": -77.03560916666666, "fusion_lon": 0.0, "is_disabled": 0, "fusion_lat": 0.0, "bike_id": "f4a24dffb8357a69400497e809900bbb", "rental_uris": {"ios": "https://dc.lft.to/lastmile_qr_scan", "android": "https://dc.lft.to/lastmile_qr_scan"}}, {"name": "b4d418bda999374d175bd19b14f177eb", "type": "electric_scooter", "lat": 38.894028166666665, "is_reserved": 0, "lon": -76.94802333333334, "fusion_lon": 0.0, "is_disabled": 0, "fusion_lat": 0.0, "bike_id": "b4d418bda999374d175bd19b14f177eb", "rental_uris": {"ios": "https://dc.lft.to/lastmile_qr_scan", "android": "https://dc.lft.to/lastmile_qr_scan"}}, {"name": "440399939920beb7b2a2fae2e175d618", "type": "electric_scooter", "lat": 38.931986, "is_reserved": 0, "lon": -77.038572, "fusion_lon": 0.0, "is_disabled": 0, "fusion_lat": 0.0, "bike_id": "440399939920beb7b2a2fae2e175d618", "rental_uris": {"ios": "https://dc.lft.to/lastmile_qr_scan", "android": "https://dc.lft.to/lastmile_qr_scan"}}, {"name": "ef8302ffc82a9813ccd78cc465c52a98", "type": "electric_scooter", "lat": 38.91953783333334, "is_reserved": 0, "lon": -77.03187316666667, "fusion_lon": 0.0, "is_disabled": 0, "fusion_lat": 0.0, "bike_id": "ef8302ffc82a9813ccd78cc465c52a98", "rental_uris": {"ios": "https://dc.lft.to/lastmile_qr_scan", "android": "https://dc.lft.to/lastmile_qr_scan"}}, {"name": "861259b937231aca481f1973b920198a", "type": "electric_scooter", "lat": 38.86408316666667, "is_reserved": 0, "lon": -76.9804725, "fusion_lon": 0.0, "is_disabled": 0, "fusion_lat": 0.0, "bike_id": "861259b937231aca481f1973b920198a", "rental_uris": {"ios": "https://dc.lft.to/lastmile_qr_scan", "android": "https://dc.lft.to/lastmile_qr_scan"}}, {"name": "543804d2c7d819537786600e401dfcc5", "type": "electric_scooter", "lat": 38.89993616666667, "is_reserved": 0, "lon": -76.99511666666666, "fusion_lon": 0.0, "is_disabled": 0, "fusion_lat": 0.0, "bike_id": "543804d2c7d819537786600e401dfcc5", "rental_uris": {"ios": "https://dc.lft.to/lastmile_qr_scan", "android": "https://dc.lft.to/lastmile_qr_scan"}}, {"name": "08e5d1afbca65df34e08b3e2096451a7", "type": "electric_scooter", "lat": 38.940898833333335, "is_reserved": 0, "lon": -77.03279083333334, "fusion_lon": 0.0, "is_disabled": 0, "fusion_lat": 0.0, "bike_id": "08e5d1afbca65df34e08b3e2096451a7", "rental_uris": {"ios": "https://dc.lft.to/lastmile_qr_scan", "android": "https://dc.lft.to/lastmile_qr_scan"}}, {"name": "50d2988f36041aff14e53bf00589554f", "type": "electric_scooter", "lat": 38.93347583333333, "is_reserved": 0, "lon": -77.06940066666667, "fusion_lon": 0.0, "is_disabled": 0, "fusion_lat": 0.0, "bike_id": "50d2988f36041aff14e53bf00589554f", "rental_uris": {"ios": "https://dc.lft.to/lastmile_qr_scan", "android": "https://dc.lft.to/lastmile_qr_scan"}}, {"name": "b68a14eadcce96e0922a0bee63a4283f", "type": "electric_scooter", "lat": 38.91995633333333, "is_reserved": 0, "lon": -77.03480866666666, "fusion_lon": 0.0, "is_disabled": 0, "fusion_lat": 0.0, "bike_id": "b68a14eadcce96e0922a0bee63a4283f", "rental_uris": {"ios": "https://dc.lft.to/lastmile_qr_scan", "android": "https://dc.lft.to/lastmile_qr_scan"}}, {"name": "7745f982b1578fee1566c5e21247a185", "type": "electric_scooter", "lat": 38.8975505, "is_reserved": 0, "lon": -77.043522, "fusion_lon": 0.0, "is_disabled": 0, "fusion_lat": 0.0, "bike_id": "7745f982b1578fee1566c5e21247a185", "rental_uris": {"ios": "https://dc.lft.to/lastmile_qr_scan", "android": "https://dc.lft.to/lastmile_qr_scan"}}, {"name": "d9fd3cee4e925221eb0931bd9bbbbe48", "type": "electric_scooter", "lat": 38.89906716666667, "is_reserved": 0, "lon": -77.03940916666667, "fusion_lon": 0.0, "is_disabled": 0, "fusion_lat": 0.0, "bike_id": "d9fd3cee4e925221eb0931bd9bbbbe48", "rental_uris": {"ios": "https://dc.lft.to/lastmile_qr_scan", "android": "https://dc.lft.to/lastmile_qr_scan"}}, {"name": "992b4ac93659b12b6fd61c348bd8ceb3", "type": "electric_scooter", "lat": 38.9028265, "is_reserved": 0, "lon": -77.03862983333333, "fusion_lon": 0.0, "is_disabled": 0, "fusion_lat": 0.0, "bike_id": "992b4ac93659b12b6fd61c348bd8ceb3", "rental_uris": {"ios": "https://dc.lft.to/lastmile_qr_scan", "android": "https://dc.lft.to/lastmile_qr_scan"}}, {"name": "e49f4bef99d06887d3ceaeedfbf2938c", "type": "electric_scooter", "lat": 38.8852865, "is_reserved": 0, "lon": -77.00587916666667, "fusion_lon": 0.0, "is_disabled": 0, "fusion_lat": 0.0, "bike_id": "e49f4bef99d06887d3ceaeedfbf2938c", "rental_uris": {"ios": "https://dc.lft.to/lastmile_qr_scan", "android": "https://dc.lft.to/lastmile_qr_scan"}}, {"name": "5e92f62a02deef7c1c3500fb4edc0b38", "type": "electric_scooter", "lat": 38.88775316666667, "is_reserved": 0, "lon": -76.95538866666666, "fusion_lon": 0.0, "is_disabled": 0, "fusion_lat": 0.0, "bike_id": "5e92f62a02deef7c1c3500fb4edc0b38", "rental_uris": {"ios": "https://dc.lft.to/lastmile_qr_scan", "android": "https://dc.lft.to/lastmile_qr_scan"}}, {"name": "021a25b2395b201d097c246e942239b0", "type": "electric_scooter", "lat": 38.891955833333334, "is_reserved": 0, "lon": -77.00241316666667, "fusion_lon": 0.0, "is_disabled": 0, "fusion_lat": 0.0, "bike_id": "021a25b2395b201d097c246e942239b0", "rental_uris": {"ios": "https://dc.lft.to/lastmile_qr_scan", "android": "https://dc.lft.to/lastmile_qr_scan"}}, {"name": "c5766396bc343da088f488fb55778479", "type": "electric_scooter", "lat": 38.907375333333334, "is_reserved": 0, "lon": -77.04160483333334, "fusion_lon": 0.0, "is_disabled": 0, "fusion_lat": 0.0, "bike_id": "c5766396bc343da088f488fb55778479", "rental_uris": {"ios": "https://dc.lft.to/lastmile_qr_scan", "android": "https://dc.lft.to/lastmile_qr_scan"}}, {"name": "d1de223cb2aad4cc1606a17fe50bf850", "type": "electric_scooter", "lat": 38.9059705, "is_reserved": 0, "lon": -77.03979483333333, "fusion_lon": 0.0, "is_disabled": 0, "fusion_lat": 0.0, "bike_id": "d1de223cb2aad4cc1606a17fe50bf850", "rental_uris": {"ios": "https://dc.lft.to/lastmile_qr_scan", "android": "https://dc.lft.to/lastmile_qr_scan"}}, {"name": "a62b891030975b12acec191d6efcf447", "type": "electric_scooter", "lat": 38.90568916666667, "is_reserved": 0, "lon": -77.03451283333334, "fusion_lon": 0.0, "is_disabled": 0, "fusion_lat": 0.0, "bike_id": "a62b891030975b12acec191d6efcf447", "rental_uris": {"ios": "https://dc.lft.to/lastmile_qr_scan", "android": "https://dc.lft.to/lastmile_qr_scan"}}, {"name": "20d16543a0e01735cdd8f780b5d05a72", "type": "electric_scooter", "lat": 38.91461316666667, "is_reserved": 0, "lon": -77.01434566666667, "fusion_lon": 0.0, "is_disabled": 0, "fusion_lat": 0.0, "bike_id": "20d16543a0e01735cdd8f780b5d05a72", "rental_uris": {"ios": "https://dc.lft.to/lastmile_qr_scan", "android": "https://dc.lft.to/lastmile_qr_scan"}}, {"name": "8de5154030dfc672258dbb2d1d4823db", "type": "electric_scooter", "lat": 38.90027466666667, "is_reserved": 0, "lon": -77.04025, "fusion_lon": 0.0, "is_disabled": 0, "fusion_lat": 0.0, "bike_id": "8de5154030dfc672258dbb2d1d4823db", "rental_uris": {"ios": "https://dc.lft.to/lastmile_qr_scan", "android": "https://dc.lft.to/lastmile_qr_scan"}}, {"name": "78b304eff7f0854870119c1f493df070", "type": "electric_scooter", "lat": 38.897264, "is_reserved": 0, "lon": -77.0433795, "fusion_lon": 0.0, "is_disabled": 0, "fusion_lat": 0.0, "bike_id": "78b304eff7f0854870119c1f493df070", "rental_uris": {"ios": "https://dc.lft.to/lastmile_qr_scan", "android": "https://dc.lft.to/lastmile_qr_scan"}}, {"name": "d42cdf4b02671a67396e08c1b79d3901", "type": "electric_scooter", "lat": 38.906498666666664, "is_reserved": 0, "lon": -77.05141566666667, "fusion_lon": 0.0, "is_disabled": 0, "fusion_lat": 0.0, "bike_id": "d42cdf4b02671a67396e08c1b79d3901", "rental_uris": {"ios": "https://dc.lft.to/lastmile_qr_scan", "android": "https://dc.lft.to/lastmile_qr_scan"}}, {"name": "63f4971250ccdd49ae4992d43e7f9c36", "type": "electric_scooter", "lat": 38.90037733333333, "is_reserved": 0, "lon": -77.0118785, "fusion_lon": 0.0, "is_disabled": 0, "fusion_lat": 0.0, "bike_id": "63f4971250ccdd49ae4992d43e7f9c36", "rental_uris": {"ios": "https://dc.lft.to/lastmile_qr_scan", "android": "https://dc.lft.to/lastmile_qr_scan"}}, {"name": "fedf54df1e913e6884af2a4ae2d0ab4e", "type": "electric_scooter", "lat": 38.91927233333333, "is_reserved": 0, "lon": -77.0315455, "fusion_lon": 0.0, "is_disabled": 0, "fusion_lat": 0.0, "bike_id": "fedf54df1e913e6884af2a4ae2d0ab4e", "rental_uris": {"ios": "https://dc.lft.to/lastmile_qr_scan", "android": "https://dc.lft.to/lastmile_qr_scan"}}, {"name": "8445796fbf825933bc3ad2e432c4b69a", "type": "electric_scooter", "lat": 38.90070716666666, "is_reserved": 0, "lon": -77.03182566666666, "fusion_lon": 0.0, "is_disabled": 0, "fusion_lat": 0.0, "bike_id": "8445796fbf825933bc3ad2e432c4b69a", "rental_uris": {"ios": "https://dc.lft.to/lastmile_qr_scan", "android": "https://dc.lft.to/lastmile_qr_scan"}}, {"name": "7d6f11ad70cc6c28daf00a36f23c019c", "type": "electric_scooter", "lat": 38.89229233333333, "is_reserved": 0, "lon": -77.0500055, "fusion_lon": 0.0, "is_disabled": 0, "fusion_lat": 0.0, "bike_id": "7d6f11ad70cc6c28daf00a36f23c019c", "rental_uris": {"ios": "https://dc.lft.to/lastmile_qr_scan", "android": "https://dc.lft.to/lastmile_qr_scan"}}, {"name": "b47a9efa60f50a0d41e44c37a8567873", "type": "electric_scooter", "lat": 38.8984145, "is_reserved": 0, "lon": -77.0268285, "fusion_lon": 0.0, "is_disabled": 0, "fusion_lat": 0.0, "bike_id": "b47a9efa60f50a0d41e44c37a8567873", "rental_uris": {"ios": "https://dc.lft.to/lastmile_qr_scan", "android": "https://dc.lft.to/lastmile_qr_scan"}}, {"name": "41c6447eb2b0fb9437a6f758c495d6c9", "type": "electric_scooter", "lat": 38.951933833333335, "is_reserved": 0, "lon": -77.03359783333333, "fusion_lon": 0.0, "is_disabled": 0, "fusion_lat": 0.0, "bike_id": "41c6447eb2b0fb9437a6f758c495d6c9", "rental_uris": {"ios": "https://dc.lft.to/lastmile_qr_scan", "android": "https://dc.lft.to/lastmile_qr_scan"}}, {"name": "ea68cedf31a4836e69dafb25b110032d", "type": "electric_scooter", "lat": 38.93361083333333, "is_reserved": 0, "lon": -77.05730283333334, "fusion_lon": 0.0, "is_disabled": 0, "fusion_lat": 0.0, "bike_id": "ea68cedf31a4836e69dafb25b110032d", "rental_uris": {"ios": "https://dc.lft.to/lastmile_qr_scan", "android": "https://dc.lft.to/lastmile_qr_scan"}},