{"data": {"bikes": [{"fusion_lat": 0.0, "name": "e0fd25fa29a864cea2232973504f4293", "lon": -77.05228533333333, "rental_uris": {"android": "https://dc.lft.to/lastmile_qr_scan", "ios": "https://dc.lft.to/lastmile_qr_scan"}, "fusion_lon": 0.0, "bike_id": "e0fd25fa29a864cea2232973504f4293", "is_disabled": 0, "lat": 38.92458233333333, "is_reserved": 0, "type": "electric_scooter"}, {"fusion_lat": 0.0, "name": "822247b30543d0c1a41e070eccac5290", "lon": -77.0388685, "rental_uris": {"android": "https://dc.lft.to/lastmile_qr_scan", "ios": "https://dc.lft.to/lastmile_qr_scan"}, "fusion_lon": 0.0, "bike_id": "822247b30543d0c1a41e070eccac5290", "is_disabled": 0, "lat": 38.904924666666666, "is_reserved": 0, "type": "electric_scooter"}, {"fusion_lat": 0.0, "name": "435f9801131f0c3ab971dbfeb6bf3c7c", "lon": -77.07336366666667, "rental_uris": {"android": "https://dc.lft.to/lastmile_qr_scan", "ios": "https://dc.lft.to/lastmile_qr_scan"}, "fusion_lon": 0.0, "bike_id": "435f9801131f0c3ab971dbfeb6bf3c7c", "is_disabled": 0, "lat": 38.92741266666667, "is_reserved": 0, "type": "electric_scooter"}, {"fusion_lat": 0.0, "name": "0249fd501d20d9282dc6d92073159b47", "lon": -77.031849, "rental_uris": {"android": "https://dc.lft.to/lastmile_qr_scan", "ios": "https://dc.lft.to/lastmile_qr_scan"}, "fusion_lon": 0.0, "bike_id": "0249fd501d20d9282dc6d92073159b47", "is_disabled": 0, "lat": 38.89224016666667, "is_reserved": 0, "type": "electric_scooter"}, {"fusion_lat": 0.0, "name": "8e6b6b94a13bb3daf4424737df182a8e", "lon": -77.009062, "rental_uris": {"android": "https://dc.lft.to/lastmile_qr_scan", "ios": "https://dc.lft.to/lastmile_qr_scan"}, "fusion_lon": 0.0, "bike_id": "8e6b6b94a13bb3daf4424737df182a8e", "is_disabled": 0, "lat": 38.89645183333333, "is_reserved": 0, "type": "electric_scooter"}, {"fusion_lat": 0.0, "name": "3d9d07836d74248caadf399e150de5f4", "lon": -77.0195285, "rental_uris": {"android": "https://dc.lft.to/lastmile_qr_scan", "ios": "https://dc.lft.to/lastmile_qr_scan"}, "fusion_lon": 0.0, "bike_id": "3d9d07836d74248caadf399e150de5f4", "is_disabled": 0, "lat": 38.922497166666666, "is_reserved": 0, "type": "electric_scooter"}, {"fusion_lat": 0.0, "name": "26abd912289023dfe8e5d057557b5392", "lon": -77.029636, "rental_uris": {"android": "https://dc.lft.to/lastmile_qr_scan", "ios": "https://dc.lft.to/lastmile_qr_scan"}, "fusion_lon": 0.0, "bike_id": "26abd912289023dfe8e5d057557b5392", "is_disabled": 0, "lat": 38.9224825, "is_reserved": 0, "type": "electric_scooter"}, {"fusion_lat": 0.0, "name": "08138ca438ed5bb3dc3fde70e94b62a5", "lon": -76.93727333333334, "rental_uris": {"android": "https://dc.lft.to/lastmile_qr_scan", "ios": "https://dc.lft.to/lastmile_qr_scan"}, "fusion_lon": 0.0, "bike_id": "08138ca438ed5bb3dc3fde70e94b62a5", "is_disabled": 0, "lat": 38.89018033333333, "is_reserved": 0, "type": "electric_scooter"}, {"fusion_lat": 0.0, "name": "35feed9107788dbaf86210776a0f1434", "lon": -76.98714733333334, "rental_uris": {"android": "https://dc.lft.to/lastmile_qr_scan", "ios": "https://dc.lft.to/lastmile_qr_scan"}, "fusion_lon": 0.0, "bike_id": "35feed9107788dbaf86210776a0f1434", "is_disabled": 0, "lat": 38.866978333333336, "is_reserved": 0, "type": "electric_scooter"}, {"fusion_lat": 0.0, "name": "30302c98d7a2eddf04376238d7f6378f", "lon": -76.99501216666667, "rental_uris": {"android": "https://dc.lft.to/lastmile_qr_scan", "ios": "https://dc.lft.to/lastmile_qr_scan"}, "fusion_lon": 0.0, "bike_id": "30302c98d7a2eddf04376238d7f6378f", "is_disabled": 0, "lat": 38.86241716666667, "is_reserved": 0, "type": "electric_scooter"}, {"fusion_lat": 0.0, "name": "f53fbfc98c0a06adc083b4249d820326", "lon": -77.0113035, "rental_uris": {"android": "https://dc.lft.to/lastmile_qr_scan", "ios": "https://dc.lft.to/lastmile_qr_scan"}, "fusion_lon": 0.0, "bike_id": "f53fbfc98c0a06adc083b4249d820326", "is_disabled": 0, "lat": 38.880451, "is_reserved": 0, "type": "electric_bike"}, {"fusion_lat": 0.0, "name": "d10dedb79b84df47eb235ae8ca1f2a3d", "lon": -76.9888185, "rental_uris": {"android": "https://dc.lft.to/lastmile_qr_scan", "ios": "https://dc.lft.to/lastmile_qr_scan"}, "fusion_lon": 0.0, "bike_id": "d10dedb79b84df47eb235ae8ca1f2a3d", "is_disabled": 0, "lat": 38.86661683333333, "is_reserved": 0, "type": "electric_scooter"}, {"fusion_lat": 0.0, "name": "c278fc60f2b5e0864a647fb0517654e1", "lon": -77.03854333333334, "rental_uris": {"android": "https://dc.lft.to/lastmile_qr_scan", "ios": "https://dc.lft.to/lastmile_qr_scan"}, "fusion_lon": 0.0, "bike_id": "c278fc60f2b5e0864a647fb0517654e1", "is_disabled": 0, "lat": 38.931859, "is_reserved": 0, "type": "electric_scooter"}, {"fusion_lat": 0.0, "name": "9dc32032b55ba158726c810d0b8334df", "lon": -77.05092416666666, "rental_uris": {"android": "https://dc.lft.to/lastmile_qr_scan", "ios": "https://dc.lft.to/lastmile_qr_scan"}, "fusion_lon": 0.0, "bike_id": "9dc32032b55ba158726c810d0b8334df", "is_disabled": 0, "lat": 38.905263166666664, "is_reserved": 0, "type": "electric_scooter"}, {"fusion_lat": 0.0, "name": "0bd2d6f575addde61e56d2fff16733a8", "lon": -77.04534983333333, "rental_uris": {"android": "https://dc.lft.to/lastmile_qr_scan", "ios": "https://dc.lft.to/lastmile_qr_scan"}, "fusion_lon": 0.0, "bike_id": "0bd2d6f575addde61e56d2fff16733a8", "is_disabled": 0, "lat": 38.931862833333334, "is_reserved": 0, "type": "electric_scooter"}, {"fusion_lat": 0.0, "name": "b52c24a38bc8d9ec2fc7bc42b60e2c85", "lon": -77.028053, "rental_uris": {"android": "https://dc.lft.to/lastmile_qr_scan", "ios": "https://dc.lft.to/lastmile_qr_scan"}, "fusion_lon": 0.0, "bike_id": "b52c24a38bc8d9ec2fc7bc42b60e2c85", "is_disabled": 0, "lat": 38.89723383333333, "is_reserved": 0, "type": "electric_scooter"}, {"fusion_lat": 0.0, "name": "956b36ca5a92d0fe85a573120249ea92", "lon": -77.01614883333333, "rental_uris": {"android": "https://dc.lft.to/lastmile_qr_scan", "ios": "https://dc.lft.to/lastmile_qr_scan"}, "fusion_lon": 0.0, "bike_id": "956b36ca5a92d0fe85a573120249ea92", "is_disabled": 0, "lat": 38.953311666666664, "is_reserved": 0, "type": "electric_scooter"}, {"fusion_lat": 0.0, "name": "0ad506206b1984fc774ad079589bf6b7", "lon": -77.0790285, "rental_uris": {"android": "https://dc.lft.to/lastmile_qr_scan", "ios": "https://dc.lft.to/lastmile_qr_scan"}, "fusion_lon": 0.0, "bike_id": "0ad506206b1984fc774ad079589bf6b7", "is_disabled": 0, "lat": 38.839334666666666, "is_reserved": 0, "type": "electric_bike"}, {"fusion_lat": 0.0, "name": "f420fcaa2d80ccd615d51c9b2e0dca33", "lon": -77.01897616666666, "rental_uris": {"android": "https://dc.lft.to/lastmile_qr_scan", "ios": "https://dc.lft.to/lastmile_qr_scan"}, "fusion_lon": 0.0, "bike_id": "f420fcaa2d80ccd615d51c9b2e0dca33", "is_disabled": 0, "lat": 38.92339316666666, "is_reserved": 0, "type": "electric_scooter"}, {"fusion_lat": 0.0, "name": "4d1977194cb3b779ce22bfbc4fd79187", "lon": -77.02831633333334, "rental_uris": {"android": "https://dc.lft.to/lastmile_qr_scan", "ios": "https://dc.lft.to/lastmile_qr_scan"}, "fusion_lon": 0.0, "bike_id": "4d1977194cb3b779ce22bfbc4fd79187", "is_disabled": 0, "lat": 38.88730616666667, "is_reserved": 0, "type": "electric_scooter"}, {"fusion_lat": 0.0, "name": "e91964503ea7a3fe64b214a2c50030bf", "lon": -77.0245965, "rental_uris": {"android": "https://dc.lft.to/lastmile_qr_scan", "ios": "https://dc.lft.to/lastmile_qr_scan"}, "fusion_lon": 0.0, "bike_id": "e91964503ea7a3fe64b214a2c50030bf", "is_disabled": 0, "lat": 38.91396616666667, "is_reserved": 0, "type": "electric_scooter"}, {"fusion_lat": 0.0, "name": "5859fe2d7476e5d87d917ec7e782fa2c", "lon": -77.03339683333333, "rental_uris": {"android": "https://dc.lft.to/lastmile_qr_scan", "ios": "https://dc.lft.to/lastmile_qr_scan"}, "fusion_lon": 0.0, "bike_id": "5859fe2d7476e5d87d917ec7e782fa2c", "is_disabled": 0, "lat": 38.90346366666667, "is_reserved": 0, "type": "electric_scooter"}, {"fusion_lat": 0.0, "name": "0bd33377bb91f2fc35da078ac9463f48", "lon": -77.00605133333333, "rental_uris": {"android": "https://dc.lft.to/lastmile_qr_scan", "ios": "https://dc.lft.to/lastmile_qr_scan"}, "fusion_lon": 0.0, "bike_id": "0bd33377bb91f2fc35da078ac9463f48", "is_disabled": 0, "lat": 38.871800666666665, "is_reserved": 0, "type": "electric_scooter"}, {"fusion_lat": 0.0, "name": "77c5489b5780a1f5c73a982b6bd92cc7", "lon": -77.02606166666666, "rental_uris": {"android": "https://dc.lft.to/lastmile_qr_scan", "ios": "https://dc.lft.to/lastmile_qr_scan"}, "fusion_lon": 0.0, "bike_id": "77c5489b5780a1f5c73a982b6bd92cc7", "is_disabled": 0, "lat": 38.915487, "is_reserved": 0, "type": "electric_scooter"}, {"fusion_lat": 0.0, "name": "74e9697143fe833914ae97d3856a0276", "lon": -77.0512815, "rental_uris": {"android": "https://dc.lft.to/lastmile_qr_scan", "ios": "https://dc.lft.to/lastmile_qr_scan"}, "fusion_lon": 0.0, "bike_id": "74e9697143fe833914ae97d3856a0276", "is_disabled": 0, "lat": 38.923648, "is_reserved": 0, "type": "electric_scooter"}, {"fusion_lat": 0.0, "name": "b41db25e4b2e55e2d023cfbf2fb3c91b", "lon": -77.00886866666667, "rental_uris": {"android": "https://dc.lft.to/lastmile_qr_scan", "ios": "https://dc.lft.to/lastmile_qr_scan"}, "fusion_lon": 0.0, "bike_id": "b41db25e4b2e55e2d023cfbf2fb3c91b", "is_disabled": 0, "lat": 38.961146166666666, "is_reserved": 0, "type": "electric_scooter"}, {"fusion_lat": 0.0, "name": "6e8656f84007ab479cca5c5579bd989b", "lon": -76.97020666666667, "rental_uris": {"android": "https://dc.lft.to/lastmile_qr_scan", "ios": "https://dc.lft.to/lastmile_qr_scan"}, "fusion_lon": 0.0, "bike_id": "6e8656f84007ab479cca5c5579bd989b", "is_disabled": 0, "lat": 38.873624666666664, "is_reserved": 0, "type": "electric_scooter"}, {"fusion_lat": 0.0, "name": "0aa4518cdbee67f2e1e77fbb3aa457c8", "lon": -77.0260275, "rental_uris": {"android": "https://dc.lft.to/lastmile_qr_scan", "ios": "https://dc.lft.to/lastmile_qr_scan"}, "fusion_lon": 0.0, "bike_id": "0aa4518cdbee67f2e1e77fbb3aa457c8", "is_disabled": 0, "lat": 38.909730833333334, "is_reserved": 0, "type": "electric_scooter"}, {"fusion_lat": 0.0, "name": "4bb8c7812a3631dd66e98826978bfa2a", "lon": -77.03274466666667, "rental_uris": {"android": "https://dc.lft.to/lastmile_qr_scan", "ios": "https://dc.lft.to/lastmile_qr_scan"}, "fusion_lon": 0.0, "bike_id": "4bb8c7812a3631dd66e98826978bfa2a", "is_disabled": 0, "lat": 38.8987845, "is_reserved": 0, "type": "electric_scooter"}, {"fusion_lat": 0.0, "name": "93c9d1dd156dd31d4af0ceb2f1b5c2ef", "lon": -77.04831083333333, "rental_uris": {"android": "https://dc.lft.to/lastmile_qr_scan", "ios": "https://dc.lft.to/lastmile_qr_scan"}, "fusion_lon": 0.0, "bike_id": "93c9d1dd156dd31d4af0ceb2f1b5c2ef", "is_disabled": 0, "lat": 38.91882116666667, "is_reserved": 0, "type": "electric_scooter"}, {"fusion_lat": 0.0, "name": "dfee6c4ec7822e7b27bbfd98a3a4a548", "lon": -77.0451655, "rental_uris": {"android": "https://dc.lft.to/lastmile_qr_scan", "ios": "https://dc.lft.to/lastmile_qr_scan"}, "fusion_lon": 0.0, "bike_id": "dfee6c4ec7822e7b27bbfd98a3a4a548", "is_disabled": 0, "lat": 38.90735633333333, "is_reserved": 0, "type": "electric_scooter"}, {"fusion_lat": 0.0, "name": "3856596db8a1145b885319b347ed3d7c", "lon": -76.93323916666667, "rental_uris": {"android": "https://dc.lft.to/lastmile_qr_scan", "ios": "https://dc.lft.to/lastmile_qr_scan"}, "fusion_lon": 0.0, "bike_id": "3856596db8a1145b885319b347ed3d7c", "is_disabled": 0, "lat": 38.900491, "is_reserved": 0, "type": "electric_scooter"}, {"fusion_lat": 0.0, "name": "afaebaa5dbcc94bd6021688cbde73c22", "lon": -77.01608483333334, "rental_uris": {"android": "https://dc.lft.to/lastmile_qr_scan", "ios": "https://dc.lft.to/lastmile_qr_scan"}, "fusion_lon": 0.0, "bike_id": "afaebaa5dbcc94bd6021688cbde73c22", "is_disabled": 0, "lat": 38.87705533333333, "is_reserved": 0, "type": "electric_scooter"}, {"fusion_lat": 0.0, "name": "bc3e90a7ccf064c7157325226c0b95ea", "lon": -77.021654, "rental_uris": {"android": "https://dc.lft.to/lastmile_qr_scan", "ios": "https://dc.lft.to/lastmile_qr_scan"}, "fusion_lon": 0.0, "bike_id": "bc3e90a7ccf064c7157325226c0b95ea", "is_disabled": 0, "lat": 38.893408, "is_reserved": 0, "type": "electric_scooter"}, {"fusion_lat": 0.0, "name": "f120f5bcded3c0f4358d87ed321300e0", "lon": -77.02718233333333, "rental_uris": {"android": "https://dc.lft.to/lastmile_qr_scan", "ios": "https://dc.lft.to/lastmile_qr_scan"}, "fusion_lon": 0.0, "bike_id": "f120f5bcded3c0f4358d87ed321300e0", "is_disabled": 0, "lat": 38.90948383333333, "is_reserved": 0, "type": "electric_scooter"}, {"fusion_lat": 0.0, "name": "04904a0aa0a6506b0c6a132b2535c721", "lon": -77.02663083333333, "rental_uris": {"android": "https://dc.lft.to/lastmile_qr_scan", "ios": "https://dc.lft.to/lastmile_qr_scan"}, "fusion_lon": 0.0, "bike_id": "04904a0aa0a6506b0c6a132b2535c721", "is_disabled": 0, "lat": 38.9217945, "is_reserved": 0, "type": "electric_scooter"}, {"fusion_lat": 0.0, "name": "e2d8271ca06898d3ebc0fa753f264e3f", "lon": -77.04342183333333, "rental_uris": {"android": "https://dc.lft.to/lastmile_qr_scan", "ios": "https://dc.lft.to/lastmile_qr_scan"}, "fusion_lon": 0.0, "bike_id": "e2d8271ca06898d3ebc0fa753f264e3f", "is_disabled": 0, "lat": 38.9217295, "is_reserved": 0, "type": "electric_scooter"}, {"fusion_lat": 0.0, "name": "b1d19b0ef2680a6582c3726aca13072d", "lon": -77.0446705, "rental_uris": {"android": "https://dc.lft.to/lastmile_qr_scan", "ios": "https://dc.lft.to/lastmile_qr_scan"}, "fusion_lon": 0.0, "bike_id": "b1d19b0ef2680a6582c3726aca13072d", "is_disabled": 0, "lat": 38.9125335, "is_reserved": 0, "type": "electric_scooter"}, {"fusion_lat": 0.0, "name": "82a52b19dd1092cc9267641e79f6ac92", "lon": -77.00459766666667, "rental_uris": {"android": "https://dc.lft.to/lastmile_qr_scan", "ios": "https://dc.lft.to/lastmile_qr_scan"}, "fusion_lon": 0.0, "bike_id": "82a52b19dd1092cc9267641e79f6ac92", "is_disabled": 0, "lat": 38.8763165, "is_reserved": 0, "type": "electric_scooter"}, {"fusion_lat": 0.0, "name": "7b4e86f518c8326f755289722c1cef38", "lon": -77.02263616666667, "rental_uris": {"android": "https://dc.lft.to/lastmile_qr_scan", "ios": "https://dc.lft.to/lastmile_qr_scan"}, "fusion_lon": 0.0, "bike_id": "7b4e86f518c8326f755289722c1cef38", "is_disabled": 0, "lat": 38.937590666666665, "is_reserved": 0, "type": "electric_scooter"}, {"fusion_lat": 0.0, "name": "d52a3b1efd005549655372c07a69ebe0", "lon": -77.0416955, "rental_uris": {"android": "https://dc.lft.to/lastmile_qr_scan", "ios": "https://dc.lft.to/lastmile_qr_scan"}, "fusion_lon": 0.0, "bike_id": "d52a3b1efd005549655372c07a69ebe0", "is_disabled": 0, "lat": 38.913358333333335, "is_reserved": 0, "type": "electric_scooter"}, {"fusion_lat": 0.0, "name": "cdf185383512ebf29fbed0819bb5de6c", "lon": -76.99063866666667, "rental_uris": {"android": "https://dc.lft.to/lastmile_qr_scan", "ios": "https://dc.lft.to/lastmile_qr_scan"}, "fusion_lon": 0.0, "bike_id": "cdf185383512ebf29fbed0819bb5de6c", "is_disabled": 0, "lat": 38.8635, "is_reserved": 0, "type": "electric_scooter"}, {"fusion_lat": 0.0, "name": "456dc4eda640b8b9f221ef90c8834c94", "lon": -77.04325633333333, "rental_uris": {"android": "https://dc.lft.to/lastmile_qr_scan", "ios": "https://dc.lft.to/lastmile_qr_scan"}, "fusion_lon": 0.0, "bike_id": "456dc4eda640b8b9f221ef90c8834c94", "is_disabled": 0, "lat": 38.922175333333335, "is_reserved": 0, "type": "electric_scooter"}, {"fusion_lat": 0.0, "name": "7d3899aa6ddd9aec051bfb0e87118280", "lon": -77.01138833333333, "rental_uris": {"android": "https://dc.lft.to/lastmile_qr_scan", "ios": "https://dc.lft.to/lastmile_qr_scan"}, "fusion_lon": 0.0, "bike_id": "7d3899aa6ddd9aec051bfb0e87118280", "is_disabled": 0, "lat": 38.90643983333333, "is_reserved": 0, "type": "electric_scooter"}, {"fusion_lat": 0.0, "name": "03098f1ffcce5254ce6ae2eb4dd10d7e", "lon": -76.984225, "rental_uris": {"android": "https://dc.lft.to/lastmile_qr_scan", "ios": "https://dc.lft.to/lastmile_qr_scan"}, "fusion_lon": 0.0, "bike_id": "03098f1ffcce5254ce6ae2eb4dd10d7e", "is_disabled": 0, "lat": 38.8551155, "is_reserved": 0, "type": "electric_bike"}, {"fusion_lat": 0.0, "name": "021ff9a88ebefb5f84a7f19c8ecc4b31", "lon": -77.036323, "rental_uris": {"android": "https://dc.lft.to/lastmile_qr_scan", "ios": "https://dc.lft.to/lastmile_qr_scan"}, "fusion_lon": 0.0, "bike_id": "021ff9a88ebefb5f84a7f19c8ecc4b31", "is_disabled": 0, "lat": 38.930301, "is_reserved": 0, "type": "electric_scooter"}, {"fusion_lat": 0.0, "name": "8fa2772b7738d4af3c83319164c59f2c", "lon": -77.005983, "rental_uris": {"android": "https://dc.lft.to/lastmile_qr_scan", "ios": "https://dc.lft.to/lastmile_qr_scan"}, "fusion_lon": 0.0, "bike_id": "8fa2772b7738d4af3c83319164c59f2c", "is_disabled": 0, "lat": 38.871802833333334, "is_reserved": 0, "type": "electric_scooter"}, {"fusion_lat": 0.0, "name": "f7ef2e1b379f871fa78019646e4525b8", "lon": -76.98351083333333, "rental_uris": {"android": "https://dc.lft.to/lastmile_qr_scan", "ios": "https://dc.lft.to/lastmile_qr_scan"}, "fusion_lon": 0.0, "bike_id": "f7ef2e1b379f871fa78019646e4525b8", "is_disabled": 0, "lat": 38.84988083333333, "is_reserved": 0, "type": "electric_scooter"}, {"fusion_lat": 0.0, "name": "204e188d0c06f28cdaeb2cb14c925a8d", "lon": -77.04898883333334, "rental_uris": {"android": "https://dc.lft.to/lastmile_qr_scan", "ios": "https://dc.lft.to/lastmile_qr_scan"}, "fusion_lon": 0.0, "bike_id": "204e188d0c06f28cdaeb2cb14c925a8d", "is_disabled": 0, "lat": 38.89223366666667, "is_reserved": 0, "type": "electric_scooter"}, {"fusion_lat": 0.0, "name": "24fe1f0035b633c8b2a8424ab0143c09", "lon": -77.021165, "rental_uris": {"android": "https://dc.lft.to/lastmile_qr_scan", "ios": "https://dc.lft.to/lastmile_qr_scan"}, "fusion_lon": 0.0, "bike_id": "24fe1f0035b633c8b2a8424ab0143c09", "is_disabled": 0, "lat": 38.915484166666666, "is_reserved": 0, "type": "electric_scooter"}, {"fusion_lat": 0.0, "name": "24e808a705dc861c8dc3afbf77ff4ad1", "lon": -77.03859033333333, "rental_uris": {"android": "https://dc.lft.to/lastmile_qr_scan", "ios": "https://dc.lft.to/lastmile_qr_scan"}, "fusion_lon": 0.0, "bike_id": "24e808a705dc861c8dc3afbf77ff4ad1", "is_disabled": 0, "lat": 38.9129675, "is_reserved": 0, "type": "electric_scooter"}, {"fusion_lat": 0.0, "name": "6a2ff16f081b157e2bbf1ca51d0e53e5", "lon": -77.01874683333334, "rental_uris": {"android": "https://dc.lft.to/lastmile_qr_scan", "ios": "https://dc.lft.to/lastmile_qr_scan"}, "fusion_lon": 0.0, "bike_id": "6a2ff16f081b157e2bbf1ca51d0e53e5", "is_disabled": 0, "lat": 38.9214115, "is_reserved": 0, "type": "electric_scooter"}, {"fusion_lat": 0.0, "name": "0496383b55753faac11efeac960a5527", "lon": -77.032105, "rental_uris": {"android": "https://dc.lft.to/lastmile_qr_scan", "ios": "https://dc.lft.to/lastmile_qr_scan"}, "fusion_lon": 0.0, "bike_id": "0496383b55753faac11efeac960a5527", "is_disabled": 0, "lat": 38.916277666666666, "is_reserved": 0, "type": "electric_scooter"}, {"fusion_lat": 0.0, "name": "d75fb28a4881fef85d15594cec781786", "lon": -77.0731305, "rental_uris": {"android": "https://dc.lft.to/lastmile_qr_scan", "ios": "https://dc.lft.to/lastmile_qr_scan"}, "fusion_lon": 0.0, "bike_id": "d75fb28a4881fef85d15594cec781786", "is_disabled": 0, "lat": 38.9079835, "is_reserved": 0, "type": "electric_scooter"}, {"fusion_lat": 0.0, "name": "2a4311b5bc9af99b673ba267d4278225", "lon": -76.93757533333333, "rental_uris": {"android": "https://dc.lft.to/lastmile_qr_scan", "ios": "https://dc.lft.to/lastmile_qr_scan"}, "fusion_lon": 0.0, "bike_id": "2a4311b5bc9af99b673ba267d4278225", "is_disabled": 0, "lat": 38.8903925, "is_reserved": 0, "type": "electric_scooter"}, {"fusion_lat": 0.0, "name": "51499ef774f183be6e6cbf718f8ca292", "lon": -76.98353483333334, "rental_uris": {"android": "https://dc.lft.to/lastmile_qr_scan", "ios": "https://dc.lft.to/lastmile_qr_scan"}, "fusion_lon": 0.0, "bike_id": "51499ef774f183be6e6cbf718f8ca292", "is_disabled": 0, "lat": 38.887134, "is_reserved": 0, "type": "electric_scooter"}, {"fusion_lat": 0.0, "name": "dc720ec7129188ee8825dd881ee8a47c", "lon": -76.99829, "rental_uris": {"android": "https://dc.lft.to/lastmile_qr_scan", "ios": "https://dc.lft.to/lastmile_qr_scan"}, "fusion_lon": 0.0, "bike_id": "dc720ec7129188ee8825dd881ee8a47c", "is_disabled": 0, "lat": 38.908676166666666, "is_reserved": 0, "type": "electric_scooter"}, {"fusion_lat": 0.0, "name": "ef0a968f2e3666d57adcbdeee57f49c5", "lon": -77.03180016666667, "rental_uris": {"android": "https://dc.lft.to/lastmile_qr_scan", "ios": "https://dc.lft.to/lastmile_qr_scan"}, "fusion_lon": 0.0, "bike_id": "ef0a968f2e3666d57adcbdeee57f49c5", "is_disabled": 0, "lat": 38.91795916666667, "is_reserved": 0, "type": "electric_scooter"}, {"fusion_lat": 0.0, "name": "eb87bfd6d3394a6901daf5dd2bdc2d9e", "lon": -76.98940766666666, "rental_uris": {"android": "https://dc.lft.to/lastmile_qr_scan", "ios": "https://dc.lft.to/lastmile_qr_scan"}, "fusion_lon": 0.0, "bike_id": "eb87bfd6d3394a6901daf5dd2bdc2d9e", "is_disabled": 0, "lat": 38.867050666666664, "is_reserved": 0, "type": "electric_bike"}, {"fusion_lat": 0.0, "name": "27598e8ecb27ac6f19f61d98958b643d", "lon": -77.034384, "rental_uris": {"android": "https://dc.lft.to/lastmile_qr_scan", "ios": "https://dc.lft.to/lastmile_qr_scan"}, "fusion_lon": 0.0, "bike_id": "27598e8ecb27ac6f19f61d98958b643d", "is_disabled": 0, "lat": 38.91802933333334, "is_reserved": 0, "type": "electric_scooter"}, {"fusion_lat": 0.0, "name": "373a4e2e17ca2de9f35085d7fd393533", "lon": -77.02744183333333, "rental_uris": {"android": "https://dc.lft.to/lastmile_qr_scan", "ios": "https://dc.lft.to/lastmile_qr_scan"}, "fusion_lon": 0.0, "bike_id": "373a4e2e17ca2de9f35085d7fd393533", "is_disabled": 0, "lat": 38.896492, "is_reserved": 0, "type": "electric_scooter"}, {"fusion_lat": 0.0, "name": "bf4ca0430c6f4b68fd86d1fed6400e8b", "lon": -77.0321225, "rental_uris": {"android": "https://dc.lft.to/lastmile_qr_scan", "ios": "https://dc.lft.to/lastmile_qr_scan"}, "fusion_lon": 0.0, "bike_id": "bf4ca0430c6f4b68fd86d1fed6400e8b", "is_disabled": 0, "lat": 38.918035, "is_reserved": 0, "type": "electric_scooter"}, {"fusion_lat": 0.0, "name": "c49924549035c9455795dbdd88212ca0", "lon": -77.05134283333334, "rental_uris": {"android": "https://dc.lft.to/lastmile_qr_scan", "ios": "https://dc.lft.to/lastmile_qr_scan"}, "fusion_lon": 0.0, "bike_id": "c49924549035c9455795dbdd88212ca0", "is_disabled": 0, "lat": 38.92528433333333, "is_reserved": 0, "type": "electric_scooter"}, {"fusion_lat": 0.0, "name": "335a1979c690454dcf72da9511181b45", "lon": -76.9785715, "rental_uris": {"android": "https://dc.lft.to/lastmile_qr_scan", "ios": "https://dc.lft.to/lastmile_qr_scan"}, "fusion_lon": 0.0, "bike_id": "335a1979c690454dcf72da9511181b45", "is_disabled": 0, "lat": 38.90197766666667, "is_reserved": 0, "type": "electric_scooter"}, {"fusion_lat": 0.0, "name": "32e425e380f60e351b7c59bde76229a5", "lon": -77.02002466666667, "rental_uris": {"android": "https://dc.lft.to/lastmile_qr_scan", "ios": "https://dc.lft.to/lastmile_qr_scan"}, "fusion_lon": 0.0, "bike_id": "32e425e380f60e351b7c59bde76229a5", "is_disabled": 0, "lat": 38.9662125, "is_reserved": 0, "type": "electric_scooter"}, {"fusion_lat": 0.0, "name": "303bef6781aaabed63745906f7bbc64f", "lon": -77.02390266666667, "rental_uris": {"android": "https://dc.lft.to/lastmile_qr_scan", "ios": "https://dc.lft.to/lastmile_qr_scan"}, "fusion_lon": 0.0, "bike_id": "303bef6781aaabed63745906f7bbc64f", "is_disabled": 0, "lat": 38.9156495, "is_reserved": 0, "type": "electric_scooter"}, {"fusion_lat": 0.0, "name": "6f4126e8626686227ea815b248a140ca", "lon": -77.00594316666667, "rental_uris": {"android": "https://dc.lft.to/lastmile_qr_scan", "ios": "https://dc.lft.to/lastmile_qr_scan"}, "fusion_lon": 0.0, "bike_id": "6f4126e8626686227ea815b248a140ca", "is_disabled": 0, "lat": 38.906127166666664, "is_reserved": 0, "type": "electric_scooter"}, {"fusion_lat": 0.0, "name": "e09ca2a28582f3ef976edcccdaeb15df", "lon": -77.05164366666666, "rental_uris": {"android": "https://dc.lft.to/lastmile_qr_scan", "ios": "https://dc.lft.to/lastmile_qr_scan"}, "fusion_lon": 0.0, "bike_id": "e09ca2a28582f3ef976edcccdaeb15df", "is_disabled": 0, "lat": 38.940376, "is_reserved": 0, "type": "electric_bike"}, {"fusion_lat": 0.0, "name": "ec527c8d203877bca9c1b1e597c76fc2", "lon": -77.11711333333334, "rental_uris": {"android": "https://dc.lft.to/lastmile_qr_scan", "ios": "https://dc.lft.to/lastmile_qr_scan"}, "fusion_lon": 0.0, "bike_id": "ec527c8d203877bca9c1b1e597c76fc2", "is_disabled": 0, "lat": 38.86742666666667, "is_reserved": 0, "type": "electric_bike"}, {"fusion_lat": 0.0, "name": "920b0037c2ee80a6a9fe04857d12988e", "lon": -76.99790033333333, "rental_uris": {"android": "https://dc.lft.to/lastmile_qr_scan", "ios": "https://dc.lft.to/lastmile_qr_scan"}, "fusion_lon": 0.0, "bike_id": "920b0037c2ee80a6a9fe04857d12988e", "is_disabled": 0, "lat": 38.82916566666667, "is_reserved": 0, "type": "electric_bike"}, {"fusion_lat": 0.0, "name": "48c506dc0d28930a1231cf832a95d58c", "lon": -76.94999966666667, "rental_uris": {"android": "https://dc.lft.to/lastmile_qr_scan", "ios": "https://dc.lft.to/lastmile_qr_scan"}, "fusion_lon": 0.0, "bike_id": "48c506dc0d28930a1231cf832a95d58c", "is_disabled": 0, "lat": 38.89368666666667, "is_reserved": 0, "type": "electric_scooter"}, {"fusion_lat": 0.0, "name": "1cb10e81de5773cad092eda59ee16bb4", "lon": -77.04019116666667, "rental_uris": {"android": "https://dc.lft.to/lastmile_qr_scan", "ios": "https://dc.lft.to/lastmile_qr_scan"}, "fusion_lon": 0.0, "bike_id": "1cb10e81de5773cad092eda59ee16bb4", "is_disabled": 0, "lat": 38.903779166666666, "is_reserved": 0, "type": "electric_scooter"}, {"fusion_lat": 0.0, "name": "edad068385d004dbbebc797748fd0c39", "lon": -77.02699266666667, "rental_uris": {"android": "https://dc.lft.to/lastmile_qr_scan", "ios": "https://dc.lft.to/lastmile_qr_scan"}, "fusion_lon": 0.0, "bike_id": "edad068385d004dbbebc797748fd0c39", "is_disabled": 0, "lat": 38.926104, "is_reserved": 0, "type": "electric_scooter"}, {"fusion_lat": 0.0, "name": "5a3ebc1b2e7fbca74513df00daf7c31b", "lon": -77.02531383333333, "rental_uris": {"android": "https://dc.lft.to/lastmile_qr_scan", "ios": "https://dc.lft.to/lastmile_qr_scan"}, "fusion_lon": 0.0, "bike_id": "5a3ebc1b2e7fbca74513df00daf7c31b", "is_disabled": 0, "lat": 38.927492666666666, "is_reserved": 0, "type": "electric_scooter"}, {"fusion_lat": 0.0, "name": "768ce2c05e1ddacfc7f6c278f070a8af", "lon": -77.00925416666666, "rental_uris": {"android": "https://dc.lft.to/lastmile_qr_scan", "ios": "https://dc.lft.to/lastmile_qr_scan"}, "fusion_lon": 0.0, "bike_id": "768ce2c05e1ddacfc7f6c278f070a8af", "is_disabled": 0, "lat": 38.91614466666667, "is_reserved": 0, "type": "electric_scooter"}, {"fusion_lat": 0.0, "name": "a51b6a05def40a53197edfa42737b5ff", "lon": -77.05851633333333, "rental_uris": {"android": "https://dc.lft.to/lastmile_qr_scan", "ios": "https://dc.lft.to/lastmile_qr_scan"}, "fusion_lon": 0.0, "bike_id": "a51b6a05def40a53197edfa42737b5ff", "is_disabled": 0, "lat": 38.93047816666667, "is_reserved": 0, "type": "electric_scooter"}, {"fusion_lat": 0.0, "name": "043223f5ab77c348329a689be976b2e1", "lon": -77.043988, "rental_uris": {"android": "https://dc.lft.to/lastmile_qr_scan", "ios": "https://dc.lft.to/lastmile_qr_scan"}, "fusion_lon": 0.0, "bike_id": "043223f5ab77c348329a689be976b2e1", "is_disabled": 0, "lat": 38.910469, "is_reserved": 0, "type": "electric_scooter"}, {"fusion_lat": 0.0, "name": "b66e16e12aa46564f483394debf9e236", "lon": -77.026321, "rental_uris": {"android": "https://dc.lft.to/lastmile_qr_scan", "ios": "https://dc.lft.to/lastmile_qr_scan"}, "fusion_lon": 0.0, "bike_id": "b66e16e12aa46564f483394debf9e236", "is_disabled": 0, "lat": 38.96225166666667, "is_reserved": 0, "type": "electric_bike"}, {"fusion_lat": 0.0, "name": "1cbc225f38f846566639cbaaa2528949", "lon": -76.9859485, "rental_uris": {"android": "https://dc.lft.to/lastmile_qr_scan", "ios": "https://dc.lft.to/lastmile_qr_scan"}, "fusion_lon": 0.0, "bike_id": "1cbc225f38f846566639cbaaa2528949", "is_disabled": 0, "lat": 38.86683416666666, "is_reserved": 0, "type": "electric_scooter"}, {"fusion_lat": 0.0, "name": "82d3b777a4323882ad7ac456a6cf7b56", "lon": -77.04421633333334, "rental_uris": {"android": "https://dc.lft.to/lastmile_qr_scan", "ios": "https://dc.lft.to/lastmile_qr_scan"}, "fusion_lon": 0.0, "bike_id": "82d3b777a4323882ad7ac456a6cf7b56", "is_disabled": 0, "lat": 38.9113485, "is_reserved": 0, "type": "electric_scooter"}, {"fusion_lat": 0.0, "name": "69d91a936f19ff9b9b9deb03afd10fd2", "lon": -76.99371166666667, "rental_uris": {"android": "https://dc.lft.to/lastmile_qr_scan", "ios": "https://dc.lft.to/lastmile_qr_scan"}, "fusion_lon": 0.0, "bike_id": "69d91a936f19ff9b9b9deb03afd10fd2", "is_disabled": 0, "lat": 38.88824683333333, "is_reserved": 0, "type": "electric_scooter"}, {"fusion_lat": 0.0, "name": "bd70a965facfd82acd4c4839f575c4fd", "lon": -76.99485283333334, "rental_uris": {"android": "https://dc.lft.to/lastmile_qr_scan", "ios": "https://dc.lft.to/lastmile_qr_scan"}, "fusion_lon": 0.0, "bike_id": "bd70a965facfd82acd4c4839f575c4fd", "is_disabled": 0, "lat": 38.886030833333336, "is_reserved": 0, "type": "electric_scooter"}, {"fusion_lat": 0.0, "name": "7ac50e96375567c08605f43345dda292", "lon": -77.013168, "rental_uris": {"android": "https://dc.lft.to/lastmile_qr_scan", "ios": "https://dc.lft.to/lastmile_qr_scan"}, "fusion_lon": 0.0, "bike_id": "7ac50e96375567c08605f43345dda292", "is_disabled": 0, "lat": 38.8974075, "is_reserved": 0, "type": "electric_scooter"}, {"fusion_lat": 0.0, "name": "3cb50f7c70bf259caa231bc4a6664b56", "lon": -77.02962966666666, "rental_uris": {"android": "https://dc.lft.to/lastmile_qr_scan", "ios": "https://dc.lft.to/lastmile_qr_scan"}, "fusion_lon": 0.0, "bike_id": "3cb50f7c70bf259caa231bc4a6664b56", "is_disabled": 0, "lat": 38.916624666666664, "is_reserved": 0, "type": "electric_scooter"}, {"fusion_lat": 0.0, "name": "72cf2e7883d9aa08d4727269ad3a28be", "lon": -77.02843733333333, "rental_uris": {"android": "https://dc.lft.to/lastmile_qr_scan", "ios": "https://dc.lft.to/lastmile_qr_scan"}, "fusion_lon": 0.0, "bike_id": "72cf2e7883d9aa08d4727269ad3a28be", "is_disabled": 0, "lat": 38.92570833333333, "is_reserved": 0, "type": "electric_scooter"}, {"fusion_lat": 0.0, "name": "ef5ca04c4a3de5020b93c38b3b72bb93", "lon": -77.00949716666666, "rental_uris": {"android": "https://dc.lft.to/lastmile_qr_scan", "ios": "https://dc.lft.to/lastmile_qr_scan"}, "fusion_lon": 0.0, "bike_id": "ef5ca04c4a3de5020b93c38b3b72bb93", "is_disabled": 0, "lat": 38.89499, "is_reserved": 0, "type": "electric_scooter"}, {"fusion_lat": 0.0, "name": "23175c2a267bb4f9c9e4a2d880db095f", "lon": -77.04397016666667, "rental_uris": {"android": "https://dc.lft.to/lastmile_qr_scan", "ios": "https://dc.lft.to/lastmile_qr_scan"}, "fusion_lon": 0.0, "bike_id": "23175c2a267bb4f9c9e4a2d880db095f", "is_disabled": 0, "lat": 38.909327166666664, "is_reserved": 0, "type": "electric_scooter"}, {"fusion_lat": 0.0, "name": "f36cabdd46de821b228521ede3043cd6", "lon": -76.95582433333334, "rental_uris": {"android": "https://dc.lft.to/lastmile_qr_scan", "ios": "https://dc.lft.to/lastmile_qr_scan"}, "fusion_lon": 0.0, "bike_id": "f36cabdd46de821b228521ede3043cd6", "is_disabled": 0, "lat": 38.88759433333333, "is_reserved": 0, "type": "electric_scooter"}, {"fusion_lat": 0.0, "name": "d654b27365e7db132bde8eb9bbf94a9b", "lon": -77.038508, "rental_uris": {"android": "https://dc.lft.to/lastmile_qr_scan", "ios": "https://dc.lft.to/lastmile_qr_scan"}, "fusion_lon": 0.0, "bike_id": "d654b27365e7db132bde8eb9bbf94a9b", "is_disabled": 0, "lat": 38.91660183333333, "is_reserved": 0, "type": "electric_scooter"}, {"fusion_lat": 0.0, "name": "23c1554c1ff07ab76a6f40063057f6b5", "lon": -77.04391983333333, "rental_uris": {"android": "https://dc.lft.to/lastmile_qr_scan", "ios": "https://dc.lft.to/lastmile_qr_scan"}, "fusion_lon": 0.0, "bike_id": "23c1554c1ff07ab76a6f40063057f6b5", "is_disabled": 0, "lat": 39.04713266666667, "is_reserved": 0, "type": "electric_bike"}, {"fusion_lat": 0.0, "name": "544795c8d3f07a5ef36b057570053b47", "lon": -77.0297175, "rental_uris": {"android": "https://dc.lft.to/lastmile_qr_scan", "ios": "https://dc.lft.to/lastmile_qr_scan"}, "fusion_lon": 0.0, "bike_id": "544795c8d3f07a5ef36b057570053b47", "is_disabled": 0, "lat": 38.91725116666667, "is_reserved": 0, "type": "electric_scooter"}, {"fusion_lat": 0.0, "name": "0b1e9b79682f586ef54229982e9cb652", "lon": -77.0582775, "rental_uris": {"android": "https://dc.lft.to/lastmile_qr_scan", "ios": "https://dc.lft.to/lastmile_qr_scan"}, "fusion_lon": 0.0, "bike_id": "0b1e9b79682f586ef54229982e9cb652", "is_disabled": 0, "lat": 38.9353425, "is_reserved": 0, "type": "electric_scooter"}, {"fusion_lat": 0.0, "name": "98fd48bb0b171cbc3736d7f537cc1495", "lon": -76.98546916666666, "rental_uris": {"android": "https://dc.lft.to/lastmile_qr_scan", "ios": "https://dc.lft.to/lastmile_qr_scan"}, "fusion_lon": 0.0, "bike_id": "98fd48bb0b171cbc3736d7f537cc1495", "is_disabled": 0, "lat": 38.920141, "is_reserved": 0, "type": "electric_scooter"}, {"fusion_lat": 0.0, "name": "d0bb93b6bb92fe39fd5835cf9d6bf4ba", "lon": -77.02533183333334, "rental_uris": {"android": "https://dc.lft.to/lastmile_qr_scan", "ios": "https://dc.lft.to/lastmile_qr_scan"}, "fusion_lon": 0.0, "bike_id": "d0bb93b6bb92fe39fd5835cf9d6bf4ba", "is_disabled": 0, "lat": 38.941834, "is_reserved": 0, "type": "electric_scooter"}, {"fusion_lat": 0.0, "name": "c4b77ffdc7657c0ca9f827d3e9dfc43d", "lon": -77.02156833333333, "rental_uris": {"android": "https://dc.lft.to/lastmile_qr_scan", "ios": "https://dc.lft.to/lastmile_qr_scan"}, "fusion_lon": 0.0, "bike_id": "c4b77ffdc7657c0ca9f827d3e9dfc43d", "is_disabled": 0, "lat": 38.9260045, "is_reserved": 0, "type": "electric_scooter"}, {"fusion_lat": 0.0, "name": "26e8a27292bf6362f3ed16b8a03c3086", "lon": -77.03213966666667, "rental_uris": {"android": "https://dc.lft.to/lastmile_qr_scan", "ios": "https://dc.lft.to/lastmile_qr_scan"}, "fusion_lon": 0.0, "bike_id": "26e8a27292bf6362f3ed16b8a03c3086", "is_disabled": 0, "lat": 38.892196, "is_reserved": 0, "type": "electric_scooter"}, {"fusion_lat": 0.0, "name": "5ce27626f6a5c9b8a1450a526d13f316", "lon": -77.019545, "rental_uris": {"android": "https://dc.lft.to/lastmile_qr_scan", "ios": "https://dc.lft.to/lastmile_qr_scan"}, "fusion_lon": 0.0, "bike_id": "5ce27626f6a5c9b8a1450a526d13f316", "is_disabled": 0, "lat": 38.923112833333334, "is_reserved": 0, "type": "electric_scooter"}, {"fusion_lat": 0.0, "name": "9ae6df73ec3fa101876cd4801e3203eb", "lon": -77.020193, "rental_uris": {"android": "https://dc.lft.to/lastmile_qr_scan", "ios": "https://dc.lft.to/lastmile_qr_scan"}, "fusion_lon": 0.0, "bike_id": "9ae6df73ec3fa101876cd4801e3203eb", "is_disabled": 0, "lat": 38.914025333333335, "is_reserved": 0, "type": "electric_scooter"}, {"fusion_lat": 0.0, "name": "ed50c36f55ab22f8f813662542c8a249", "lon": -77.02460133333334, "rental_uris": {"android": "https://dc.lft.to/lastmile_qr_scan", "ios": "https://dc.lft.to/lastmile_qr_scan"}, "fusion_lon": 0.0, "bike_id": "ed50c36f55ab22f8f813662542c8a249", "is_disabled": 0, "lat": 38.938517, "is_reserved": 0, "type": "electric_scooter"}, {"fusion_lat": 0.0, "name": "0923313edcf47429a29be82c52b72dca", "lon": -77.03586666666666, "rental_uris": {"android": "https://dc.lft.to/lastmile_qr_scan", "ios": "https://dc.lft.to/lastmile_qr_scan"}, "fusion_lon": 0.0, "bike_id": "0923313edcf47429a29be82c52b72dca", "is_disabled": 0, "lat": 38.99222416666667, "is_reserved": 0, "type": "electric_scooter"}, {"fusion_lat": 0.0, "name": "dd551a6542bb1d97800a76dd764f38c2", "lon": -77.04520933333333, "rental_uris": {"android": "https://dc.lft.to/lastmile_qr_scan", "ios": "https://dc.lft.to/lastmile_qr_scan"}, "fusion_lon": 0.0, "bike_id": "dd551a6542bb1d97800a76dd764f38c2", "is_disabled": 0, "lat": 38.90963766666667, "is_reserved": 0, "type": "electric_scooter"}, {"fusion_lat": 0.0, "name": "4583ace37739c7ee6c4f04f480ef2940", "lon": -77.0465665, "rental_uris": {"android": "https://dc.lft.to/lastmile_qr_scan", "ios": "https://dc.lft.to/lastmile_qr_scan"}, "fusion_lon": 0.0, "bike_id": "4583ace37739c7ee6c4f04f480ef2940", "is_disabled": 0, "lat": 38.89249, "is_reserved": 0, "type": "electric_scooter"}, {"fusion_lat": 0.0, "name": "d5d347b4843365290b7df660abeb9d03", "lon": -77.08334266666667, "rental_uris": {"android": "https://dc.lft.to/lastmile_qr_scan", "ios": "https://dc.lft.to/lastmile_qr_scan"}, "fusion_lon": 0.0, "bike_id": "d5d347b4843365290b7df660abeb9d03", "is_disabled": 0, "lat": 38.854400166666665, "is_reserved": 0, "type": "electric_bike"}, {"fusion_lat": 0.0, "name": "2e10490b31de3f12b343026f90c580cd", "lon": -77.04671166666667, "rental_uris": {"android": "https://dc.lft.to/lastmile_qr_scan", "ios": "https://dc.lft.to/lastmile_qr_scan"}, "fusion_lon": 0.0, "bike_id": "2e10490b31de3f12b343026f90c580cd", "is_disabled": 0, "lat": 38.90265216666667, "is_reserved": 0, "type": "electric_scooter"}, {"fusion_lat": 0.0, "name": "861f1ee97591e72ace51d344d3c728a0", "lon": -77.03271716666667, "rental_uris": {"android": "https://dc.lft.to/lastmile_qr_scan", "ios": "https://dc.lft.to/lastmile_qr_scan"}, "fusion_lon": 0.0, "bike_id": "861f1ee97591e72ace51d344d3c728a0", "is_disabled": 0, "lat": 38.921480833333334, "is_reserved": 0, "type": "electric_scooter"}, {"fusion_lat": 0.0, "name": "0e039e605223b4179681806fc7449fa9", "lon": -76.98763316666667, "rental_uris": {"android": "https://dc.lft.to/lastmile_qr_scan", "ios": "https://dc.lft.to/lastmile_qr_scan"}, "fusion_lon": 0.0, "bike_id": "0e039e605223b4179681806fc7449fa9", "is_disabled": 0, "lat": 38.85765933333333, "is_reserved": 0, "type": "electric_bike"}, {"fusion_lat": 0.0, "name": "67a874189d0534406f69bb3b583e0fcd", "lon": -77.0330045, "rental_uris": {"android": "https://dc.lft.to/lastmile_qr_scan", "ios": "https://dc.lft.to/lastmile_qr_scan"}, "fusion_lon": 0.0, "bike_id": "67a874189d0534406f69bb3b583e0fcd", "is_disabled": 0, "lat": 38.92865466666667, "is_reserved": 0, "type": "electric_scooter"}, {"fusion_lat": 0.0, "name": "093a8cd7e7db82b10fdb077dbccf3ef1", "lon": -77.03203683333334, "rental_uris": {"android": "https://dc.lft.to/lastmile_qr_scan", "ios": "https://dc.lft.to/lastmile_qr_scan"}, "fusion_lon": 0.0, "bike_id": "093a8cd7e7db82b10fdb077dbccf3ef1", "is_disabled": 0, "lat": 38.907864333333336, "is_reserved": 0, "type": "electric_scooter"}, {"fusion_lat": 0.0, "name": "fe26048e6c185e322262b21152fe37c2", "lon": -77.04358233333333, "rental_uris": {"android": "https://dc.lft.to/lastmile_qr_scan", "ios": "https://dc.lft.to/lastmile_qr_scan"}, "fusion_lon": 0.0, "bike_id": "fe26048e6c185e322262b21152fe37c2", "is_disabled": 0, "lat": 38.90142733333333, "is_reserved": 0, "type": "electric_scooter"}, {"fusion_lat": 0.0, "name": "3a662bd01c5619b40c730e86caa7fe69", "lon": -77.03470766666666, "rental_uris": {"android": "https://dc.lft.to/lastmile_qr_scan", "ios": "https://dc.lft.to/lastmile_qr_scan"}, "fusion_lon": 0.0, "bike_id": "3a662bd01c5619b40c730e86caa7fe69", "is_disabled": 0, "lat": 38.9264525, "is_reserved": 0, "type": "electric_scooter"}, {"fusion_lat": 0.0, "name": "c9e39888784e26a538739cb09fe742ca", "lon": -77.08810633333333, "rental_uris": {"android": "https://dc.lft.to/lastmile_qr_scan", "ios": "https://dc.lft.to/lastmile_qr_scan"}, "fusion_lon": 0.0, "bike_id": "c9e39888784e26a538739cb09fe742ca", "is_disabled": 0, "lat": 38.9117515, "is_reserved": 0, "type": "electric_bike"}, {"fusion_lat": 0.0, "name": "1b03093bc05ca673431237d9a87dbb18", "lon": -77.02281616666667, "rental_uris": {"android": "https://dc.lft.to/lastmile_qr_scan", "ios": "https://dc.lft.to/lastmile_qr_scan"}, "fusion_lon": 0.0, "bike_id": "1b03093bc05ca673431237d9a87dbb18", "is_disabled": 0, "lat": 38.893599333333334, "is_reserved": 0, "type": "electric_scooter"}, {"fusion_lat": 0.0, "name": "e9139289eb0036c0342622af5775be1a", "lon": -77.017502, "rental_uris": {"android": "https://dc.lft.to/lastmile_qr_scan", "ios": "https://dc.lft.to/lastmile_qr_scan"}, "fusion_lon": 0.0, "bike_id": "e9139289eb0036c0342622af5775be1a", "is_disabled": 0, "lat": 38.880010166666665, "is_reserved": 0, "type": "electric_scooter"}, {"fusion_lat": 0.0, "name": "8dbcd6436d4be446c9989598ee96032e", "lon": -77.00681083333333, "rental_uris": {"android": "https://dc.lft.to/lastmile_qr_scan", "ios": "https://dc.lft.to/lastmile_qr_scan"}, "fusion_lon": 0.0, "bike_id": "8dbcd6436d4be446c9989598ee96032e", "is_disabled": 0, "lat": 38.834924666666666, "is_reserved": 0, "type": "electric_scooter"}, {"fusion_lat": 0.0, "name": "af6b0173a4d8b8554f53edb507f6512f", "lon": -77.01079083333333, "rental_uris": {"android": "https://dc.lft.to/lastmile_qr_scan", "ios": "https://dc.lft.to/lastmile_qr_scan"}, "fusion_lon": 0.0, "bike_id": "af6b0173a4d8b8554f53edb507f6512f", "is_disabled": 0, "lat": 38.895023333333334, "is_reserved": 0, "type": "electric_scooter"}, {"fusion_lat": 0.0, "name": "7ba62d0828bb8807139018ca54ad8d66", "lon": -76.997126, "rental_uris": {"android": "https://dc.lft.to/lastmile_qr_scan", "ios": "https://dc.lft.to/lastmile_qr_scan"}, "fusion_lon": 0.0, "bike_id": "7ba62d0828bb8807139018ca54ad8d66", "is_disabled": 0, "lat": 38.88480883333333, "is_reserved": 0, "type": "electric_scooter"}, {"fusion_lat": 0.0, "name": "3146a7fe66bd8be295e4cfefd76676a8", "lon": -77.00444116666667, "rental_uris": {"android": "https://dc.lft.to/lastmile_qr_scan", "ios": "https://dc.lft.to/lastmile_qr_scan"}, "fusion_lon": 0.0, "bike_id": "3146a7fe66bd8be295e4cfefd76676a8", "is_disabled": 0, "lat": 38.911911833333335, "is_reserved": 0, "type": "electric_scooter"}, {"fusion_lat": 0.0, "name": "4df5a848b2ec0336838866e071cfd7fe", "lon": -77.05320233333333, "rental_uris": {"android": "https://dc.lft.to/lastmile_qr_scan", "ios": "https://dc.lft.to/lastmile_qr_scan"}, "fusion_lon": 0.0, "bike_id": "4df5a848b2ec0336838866e071cfd7fe", "is_disabled": 0, "lat": 38.90420533333333, "is_reserved": 0, "type": "electric_scooter"}, {"fusion_lat": 0.0, "name": "a67928908cb3a14f9af81fc094b010af", "lon": -77.04563916666666, "rental_uris": {"android": "https://dc.lft.to/lastmile_qr_scan", "ios": "https://dc.lft.to/lastmile_qr_scan"}, "fusion_lon": 0.0, "bike_id": "a67928908cb3a14f9af81fc094b010af", "is_disabled": 0, "lat": 38.90860583333333, "is_reserved": 0, "type": "electric_scooter"}, {"fusion_lat": 0.0, "name": "c87b495c09619e3ad43e6676c520254f", "lon": -77.01951816666667, "rental_uris": {"android": "https://dc.lft.to/lastmile_qr_scan", "ios": "https://dc.lft.to/lastmile_qr_scan"}, "fusion_lon": 0.0, "bike_id": "c87b495c09619e3ad43e6676c520254f", "is_disabled": 0, "lat": 38.92413666666667, "is_reserved": 0, "type": "electric_scooter"}, {"fusion_lat": 0.0, "name": "155d29a985a986d75b21bf391772db22", "lon": -77.03634683333334, "rental_uris": {"android": "https://dc.lft.to/lastmile_qr_scan", "ios": "https://dc.lft.to/lastmile_qr_scan"}, "fusion_lon": 0.0, "bike_id": "155d29a985a986d75b21bf391772db22", "is_disabled": 0, "lat": 38.927442, "is_reserved": 0, "type": "electric_scooter"}, {"fusion_lat": 0.0, "name": "9ad45e2da6d5af6c58951a4ab11ddbe3", "lon": -77.03721983333334, "rental_uris": {"android": "https://dc.lft.to/lastmile_qr_scan", "ios": "https://dc.lft.to/lastmile_qr_scan"}, "fusion_lon": 0.0, "bike_id": "9ad45e2da6d5af6c58951a4ab11ddbe3", "is_disabled": 0, "lat": 38.918153833333335, "is_reserved": 0, "type": "electric_scooter"}, {"fusion_lat": 0.0, "name": "77f8e793e0d0dbff12d9b2efeeef8403", "lon": -76.99558716666667, "rental_uris": {"android": "https://dc.lft.to/lastmile_qr_scan", "ios": "https://dc.lft.to/lastmile_qr_scan"}, "fusion_lon": 0.0, "bike_id": "77f8e793e0d0dbff12d9b2efeeef8403", "is_disabled": 0, "lat": 38.90243066666667, "is_reserved": 0, "type": "electric_scooter"}, {"fusion_lat": 0.0, "name": "d23a49bb08861bff422f0a16936d086e", "lon": -77.028344, "rental_uris": {"android": "https://dc.lft.to/lastmile_qr_scan", "ios": "https://dc.lft.to/lastmile_qr_scan"}, "fusion_lon": 0.0, "bike_id": "d23a49bb08861bff422f0a16936d086e", "is_disabled": 0, "lat": 38.887237166666665, "is_reserved": 0, "type": "electric_scooter"}, {"fusion_lat": 0.0, "name": "e71b0902d896591f738b99108017eb10", "lon": -77.03289316666667, "rental_uris": {"android": "https://dc.lft.to/lastmile_qr_scan", "ios": "https://dc.lft.to/lastmile_qr_scan"}, "fusion_lon": 0.0, "bike_id": "e71b0902d896591f738b99108017eb10", "is_disabled": 0, "lat": 38.91622, "is_reserved": 0, "type": "electric_scooter"}, {"fusion_lat": 0.0, "name": "641494b0eb23de002651ebbd6ff3ca82", "lon": -76.97595383333334, "rental_uris": {"android": "https://dc.lft.to/lastmile_qr_scan", "ios": "https://dc.lft.to/lastmile_qr_scan"}, "fusion_lon": 0.0, "bike_id": "641494b0eb23de002651ebbd6ff3ca82", "is_disabled": 0, "lat": 38.869865833333336, "is_reserved": 0, "type": "electric_scooter"}, {"fusion_lat": 0.0, "name": "e56f5e61689eedf88f5e25432add476f", "lon": -77.02063266666667, "rental_uris": {"android": "https://dc.lft.to/lastmile_qr_scan", "ios": "https://dc.lft.to/lastmile_qr_scan"}, "fusion_lon": 0.0, "bike_id": "e56f5e61689eedf88f5e25432add476f", "is_disabled": 0, "lat": 38.895897166666664, "is_reserved": 0, "type": "electric_scooter"}, {"fusion_lat": 0.0, "name": "3fc4e335351f213fcf79563dae10c02c", "lon": -77.08066933333333, "rental_uris": {"android": "https://dc.lft.to/lastmile_qr_scan", "ios": "https://dc.lft.to/lastmile_qr_scan"}, "fusion_lon": 0.0, "bike_id": "3fc4e335351f213fcf79563dae10c02c", "is_disabled": 0, "lat": 39.05276833333333, "is_reserved": 0, "type": "electric_bike"}, {"fusion_lat": 0.0, "name": "ca36199ff77ad891572b9b62eb70fcfb", "lon": -77.00337566666667, "rental_uris": {"android": "https://dc.lft.to/lastmile_qr_scan", "ios": "https://dc.lft.to/lastmile_qr_scan"}, "fusion_lon": 0.0, "bike_id": "ca36199ff77ad891572b9b62eb70fcfb", "is_disabled": 0, "lat": 38.8950305, "is_reserved": 0, "type": "electric_scooter"}, {"fusion_lat": 0.0, "name": "384e62c252e28990511e8df2b959ded3", "lon": -76.92818666666666, "rental_uris": {"android": "https://dc.lft.to/lastmile_qr_scan", "ios": "https://dc.lft.to/lastmile_qr_scan"}, "fusion_lon": 0.0, "bike_id": "384e62c252e28990511e8df2b959ded3", "is_disabled": 0, "lat": 38.96095, "is_reserved": 0, "type": "electric_bike"}, {"fusion_lat": 0.0, "name": "aa55ba456e96216de11396a278d4aa56", "lon": -77.0359955, "rental_uris": {"android": "https://dc.lft.to/lastmile_qr_scan", "ios": "https://dc.lft.to/lastmile_qr_scan"}, "fusion_lon": 0.0, "bike_id": "aa55ba456e96216de11396a278d4aa56", "is_disabled": 0, "lat": 38.93666266666666, "is_reserved": 0, "type": "electric_scooter"}, {"fusion_lat": 0.0, "name": "72535e432bb352b5f33c3fed76e61729", "lon": -77.03345933333334, "rental_uris": {"android": "https://dc.lft.to/lastmile_qr_scan", "ios": "https://dc.lft.to/lastmile_qr_scan"}, "fusion_lon": 0.0, "bike_id": "72535e432bb352b5f33c3fed76e61729", "is_disabled": 0, "lat": 38.897438333333334, "is_reserved": 0, "type": "electric_scooter"}, {"fusion_lat": 0.0, "name": "0b36a5891e20b60c6020469070f734c1", "lon": -77.06504266666667, "rental_uris": {"android": "https://dc.lft.to/lastmile_qr_scan", "ios": "https://dc.lft.to/lastmile_qr_scan"}, "fusion_lon": 0.0, "bike_id": "0b36a5891e20b60c6020469070f734c1", "is_disabled": 0, "lat": 38.9039975, "is_reserved": 0, "type": "electric_scooter"}, {"fusion_lat": 0.0, "name": "7dcf5bb6d584453822bc1a9dc9040357", "lon": -77.02971716666667, "rental_uris": {"android": "https://dc.lft.to/lastmile_qr_scan", "ios": "https://dc.lft.to/lastmile_qr_scan"}, "fusion_lon": 0.0, "bike_id": "7dcf5bb6d584453822bc1a9dc9040357", "is_disabled": 0, "lat": 38.916905166666666, "is_reserved": 0, "type": "electric_scooter"}, {"fusion_lat": 0.0, "name": "2e7630c32563472bf20dd7f8b74be5f0", "lon": -77.02506916666667, "rental_uris": {"android": "https://dc.lft.to/lastmile_qr_scan", "ios": "https://dc.lft.to/lastmile_qr_scan"}, "fusion_lon": 0.0, "bike_id": "2e7630c32563472bf20dd7f8b74be5f0", "is_disabled": 0, "lat": 38.90562333333333, "is_reserved": 0, "type": "electric_scooter"}, {"fusion_lat": 0.0, "name": "4412de903b8a453cd827a9f9b858390f", "lon": -77.09678983333333, "rental_uris": {"android": "https://dc.lft.to/lastmile_qr_scan", "ios": "https://dc.lft.to/lastmile_qr_scan"}, "fusion_lon": 0.0, "bike_id": "4412de903b8a453cd827a9f9b858390f", "is_disabled": 0, "lat": 38.884381, "is_reserved": 0, "type": "electric_bike"}, {"fusion_lat": 0.0, "name": "f0b69ee8cb04fa44b8eb327a92122a10", "lon": -76.97017666666666, "rental_uris": {"android": "https://dc.lft.to/lastmile_qr_scan", "ios": "https://dc.lft.to/lastmile_qr_scan"}, "fusion_lon": 0.0, "bike_id": "f0b69ee8cb04fa44b8eb327a92122a10", "is_disabled": 0, "lat": 38.873655666666664, "is_reserved": 0, "type": "electric_scooter"}, {"fusion_lat": 0.0, "name": "2583c9469514ecbaa2dd31531697b5da", "lon": -77.03642133333334, "rental_uris": {"android": "https://dc.lft.to/lastmile_qr_scan", "ios": "https://dc.lft.to/lastmile_qr_scan"}, "fusion_lon": 0.0, "bike_id": "2583c9469514ecbaa2dd31531697b5da", "is_disabled": 0, "lat": 38.913428, "is_reserved": 0, "type": "electric_scooter"}, {"fusion_lat": 0.0, "name": "619191db2e99f3f35a25026a790b3b8d", "lon": -77.02706833333333, "rental_uris": {"android": "https://dc.lft.to/lastmile_qr_scan", "ios": "https://dc.lft.to/lastmile_qr_scan"}, "fusion_lon": 0.0, "bike_id": "619191db2e99f3f35a25026a790b3b8d", "is_disabled": 0, "lat": 38.91701466666667, "is_reserved": 0, "type": "electric_scooter"}, {"fusion_lat": 0.0, "name": "361a9321708e499d86c7f992b72a7e02", "lon": -77.05134783333334, "rental_uris": {"android": "https://dc.lft.to/lastmile_qr_scan", "ios": "https://dc.lft.to/lastmile_qr_scan"}, "fusion_lon": 0.0, "bike_id": "361a9321708e499d86c7f992b72a7e02", "is_disabled": 0, "lat": 38.90634166666667, "is_reserved": 0, "type": "electric_scooter"}, {"fusion_lat": 0.0, "name": "0478abe5e72c8908a0fe5543bbeb6bf9", "lon": -77.02413616666666, "rental_uris": {"android": "https://dc.lft.to/lastmile_qr_scan", "ios": "https://dc.lft.to/lastmile_qr_scan"}, "fusion_lon": 0.0, "bike_id": "0478abe5e72c8908a0fe5543bbeb6bf9", "is_disabled": 0, "lat": 38.9270025, "is_reserved": 0, "type": "electric_scooter"}, {"fusion_lat": 0.0, "name": "7ff7b640a4af8f1c2f5631b3b3ad9c63", "lon": -77.03124733333334, "rental_uris": {"android": "https://dc.lft.to/lastmile_qr_scan", "ios": "https://dc.lft.to/lastmile_qr_scan"}, "fusion_lon": 0.0, "bike_id": "7ff7b640a4af8f1c2f5631b3b3ad9c63", "is_disabled": 0, "lat": 38.95932033333333, "is_reserved": 0, "type": "electric_scooter"}, {"fusion_lat": 0.0, "name": "3a9f0749b18a06bc868fb6a90cdbbd3d", "lon": -77.03460366666667, "rental_uris": {"android": "https://dc.lft.to/lastmile_qr_scan", "ios": "https://dc.lft.to/lastmile_qr_scan"}, "fusion_lon": 0.0, "bike_id": "3a9f0749b18a06bc868fb6a90cdbbd3d", "is_disabled": 0, "lat": 38.91806716666667, "is_reserved": 0, "type": "electric_scooter"}, {"fusion_lat": 0.0, "name": "559079074a7208abc53fdb821220fbbc", "lon": -77.0160575, "rental_uris": {"android": "https://dc.lft.to/lastmile_qr_scan", "ios": "https://dc.lft.to/lastmile_qr_scan"}, "fusion_lon": 0.0, "bike_id": "559079074a7208abc53fdb821220fbbc", "is_disabled": 0, "lat": 38.900928666666665, "is_reserved": 0, "type": "electric_scooter"}, {"fusion_lat": 0.0, "name": "edf29abbcd678aed1249ab5a26ae4df8", "lon": -77.03294416666667, "rental_uris": {"android": "https://dc.lft.to/lastmile_qr_scan", "ios": "https://dc.lft.to/lastmile_qr_scan"}, "fusion_lon": 0.0, "bike_id": "edf29abbcd678aed1249ab5a26ae4df8", "is_disabled": 0, "lat": 38.9234705, "is_reserved": 0, "type": "electric_scooter"}, {"fusion_lat": 0.0, "name": "73c2cb6b5c9bdf1ecbdae6fa631248ca", "lon": -77.031748, "rental_uris": {"android": "https://dc.lft.to/lastmile_qr_scan", "ios": "https://dc.lft.to/lastmile_qr_scan"}, "fusion_lon": 0.0, "bike_id": "73c2cb6b5c9bdf1ecbdae6fa631248ca", "is_disabled": 0, "lat": 38.9141855, "is_reserved": 0, "type": "electric_scooter"}, {"fusion_lat": 0.0, "name": "43c28f5baa761932005e7ccfbf1a7f9f", "lon": -77.03546666666666, "rental_uris": {"android": "https://dc.lft.to/lastmile_qr_scan", "ios": "https://dc.lft.to/lastmile_qr_scan"}, "fusion_lon": 0.0, "bike_id": "43c28f5baa761932005e7ccfbf1a7f9f", "is_disabled": 0, "lat": 38.9239905, "is_reserved": 0, "type": "electric_scooter"}, {"fusion_lat": 0.0, "name": "f89374d94b9d7114b03eab6b4a1781ef", "lon": -77.0271835, "rental_uris": {"android": "https://dc.lft.to/lastmile_qr_scan", "ios": "https://dc.lft.to/lastmile_qr_scan"}, "fusion_lon": 0.0, "bike_id": "f89374d94b9d7114b03eab6b4a1781ef", "is_disabled": 0, "lat": 38.90901916666667, "is_reserved": 0, "type": "electric_scooter"}, {"fusion_lat": 0.0, "name": "985a2f7345f67c3c4f8192004185a2ee", "lon": -77.0442295, "rental_uris": {"android": "https://dc.lft.to/lastmile_qr_scan", "ios": "https://dc.lft.to/lastmile_qr_scan"}, "fusion_lon": 0.0, "bike_id": "985a2f7345f67c3c4f8192004185a2ee", "is_disabled": 0, "lat": 38.89395233333333, "is_reserved": 0, "type": "electric_scooter"}, {"fusion_lat": 0.0, "name": "c3082db52ca88c7dc324b7c970f6ba9a", "lon": -77.03188516666667, "rental_uris": {"android": "https://dc.lft.to/lastmile_qr_scan", "ios": "https://dc.lft.to/lastmile_qr_scan"}, "fusion_lon": 0.0, "bike_id": "c3082db52ca88c7dc324b7c970f6ba9a", "is_disabled": 0, "lat": 38.90972566666667, "is_reserved": 0, "type": "electric_scooter"}, {"fusion_lat": 0.0, "name": "c8269c3787a12c2ffd90504a02c668fa", "lon": -77.02218683333334, "rental_uris": {"android": "https://dc.lft.to/lastmile_qr_scan", "ios": "https://dc.lft.to/lastmile_qr_scan"}, "fusion_lon": 0.0, "bike_id": "c8269c3787a12c2ffd90504a02c668fa", "is_disabled": 0, "lat": 38.89352233333334, "is_reserved": 0, "type": "electric_scooter"}, {"fusion_lat": 0.0, "name": "45e68bd9402c959d923072f989704a0d", "lon": -77.029416, "rental_uris": {"android": "https://dc.lft.to/lastmile_qr_scan", "ios": "https://dc.lft.to/lastmile_qr_scan"}, "fusion_lon": 0.0, "bike_id": "45e68bd9402c959d923072f989704a0d", "is_disabled": 0, "lat": 38.939745, "is_reserved": 0, "type": "electric_scooter"}, {"fusion_lat": 0.0, "name": "355524fd5ae0cd062e7e45fa81b5465c", "lon": -77.04464816666666, "rental_uris": {"android": "https://dc.lft.to/lastmile_qr_scan", "ios": "https://dc.lft.to/lastmile_qr_scan"}, "fusion_lon": 0.0, "bike_id": "355524fd5ae0cd062e7e45fa81b5465c", "is_disabled": 0, "lat": 38.8961245, "is_reserved": 0, "type": "electric_scooter"}, {"fusion_lat": 0.0, "name": "399587525b4423e7205d42227d381d64", "lon": -77.02159333333333, "rental_uris": {"android": "https://dc.lft.to/lastmile_qr_scan", "ios": "https://dc.lft.to/lastmile_qr_scan"}, "fusion_lon": 0.0, "bike_id": "399587525b4423e7205d42227d381d64", "is_disabled": 0, "lat": 38.926003, "is_reserved": 0, "type": "electric_scooter"}, {"fusion_lat": 0.0, "name": "6269a9e4db7e42f63a26919e6493c404", "lon": -77.03563833333334, "rental_uris": {"android": "https://dc.lft.to/lastmile_qr_scan", "ios": "https://dc.lft.to/lastmile_qr_scan"}, "fusion_lon": 0.0, "bike_id": "6269a9e4db7e42f63a26919e6493c404", "is_disabled": 0, "lat": 38.904759166666665, "is_reserved": 0, "type": "electric_scooter"}, {"fusion_lat": 0.0, "name": "0f8398a0c4cb99ea3df48e42aa05369a", "lon": -77.0201765, "rental_uris": {"android": "https://dc.lft.to/lastmile_qr_scan", "ios": "https://dc.lft.to/lastmile_qr_scan"}, "fusion_lon": 0.0, "bike_id": "0f8398a0c4cb99ea3df48e42aa05369a", "is_disabled": 0, "lat": 38.91400866666667, "is_reserved": 0, "type": "electric_scooter"}, {"fusion_lat": 0.0, "name": "5e13f01df6e4689fde869786240b77c7", "lon": -76.93370133333333, "rental_uris": {"android": "https://dc.lft.to/lastmile_qr_scan", "ios": "https://dc.lft.to/lastmile_qr_scan"}, "fusion_lon": 0.0, "bike_id": "5e13f01df6e4689fde869786240b77c7", "is_disabled": 0, "lat": 38.89912366666667, "is_reserved": 0, "type": "electric_scooter"}, {"fusion_lat": 0.0, "name": "12223e9b0db82f4669364232a6e8543f", "lon": -77.103592, "rental_uris": {"android": "https://dc.lft.to/lastmile_qr_scan", "ios": "https://dc.lft.to/lastmile_qr_scan"}, "fusion_lon": 0.0, "bike_id": "12223e9b0db82f4669364232a6e8543f", "is_disabled": 0, "lat": 38.885559, "is_reserved": 0, "type": "electric_bike"}, {"fusion_lat": 0.0, "name": "c616ce37de92e90a27338c7a4a255f0b", "lon": -77.03660716666667, "rental_uris": {"android": "https://dc.lft.to/lastmile_qr_scan", "ios": "https://dc.lft.to/lastmile_qr_scan"}, "fusion_lon": 0.0, "bike_id": "c616ce37de92e90a27338c7a4a255f0b", "is_disabled": 0, "lat": 38.922801666666665, "is_reserved": 0, "type": "electric_scooter"}, {"fusion_lat": 0.0, "name": "e423ae4fa3873503975aaee7d6ceafd1", "lon": -77.00325083333334, "rental_uris": {"android": "https://dc.lft.to/lastmile_qr_scan", "ios": "https://dc.lft.to/lastmile_qr_scan"}, "fusion_lon": 0.0, "bike_id": "e423ae4fa3873503975aaee7d6ceafd1", "is_disabled": 0, "lat": 38.8873335, "is_reserved": 0, "type": "electric_scooter"}, {"fusion_lat": 0.0, "name": "8e75ebef8b3e175108067d0d6991e36c", "lon": -77.04295666666667, "rental_uris": {"android": "https://dc.lft.to/lastmile_qr_scan", "ios": "https://dc.lft.to/lastmile_qr_scan"}, "fusion_lon": 0.0, "bike_id": "8e75ebef8b3e175108067d0d6991e36c", "is_disabled": 0, "lat": 38.897373333333334, "is_reserved": 0, "type": "electric_scooter"}, {"fusion_lat": 0.0, "name": "79464035e9e1668c0884daf5c5c7133e", "lon": -77.02347266666666, "rental_uris": {"android": "https://dc.lft.to/lastmile_qr_scan", "ios": "https://dc.lft.to/lastmile_qr_scan"}, "fusion_lon": 0.0, "bike_id": "79464035e9e1668c0884daf5c5c7133e", "is_disabled": 0, "lat": 38.89220733333333, "is_reserved": 0, "type": "electric_scooter"}, {"fusion_lat": 0.0, "name": "012e1db68e9733bbb856b9300cecf797", "lon": -77.07655416666667, "rental_uris": {"android": "https://dc.lft.to/lastmile_qr_scan", "ios": "https://dc.lft.to/lastmile_qr_scan"}, "fusion_lon": 0.0, "bike_id": "012e1db68e9733bbb856b9300cecf797", "is_disabled": 0, "lat": 38.942419, "is_reserved": 0, "type": "electric_scooter"}, {"fusion_lat": 0.0, "name": "7f3de02ff536a2e4487b797f61016b35", "lon": -77.00583766666666, "rental_uris": {"android": "https://dc.lft.to/lastmile_qr_scan", "ios": "https://dc.lft.to/lastmile_qr_scan"}, "fusion_lon": 0.0, "bike_id": "7f3de02ff536a2e4487b797f61016b35", "is_disabled": 0, "lat": 38.88516583333333, "is_reserved": 0, "type": "electric_scooter"}, {"fusion_lat": 0.0, "name": "2374912f42088457c7969d3668c6dc55", "lon": -77.0686135, "rental_uris": {"android": "https://dc.lft.to/lastmile_qr_scan", "ios": "https://dc.lft.to/lastmile_qr_scan"}, "fusion_lon": 0.0, "bike_id": "2374912f42088457c7969d3668c6dc55", "is_disabled": 0, "lat": 38.905152666666666, "is_reserved": 0, "type": "electric_scooter"}, {"fusion_lat": 0.0, "name": "b411b0ed15e13ac507698d7bf73a972a", "lon": -77.00831416666666, "rental_uris": {"android": "https://dc.lft.to/lastmile_qr_scan", "ios": "https://dc.lft.to/lastmile_qr_scan"}, "fusion_lon": 0.0, "bike_id": "b411b0ed15e13ac507698d7bf73a972a", "is_disabled": 0, "lat": 38.8765785, "is_reserved": 0, "type": "electric_scooter"}, {"fusion_lat": 0.0, "name": "f8cc818b7139569b7d2e2b7236ab40ef", "lon": -76.9371315, "rental_uris": {"android": "https://dc.lft.to/lastmile_qr_scan", "ios": "https://dc.lft.to/lastmile_qr_scan"}, "fusion_lon": 0.0, "bike_id": "f8cc818b7139569b7d2e2b7236ab40ef", "is_disabled": 0, "lat": 38.890183, "is_reserved": 0, "type": "electric_scooter"}, {"fusion_lat": 0.0, "name": "ae1045ddaac5b64512d8a810d31f47f0", "lon": -77.03653, "rental_uris": {"android": "https://dc.lft.to/lastmile_qr_scan", "ios": "https://dc.lft.to/lastmile_qr_scan"}, "fusion_lon": 0.0, "bike_id": "ae1045ddaac5b64512d8a810d31f47f0", "is_disabled": 0, "lat": 38.9164295, "is_reserved": 0, "type": "electric_scooter"}, {"fusion_lat": 0.0, "name": "646ddc562c5dd7d2efd695652abcb5a8", "lon": -77.04359816666667, "rental_uris": {"android": "https://dc.lft.to/lastmile_qr_scan", "ios": "https://dc.lft.to/lastmile_qr_scan"}, "fusion_lon": 0.0, "bike_id": "646ddc562c5dd7d2efd695652abcb5a8", "is_disabled": 0, "lat": 38.911239, "is_reserved": 0, "type": "electric_scooter"}, {"fusion_lat": 0.0, "name": "d94152c28781c9e3ef5141c674a04627", "lon": -77.0334575, "rental_uris": {"android": "https://dc.lft.to/lastmile_qr_scan", "ios": "https://dc.lft.to/lastmile_qr_scan"}, "fusion_lon": 0.0, "bike_id": "d94152c28781c9e3ef5141c674a04627", "is_disabled": 0, "lat": 38.892207166666665, "is_reserved": 0, "type": "electric_scooter"}, {"fusion_lat": 0.0, "name": "d2a8af52fc4067a4ff17b3cccd5b8284", "lon": -77.02572966666666, "rental_uris": {"android": "https://dc.lft.to/lastmile_qr_scan", "ios": "https://dc.lft.to/lastmile_qr_scan"}, "fusion_lon": 0.0, "bike_id": "d2a8af52fc4067a4ff17b3cccd5b8284", "is_disabled": 0, "lat": 38.901461, "is_reserved": 0, "type": "electric_scooter"}, {"fusion_lat": 0.0, "name": "2f084355f36cded60e1f2a09ad37c087", "lon": -77.03267416666667, "rental_uris": {"android": "https://dc.lft.to/lastmile_qr_scan", "ios": "https://dc.lft.to/lastmile_qr_scan"}, "fusion_lon": 0.0, "bike_id": "2f084355f36cded60e1f2a09ad37c087", "is_disabled": 0, "lat": 38.930991666666664, "is_reserved": 0, "type": "electric_scooter"}, {"fusion_lat": 0.0, "name": "4594f142a523127024e2c578c8c289af", "lon": -77.09467683333334, "rental_uris": {"android": "https://dc.lft.to/lastmile_qr_scan", "ios": "https://dc.lft.to/lastmile_qr_scan"}, "fusion_lon": 0.0, "bike_id": "4594f142a523127024e2c578c8c289af", "is_disabled": 0, "lat": 38.86937666666667, "is_reserved": 0, "type": "electric_bike"}, {"fusion_lat": 0.0, "name": "a66c0aa3685a2be29ce1060fb874a6e7", "lon": -77.04487766666666, "rental_uris": {"android": "https://dc.lft.to/lastmile_qr_scan", "ios": "https://dc.lft.to/lastmile_qr_scan"}, "fusion_lon": 0.0, "bike_id": "a66c0aa3685a2be29ce1060fb874a6e7", "is_disabled": 0, "lat": 38.9192155, "is_reserved": 0, "type": "electric_scooter"}, {"fusion_lat": 0.0, "name": "905f383f40fffe3f7421311317754d5f", "lon": -77.03546533333333, "rental_uris": {"android": "https://dc.lft.to/lastmile_qr_scan", "ios": "https://dc.lft.to/lastmile_qr_scan"}, "fusion_lon": 0.0, "bike_id": "905f383f40fffe3f7421311317754d5f", "is_disabled": 0, "lat": 38.90482766666667, "is_reserved": 0, "type": "electric_scooter"}, {"fusion_lat": 0.0, "name": "7fe0def81756d8f07e8500e86401c209", "lon": -77.02161983333333, "rental_uris": {"android": "https://dc.lft.to/lastmile_qr_scan", "ios": "https://dc.lft.to/lastmile_qr_scan"}, "fusion_lon": 0.0, "bike_id": "7fe0def81756d8f07e8500e86401c209", "is_disabled": 0, "lat": 38.92589666666667, "is_reserved": 0, "type": "electric_scooter"}, {"fusion_lat": 0.0, "name": "7bd04a22f54a04addb7ad23c97d9b57d", "lon": -77.04042966666667, "rental_uris": {"android": "https://dc.lft.to/lastmile_qr_scan", "ios": "https://dc.lft.to/lastmile_qr_scan"}, "fusion_lon": 0.0, "bike_id": "7bd04a22f54a04addb7ad23c97d9b57d", "is_disabled": 0, "lat": 38.918616666666665, "is_reserved": 0, "type": "electric_scooter"}, {"fusion_lat": 0.0, "name": "921870d089bd87267dca21ef41815e1e", "lon": -77.03250416666667, "rental_uris": {"android": "https://dc.lft.to/lastmile_qr_scan", "ios": "https://dc.lft.to/lastmile_qr_scan"}, "fusion_lon": 0.0, "bike_id": "921870d089bd87267dca21ef41815e1e", "is_disabled": 0, "lat": 38.92172166666667, "is_reserved": 0, "type": "electric_scooter"}, {"fusion_lat": 0.0, "name": "8fbc3cbadd32da9a0b89c3b6a72dff14", "lon": -76.98363183333333, "rental_uris": {"android": "https://dc.lft.to/lastmile_qr_scan", "ios": "https://dc.lft.to/lastmile_qr_scan"}, "fusion_lon": 0.0, "bike_id": "8fbc3cbadd32da9a0b89c3b6a72dff14", "is_disabled": 0, "lat": 38.915346, "is_reserved": 0, "type": "electric_scooter"}, {"fusion_lat": 0.0, "name": "9dd7a551db8740d3b31c2237a84786e9", "lon": -77.0037955, "rental_uris": {"android": "https://dc.lft.to/lastmile_qr_scan", "ios": "https://dc.lft.to/lastmile_qr_scan"}, "fusion_lon": 0.0, "bike_id": "9dd7a551db8740d3b31c2237a84786e9", "is_disabled": 0, "lat": 38.875259666666665, "is_reserved": 0, "type": "electric_scooter"}, {"fusion_lat": 0.0, "name": "be7fcd9af4a043fd4b295a586a8114a4", "lon": -77.03139316666666, "rental_uris": {"android": "https://dc.lft.to/lastmile_qr_scan", "ios": "https://dc.lft.to/lastmile_qr_scan"}, "fusion_lon": 0.0, "bike_id": "be7fcd9af4a043fd4b295a586a8114a4", "is_disabled": 0, "lat": 38.93077433333333, "is_reserved": 0, "type": "electric_scooter"}, {"fusion_lat": 0.0, "name": "50afc7dddaaf940466ea43b031f26948", "lon": -77.04376983333333, "rental_uris": {"android": "https://dc.lft.to/lastmile_qr_scan", "ios": "https://dc.lft.to/lastmile_qr_scan"}, "fusion_lon": 0.0, "bike_id": "50afc7dddaaf940466ea43b031f26948", "is_disabled": 0, "lat": 38.892157166666664, "is_reserved": 0, "type": "electric_scooter"}, {"fusion_lat": 0.0, "name": "1e7790f4f9e66eb103a102ca4d4c8104", "lon": -77.045075, "rental_uris": {"android": "https://dc.lft.to/lastmile_qr_scan", "ios": "https://dc.lft.to/lastmile_qr_scan"}, "fusion_lon": 0.0, "bike_id": "1e7790f4f9e66eb103a102ca4d4c8104", "is_disabled": 0, "lat": 38.89226216666667, "is_reserved": 0, "type": "electric_scooter"}, {"fusion_lat": 0.0, "name": "861f8e0813e133d9ec689a812f366269", "lon": -77.03265366666666, "rental_uris": {"android": "https://dc.lft.to/lastmile_qr_scan", "ios": "https://dc.lft.to/lastmile_qr_scan"}, "fusion_lon": 0.0, "bike_id": "861f8e0813e133d9ec689a812f366269", "is_disabled": 0, "lat": 38.914066166666665, "is_reserved": 0, "type": "electric_scooter"}, {"fusion_lat": 0.0, "name": "18dbd1174b593e06b4dfa4092b6fff92", "lon": -77.03874516666667, "rental_uris": {"android": "https://dc.lft.to/lastmile_qr_scan", "ios": "https://dc.lft.to/lastmile_qr_scan"}, "fusion_lon": 0.0, "bike_id": "18dbd1174b593e06b4dfa4092b6fff92", "is_disabled": 0, "lat": 38.921516, "is_reserved": 0, "type": "electric_scooter"}, {"fusion_lat": 0.0, "name": "f29e57f4f9c33441e6e5af4403c164fc", "lon": -77.001664, "rental_uris": {"android": "https://dc.lft.to/lastmile_qr_scan", "ios": "https://dc.lft.to/lastmile_qr_scan"}, "fusion_lon": 0.0, "bike_id": "f29e57f4f9c33441e6e5af4403c164fc", "is_disabled": 0, "lat": 38.902567833333336, "is_reserved": 0, "type": "electric_scooter"}, {"fusion_lat": 0.0, "name": "f10b3013b2ad62616d1db1570f13f00f", "lon": -77.0716725, "rental_uris": {"android": "https://dc.lft.to/lastmile_qr_scan", "ios": "https://dc.lft.to/lastmile_qr_scan"}, "fusion_lon": 0.0, "bike_id": "f10b3013b2ad62616d1db1570f13f00f", "is_disabled": 0, "lat": 38.907763, "is_reserved": 0, "type": "electric_bike"}, {"fusion_lat": 0.0, "name": "2ffaa0bdda7f95a1ca9ddd4be326c774", "lon": -76.97747183333334, "rental_uris": {"android": "https://dc.lft.to/lastmile_qr_scan", "ios": "https://dc.lft.to/lastmile_qr_scan"}, "fusion_lon": 0.0, "bike_id": "2ffaa0bdda7f95a1ca9ddd4be326c774", "is_disabled": 0, "lat": 38.86475266666667, "is_reserved": 0, "type": "electric_scooter"}, {"fusion_lat": 0.0, "name": "c90d897c5dd028d0e11030020088a418", "lon": -77.00355266666666, "rental_uris": {"android": "https://dc.lft.to/lastmile_qr_scan", "ios": "https://dc.lft.to/lastmile_qr_scan"}, "fusion_lon": 0.0, "bike_id": "c90d897c5dd028d0e11030020088a418", "is_disabled": 0, "lat": 38.8766595, "is_reserved": 0, "type": "electric_scooter"}, {"fusion_lat": 0.0, "name": "14f693bf80212da0ce5ee377a2fe19b1", "lon": -76.96509883333333, "rental_uris": {"android": "https://dc.lft.to/lastmile_qr_scan", "ios": "https://dc.lft.to/lastmile_qr_scan"}, "fusion_lon": 0.0, "bike_id": "14f693bf80212da0ce5ee377a2fe19b1", "is_disabled": 0, "lat": 38.876478, "is_reserved": 0, "type": "electric_scooter"}, {"fusion_lat": 0.0, "name": "61ff4963868337c49928a6ff533ff9d1", "lon": -77.03269766666666, "rental_uris": {"android": "https://dc.lft.to/lastmile_qr_scan", "ios": "https://dc.lft.to/lastmile_qr_scan"}, "fusion_lon": 0.0, "bike_id": "61ff4963868337c49928a6ff533ff9d1", "is_disabled": 0, "lat": 38.93978083333333, "is_reserved": 0, "type": "electric_scooter"}, {"fusion_lat": 0.0, "name": "57044fa1ae9076112e4b20e7a66c92d8", "lon": -76.912196, "rental_uris": {"android": "https://dc.lft.to/lastmile_qr_scan", "ios": "https://dc.lft.to/lastmile_qr_scan"}, "fusion_lon": 0.0, "bike_id": "57044fa1ae9076112e4b20e7a66c92d8", "is_disabled": 0, "lat": 38.90313583333333, "is_reserved": 0, "type": "electric_bike"}, {"fusion_lat": 0.0, "name": "52ea4843713a9899966c4626730ebaf0", "lon": -77.02832966666666, "rental_uris": {"android": "https://dc.lft.to/lastmile_qr_scan", "ios": "https://dc.lft.to/lastmile_qr_scan"}, "fusion_lon": 0.0, "bike_id": "52ea4843713a9899966c4626730ebaf0", "is_disabled": 0, "lat": 38.932061, "is_reserved": 0, "type": "electric_scooter"}, {"fusion_lat": 0.0, "name": "5f99c5b3ee7009afe65c57ec6e26e0c6", "lon": -77.0375155, "rental_uris": {"android": "https://dc.lft.to/lastmile_qr_scan", "ios": "https://dc.lft.to/lastmile_qr_scan"}, "fusion_lon": 0.0, "bike_id": "5f99c5b3ee7009afe65c57ec6e26e0c6", "is_disabled": 0, "lat": 38.92898233333333, "is_reserved": 0, "type": "electric_scooter"}, {"fusion_lat": 0.0, "name": "c0e29242e736b2328f6687f0fe3d8d81", "lon": -76.98716383333333, "rental_uris": {"android": "https://dc.lft.to/lastmile_qr_scan", "ios": "https://dc.lft.to/lastmile_qr_scan"}, "fusion_lon": 0.0, "bike_id": "c0e29242e736b2328f6687f0fe3d8d81", "is_disabled": 0, "lat": 38.866964333333335, "is_reserved": 0, "type": "electric_scooter"}, {"fusion_lat": 0.0, "name": "ef4fd3bf26bd67dd8999a3d810103cdc", "lon": -77.02477766666667, "rental_uris": {"android": "https://dc.lft.to/lastmile_qr_scan", "ios": "https://dc.lft.to/lastmile_qr_scan"}, "fusion_lon": 0.0, "bike_id": "ef4fd3bf26bd67dd8999a3d810103cdc", "is_disabled": 0, "lat": 38.930977, "is_reserved": 0, "type": "electric_scooter"}, {"fusion_lat": 0.0, "name": "d1b71a6d6905d2cfb8db97488d749c09", "lon": -77.0281415, "rental_uris": {"android": "https://dc.lft.to/lastmile_qr_scan", "ios": "https://dc.lft.to/lastmile_qr_scan"}, "fusion_lon": 0.0, "bike_id": "d1b71a6d6905d2cfb8db97488d749c09", "is_disabled": 0, "lat": 38.911953833333335, "is_reserved": 0, "type": "electric_scooter"}, {"fusion_lat": 0.0, "name": "7eb02e39ca59399fca7ee643f97807b5", "lon": -77.03240033333333, "rental_uris": {"android": "https://dc.lft.to/lastmile_qr_scan", "ios": "https://dc.lft.to/lastmile_qr_scan"}, "fusion_lon": 0.0, "bike_id": "7eb02e39ca59399fca7ee643f97807b5", "is_disabled": 0, "lat": 38.928645, "is_reserved": 0, "type": "electric_scooter"}, {"fusion_lat": 0.0, "name": "d6d8b493e175197b6ea1f91c12665647", "lon": -77.04987783333333, "rental_uris": {"android": "https://dc.lft.to/lastmile_qr_scan", "ios": "https://dc.lft.to/lastmile_qr_scan"}, "fusion_lon": 0.0, "bike_id": "d6d8b493e175197b6ea1f91c12665647", "is_disabled": 0, "lat": 38.897218, "is_reserved": 0, "type": "electric_scooter"}, {"fusion_lat": 0.0, "name": "d6fee203ce0933fe8a73b740f4781ed4", "lon": -77.028342, "rental_uris": {"android": "https://dc.lft.to/lastmile_qr_scan", "ios": "https://dc.lft.to/lastmile_qr_scan"}, "fusion_lon": 0.0, "bike_id": "d6fee203ce0933fe8a73b740f4781ed4", "is_disabled": 0, "lat": 38.932727166666666, "is_reserved": 0, "type": "electric_scooter"}, {"fusion_lat": 0.0, "name": "5583f69bfa512291f2591824176a4369", "lon": -77.03720333333334, "rental_uris": {"android": "https://dc.lft.to/lastmile_qr_scan", "ios": "https://dc.lft.to/lastmile_qr_scan"}, "fusion_lon": 0.0, "bike_id": "5583f69bfa512291f2591824176a4369", "is_disabled": 0, "lat": 38.910732333333335, "is_reserved": 0, "type": "electric_scooter"}, {"fusion_lat": 0.0, "name": "c232c6e949eb65293817ab24ad3f1c4e", "lon": -77.03179633333333, "rental_uris": {"android": "https://dc.lft.to/lastmile_qr_scan", "ios": "https://dc.lft.to/lastmile_qr_scan"}, "fusion_lon": 0.0, "bike_id": "c232c6e949eb65293817ab24ad3f1c4e", "is_disabled": 0, "lat": 38.892246, "is_reserved": 0, "type": "electric_scooter"}, {"fusion_lat": 0.0, "name": "16f7776cd851db496c1fd8041f806a86", "lon": -77.01175183333334, "rental_uris": {"android": "https://dc.lft.to/lastmile_qr_scan", "ios": "https://dc.lft.to/lastmile_qr_scan"}, "fusion_lon": 0.0, "bike_id": "16f7776cd851db496c1fd8041f806a86", "is_disabled": 0, "lat": 38.893443166666664, "is_reserved": 0, "type": "electric_scooter"}, {"fusion_lat": 0.0, "name": "20d78691c5e211a0a9be4fa2dc31270a", "lon": -77.011473, "rental_uris": {"android": "https://dc.lft.to/lastmile_qr_scan", "ios": "https://dc.lft.to/lastmile_qr_scan"}, "fusion_lon": 0.0, "bike_id": "20d78691c5e211a0a9be4fa2dc31270a", "is_disabled": 0, "lat": 38.91034766666667, "is_reserved": 0, "type": "electric_scooter"}, {"fusion_lat": 0.0, "name": "fd8ed2c44d161fd2dbd190742c419434", "lon": -77.021924, "rental_uris": {"android": "https://dc.lft.to/lastmile_qr_scan", "ios": "https://dc.lft.to/lastmile_qr_scan"}, "fusion_lon": 0.0, "bike_id": "fd8ed2c44d161fd2dbd190742c419434", "is_disabled": 0, "lat": 38.91014066666666, "is_reserved": 0, "type": "electric_scooter"}, {"fusion_lat": 0.0, "name": "daa8b304a4e709fec9443d267da70fca", "lon": -77.000428, "rental_uris": {"android": "https://dc.lft.to/lastmile_qr_scan", "ios": "https://dc.lft.to/lastmile_qr_scan"}, "fusion_lon": 0.0, "bike_id": "daa8b304a4e709fec9443d267da70fca", "is_disabled": 0, "lat": 38.9680885, "is_reserved": 0, "type": "electric_bike"}, {"fusion_lat": 0.0, "name": "5827e8a9a35bc027469856a2ae4494e9", "lon": -77.03207233333333, "rental_uris": {"android": "https://dc.lft.to/lastmile_qr_scan", "ios": "https://dc.lft.to/lastmile_qr_scan"}, "fusion_lon": 0.0, "bike_id": "5827e8a9a35bc027469856a2ae4494e9", "is_disabled": 0, "lat": 38.917157833333334, "is_reserved": 0, "type": "electric_scooter"}, {"fusion_lat": 0.0, "name": "ca2dbfc9ea2cb1590d5be1cb4d3ecfd0", "lon": -77.03869633333333, "rental_uris": {"android": "https://dc.lft.to/lastmile_qr_scan", "ios": "https://dc.lft.to/lastmile_qr_scan"}, "fusion_lon": 0.0, "bike_id": "ca2dbfc9ea2cb1590d5be1cb4d3ecfd0", "is_disabled": 0, "lat": 38.9049975, "is_reserved": 0, "type": "electric_scooter"}, {"fusion_lat": 0.0, "name": "bbc3c0742899716d9a92a12f8c297396", "lon": -77.00220883333333, "rental_uris": {"android": "https://dc.lft.to/lastmile_qr_scan", "ios": "https://dc.lft.to/lastmile_qr_scan"}, "fusion_lon": 0.0, "bike_id": "bbc3c0742899716d9a92a12f8c297396", "is_disabled": 0, "lat": 38.90247466666667, "is_reserved": 0, "type": "electric_scooter"}, {"fusion_lat": 0.0, "name": "5f3f9a048ed165af9b3c7252e9dcd3e7", "lon": -77.02692966666666, "rental_uris": {"android": "https://dc.lft.to/lastmile_qr_scan", "ios": "https://dc.lft.to/lastmile_qr_scan"}, "fusion_lon": 0.0, "bike_id": "5f3f9a048ed165af9b3c7252e9dcd3e7", "is_disabled": 0, "lat": 38.900882333333335, "is_reserved": 0, "type": "electric_scooter"}, {"fusion_lat": 0.0, "name": "e57b9227b0d3120a114fc456cc1f798e", "lon": -77.02394916666667, "rental_uris": {"android": "https://dc.lft.to/lastmile_qr_scan", "ios": "https://dc.lft.to/lastmile_qr_scan"}, "fusion_lon": 0.0, "bike_id": "e57b9227b0d3120a114fc456cc1f798e", "is_disabled": 0, "lat": 38.91959966666667, "is_reserved": 0, "type": "electric_scooter"}, {"fusion_lat": 0.0, "name": "be9a64f6aef6aea86b80d8ff79a07279", "lon": -77.0337275, "rental_uris": {"android": "https://dc.lft.to/lastmile_qr_scan", "ios": "https://dc.lft.to/lastmile_qr_scan"}, "fusion_lon": 0.0, "bike_id": "be9a64f6aef6aea86b80d8ff79a07279", "is_disabled": 0, "lat": 38.9214955, "is_reserved": 0, "type": "electric_scooter"}, {"fusion_lat": 0.0, "name": "a8bd099c1c007a54084be9a11e52f57f", "lon": -77.05129983333333, "rental_uris": {"android": "https://dc.lft.to/lastmile_qr_scan", "ios": "https://dc.lft.to/lastmile_qr_scan"}, "fusion_lon": 0.0, "bike_id": "a8bd099c1c007a54084be9a11e52f57f", "is_disabled": 0, "lat": 38.92360266666667, "is_reserved": 0, "type": "electric_scooter"}, {"fusion_lat": 0.0, "name": "c5edb414fda09d85adebf044e189b7c7", "lon": -77.041638, "rental_uris": {"android": "https://dc.lft.to/lastmile_qr_scan", "ios": "https://dc.lft.to/lastmile_qr_scan"}, "fusion_lon": 0.0, "bike_id": "c5edb414fda09d85adebf044e189b7c7", "is_disabled": 0, "lat": 38.917401, "is_reserved": 0, "type": "electric_scooter"}, {"fusion_lat": 0.0, "name": "6364b272ad0cbaa7ee523247a59c2b89", "lon": -77.03202866666666, "rental_uris": {"android": "https://dc.lft.to/lastmile_qr_scan", "ios": "https://dc.lft.to/lastmile_qr_scan"}, "fusion_lon": 0.0, "bike_id": "6364b272ad0cbaa7ee523247a59c2b89", "is_disabled": 0, "lat": 38.8985875, "is_reserved": 0, "type": "electric_scooter"}, {"fusion_lat": 0.0, "name": "b073d37a5d4e2fcb77089b59c8eb4102", "lon": -77.02423916666666, "rental_uris": {"android": "https://dc.lft.to/lastmile_qr_scan", "ios": "https://dc.lft.to/lastmile_qr_scan"}, "fusion_lon": 0.0, "bike_id": "b073d37a5d4e2fcb77089b59c8eb4102", "is_disabled": 0, "lat": 38.938034333333334, "is_reserved": 0, "type": "electric_bike"}, {"fusion_lat": 0.0, "name": "ed4ab79f57ddac1cd4900563773c379d", "lon": -77.01426533333333, "rental_uris": {"android": "https://dc.lft.to/lastmile_qr_scan", "ios": "https://dc.lft.to/lastmile_qr_scan"}, "fusion_lon": 0.0, "bike_id": "ed4ab79f57ddac1cd4900563773c379d", "is_disabled": 0, "lat": 38.952273, "is_reserved": 0, "type": "electric_scooter"}, {"fusion_lat": 0.0, "name": "39df983637e6cf49d90f14200fce0906", "lon": -77.02303616666667, "rental_uris": {"android": "https://dc.lft.to/lastmile_qr_scan", "ios": "https://dc.lft.to/lastmile_qr_scan"}, "fusion_lon": 0.0, "bike_id": "39df983637e6cf49d90f14200fce0906", "is_disabled": 0, "lat": 38.9277285, "is_reserved": 0, "type": "electric_scooter"}, {"fusion_lat": 0.0, "name": "fc22ce86346b3ae644237203a179cefc", "lon": -76.95891716666667, "rental_uris": {"android": "https://dc.lft.to/lastmile_qr_scan", "ios": "https://dc.lft.to/lastmile_qr_scan"}, "fusion_lon": 0.0, "bike_id": "fc22ce86346b3ae644237203a179cefc", "is_disabled": 0, "lat": 38.890052, "is_reserved": 0, "type": "electric_scooter"}, {"fusion_lat": 0.0, "name": "459f7850175a674d1734e226f521aaae", "lon": -77.004108, "rental_uris": {"android": "https://dc.lft.to/lastmile_qr_scan", "ios": "https://dc.lft.to/lastmile_qr_scan"}, "fusion_lon": 0.0, "bike_id": "459f7850175a674d1734e226f521aaae", "is_disabled": 0, "lat": 38.93086, "is_reserved": 0, "type": "electric_scooter"}, {"fusion_lat": 0.0, "name": "c5d1f6863bde88312de72cdf5dbbe86a", "lon": -77.04497433333333, "rental_uris": {"android": "https://dc.lft.to/lastmile_qr_scan", "ios": "https://dc.lft.to/lastmile_qr_scan"}, "fusion_lon": 0.0, "bike_id": "c5d1f6863bde88312de72cdf5dbbe86a", "is_disabled": 0, "lat": 38.9001005, "is_reserved": 0, "type": "electric_scooter"}, {"fusion_lat": 0.0, "name": "36c297656620026b265e6b6bfb4d5685", "lon": -77.03792666666666, "rental_uris": {"android": "https://dc.lft.to/lastmile_qr_scan", "ios": "https://dc.lft.to/lastmile_qr_scan"}, "fusion_lon": 0.0, "bike_id": "36c297656620026b265e6b6bfb4d5685", "is_disabled": 0, "lat": 38.915469333333334, "is_reserved": 0, "type": "electric_scooter"}, {"fusion_lat": 0.0, "name": "03535201bf51d7c059099d6f848530c3", "lon": -77.0465045, "rental_uris": {"android": "https://dc.lft.to/lastmile_qr_scan", "ios": "https://dc.lft.to/lastmile_qr_scan"}, "fusion_lon": 0.0, "bike_id": "03535201bf51d7c059099d6f848530c3", "is_disabled": 0, "lat": 38.921131, "is_reserved": 0, "type": "electric_scooter"}, {"fusion_lat": 0.0, "name": "ced01f8055b9f6f015f8bbba73df2ba8", "lon": -77.01211916666666, "rental_uris": {"android": "https://dc.lft.to/lastmile_qr_scan", "ios": "https://dc.lft.to/lastmile_qr_scan"}, "fusion_lon": 0.0, "bike_id": "ced01f8055b9f6f015f8bbba73df2ba8", "is_disabled": 0, "lat": 38.921177666666665, "is_reserved": 0, "type": "electric_scooter"}, {"fusion_lat": 0.0, "name": "c020857656a9dbd3e656c4b421610741", "lon": -77.03375433333333, "rental_uris": {"android": "https://dc.lft.to/lastmile_qr_scan", "ios": "https://dc.lft.to/lastmile_qr_scan"}, "fusion_lon": 0.0, "bike_id": "c020857656a9dbd3e656c4b421610741", "is_disabled": 0, "lat": 38.90559983333333, "is_reserved": 0, "type": "electric_scooter"}, {"fusion_lat": 0.0, "name": "3b6de12eed7ad58e3abdabab41765992", "lon": -77.06101483333333, "rental_uris": {"android": "https://dc.lft.to/lastmile_qr_scan", "ios": "https://dc.lft.to/lastmile_qr_scan"}, "fusion_lon": 0.0, "bike_id": "3b6de12eed7ad58e3abdabab41765992", "is_disabled": 0, "lat": 38.937029, "is_reserved": 0, "type": "electric_scooter"}, {"fusion_lat": 0.0, "name": "a53f7347f02d863f1ad518625eb3ed0d", "lon": -76.98710866666667, "rental_uris": {"android": "https://dc.lft.to/lastmile_qr_scan", "ios": "https://dc.lft.to/lastmile_qr_scan"}, "fusion_lon": 0.0, "bike_id": "a53f7347f02d863f1ad518625eb3ed0d", "is_disabled": 0, "lat": 38.867002, "is_reserved": 0, "type": "electric_scooter"}, {"fusion_lat": 0.0, "name": "558c43dd104b32573d3c55cfe323897c", "lon": -77.07274583333333, "rental_uris": {"android": "https://dc.lft.to/lastmile_qr_scan", "ios": "https://dc.lft.to/lastmile_qr_scan"}, "fusion_lon": 0.0, "bike_id": "558c43dd104b32573d3c55cfe323897c", "is_disabled": 0, "lat": 38.90909216666667, "is_reserved": 0, "type": "electric_scooter"}, {"fusion_lat": 0.0, "name": "f02f6f8f47eb959e3e3e8632c6e4d1fa", "lon": -77.03143883333334, "rental_uris": {"android": "https://dc.lft.to/lastmile_qr_scan", "ios": "https://dc.lft.to/lastmile_qr_scan"}, "fusion_lon": 0.0, "bike_id": "f02f6f8f47eb959e3e3e8632c6e4d1fa", "is_disabled": 0, "lat": 38.918319333333336, "is_reserved": 0, "type": "electric_scooter"}, {"fusion_lat": 0.0, "name": "b40e2f77080fb67736f2a29e0c1b069d", "lon": -77.034952, "rental_uris": {"android": "https://dc.lft.to/lastmile_qr_scan", "ios": "https://dc.lft.to/lastmile_qr_scan"}, "fusion_lon": 0.0, "bike_id": "b40e2f77080fb67736f2a29e0c1b069d", "is_disabled": 0, "lat": 38.923429666666664, "is_reserved": 0, "type": "electric_scooter"}, {"fusion_lat": 0.0, "name": "bf03759b178aa7bede9c8697ab9a0070", "lon": -77.01687633333333, "rental_uris": {"android": "https://dc.lft.to/lastmile_qr_scan", "ios": "https://dc.lft.to/lastmile_qr_scan"}, "fusion_lon": 0.0, "bike_id": "bf03759b178aa7bede9c8697ab9a0070", "is_disabled": 0, "lat": 38.97494433333333, "is_reserved": 0, "type": "electric_scooter"}, {"fusion_lat": 0.0, "name": "7659c8d13ace58537577e0a0f6304b2b", "lon": -77.043921, "rental_uris": {"android": "https://dc.lft.to/lastmile_qr_scan", "ios": "https://dc.lft.to/lastmile_qr_scan"}, "fusion_lon": 0.0, "bike_id": "7659c8d13ace58537577e0a0f6304b2b", "is_disabled": 0, "lat": 38.92353033333333, "is_reserved": 0, "type": "electric_scooter"}, {"fusion_lat": 0.0, "name": "0ff7178e52605f351cee17f2894452d2", "lon": -77.04363283333333, "rental_uris": {"android": "https://dc.lft.to/lastmile_qr_scan", "ios": "https://dc.lft.to/lastmile_qr_scan"}, "fusion_lon": 0.0, "bike_id": "0ff7178e52605f351cee17f2894452d2", "is_disabled": 0, "lat": 38.89715133333333, "is_reserved": 0, "type": "electric_scooter"}, {"fusion_lat": 0.0, "name": "a5a61efad7e49a1f2e8635e84beef9a1", "lon": -77.03263316666667, "rental_uris": {"android": "https://dc.lft.to/lastmile_qr_scan", "ios": "https://dc.lft.to/lastmile_qr_scan"}, "fusion_lon": 0.0, "bike_id": "a5a61efad7e49a1f2e8635e84beef9a1", "is_disabled": 0, "lat": 38.93206133333333, "is_reserved": 0, "type": "electric_scooter"}, {"fusion_lat": 0.0, "name": "c855524cbb3f7052370f6632a326a754", "lon": -77.006078, "rental_uris": {"android": "https://dc.lft.to/lastmile_qr_scan", "ios": "https://dc.lft.to/lastmile_qr_scan"}, "fusion_lon": 0.0, "bike_id": "c855524cbb3f7052370f6632a326a754", "is_disabled": 0, "lat": 38.8718185, "is_reserved": 0, "type": "electric_scooter"}, {"fusion_lat": 0.0, "name": "67a0b00ab2ab69bcbc5784cddcedb001", "lon": -77.04346316666667, "rental_uris": {"android": "https://dc.lft.to/lastmile_qr_scan", "ios": "https://dc.lft.to/lastmile_qr_scan"}, "fusion_lon": 0.0, "bike_id": "67a0b00ab2ab69bcbc5784cddcedb001", "is_disabled": 0, "lat": 38.913410166666665, "is_reserved": 0, "type": "electric_scooter"}, {"fusion_lat": 0.0, "name": "f642854ebd7c40f6e9a5b6181d654c7e", "lon": -77.028494, "rental_uris": {"android": "https://dc.lft.to/lastmile_qr_scan", "ios": "https://dc.lft.to/lastmile_qr_scan"}, "fusion_lon": 0.0, "bike_id": "f642854ebd7c40f6e9a5b6181d654c7e", "is_disabled": 0, "lat": 38.8985, "is_reserved": 0, "type": "electric_scooter"}, {"fusion_lat": 0.0, "name": "6cd515894c8e717ce378f6c367b495dc", "lon": -77.02846983333333, "rental_uris": {"android": "https://dc.lft.to/lastmile_qr_scan", "ios": "https://dc.lft.to/lastmile_qr_scan"}, "fusion_lon": 0.0, "bike_id": "6cd515894c8e717ce378f6c367b495dc", "is_disabled": 0, "lat": 38.901615166666666, "is_reserved": 0, "type": "electric_scooter"}, {"fusion_lat": 0.0, "name": "074f8907e18a094d7381cf3616c10d08", "lon": -77.03751766666667, "rental_uris": {"android": "https://dc.lft.to/lastmile_qr_scan", "ios": "https://dc.lft.to/lastmile_qr_scan"}, "fusion_lon": 0.0, "bike_id": "074f8907e18a094d7381cf3616c10d08", "is_disabled": 0, "lat": 38.93090683333333, "is_reserved": 0, "type": "electric_scooter"}, {"fusion_lat": 0.0, "name": "a31ecc759a6d34eb93683ec08c409a56", "lon": -77.027385, "rental_uris": {"android": "https://dc.lft.to/lastmile_qr_scan", "ios": "https://dc.lft.to/lastmile_qr_scan"}, "fusion_lon": 0.0, "bike_id": "a31ecc759a6d34eb93683ec08c409a56", "is_disabled": 0, "lat": 38.887408, "is_reserved": 0, "type": "electric_scooter"}, {"fusion_lat": 0.0, "name": "52e89016b04c38d1f3dbd4e8bf9e3b7f", "lon": -76.9547195, "rental_uris": {"android": "https://dc.lft.to/lastmile_qr_scan", "ios": "https://dc.lft.to/lastmile_qr_scan"}, "fusion_lon": 0.0, "bike_id": "52e89016b04c38d1f3dbd4e8bf9e3b7f", "is_disabled": 0, "lat": 38.88680316666667, "is_reserved": 0, "type": "electric_scooter"}, {"fusion_lat": 0.0, "name": "6d44840bbf535555ffce2af7650effbc", "lon": -77.01522766666666, "rental_uris": {"android": "https://dc.lft.to/lastmile_qr_scan", "ios": "https://dc.lft.to/lastmile_qr_scan"}, "fusion_lon": 0.0, "bike_id": "6d44840bbf535555ffce2af7650effbc", "is_disabled": 0, "lat": 38.892393, "is_reserved": 0, "type": "electric_scooter"}, {"fusion_lat": 0.0, "name": "bc718c55765953e2a58131c944443289", "lon": -77.04342633333333, "rental_uris": {"android": "https://dc.lft.to/lastmile_qr_scan", "ios": "https://dc.lft.to/lastmile_qr_scan"}, "fusion_lon": 0.0, "bike_id": "bc718c55765953e2a58131c944443289", "is_disabled": 0, "lat": 38.90417566666667, "is_reserved": 0, "type": "electric_scooter"}, {"fusion_lat": 0.0, "name": "5d556a764f1bc0db22e8421772138813", "lon": -77.02808316666666, "rental_uris": {"android": "https://dc.lft.to/lastmile_qr_scan", "ios": "https://dc.lft.to/lastmile_qr_scan"}, "fusion_lon": 0.0, "bike_id": "5d556a764f1bc0db22e8421772138813", "is_disabled": 0, "lat": 38.930806833333335, "is_reserved": 0, "type": "electric_scooter"}, {"fusion_lat": 0.0, "name": "a72a5658642d43d03dfb604e2f010ea4", "lon": -76.99003566666667, "rental_uris": {"android": "https://dc.lft.to/lastmile_qr_scan", "ios": "https://dc.lft.to/lastmile_qr_scan"}, "fusion_lon": 0.0, "bike_id": "a72a5658642d43d03dfb604e2f010ea4", "is_disabled": 0, "lat": 38.865000333333334, "is_reserved": 0, "type": "electric_scooter"}, {"fusion_lat": 0.0, "name": "f589835881e1c30d56eea4e58e31a3d5", "lon": -76.99114366666667, "rental_uris": {"android": "https://dc.lft.to/lastmile_qr_scan", "ios": "https://dc.lft.to/lastmile_qr_scan"}, "fusion_lon": 0.0, "bike_id": "f589835881e1c30d56eea4e58e31a3d5", "is_disabled": 0, "lat": 38.905583666666665, "is_reserved": 0, "type": "electric_scooter"}, {"fusion_lat": 0.0, "name": "e566eaa31bfe1cdc4fea1c9d6bc61700", "lon": -77.0592395, "rental_uris": {"android": "https://dc.lft.to/lastmile_qr_scan", "ios": "https://dc.lft.to/lastmile_qr_scan"}, "fusion_lon": 0.0, "bike_id": "e566eaa31bfe1cdc4fea1c9d6bc61700", "is_disabled": 0, "lat": 38.9052555, "is_reserved": 0, "type": "electric_scooter"}, {"fusion_lat": 0.0, "name": "949350f440550c89bc787f8fab870858", "lon": -76.99030416666666, "rental_uris": {"android": "https://dc.lft.to/lastmile_qr_scan", "ios": "https://dc.lft.to/lastmile_qr_scan"}, "fusion_lon": 0.0, "bike_id": "949350f440550c89bc787f8fab870858", "is_disabled": 0, "lat": 38.891731, "is_reserved": 0, "type": "electric_scooter"}, {"fusion_lat": 0.0, "name": "611e9c32fa93da904ca3552921155da2", "lon": -77.02876366666666, "rental_uris": {"android": "https://dc.lft.to/lastmile_qr_scan", "ios": "https://dc.lft.to/lastmile_qr_scan"}, "fusion_lon": 0.0, "bike_id": "611e9c32fa93da904ca3552921155da2", "is_disabled": 0, "lat": 38.9213855, "is_reserved": 0, "type": "electric_scooter"}, {"fusion_lat": 0.0, "name": "27e3ae23ce63be03143d6bbe98012a90", "lon": -76.9892605, "rental_uris": {"android": "https://dc.lft.to/lastmile_qr_scan", "ios": "https://dc.lft.to/lastmile_qr_scan"}, "fusion_lon": 0.0, "bike_id": "27e3ae23ce63be03143d6bbe98012a90", "is_disabled": 0, "lat": 38.865675333333336, "is_reserved": 0, "type": "electric_scooter"}, {"fusion_lat": 0.0, "name": "628fc2ac78eee7aa2aa620b3aa163419", "lon": -77.03275533333333, "rental_uris": {"android": "https://dc.lft.to/lastmile_qr_scan", "ios": "https://dc.lft.to/lastmile_qr_scan"}, "fusion_lon": 0.0, "bike_id": "628fc2ac78eee7aa2aa620b3aa163419", "is_disabled": 0, "lat": 38.9273755, "is_reserved": 0, "type": "electric_scooter"}, {"fusion_lat": 0.0, "name": "52106cf98fa676a9d56e036e7b0ec751", "lon": -76.99546433333333, "rental_uris": {"android": "https://dc.lft.to/lastmile_qr_scan", "ios": "https://dc.lft.to/lastmile_qr_scan"}, "fusion_lon": 0.0, "bike_id": "52106cf98fa676a9d56e036e7b0ec751", "is_disabled": 0, "lat": 38.83157633333333, "is_reserved": 0, "type": "electric_bike"}, {"fusion_lat": 0.0, "name": "4e96b9455b26c67a6567cd0279510a77", "lon": -77.10833983333333, "rental_uris": {"android": "https://dc.lft.to/lastmile_qr_scan", "ios": "https://dc.lft.to/lastmile_qr_scan"}, "fusion_lon": 0.0, "bike_id": "4e96b9455b26c67a6567cd0279510a77", "is_disabled": 0, "lat": 38.811985166666666, "is_reserved": 0, "type": "electric_bike"}, {"fusion_lat": 0.0, "name": "154b4f17136c92a09fab72fb9117759e", "lon": -77.00178916666667, "rental_uris": {"android": "https://dc.lft.to/lastmile_qr_scan", "ios": "https://dc.lft.to/lastmile_qr_scan"}, "fusion_lon": 0.0, "bike_id": "154b4f17136c92a09fab72fb9117759e", "is_disabled": 0, "lat": 38.90045466666667, "is_reserved": 0, "type": "electric_scooter"}, {"fusion_lat": 0.0, "name": "fcaa5d21502e925ac11d23479b10cbbe", "lon": -77.021231, "rental_uris": {"android": "https://dc.lft.to/lastmile_qr_scan", "ios": "https://dc.lft.to/lastmile_qr_scan"}, "fusion_lon": 0.0, "bike_id": "fcaa5d21502e925ac11d23479b10cbbe", "is_disabled": 0, "lat": 38.923338666666666, "is_reserved": 0, "type": "electric_scooter"}, {"fusion_lat": 0.0, "name": "eba03c191b371dd25ecf96a5c8f05f2e", "lon": -77.0246425, "rental_uris": {"android": "https://dc.lft.to/lastmile_qr_scan", "ios": "https://dc.lft.to/lastmile_qr_scan"}, "fusion_lon": 0.0, "bike_id": "eba03c191b371dd25ecf96a5c8f05f2e", "is_disabled": 0, "lat": 38.93854116666667, "is_reserved": 0, "type": "electric_scooter"}, {"fusion_lat": 0.0, "name": "e805a2aaad815492172413b197352cb2", "lon": -77.10093516666667, "rental_uris": {"android": "https://dc.lft.to/lastmile_qr_scan", "ios": "https://dc.lft.to/lastmile_qr_scan"}, "fusion_lon": 0.0, "bike_id": "e805a2aaad815492172413b197352cb2", "is_disabled": 0, "lat": 38.95952916666667, "is_reserved": 0, "type": "electric_bike"}, {"fusion_lat": 0.0, "name": "fd5e06a5ad6ce960f354d0f306c65364", "lon": -77.04270883333334, "rental_uris": {"android": "https://dc.lft.to/lastmile_qr_scan", "ios": "https://dc.lft.to/lastmile_qr_scan"}, "fusion_lon": 0.0, "bike_id": "fd5e06a5ad6ce960f354d0f306c65364", "is_disabled": 0, "lat": 38.9229445, "is_reserved": 0, "type": "electric_scooter"}, {"fusion_lat": 0.0, "name": "fcba50b3dce57aa8cb7f79b2bb3e9973", "lon": -77.02181516666667, "rental_uris": {"android": "https://dc.lft.to/lastmile_qr_scan", "ios": "https://dc.lft.to/lastmile_qr_scan"}, "fusion_lon": 0.0, "bike_id": "fcba50b3dce57aa8cb7f79b2bb3e9973", "is_disabled": 0, "lat": 38.88720516666667, "is_reserved": 0, "type": "electric_scooter"}, {"fusion_lat": 0.0, "name": "793437bd468d5b42832f4a5831a18789", "lon": -77.03952833333334, "rental_uris": {"android": "https://dc.lft.to/lastmile_qr_scan", "ios": "https://dc.lft.to/lastmile_qr_scan"}, "fusion_lon": 0.0, "bike_id": "793437bd468d5b42832f4a5831a18789", "is_disabled": 0, "lat": 38.90020066666666, "is_reserved": 0, "type": "electric_scooter"}, {"fusion_lat": 0.0, "name": "0d4c569066410fb72858c2e230effdd8", "lon": -77.0436415, "rental_uris": {"android": "https://dc.lft.to/lastmile_qr_scan", "ios": "https://dc.lft.to/lastmile_qr_scan"}, "fusion_lon": 0.0, "bike_id": "0d4c569066410fb72858c2e230effdd8", "is_disabled": 0, "lat": 38.89731316666666, "is_reserved": 0, "type": "electric_scooter"}, {"fusion_lat": 0.0, "name": "3f5c52f9d82c55884a187adc98fc30cf", "lon": -76.9429485, "rental_uris": {"android": "https://dc.lft.to/lastmile_qr_scan", "ios": "https://dc.lft.to/lastmile_qr_scan"}, "fusion_lon": 0.0, "bike_id": "3f5c52f9d82c55884a187adc98fc30cf", "is_disabled": 0, "lat": 38.938692, "is_reserved": 0, "type": "electric_bike"}, {"fusion_lat": 0.0, "name": "982c933529c2c2f6d92af1c4a1a41dec", "lon": -76.92622633333333, "rental_uris": {"android": "https://dc.lft.to/lastmile_qr_scan", "ios": "https://dc.lft.to/lastmile_qr_scan"}, "fusion_lon": 0.0, "bike_id": "982c933529c2c2f6d92af1c4a1a41dec", "is_disabled": 0, "lat": 38.88458516666667, "is_reserved": 0, "type": "electric_scooter"}, {"fusion_lat": 0.0, "name": "ba2e38c03271769dc95883e64012bfc0", "lon": -77.05049133333333, "rental_uris": {"android": "https://dc.lft.to/lastmile_qr_scan", "ios": "https://dc.lft.to/lastmile_qr_scan"}, "fusion_lon": 0.0, "bike_id": "ba2e38c03271769dc95883e64012bfc0", "is_disabled": 0, "lat": 38.923538, "is_reserved": 0, "type": "electric_scooter"}, {"fusion_lat": 0.0, "name": "155740e074d379687da94eaba851b5dc", "lon": -76.98234183333334, "rental_uris": {"android": "https://dc.lft.to/lastmile_qr_scan", "ios": "https://dc.lft.to/lastmile_qr_scan"}, "fusion_lon": 0.0, "bike_id": "155740e074d379687da94eaba851b5dc", "is_disabled": 0, "lat": 38.864685333333334, "is_reserved": 0, "type": "electric_scooter"}, {"fusion_lat": 0.0, "name": "1e0f998639a4c7a2cf8a34de60fc29bd", "lon": -77.02707933333333, "rental_uris": {"android": "https://dc.lft.to/lastmile_qr_scan", "ios": "https://dc.lft.to/lastmile_qr_scan"}, "fusion_lon": 0.0, "bike_id": "1e0f998639a4c7a2cf8a34de60fc29bd", "is_disabled": 0, "lat": 38.949879, "is_reserved": 0, "type": "electric_scooter"}, {"fusion_lat": 0.0, "name": "5027ca6d09709c3240c316ec826f2516", "lon": -77.118326, "rental_uris": {"android": "https://dc.lft.to/lastmile_qr_scan", "ios": "https://dc.lft.to/lastmile_qr_scan"}, "fusion_lon": 0.0, "bike_id": "5027ca6d09709c3240c316ec826f2516", "is_disabled": 0, "lat": 38.859353, "is_reserved": 0, "type": "electric_bike"}, {"fusion_lat": 0.0, "name": "810138304b851b35e72e521adf4a4bc1", "lon": -77.02212416666667, "rental_uris": {"android": "https://dc.lft.to/lastmile_qr_scan", "ios": "https://dc.lft.to/lastmile_qr_scan"}, "fusion_lon": 0.0, "bike_id": "810138304b851b35e72e521adf4a4bc1", "is_disabled": 0, "lat": 38.887063833333336, "is_reserved": 0, "type": "electric_scooter"}, {"fusion_lat": 0.0, "name": "c17d2c2c2a7bd200936f435ba70bb263", "lon": -77.04247183333334, "rental_uris": {"android": "https://dc.lft.to/lastmile_qr_scan", "ios": "https://dc.lft.to/lastmile_qr_scan"}, "fusion_lon": 0.0, "bike_id": "c17d2c2c2a7bd200936f435ba70bb263", "is_disabled": 0, "lat": 38.92233083333333, "is_reserved": 0, "type": "electric_scooter"}, {"fusion_lat": 0.0, "name": "19e6a002512139c49ba621c52a5ce3f7", "lon": -77.04219666666667, "rental_uris": {"android": "https://dc.lft.to/lastmile_qr_scan", "ios": "https://dc.lft.to/lastmile_qr_scan"}, "fusion_lon": 0.0, "bike_id": "19e6a002512139c49ba621c52a5ce3f7", "is_disabled": 0, "lat": 38.92107633333333, "is_reserved": 0, "type": "electric_scooter"}, {"fusion_lat": 0.0, "name": "94acbfae58760af7a0e5fc0a9fcaf0f9", "lon": -77.04474233333333, "rental_uris": {"android": "https://dc.lft.to/lastmile_qr_scan", "ios": "https://dc.lft.to/lastmile_qr_scan"}, "fusion_lon": 0.0, "bike_id": "94acbfae58760af7a0e5fc0a9fcaf0f9", "is_disabled": 0, "lat": 38.892266, "is_reserved": 0, "type": "electric_scooter"}, {"fusion_lat": 0.0, "name": "552ca0fd21cae317e3bf389759366239", "lon": -77.01208766666667, "rental_uris": {"android": "https://dc.lft.to/lastmile_qr_scan", "ios": "https://dc.lft.to/lastmile_qr_scan"}, "fusion_lon": 0.0, "bike_id": "552ca0fd21cae317e3bf389759366239", "is_disabled": 0, "lat": 38.89326833333333, "is_reserved": 0, "type": "electric_scooter"}, {"fusion_lat": 0.0, "name": "a07744b9fad4277ccf7cdcfe014159fe", "lon": -77.03193433333334, "rental_uris": {"android": "https://dc.lft.to/lastmile_qr_scan", "ios": "https://dc.lft.to/lastmile_qr_scan"}, "fusion_lon": 0.0, "bike_id": "a07744b9fad4277ccf7cdcfe014159fe", "is_disabled": 0, "lat": 38.89220516666666, "is_reserved": 0, "type": "electric_scooter"}, {"fusion_lat": 0.0, "name": "b7fc3b40ea7aeabb4eb3d7cdb2f0b82e", "lon": -76.9334475, "rental_uris": {"android": "https://dc.lft.to/lastmile_qr_scan", "ios": "https://dc.lft.to/lastmile_qr_scan"}, "fusion_lon": 0.0, "bike_id": "b7fc3b40ea7aeabb4eb3d7cdb2f0b82e", "is_disabled": 0, "lat": 38.888115, "is_reserved": 0, "type": "electric_scooter"}, {"fusion_lat": 0.0, "name": "c92b5052a6127d2856660a637a2afb82", "lon": -77.05690333333334, "rental_uris": {"android": "https://dc.lft.to/lastmile_qr_scan", "ios": "https://dc.lft.to/lastmile_qr_scan"}, "fusion_lon": 0.0, "bike_id": "c92b5052a6127d2856660a637a2afb82", "is_disabled": 0, "lat": 38.90607, "is_reserved": 0, "type": "electric_scooter"}, {"fusion_lat": 0.0, "name": "5fc71f2df5201f4c31772829d1d58637", "lon": -77.04359533333333, "rental_uris": {"android": "https://dc.lft.to/lastmile_qr_scan", "ios": "https://dc.lft.to/lastmile_qr_scan"}, "fusion_lon": 0.0, "bike_id": "5fc71f2df5201f4c31772829d1d58637", "is_disabled": 0, "lat": 38.89235683333333, "is_reserved": 0, "type": "electric_scooter"}, {"fusion_lat": 0.0, "name": "c23172e9e6cd0f9c004739961e7a1d82", "lon": -76.978944, "rental_uris": {"android": "https://dc.lft.to/lastmile_qr_scan", "ios": "https://dc.lft.to/lastmile_qr_scan"}, "fusion_lon": 0.0, "bike_id": "c23172e9e6cd0f9c004739961e7a1d82", "is_disabled": 0, "lat": 38.91677583333333, "is_reserved": 0, "type": "electric_scooter"}, {"fusion_lat": 0.0, "name": "0905d245bb5115bc6a0921790bdbd589", "lon": -77.02301166666666, "rental_uris": {"android": "https://dc.lft.to/lastmile_qr_scan", "ios": "https://dc.lft.to/lastmile_qr_scan"}, "fusion_lon": 0.0, "bike_id": "0905d245bb5115bc6a0921790bdbd589", "is_disabled": 0, "lat": 38.926442333333334, "is_reserved": 0, "type": "electric_scooter"}, {"fusion_lat": 0.0, "name": "a2842d190a34399dd95d9a6cde3bb98a", "lon": -76.99942466666667, "rental_uris": {"android": "https://dc.lft.to/lastmile_qr_scan", "ios": "https://dc.lft.to/lastmile_qr_scan"}, "fusion_lon": 0.0, "bike_id": "a2842d190a34399dd95d9a6cde3bb98a", "is_disabled": 0, "lat": 38.900166666666664, "is_reserved": 0, "type": "electric_scooter"}, {"fusion_lat": 0.0, "name": "ad26da2d3632af21b1d044a20f3aba8b", "lon": -76.9853355, "rental_uris": {"android": "https://dc.lft.to/lastmile_qr_scan", "ios": "https://dc.lft.to/lastmile_qr_scan"}, "fusion_lon": 0.0, "bike_id": "ad26da2d3632af21b1d044a20f3aba8b", "is_disabled": 0, "lat": 38.86644866666666, "is_reserved": 0, "type": "electric_scooter"}, {"fusion_lat": 0.0, "name": "3d819aaca708cebf2672d8a8898cae6c", "lon": -77.00604233333334, "rental_uris": {"android": "https://dc.lft.to/lastmile_qr_scan", "ios": "https://dc.lft.to/lastmile_qr_scan"}, "fusion_lon": 0.0, "bike_id": "3d819aaca708cebf2672d8a8898cae6c", "is_disabled": 0, "lat": 38.871818166666664, "is_reserved": 0, "type": "electric_scooter"}, {"fusion_lat": 0.0, "name": "d9bfe9e2e003674d8c14647b3d39f8e3", "lon": -77.05728333333333, "rental_uris": {"android": "https://dc.lft.to/lastmile_qr_scan", "ios": "https://dc.lft.to/lastmile_qr_scan"}, "fusion_lon": 0.0, "bike_id": "d9bfe9e2e003674d8c14647b3d39f8e3", "is_disabled": 0, "lat": 38.93364733333333, "is_reserved": 0, "type": "electric_scooter"},