{"data": {"bikes": [{"fusion_lon": 0.0, "bike_id": "f495f91412ff8f962e6cbdf61ae3e3aa", "name": "f495f91412ff8f962e6cbdf61ae3e3aa", "type": "electric_bike", "lon": -76.88906916666667, "rental_uris": {"android": "https://dc.lft.to/lastmile_qr_scan", "ios": "https://dc.lft.to/lastmile_qr_scan"}, "lat": 38.9259385, "is_reserved": 0, "is_disabled": 0, "fusion_lat": 0.0}, {"fusion_lon": 0.0, "bike_id": "bc8a444d908d3baa1a616a1a9a5ac1fd", "name": "bc8a444d908d3baa1a616a1a9a5ac1fd", "type": "electric_scooter", "lon": -77.05161766666667, "rental_uris": {"android": "https://dc.lft.to/lastmile_qr_scan", "ios": "https://dc.lft.to/lastmile_qr_scan"}, "lat": 38.90582066666666, "is_reserved": 0, "is_disabled": 0, "fusion_lat": 0.0}, {"fusion_lon": 0.0, "bike_id": "a7965f1541444b46b411d6eda80dad5c", "name": "a7965f1541444b46b411d6eda80dad5c", "type": "electric_scooter", "lon": -77.01410633333333, "rental_uris": {"android": "https://dc.lft.to/lastmile_qr_scan", "ios": "https://dc.lft.to/lastmile_qr_scan"}, "lat": 38.928694, "is_reserved": 0, "is_disabled": 0, "fusion_lat": 0.0}, {"fusion_lon": 0.0, "bike_id": "4cb3ab9c598d90d6740b16511107967f", "name": "4cb3ab9c598d90d6740b16511107967f", "type": "electric_scooter", "lon": -77.042675, "rental_uris": {"android": "https://dc.lft.to/lastmile_qr_scan", "ios": "https://dc.lft.to/lastmile_qr_scan"}, "lat": 38.914141, "is_reserved": 0, "is_disabled": 0, "fusion_lat": 0.0}, {"fusion_lon": 0.0, "bike_id": "39af8265073f5b1edf9e5628f8a45349", "name": "39af8265073f5b1edf9e5628f8a45349", "type": "electric_bike", "lon": -76.95223666666666, "rental_uris": {"android": "https://dc.lft.to/lastmile_qr_scan", "ios": "https://dc.lft.to/lastmile_qr_scan"}, "lat": 38.892384666666665, "is_reserved": 0, "is_disabled": 0, "fusion_lat": 0.0}, {"fusion_lon": 0.0, "bike_id": "cc91dfe1cecdea601e30d17e636d1954", "name": "cc91dfe1cecdea601e30d17e636d1954", "type": "electric_scooter", "lon": -77.003298, "rental_uris": {"android": "https://dc.lft.to/lastmile_qr_scan", "ios": "https://dc.lft.to/lastmile_qr_scan"}, "lat": 38.89358983333333, "is_reserved": 0, "is_disabled": 0, "fusion_lat": 0.0}, {"fusion_lon": 0.0, "bike_id": "3280f9b67275d25fd85a0c6af406ccbe", "name": "3280f9b67275d25fd85a0c6af406ccbe", "type": "electric_bike", "lon": -77.06011916666667, "rental_uris": {"android": "https://dc.lft.to/lastmile_qr_scan", "ios": "https://dc.lft.to/lastmile_qr_scan"}, "lat": 38.90263066666667, "is_reserved": 0, "is_disabled": 0, "fusion_lat": 0.0}, {"fusion_lon": 0.0, "bike_id": "cd1e3c6c056d33ff3cafad74b9df8d8b", "name": "cd1e3c6c056d33ff3cafad74b9df8d8b", "type": "electric_scooter", "lon": -77.05421683333333, "rental_uris": {"android": "https://dc.lft.to/lastmile_qr_scan", "ios": "https://dc.lft.to/lastmile_qr_scan"}, "lat": 38.899185, "is_reserved": 0, "is_disabled": 0, "fusion_lat": 0.0}, {"fusion_lon": 0.0, "bike_id": "903c6de75d0f2eb42f777423eaaba224", "name": "903c6de75d0f2eb42f777423eaaba224", "type": "electric_scooter", "lon": -77.0082945, "rental_uris": {"android": "https://dc.lft.to/lastmile_qr_scan", "ios": "https://dc.lft.to/lastmile_qr_scan"}, "lat": 38.912673166666664, "is_reserved": 0, "is_disabled": 0, "fusion_lat": 0.0}, {"fusion_lon": 0.0, "bike_id": "2ab1fc117b074bbe39edd859b20fd255", "name": "2ab1fc117b074bbe39edd859b20fd255", "type": "electric_scooter", "lon": -77.0297675, "rental_uris": {"android": "https://dc.lft.to/lastmile_qr_scan", "ios": "https://dc.lft.to/lastmile_qr_scan"}, "lat": 38.927496, "is_reserved": 0, "is_disabled": 0, "fusion_lat": 0.0}, {"fusion_lon": 0.0, "bike_id": "3935b92cb8abfb94df3e38688f00e180", "name": "3935b92cb8abfb94df3e38688f00e180", "type": "electric_scooter", "lon": -77.03152183333333, "rental_uris": {"android": "https://dc.lft.to/lastmile_qr_scan", "ios": "https://dc.lft.to/lastmile_qr_scan"}, "lat": 38.90627683333334, "is_reserved": 0, "is_disabled": 0, "fusion_lat": 0.0}, {"fusion_lon": 0.0, "bike_id": "762758926d4896410f7a85d82e851579", "name": "762758926d4896410f7a85d82e851579", "type": "electric_scooter", "lon": -76.98470733333333, "rental_uris": {"android": "https://dc.lft.to/lastmile_qr_scan", "ios": "https://dc.lft.to/lastmile_qr_scan"}, "lat": 38.8935465, "is_reserved": 0, "is_disabled": 0, "fusion_lat": 0.0}, {"fusion_lon": 0.0, "bike_id": "6d28cc5cfcaeb92f3c73e2607be5bfbe", "name": "6d28cc5cfcaeb92f3c73e2607be5bfbe", "type": "electric_scooter", "lon": -77.0400695, "rental_uris": {"android": "https://dc.lft.to/lastmile_qr_scan", "ios": "https://dc.lft.to/lastmile_qr_scan"}, "lat": 38.91628016666667, "is_reserved": 0, "is_disabled": 0, "fusion_lat": 0.0}, {"fusion_lon": 0.0, "bike_id": "02631a8d5a1175034f1fd37559b5db7b", "name": "02631a8d5a1175034f1fd37559b5db7b", "type": "electric_scooter", "lon": -77.0344695, "rental_uris": {"android": "https://dc.lft.to/lastmile_qr_scan", "ios": "https://dc.lft.to/lastmile_qr_scan"}, "lat": 38.91585333333333, "is_reserved": 0, "is_disabled": 0, "fusion_lat": 0.0}, {"fusion_lon": 0.0, "bike_id": "67508c3935026673b6e8e05310dd2797", "name": "67508c3935026673b6e8e05310dd2797", "type": "electric_scooter", "lon": -76.996968, "rental_uris": {"android": "https://dc.lft.to/lastmile_qr_scan", "ios": "https://dc.lft.to/lastmile_qr_scan"}, "lat": 38.884249833333335, "is_reserved": 0, "is_disabled": 0, "fusion_lat": 0.0}, {"fusion_lon": 0.0, "bike_id": "06a5d31c584736f3cf09741a7406508c", "name": "06a5d31c584736f3cf09741a7406508c", "type": "electric_scooter", "lon": -76.97995816666666, "rental_uris": {"android": "https://dc.lft.to/lastmile_qr_scan", "ios": "https://dc.lft.to/lastmile_qr_scan"}, "lat": 38.8887755, "is_reserved": 0, "is_disabled": 0, "fusion_lat": 0.0}, {"fusion_lon": 0.0, "bike_id": "80f9749fa894fcec0236cfea17a37c1f", "name": "80f9749fa894fcec0236cfea17a37c1f", "type": "electric_scooter", "lon": -77.033032, "rental_uris": {"android": "https://dc.lft.to/lastmile_qr_scan", "ios": "https://dc.lft.to/lastmile_qr_scan"}, "lat": 38.914889, "is_reserved": 0, "is_disabled": 0, "fusion_lat": 0.0}, {"fusion_lon": 0.0, "bike_id": "bf27138d553cc709ff50741069a736e0", "name": "bf27138d553cc709ff50741069a736e0", "type": "electric_scooter", "lon": -77.0327585, "rental_uris": {"android": "https://dc.lft.to/lastmile_qr_scan", "ios": "https://dc.lft.to/lastmile_qr_scan"}, "lat": 38.9162205, "is_reserved": 0, "is_disabled": 0, "fusion_lat": 0.0}, {"fusion_lon": 0.0, "bike_id": "20862f011e2c6d35c2f29dc4729e1757", "name": "20862f011e2c6d35c2f29dc4729e1757", "type": "electric_scooter", "lon": -77.050263, "rental_uris": {"android": "https://dc.lft.to/lastmile_qr_scan", "ios": "https://dc.lft.to/lastmile_qr_scan"}, "lat": 38.89653883333333, "is_reserved": 0, "is_disabled": 0, "fusion_lat": 0.0}, {"fusion_lon": 0.0, "bike_id": "c48207155dd2bc1d74a443efd1a88d00", "name": "c48207155dd2bc1d74a443efd1a88d00", "type": "electric_scooter", "lon": -77.042686, "rental_uris": {"android": "https://dc.lft.to/lastmile_qr_scan", "ios": "https://dc.lft.to/lastmile_qr_scan"}, "lat": 38.916973666666664, "is_reserved": 0, "is_disabled": 0, "fusion_lat": 0.0}, {"fusion_lon": 0.0, "bike_id": "49aa4097f4719a71c102e6ace54ddd6c", "name": "49aa4097f4719a71c102e6ace54ddd6c", "type": "electric_scooter", "lon": -77.00068733333333, "rental_uris": {"android": "https://dc.lft.to/lastmile_qr_scan", "ios": "https://dc.lft.to/lastmile_qr_scan"}, "lat": 38.8762695, "is_reserved": 0, "is_disabled": 0, "fusion_lat": 0.0}, {"fusion_lon": 0.0, "bike_id": "707af82834781a8994aefee9036d3bad", "name": "707af82834781a8994aefee9036d3bad", "type": "electric_scooter", "lon": -77.02601183333333, "rental_uris": {"android": "https://dc.lft.to/lastmile_qr_scan", "ios": "https://dc.lft.to/lastmile_qr_scan"}, "lat": 38.89591633333333, "is_reserved": 0, "is_disabled": 0, "fusion_lat": 0.0}, {"fusion_lon": 0.0, "bike_id": "1b4741f81ed3082a29beda8d1cf5e41c", "name": "1b4741f81ed3082a29beda8d1cf5e41c", "type": "electric_scooter", "lon": -77.031806, "rental_uris": {"android": "https://dc.lft.to/lastmile_qr_scan", "ios": "https://dc.lft.to/lastmile_qr_scan"}, "lat": 38.910188166666664, "is_reserved": 0, "is_disabled": 0, "fusion_lat": 0.0}, {"fusion_lon": 0.0, "bike_id": "96dd28892f3042f283ef26f1583b5a43", "name": "96dd28892f3042f283ef26f1583b5a43", "type": "electric_scooter", "lon": -77.05920533333334, "rental_uris": {"android": "https://dc.lft.to/lastmile_qr_scan", "ios": "https://dc.lft.to/lastmile_qr_scan"}, "lat": 38.900849666666666, "is_reserved": 0, "is_disabled": 0, "fusion_lat": 0.0}, {"fusion_lon": 0.0, "bike_id": "065ebca8d567c456ff693f7986bbbbad", "name": "065ebca8d567c456ff693f7986bbbbad", "type": "electric_scooter", "lon": -76.996164, "rental_uris": {"android": "https://dc.lft.to/lastmile_qr_scan", "ios": "https://dc.lft.to/lastmile_qr_scan"}, "lat": 38.9011975, "is_reserved": 0, "is_disabled": 0, "fusion_lat": 0.0}, {"fusion_lon": 0.0, "bike_id": "6a9b3088d468d64c3559aa614b0204ff", "name": "6a9b3088d468d64c3559aa614b0204ff", "type": "electric_scooter", "lon": -77.02397116666667, "rental_uris": {"android": "https://dc.lft.to/lastmile_qr_scan", "ios": "https://dc.lft.to/lastmile_qr_scan"}, "lat": 38.934733, "is_reserved": 0, "is_disabled": 0, "fusion_lat": 0.0}, {"fusion_lon": 0.0, "bike_id": "bbc8b099796ee4b7fe21c54686b28454", "name": "bbc8b099796ee4b7fe21c54686b28454", "type": "electric_scooter", "lon": -77.0223725, "rental_uris": {"android": "https://dc.lft.to/lastmile_qr_scan", "ios": "https://dc.lft.to/lastmile_qr_scan"}, "lat": 38.91415383333333, "is_reserved": 0, "is_disabled": 0, "fusion_lat": 0.0}, {"fusion_lon": 0.0, "bike_id": "d55d79db0364288c399a1b79177bc65b", "name": "d55d79db0364288c399a1b79177bc65b", "type": "electric_scooter", "lon": -77.02795616666667, "rental_uris": {"android": "https://dc.lft.to/lastmile_qr_scan", "ios": "https://dc.lft.to/lastmile_qr_scan"}, "lat": 38.929695, "is_reserved": 0, "is_disabled": 0, "fusion_lat": 0.0}, {"fusion_lon": 0.0, "bike_id": "a7ed7fb8caec62b5d1204c4a7e62cad8", "name": "a7ed7fb8caec62b5d1204c4a7e62cad8", "type": "electric_scooter", "lon": -77.0043685, "rental_uris": {"android": "https://dc.lft.to/lastmile_qr_scan", "ios": "https://dc.lft.to/lastmile_qr_scan"}, "lat": 38.911776833333334, "is_reserved": 0, "is_disabled": 0, "fusion_lat": 0.0}, {"fusion_lon": 0.0, "bike_id": "10997300b9530469f92c28b0d79359df", "name": "10997300b9530469f92c28b0d79359df", "type": "electric_scooter", "lon": -77.04484633333334, "rental_uris": {"android": "https://dc.lft.to/lastmile_qr_scan", "ios": "https://dc.lft.to/lastmile_qr_scan"}, "lat": 38.924251166666664, "is_reserved": 0, "is_disabled": 0, "fusion_lat": 0.0}, {"fusion_lon": 0.0, "bike_id": "9ff0e592e60826c885045373be880d1b", "name": "9ff0e592e60826c885045373be880d1b", "type": "electric_scooter", "lon": -77.02161916666667, "rental_uris": {"android": "https://dc.lft.to/lastmile_qr_scan", "ios": "https://dc.lft.to/lastmile_qr_scan"}, "lat": 38.894946166666664, "is_reserved": 0, "is_disabled": 0, "fusion_lat": 0.0}, {"fusion_lon": 0.0, "bike_id": "b2851c289ce53102d3d10697a10e4a71", "name": "b2851c289ce53102d3d10697a10e4a71", "type": "electric_scooter", "lon": -76.99153633333333, "rental_uris": {"android": "https://dc.lft.to/lastmile_qr_scan", "ios": "https://dc.lft.to/lastmile_qr_scan"}, "lat": 38.89778966666667, "is_reserved": 0, "is_disabled": 0, "fusion_lat": 0.0}, {"fusion_lon": 0.0, "bike_id": "8d5faa3d06f275f7d1b00562b472af10", "name": "8d5faa3d06f275f7d1b00562b472af10", "type": "electric_scooter", "lon": -77.04367, "rental_uris": {"android": "https://dc.lft.to/lastmile_qr_scan", "ios": "https://dc.lft.to/lastmile_qr_scan"}, "lat": 38.92085683333333, "is_reserved": 0, "is_disabled": 0, "fusion_lat": 0.0}, {"fusion_lon": 0.0, "bike_id": "cc1a1209b07bd8f1f4a0f7edc0341ad8", "name": "cc1a1209b07bd8f1f4a0f7edc0341ad8", "type": "electric_scooter", "lon": -76.9903195, "rental_uris": {"android": "https://dc.lft.to/lastmile_qr_scan", "ios": "https://dc.lft.to/lastmile_qr_scan"}, "lat": 38.92872416666667, "is_reserved": 0, "is_disabled": 0, "fusion_lat": 0.0}, {"fusion_lon": 0.0, "bike_id": "c02f94bee6bc61ca1b21597f9a5708e6", "name": "c02f94bee6bc61ca1b21597f9a5708e6", "type": "electric_scooter", "lon": -77.003785, "rental_uris": {"android": "https://dc.lft.to/lastmile_qr_scan", "ios": "https://dc.lft.to/lastmile_qr_scan"}, "lat": 38.876558, "is_reserved": 0, "is_disabled": 0, "fusion_lat": 0.0}, {"fusion_lon": 0.0, "bike_id": "655620a168f2f3571874d6a253c20ea0", "name": "655620a168f2f3571874d6a253c20ea0", "type": "electric_scooter", "lon": -77.03207716666667, "rental_uris": {"android": "https://dc.lft.to/lastmile_qr_scan", "ios": "https://dc.lft.to/lastmile_qr_scan"}, "lat": 38.93620116666666, "is_reserved": 0, "is_disabled": 0, "fusion_lat": 0.0}, {"fusion_lon": 0.0, "bike_id": "acc1004102eccb1c5d732fd0c517929f", "name": "acc1004102eccb1c5d732fd0c517929f", "type": "electric_scooter", "lon": -77.0709875, "rental_uris": {"android": "https://dc.lft.to/lastmile_qr_scan", "ios": "https://dc.lft.to/lastmile_qr_scan"}, "lat": 38.919725666666665, "is_reserved": 0, "is_disabled": 0, "fusion_lat": 0.0}, {"fusion_lon": 0.0, "bike_id": "bae7943ff4bbe1f0bd3124d99b18d85c", "name": "bae7943ff4bbe1f0bd3124d99b18d85c", "type": "electric_scooter", "lon": -77.02470383333333, "rental_uris": {"android": "https://dc.lft.to/lastmile_qr_scan", "ios": "https://dc.lft.to/lastmile_qr_scan"}, "lat": 38.937598, "is_reserved": 0, "is_disabled": 0, "fusion_lat": 0.0}, {"fusion_lon": 0.0, "bike_id": "bd9ccd2bc306afb963ac20bbde38558c", "name": "bd9ccd2bc306afb963ac20bbde38558c", "type": "electric_scooter", "lon": -77.02048633333334, "rental_uris": {"android": "https://dc.lft.to/lastmile_qr_scan", "ios": "https://dc.lft.to/lastmile_qr_scan"}, "lat": 38.95869866666666, "is_reserved": 0, "is_disabled": 0, "fusion_lat": 0.0}, {"fusion_lon": 0.0, "bike_id": "ca17ce6fbcc0a5301374116d61e0094a", "name": "ca17ce6fbcc0a5301374116d61e0094a", "type": "electric_scooter", "lon": -77.03956383333333, "rental_uris": {"android": "https://dc.lft.to/lastmile_qr_scan", "ios": "https://dc.lft.to/lastmile_qr_scan"}, "lat": 38.892444166666664, "is_reserved": 0, "is_disabled": 0, "fusion_lat": 0.0}, {"fusion_lon": 0.0, "bike_id": "3f8015f622edde8e0515763258e5f449", "name": "3f8015f622edde8e0515763258e5f449", "type": "electric_scooter", "lon": -77.03188983333334, "rental_uris": {"android": "https://dc.lft.to/lastmile_qr_scan", "ios": "https://dc.lft.to/lastmile_qr_scan"}, "lat": 38.908802, "is_reserved": 0, "is_disabled": 0, "fusion_lat": 0.0}, {"fusion_lon": 0.0, "bike_id": "696b9cfb9ed634b36113a571a66d5e59", "name": "696b9cfb9ed634b36113a571a66d5e59", "type": "electric_scooter", "lon": -77.0339985, "rental_uris": {"android": "https://dc.lft.to/lastmile_qr_scan", "ios": "https://dc.lft.to/lastmile_qr_scan"}, "lat": 38.934776166666666, "is_reserved": 0, "is_disabled": 0, "fusion_lat": 0.0}, {"fusion_lon": 0.0, "bike_id": "21f64efaec33d3ba26ed9a649dafe77b", "name": "21f64efaec33d3ba26ed9a649dafe77b", "type": "electric_scooter", "lon": -77.04401516666667, "rental_uris": {"android": "https://dc.lft.to/lastmile_qr_scan", "ios": "https://dc.lft.to/lastmile_qr_scan"}, "lat": 38.929546, "is_reserved": 0, "is_disabled": 0, "fusion_lat": 0.0}, {"fusion_lon": 0.0, "bike_id": "9f68f16b8f3fe7d72cdfaff7540e2ae8", "name": "9f68f16b8f3fe7d72cdfaff7540e2ae8", "type": "electric_scooter", "lon": -76.99054116666667, "rental_uris": {"android": "https://dc.lft.to/lastmile_qr_scan", "ios": "https://dc.lft.to/lastmile_qr_scan"}, "lat": 38.8638665, "is_reserved": 0, "is_disabled": 0, "fusion_lat": 0.0}, {"fusion_lon": 0.0, "bike_id": "e119636c5d9d63ade8c61ffc5bb314d1", "name": "e119636c5d9d63ade8c61ffc5bb314d1", "type": "electric_scooter", "lon": -77.04097366666667, "rental_uris": {"android": "https://dc.lft.to/lastmile_qr_scan", "ios": "https://dc.lft.to/lastmile_qr_scan"}, "lat": 38.9236905, "is_reserved": 0, "is_disabled": 0, "fusion_lat": 0.0}, {"fusion_lon": 0.0, "bike_id": "a109281a9ea0777e8c535f6251194ecb", "name": "a109281a9ea0777e8c535f6251194ecb", "type": "electric_scooter", "lon": -77.0308765, "rental_uris": {"android": "https://dc.lft.to/lastmile_qr_scan", "ios": "https://dc.lft.to/lastmile_qr_scan"}, "lat": 38.907631333333335, "is_reserved": 0, "is_disabled": 0, "fusion_lat": 0.0}, {"fusion_lon": 0.0, "bike_id": "f74a49856cd8d01be26eca693a56356e", "name": "f74a49856cd8d01be26eca693a56356e", "type": "electric_scooter", "lon": -77.02050716666666, "rental_uris": {"android": "https://dc.lft.to/lastmile_qr_scan", "ios": "https://dc.lft.to/lastmile_qr_scan"}, "lat": 38.94123166666667, "is_reserved": 0, "is_disabled": 0, "fusion_lat": 0.0}, {"fusion_lon": 0.0, "bike_id": "2b481e30caef4e800b48b3f741679518", "name": "2b481e30caef4e800b48b3f741679518", "type": "electric_bike", "lon": -77.10651, "rental_uris": {"android": "https://dc.lft.to/lastmile_qr_scan", "ios": "https://dc.lft.to/lastmile_qr_scan"}, "lat": 39.0300165, "is_reserved": 0, "is_disabled": 0, "fusion_lat": 0.0}, {"fusion_lon": 0.0, "bike_id": "576c837989c0320df114f2fd1478ea1f", "name": "576c837989c0320df114f2fd1478ea1f", "type": "electric_scooter", "lon": -77.031458, "rental_uris": {"android": "https://dc.lft.to/lastmile_qr_scan", "ios": "https://dc.lft.to/lastmile_qr_scan"}, "lat": 38.92012116666667, "is_reserved": 0, "is_disabled": 0, "fusion_lat": 0.0}, {"fusion_lon": 0.0, "bike_id": "cee3b56ec76789157efc3176ab864e98", "name": "cee3b56ec76789157efc3176ab864e98", "type": "electric_bike", "lon": -77.027405, "rental_uris": {"android": "https://dc.lft.to/lastmile_qr_scan", "ios": "https://dc.lft.to/lastmile_qr_scan"}, "lat": 38.921005666666666, "is_reserved": 0, "is_disabled": 0, "fusion_lat": 0.0}, {"fusion_lon": 0.0, "bike_id": "7facefeabebf56c03b43f4f1bc4aa456", "name": "7facefeabebf56c03b43f4f1bc4aa456", "type": "electric_scooter", "lon": -77.01242416666666, "rental_uris": {"android": "https://dc.lft.to/lastmile_qr_scan", "ios": "https://dc.lft.to/lastmile_qr_scan"}, "lat": 38.93109483333333, "is_reserved": 0, "is_disabled": 0, "fusion_lat": 0.0}, {"fusion_lon": 0.0, "bike_id": "ee64a917d8c566e1e33dba912cb6b344", "name": "ee64a917d8c566e1e33dba912cb6b344", "type": "electric_scooter", "lon": -77.00761183333333, "rental_uris": {"android": "https://dc.lft.to/lastmile_qr_scan", "ios": "https://dc.lft.to/lastmile_qr_scan"}, "lat": 38.905609, "is_reserved": 0, "is_disabled": 0, "fusion_lat": 0.0}, {"fusion_lon": 0.0, "bike_id": "263415c26271afcea7a40a1e494a1a96", "name": "263415c26271afcea7a40a1e494a1a96", "type": "electric_bike", "lon": -77.12740116666667, "rental_uris": {"android": "https://dc.lft.to/lastmile_qr_scan", "ios": "https://dc.lft.to/lastmile_qr_scan"}, "lat": 38.8882865, "is_reserved": 0, "is_disabled": 0, "fusion_lat": 0.0}, {"fusion_lon": 0.0, "bike_id": "e6e3f7aaffc215768922bdedf0570b2e", "name": "e6e3f7aaffc215768922bdedf0570b2e", "type": "electric_scooter", "lon": -77.02801916666667, "rental_uris": {"android": "https://dc.lft.to/lastmile_qr_scan", "ios": "https://dc.lft.to/lastmile_qr_scan"}, "lat": 38.907444, "is_reserved": 0, "is_disabled": 0, "fusion_lat": 0.0}, {"fusion_lon": 0.0, "bike_id": "5b4a5cea6a7d28f87bfec773d9920465", "name": "5b4a5cea6a7d28f87bfec773d9920465", "type": "electric_scooter", "lon": -77.0246665, "rental_uris": {"android": "https://dc.lft.to/lastmile_qr_scan", "ios": "https://dc.lft.to/lastmile_qr_scan"}, "lat": 38.89744183333333, "is_reserved": 0, "is_disabled": 0, "fusion_lat": 0.0}, {"fusion_lon": 0.0, "bike_id": "4fb48ad6cb4a82cd8eed3e78a2b7e6b9", "name": "4fb48ad6cb4a82cd8eed3e78a2b7e6b9", "type": "electric_scooter", "lon": -77.004439, "rental_uris": {"android": "https://dc.lft.to/lastmile_qr_scan", "ios": "https://dc.lft.to/lastmile_qr_scan"}, "lat": 38.913504833333334, "is_reserved": 0, "is_disabled": 0, "fusion_lat": 0.0}, {"fusion_lon": 0.0, "bike_id": "5b97f4150ec4c4817564f8de16238924", "name": "5b97f4150ec4c4817564f8de16238924", "type": "electric_scooter", "lon": -77.01898516666667, "rental_uris": {"android": "https://dc.lft.to/lastmile_qr_scan", "ios": "https://dc.lft.to/lastmile_qr_scan"}, "lat": 38.90143283333333, "is_reserved": 0, "is_disabled": 0, "fusion_lat": 0.0}, {"fusion_lon": 0.0, "bike_id": "6217ab3f0db8b49dc68deb1b83a64380", "name": "6217ab3f0db8b49dc68deb1b83a64380", "type": "electric_scooter", "lon": -77.03461266666666, "rental_uris": {"android": "https://dc.lft.to/lastmile_qr_scan", "ios": "https://dc.lft.to/lastmile_qr_scan"}, "lat": 38.903500333333334, "is_reserved": 0, "is_disabled": 0, "fusion_lat": 0.0}, {"fusion_lon": 0.0, "bike_id": "98f4cf55f61729071a656beaedaf686f", "name": "98f4cf55f61729071a656beaedaf686f", "type": "electric_scooter", "lon": -77.04665066666666, "rental_uris": {"android": "https://dc.lft.to/lastmile_qr_scan", "ios": "https://dc.lft.to/lastmile_qr_scan"}, "lat": 38.896968666666666, "is_reserved": 0, "is_disabled": 0, "fusion_lat": 0.0}, {"fusion_lon": 0.0, "bike_id": "86de199d690fcfd0d42a5596fcba5cad", "name": "86de199d690fcfd0d42a5596fcba5cad", "type": "electric_scooter", "lon": -77.01057266666666, "rental_uris": {"android": "https://dc.lft.to/lastmile_qr_scan", "ios": "https://dc.lft.to/lastmile_qr_scan"}, "lat": 38.872454, "is_reserved": 0, "is_disabled": 0, "fusion_lat": 0.0}, {"fusion_lon": 0.0, "bike_id": "92d9a163a98138556e822996346b7bdd", "name": "92d9a163a98138556e822996346b7bdd", "type": "electric_scooter", "lon": -77.03851283333333, "rental_uris": {"android": "https://dc.lft.to/lastmile_qr_scan", "ios": "https://dc.lft.to/lastmile_qr_scan"}, "lat": 38.916685333333334, "is_reserved": 0, "is_disabled": 0, "fusion_lat": 0.0}, {"fusion_lon": 0.0, "bike_id": "fc112da919903d350af4904feadcdac6", "name": "fc112da919903d350af4904feadcdac6", "type": "electric_scooter", "lon": -77.034656, "rental_uris": {"android": "https://dc.lft.to/lastmile_qr_scan", "ios": "https://dc.lft.to/lastmile_qr_scan"}, "lat": 38.921538, "is_reserved": 0, "is_disabled": 0, "fusion_lat": 0.0}, {"fusion_lon": 0.0, "bike_id": "9c624384fbdd908d40a407060e6537f6", "name": "9c624384fbdd908d40a407060e6537f6", "type": "electric_scooter", "lon": -77.04225166666667, "rental_uris": {"android": "https://dc.lft.to/lastmile_qr_scan", "ios": "https://dc.lft.to/lastmile_qr_scan"}, "lat": 38.921183166666665, "is_reserved": 0, "is_disabled": 0, "fusion_lat": 0.0}, {"fusion_lon": 0.0, "bike_id": "888e915b916ffe5f1f892bfa6af853fe", "name": "888e915b916ffe5f1f892bfa6af853fe", "type": "electric_scooter", "lon": -77.03182833333334, "rental_uris": {"android": "https://dc.lft.to/lastmile_qr_scan", "ios": "https://dc.lft.to/lastmile_qr_scan"}, "lat": 38.891786833333335, "is_reserved": 0, "is_disabled": 0, "fusion_lat": 0.0}, {"fusion_lon": 0.0, "bike_id": "3a6666a7c1995a4b43df23e7598a4a16", "name": "3a6666a7c1995a4b43df23e7598a4a16", "type": "electric_scooter", "lon": -77.00556533333334, "rental_uris": {"android": "https://dc.lft.to/lastmile_qr_scan", "ios": "https://dc.lft.to/lastmile_qr_scan"}, "lat": 38.87458483333333, "is_reserved": 0, "is_disabled": 0, "fusion_lat": 0.0}, {"fusion_lon": 0.0, "bike_id": "0e047870002e7681ecd96c9115a779a2", "name": "0e047870002e7681ecd96c9115a779a2", "type": "electric_scooter", "lon": -77.004265, "rental_uris": {"android": "https://dc.lft.to/lastmile_qr_scan", "ios": "https://dc.lft.to/lastmile_qr_scan"}, "lat": 38.87531033333333, "is_reserved": 0, "is_disabled": 0, "fusion_lat": 0.0}, {"fusion_lon": 0.0, "bike_id": "49dee26bbc83cd49d9f69c1f4989a4c1", "name": "49dee26bbc83cd49d9f69c1f4989a4c1", "type": "electric_scooter", "lon": -77.01762816666667, "rental_uris": {"android": "https://dc.lft.to/lastmile_qr_scan", "ios": "https://dc.lft.to/lastmile_qr_scan"}, "lat": 38.921112666666666, "is_reserved": 0, "is_disabled": 0, "fusion_lat": 0.0}, {"fusion_lon": 0.0, "bike_id": "e1defa69ec5897d45c39e333d378615b", "name": "e1defa69ec5897d45c39e333d378615b", "type": "electric_scooter", "lon": -77.02651816666666, "rental_uris": {"android": "https://dc.lft.to/lastmile_qr_scan", "ios": "https://dc.lft.to/lastmile_qr_scan"}, "lat": 38.902346, "is_reserved": 0, "is_disabled": 0, "fusion_lat": 0.0}, {"fusion_lon": 0.0, "bike_id": "a3f3f3a2b6ec61eacae3c766d49507db", "name": "a3f3f3a2b6ec61eacae3c766d49507db", "type": "electric_scooter", "lon": -77.02663466666667, "rental_uris": {"android": "https://dc.lft.to/lastmile_qr_scan", "ios": "https://dc.lft.to/lastmile_qr_scan"}, "lat": 38.92184016666667, "is_reserved": 0, "is_disabled": 0, "fusion_lat": 0.0}, {"fusion_lon": 0.0, "bike_id": "39ad6f08115d38e243e4f68bdf5192f2", "name": "39ad6f08115d38e243e4f68bdf5192f2", "type": "electric_scooter", "lon": -76.98561766666667, "rental_uris": {"android": "https://dc.lft.to/lastmile_qr_scan", "ios": "https://dc.lft.to/lastmile_qr_scan"}, "lat": 38.86061733333333, "is_reserved": 0, "is_disabled": 0, "fusion_lat": 0.0}, {"fusion_lon": 0.0, "bike_id": "f1fa2ef932a878b1dc88e33a20245bc8", "name": "f1fa2ef932a878b1dc88e33a20245bc8", "type": "electric_scooter", "lon": -77.02961933333333, "rental_uris": {"android": "https://dc.lft.to/lastmile_qr_scan", "ios": "https://dc.lft.to/lastmile_qr_scan"}, "lat": 38.92147383333333, "is_reserved": 0, "is_disabled": 0, "fusion_lat": 0.0}, {"fusion_lon": 0.0, "bike_id": "bfadfe80efa5ece21ef43c65c52abfda", "name": "bfadfe80efa5ece21ef43c65c52abfda", "type": "electric_scooter", "lon": -77.02496116666667, "rental_uris": {"android": "https://dc.lft.to/lastmile_qr_scan", "ios": "https://dc.lft.to/lastmile_qr_scan"}, "lat": 38.91809216666667, "is_reserved": 0, "is_disabled": 0, "fusion_lat": 0.0}, {"fusion_lon": 0.0, "bike_id": "287a004579dc64e5c8e99feed426716d", "name": "287a004579dc64e5c8e99feed426716d", "type": "electric_scooter", "lon": -77.02873833333334, "rental_uris": {"android": "https://dc.lft.to/lastmile_qr_scan", "ios": "https://dc.lft.to/lastmile_qr_scan"}, "lat": 38.89970916666667, "is_reserved": 0, "is_disabled": 0, "fusion_lat": 0.0}, {"fusion_lon": 0.0, "bike_id": "52219702c55dbddf54d207386f548246", "name": "52219702c55dbddf54d207386f548246", "type": "electric_scooter", "lon": -77.0046155, "rental_uris": {"android": "https://dc.lft.to/lastmile_qr_scan", "ios": "https://dc.lft.to/lastmile_qr_scan"}, "lat": 38.9114595, "is_reserved": 0, "is_disabled": 0, "fusion_lat": 0.0}, {"fusion_lon": 0.0, "bike_id": "2336cdb8bec6eaf7fea95524a234524e", "name": "2336cdb8bec6eaf7fea95524a234524e", "type": "electric_scooter", "lon": -77.0262325, "rental_uris": {"android": "https://dc.lft.to/lastmile_qr_scan", "ios": "https://dc.lft.to/lastmile_qr_scan"}, "lat": 38.9000355, "is_reserved": 0, "is_disabled": 0, "fusion_lat": 0.0}, {"fusion_lon": 0.0, "bike_id": "94ab4ef1db29ea995b0c9f6739864f0b", "name": "94ab4ef1db29ea995b0c9f6739864f0b", "type": "electric_scooter", "lon": -77.03479266666666, "rental_uris": {"android": "https://dc.lft.to/lastmile_qr_scan", "ios": "https://dc.lft.to/lastmile_qr_scan"}, "lat": 38.9112025, "is_reserved": 0, "is_disabled": 0, "fusion_lat": 0.0}, {"fusion_lon": 0.0, "bike_id": "145052cc6171b15deaa859d732bbd639", "name": "145052cc6171b15deaa859d732bbd639", "type": "electric_scooter", "lon": -77.03955466666666, "rental_uris": {"android": "https://dc.lft.to/lastmile_qr_scan", "ios": "https://dc.lft.to/lastmile_qr_scan"}, "lat": 38.899706333333334, "is_reserved": 0, "is_disabled": 0, "fusion_lat": 0.0}, {"fusion_lon": 0.0, "bike_id": "a17be69704b4c456bd64194fc4dac86d", "name": "a17be69704b4c456bd64194fc4dac86d", "type": "electric_scooter", "lon": -77.03090316666666, "rental_uris": {"android": "https://dc.lft.to/lastmile_qr_scan", "ios": "https://dc.lft.to/lastmile_qr_scan"}, "lat": 38.94679283333333, "is_reserved": 0, "is_disabled": 0, "fusion_lat": 0.0}, {"fusion_lon": 0.0, "bike_id": "28f14dfc4918eaaa088476651c606b30", "name": "28f14dfc4918eaaa088476651c606b30", "type": "electric_scooter", "lon": -77.0372905, "rental_uris": {"android": "https://dc.lft.to/lastmile_qr_scan", "ios": "https://dc.lft.to/lastmile_qr_scan"}, "lat": 38.920277, "is_reserved": 0, "is_disabled": 0, "fusion_lat": 0.0}, {"fusion_lon": 0.0, "bike_id": "7fe5a0c0121d77798aa202ee25c0197d", "name": "7fe5a0c0121d77798aa202ee25c0197d", "type": "electric_scooter", "lon": -77.0176045, "rental_uris": {"android": "https://dc.lft.to/lastmile_qr_scan", "ios": "https://dc.lft.to/lastmile_qr_scan"}, "lat": 38.87687916666667, "is_reserved": 0, "is_disabled": 0, "fusion_lat": 0.0}, {"fusion_lon": 0.0, "bike_id": "e3d3547ec28def96f21fafe86f3d69de", "name": "e3d3547ec28def96f21fafe86f3d69de", "type": "electric_scooter", "lon": -76.9654785, "rental_uris": {"android": "https://dc.lft.to/lastmile_qr_scan", "ios": "https://dc.lft.to/lastmile_qr_scan"}, "lat": 38.918843833333334, "is_reserved": 0, "is_disabled": 0, "fusion_lat": 0.0}, {"fusion_lon": 0.0, "bike_id": "4a31e7f6579d92567499d61f606d29ed", "name": "4a31e7f6579d92567499d61f606d29ed", "type": "electric_scooter", "lon": -77.00715583333333, "rental_uris": {"android": "https://dc.lft.to/lastmile_qr_scan", "ios": "https://dc.lft.to/lastmile_qr_scan"}, "lat": 38.87182, "is_reserved": 0, "is_disabled": 0, "fusion_lat": 0.0}, {"fusion_lon": 0.0, "bike_id": "a81dfd70342effa957bdd09f39918176", "name": "a81dfd70342effa957bdd09f39918176", "type": "electric_bike", "lon": -76.93412883333333, "rental_uris": {"android": "https://dc.lft.to/lastmile_qr_scan", "ios": "https://dc.lft.to/lastmile_qr_scan"}, "lat": 38.94625033333333, "is_reserved": 0, "is_disabled": 0, "fusion_lat": 0.0}, {"fusion_lon": 0.0, "bike_id": "a9a4eebe5c74d6b199e64adab13178de", "name": "a9a4eebe5c74d6b199e64adab13178de", "type": "electric_scooter", "lon": -77.01259566666667, "rental_uris": {"android": "https://dc.lft.to/lastmile_qr_scan", "ios": "https://dc.lft.to/lastmile_qr_scan"}, "lat": 38.8763475, "is_reserved": 0, "is_disabled": 0, "fusion_lat": 0.0}, {"fusion_lon": 0.0, "bike_id": "1ca154e1c7f1fb39e382d7643bf54647", "name": "1ca154e1c7f1fb39e382d7643bf54647", "type": "electric_scooter", "lon": -77.04898216666666, "rental_uris": {"android": "https://dc.lft.to/lastmile_qr_scan", "ios": "https://dc.lft.to/lastmile_qr_scan"}, "lat": 38.88842366666667, "is_reserved": 0, "is_disabled": 0, "fusion_lat": 0.0}, {"fusion_lon": 0.0, "bike_id": "058095ac5ab812d15dedf96d09d44681", "name": "058095ac5ab812d15dedf96d09d44681", "type": "electric_scooter", "lon": -77.0275965, "rental_uris": {"android": "https://dc.lft.to/lastmile_qr_scan", "ios": "https://dc.lft.to/lastmile_qr_scan"}, "lat": 38.95414616666667, "is_reserved": 0, "is_disabled": 0, "fusion_lat": 0.0}, {"fusion_lon": 0.0, "bike_id": "5a9dd48e4c7bfe5db2f080ea21e00481", "name": "5a9dd48e4c7bfe5db2f080ea21e00481", "type": "electric_scooter", "lon": -77.04890316666666, "rental_uris": {"android": "https://dc.lft.to/lastmile_qr_scan", "ios": "https://dc.lft.to/lastmile_qr_scan"}, "lat": 38.89817166666667, "is_reserved": 0, "is_disabled": 0, "fusion_lat": 0.0}, {"fusion_lon": 0.0, "bike_id": "53dd00fbb58e4134971ae13997d98091", "name": "53dd00fbb58e4134971ae13997d98091", "type": "electric_bike", "lon": -76.93023333333333, "rental_uris": {"android": "https://dc.lft.to/lastmile_qr_scan", "ios": "https://dc.lft.to/lastmile_qr_scan"}, "lat": 38.96649133333333, "is_reserved": 0, "is_disabled": 0, "fusion_lat": 0.0}, {"fusion_lon": 0.0, "bike_id": "2beadba3d0f0b24736bda262fd92d9fd", "name": "2beadba3d0f0b24736bda262fd92d9fd", "type": "electric_scooter", "lon": -77.01313983333333, "rental_uris": {"android": "https://dc.lft.to/lastmile_qr_scan", "ios": "https://dc.lft.to/lastmile_qr_scan"}, "lat": 38.90077183333333, "is_reserved": 0, "is_disabled": 0, "fusion_lat": 0.0}, {"fusion_lon": 0.0, "bike_id": "40c2e4f769165835bffe240a500a942f", "name": "40c2e4f769165835bffe240a500a942f", "type": "electric_scooter", "lon": -77.02586716666667, "rental_uris": {"android": "https://dc.lft.to/lastmile_qr_scan", "ios": "https://dc.lft.to/lastmile_qr_scan"}, "lat": 38.9203585, "is_reserved": 0, "is_disabled": 0, "fusion_lat": 0.0}, {"fusion_lon": 0.0, "bike_id": "e4f6af1bd0a0782204290cd4ad7730ce", "name": "e4f6af1bd0a0782204290cd4ad7730ce", "type": "electric_bike", "lon": -76.91323766666666, "rental_uris": {"android": "https://dc.lft.to/lastmile_qr_scan", "ios": "https://dc.lft.to/lastmile_qr_scan"}, "lat": 38.89598016666667, "is_reserved": 0, "is_disabled": 0, "fusion_lat": 0.0}, {"fusion_lon": 0.0, "bike_id": "0ca33682c1c713304afb9416929c085b", "name": "0ca33682c1c713304afb9416929c085b", "type": "electric_scooter", "lon": -77.05990516666667, "rental_uris": {"android": "https://dc.lft.to/lastmile_qr_scan", "ios": "https://dc.lft.to/lastmile_qr_scan"}, "lat": 38.911952, "is_reserved": 0, "is_disabled": 0, "fusion_lat": 0.0}, {"fusion_lon": 0.0, "bike_id": "bc32263a12544b114617ea0ae4a19acd", "name": "bc32263a12544b114617ea0ae4a19acd", "type": "electric_scooter", "lon": -76.998719, "rental_uris": {"android": "https://dc.lft.to/lastmile_qr_scan", "ios": "https://dc.lft.to/lastmile_qr_scan"}, "lat": 38.900148333333334, "is_reserved": 0, "is_disabled": 0, "fusion_lat": 0.0}, {"fusion_lon": 0.0, "bike_id": "b5cd098283a8691602f17e10191416cd", "name": "b5cd098283a8691602f17e10191416cd", "type": "electric_scooter", "lon": -77.03402033333333, "rental_uris": {"android": "https://dc.lft.to/lastmile_qr_scan", "ios": "https://dc.lft.to/lastmile_qr_scan"}, "lat": 38.921598, "is_reserved": 0, "is_disabled": 0, "fusion_lat": 0.0}, {"fusion_lon": 0.0, "bike_id": "1801636c0a95bc474908d6ca97ba739e", "name": "1801636c0a95bc474908d6ca97ba739e", "type": "electric_scooter", "lon": -77.072316, "rental_uris": {"android": "https://dc.lft.to/lastmile_qr_scan", "ios": "https://dc.lft.to/lastmile_qr_scan"}, "lat": 38.934626333333334, "is_reserved": 0, "is_disabled": 0, "fusion_lat": 0.0}, {"fusion_lon": 0.0, "bike_id": "6615e5f0cae7b9870af1becb05316003", "name": "6615e5f0cae7b9870af1becb05316003", "type": "electric_scooter", "lon": -77.03250616666666, "rental_uris": {"android": "https://dc.lft.to/lastmile_qr_scan", "ios": "https://dc.lft.to/lastmile_qr_scan"}, "lat": 38.90971316666667, "is_reserved": 0, "is_disabled": 0, "fusion_lat": 0.0}, {"fusion_lon": 0.0, "bike_id": "2d0f8e589ecb8b60da82c3e6d0f5dafa", "name": "2d0f8e589ecb8b60da82c3e6d0f5dafa", "type": "electric_scooter", "lon": -77.08015783333333, "rental_uris": {"android": "https://dc.lft.to/lastmile_qr_scan", "ios": "https://dc.lft.to/lastmile_qr_scan"}, "lat": 38.9490575, "is_reserved": 0, "is_disabled": 0, "fusion_lat": 0.0}, {"fusion_lon": 0.0, "bike_id": "b0b760db4ab81ae5c49fce9686f00e79", "name": "b0b760db4ab81ae5c49fce9686f00e79", "type": "electric_scooter", "lon": -76.996224, "rental_uris": {"android": "https://dc.lft.to/lastmile_qr_scan", "ios": "https://dc.lft.to/lastmile_qr_scan"}, "lat": 38.8847895, "is_reserved": 0, "is_disabled": 0, "fusion_lat": 0.0}, {"fusion_lon": 0.0, "bike_id": "e1bfa65a0b4f6b6ba66d7e055a280c91", "name": "e1bfa65a0b4f6b6ba66d7e055a280c91", "type": "electric_bike", "lon": -77.03465066666666, "rental_uris": {"android": "https://dc.lft.to/lastmile_qr_scan", "ios": "https://dc.lft.to/lastmile_qr_scan"}, "lat": 38.92494083333333, "is_reserved": 0, "is_disabled": 0, "fusion_lat": 0.0}, {"fusion_lon": 0.0, "bike_id": "4ad85022d86f6c7bfbee41646b242da4", "name": "4ad85022d86f6c7bfbee41646b242da4", "type": "electric_scooter", "lon": -77.02005016666666, "rental_uris": {"android": "https://dc.lft.to/lastmile_qr_scan", "ios": "https://dc.lft.to/lastmile_qr_scan"}, "lat": 38.878955166666664, "is_reserved": 0, "is_disabled": 0, "fusion_lat": 0.0}, {"fusion_lon": 0.0, "bike_id": "c8d074056fc5a6dd1715f937ef6d8084", "name": "c8d074056fc5a6dd1715f937ef6d8084", "type": "electric_scooter", "lon": -77.0406395, "rental_uris": {"android": "https://dc.lft.to/lastmile_qr_scan", "ios": "https://dc.lft.to/lastmile_qr_scan"}, "lat": 38.90140366666667, "is_reserved": 0, "is_disabled": 0, "fusion_lat": 0.0}, {"fusion_lon": 0.0, "bike_id": "3c24e5673a9b07d1657777b8a5a5992d", "name": "3c24e5673a9b07d1657777b8a5a5992d", "type": "electric_scooter", "lon": -76.9982775, "rental_uris": {"android": "https://dc.lft.to/lastmile_qr_scan", "ios": "https://dc.lft.to/lastmile_qr_scan"}, "lat": 38.908743666666666, "is_reserved": 0, "is_disabled": 0, "fusion_lat": 0.0}, {"fusion_lon": 0.0, "bike_id": "92ab80169d512bab79d3880c62e39741", "name": "92ab80169d512bab79d3880c62e39741", "type": "electric_scooter", "lon": -76.91874683333333, "rental_uris": {"android": "https://dc.lft.to/lastmile_qr_scan", "ios": "https://dc.lft.to/lastmile_qr_scan"}, "lat": 38.890830666666666, "is_reserved": 0, "is_disabled": 0, "fusion_lat": 0.0}, {"fusion_lon": 0.0, "bike_id": "49e30ec1da067ec89d5cde49504b46d7", "name": "49e30ec1da067ec89d5cde49504b46d7", "type": "electric_scooter", "lon": -77.0333595, "rental_uris": {"android": "https://dc.lft.to/lastmile_qr_scan", "ios": "https://dc.lft.to/lastmile_qr_scan"}, "lat": 38.892291166666666, "is_reserved": 0, "is_disabled": 0, "fusion_lat": 0.0}, {"fusion_lon": 0.0, "bike_id": "3fca8ed542f4b81084b816691547bf0a", "name": "3fca8ed542f4b81084b816691547bf0a", "type": "electric_scooter", "lon": -77.003587, "rental_uris": {"android": "https://dc.lft.to/lastmile_qr_scan", "ios": "https://dc.lft.to/lastmile_qr_scan"}, "lat": 38.9169695, "is_reserved": 0, "is_disabled": 0, "fusion_lat": 0.0}, {"fusion_lon": 0.0, "bike_id": "55ddd170c2abc88aeeac30cb66bc8ae4", "name": "55ddd170c2abc88aeeac30cb66bc8ae4", "type": "electric_scooter", "lon": -76.94285233333333, "rental_uris": {"android": "https://dc.lft.to/lastmile_qr_scan", "ios": "https://dc.lft.to/lastmile_qr_scan"}, "lat": 38.88305533333333, "is_reserved": 0, "is_disabled": 0, "fusion_lat": 0.0}, {"fusion_lon": 0.0, "bike_id": "b9afebd1751675d792de4aa88ed255fd", "name": "b9afebd1751675d792de4aa88ed255fd", "type": "electric_scooter", "lon": -77.0121155, "rental_uris": {"android": "https://dc.lft.to/lastmile_qr_scan", "ios": "https://dc.lft.to/lastmile_qr_scan"}, "lat": 38.918232, "is_reserved": 0, "is_disabled": 0, "fusion_lat": 0.0}, {"fusion_lon": 0.0, "bike_id": "fb19ecda31be9557b37e6f80f188c548", "name": "fb19ecda31be9557b37e6f80f188c548", "type": "electric_scooter", "lon": -77.046439, "rental_uris": {"android": "https://dc.lft.to/lastmile_qr_scan", "ios": "https://dc.lft.to/lastmile_qr_scan"}, "lat": 38.89344033333333, "is_reserved": 0, "is_disabled": 0, "fusion_lat": 0.0}, {"fusion_lon": 0.0, "bike_id": "24a546261493f6bf50c0975eef52fe11", "name": "24a546261493f6bf50c0975eef52fe11", "type": "electric_bike", "lon": -77.08944183333334, "rental_uris": {"android": "https://dc.lft.to/lastmile_qr_scan", "ios": "https://dc.lft.to/lastmile_qr_scan"}, "lat": 38.841110666666665, "is_reserved": 0, "is_disabled": 0, "fusion_lat": 0.0}, {"fusion_lon": 0.0, "bike_id": "17bb141682d6bf443ee4c49e3efc619f", "name": "17bb141682d6bf443ee4c49e3efc619f", "type": "electric_scooter", "lon": -77.03470183333333, "rental_uris": {"android": "https://dc.lft.to/lastmile_qr_scan", "ios": "https://dc.lft.to/lastmile_qr_scan"}, "lat": 38.91716483333333, "is_reserved": 0, "is_disabled": 0, "fusion_lat": 0.0}, {"fusion_lon": 0.0, "bike_id": "e05d0f72614f0ca45b7c2238cf73bb85", "name": "e05d0f72614f0ca45b7c2238cf73bb85", "type": "electric_scooter", "lon": -77.03439833333333, "rental_uris": {"android": "https://dc.lft.to/lastmile_qr_scan", "ios": "https://dc.lft.to/lastmile_qr_scan"}, "lat": 38.910114666666665, "is_reserved": 0, "is_disabled": 0, "fusion_lat": 0.0}, {"fusion_lon": 0.0, "bike_id": "ace2a43fa86d4ed73623e82828c0b27d", "name": "ace2a43fa86d4ed73623e82828c0b27d", "type": "electric_scooter", "lon": -77.0281975, "rental_uris": {"android": "https://dc.lft.to/lastmile_qr_scan", "ios": "https://dc.lft.to/lastmile_qr_scan"}, "lat": 38.899556833333335, "is_reserved": 0, "is_disabled": 0, "fusion_lat": 0.0}, {"fusion_lon": 0.0, "bike_id": "17d5a295facd9267e1de71ab3a5480cb", "name": "17d5a295facd9267e1de71ab3a5480cb", "type": "electric_scooter", "lon": -77.03802766666666, "rental_uris": {"android": "https://dc.lft.to/lastmile_qr_scan", "ios": "https://dc.lft.to/lastmile_qr_scan"}, "lat": 38.91036916666667, "is_reserved": 0, "is_disabled": 0, "fusion_lat": 0.0}, {"fusion_lon": 0.0, "bike_id": "c8f8a43cfc30ebfa20c2919edf900ba9", "name": "c8f8a43cfc30ebfa20c2919edf900ba9", "type": "electric_scooter", "lon": -77.034499, "rental_uris": {"android": "https://dc.lft.to/lastmile_qr_scan", "ios": "https://dc.lft.to/lastmile_qr_scan"}, "lat": 38.906373, "is_reserved": 0, "is_disabled": 0, "fusion_lat": 0.0}, {"fusion_lon": 0.0, "bike_id": "0bf2215e9aeb05a53a8e272163c4f13d", "name": "0bf2215e9aeb05a53a8e272163c4f13d", "type": "electric_scooter", "lon": -77.03334133333334, "rental_uris": {"android": "https://dc.lft.to/lastmile_qr_scan", "ios": "https://dc.lft.to/lastmile_qr_scan"}, "lat": 38.900188, "is_reserved": 0, "is_disabled": 0, "fusion_lat": 0.0}, {"fusion_lon": 0.0, "bike_id": "ebc24908808af76702da71815769ccb7", "name": "ebc24908808af76702da71815769ccb7", "type": "electric_scooter", "lon": -77.03348633333333, "rental_uris": {"android": "https://dc.lft.to/lastmile_qr_scan", "ios": "https://dc.lft.to/lastmile_qr_scan"}, "lat": 38.89243316666666, "is_reserved": 0, "is_disabled": 0, "fusion_lat": 0.0}, {"fusion_lon": 0.0, "bike_id": "5b22a5228489d3579eefddcdbde1a617", "name": "5b22a5228489d3579eefddcdbde1a617", "type": "electric_bike", "lon": -77.10127783333333, "rental_uris": {"android": "https://dc.lft.to/lastmile_qr_scan", "ios": "https://dc.lft.to/lastmile_qr_scan"}, "lat": 38.852133333333335, "is_reserved": 0, "is_disabled": 0, "fusion_lat": 0.0}, {"fusion_lon": 0.0, "bike_id": "45c1c8640753a96da08b7afba4c874b5", "name": "45c1c8640753a96da08b7afba4c874b5", "type": "electric_bike", "lon": -76.91602083333333, "rental_uris": {"android": "https://dc.lft.to/lastmile_qr_scan", "ios": "https://dc.lft.to/lastmile_qr_scan"}, "lat": 38.879761333333335, "is_reserved": 0, "is_disabled": 0, "fusion_lat": 0.0}, {"fusion_lon": 0.0, "bike_id": "4da314cb7a896b28cf9a4a8004753f0c", "name": "4da314cb7a896b28cf9a4a8004753f0c", "type": "electric_scooter", "lon": -77.04721333333333, "rental_uris": {"android": "https://dc.lft.to/lastmile_qr_scan", "ios": "https://dc.lft.to/lastmile_qr_scan"}, "lat": 38.89955783333333, "is_reserved": 0, "is_disabled": 0, "fusion_lat": 0.0}, {"fusion_lon": 0.0, "bike_id": "27df3b60950c5d6f9bcf2e10fb140cd8", "name": "27df3b60950c5d6f9bcf2e10fb140cd8", "type": "electric_scooter", "lon": -77.034451, "rental_uris": {"android": "https://dc.lft.to/lastmile_qr_scan", "ios": "https://dc.lft.to/lastmile_qr_scan"}, "lat": 38.96424416666667, "is_reserved": 0, "is_disabled": 0, "fusion_lat": 0.0}, {"fusion_lon": 0.0, "bike_id": "9247df34607c8761e5da0e87405bca81", "name": "9247df34607c8761e5da0e87405bca81", "type": "electric_scooter", "lon": -76.98325833333334, "rental_uris": {"android": "https://dc.lft.to/lastmile_qr_scan", "ios": "https://dc.lft.to/lastmile_qr_scan"}, "lat": 38.861693, "is_reserved": 0, "is_disabled": 0, "fusion_lat": 0.0}, {"fusion_lon": 0.0, "bike_id": "09d3ab32c177c22cfdbef042516b528b", "name": "09d3ab32c177c22cfdbef042516b528b", "type": "electric_scooter", "lon": -77.02247333333334, "rental_uris": {"android": "https://dc.lft.to/lastmile_qr_scan", "ios": "https://dc.lft.to/lastmile_qr_scan"}, "lat": 38.89223233333333, "is_reserved": 0, "is_disabled": 0, "fusion_lat": 0.0}, {"fusion_lon": 0.0, "bike_id": "6bdb02091b0c1a60b18969b03630a992", "name": "6bdb02091b0c1a60b18969b03630a992", "type": "electric_bike", "lon": -76.96837216666667, "rental_uris": {"android": "https://dc.lft.to/lastmile_qr_scan", "ios": "https://dc.lft.to/lastmile_qr_scan"}, "lat": 38.92447416666667, "is_reserved": 0, "is_disabled": 0, "fusion_lat": 0.0}, {"fusion_lon": 0.0, "bike_id": "7e42d18685db842f677e5f244bd32932", "name": "7e42d18685db842f677e5f244bd32932", "type": "electric_scooter", "lon": -77.04345383333333, "rental_uris": {"android": "https://dc.lft.to/lastmile_qr_scan", "ios": "https://dc.lft.to/lastmile_qr_scan"}, "lat": 38.900388, "is_reserved": 0, "is_disabled": 0, "fusion_lat": 0.0}, {"fusion_lon": 0.0, "bike_id": "58d0abcaa57ea29b94d23a3da8368d7b", "name": "58d0abcaa57ea29b94d23a3da8368d7b", "type": "electric_scooter", "lon": -77.02405216666666, "rental_uris": {"android": "https://dc.lft.to/lastmile_qr_scan", "ios": "https://dc.lft.to/lastmile_qr_scan"}, "lat": 38.917138666666666, "is_reserved": 0, "is_disabled": 0, "fusion_lat": 0.0}, {"fusion_lon": 0.0, "bike_id": "2698787cdfa6ee0af30731f4c04029b0", "name": "2698787cdfa6ee0af30731f4c04029b0", "type": "electric_bike", "lon": -77.15266633333333, "rental_uris": {"android": "https://dc.lft.to/lastmile_qr_scan", "ios": "https://dc.lft.to/lastmile_qr_scan"}, "lat": 39.1056885, "is_reserved": 0, "is_disabled": 0, "fusion_lat": 0.0}, {"fusion_lon": 0.0, "bike_id": "0e81684afd3c303452d5a22006324d56", "name": "0e81684afd3c303452d5a22006324d56", "type": "electric_scooter", "lon": -77.05730816666667, "rental_uris": {"android": "https://dc.lft.to/lastmile_qr_scan", "ios": "https://dc.lft.to/lastmile_qr_scan"}, "lat": 38.93368233333333, "is_reserved": 0, "is_disabled": 0, "fusion_lat": 0.0}, {"fusion_lon": 0.0, "bike_id": "211704549d519e2fc1e6b72fd22a9466", "name": "211704549d519e2fc1e6b72fd22a9466", "type": "electric_scooter", "lon": -77.03123566666666, "rental_uris": {"android": "https://dc.lft.to/lastmile_qr_scan", "ios": "https://dc.lft.to/lastmile_qr_scan"}, "lat": 38.904608833333334, "is_reserved": 0, "is_disabled": 0, "fusion_lat": 0.0}, {"fusion_lon": 0.0, "bike_id": "2fe1dc4ef19dc9db476d8acb8ddc4671", "name": "2fe1dc4ef19dc9db476d8acb8ddc4671", "type": "electric_scooter", "lon": -76.99003033333334, "rental_uris": {"android": "https://dc.lft.to/lastmile_qr_scan", "ios": "https://dc.lft.to/lastmile_qr_scan"}, "lat": 38.865064, "is_reserved": 0, "is_disabled": 0, "fusion_lat": 0.0}, {"fusion_lon": 0.0, "bike_id": "e163c41e439cbd59a090cc7ae425c4b3", "name": "e163c41e439cbd59a090cc7ae425c4b3", "type": "electric_scooter", "lon": -76.93432133333333, "rental_uris": {"android": "https://dc.lft.to/lastmile_qr_scan", "ios": "https://dc.lft.to/lastmile_qr_scan"}, "lat": 38.8996765, "is_reserved": 0, "is_disabled": 0, "fusion_lat": 0.0}, {"fusion_lon": 0.0, "bike_id": "7ce8fa9d99936de28a6df488d2abaafc", "name": "7ce8fa9d99936de28a6df488d2abaafc", "type": "electric_bike", "lon": -76.98331966666667, "rental_uris": {"android": "https://dc.lft.to/lastmile_qr_scan", "ios": "https://dc.lft.to/lastmile_qr_scan"}, "lat": 38.96605533333334, "is_reserved": 0, "is_disabled": 0, "fusion_lat": 0.0}, {"fusion_lon": 0.0, "bike_id": "19860db6635be8934d634148c2afa402", "name": "19860db6635be8934d634148c2afa402", "type": "electric_scooter", "lon": -77.01608866666666, "rental_uris": {"android": "https://dc.lft.to/lastmile_qr_scan", "ios": "https://dc.lft.to/lastmile_qr_scan"}, "lat": 38.887513, "is_reserved": 0, "is_disabled": 0, "fusion_lat": 0.0}, {"fusion_lon": 0.0, "bike_id": "c18f06d580094b8159e2146dcb118b1c", "name": "c18f06d580094b8159e2146dcb118b1c", "type": "electric_scooter", "lon": -77.024985, "rental_uris": {"android": "https://dc.lft.to/lastmile_qr_scan", "ios": "https://dc.lft.to/lastmile_qr_scan"}, "lat": 38.9180585, "is_reserved": 0, "is_disabled": 0, "fusion_lat": 0.0}, {"fusion_lon": 0.0, "bike_id": "c29a5444c42936a01e8c468344e731c1", "name": "c29a5444c42936a01e8c468344e731c1", "type": "electric_scooter", "lon": -77.02845583333334, "rental_uris": {"android": "https://dc.lft.to/lastmile_qr_scan", "ios": "https://dc.lft.to/lastmile_qr_scan"}, "lat": 38.922395333333334, "is_reserved": 0, "is_disabled": 0, "fusion_lat": 0.0}, {"fusion_lon": 0.0, "bike_id": "32b8408e0aa36aedde1395c0ac008c58", "name": "32b8408e0aa36aedde1395c0ac008c58", "type": "electric_scooter", "lon": -77.0247965, "rental_uris": {"android": "https://dc.lft.to/lastmile_qr_scan", "ios": "https://dc.lft.to/lastmile_qr_scan"}, "lat": 38.91942983333333, "is_reserved": 0, "is_disabled": 0, "fusion_lat": 0.0}, {"fusion_lon": 0.0, "bike_id": "23e3264304da2781dd64a7504f3dfc82", "name": "23e3264304da2781dd64a7504f3dfc82", "type": "electric_scooter", "lon": -77.05298783333333, "rental_uris": {"android": "https://dc.lft.to/lastmile_qr_scan", "ios": "https://dc.lft.to/lastmile_qr_scan"}, "lat": 38.9278285, "is_reserved": 0, "is_disabled": 0, "fusion_lat": 0.0}, {"fusion_lon": 0.0, "bike_id": "c7c88134681e70355cb03c680c49ac3f", "name": "c7c88134681e70355cb03c680c49ac3f", "type": "electric_scooter", "lon": -77.02450583333334, "rental_uris": {"android": "https://dc.lft.to/lastmile_qr_scan", "ios": "https://dc.lft.to/lastmile_qr_scan"}, "lat": 38.9189235, "is_reserved": 0, "is_disabled": 0, "fusion_lat": 0.0}, {"fusion_lon": 0.0, "bike_id": "688ec27615d6d4c25225f51b8c300541", "name": "688ec27615d6d4c25225f51b8c300541", "type": "electric_scooter", "lon": -77.00571616666667, "rental_uris": {"android": "https://dc.lft.to/lastmile_qr_scan", "ios": "https://dc.lft.to/lastmile_qr_scan"}, "lat": 38.87701283333333, "is_reserved": 0, "is_disabled": 0, "fusion_lat": 0.0}, {"fusion_lon": 0.0, "bike_id": "16ef31b40b0257d7ec00d50a0ca3c50b", "name": "16ef31b40b0257d7ec00d50a0ca3c50b", "type": "electric_scooter", "lon": -77.003348, "rental_uris": {"android": "https://dc.lft.to/lastmile_qr_scan", "ios": "https://dc.lft.to/lastmile_qr_scan"}, "lat": 38.8952465, "is_reserved": 0, "is_disabled": 0, "fusion_lat": 0.0}, {"fusion_lon": 0.0, "bike_id": "47f13fbb2070dde25b5ad1d477ebabd0", "name": "47f13fbb2070dde25b5ad1d477ebabd0", "type": "electric_scooter", "lon": -76.96527233333333, "rental_uris": {"android": "https://dc.lft.to/lastmile_qr_scan", "ios": "https://dc.lft.to/lastmile_qr_scan"}, "lat": 38.876309666666664, "is_reserved": 0, "is_disabled": 0, "fusion_lat": 0.0}, {"fusion_lon": 0.0, "bike_id": "650c0f24cd1010ed49cab486d5b11125", "name": "650c0f24cd1010ed49cab486d5b11125", "type": "electric_scooter", "lon": -77.026083, "rental_uris": {"android": "https://dc.lft.to/lastmile_qr_scan", "ios": "https://dc.lft.to/lastmile_qr_scan"}, "lat": 38.9244365, "is_reserved": 0, "is_disabled": 0, "fusion_lat": 0.0}, {"fusion_lon": 0.0, "bike_id": "18afc906fe2f59f585b5dc61a9927845", "name": "18afc906fe2f59f585b5dc61a9927845", "type": "electric_scooter", "lon": -77.04134533333334, "rental_uris": {"android": "https://dc.lft.to/lastmile_qr_scan", "ios": "https://dc.lft.to/lastmile_qr_scan"}, "lat": 38.900296166666664, "is_reserved": 0, "is_disabled": 0, "fusion_lat": 0.0}, {"fusion_lon": 0.0, "bike_id": "88cbd8ea65497b5e2143c4cc705fb0a9", "name": "88cbd8ea65497b5e2143c4cc705fb0a9", "type": "electric_scooter", "lon": -77.030549, "rental_uris": {"android": "https://dc.lft.to/lastmile_qr_scan", "ios": "https://dc.lft.to/lastmile_qr_scan"}, "lat": 38.96419566666667, "is_reserved": 0, "is_disabled": 0, "fusion_lat": 0.0}, {"fusion_lon": 0.0, "bike_id": "47097e2ff1a31615fc6b0054df120109", "name": "47097e2ff1a31615fc6b0054df120109", "type": "electric_scooter", "lon": -76.99682433333334, "rental_uris": {"android": "https://dc.lft.to/lastmile_qr_scan", "ios": "https://dc.lft.to/lastmile_qr_scan"}, "lat": 38.88700083333333, "is_reserved": 0, "is_disabled": 0, "fusion_lat": 0.0}, {"fusion_lon": 0.0, "bike_id": "a5a073e48118dd4b0869cb73c48ba4e8", "name": "a5a073e48118dd4b0869cb73c48ba4e8", "type": "electric_scooter", "lon": -77.06519333333334, "rental_uris": {"android": "https://dc.lft.to/lastmile_qr_scan", "ios": "https://dc.lft.to/lastmile_qr_scan"}, "lat": 38.905192666666665, "is_reserved": 0, "is_disabled": 0, "fusion_lat": 0.0}, {"fusion_lon": 0.0, "bike_id": "da001f25958fa148b8fc99dd18fc5896", "name": "da001f25958fa148b8fc99dd18fc5896", "type": "electric_bike", "lon": -77.04986583333333, "rental_uris": {"android": "https://dc.lft.to/lastmile_qr_scan", "ios": "https://dc.lft.to/lastmile_qr_scan"}, "lat": 38.992421, "is_reserved": 0, "is_disabled": 0, "fusion_lat": 0.0}, {"fusion_lon": 0.0, "bike_id": "b777afd58bb31d5669528b1566167c4d", "name": "b777afd58bb31d5669528b1566167c4d", "type": "electric_scooter", "lon": -77.04691216666667, "rental_uris": {"android": "https://dc.lft.to/lastmile_qr_scan", "ios": "https://dc.lft.to/lastmile_qr_scan"}, "lat": 38.91564966666667, "is_reserved": 0, "is_disabled": 0, "fusion_lat": 0.0}, {"fusion_lon": 0.0, "bike_id": "8a2a37d183c3195c6e6a6cf24ec3f45e", "name": "8a2a37d183c3195c6e6a6cf24ec3f45e", "type": "electric_scooter", "lon": -77.0234635, "rental_uris": {"android": "https://dc.lft.to/lastmile_qr_scan", "ios": "https://dc.lft.to/lastmile_qr_scan"}, "lat": 38.942970333333335, "is_reserved": 0, "is_disabled": 0, "fusion_lat": 0.0}, {"fusion_lon": 0.0, "bike_id": "de396b0eb0ce4ce78317285c816d2897", "name": "de396b0eb0ce4ce78317285c816d2897", "type": "electric_scooter", "lon": -77.03700783333333, "rental_uris": {"android": "https://dc.lft.to/lastmile_qr_scan", "ios": "https://dc.lft.to/lastmile_qr_scan"}, "lat": 38.92778883333333, "is_reserved": 0, "is_disabled": 0, "fusion_lat": 0.0}, {"fusion_lon": 0.0, "bike_id": "d6abd30a581ec8c69fad9365653cfa82", "name": "d6abd30a581ec8c69fad9365653cfa82", "type": "electric_bike", "lon": -77.19548483333334, "rental_uris": {"android": "https://dc.lft.to/lastmile_qr_scan", "ios": "https://dc.lft.to/lastmile_qr_scan"}, "lat": 39.11504016666667, "is_reserved": 0, "is_disabled": 0, "fusion_lat": 0.0}, {"fusion_lon": 0.0, "bike_id": "c97c073b86602dc939e32969dfa6b5e0", "name": "c97c073b86602dc939e32969dfa6b5e0", "type": "electric_bike", "lon": -76.97828116666666, "rental_uris": {"android": "https://dc.lft.to/lastmile_qr_scan", "ios": "https://dc.lft.to/lastmile_qr_scan"}, "lat": 38.871943, "is_reserved": 0, "is_disabled": 0, "fusion_lat": 0.0}, {"fusion_lon": 0.0, "bike_id": "1b2881461b6f9529318158be252d6819", "name": "1b2881461b6f9529318158be252d6819", "type": "electric_scooter", "lon": -77.01754983333333, "rental_uris": {"android": "https://dc.lft.to/lastmile_qr_scan", "ios": "https://dc.lft.to/lastmile_qr_scan"}, "lat": 38.885926833333336, "is_reserved": 0, "is_disabled": 0, "fusion_lat": 0.0}, {"fusion_lon": 0.0, "bike_id": "de3574d5f41294a6ee315bbd5b7b7d3d", "name": "de3574d5f41294a6ee315bbd5b7b7d3d", "type": "electric_bike", "lon": -77.0032365, "rental_uris": {"android": "https://dc.lft.to/lastmile_qr_scan", "ios": "https://dc.lft.to/lastmile_qr_scan"}, "lat": 38.91171816666667, "is_reserved": 0, "is_disabled": 0, "fusion_lat": 0.0}, {"fusion_lon": 0.0, "bike_id": "0e874c613efae14320a13b19e7eb4ad8", "name": "0e874c613efae14320a13b19e7eb4ad8", "type": "electric_scooter", "lon": -77.05414133333333, "rental_uris": {"android": "https://dc.lft.to/lastmile_qr_scan", "ios": "https://dc.lft.to/lastmile_qr_scan"}, "lat": 38.9283385, "is_reserved": 0, "is_disabled": 0, "fusion_lat": 0.0}, {"fusion_lon": 0.0, "bike_id": "f86b878bc4f7ae29219cccfb9f8414a3", "name": "f86b878bc4f7ae29219cccfb9f8414a3", "type": "electric_scooter", "lon": -77.00689366666667, "rental_uris": {"android": "https://dc.lft.to/lastmile_qr_scan", "ios": "https://dc.lft.to/lastmile_qr_scan"}, "lat": 38.905296, "is_reserved": 0, "is_disabled": 0, "fusion_lat": 0.0}, {"fusion_lon": 0.0, "bike_id": "7a97fb067c227c644eb36aed50ad93dd", "name": "7a97fb067c227c644eb36aed50ad93dd", "type": "electric_scooter", "lon": -77.04150566666667, "rental_uris": {"android": "https://dc.lft.to/lastmile_qr_scan", "ios": "https://dc.lft.to/lastmile_qr_scan"}, "lat": 38.898936, "is_reserved": 0, "is_disabled": 0, "fusion_lat": 0.0}, {"fusion_lon": 0.0, "bike_id": "b6c95e604bec22bb96a956ad00709f2d", "name": "b6c95e604bec22bb96a956ad00709f2d", "type": "electric_scooter", "lon": -77.052754, "rental_uris": {"android": "https://dc.lft.to/lastmile_qr_scan", "ios": "https://dc.lft.to/lastmile_qr_scan"}, "lat": 38.922567666666666, "is_reserved": 0, "is_disabled": 0, "fusion_lat": 0.0}, {"fusion_lon": 0.0, "bike_id": "9105b03c49dcf966900138bd02fcd917", "name": "9105b03c49dcf966900138bd02fcd917", "type": "electric_scooter", "lon": -77.04114533333333, "rental_uris": {"android": "https://dc.lft.to/lastmile_qr_scan", "ios": "https://dc.lft.to/lastmile_qr_scan"}, "lat": 38.909616166666666, "is_reserved": 0, "is_disabled": 0, "fusion_lat": 0.0}, {"fusion_lon": 0.0, "bike_id": "578a8fcb50cc7cd7316987bb8f92bca7", "name": "578a8fcb50cc7cd7316987bb8f92bca7", "type": "electric_scooter", "lon": -77.0364, "rental_uris": {"android": "https://dc.lft.to/lastmile_qr_scan", "ios": "https://dc.lft.to/lastmile_qr_scan"}, "lat": 38.92413583333333, "is_reserved": 0, "is_disabled": 0, "fusion_lat": 0.0}, {"fusion_lon": 0.0, "bike_id": "1d9d8c539eccaad4534d0e3e5b6c2bf6", "name": "1d9d8c539eccaad4534d0e3e5b6c2bf6", "type": "electric_scooter", "lon": -77.024179, "rental_uris": {"android": "https://dc.lft.to/lastmile_qr_scan", "ios": "https://dc.lft.to/lastmile_qr_scan"}, "lat": 38.95747333333333, "is_reserved": 0, "is_disabled": 0, "fusion_lat": 0.0}, {"fusion_lon": 0.0, "bike_id": "e814617338e82733b67a52203c8c9431", "name": "e814617338e82733b67a52203c8c9431", "type": "electric_scooter", "lon": -76.98727716666667, "rental_uris": {"android": "https://dc.lft.to/lastmile_qr_scan", "ios": "https://dc.lft.to/lastmile_qr_scan"}, "lat": 38.86717, "is_reserved": 0, "is_disabled": 0, "fusion_lat": 0.0}, {"fusion_lon": 0.0, "bike_id": "a275f4c9de3a345c9b143e4c179d120b", "name": "a275f4c9de3a345c9b143e4c179d120b", "type": "electric_scooter", "lon": -77.023045, "rental_uris": {"android": "https://dc.lft.to/lastmile_qr_scan", "ios": "https://dc.lft.to/lastmile_qr_scan"}, "lat": 38.91839683333333, "is_reserved": 0, "is_disabled": 0, "fusion_lat": 0.0}, {"fusion_lon": 0.0, "bike_id": "f88412abd1079add4f38d8335f36e5e3", "name": "f88412abd1079add4f38d8335f36e5e3", "type": "electric_scooter", "lon": -77.0401885, "rental_uris": {"android": "https://dc.lft.to/lastmile_qr_scan", "ios": "https://dc.lft.to/lastmile_qr_scan"}, "lat": 38.91758433333333, "is_reserved": 0, "is_disabled": 0, "fusion_lat": 0.0}, {"fusion_lon": 0.0, "bike_id": "817d9bf4c70cdf42c58b5e356ad3f5e6", "name": "817d9bf4c70cdf42c58b5e356ad3f5e6", "type": "electric_bike", "lon": -77.00605583333333, "rental_uris": {"android": "https://dc.lft.to/lastmile_qr_scan", "ios": "https://dc.lft.to/lastmile_qr_scan"}, "lat": 38.89805466666667, "is_reserved": 0, "is_disabled": 0, "fusion_lat": 0.0}, {"fusion_lon": 0.0, "bike_id": "561e477e963d0c3179e10a0d97cb358f", "name": "561e477e963d0c3179e10a0d97cb358f", "type": "electric_scooter", "lon": -77.03072866666666, "rental_uris": {"android": "https://dc.lft.to/lastmile_qr_scan", "ios": "https://dc.lft.to/lastmile_qr_scan"}, "lat": 38.9224775, "is_reserved": 0, "is_disabled": 0, "fusion_lat": 0.0}, {"fusion_lon": 0.0, "bike_id": "1c6d6203f3f54f0a9075423b34baec83", "name": "1c6d6203f3f54f0a9075423b34baec83", "type": "electric_scooter", "lon": -77.03118066666667, "rental_uris": {"android": "https://dc.lft.to/lastmile_qr_scan", "ios": "https://dc.lft.to/lastmile_qr_scan"}, "lat": 38.92017033333333, "is_reserved": 0, "is_disabled": 0, "fusion_lat": 0.0}, {"fusion_lon": 0.0, "bike_id": "5c973d491a87a9567f4cbd14d2c6ed1e", "name": "5c973d491a87a9567f4cbd14d2c6ed1e", "type": "electric_scooter", "lon": -77.04338083333333, "rental_uris": {"android": "https://dc.lft.to/lastmile_qr_scan", "ios": "https://dc.lft.to/lastmile_qr_scan"}, "lat": 38.900430666666665, "is_reserved": 0, "is_disabled": 0, "fusion_lat": 0.0}, {"fusion_lon": 0.0, "bike_id": "ed81284396bf7a16b6fd28fa29e17721", "name": "ed81284396bf7a16b6fd28fa29e17721", "type": "electric_scooter", "lon": -76.9415685, "rental_uris": {"android": "https://dc.lft.to/lastmile_qr_scan", "ios": "https://dc.lft.to/lastmile_qr_scan"}, "lat": 38.883646, "is_reserved": 0, "is_disabled": 0, "fusion_lat": 0.0}, {"fusion_lon": 0.0, "bike_id": "69f1fce3b9820deb2da4577290b9f50b", "name": "69f1fce3b9820deb2da4577290b9f50b", "type": "electric_bike", "lon": -77.00072416666667, "rental_uris": {"android": "https://dc.lft.to/lastmile_qr_scan", "ios": "https://dc.lft.to/lastmile_qr_scan"}, "lat": 38.87627883333333, "is_reserved": 0, "is_disabled": 0, "fusion_lat": 0.0}, {"fusion_lon": 0.0, "bike_id": "26171b2c1e7381af9e7d47d786f75b27", "name": "26171b2c1e7381af9e7d47d786f75b27", "type": "electric_scooter", "lon": -77.0201305, "rental_uris": {"android": "https://dc.lft.to/lastmile_qr_scan", "ios": "https://dc.lft.to/lastmile_qr_scan"}, "lat": 38.87673433333333, "is_reserved": 0, "is_disabled": 0, "fusion_lat": 0.0}, {"fusion_lon": 0.0, "bike_id": "2baa2c0aa3b89d5aaef1ef5846fc83fd", "name": "2baa2c0aa3b89d5aaef1ef5846fc83fd", "type": "electric_scooter", "lon": -76.990187, "rental_uris": {"android": "https://dc.lft.to/lastmile_qr_scan", "ios": "https://dc.lft.to/lastmile_qr_scan"}, "lat": 38.90035616666667, "is_reserved": 0, "is_disabled": 0, "fusion_lat": 0.0}, {"fusion_lon": 0.0, "bike_id": "00898944f1744adee567e58724033508", "name": "00898944f1744adee567e58724033508", "type": "electric_scooter", "lon": -76.93837016666667, "rental_uris": {"android": "https://dc.lft.to/lastmile_qr_scan", "ios": "https://dc.lft.to/lastmile_qr_scan"}, "lat": 38.890142, "is_reserved": 0, "is_disabled": 0, "fusion_lat": 0.0}, {"fusion_lon": 0.0, "bike_id": "304498cabe3faf99f16e35d3520e1c6f", "name": "304498cabe3faf99f16e35d3520e1c6f", "type": "electric_scooter", "lon": -77.03663316666666, "rental_uris": {"android": "https://dc.lft.to/lastmile_qr_scan", "ios": "https://dc.lft.to/lastmile_qr_scan"}, "lat": 38.917313666666665, "is_reserved": 0, "is_disabled": 0, "fusion_lat": 0.0}, {"fusion_lon": 0.0, "bike_id": "611eda4768c4955d3a20dca497dc1c43", "name": "611eda4768c4955d3a20dca497dc1c43", "type": "electric_scooter", "lon": -77.0275295, "rental_uris": {"android": "https://dc.lft.to/lastmile_qr_scan", "ios": "https://dc.lft.to/lastmile_qr_scan"}, "lat": 38.9541785, "is_reserved": 0, "is_disabled": 0, "fusion_lat": 0.0}, {"fusion_lon": 0.0, "bike_id": "3d7688d9fd3875376b5a6f6468c84852", "name": "3d7688d9fd3875376b5a6f6468c84852", "type": "electric_scooter", "lon": -77.03182983333333, "rental_uris": {"android": "https://dc.lft.to/lastmile_qr_scan", "ios": "https://dc.lft.to/lastmile_qr_scan"}, "lat": 38.892309166666664, "is_reserved": 0, "is_disabled": 0, "fusion_lat": 0.0}, {"fusion_lon": 0.0, "bike_id": "31431cedb91e7746801042a7648dc296", "name": "31431cedb91e7746801042a7648dc296", "type": "electric_scooter", "lon": -77.05926083333334, "rental_uris": {"android": "https://dc.lft.to/lastmile_qr_scan", "ios": "https://dc.lft.to/lastmile_qr_scan"}, "lat": 38.93653833333333, "is_reserved": 0, "is_disabled": 0, "fusion_lat": 0.0}, {"fusion_lon": 0.0, "bike_id": "b80d2bf9abfae77660cf80e95ca677fc", "name": "b80d2bf9abfae77660cf80e95ca677fc", "type": "electric_scooter", "lon": -77.03641266666666, "rental_uris": {"android": "https://dc.lft.to/lastmile_qr_scan", "ios": "https://dc.lft.to/lastmile_qr_scan"}, "lat": 38.918095, "is_reserved": 0, "is_disabled": 0, "fusion_lat": 0.0}, {"fusion_lon": 0.0, "bike_id": "ed1ee9d8dc8d2966b3fb01423a7d14ad", "name": "ed1ee9d8dc8d2966b3fb01423a7d14ad", "type": "electric_scooter", "lon": -77.03956283333333, "rental_uris": {"android": "https://dc.lft.to/lastmile_qr_scan", "ios": "https://dc.lft.to/lastmile_qr_scan"}, "lat": 38.901963, "is_reserved": 0, "is_disabled": 0, "fusion_lat": 0.0}, {"fusion_lon": 0.0, "bike_id": "7cc6c02a398591230c921ff9946e9f98", "name": "7cc6c02a398591230c921ff9946e9f98", "type": "electric_scooter", "lon": -77.032244, "rental_uris": {"android": "https://dc.lft.to/lastmile_qr_scan", "ios": "https://dc.lft.to/lastmile_qr_scan"}, "lat": 38.925502, "is_reserved": 0, "is_disabled": 0, "fusion_lat": 0.0}, {"fusion_lon": 0.0, "bike_id": "e9e3c5362252193bc2703f0dd48eff47", "name": "e9e3c5362252193bc2703f0dd48eff47", "type": "electric_scooter", "lon": -77.0385705, "rental_uris": {"android": "https://dc.lft.to/lastmile_qr_scan", "ios": "https://dc.lft.to/lastmile_qr_scan"}, "lat": 38.917505, "is_reserved": 0, "is_disabled": 0, "fusion_lat": 0.0}, {"fusion_lon": 0.0, "bike_id": "a421e9e94c0837c9d95a0286c9a06314", "name": "a421e9e94c0837c9d95a0286c9a06314", "type": "electric_scooter", "lon": -77.032112, "rental_uris": {"android": "https://dc.lft.to/lastmile_qr_scan", "ios": "https://dc.lft.to/lastmile_qr_scan"}, "lat": 38.9160005, "is_reserved": 0, "is_disabled": 0, "fusion_lat": 0.0}, {"fusion_lon": 0.0, "bike_id": "9fbfa00fa0ba36e4f0494b9da27dbb79", "name": "9fbfa00fa0ba36e4f0494b9da27dbb79", "type": "electric_scooter", "lon": -77.0320515, "rental_uris": {"android": "https://dc.lft.to/lastmile_qr_scan", "ios": "https://dc.lft.to/lastmile_qr_scan"}, "lat": 38.91231533333333, "is_reserved": 0, "is_disabled": 0, "fusion_lat": 0.0}, {"fusion_lon": 0.0, "bike_id": "4b0bfd478a4fa9548857578a7aaed1f2", "name": "4b0bfd478a4fa9548857578a7aaed1f2", "type": "electric_scooter", "lon": -77.02794416666667, "rental_uris": {"android": "https://dc.lft.to/lastmile_qr_scan", "ios": "https://dc.lft.to/lastmile_qr_scan"}, "lat": 38.912508333333335, "is_reserved": 0, "is_disabled": 0, "fusion_lat": 0.0}, {"fusion_lon": 0.0, "bike_id": "f2ff7c5a797fb82645c478190374028e", "name": "f2ff7c5a797fb82645c478190374028e", "type": "electric_bike", "lon": -77.12505966666667, "rental_uris": {"android": "https://dc.lft.to/lastmile_qr_scan", "ios": "https://dc.lft.to/lastmile_qr_scan"}, "lat": 39.024278333333335, "is_reserved": 0, "is_disabled": 0, "fusion_lat": 0.0}, {"fusion_lon": 0.0, "bike_id": "dc09077a1718db12a9a91abcf025cadb", "name": "dc09077a1718db12a9a91abcf025cadb", "type": "electric_scooter", "lon": -77.02822833333333, "rental_uris": {"android": "https://dc.lft.to/lastmile_qr_scan", "ios": "https://dc.lft.to/lastmile_qr_scan"}, "lat": 38.9483155, "is_reserved": 0, "is_disabled": 0, "fusion_lat": 0.0}, {"fusion_lon": 0.0, "bike_id": "7c1c8306468acbfee13ae3daf0ced7cb", "name": "7c1c8306468acbfee13ae3daf0ced7cb", "type": "electric_scooter", "lon": -77.05149233333333, "rental_uris": {"android": "https://dc.lft.to/lastmile_qr_scan", "ios": "https://dc.lft.to/lastmile_qr_scan"}, "lat": 38.9062825, "is_reserved": 0, "is_disabled": 0, "fusion_lat": 0.0}, {"fusion_lon": 0.0, "bike_id": "68eab20f789600ce1d6d38f9c687c87b", "name": "68eab20f789600ce1d6d38f9c687c87b", "type": "electric_scooter", "lon": -77.05516966666667, "rental_uris": {"android": "https://dc.lft.to/lastmile_qr_scan", "ios": "https://dc.lft.to/lastmile_qr_scan"}, "lat": 38.91060933333333, "is_reserved": 0, "is_disabled": 0, "fusion_lat": 0.0}, {"fusion_lon": 0.0, "bike_id": "444a862158ee7a7ef221f8c4acce7a73", "name": "444a862158ee7a7ef221f8c4acce7a73", "type": "electric_scooter", "lon": -76.98256166666667, "rental_uris": {"android": "https://dc.lft.to/lastmile_qr_scan", "ios": "https://dc.lft.to/lastmile_qr_scan"}, "lat": 38.863555833333336, "is_reserved": 0, "is_disabled": 0, "fusion_lat": 0.0}, {"fusion_lon": 0.0, "bike_id": "081e9378cbc766839d8df53552e547e1", "name": "081e9378cbc766839d8df53552e547e1", "type": "electric_scooter", "lon": -77.02387633333333, "rental_uris": {"android": "https://dc.lft.to/lastmile_qr_scan", "ios": "https://dc.lft.to/lastmile_qr_scan"}, "lat": 38.920804, "is_reserved": 0, "is_disabled": 0, "fusion_lat": 0.0}, {"fusion_lon": 0.0, "bike_id": "0802d7e772fb49a15e5fa85347dc2021", "name": "0802d7e772fb49a15e5fa85347dc2021", "type": "electric_scooter", "lon": -77.03855716666666, "rental_uris": {"android": "https://dc.lft.to/lastmile_qr_scan", "ios": "https://dc.lft.to/lastmile_qr_scan"}, "lat": 38.918384, "is_reserved": 0, "is_disabled": 0, "fusion_lat": 0.0}, {"fusion_lon": 0.0, "bike_id": "5e5e8d2be954f4fc711f8ea2d9f8c98f", "name": "5e5e8d2be954f4fc711f8ea2d9f8c98f", "type": "electric_scooter", "lon": -77.01912933333334, "rental_uris": {"android": "https://dc.lft.to/lastmile_qr_scan", "ios": "https://dc.lft.to/lastmile_qr_scan"}, "lat": 38.89753183333333, "is_reserved": 0, "is_disabled": 0, "fusion_lat": 0.0}, {"fusion_lon": 0.0, "bike_id": "327cce5429041234cd2a6b3b80bbf3ca", "name": "327cce5429041234cd2a6b3b80bbf3ca", "type": "electric_scooter", "lon": -77.10031116666667, "rental_uris": {"android": "https://dc.lft.to/lastmile_qr_scan", "ios": "https://dc.lft.to/lastmile_qr_scan"}, "lat": 38.94928983333333, "is_reserved": 0, "is_disabled": 0, "fusion_lat": 0.0}, {"fusion_lon": 0.0, "bike_id": "10b681ab414d20b33bf66eb1e685bf6f", "name": "10b681ab414d20b33bf66eb1e685bf6f", "type": "electric_scooter", "lon": -77.03210233333333, "rental_uris": {"android": "https://dc.lft.to/lastmile_qr_scan", "ios": "https://dc.lft.to/lastmile_qr_scan"}, "lat": 38.925862333333335, "is_reserved": 0, "is_disabled": 0, "fusion_lat": 0.0}, {"fusion_lon": 0.0, "bike_id": "bf4f61a544ef7c9dc7c888b4c2f24b35", "name": "bf4f61a544ef7c9dc7c888b4c2f24b35", "type": "electric_scooter", "lon": -77.06346816666667, "rental_uris": {"android": "https://dc.lft.to/lastmile_qr_scan", "ios": "https://dc.lft.to/lastmile_qr_scan"}, "lat": 38.94440766666666, "is_reserved": 0, "is_disabled": 0, "fusion_lat": 0.0}, {"fusion_lon": 0.0, "bike_id": "9057ebe2a1f0c404b6381dde452dc032", "name": "9057ebe2a1f0c404b6381dde452dc032", "type": "electric_bike", "lon": -77.11428766666667, "rental_uris": {"android": "https://dc.lft.to/lastmile_qr_scan", "ios": "https://dc.lft.to/lastmile_qr_scan"}, "lat": 38.852451333333335, "is_reserved": 0, "is_disabled": 0, "fusion_lat": 0.0}, {"fusion_lon": 0.0, "bike_id": "245b98ba866391b4598a3c34a6089783", "name": "245b98ba866391b4598a3c34a6089783", "type": "electric_scooter", "lon": -77.02175383333334, "rental_uris": {"android": "https://dc.lft.to/lastmile_qr_scan", "ios": "https://dc.lft.to/lastmile_qr_scan"}, "lat": 38.91979466666667, "is_reserved": 0, "is_disabled": 0, "fusion_lat": 0.0}, {"fusion_lon": 0.0, "bike_id": "3ec222008f229d9c615b992a035a03b9", "name": "3ec222008f229d9c615b992a035a03b9", "type": "electric_scooter", "lon": -77.01887483333333, "rental_uris": {"android": "https://dc.lft.to/lastmile_qr_scan", "ios": "https://dc.lft.to/lastmile_qr_scan"}, "lat": 38.94636083333333, "is_reserved": 0, "is_disabled": 0, "fusion_lat": 0.0}, {"fusion_lon": 0.0, "bike_id": "100ca17d641b615db136f8e90c930601", "name": "100ca17d641b615db136f8e90c930601", "type": "electric_scooter", "lon": -77.0074705, "rental_uris": {"android": "https://dc.lft.to/lastmile_qr_scan", "ios": "https://dc.lft.to/lastmile_qr_scan"}, "lat": 38.876958333333334, "is_reserved": 0, "is_disabled": 0, "fusion_lat": 0.0}, {"fusion_lon": 0.0, "bike_id": "bc93e6e3e6e721197f2bfc8072f6704b", "name": "bc93e6e3e6e721197f2bfc8072f6704b", "type": "electric_scooter", "lon": -76.98952283333334, "rental_uris": {"android": "https://dc.lft.to/lastmile_qr_scan", "ios": "https://dc.lft.to/lastmile_qr_scan"}, "lat": 38.8440435, "is_reserved": 0, "is_disabled": 0, "fusion_lat": 0.0}, {"fusion_lon": 0.0, "bike_id": "f85af9362eac7e1398330468f21fe463", "name": "f85af9362eac7e1398330468f21fe463", "type": "electric_scooter", "lon": -77.009198, "rental_uris": {"android": "https://dc.lft.to/lastmile_qr_scan", "ios": "https://dc.lft.to/lastmile_qr_scan"}, "lat": 38.8984715, "is_reserved": 0, "is_disabled": 0, "fusion_lat": 0.0}, {"fusion_lon": 0.0, "bike_id": "2f9bab32537a6b5cd40ec25926d57dc0", "name": "2f9bab32537a6b5cd40ec25926d57dc0", "type": "electric_scooter", "lon": -77.037895, "rental_uris": {"android": "https://dc.lft.to/lastmile_qr_scan", "ios": "https://dc.lft.to/lastmile_qr_scan"}, "lat": 38.915451, "is_reserved": 0, "is_disabled": 0, "fusion_lat": 0.0}, {"fusion_lon": 0.0, "bike_id": "21871a842fd6cacb1aac3da9e7864836", "name": "21871a842fd6cacb1aac3da9e7864836", "type": "electric_scooter", "lon": -77.0319525, "rental_uris": {"android": "https://dc.lft.to/lastmile_qr_scan", "ios": "https://dc.lft.to/lastmile_qr_scan"}, "lat": 38.893226, "is_reserved": 0, "is_disabled": 0, "fusion_lat": 0.0}, {"fusion_lon": 0.0, "bike_id": "f647ad27d19321f101b674af947fb13e", "name": "f647ad27d19321f101b674af947fb13e", "type": "electric_scooter", "lon": -77.02220416666667, "rental_uris": {"android": "https://dc.lft.to/lastmile_qr_scan", "ios": "https://dc.lft.to/lastmile_qr_scan"}, "lat": 38.93551166666666, "is_reserved": 0, "is_disabled": 0, "fusion_lat": 0.0}, {"fusion_lon": 0.0, "bike_id": "881e046c4b099505d532c3df568e4e88", "name": "881e046c4b099505d532c3df568e4e88", "type": "electric_scooter", "lon": -77.04691133333333, "rental_uris": {"android": "https://dc.lft.to/lastmile_qr_scan", "ios": "https://dc.lft.to/lastmile_qr_scan"}, "lat": 38.915995833333334, "is_reserved": 0, "is_disabled": 0, "fusion_lat": 0.0}, {"fusion_lon": 0.0, "bike_id": "4fae0184946051a2a0d9e5759bc2576b", "name": "4fae0184946051a2a0d9e5759bc2576b", "type": "electric_scooter", "lon": -77.028029, "rental_uris": {"android": "https://dc.lft.to/lastmile_qr_scan", "ios": "https://dc.lft.to/lastmile_qr_scan"}, "lat": 38.912146166666666, "is_reserved": 0, "is_disabled": 0, "fusion_lat": 0.0}, {"fusion_lon": 0.0, "bike_id": "9a02dd09cb7869217e105583ca0e644d", "name": "9a02dd09cb7869217e105583ca0e644d", "type": "electric_scooter", "lon": -77.04780583333333, "rental_uris": {"android": "https://dc.lft.to/lastmile_qr_scan", "ios": "https://dc.lft.to/lastmile_qr_scan"}, "lat": 38.897830166666665, "is_reserved": 0, "is_disabled": 0, "fusion_lat": 0.0}, {"fusion_lon": 0.0, "bike_id": "68f7a3097e805a874b177bb68f02aa88", "name": "68f7a3097e805a874b177bb68f02aa88", "type": "electric_scooter", "lon": -77.03635366666667, "rental_uris": {"android": "https://dc.lft.to/lastmile_qr_scan", "ios": "https://dc.lft.to/lastmile_qr_scan"}, "lat": 38.93661, "is_reserved": 0, "is_disabled": 0, "fusion_lat": 0.0}, {"fusion_lon": 0.0, "bike_id": "24876d7668d742494c67a277166716f6", "name": "24876d7668d742494c67a277166716f6", "type": "electric_scooter", "lon": -77.05106216666667, "rental_uris": {"android": "https://dc.lft.to/lastmile_qr_scan", "ios": "https://dc.lft.to/lastmile_qr_scan"}, "lat": 38.923706, "is_reserved": 0, "is_disabled": 0, "fusion_lat": 0.0}, {"fusion_lon": 0.0, "bike_id": "123a06136b38c7c4fbac63626e2ca2df", "name": "123a06136b38c7c4fbac63626e2ca2df", "type": "electric_scooter", "lon": -77.05036516666667, "rental_uris": {"android": "https://dc.lft.to/lastmile_qr_scan", "ios": "https://dc.lft.to/lastmile_qr_scan"}, "lat": 38.923612, "is_reserved": 0, "is_disabled": 0, "fusion_lat": 0.0}, {"fusion_lon": 0.0, "bike_id": "49867649f614b3e52bab8241626809d5", "name": "49867649f614b3e52bab8241626809d5", "type": "electric_scooter", "lon": -77.00581466666667, "rental_uris": {"android": "https://dc.lft.to/lastmile_qr_scan", "ios": "https://dc.lft.to/lastmile_qr_scan"}, "lat": 38.8717285, "is_reserved": 0, "is_disabled": 0, "fusion_lat": 0.0}, {"fusion_lon": 0.0, "bike_id": "9a9575c2d199f4f5644f3bde5f38a9e7", "name": "9a9575c2d199f4f5644f3bde5f38a9e7", "type": "electric_scooter", "lon": -77.0325575, "rental_uris": {"android": "https://dc.lft.to/lastmile_qr_scan", "ios": "https://dc.lft.to/lastmile_qr_scan"}, "lat": 38.91483783333334, "is_reserved": 0, "is_disabled": 0, "fusion_lat": 0.0}, {"fusion_lon": 0.0, "bike_id": "37386ee90786b3da066c136b2639eb91", "name": "37386ee90786b3da066c136b2639eb91", "type": "electric_bike", "lon": -76.90759, "rental_uris": {"android": "https://dc.lft.to/lastmile_qr_scan", "ios": "https://dc.lft.to/lastmile_qr_scan"}, "lat": 38.9243685, "is_reserved": 0, "is_disabled": 0, "fusion_lat": 0.0}, {"fusion_lon": 0.0, "bike_id": "2f81bf084738b82b0a9fc07e46faeda3", "name": "2f81bf084738b82b0a9fc07e46faeda3", "type": "electric_scooter", "lon": -77.036604, "rental_uris": {"android": "https://dc.lft.to/lastmile_qr_scan", "ios": "https://dc.lft.to/lastmile_qr_scan"}, "lat": 38.911339166666664, "is_reserved": 0, "is_disabled": 0, "fusion_lat": 0.0}, {"fusion_lon": 0.0, "bike_id": "08673b8d39b50c6ff4feb3aad6828913", "name": "08673b8d39b50c6ff4feb3aad6828913", "type": "electric_scooter", "lon": -77.00445233333333, "rental_uris": {"android": "https://dc.lft.to/lastmile_qr_scan", "ios": "https://dc.lft.to/lastmile_qr_scan"}, "lat": 38.928975333333334, "is_reserved": 0, "is_disabled": 0, "fusion_lat": 0.0}, {"fusion_lon": 0.0, "bike_id": "a17ba0d538cfb2f43645366ab19a2191", "name": "a17ba0d538cfb2f43645366ab19a2191", "type": "electric_bike", "lon": -77.12815816666667, "rental_uris": {"android": "https://dc.lft.to/lastmile_qr_scan", "ios": "https://dc.lft.to/lastmile_qr_scan"}, "lat": 38.86528933333334, "is_reserved": 0, "is_disabled": 0, "fusion_lat": 0.0}, {"fusion_lon": 0.0, "bike_id": "67df9550af23f2bd85d87d3884bbf2a2", "name": "67df9550af23f2bd85d87d3884bbf2a2", "type": "electric_scooter", "lon": -77.040097, "rental_uris": {"android": "https://dc.lft.to/lastmile_qr_scan", "ios": "https://dc.lft.to/lastmile_qr_scan"}, "lat": 38.9034775, "is_reserved": 0, "is_disabled": 0, "fusion_lat": 0.0}, {"fusion_lon": 0.0, "bike_id": "4aa478cf231ee548fcb64ad6d12b0138", "name": "4aa478cf231ee548fcb64ad6d12b0138", "type": "electric_bike", "lon": -77.0704845, "rental_uris": {"android": "https://dc.lft.to/lastmile_qr_scan", "ios": "https://dc.lft.to/lastmile_qr_scan"}, "lat": 38.824434, "is_reserved": 0, "is_disabled": 0, "fusion_lat": 0.0}, {"fusion_lon": 0.0, "bike_id": "0ed52c76b8f8c0c7e37e3cde4076050b", "name": "0ed52c76b8f8c0c7e37e3cde4076050b", "type": "electric_scooter", "lon": -77.04041183333334, "rental_uris": {"android": "https://dc.lft.to/lastmile_qr_scan", "ios": "https://dc.lft.to/lastmile_qr_scan"}, "lat": 38.90354516666667, "is_reserved": 0, "is_disabled": 0, "fusion_lat": 0.0}, {"fusion_lon": 0.0, "bike_id": "e2bf21239b6ed63776e5b613674c63f5", "name": "e2bf21239b6ed63776e5b613674c63f5", "type": "electric_scooter", "lon": -77.02491916666666, "rental_uris": {"android": "https://dc.lft.to/lastmile_qr_scan", "ios": "https://dc.lft.to/lastmile_qr_scan"}, "lat": 38.91703783333333, "is_reserved": 0, "is_disabled": 0, "fusion_lat": 0.0}, {"fusion_lon": 0.0, "bike_id": "d77b686cf021d2b6836dc976022445eb", "name": "d77b686cf021d2b6836dc976022445eb", "type": "electric_scooter", "lon": -76.9870955, "rental_uris": {"android": "https://dc.lft.to/lastmile_qr_scan", "ios": "https://dc.lft.to/lastmile_qr_scan"}, "lat": 38.86541316666667, "is_reserved": 0, "is_disabled": 0, "fusion_lat": 0.0}, {"fusion_lon": 0.0, "bike_id": "55db8dc8709565bf054522e034f9388a", "name": "55db8dc8709565bf054522e034f9388a", "type": "electric_scooter", "lon": -76.97874516666667, "rental_uris": {"android": "https://dc.lft.to/lastmile_qr_scan", "ios": "https://dc.lft.to/lastmile_qr_scan"}, "lat": 38.89919716666667, "is_reserved": 0, "is_disabled": 0, "fusion_lat": 0.0}, {"fusion_lon": 0.0, "bike_id": "4d932d0af2e00df4bfb190ec2d6396b1", "name": "4d932d0af2e00df4bfb190ec2d6396b1", "type": "electric_scooter", "lon": -77.052765, "rental_uris": {"android": "https://dc.lft.to/lastmile_qr_scan", "ios": "https://dc.lft.to/lastmile_qr_scan"}, "lat": 38.92560183333333, "is_reserved": 0, "is_disabled": 0, "fusion_lat": 0.0}, {"fusion_lon": 0.0, "bike_id": "8adf9a9cbdb03ed6782817582650a29b", "name": "8adf9a9cbdb03ed6782817582650a29b", "type": "electric_scooter", "lon": -77.02240416666666, "rental_uris": {"android": "https://dc.lft.to/lastmile_qr_scan", "ios": "https://dc.lft.to/lastmile_qr_scan"}, "lat": 38.87870433333333, "is_reserved": 0, "is_disabled": 0, "fusion_lat": 0.0}, {"fusion_lon": 0.0, "bike_id": "9646ac728d01b5c441c4173bc36c200c", "name": "9646ac728d01b5c441c4173bc36c200c", "type": "electric_scooter", "lon": -77.03630183333334, "rental_uris": {"android": "https://dc.lft.to/lastmile_qr_scan", "ios": "https://dc.lft.to/lastmile_qr_scan"}, "lat": 38.93051483333333, "is_reserved": 0, "is_disabled": 0, "fusion_lat": 0.0}, {"fusion_lon": 0.0, "bike_id": "929d60c0b20b032996467d579c9e39a7", "name": "929d60c0b20b032996467d579c9e39a7", "type": "electric_scooter", "lon": -76.97807533333334, "rental_uris": {"android": "https://dc.lft.to/lastmile_qr_scan", "ios": "https://dc.lft.to/lastmile_qr_scan"}, "lat": 38.903106666666666, "is_reserved": 0, "is_disabled": 0, "fusion_lat": 0.0}, {"fusion_lon": 0.0, "bike_id": "16597e91868c5d9d604f581e873b00e9", "name": "16597e91868c5d9d604f581e873b00e9", "type": "electric_scooter", "lon": -76.996311, "rental_uris": {"android": "https://dc.lft.to/lastmile_qr_scan", "ios": "https://dc.lft.to/lastmile_qr_scan"}, "lat": 38.8462075, "is_reserved": 0, "is_disabled": 0, "fusion_lat": 0.0}, {"fusion_lon": 0.0, "bike_id": "85667b9211c0ecdb0d28c04ac9e9e372", "name": "85667b9211c0ecdb0d28c04ac9e9e372", "type": "electric_scooter", "lon": -77.017583, "rental_uris": {"android": "https://dc.lft.to/lastmile_qr_scan", "ios": "https://dc.lft.to/lastmile_qr_scan"}, "lat": 38.921175, "is_reserved": 0, "is_disabled": 0, "fusion_lat": 0.0}, {"fusion_lon": 0.0, "bike_id": "fbcfc535b2937da7a3e120ee905ce958", "name": "fbcfc535b2937da7a3e120ee905ce958", "type": "electric_scooter", "lon": -77.06128133333333, "rental_uris": {"android": "https://dc.lft.to/lastmile_qr_scan", "ios": "https://dc.lft.to/lastmile_qr_scan"}, "lat": 38.90539166666667, "is_reserved": 0, "is_disabled": 0, "fusion_lat": 0.0}, {"fusion_lon": 0.0, "bike_id": "2bd2c5c22790e819560144bb10a83f95", "name": "2bd2c5c22790e819560144bb10a83f95", "type": "electric_scooter", "lon": -77.01196833333333, "rental_uris": {"android": "https://dc.lft.to/lastmile_qr_scan", "ios": "https://dc.lft.to/lastmile_qr_scan"}, "lat": 38.895335833333334, "is_reserved": 0, "is_disabled": 0, "fusion_lat": 0.0}, {"fusion_lon": 0.0, "bike_id": "382d19dfcb0e94efc958ed097ff01d8c", "name": "382d19dfcb0e94efc958ed097ff01d8c", "type": "electric_scooter", "lon": -77.031563, "rental_uris": {"android": "https://dc.lft.to/lastmile_qr_scan", "ios": "https://dc.lft.to/lastmile_qr_scan"}, "lat": 38.928095, "is_reserved": 0, "is_disabled": 0, "fusion_lat": 0.0}, {"fusion_lon": 0.0, "bike_id": "377c5fb211a213e417250b7382fb7dc7", "name": "377c5fb211a213e417250b7382fb7dc7", "type": "electric_scooter", "lon": -77.0321535, "rental_uris": {"android": "https://dc.lft.to/lastmile_qr_scan", "ios": "https://dc.lft.to/lastmile_qr_scan"}, "lat": 38.90883616666667, "is_reserved": 0, "is_disabled": 0, "fusion_lat": 0.0}, {"fusion_lon": 0.0, "bike_id": "28abd36cf47d841335cab96c1e2545a2", "name": "28abd36cf47d841335cab96c1e2545a2", "type": "electric_bike", "lon": -76.9874825, "rental_uris": {"android": "https://dc.lft.to/lastmile_qr_scan", "ios": "https://dc.lft.to/lastmile_qr_scan"}, "lat": 38.9882935, "is_reserved": 0, "is_disabled": 0, "fusion_lat": 0.0}, {"fusion_lon": 0.0, "bike_id": "b501fa381b48053b5362879dd33a57fc", "name": "b501fa381b48053b5362879dd33a57fc", "type": "electric_scooter", "lon": -77.029636, "rental_uris": {"android": "https://dc.lft.to/lastmile_qr_scan", "ios": "https://dc.lft.to/lastmile_qr_scan"}, "lat": 38.90273, "is_reserved": 0, "is_disabled": 0, "fusion_lat": 0.0}, {"fusion_lon": 0.0, "bike_id": "88895a0a92392b6948ab6f516309176a", "name": "88895a0a92392b6948ab6f516309176a", "type": "electric_scooter", "lon": -76.93356183333333, "rental_uris": {"android": "https://dc.lft.to/lastmile_qr_scan", "ios": "https://dc.lft.to/lastmile_qr_scan"}, "lat": 38.88795433333333, "is_reserved": 0, "is_disabled": 0, "fusion_lat": 0.0}, {"fusion_lon": 0.0, "bike_id": "731b291a021bcb7e74d665ae00aa7ff4", "name": "731b291a021bcb7e74d665ae00aa7ff4", "type": "electric_scooter", "lon": -77.0500735, "rental_uris": {"android": "https://dc.lft.to/lastmile_qr_scan", "ios": "https://dc.lft.to/lastmile_qr_scan"}, "lat": 38.905348833333335, "is_reserved": 0, "is_disabled": 0, "fusion_lat": 0.0}, {"fusion_lon": 0.0, "bike_id": "3b3911ad2d6112de01f7ad7754d139e0", "name": "3b3911ad2d6112de01f7ad7754d139e0", "type": "electric_scooter", "lon": -77.05063466666667, "rental_uris": {"android": "https://dc.lft.to/lastmile_qr_scan", "ios": "https://dc.lft.to/lastmile_qr_scan"}, "lat": 38.90069783333333, "is_reserved": 0, "is_disabled": 0, "fusion_lat": 0.0}, {"fusion_lon": 0.0, "bike_id": "c19a772902eed73c7bb341328a2db119", "name": "c19a772902eed73c7bb341328a2db119", "type": "electric_scooter", "lon": -77.02652933333333, "rental_uris": {"android": "https://dc.lft.to/lastmile_qr_scan", "ios": "https://dc.lft.to/lastmile_qr_scan"}, "lat": 38.89224816666667, "is_reserved": 0, "is_disabled": 0, "fusion_lat": 0.0}, {"fusion_lon": 0.0, "bike_id": "4bd4afd73fb9b9faae58ce0fc801e0dd", "name": "4bd4afd73fb9b9faae58ce0fc801e0dd", "type": "electric_bike", "lon": -76.92887316666666, "rental_uris": {"android": "https://dc.lft.to/lastmile_qr_scan", "ios": "https://dc.lft.to/lastmile_qr_scan"}, "lat": 38.97844833333333, "is_reserved": 0, "is_disabled": 0, "fusion_lat": 0.0}, {"fusion_lon": 0.0, "bike_id": "dcf198a879888d57ed74b6bc28b40af5", "name": "dcf198a879888d57ed74b6bc28b40af5", "type": "electric_scooter", "lon": -77.01759833333334, "rental_uris": {"android": "https://dc.lft.to/lastmile_qr_scan", "ios": "https://dc.lft.to/lastmile_qr_scan"}, "lat": 38.87686883333333, "is_reserved": 0, "is_disabled": 0, "fusion_lat": 0.0}, {"fusion_lon": 0.0, "bike_id": "b48179abc0aaf4be9bf3305605caa496", "name": "b48179abc0aaf4be9bf3305605caa496", "type": "electric_scooter", "lon": -77.03467966666666, "rental_uris": {"android": "https://dc.lft.to/lastmile_qr_scan", "ios": "https://dc.lft.to/lastmile_qr_scan"}, "lat": 38.917201166666665, "is_reserved": 0, "is_disabled": 0, "fusion_lat": 0.0}, {"fusion_lon": 0.0, "bike_id": "864a773361e85535744738c8744d10d5", "name": "864a773361e85535744738c8744d10d5", "type": "electric_scooter", "lon": -77.05274283333334, "rental_uris": {"android": "https://dc.lft.to/lastmile_qr_scan", "ios": "https://dc.lft.to/lastmile_qr_scan"}, "lat": 38.90354833333333, "is_reserved": 0, "is_disabled": 0, "fusion_lat": 0.0}, {"fusion_lon": 0.0, "bike_id": "bdfa8502cd3e094d3a97fd44d60feaca", "name": "bdfa8502cd3e094d3a97fd44d60feaca", "type": "electric_bike", "lon": -77.06382466666666, "rental_uris": {"android": "https://dc.lft.to/lastmile_qr_scan", "ios": "https://dc.lft.to/lastmile_qr_scan"}, "lat": 39.0173755, "is_reserved": 0, "is_disabled": 0, "fusion_lat": 0.0}, {"fusion_lon": 0.0, "bike_id": "012335fc7bd34a2f722322f409edc625", "name": "012335fc7bd34a2f722322f409edc625", "type": "electric_scooter", "lon": -76.98879683333334, "rental_uris": {"android": "https://dc.lft.to/lastmile_qr_scan", "ios": "https://dc.lft.to/lastmile_qr_scan"}, "lat": 38.86671116666667, "is_reserved": 0, "is_disabled": 0, "fusion_lat": 0.0}, {"fusion_lon": 0.0, "bike_id": "2546d3ebf5a5244351e7277c2585bfcd", "name": "2546d3ebf5a5244351e7277c2585bfcd", "type": "electric_bike", "lon": -76.96087166666666, "rental_uris": {"android": "https://dc.lft.to/lastmile_qr_scan", "ios": "https://dc.lft.to/lastmile_qr_scan"}, "lat": 38.9185695, "is_reserved": 0, "is_disabled": 0, "fusion_lat": 0.0}, {"fusion_lon": 0.0, "bike_id": "4d47364e17aee0f15ee1ec8c57e13719", "name": "4d47364e17aee0f15ee1ec8c57e13719", "type": "electric_scooter", "lon": -77.02781383333334, "rental_uris": {"android": "https://dc.lft.to/lastmile_qr_scan", "ios": "https://dc.lft.to/lastmile_qr_scan"}, "lat": 38.89219533333333, "is_reserved": 0, "is_disabled": 0, "fusion_lat": 0.0}, {"fusion_lon": 0.0, "bike_id": "9e403a16772c1e01e526da5dc2f88033", "name": "9e403a16772c1e01e526da5dc2f88033", "type": "electric_bike", "lon": -77.00203583333334, "rental_uris": {"android": "https://dc.lft.to/lastmile_qr_scan", "ios": "https://dc.lft.to/lastmile_qr_scan"}, "lat": 38.8193655, "is_reserved": 0, "is_disabled": 0, "fusion_lat": 0.0}, {"fusion_lon": 0.0, "bike_id": "99246a4a6ca3779ea6d9d2b9520d36b9", "name": "99246a4a6ca3779ea6d9d2b9520d36b9", "type": "electric_scooter", "lon": -77.03269066666667, "rental_uris": {"android": "https://dc.lft.to/lastmile_qr_scan", "ios": "https://dc.lft.to/lastmile_qr_scan"}, "lat": 38.9333085, "is_reserved": 0, "is_disabled": 0, "fusion_lat": 0.0}, {"fusion_lon": 0.0, "bike_id": "d986f2fed10f4e2968db7ad5ec9f8cac", "name": "d986f2fed10f4e2968db7ad5ec9f8cac", "type": "electric_scooter", "lon": -77.0240245, "rental_uris": {"android": "https://dc.lft.to/lastmile_qr_scan", "ios": "https://dc.lft.to/lastmile_qr_scan"}, "lat": 38.931042166666664, "is_reserved": 0, "is_disabled": 0, "fusion_lat": 0.0}, {"fusion_lon": 0.0, "bike_id": "874b8465ad4f0d2112bc20ba3e44955d", "name": "874b8465ad4f0d2112bc20ba3e44955d", "type": "electric_scooter", "lon": -77.05214233333334, "rental_uris": {"android": "https://dc.lft.to/lastmile_qr_scan", "ios": "https://dc.lft.to/lastmile_qr_scan"}, "lat": 38.89815816666667, "is_reserved": 0, "is_disabled": 0, "fusion_lat": 0.0}, {"fusion_lon": 0.0, "bike_id": "22c307ef1c44ee9607a6a4f99ac00cf0", "name": "22c307ef1c44ee9607a6a4f99ac00cf0", "type": "electric_scooter", "lon": -77.01039866666666, "rental_uris": {"android": "https://dc.lft.to/lastmile_qr_scan", "ios": "https://dc.lft.to/lastmile_qr_scan"}, "lat": 38.866688333333336, "is_reserved": 0, "is_disabled": 0, "fusion_lat": 0.0}, {"fusion_lon": 0.0, "bike_id": "86471d238898fa848d86a5b9d3fd0189", "name": "86471d238898fa848d86a5b9d3fd0189", "type": "electric_scooter", "lon": -77.0079275, "rental_uris": {"android": "https://dc.lft.to/lastmile_qr_scan", "ios": "https://dc.lft.to/lastmile_qr_scan"}, "lat": 38.878345833333334, "is_reserved": 0, "is_disabled": 0, "fusion_lat": 0.0}, {"fusion_lon": 0.0, "bike_id": "91e82fc2f96f5619526fe5a9ca95d518", "name": "91e82fc2f96f5619526fe5a9ca95d518", "type": "electric_scooter", "lon": -77.06346216666667, "rental_uris": {"android": "https://dc.lft.to/lastmile_qr_scan", "ios": "https://dc.lft.to/lastmile_qr_scan"}, "lat": 38.913393, "is_reserved": 0, "is_disabled": 0, "fusion_lat": 0.0}, {"fusion_lon": 0.0, "bike_id": "531649ccbf37faf8cb1191ddcfd76899", "name": "531649ccbf37faf8cb1191ddcfd76899", "type": "electric_scooter", "lon": -77.02971083333334, "rental_uris": {"android": "https://dc.lft.to/lastmile_qr_scan", "ios": "https://dc.lft.to/lastmile_qr_scan"}, "lat": 38.9078025, "is_reserved": 0, "is_disabled": 0, "fusion_lat": 0.0}, {"fusion_lon": 0.0, "bike_id": "688befb7151a0ab4dfdb59dab525eeed", "name": "688befb7151a0ab4dfdb59dab525eeed", "type": "electric_bike", "lon": -77.35309183333334, "rental_uris": {"android": "https://dc.lft.to/lastmile_qr_scan", "ios": "https://dc.lft.to/lastmile_qr_scan"}, "lat": 38.9500365, "is_reserved": 0, "is_disabled": 0, "fusion_lat": 0.0}, {"fusion_lon": 0.0, "bike_id": "390abdd489a92fab0104e92ab1f0d7cf", "name": "390abdd489a92fab0104e92ab1f0d7cf", "type": "electric_scooter", "lon": -77.00929433333333, "rental_uris": {"android": "https://dc.lft.to/lastmile_qr_scan", "ios": "https://dc.lft.to/lastmile_qr_scan"}, "lat": 38.875100833333335, "is_reserved": 0, "is_disabled": 0, "fusion_lat": 0.0}, {"fusion_lon": 0.0, "bike_id": "b5ee6d91285641122a17985eb2a38fe2", "name": "b5ee6d91285641122a17985eb2a38fe2", "type": "electric_scooter", "lon": -77.0271335, "rental_uris": {"android": "https://dc.lft.to/lastmile_qr_scan", "ios": "https://dc.lft.to/lastmile_qr_scan"}, "lat": 38.91796766666667, "is_reserved": 0, "is_disabled": 0, "fusion_lat": 0.0}, {"fusion_lon": 0.0, "bike_id": "2b8ce0580ed4fa2db2f6678e91fe6a08", "name": "2b8ce0580ed4fa2db2f6678e91fe6a08", "type": "electric_scooter", "lon": -77.02472483333334, "rental_uris": {"android": "https://dc.lft.to/lastmile_qr_scan", "ios": "https://dc.lft.to/lastmile_qr_scan"}, "lat": 38.939120833333334, "is_reserved": 0, "is_disabled": 0, "fusion_lat": 0.0}, {"fusion_lon": 0.0, "bike_id": "c54cf127199285f5fc8bacc42c6e55dd", "name": "c54cf127199285f5fc8bacc42c6e55dd", "type": "electric_scooter", "lon": -77.04485566666666, "rental_uris": {"android": "https://dc.lft.to/lastmile_qr_scan", "ios": "https://dc.lft.to/lastmile_qr_scan"}, "lat": 38.906803, "is_reserved": 0, "is_disabled": 0, "fusion_lat": 0.0}, {"fusion_lon": 0.0, "bike_id": "ff3c3161b2d2c1d35ce80f450e4d35b7", "name": "ff3c3161b2d2c1d35ce80f450e4d35b7", "type": "electric_scooter", "lon": -77.023538, "rental_uris": {"android": "https://dc.lft.to/lastmile_qr_scan", "ios": "https://dc.lft.to/lastmile_qr_scan"}, "lat": 38.93528583333333, "is_reserved": 0, "is_disabled": 0, "fusion_lat": 0.0}, {"fusion_lon": 0.0, "bike_id": "09fca21bd28a4f570289c1f6e937b6f0", "name": "09fca21bd28a4f570289c1f6e937b6f0", "type": "electric_scooter", "lon": -77.00580066666667, "rental_uris": {"android": "https://dc.lft.to/lastmile_qr_scan", "ios": "https://dc.lft.to/lastmile_qr_scan"}, "lat": 38.90567433333333, "is_reserved": 0, "is_disabled": 0, "fusion_lat": 0.0}, {"fusion_lon": 0.0, "bike_id": "dc91233c68e9e99d73e9b6a300ceb153", "name": "dc91233c68e9e99d73e9b6a300ceb153", "type": "electric_scooter", "lon": -77.027161, "rental_uris": {"android": "https://dc.lft.to/lastmile_qr_scan", "ios": "https://dc.lft.to/lastmile_qr_scan"}, "lat": 38.904180833333335, "is_reserved": 0, "is_disabled": 0, "fusion_lat": 0.0}, {"fusion_lon": 0.0, "bike_id": "dcd8b5b210553c886cedadf86191f811", "name": "dcd8b5b210553c886cedadf86191f811", "type": "electric_scooter", "lon": -77.04579333333334, "rental_uris": {"android": "https://dc.lft.to/lastmile_qr_scan", "ios": "https://dc.lft.to/lastmile_qr_scan"}, "lat": 38.924176, "is_reserved": 0, "is_disabled": 0, "fusion_lat": 0.0}, {"fusion_lon": 0.0, "bike_id": "dedcb0a1329398bff7a99ded43a637a6", "name": "dedcb0a1329398bff7a99ded43a637a6", "type": "electric_scooter", "lon": -77.00049933333334, "rental_uris": {"android": "https://dc.lft.to/lastmile_qr_scan", "ios": "https://dc.lft.to/lastmile_qr_scan"}, "lat": 38.88880116666667, "is_reserved": 0, "is_disabled": 0, "fusion_lat": 0.0}, {"fusion_lon": 0.0, "bike_id": "a4bb96b33db17d13e553259f85ca229b", "name": "a4bb96b33db17d13e553259f85ca229b", "type": "electric_scooter", "lon": -77.015118, "rental_uris": {"android": "https://dc.lft.to/lastmile_qr_scan", "ios": "https://dc.lft.to/lastmile_qr_scan"}, "lat": 38.9103185, "is_reserved": 0, "is_disabled": 0, "fusion_lat": 0.0}, {"fusion_lon": 0.0, "bike_id": "56e035e21fbfee2b05c696d316ff8813", "name": "56e035e21fbfee2b05c696d316ff8813", "type": "electric_bike", "lon": -77.02299583333334, "rental_uris": {"android": "https://dc.lft.to/lastmile_qr_scan", "ios": "https://dc.lft.to/lastmile_qr_scan"}, "lat": 38.9233165, "is_reserved": 0, "is_disabled": 0, "fusion_lat": 0.0}, {"fusion_lon": 0.0, "bike_id": "3f6bd20bd284bbefa11a4f64e101607a", "name": "3f6bd20bd284bbefa11a4f64e101607a", "type": "electric_bike", "lon": -76.94810433333333, "rental_uris": {"android": "https://dc.lft.to/lastmile_qr_scan", "ios": "https://dc.lft.to/lastmile_qr_scan"}, "lat": 38.86195333333333, "is_reserved": 0, "is_disabled": 0, "fusion_lat": 0.0}, {"fusion_lon": 0.0, "bike_id": "4fd980d2d8689aca36aee01d3e87dbde", "name": "4fd980d2d8689aca36aee01d3e87dbde", "type": "electric_bike", "lon": -77.029521, "rental_uris": {"android": "https://dc.lft.to/lastmile_qr_scan", "ios": "https://dc.lft.to/lastmile_qr_scan"}, "lat": 38.9206085, "is_reserved": 0, "is_disabled": 0, "fusion_lat": 0.0}, {"fusion_lon": 0.0, "bike_id": "a3cf877ba105a20a1adc4427bf56baa7", "name": "a3cf877ba105a20a1adc4427bf56baa7", "type": "electric_scooter", "lon": -77.01998616666667, "rental_uris": {"android": "https://dc.lft.to/lastmile_qr_scan", "ios": "https://dc.lft.to/lastmile_qr_scan"}, "lat": 38.9662935, "is_reserved": 0, "is_disabled": 0, "fusion_lat": 0.0}, {"fusion_lon": 0.0, "bike_id": "8577a301331b74db6c43c8d9ef4e0a1a", "name": "8577a301331b74db6c43c8d9ef4e0a1a", "type": "electric_scooter", "lon": -77.03656783333334, "rental_uris": {"android": "https://dc.lft.to/lastmile_qr_scan", "ios": "https://dc.lft.to/lastmile_qr_scan"}, "lat": 38.91866616666667, "is_reserved": 0, "is_disabled": 0, "fusion_lat": 0.0}, {"fusion_lon": 0.0, "bike_id": "c54e974258ac63dc86e99e05309e71c0", "name": "c54e974258ac63dc86e99e05309e71c0", "type": "electric_scooter", "lon": -77.04994933333333, "rental_uris": {"android": "https://dc.lft.to/lastmile_qr_scan", "ios": "https://dc.lft.to/lastmile_qr_scan"}, "lat": 38.90540766666667, "is_reserved": 0, "is_disabled": 0, "fusion_lat": 0.0}, {"fusion_lon": 0.0, "bike_id": "25534ef3de09eae3ca5a64d770859b2d", "name": "25534ef3de09eae3ca5a64d770859b2d", "type": "electric_scooter", "lon": -77.02272616666667, "rental_uris": {"android": "https://dc.lft.to/lastmile_qr_scan", "ios": "https://dc.lft.to/lastmile_qr_scan"}, "lat": 38.90965283333333, "is_reserved": 0, "is_disabled": 0, "fusion_lat": 0.0}, {"fusion_lon": 0.0, "bike_id": "2370048fa7d92b17ce2338cca71b242e", "name": "2370048fa7d92b17ce2338cca71b242e", "type": "electric_scooter", "lon": -77.04526, "rental_uris": {"android": "https://dc.lft.to/lastmile_qr_scan", "ios": "https://dc.lft.to/lastmile_qr_scan"}, "lat": 38.9085025, "is_reserved": 0, "is_disabled": 0, "fusion_lat": 0.0}, {"fusion_lon": 0.0, "bike_id": "e1b7676b491c82bbdc829ba802fab9e7", "name": "e1b7676b491c82bbdc829ba802fab9e7", "type": "electric_scooter", "lon": -77.03110983333333, "rental_uris": {"android": "https://dc.lft.to/lastmile_qr_scan", "ios": "https://dc.lft.to/lastmile_qr_scan"}, "lat": 38.920295833333334, "is_reserved": 0, "is_disabled": 0, "fusion_lat": 0.0}, {"fusion_lon": 0.0, "bike_id": "9c1148a78aa46ba8cd8fe7dd31d6a9cd", "name": "9c1148a78aa46ba8cd8fe7dd31d6a9cd", "type": "electric_scooter", "lon": -77.0416985, "rental_uris": {"android": "https://dc.lft.to/lastmile_qr_scan", "ios": "https://dc.lft.to/lastmile_qr_scan"}, "lat": 38.92006683333334, "is_reserved": 0, "is_disabled": 0, "fusion_lat": 0.0}, {"fusion_lon": 0.0, "bike_id": "8e70fdc3c72ba2f56b2256cd8b4e6c23", "name": "8e70fdc3c72ba2f56b2256cd8b4e6c23", "type": "electric_scooter", "lon": -77.0448555, "rental_uris": {"android": "https://dc.lft.to/lastmile_qr_scan", "ios": "https://dc.lft.to/lastmile_qr_scan"}, "lat": 38.912901, "is_reserved": 0, "is_disabled": 0, "fusion_lat": 0.0}, {"fusion_lon": 0.0, "bike_id": "a13460dae0f0db3ff5b91a883a13c61a", "name": "a13460dae0f0db3ff5b91a883a13c61a", "type": "electric_bike", "lon": -77.038951, "rental_uris": {"android": "https://dc.lft.to/lastmile_qr_scan", "ios": "https://dc.lft.to/lastmile_qr_scan"}, "lat": 38.943984666666665, "is_reserved": 0, "is_disabled": 0, "fusion_lat": 0.0}, {"fusion_lon": 0.0, "bike_id": "a17502471d98ca9865674eb3cdd22faf", "name": "a17502471d98ca9865674eb3cdd22faf", "type": "electric_scooter", "lon": -77.00221333333333, "rental_uris": {"android": "https://dc.lft.to/lastmile_qr_scan", "ios": "https://dc.lft.to/lastmile_qr_scan"}, "lat": 38.902852, "is_reserved": 0, "is_disabled": 0, "fusion_lat": 0.0}, {"fusion_lon": 0.0, "bike_id": "a8627490580c92a643f7fd588c97e062", "name": "a8627490580c92a643f7fd588c97e062", "type": "electric_scooter", "lon": -76.9335295, "rental_uris": {"android": "https://dc.lft.to/lastmile_qr_scan", "ios": "https://dc.lft.to/lastmile_qr_scan"}, "lat": 38.89902516666667, "is_reserved": 0, "is_disabled": 0, "fusion_lat": 0.0}, {"fusion_lon": 0.0, "bike_id": "d02cf1c70d32819ddbc1f2c23ecb2f6e", "name": "d02cf1c70d32819ddbc1f2c23ecb2f6e", "type": "electric_scooter", "lon": -76.990334, "rental_uris": {"android": "https://dc.lft.to/lastmile_qr_scan", "ios": "https://dc.lft.to/lastmile_qr_scan"}, "lat": 38.89853883333333, "is_reserved": 0, "is_disabled": 0, "fusion_lat": 0.0}, {"fusion_lon": 0.0, "bike_id": "f4e60ab78ee345e6ba964a9bceabd9c7", "name": "f4e60ab78ee345e6ba964a9bceabd9c7", "type": "electric_scooter", "lon": -76.95672616666667, "rental_uris": {"android": "https://dc.lft.to/lastmile_qr_scan", "ios": "https://dc.lft.to/lastmile_qr_scan"}, "lat": 38.887671, "is_reserved": 0, "is_disabled": 0, "fusion_lat": 0.0}, {"fusion_lon": 0.0, "bike_id": "e8dcb7d51c0ddcc4fab8ad49043708c8", "name": "e8dcb7d51c0ddcc4fab8ad49043708c8", "type": "electric_scooter", "lon": -77.01893083333333, "rental_uris": {"android": "https://dc.lft.to/lastmile_qr_scan", "ios": "https://dc.lft.to/lastmile_qr_scan"}, "lat": 38.949268000000004, "is_reserved": 0, "is_disabled": 0, "fusion_lat": 0.0}, {"fusion_lon": 0.0, "bike_id": "0aade543095e956b18961fb71b7e6807", "name": "0aade543095e956b18961fb71b7e6807", "type": "electric_scooter", "lon": -77.0118975, "rental_uris": {"android": "https://dc.lft.to/lastmile_qr_scan", "ios": "https://dc.lft.to/lastmile_qr_scan"}, "lat": 38.90648233333334, "is_reserved": 0, "is_disabled": 0, "fusion_lat": 0.0}, {"fusion_lon": 0.0, "bike_id": "8a529bc5e5f9a8678599c81307030cd9", "name": "8a529bc5e5f9a8678599c81307030cd9", "type": "electric_bike", "lon": -76.9815905, "rental_uris": {"android": "https://dc.lft.to/lastmile_qr_scan", "ios": "https://dc.lft.to/lastmile_qr_scan"},