{"data": {"bikes": [{"lon": -77.0230745, "rental_uris": {"android": "https://dc.lft.to/lastmile_qr_scan", "ios": "https://dc.lft.to/lastmile_qr_scan"}, "fusion_lon": 0.0, "is_reserved": 0, "is_disabled": 0, "fusion_lat": 0.0, "type": "electric_bike", "name": "0a0ad8fbc5f8db90a1a1e0720b5ecb92", "lat": 38.96669816666667, "bike_id": "0a0ad8fbc5f8db90a1a1e0720b5ecb92"}, {"lon": -77.04688466666667, "rental_uris": {"android": "https://dc.lft.to/lastmile_qr_scan", "ios": "https://dc.lft.to/lastmile_qr_scan"}, "fusion_lon": 0.0, "is_reserved": 0, "is_disabled": 0, "fusion_lat": 0.0, "type": "electric_scooter", "name": "dea5a34e9f375f984a0abdb46e1c8698", "lat": 38.921138666666664, "bike_id": "dea5a34e9f375f984a0abdb46e1c8698"}, {"lon": -77.02721533333333, "rental_uris": {"android": "https://dc.lft.to/lastmile_qr_scan", "ios": "https://dc.lft.to/lastmile_qr_scan"}, "fusion_lon": 0.0, "is_reserved": 0, "is_disabled": 0, "fusion_lat": 0.0, "type": "electric_scooter", "name": "078b98f74b5b18c48a8f3a775786a6df", "lat": 38.904552333333335, "bike_id": "078b98f74b5b18c48a8f3a775786a6df"}, {"lon": -77.041945, "rental_uris": {"android": "https://dc.lft.to/lastmile_qr_scan", "ios": "https://dc.lft.to/lastmile_qr_scan"}, "fusion_lon": 0.0, "is_reserved": 0, "is_disabled": 0, "fusion_lat": 0.0, "type": "electric_scooter", "name": "4243afeb52db7995922ff5471c79c6b1", "lat": 38.901314666666664, "bike_id": "4243afeb52db7995922ff5471c79c6b1"}, {"lon": -77.0331965, "rental_uris": {"android": "https://dc.lft.to/lastmile_qr_scan", "ios": "https://dc.lft.to/lastmile_qr_scan"}, "fusion_lon": 0.0, "is_reserved": 0, "is_disabled": 0, "fusion_lat": 0.0, "type": "electric_bike", "name": "291112d0a87dac39b24cc9f5d5dbbc6e", "lat": 38.9204915, "bike_id": "291112d0a87dac39b24cc9f5d5dbbc6e"}, {"lon": -77.04907733333333, "rental_uris": {"android": "https://dc.lft.to/lastmile_qr_scan", "ios": "https://dc.lft.to/lastmile_qr_scan"}, "fusion_lon": 0.0, "is_reserved": 0, "is_disabled": 0, "fusion_lat": 0.0, "type": "electric_scooter", "name": "058cd96a9c103611689500eedd7ad01a", "lat": 38.897263, "bike_id": "058cd96a9c103611689500eedd7ad01a"}, {"lon": -77.04469583333334, "rental_uris": {"android": "https://dc.lft.to/lastmile_qr_scan", "ios": "https://dc.lft.to/lastmile_qr_scan"}, "fusion_lon": 0.0, "is_reserved": 0, "is_disabled": 0, "fusion_lat": 0.0, "type": "electric_scooter", "name": "d2636b3aa53f3369f9da85a1b68454ba", "lat": 38.89218133333333, "bike_id": "d2636b3aa53f3369f9da85a1b68454ba"}, {"lon": -77.08120733333334, "rental_uris": {"android": "https://dc.lft.to/lastmile_qr_scan", "ios": "https://dc.lft.to/lastmile_qr_scan"}, "fusion_lon": 0.0, "is_reserved": 0, "is_disabled": 0, "fusion_lat": 0.0, "type": "electric_bike", "name": "ba087dc076181b932d9ebcbcc4da33e8", "lat": 38.8228295, "bike_id": "ba087dc076181b932d9ebcbcc4da33e8"}, {"lon": -77.05471733333333, "rental_uris": {"android": "https://dc.lft.to/lastmile_qr_scan", "ios": "https://dc.lft.to/lastmile_qr_scan"}, "fusion_lon": 0.0, "is_reserved": 0, "is_disabled": 0, "fusion_lat": 0.0, "type": "electric_scooter", "name": "0038d4b59f7f30ab083510d0cde29b44", "lat": 38.92320933333333, "bike_id": "0038d4b59f7f30ab083510d0cde29b44"}, {"lon": -77.04503066666666, "rental_uris": {"android": "https://dc.lft.to/lastmile_qr_scan", "ios": "https://dc.lft.to/lastmile_qr_scan"}, "fusion_lon": 0.0, "is_reserved": 0, "is_disabled": 0, "fusion_lat": 0.0, "type": "electric_scooter", "name": "e36b56e37b3fd279f241f917a7e4f967", "lat": 38.89942166666667, "bike_id": "e36b56e37b3fd279f241f917a7e4f967"}, {"lon": -77.04683366666667, "rental_uris": {"android": "https://dc.lft.to/lastmile_qr_scan", "ios": "https://dc.lft.to/lastmile_qr_scan"}, "fusion_lon": 0.0, "is_reserved": 0, "is_disabled": 0, "fusion_lat": 0.0, "type": "electric_scooter", "name": "208b5d62510bb0b04ff3850d75ee63bc", "lat": 38.900337, "bike_id": "208b5d62510bb0b04ff3850d75ee63bc"}, {"lon": -77.069407, "rental_uris": {"android": "https://dc.lft.to/lastmile_qr_scan", "ios": "https://dc.lft.to/lastmile_qr_scan"}, "fusion_lon": 0.0, "is_reserved": 0, "is_disabled": 0, "fusion_lat": 0.0, "type": "electric_scooter", "name": "8086e909924e7c7d40f19b5b432d9449", "lat": 38.917410333333336, "bike_id": "8086e909924e7c7d40f19b5b432d9449"}, {"lon": -77.02600183333334, "rental_uris": {"android": "https://dc.lft.to/lastmile_qr_scan", "ios": "https://dc.lft.to/lastmile_qr_scan"}, "fusion_lon": 0.0, "is_reserved": 0, "is_disabled": 0, "fusion_lat": 0.0, "type": "electric_scooter", "name": "dd7a3872c3e56c63c605b856b5fb74c0", "lat": 38.916822833333335, "bike_id": "dd7a3872c3e56c63c605b856b5fb74c0"}, {"lon": -77.04552483333333, "rental_uris": {"android": "https://dc.lft.to/lastmile_qr_scan", "ios": "https://dc.lft.to/lastmile_qr_scan"}, "fusion_lon": 0.0, "is_reserved": 0, "is_disabled": 0, "fusion_lat": 0.0, "type": "electric_scooter", "name": "dd62d28c30c06a17f2baa20e0d5a6232", "lat": 38.91260066666667, "bike_id": "dd62d28c30c06a17f2baa20e0d5a6232"}, {"lon": -77.02488866666667, "rental_uris": {"android": "https://dc.lft.to/lastmile_qr_scan", "ios": "https://dc.lft.to/lastmile_qr_scan"}, "fusion_lon": 0.0, "is_reserved": 0, "is_disabled": 0, "fusion_lat": 0.0, "type": "electric_scooter", "name": "d3e174a4a1ec43ab684f712bf54f541c", "lat": 38.9239675, "bike_id": "d3e174a4a1ec43ab684f712bf54f541c"}, {"lon": -77.029635, "rental_uris": {"android": "https://dc.lft.to/lastmile_qr_scan", "ios": "https://dc.lft.to/lastmile_qr_scan"}, "fusion_lon": 0.0, "is_reserved": 0, "is_disabled": 0, "fusion_lat": 0.0, "type": "electric_scooter", "name": "d113d2f2664a3d52b72d44fc7e73d49b", "lat": 38.9421715, "bike_id": "d113d2f2664a3d52b72d44fc7e73d49b"}, {"lon": -77.03797833333333, "rental_uris": {"android": "https://dc.lft.to/lastmile_qr_scan", "ios": "https://dc.lft.to/lastmile_qr_scan"}, "fusion_lon": 0.0, "is_reserved": 0, "is_disabled": 0, "fusion_lat": 0.0, "type": "electric_scooter", "name": "71bae5f3dfb4d240c2832ff829c02096", "lat": 38.9025295, "bike_id": "71bae5f3dfb4d240c2832ff829c02096"}, {"lon": -77.01067616666667, "rental_uris": {"android": "https://dc.lft.to/lastmile_qr_scan", "ios": "https://dc.lft.to/lastmile_qr_scan"}, "fusion_lon": 0.0, "is_reserved": 0, "is_disabled": 0, "fusion_lat": 0.0, "type": "electric_scooter", "name": "e73e2fa3b5a2fca85fd154e5e47116ec", "lat": 38.9548795, "bike_id": "e73e2fa3b5a2fca85fd154e5e47116ec"}, {"lon": -77.03144066666667, "rental_uris": {"android": "https://dc.lft.to/lastmile_qr_scan", "ios": "https://dc.lft.to/lastmile_qr_scan"}, "fusion_lon": 0.0, "is_reserved": 0, "is_disabled": 0, "fusion_lat": 0.0, "type": "electric_scooter", "name": "6c8d2919b3eb289d381f6d7e9ce664c1", "lat": 38.899472, "bike_id": "6c8d2919b3eb289d381f6d7e9ce664c1"}, {"lon": -77.07275066666666, "rental_uris": {"android": "https://dc.lft.to/lastmile_qr_scan", "ios": "https://dc.lft.to/lastmile_qr_scan"}, "fusion_lon": 0.0, "is_reserved": 0, "is_disabled": 0, "fusion_lat": 0.0, "type": "electric_scooter", "name": "06881bff2b8715b3da36d5a9fb7183e8", "lat": 38.9091745, "bike_id": "06881bff2b8715b3da36d5a9fb7183e8"}, {"lon": -77.02477966666666, "rental_uris": {"android": "https://dc.lft.to/lastmile_qr_scan", "ios": "https://dc.lft.to/lastmile_qr_scan"}, "fusion_lon": 0.0, "is_reserved": 0, "is_disabled": 0, "fusion_lat": 0.0, "type": "electric_scooter", "name": "f8e58ae8b1be0860cd80987dc6442de3", "lat": 38.941877833333336, "bike_id": "f8e58ae8b1be0860cd80987dc6442de3"}, {"lon": -77.08859616666666, "rental_uris": {"android": "https://dc.lft.to/lastmile_qr_scan", "ios": "https://dc.lft.to/lastmile_qr_scan"}, "fusion_lon": 0.0, "is_reserved": 0, "is_disabled": 0, "fusion_lat": 0.0, "type": "electric_scooter", "name": "736c85700f3460785cf22902d432f40b", "lat": 38.9337705, "bike_id": "736c85700f3460785cf22902d432f40b"}, {"lon": -77.02274383333334, "rental_uris": {"android": "https://dc.lft.to/lastmile_qr_scan", "ios": "https://dc.lft.to/lastmile_qr_scan"}, "fusion_lon": 0.0, "is_reserved": 0, "is_disabled": 0, "fusion_lat": 0.0, "type": "electric_scooter", "name": "dd139cbad18ec9bc17d7ffa555ba4598", "lat": 38.9269905, "bike_id": "dd139cbad18ec9bc17d7ffa555ba4598"}, {"lon": -77.00328083333333, "rental_uris": {"android": "https://dc.lft.to/lastmile_qr_scan", "ios": "https://dc.lft.to/lastmile_qr_scan"}, "fusion_lon": 0.0, "is_reserved": 0, "is_disabled": 0, "fusion_lat": 0.0, "type": "electric_scooter", "name": "21f22e835330e163696ce325c91d63b9", "lat": 38.876267166666665, "bike_id": "21f22e835330e163696ce325c91d63b9"}, {"lon": -77.0427795, "rental_uris": {"android": "https://dc.lft.to/lastmile_qr_scan", "ios": "https://dc.lft.to/lastmile_qr_scan"}, "fusion_lon": 0.0, "is_reserved": 0, "is_disabled": 0, "fusion_lat": 0.0, "type": "electric_scooter", "name": "20e6ea627ddcd28748b0bda249bd6fe6", "lat": 38.93415266666667, "bike_id": "20e6ea627ddcd28748b0bda249bd6fe6"}, {"lon": -77.03930733333333, "rental_uris": {"android": "https://dc.lft.to/lastmile_qr_scan", "ios": "https://dc.lft.to/lastmile_qr_scan"}, "fusion_lon": 0.0, "is_reserved": 0, "is_disabled": 0, "fusion_lat": 0.0, "type": "electric_scooter", "name": "364a92f5bc5660b18d5269293df75818", "lat": 38.901542, "bike_id": "364a92f5bc5660b18d5269293df75818"}, {"lon": -77.05393966666666, "rental_uris": {"android": "https://dc.lft.to/lastmile_qr_scan", "ios": "https://dc.lft.to/lastmile_qr_scan"}, "fusion_lon": 0.0, "is_reserved": 0, "is_disabled": 0, "fusion_lat": 0.0, "type": "electric_scooter", "name": "0f17895a2aa1f84fa6bb3656674b34f1", "lat": 38.90354333333333, "bike_id": "0f17895a2aa1f84fa6bb3656674b34f1"}, {"lon": -77.00072766666666, "rental_uris": {"android": "https://dc.lft.to/lastmile_qr_scan", "ios": "https://dc.lft.to/lastmile_qr_scan"}, "fusion_lon": 0.0, "is_reserved": 0, "is_disabled": 0, "fusion_lat": 0.0, "type": "electric_scooter", "name": "78c904eb7963df6faec79331590f6b07", "lat": 38.92385683333333, "bike_id": "78c904eb7963df6faec79331590f6b07"}, {"lon": -77.03278583333334, "rental_uris": {"android": "https://dc.lft.to/lastmile_qr_scan", "ios": "https://dc.lft.to/lastmile_qr_scan"}, "fusion_lon": 0.0, "is_reserved": 0, "is_disabled": 0, "fusion_lat": 0.0, "type": "electric_scooter", "name": "604f1bf1be96d0025078db048967582f", "lat": 38.93789433333333, "bike_id": "604f1bf1be96d0025078db048967582f"}, {"lon": -77.00209466666666, "rental_uris": {"android": "https://dc.lft.to/lastmile_qr_scan", "ios": "https://dc.lft.to/lastmile_qr_scan"}, "fusion_lon": 0.0, "is_reserved": 0, "is_disabled": 0, "fusion_lat": 0.0, "type": "electric_scooter", "name": "9dc2d73d5974960f9bc0051bdc11f066", "lat": 38.900102333333336, "bike_id": "9dc2d73d5974960f9bc0051bdc11f066"}, {"lon": -77.03004966666667, "rental_uris": {"android": "https://dc.lft.to/lastmile_qr_scan", "ios": "https://dc.lft.to/lastmile_qr_scan"}, "fusion_lon": 0.0, "is_reserved": 0, "is_disabled": 0, "fusion_lat": 0.0, "type": "electric_scooter", "name": "ac2c33e2e644832b6867c1619c25c495", "lat": 38.900258666666666, "bike_id": "ac2c33e2e644832b6867c1619c25c495"}, {"lon": -77.00342466666666, "rental_uris": {"android": "https://dc.lft.to/lastmile_qr_scan", "ios": "https://dc.lft.to/lastmile_qr_scan"}, "fusion_lon": 0.0, "is_reserved": 0, "is_disabled": 0, "fusion_lat": 0.0, "type": "electric_scooter", "name": "25f3a5c10641b32c5468eea9adc19bf9", "lat": 38.896306333333335, "bike_id": "25f3a5c10641b32c5468eea9adc19bf9"}, {"lon": -77.01369266666667, "rental_uris": {"android": "https://dc.lft.to/lastmile_qr_scan", "ios": "https://dc.lft.to/lastmile_qr_scan"}, "fusion_lon": 0.0, "is_reserved": 0, "is_disabled": 0, "fusion_lat": 0.0, "type": "electric_scooter", "name": "3e7a500c9fc1e4e4893604ae0b68824f", "lat": 38.928685, "bike_id": "3e7a500c9fc1e4e4893604ae0b68824f"}, {"lon": -77.0432345, "rental_uris": {"android": "https://dc.lft.to/lastmile_qr_scan", "ios": "https://dc.lft.to/lastmile_qr_scan"}, "fusion_lon": 0.0, "is_reserved": 0, "is_disabled": 0, "fusion_lat": 0.0, "type": "electric_scooter", "name": "4f70357c44c7b22b1657eebec6d85b6d", "lat": 38.90031916666667, "bike_id": "4f70357c44c7b22b1657eebec6d85b6d"}, {"lon": -77.04888633333333, "rental_uris": {"android": "https://dc.lft.to/lastmile_qr_scan", "ios": "https://dc.lft.to/lastmile_qr_scan"}, "fusion_lon": 0.0, "is_reserved": 0, "is_disabled": 0, "fusion_lat": 0.0, "type": "electric_scooter", "name": "b49320fd77254d0ba88d4683f350468a", "lat": 38.899581, "bike_id": "b49320fd77254d0ba88d4683f350468a"}, {"lon": -77.02155816666667, "rental_uris": {"android": "https://dc.lft.to/lastmile_qr_scan", "ios": "https://dc.lft.to/lastmile_qr_scan"}, "fusion_lon": 0.0, "is_reserved": 0, "is_disabled": 0, "fusion_lat": 0.0, "type": "electric_scooter", "name": "7d2ba26f1e6a4f2dad6e50a503963b81", "lat": 38.8940345, "bike_id": "7d2ba26f1e6a4f2dad6e50a503963b81"}, {"lon": -77.0385935, "rental_uris": {"android": "https://dc.lft.to/lastmile_qr_scan", "ios": "https://dc.lft.to/lastmile_qr_scan"}, "fusion_lon": 0.0, "is_reserved": 0, "is_disabled": 0, "fusion_lat": 0.0, "type": "electric_scooter", "name": "10912db055a71bf4dd346d40ccfb06e9", "lat": 38.919607666666664, "bike_id": "10912db055a71bf4dd346d40ccfb06e9"}, {"lon": -77.041646, "rental_uris": {"android": "https://dc.lft.to/lastmile_qr_scan", "ios": "https://dc.lft.to/lastmile_qr_scan"}, "fusion_lon": 0.0, "is_reserved": 0, "is_disabled": 0, "fusion_lat": 0.0, "type": "electric_scooter", "name": "825bc46f87b5417e9dc96163eb8c69f0", "lat": 38.903782, "bike_id": "825bc46f87b5417e9dc96163eb8c69f0"}, {"lon": -77.01932633333334, "rental_uris": {"android": "https://dc.lft.to/lastmile_qr_scan", "ios": "https://dc.lft.to/lastmile_qr_scan"}, "fusion_lon": 0.0, "is_reserved": 0, "is_disabled": 0, "fusion_lat": 0.0, "type": "electric_scooter", "name": "f079b8ca9d2606bbf6987ec957698f21", "lat": 38.922465833333334, "bike_id": "f079b8ca9d2606bbf6987ec957698f21"}, {"lon": -77.01359483333333, "rental_uris": {"android": "https://dc.lft.to/lastmile_qr_scan", "ios": "https://dc.lft.to/lastmile_qr_scan"}, "fusion_lon": 0.0, "is_reserved": 0, "is_disabled": 0, "fusion_lat": 0.0, "type": "electric_scooter", "name": "e5a5d355a4d2883f8b0a5fb6923d5627", "lat": 38.872609, "bike_id": "e5a5d355a4d2883f8b0a5fb6923d5627"}, {"lon": -77.02169983333333, "rental_uris": {"android": "https://dc.lft.to/lastmile_qr_scan", "ios": "https://dc.lft.to/lastmile_qr_scan"}, "fusion_lon": 0.0, "is_reserved": 0, "is_disabled": 0, "fusion_lat": 0.0, "type": "electric_scooter", "name": "92499f7da52f9d940cbf4e385da57b88", "lat": 38.924737666666665, "bike_id": "92499f7da52f9d940cbf4e385da57b88"}, {"lon": -77.02220333333334, "rental_uris": {"android": "https://dc.lft.to/lastmile_qr_scan", "ios": "https://dc.lft.to/lastmile_qr_scan"}, "fusion_lon": 0.0, "is_reserved": 0, "is_disabled": 0, "fusion_lat": 0.0, "type": "electric_scooter", "name": "12f324f112bdc733ac24d763afc6c7e8", "lat": 38.89218016666667, "bike_id": "12f324f112bdc733ac24d763afc6c7e8"}, {"lon": -77.02759983333333, "rental_uris": {"android": "https://dc.lft.to/lastmile_qr_scan", "ios": "https://dc.lft.to/lastmile_qr_scan"}, "fusion_lon": 0.0, "is_reserved": 0, "is_disabled": 0, "fusion_lat": 0.0, "type": "electric_scooter", "name": "674c5d29c9509b81f551dec902c28449", "lat": 38.9276775, "bike_id": "674c5d29c9509b81f551dec902c28449"}, {"lon": -76.97846766666666, "rental_uris": {"android": "https://dc.lft.to/lastmile_qr_scan", "ios": "https://dc.lft.to/lastmile_qr_scan"}, "fusion_lon": 0.0, "is_reserved": 0, "is_disabled": 0, "fusion_lat": 0.0, "type": "electric_scooter", "name": "c01b1819890b7bc457fc8f4fd4e6b3ab", "lat": 38.86966066666667, "bike_id": "c01b1819890b7bc457fc8f4fd4e6b3ab"}, {"lon": -77.03202883333333, "rental_uris": {"android": "https://dc.lft.to/lastmile_qr_scan", "ios": "https://dc.lft.to/lastmile_qr_scan"}, "fusion_lon": 0.0, "is_reserved": 0, "is_disabled": 0, "fusion_lat": 0.0, "type": "electric_scooter", "name": "f8ed7dac8652b1f7dc2064d43f624e9b", "lat": 38.90892866666667, "bike_id": "f8ed7dac8652b1f7dc2064d43f624e9b"}, {"lon": -77.05009016666666, "rental_uris": {"android": "https://dc.lft.to/lastmile_qr_scan", "ios": "https://dc.lft.to/lastmile_qr_scan"}, "fusion_lon": 0.0, "is_reserved": 0, "is_disabled": 0, "fusion_lat": 0.0, "type": "electric_scooter", "name": "f9a8d85fbefc88c08710d9bf288077d2", "lat": 38.89866466666667, "bike_id": "f9a8d85fbefc88c08710d9bf288077d2"}, {"lon": -77.0243555, "rental_uris": {"android": "https://dc.lft.to/lastmile_qr_scan", "ios": "https://dc.lft.to/lastmile_qr_scan"}, "fusion_lon": 0.0, "is_reserved": 0, "is_disabled": 0, "fusion_lat": 0.0, "type": "electric_bike", "name": "8418734f59a09192bdbc95e3a66f5b89", "lat": 38.923099666666666, "bike_id": "8418734f59a09192bdbc95e3a66f5b89"}, {"lon": -77.043858, "rental_uris": {"android": "https://dc.lft.to/lastmile_qr_scan", "ios": "https://dc.lft.to/lastmile_qr_scan"}, "fusion_lon": 0.0, "is_reserved": 0, "is_disabled": 0, "fusion_lat": 0.0, "type": "electric_scooter", "name": "23d6323ffd5ccf7e6f5269d72ffe6890", "lat": 38.92105633333333, "bike_id": "23d6323ffd5ccf7e6f5269d72ffe6890"}, {"lon": -76.91063816666667, "rental_uris": {"android": "https://dc.lft.to/lastmile_qr_scan", "ios": "https://dc.lft.to/lastmile_qr_scan"}, "fusion_lon": 0.0, "is_reserved": 0, "is_disabled": 0, "fusion_lat": 0.0, "type": "electric_bike", "name": "a79c5576693d6b36a6618005e6b5c3ef", "lat": 39.01071116666667, "bike_id": "a79c5576693d6b36a6618005e6b5c3ef"}, {"lon": -77.03176866666666, "rental_uris": {"android": "https://dc.lft.to/lastmile_qr_scan", "ios": "https://dc.lft.to/lastmile_qr_scan"}, "fusion_lon": 0.0, "is_reserved": 0, "is_disabled": 0, "fusion_lat": 0.0, "type": "electric_scooter", "name": "8f91a55b269e5be087d55723019d8d41", "lat": 38.9009855, "bike_id": "8f91a55b269e5be087d55723019d8d41"}, {"lon": -77.00056383333333, "rental_uris": {"android": "https://dc.lft.to/lastmile_qr_scan", "ios": "https://dc.lft.to/lastmile_qr_scan"}, "fusion_lon": 0.0, "is_reserved": 0, "is_disabled": 0, "fusion_lat": 0.0, "type": "electric_scooter", "name": "42b8b3a6c13feabd768d272223b8a995", "lat": 38.8743265, "bike_id": "42b8b3a6c13feabd768d272223b8a995"}, {"lon": -77.00112583333333, "rental_uris": {"android": "https://dc.lft.to/lastmile_qr_scan", "ios": "https://dc.lft.to/lastmile_qr_scan"}, "fusion_lon": 0.0, "is_reserved": 0, "is_disabled": 0, "fusion_lat": 0.0, "type": "electric_scooter", "name": "4ea3e01ca2615b34ba0f06ea99239069", "lat": 38.876265, "bike_id": "4ea3e01ca2615b34ba0f06ea99239069"}, {"lon": -77.03351133333334, "rental_uris": {"android": "https://dc.lft.to/lastmile_qr_scan", "ios": "https://dc.lft.to/lastmile_qr_scan"}, "fusion_lon": 0.0, "is_reserved": 0, "is_disabled": 0, "fusion_lat": 0.0, "type": "electric_scooter", "name": "48613e1bc535636e470cdf22153b1e92", "lat": 38.94505066666667, "bike_id": "48613e1bc535636e470cdf22153b1e92"}, {"lon": -76.93381633333334, "rental_uris": {"android": "https://dc.lft.to/lastmile_qr_scan", "ios": "https://dc.lft.to/lastmile_qr_scan"}, "fusion_lon": 0.0, "is_reserved": 0, "is_disabled": 0, "fusion_lat": 0.0, "type": "electric_scooter", "name": "6b17820293192b7c205fd0fe5990db38", "lat": 38.8991065, "bike_id": "6b17820293192b7c205fd0fe5990db38"}, {"lon": -77.028965, "rental_uris": {"android": "https://dc.lft.to/lastmile_qr_scan", "ios": "https://dc.lft.to/lastmile_qr_scan"}, "fusion_lon": 0.0, "is_reserved": 0, "is_disabled": 0, "fusion_lat": 0.0, "type": "electric_scooter", "name": "e3b1bfd1bb5a1e09e9685713aa149f42", "lat": 38.90383466666667, "bike_id": "e3b1bfd1bb5a1e09e9685713aa149f42"}, {"lon": -77.03970766666667, "rental_uris": {"android": "https://dc.lft.to/lastmile_qr_scan", "ios": "https://dc.lft.to/lastmile_qr_scan"}, "fusion_lon": 0.0, "is_reserved": 0, "is_disabled": 0, "fusion_lat": 0.0, "type": "electric_scooter", "name": "62c437c18b79d7567020e2298047bee8", "lat": 38.903327833333336, "bike_id": "62c437c18b79d7567020e2298047bee8"}, {"lon": -77.02202266666667, "rental_uris": {"android": "https://dc.lft.to/lastmile_qr_scan", "ios": "https://dc.lft.to/lastmile_qr_scan"}, "fusion_lon": 0.0, "is_reserved": 0, "is_disabled": 0, "fusion_lat": 0.0, "type": "electric_scooter", "name": "8d63ab61ddec4d53edb28c37e70dfa3f", "lat": 38.905377666666666, "bike_id": "8d63ab61ddec4d53edb28c37e70dfa3f"}, {"lon": -77.0436035, "rental_uris": {"android": "https://dc.lft.to/lastmile_qr_scan", "ios": "https://dc.lft.to/lastmile_qr_scan"}, "fusion_lon": 0.0, "is_reserved": 0, "is_disabled": 0, "fusion_lat": 0.0, "type": "electric_scooter", "name": "3dd11052cd918f7c04b92d65d919332d", "lat": 38.92785516666667, "bike_id": "3dd11052cd918f7c04b92d65d919332d"}, {"lon": -76.99959316666667, "rental_uris": {"android": "https://dc.lft.to/lastmile_qr_scan", "ios": "https://dc.lft.to/lastmile_qr_scan"}, "fusion_lon": 0.0, "is_reserved": 0, "is_disabled": 0, "fusion_lat": 0.0, "type": "electric_scooter", "name": "28acb0876d72530d0a4c11edd6485e3e", "lat": 38.894133333333336, "bike_id": "28acb0876d72530d0a4c11edd6485e3e"}, {"lon": -77.05082633333333, "rental_uris": {"android": "https://dc.lft.to/lastmile_qr_scan", "ios": "https://dc.lft.to/lastmile_qr_scan"}, "fusion_lon": 0.0, "is_reserved": 0, "is_disabled": 0, "fusion_lat": 0.0, "type": "electric_bike", "name": "6d8c9402bbf45312e3dcf1a401ecdf96", "lat": 38.81331933333333, "bike_id": "6d8c9402bbf45312e3dcf1a401ecdf96"}, {"lon": -77.01260316666666, "rental_uris": {"android": "https://dc.lft.to/lastmile_qr_scan", "ios": "https://dc.lft.to/lastmile_qr_scan"}, "fusion_lon": 0.0, "is_reserved": 0, "is_disabled": 0, "fusion_lat": 0.0, "type": "electric_scooter", "name": "ecc4a8f5ad36eb5e3923cc7bd5f9e623", "lat": 38.900098, "bike_id": "ecc4a8f5ad36eb5e3923cc7bd5f9e623"}, {"lon": -76.98845933333334, "rental_uris": {"android": "https://dc.lft.to/lastmile_qr_scan", "ios": "https://dc.lft.to/lastmile_qr_scan"}, "fusion_lon": 0.0, "is_reserved": 0, "is_disabled": 0, "fusion_lat": 0.0, "type": "electric_scooter", "name": "53d71d0fc6b38a95b5104bb8e427752f", "lat": 38.89036266666667, "bike_id": "53d71d0fc6b38a95b5104bb8e427752f"}, {"lon": -77.04656283333334, "rental_uris": {"android": "https://dc.lft.to/lastmile_qr_scan", "ios": "https://dc.lft.to/lastmile_qr_scan"}, "fusion_lon": 0.0, "is_reserved": 0, "is_disabled": 0, "fusion_lat": 0.0, "type": "electric_scooter", "name": "ab7d5582a5db27e733c5ccdea21f84fb", "lat": 38.913610166666665, "bike_id": "ab7d5582a5db27e733c5ccdea21f84fb"}, {"lon": -77.02257983333334, "rental_uris": {"android": "https://dc.lft.to/lastmile_qr_scan", "ios": "https://dc.lft.to/lastmile_qr_scan"}, "fusion_lon": 0.0, "is_reserved": 0, "is_disabled": 0, "fusion_lat": 0.0, "type": "electric_scooter", "name": "6f9c21b6c3d20e64bf8440470039150d", "lat": 38.9251285, "bike_id": "6f9c21b6c3d20e64bf8440470039150d"}, {"lon": -77.0637635, "rental_uris": {"android": "https://dc.lft.to/lastmile_qr_scan", "ios": "https://dc.lft.to/lastmile_qr_scan"}, "fusion_lon": 0.0, "is_reserved": 0, "is_disabled": 0, "fusion_lat": 0.0, "type": "electric_scooter", "name": "6e10fea701cef12c995fca040301e311", "lat": 38.90511716666666, "bike_id": "6e10fea701cef12c995fca040301e311"}, {"lon": -77.02389133333334, "rental_uris": {"android": "https://dc.lft.to/lastmile_qr_scan", "ios": "https://dc.lft.to/lastmile_qr_scan"}, "fusion_lon": 0.0, "is_reserved": 0, "is_disabled": 0, "fusion_lat": 0.0, "type": "electric_scooter", "name": "736681dca3922873fdc03e27a9f464c3", "lat": 38.9067095, "bike_id": "736681dca3922873fdc03e27a9f464c3"}, {"lon": -77.0486655, "rental_uris": {"android": "https://dc.lft.to/lastmile_qr_scan", "ios": "https://dc.lft.to/lastmile_qr_scan"}, "fusion_lon": 0.0, "is_reserved": 0, "is_disabled": 0, "fusion_lat": 0.0, "type": "electric_scooter", "name": "f0a0104478a81c732eefd2b7ca3101cb", "lat": 38.892163333333336, "bike_id": "f0a0104478a81c732eefd2b7ca3101cb"}, {"lon": -77.044909, "rental_uris": {"android": "https://dc.lft.to/lastmile_qr_scan", "ios": "https://dc.lft.to/lastmile_qr_scan"}, "fusion_lon": 0.0, "is_reserved": 0, "is_disabled": 0, "fusion_lat": 0.0, "type": "electric_scooter", "name": "cebc2f8b642044f68c37dd383669420f", "lat": 38.911176166666664, "bike_id": "cebc2f8b642044f68c37dd383669420f"}, {"lon": -77.04193066666667, "rental_uris": {"android": "https://dc.lft.to/lastmile_qr_scan", "ios": "https://dc.lft.to/lastmile_qr_scan"}, "fusion_lon": 0.0, "is_reserved": 0, "is_disabled": 0, "fusion_lat": 0.0, "type": "electric_scooter", "name": "48108cfc869e06c54828d9d63a8ccbaf", "lat": 38.92711516666667, "bike_id": "48108cfc869e06c54828d9d63a8ccbaf"}, {"lon": -77.00197516666667, "rental_uris": {"android": "https://dc.lft.to/lastmile_qr_scan", "ios": "https://dc.lft.to/lastmile_qr_scan"}, "fusion_lon": 0.0, "is_reserved": 0, "is_disabled": 0, "fusion_lat": 0.0, "type": "electric_scooter", "name": "53e021ff97bbf9dedfcd76b048daad21", "lat": 38.8866895, "bike_id": "53e021ff97bbf9dedfcd76b048daad21"}, {"lon": -77.03773883333334, "rental_uris": {"android": "https://dc.lft.to/lastmile_qr_scan", "ios": "https://dc.lft.to/lastmile_qr_scan"}, "fusion_lon": 0.0, "is_reserved": 0, "is_disabled": 0, "fusion_lat": 0.0, "type": "electric_scooter", "name": "79db89f261ca94799fdef88405922f82", "lat": 38.91691316666667, "bike_id": "79db89f261ca94799fdef88405922f82"}, {"lon": -77.03941066666667, "rental_uris": {"android": "https://dc.lft.to/lastmile_qr_scan", "ios": "https://dc.lft.to/lastmile_qr_scan"}, "fusion_lon": 0.0, "is_reserved": 0, "is_disabled": 0, "fusion_lat": 0.0, "type": "electric_scooter", "name": "3266fdb916016a224a7f5116d7c2537b", "lat": 38.92866933333333, "bike_id": "3266fdb916016a224a7f5116d7c2537b"}, {"lon": -77.0216515, "rental_uris": {"android": "https://dc.lft.to/lastmile_qr_scan", "ios": "https://dc.lft.to/lastmile_qr_scan"}, "fusion_lon": 0.0, "is_reserved": 0, "is_disabled": 0, "fusion_lat": 0.0, "type": "electric_scooter", "name": "a9f854222848bb7345609be07cf277b4", "lat": 38.92450183333333, "bike_id": "a9f854222848bb7345609be07cf277b4"}, {"lon": -77.07349433333333, "rental_uris": {"android": "https://dc.lft.to/lastmile_qr_scan", "ios": "https://dc.lft.to/lastmile_qr_scan"}, "fusion_lon": 0.0, "is_reserved": 0, "is_disabled": 0, "fusion_lat": 0.0, "type": "electric_scooter", "name": "f1b705ae458dbfc6bbc2d76b26a7e088", "lat": 38.934802166666664, "bike_id": "f1b705ae458dbfc6bbc2d76b26a7e088"}, {"lon": -77.03470216666666, "rental_uris": {"android": "https://dc.lft.to/lastmile_qr_scan", "ios": "https://dc.lft.to/lastmile_qr_scan"}, "fusion_lon": 0.0, "is_reserved": 0, "is_disabled": 0, "fusion_lat": 0.0, "type": "electric_scooter", "name": "225ae62b43863397048456a752e69a99", "lat": 38.917072166666664, "bike_id": "225ae62b43863397048456a752e69a99"}, {"lon": -77.0266415, "rental_uris": {"android": "https://dc.lft.to/lastmile_qr_scan", "ios": "https://dc.lft.to/lastmile_qr_scan"}, "fusion_lon": 0.0, "is_reserved": 0, "is_disabled": 0, "fusion_lat": 0.0, "type": "electric_scooter", "name": "3ef74560b753ce843bcddf5c52bbd3eb", "lat": 38.921707833333336, "bike_id": "3ef74560b753ce843bcddf5c52bbd3eb"}, {"lon": -77.03810183333333, "rental_uris": {"android": "https://dc.lft.to/lastmile_qr_scan", "ios": "https://dc.lft.to/lastmile_qr_scan"}, "fusion_lon": 0.0, "is_reserved": 0, "is_disabled": 0, "fusion_lat": 0.0, "type": "electric_scooter", "name": "eae4b1d26fa032cd67c26d27b33c1519", "lat": 38.90670183333334, "bike_id": "eae4b1d26fa032cd67c26d27b33c1519"}, {"lon": -77.02796633333334, "rental_uris": {"android": "https://dc.lft.to/lastmile_qr_scan", "ios": "https://dc.lft.to/lastmile_qr_scan"}, "fusion_lon": 0.0, "is_reserved": 0, "is_disabled": 0, "fusion_lat": 0.0, "type": "electric_scooter", "name": "6db247b7ff13446c38a70e13fa64bdf4", "lat": 38.895035, "bike_id": "6db247b7ff13446c38a70e13fa64bdf4"}, {"lon": -77.025943, "rental_uris": {"android": "https://dc.lft.to/lastmile_qr_scan", "ios": "https://dc.lft.to/lastmile_qr_scan"}, "fusion_lon": 0.0, "is_reserved": 0, "is_disabled": 0, "fusion_lat": 0.0, "type": "electric_scooter", "name": "4eb2567e87eee1555db38c532465efd7", "lat": 38.8984115, "bike_id": "4eb2567e87eee1555db38c532465efd7"}, {"lon": -77.0314815, "rental_uris": {"android": "https://dc.lft.to/lastmile_qr_scan", "ios": "https://dc.lft.to/lastmile_qr_scan"}, "fusion_lon": 0.0, "is_reserved": 0, "is_disabled": 0, "fusion_lat": 0.0, "type": "electric_scooter", "name": "058beb491d2978dc0ba2a9ff4e090348", "lat": 38.91256083333333, "bike_id": "058beb491d2978dc0ba2a9ff4e090348"}, {"lon": -77.02120633333334, "rental_uris": {"android": "https://dc.lft.to/lastmile_qr_scan", "ios": "https://dc.lft.to/lastmile_qr_scan"}, "fusion_lon": 0.0, "is_reserved": 0, "is_disabled": 0, "fusion_lat": 0.0, "type": "electric_scooter", "name": "1a70449f9b86a4d054a231095e3d38f2", "lat": 38.91985233333333, "bike_id": "1a70449f9b86a4d054a231095e3d38f2"}, {"lon": -77.03388133333333, "rental_uris": {"android": "https://dc.lft.to/lastmile_qr_scan", "ios": "https://dc.lft.to/lastmile_qr_scan"}, "fusion_lon": 0.0, "is_reserved": 0, "is_disabled": 0, "fusion_lat": 0.0, "type": "electric_scooter", "name": "e117c2f3a810a37ad6e7ee2cb85bb79a", "lat": 38.920471666666664, "bike_id": "e117c2f3a810a37ad6e7ee2cb85bb79a"}, {"lon": -77.04600466666666, "rental_uris": {"android": "https://dc.lft.to/lastmile_qr_scan", "ios": "https://dc.lft.to/lastmile_qr_scan"}, "fusion_lon": 0.0, "is_reserved": 0, "is_disabled": 0, "fusion_lat": 0.0, "type": "electric_scooter", "name": "3700b97a72b02a486b17176986389ed6", "lat": 38.9026, "bike_id": "3700b97a72b02a486b17176986389ed6"}, {"lon": -77.02710016666667, "rental_uris": {"android": "https://dc.lft.to/lastmile_qr_scan", "ios": "https://dc.lft.to/lastmile_qr_scan"}, "fusion_lon": 0.0, "is_reserved": 0, "is_disabled": 0, "fusion_lat": 0.0, "type": "electric_scooter", "name": "94c36e870396949c403bc71d72d16ded", "lat": 38.916956, "bike_id": "94c36e870396949c403bc71d72d16ded"}, {"lon": -77.048273, "rental_uris": {"android": "https://dc.lft.to/lastmile_qr_scan", "ios": "https://dc.lft.to/lastmile_qr_scan"}, "fusion_lon": 0.0, "is_reserved": 0, "is_disabled": 0, "fusion_lat": 0.0, "type": "electric_scooter", "name": "036d3dd3f7fc344abf251974848abefc", "lat": 38.921059, "bike_id": "036d3dd3f7fc344abf251974848abefc"}, {"lon": -77.04109033333333, "rental_uris": {"android": "https://dc.lft.to/lastmile_qr_scan", "ios": "https://dc.lft.to/lastmile_qr_scan"}, "fusion_lon": 0.0, "is_reserved": 0, "is_disabled": 0, "fusion_lat": 0.0, "type": "electric_scooter", "name": "a6fac0c5d8bf8a587b2f733946af1c11", "lat": 38.92365816666667, "bike_id": "a6fac0c5d8bf8a587b2f733946af1c11"}, {"lon": -77.01557116666666, "rental_uris": {"android": "https://dc.lft.to/lastmile_qr_scan", "ios": "https://dc.lft.to/lastmile_qr_scan"}, "fusion_lon": 0.0, "is_reserved": 0, "is_disabled": 0, "fusion_lat": 0.0, "type": "electric_scooter", "name": "4f9418cd71b73d9ffff08de779eb2405", "lat": 38.9146255, "bike_id": "4f9418cd71b73d9ffff08de779eb2405"}, {"lon": -76.98566116666667, "rental_uris": {"android": "https://dc.lft.to/lastmile_qr_scan", "ios": "https://dc.lft.to/lastmile_qr_scan"}, "fusion_lon": 0.0, "is_reserved": 0, "is_disabled": 0, "fusion_lat": 0.0, "type": "electric_scooter", "name": "4eb0263c2586e6533ee849e6283f0711", "lat": 38.896153166666664, "bike_id": "4eb0263c2586e6533ee849e6283f0711"}, {"lon": -77.02819266666667, "rental_uris": {"android": "https://dc.lft.to/lastmile_qr_scan", "ios": "https://dc.lft.to/lastmile_qr_scan"}, "fusion_lon": 0.0, "is_reserved": 0, "is_disabled": 0, "fusion_lat": 0.0, "type": "electric_scooter", "name": "ba0ba7ffbf5564ee13bf7af0290d785c", "lat": 38.886520166666664, "bike_id": "ba0ba7ffbf5564ee13bf7af0290d785c"}, {"lon": -77.0236965, "rental_uris": {"android": "https://dc.lft.to/lastmile_qr_scan", "ios": "https://dc.lft.to/lastmile_qr_scan"}, "fusion_lon": 0.0, "is_reserved": 0, "is_disabled": 0, "fusion_lat": 0.0, "type": "electric_scooter", "name": "9ea6302039856f87ea0aefc257abf8f6", "lat": 38.8846765, "bike_id": "9ea6302039856f87ea0aefc257abf8f6"}, {"lon": -77.0446485, "rental_uris": {"android": "https://dc.lft.to/lastmile_qr_scan", "ios": "https://dc.lft.to/lastmile_qr_scan"}, "fusion_lon": 0.0, "is_reserved": 0, "is_disabled": 0, "fusion_lat": 0.0, "type": "electric_scooter", "name": "2cdfb6ad08a83ef39ebeced12c881791", "lat": 38.89224166666666, "bike_id": "2cdfb6ad08a83ef39ebeced12c881791"}, {"lon": -77.02837666666667, "rental_uris": {"android": "https://dc.lft.to/lastmile_qr_scan", "ios": "https://dc.lft.to/lastmile_qr_scan"}, "fusion_lon": 0.0, "is_reserved": 0, "is_disabled": 0, "fusion_lat": 0.0, "type": "electric_scooter", "name": "4c29e8632b614e334596760c7acf9a48", "lat": 38.887670666666665, "bike_id": "4c29e8632b614e334596760c7acf9a48"}, {"lon": -77.07519733333334, "rental_uris": {"android": "https://dc.lft.to/lastmile_qr_scan", "ios": "https://dc.lft.to/lastmile_qr_scan"}, "fusion_lon": 0.0, "is_reserved": 0, "is_disabled": 0, "fusion_lat": 0.0, "type": "electric_bike", "name": "5c762bec8989f604b3c47994fa56610f", "lat": 38.84278666666667, "bike_id": "5c762bec8989f604b3c47994fa56610f"}, {"lon": -77.04356666666666, "rental_uris": {"android": "https://dc.lft.to/lastmile_qr_scan", "ios": "https://dc.lft.to/lastmile_qr_scan"}, "fusion_lon": 0.0, "is_reserved": 0, "is_disabled": 0, "fusion_lat": 0.0, "type": "electric_scooter", "name": "5d170622dd99ad3745895698bb5a1e80", "lat": 38.897319333333336, "bike_id": "5d170622dd99ad3745895698bb5a1e80"}, {"lon": -77.02972216666667, "rental_uris": {"android": "https://dc.lft.to/lastmile_qr_scan", "ios": "https://dc.lft.to/lastmile_qr_scan"}, "fusion_lon": 0.0, "is_reserved": 0, "is_disabled": 0, "fusion_lat": 0.0, "type": "electric_scooter", "name": "6888acd16767ad0aea858b18cba179ff", "lat": 38.91287466666667, "bike_id": "6888acd16767ad0aea858b18cba179ff"}, {"lon": -77.00378633333334, "rental_uris": {"android": "https://dc.lft.to/lastmile_qr_scan", "ios": "https://dc.lft.to/lastmile_qr_scan"}, "fusion_lon": 0.0, "is_reserved": 0, "is_disabled": 0, "fusion_lat": 0.0, "type": "electric_scooter", "name": "7efc59865de351dbcb64fcf42a5badbf", "lat": 38.90727483333333, "bike_id": "7efc59865de351dbcb64fcf42a5badbf"}, {"lon": -77.03504166666667, "rental_uris": {"android": "https://dc.lft.to/lastmile_qr_scan", "ios": "https://dc.lft.to/lastmile_qr_scan"}, "fusion_lon": 0.0, "is_reserved": 0, "is_disabled": 0, "fusion_lat": 0.0, "type": "electric_scooter", "name": "b9661e45f8e1da79faeeeac1eac73927", "lat": 38.92334133333333, "bike_id": "b9661e45f8e1da79faeeeac1eac73927"}, {"lon": -77.02167, "rental_uris": {"android": "https://dc.lft.to/lastmile_qr_scan", "ios": "https://dc.lft.to/lastmile_qr_scan"}, "fusion_lon": 0.0, "is_reserved": 0, "is_disabled": 0, "fusion_lat": 0.0, "type": "electric_scooter", "name": "40e9692fb74073ee301aa4d1937d6c1f", "lat": 38.92629383333333, "bike_id": "40e9692fb74073ee301aa4d1937d6c1f"}, {"lon": -77.01557633333333, "rental_uris": {"android": "https://dc.lft.to/lastmile_qr_scan", "ios": "https://dc.lft.to/lastmile_qr_scan"}, "fusion_lon": 0.0, "is_reserved": 0, "is_disabled": 0, "fusion_lat": 0.0, "type": "electric_scooter", "name": "39e2f9e92a0cce7be189b158e523369e", "lat": 38.902683333333336, "bike_id": "39e2f9e92a0cce7be189b158e523369e"}, {"lon": -77.0443305, "rental_uris": {"android": "https://dc.lft.to/lastmile_qr_scan", "ios": "https://dc.lft.to/lastmile_qr_scan"}, "fusion_lon": 0.0, "is_reserved": 0, "is_disabled": 0, "fusion_lat": 0.0, "type": "electric_scooter", "name": "4924815e509184d8349d9903604e9a84", "lat": 38.9011205, "bike_id": "4924815e509184d8349d9903604e9a84"}, {"lon": -76.99172133333333, "rental_uris": {"android": "https://dc.lft.to/lastmile_qr_scan", "ios": "https://dc.lft.to/lastmile_qr_scan"}, "fusion_lon": 0.0, "is_reserved": 0, "is_disabled": 0, "fusion_lat": 0.0, "type": "electric_scooter", "name": "00ebb290af2a1cb682b8282536666894", "lat": 38.881226166666664, "bike_id": "00ebb290af2a1cb682b8282536666894"}, {"lon": -77.01354283333333, "rental_uris": {"android": "https://dc.lft.to/lastmile_qr_scan", "ios": "https://dc.lft.to/lastmile_qr_scan"}, "fusion_lon": 0.0, "is_reserved": 0, "is_disabled": 0, "fusion_lat": 0.0, "type": "electric_scooter", "name": "0c45b56f040dda44e5bcc188f27c4b6d", "lat": 38.9185365, "bike_id": "0c45b56f040dda44e5bcc188f27c4b6d"}, {"lon": -77.04689433333333, "rental_uris": {"android": "https://dc.lft.to/lastmile_qr_scan", "ios": "https://dc.lft.to/lastmile_qr_scan"}, "fusion_lon": 0.0, "is_reserved": 0, "is_disabled": 0, "fusion_lat": 0.0, "type": "electric_scooter", "name": "838d3129917dcb822c87cfd32973b1bb", "lat": 38.921604333333335, "bike_id": "838d3129917dcb822c87cfd32973b1bb"}, {"lon": -77.03855566666667, "rental_uris": {"android": "https://dc.lft.to/lastmile_qr_scan", "ios": "https://dc.lft.to/lastmile_qr_scan"}, "fusion_lon": 0.0, "is_reserved": 0, "is_disabled": 0, "fusion_lat": 0.0, "type": "electric_scooter", "name": "8ae4cd7ead647505dc8496f61d80fa98", "lat": 38.90826883333333, "bike_id": "8ae4cd7ead647505dc8496f61d80fa98"}, {"lon": -77.03220783333333, "rental_uris": {"android": "https://dc.lft.to/lastmile_qr_scan", "ios": "https://dc.lft.to/lastmile_qr_scan"}, "fusion_lon": 0.0, "is_reserved": 0, "is_disabled": 0, "fusion_lat": 0.0, "type": "electric_scooter", "name": "53a70dc3c0f81616f6ec1f069912108b", "lat": 38.930515166666666, "bike_id": "53a70dc3c0f81616f6ec1f069912108b"}, {"lon": -77.03969, "rental_uris": {"android": "https://dc.lft.to/lastmile_qr_scan", "ios": "https://dc.lft.to/lastmile_qr_scan"}, "fusion_lon": 0.0, "is_reserved": 0, "is_disabled": 0, "fusion_lat": 0.0, "type": "electric_scooter", "name": "ed6db9c090f4b01d2fd8ed7c35e76b24", "lat": 38.902320333333336, "bike_id": "ed6db9c090f4b01d2fd8ed7c35e76b24"}, {"lon": -77.04659466666666, "rental_uris": {"android": "https://dc.lft.to/lastmile_qr_scan", "ios": "https://dc.lft.to/lastmile_qr_scan"}, "fusion_lon": 0.0, "is_reserved": 0, "is_disabled": 0, "fusion_lat": 0.0, "type": "electric_scooter", "name": "cffbbfb415467a69c313ae36d7601b11", "lat": 38.8946475, "bike_id": "cffbbfb415467a69c313ae36d7601b11"}, {"lon": -77.03281966666667, "rental_uris": {"android": "https://dc.lft.to/lastmile_qr_scan", "ios": "https://dc.lft.to/lastmile_qr_scan"}, "fusion_lon": 0.0, "is_reserved": 0, "is_disabled": 0, "fusion_lat": 0.0, "type": "electric_scooter", "name": "c46da12841375f5c63c4af5f3729dc38", "lat": 38.939567, "bike_id": "c46da12841375f5c63c4af5f3729dc38"}, {"lon": -77.041469, "rental_uris": {"android": "https://dc.lft.to/lastmile_qr_scan", "ios": "https://dc.lft.to/lastmile_qr_scan"}, "fusion_lon": 0.0, "is_reserved": 0, "is_disabled": 0, "fusion_lat": 0.0, "type": "electric_scooter", "name": "fafc4005aafd869e30e71635b81fea5e", "lat": 38.92339233333333, "bike_id": "fafc4005aafd869e30e71635b81fea5e"}, {"lon": -77.01786733333333, "rental_uris": {"android": "https://dc.lft.to/lastmile_qr_scan", "ios": "https://dc.lft.to/lastmile_qr_scan"}, "fusion_lon": 0.0, "is_reserved": 0, "is_disabled": 0, "fusion_lat": 0.0, "type": "electric_scooter", "name": "e4346d5a94ea278ea223d431fd544b6e", "lat": 38.906395, "bike_id": "e4346d5a94ea278ea223d431fd544b6e"}, {"lon": -77.0213105, "rental_uris": {"android": "https://dc.lft.to/lastmile_qr_scan", "ios": "https://dc.lft.to/lastmile_qr_scan"}, "fusion_lon": 0.0, "is_reserved": 0, "is_disabled": 0, "fusion_lat": 0.0, "type": "electric_scooter", "name": "8fe0d165022b1ee018a27792cd558bb4", "lat": 38.91398933333333, "bike_id": "8fe0d165022b1ee018a27792cd558bb4"}, {"lon": -77.05313366666667, "rental_uris": {"android": "https://dc.lft.to/lastmile_qr_scan", "ios": "https://dc.lft.to/lastmile_qr_scan"}, "fusion_lon": 0.0, "is_reserved": 0, "is_disabled": 0, "fusion_lat": 0.0, "type": "electric_scooter", "name": "e0fcf331a5dfb5b714c582cdc56a5f43", "lat": 38.9026495, "bike_id": "e0fcf331a5dfb5b714c582cdc56a5f43"}, {"lon": -77.01614383333333, "rental_uris": {"android": "https://dc.lft.to/lastmile_qr_scan", "ios": "https://dc.lft.to/lastmile_qr_scan"}, "fusion_lon": 0.0, "is_reserved": 0, "is_disabled": 0, "fusion_lat": 0.0, "type": "electric_scooter", "name": "4f08b160276dfd72ab406885c51cfe49", "lat": 38.903078666666666, "bike_id": "4f08b160276dfd72ab406885c51cfe49"}, {"lon": -77.03520966666666, "rental_uris": {"android": "https://dc.lft.to/lastmile_qr_scan", "ios": "https://dc.lft.to/lastmile_qr_scan"}, "fusion_lon": 0.0, "is_reserved": 0, "is_disabled": 0, "fusion_lat": 0.0, "type": "electric_scooter", "name": "63b4c3ccfc9c905b5e361d4a30ad2df0", "lat": 38.92254783333333, "bike_id": "63b4c3ccfc9c905b5e361d4a30ad2df0"}, {"lon": -77.01707483333334, "rental_uris": {"android": "https://dc.lft.to/lastmile_qr_scan", "ios": "https://dc.lft.to/lastmile_qr_scan"}, "fusion_lon": 0.0, "is_reserved": 0, "is_disabled": 0, "fusion_lat": 0.0, "type": "electric_scooter", "name": "c4e04f976ad65c57bcf7b430d880d505", "lat": 38.920510166666666, "bike_id": "c4e04f976ad65c57bcf7b430d880d505"}, {"lon": -77.04006233333334, "rental_uris": {"android": "https://dc.lft.to/lastmile_qr_scan", "ios": "https://dc.lft.to/lastmile_qr_scan"}, "fusion_lon": 0.0, "is_reserved": 0, "is_disabled": 0, "fusion_lat": 0.0, "type": "electric_scooter", "name": "52c93baedebe092e2eca990789fcfe5c", "lat": 38.90827383333333, "bike_id": "52c93baedebe092e2eca990789fcfe5c"}, {"lon": -77.04689066666667, "rental_uris": {"android": "https://dc.lft.to/lastmile_qr_scan", "ios": "https://dc.lft.to/lastmile_qr_scan"}, "fusion_lon": 0.0, "is_reserved": 0, "is_disabled": 0, "fusion_lat": 0.0, "type": "electric_scooter", "name": "e97e62513f9935f6faf22b254c1477bb", "lat": 38.91701166666667, "bike_id": "e97e62513f9935f6faf22b254c1477bb"}, {"lon": -77.0424415, "rental_uris": {"android": "https://dc.lft.to/lastmile_qr_scan", "ios": "https://dc.lft.to/lastmile_qr_scan"}, "fusion_lon": 0.0, "is_reserved": 0, "is_disabled": 0, "fusion_lat": 0.0, "type": "electric_scooter", "name": "411420dfd646390b80f848a1dbc7e788", "lat": 38.922258666666664, "bike_id": "411420dfd646390b80f848a1dbc7e788"}, {"lon": -77.05032316666667, "rental_uris": {"android": "https://dc.lft.to/lastmile_qr_scan", "ios": "https://dc.lft.to/lastmile_qr_scan"}, "fusion_lon": 0.0, "is_reserved": 0, "is_disabled": 0, "fusion_lat": 0.0, "type": "electric_bike", "name": "668ac5d1abf3ead313051eaaaca65a8c", "lat": 39.0390315, "bike_id": "668ac5d1abf3ead313051eaaaca65a8c"}, {"lon": -77.00628233333333, "rental_uris": {"android": "https://dc.lft.to/lastmile_qr_scan", "ios": "https://dc.lft.to/lastmile_qr_scan"}, "fusion_lon": 0.0, "is_reserved": 0, "is_disabled": 0, "fusion_lat": 0.0, "type": "electric_scooter", "name": "0bb41fdb52c5065377c63ac1ca0e928d", "lat": 38.912569, "bike_id": "0bb41fdb52c5065377c63ac1ca0e928d"}, {"lon": -76.96713933333334, "rental_uris": {"android": "https://dc.lft.to/lastmile_qr_scan", "ios": "https://dc.lft.to/lastmile_qr_scan"}, "fusion_lon": 0.0, "is_reserved": 0, "is_disabled": 0, "fusion_lat": 0.0, "type": "electric_scooter", "name": "9ad8c9186993e6f6c2b17a5894b89e0c", "lat": 38.86056766666667, "bike_id": "9ad8c9186993e6f6c2b17a5894b89e0c"}, {"lon": -77.03221566666667, "rental_uris": {"android": "https://dc.lft.to/lastmile_qr_scan", "ios": "https://dc.lft.to/lastmile_qr_scan"}, "fusion_lon": 0.0, "is_reserved": 0, "is_disabled": 0, "fusion_lat": 0.0, "type": "electric_scooter", "name": "f63cce3e9a0071c6629c49a190c1e3d5", "lat": 38.91762166666667, "bike_id": "f63cce3e9a0071c6629c49a190c1e3d5"}, {"lon": -77.03459583333333, "rental_uris": {"android": "https://dc.lft.to/lastmile_qr_scan", "ios": "https://dc.lft.to/lastmile_qr_scan"}, "fusion_lon": 0.0, "is_reserved": 0, "is_disabled": 0, "fusion_lat": 0.0, "type": "electric_scooter", "name": "94a96aa7b73e3cae8a557da47c9eda12", "lat": 38.903433166666666, "bike_id": "94a96aa7b73e3cae8a557da47c9eda12"}, {"lon": -77.03869483333334, "rental_uris": {"android": "https://dc.lft.to/lastmile_qr_scan", "ios": "https://dc.lft.to/lastmile_qr_scan"}, "fusion_lon": 0.0, "is_reserved": 0, "is_disabled": 0, "fusion_lat": 0.0, "type": "electric_scooter", "name": "225127bf89f2e3cc0ccfc4a2d92b80ac", "lat": 38.92432133333333, "bike_id": "225127bf89f2e3cc0ccfc4a2d92b80ac"}, {"lon": -77.04056316666667, "rental_uris": {"android": "https://dc.lft.to/lastmile_qr_scan", "ios": "https://dc.lft.to/lastmile_qr_scan"}, "fusion_lon": 0.0, "is_reserved": 0, "is_disabled": 0, "fusion_lat": 0.0, "type": "electric_scooter", "name": "fd310922b8354040bc15812605fee52a", "lat": 38.905999333333334, "bike_id": "fd310922b8354040bc15812605fee52a"}, {"lon": -77.04876183333333, "rental_uris": {"android": "https://dc.lft.to/lastmile_qr_scan", "ios": "https://dc.lft.to/lastmile_qr_scan"}, "fusion_lon": 0.0, "is_reserved": 0, "is_disabled": 0, "fusion_lat": 0.0, "type": "electric_scooter", "name": "6acc77fde256c0fd9a4c8a0b0ad88304", "lat": 38.916273, "bike_id": "6acc77fde256c0fd9a4c8a0b0ad88304"}, {"lon": -77.04302666666666, "rental_uris": {"android": "https://dc.lft.to/lastmile_qr_scan", "ios": "https://dc.lft.to/lastmile_qr_scan"}, "fusion_lon": 0.0, "is_reserved": 0, "is_disabled": 0, "fusion_lat": 0.0, "type": "electric_scooter", "name": "3e66ef8b2878c77fadfce9d962ebae42", "lat": 38.90573633333333, "bike_id": "3e66ef8b2878c77fadfce9d962ebae42"}, {"lon": -77.06750983333333, "rental_uris": {"android": "https://dc.lft.to/lastmile_qr_scan", "ios": "https://dc.lft.to/lastmile_qr_scan"}, "fusion_lon": 0.0, "is_reserved": 0, "is_disabled": 0, "fusion_lat": 0.0, "type": "electric_scooter", "name": "a57f44b5f32e8774d08b52055efb92f8", "lat": 38.905078333333336, "bike_id": "a57f44b5f32e8774d08b52055efb92f8"}, {"lon": -77.0149335, "rental_uris": {"android": "https://dc.lft.to/lastmile_qr_scan", "ios": "https://dc.lft.to/lastmile_qr_scan"}, "fusion_lon": 0.0, "is_reserved": 0, "is_disabled": 0, "fusion_lat": 0.0, "type": "electric_scooter", "name": "73f72c2a4acaebeb5ee440c96ca8e09b", "lat": 38.957619333333334, "bike_id": "73f72c2a4acaebeb5ee440c96ca8e09b"}, {"lon": -77.06937233333333, "rental_uris": {"android": "https://dc.lft.to/lastmile_qr_scan", "ios": "https://dc.lft.to/lastmile_qr_scan"}, "fusion_lon": 0.0, "is_reserved": 0, "is_disabled": 0, "fusion_lat": 0.0, "type": "electric_scooter", "name": "ef05b14f475f15ea189f1a848e11fe92", "lat": 38.91740866666667, "bike_id": "ef05b14f475f15ea189f1a848e11fe92"}, {"lon": -77.01404766666667, "rental_uris": {"android": "https://dc.lft.to/lastmile_qr_scan", "ios": "https://dc.lft.to/lastmile_qr_scan"}, "fusion_lon": 0.0, "is_reserved": 0, "is_disabled": 0, "fusion_lat": 0.0, "type": "electric_scooter", "name": "76850e18d0bbf0a9a46d28758ee6a1c2", "lat": 38.892191833333335, "bike_id": "76850e18d0bbf0a9a46d28758ee6a1c2"}, {"lon": -76.9988835, "rental_uris": {"android": "https://dc.lft.to/lastmile_qr_scan", "ios": "https://dc.lft.to/lastmile_qr_scan"}, "fusion_lon": 0.0, "is_reserved": 0, "is_disabled": 0, "fusion_lat": 0.0, "type": "electric_scooter", "name": "2669c03d688bcfb1d0f36eb21902d19e", "lat": 38.87919733333333, "bike_id": "2669c03d688bcfb1d0f36eb21902d19e"}, {"lon": -77.042056, "rental_uris": {"android": "https://dc.lft.to/lastmile_qr_scan", "ios": "https://dc.lft.to/lastmile_qr_scan"}, "fusion_lon": 0.0, "is_reserved": 0, "is_disabled": 0, "fusion_lat": 0.0, "type": "electric_scooter", "name": "3c18987dcf1a5b2c4f4fffed366d1a50", "lat": 38.899505833333336, "bike_id": "3c18987dcf1a5b2c4f4fffed366d1a50"}, {"lon": -77.05926016666666, "rental_uris": {"android": "https://dc.lft.to/lastmile_qr_scan", "ios": "https://dc.lft.to/lastmile_qr_scan"}, "fusion_lon": 0.0, "is_reserved": 0, "is_disabled": 0, "fusion_lat": 0.0, "type": "electric_scooter", "name": "f1004fa85f814e6eab0a457daa1105f9", "lat": 38.9431215, "bike_id": "f1004fa85f814e6eab0a457daa1105f9"}, {"lon": -77.0340305, "rental_uris": {"android": "https://dc.lft.to/lastmile_qr_scan", "ios": "https://dc.lft.to/lastmile_qr_scan"}, "fusion_lon": 0.0, "is_reserved": 0, "is_disabled": 0, "fusion_lat": 0.0, "type": "electric_scooter", "name": "3297ff3250864b56e961f997b1620663", "lat": 38.902643, "bike_id": "3297ff3250864b56e961f997b1620663"}, {"lon": -76.98647083333333, "rental_uris": {"android": "https://dc.lft.to/lastmile_qr_scan", "ios": "https://dc.lft.to/lastmile_qr_scan"}, "fusion_lon": 0.0, "is_reserved": 0, "is_disabled": 0, "fusion_lat": 0.0, "type": "electric_scooter", "name": "799ee15f6c33dca0e7a7ceade9e5c302", "lat": 38.89755183333333, "bike_id": "799ee15f6c33dca0e7a7ceade9e5c302"}, {"lon": -77.03190916666667, "rental_uris": {"android": "https://dc.lft.to/lastmile_qr_scan", "ios": "https://dc.lft.to/lastmile_qr_scan"}, "fusion_lon": 0.0, "is_reserved": 0, "is_disabled": 0, "fusion_lat": 0.0, "type": "electric_scooter", "name": "3bad8e913ec2dbd61888e434819aa0d4", "lat": 38.924828, "bike_id": "3bad8e913ec2dbd61888e434819aa0d4"}, {"lon": -77.0444225, "rental_uris": {"android": "https://dc.lft.to/lastmile_qr_scan", "ios": "https://dc.lft.to/lastmile_qr_scan"}, "fusion_lon": 0.0, "is_reserved": 0, "is_disabled": 0, "fusion_lat": 0.0, "type": "electric_scooter", "name": "be23c774aca42cb25c91a9a4f4ba8fbd", "lat": 38.91246816666666, "bike_id": "be23c774aca42cb25c91a9a4f4ba8fbd"}, {"lon": -77.03281783333334, "rental_uris": {"android": "https://dc.lft.to/lastmile_qr_scan", "ios": "https://dc.lft.to/lastmile_qr_scan"}, "fusion_lon": 0.0, "is_reserved": 0, "is_disabled": 0, "fusion_lat": 0.0, "type": "electric_scooter", "name": "5550afd1c7f63b22071521f10b28ae01", "lat": 38.937681833333336, "bike_id": "5550afd1c7f63b22071521f10b28ae01"}, {"lon": -77.0337615, "rental_uris": {"android": "https://dc.lft.to/lastmile_qr_scan", "ios": "https://dc.lft.to/lastmile_qr_scan"}, "fusion_lon": 0.0, "is_reserved": 0, "is_disabled": 0, "fusion_lat": 0.0, "type": "electric_scooter", "name": "f4e5f9cbefce4a636ef1ec7e0c4239f9", "lat": 38.900173333333335, "bike_id": "f4e5f9cbefce4a636ef1ec7e0c4239f9"}, {"lon": -77.0270005, "rental_uris": {"android": "https://dc.lft.to/lastmile_qr_scan", "ios": "https://dc.lft.to/lastmile_qr_scan"}, "fusion_lon": 0.0, "is_reserved": 0, "is_disabled": 0, "fusion_lat": 0.0, "type": "electric_scooter", "name": "18e80999ab15c3cbc31e208e394420e0", "lat": 38.906640833333334, "bike_id": "18e80999ab15c3cbc31e208e394420e0"}, {"lon": -77.0281955, "rental_uris": {"android": "https://dc.lft.to/lastmile_qr_scan", "ios": "https://dc.lft.to/lastmile_qr_scan"}, "fusion_lon": 0.0, "is_reserved": 0, "is_disabled": 0, "fusion_lat": 0.0, "type": "electric_scooter", "name": "5b02d8a9a47074670e271005e4e958ff", "lat": 38.88656366666667, "bike_id": "5b02d8a9a47074670e271005e4e958ff"}, {"lon": -77.03275333333333, "rental_uris": {"android": "https://dc.lft.to/lastmile_qr_scan", "ios": "https://dc.lft.to/lastmile_qr_scan"}, "fusion_lon": 0.0, "is_reserved": 0, "is_disabled": 0, "fusion_lat": 0.0, "type": "electric_scooter", "name": "36485ec2008acc2ace81ac6d590b9de5", "lat": 38.89902683333333, "bike_id": "36485ec2008acc2ace81ac6d590b9de5"}, {"lon": -77.01449333333333, "rental_uris": {"android": "https://dc.lft.to/lastmile_qr_scan", "ios": "https://dc.lft.to/lastmile_qr_scan"}, "fusion_lon": 0.0, "is_reserved": 0, "is_disabled": 0, "fusion_lat": 0.0, "type": "electric_scooter", "name": "bb5691f285c1d86815547610ba0ce465", "lat": 38.90232233333333, "bike_id": "bb5691f285c1d86815547610ba0ce465"}, {"lon": -77.02638083333333, "rental_uris": {"android": "https://dc.lft.to/lastmile_qr_scan", "ios": "https://dc.lft.to/lastmile_qr_scan"}, "fusion_lon": 0.0, "is_reserved": 0, "is_disabled": 0, "fusion_lat": 0.0, "type": "electric_scooter", "name": "71866d5e6feb1854574f13d4e7deedaa", "lat": 38.8810295, "bike_id": "71866d5e6feb1854574f13d4e7deedaa"}, {"lon": -77.04537533333334, "rental_uris": {"android": "https://dc.lft.to/lastmile_qr_scan", "ios": "https://dc.lft.to/lastmile_qr_scan"}, "fusion_lon": 0.0, "is_reserved": 0, "is_disabled": 0, "fusion_lat": 0.0, "type": "electric_scooter", "name": "3471a43e5f2e47f064be7367bb1b3344", "lat": 38.9120075, "bike_id": "3471a43e5f2e47f064be7367bb1b3344"}, {"lon": -77.02350233333334, "rental_uris": {"android": "https://dc.lft.to/lastmile_qr_scan", "ios": "https://dc.lft.to/lastmile_qr_scan"}, "fusion_lon": 0.0, "is_reserved": 0, "is_disabled": 0, "fusion_lat": 0.0, "type": "electric_scooter", "name": "152c15bd5b0ec07b2f86dfb5bb332401", "lat": 38.935285, "bike_id": "152c15bd5b0ec07b2f86dfb5bb332401"}, {"lon": -77.04354616666667, "rental_uris": {"android": "https://dc.lft.to/lastmile_qr_scan", "ios": "https://dc.lft.to/lastmile_qr_scan"}, "fusion_lon": 0.0, "is_reserved": 0, "is_disabled": 0, "fusion_lat": 0.0, "type": "electric_scooter", "name": "8a12a637c7bc28e99b77280f3547e2f0", "lat": 38.90547766666667, "bike_id": "8a12a637c7bc28e99b77280f3547e2f0"}, {"lon": -77.06918033333334, "rental_uris": {"android": "https://dc.lft.to/lastmile_qr_scan", "ios": "https://dc.lft.to/lastmile_qr_scan"}, "fusion_lon": 0.0, "is_reserved": 0, "is_disabled": 0, "fusion_lat": 0.0, "type": "electric_bike", "name": "fb4ab90f9b040c4f5caf533158cd736c", "lat": 38.80683916666667, "bike_id": "fb4ab90f9b040c4f5caf533158cd736c"}, {"lon": -77.011994, "rental_uris": {"android": "https://dc.lft.to/lastmile_qr_scan", "ios": "https://dc.lft.to/lastmile_qr_scan"}, "fusion_lon": 0.0, "is_reserved": 0, "is_disabled": 0, "fusion_lat": 0.0, "type": "electric_scooter", "name": "24ae3c932499ebbce791726b256ce3c8", "lat": 38.897945666666665, "bike_id": "24ae3c932499ebbce791726b256ce3c8"}, {"lon": -77.03636966666667, "rental_uris": {"android": "https://dc.lft.to/lastmile_qr_scan", "ios": "https://dc.lft.to/lastmile_qr_scan"}, "fusion_lon": 0.0, "is_reserved": 0, "is_disabled": 0, "fusion_lat": 0.0, "type": "electric_scooter", "name": "704b60d95fcc0ce0fe51dbce90eca315", "lat": 38.935061, "bike_id": "704b60d95fcc0ce0fe51dbce90eca315"}, {"lon": -77.03042, "rental_uris": {"android": "https://dc.lft.to/lastmile_qr_scan", "ios": "https://dc.lft.to/lastmile_qr_scan"}, "fusion_lon": 0.0, "is_reserved": 0, "is_disabled": 0, "fusion_lat": 0.0, "type": "electric_scooter", "name": "773dce80209071fd8b5387ea890594a2", "lat": 38.8975135, "bike_id": "773dce80209071fd8b5387ea890594a2"}, {"lon": -77.02215033333333, "rental_uris": {"android": "https://dc.lft.to/lastmile_qr_scan", "ios": "https://dc.lft.to/lastmile_qr_scan"}, "fusion_lon": 0.0, "is_reserved": 0, "is_disabled": 0, "fusion_lat": 0.0, "type": "electric_scooter", "name": "6d1f2fb2105ea2d171b29fccf39d5e3c", "lat": 38.897207, "bike_id": "6d1f2fb2105ea2d171b29fccf39d5e3c"}, {"lon": -77.04052266666666, "rental_uris": {"android": "https://dc.lft.to/lastmile_qr_scan", "ios": "https://dc.lft.to/lastmile_qr_scan"}, "fusion_lon": 0.0, "is_reserved": 0, "is_disabled": 0, "fusion_lat": 0.0, "type": "electric_scooter", "name": "4359c7c5482e5c3858ea2b7a1a0f1329", "lat": 38.908810333333335, "bike_id": "4359c7c5482e5c3858ea2b7a1a0f1329"}, {"lon": -77.03797883333333, "rental_uris": {"android": "https://dc.lft.to/lastmile_qr_scan", "ios": "https://dc.lft.to/lastmile_qr_scan"}, "fusion_lon": 0.0, "is_reserved": 0, "is_disabled": 0, "fusion_lat": 0.0, "type": "electric_scooter", "name": "f3daab79fedb19bc016aac1688af6631", "lat": 38.91801316666667, "bike_id": "f3daab79fedb19bc016aac1688af6631"}, {"lon": -77.022362, "rental_uris": {"android": "https://dc.lft.to/lastmile_qr_scan", "ios": "https://dc.lft.to/lastmile_qr_scan"}, "fusion_lon": 0.0, "is_reserved": 0, "is_disabled": 0, "fusion_lat": 0.0, "type": "electric_scooter", "name": "40e413d4f5fa58a43a315af48237d30c", "lat": 38.9246845, "bike_id": "40e413d4f5fa58a43a315af48237d30c"}, {"lon": -77.03241816666667, "rental_uris": {"android": "https://dc.lft.to/lastmile_qr_scan", "ios": "https://dc.lft.to/lastmile_qr_scan"}, "fusion_lon": 0.0, "is_reserved": 0, "is_disabled": 0, "fusion_lat": 0.0, "type": "electric_scooter", "name": "f5510f3adaf9563059151a20c9ba4e36", "lat": 38.96151166666667, "bike_id": "f5510f3adaf9563059151a20c9ba4e36"}, {"lon": -77.01031566666667, "rental_uris": {"android": "https://dc.lft.to/lastmile_qr_scan", "ios": "https://dc.lft.to/lastmile_qr_scan"}, "fusion_lon": 0.0, "is_reserved": 0, "is_disabled": 0, "fusion_lat": 0.0, "type": "electric_scooter", "name": "14c8a597ce88c83dc45b52bc2317da73", "lat": 38.920259333333334, "bike_id": "14c8a597ce88c83dc45b52bc2317da73"}, {"lon": -77.01476916666667, "rental_uris": {"android": "https://dc.lft.to/lastmile_qr_scan", "ios": "https://dc.lft.to/lastmile_qr_scan"}, "fusion_lon": 0.0, "is_reserved": 0, "is_disabled": 0, "fusion_lat": 0.0, "type": "electric_scooter", "name": "fe585c23dc10bb7f96ea1327f1561c17", "lat": 38.943326, "bike_id": "fe585c23dc10bb7f96ea1327f1561c17"}, {"lon": -77.02939066666667, "rental_uris": {"android": "https://dc.lft.to/lastmile_qr_scan", "ios": "https://dc.lft.to/lastmile_qr_scan"}, "fusion_lon": 0.0, "is_reserved": 0, "is_disabled": 0, "fusion_lat": 0.0, "type": "electric_scooter", "name": "ad08ccba74d8e61b5e4fa8ea5f95c077", "lat": 38.94272433333333, "bike_id": "ad08ccba74d8e61b5e4fa8ea5f95c077"}, {"lon": -76.93382883333334, "rental_uris": {"android": "https://dc.lft.to/lastmile_qr_scan", "ios": "https://dc.lft.to/lastmile_qr_scan"}, "fusion_lon": 0.0, "is_reserved": 0, "is_disabled": 0, "fusion_lat": 0.0, "type": "electric_scooter", "name": "a4aefc244301f5baaf9ed41afcd4b814", "lat": 38.899069833333336, "bike_id": "a4aefc244301f5baaf9ed41afcd4b814"}, {"lon": -77.03960866666667, "rental_uris": {"android": "https://dc.lft.to/lastmile_qr_scan", "ios": "https://dc.lft.to/lastmile_qr_scan"}, "fusion_lon": 0.0, "is_reserved": 0, "is_disabled": 0, "fusion_lat": 0.0, "type": "electric_scooter", "name": "c49bafda557d90fa36eb80b05d9eb3c5", "lat": 38.9012375, "bike_id": "c49bafda557d90fa36eb80b05d9eb3c5"}, {"lon": -76.9955255, "rental_uris": {"android": "https://dc.lft.to/lastmile_qr_scan", "ios": "https://dc.lft.to/lastmile_qr_scan"}, "fusion_lon": 0.0, "is_reserved": 0, "is_disabled": 0, "fusion_lat": 0.0, "type": "electric_scooter", "name": "1bcc90fdf07b1c7e00ac625be38fc1f9", "lat": 38.90025683333333, "bike_id": "1bcc90fdf07b1c7e00ac625be38fc1f9"}, {"lon": -77.03998, "rental_uris": {"android": "https://dc.lft.to/lastmile_qr_scan", "ios": "https://dc.lft.to/lastmile_qr_scan"}, "fusion_lon": 0.0, "is_reserved": 0, "is_disabled": 0, "fusion_lat": 0.0, "type": "electric_scooter", "name": "bd918125502decc58e513208a05919be", "lat": 38.924534, "bike_id": "bd918125502decc58e513208a05919be"}, {"lon": -77.03210166666666, "rental_uris": {"android": "https://dc.lft.to/lastmile_qr_scan", "ios": "https://dc.lft.to/lastmile_qr_scan"}, "fusion_lon": 0.0, "is_reserved": 0, "is_disabled": 0, "fusion_lat": 0.0, "type": "electric_scooter", "name": "45285bd1ab36b47c135396a3da8c8f97", "lat": 38.90022466666667, "bike_id": "45285bd1ab36b47c135396a3da8c8f97"}, {"lon": -77.0766225, "rental_uris": {"android": "https://dc.lft.to/lastmile_qr_scan", "ios": "https://dc.lft.to/lastmile_qr_scan"}, "fusion_lon": 0.0, "is_reserved": 0, "is_disabled": 0, "fusion_lat": 0.0, "type": "electric_bike", "name": "f5f05d864b05fd12670645f41629019b", "lat": 38.80969783333333, "bike_id": "f5f05d864b05fd12670645f41629019b"}, {"lon": -77.03214083333333, "rental_uris": {"android": "https://dc.lft.to/lastmile_qr_scan", "ios": "https://dc.lft.to/lastmile_qr_scan"}, "fusion_lon": 0.0, "is_reserved": 0, "is_disabled": 0, "fusion_lat": 0.0, "type": "electric_scooter", "name": "07a8d6a9cc8c3020740f2e6b7ea4e2fa", "lat": 38.9191955, "bike_id": "07a8d6a9cc8c3020740f2e6b7ea4e2fa"}, {"lon": -77.04368716666667, "rental_uris": {"android": "https://dc.lft.to/lastmile_qr_scan", "ios": "https://dc.lft.to/lastmile_qr_scan"}, "fusion_lon": 0.0, "is_reserved": 0, "is_disabled": 0, "fusion_lat": 0.0, "type": "electric_scooter", "name": "32f163e2c35fe0b4de4cf1cab422106b", "lat": 38.903803833333335, "bike_id": "32f163e2c35fe0b4de4cf1cab422106b"}, {"lon": -77.0257475, "rental_uris": {"android": "https://dc.lft.to/lastmile_qr_scan", "ios": "https://dc.lft.to/lastmile_qr_scan"}, "fusion_lon": 0.0, "is_reserved": 0, "is_disabled": 0, "fusion_lat": 0.0, "type": "electric_scooter", "name": "e5a3b12d75582c67c24946c041cca00a", "lat": 38.920437, "bike_id": "e5a3b12d75582c67c24946c041cca00a"}, {"lon": -77.04329933333334, "rental_uris": {"android": "https://dc.lft.to/lastmile_qr_scan", "ios": "https://dc.lft.to/lastmile_qr_scan"}, "fusion_lon": 0.0, "is_reserved": 0, "is_disabled": 0, "fusion_lat": 0.0, "type": "electric_scooter", "name": "bf49a3f07839b9d8fd531cdbae836b64", "lat": 38.90344733333333, "bike_id": "bf49a3f07839b9d8fd531cdbae836b64"}, {"lon": -77.061691, "rental_uris": {"android": "https://dc.lft.to/lastmile_qr_scan", "ios": "https://dc.lft.to/lastmile_qr_scan"}, "fusion_lon": 0.0, "is_reserved": 0, "is_disabled": 0, "fusion_lat": 0.0, "type": "electric_scooter", "name": "3bf8d2f408483feb3d1a582702b8a9d9", "lat": 38.943086666666666, "bike_id": "3bf8d2f408483feb3d1a582702b8a9d9"}, {"lon": -77.05341316666667, "rental_uris": {"android": "https://dc.lft.to/lastmile_qr_scan", "ios": "https://dc.lft.to/lastmile_qr_scan"}, "fusion_lon": 0.0, "is_reserved": 0, "is_disabled": 0, "fusion_lat": 0.0, "type": "electric_scooter", "name": "33b91aa08bbcab4460daffebdf95946e", "lat": 38.8987795, "bike_id": "33b91aa08bbcab4460daffebdf95946e"}, {"lon": -77.04489916666667, "rental_uris": {"android": "https://dc.lft.to/lastmile_qr_scan", "ios": "https://dc.lft.to/lastmile_qr_scan"}, "fusion_lon": 0.0, "is_reserved": 0, "is_disabled": 0, "fusion_lat": 0.0, "type": "electric_scooter", "name": "b8e0b023c8de7f01822e1a721cec32d9", "lat": 38.89938433333333, "bike_id": "b8e0b023c8de7f01822e1a721cec32d9"}, {"lon": -77.02943816666667, "rental_uris": {"android": "https://dc.lft.to/lastmile_qr_scan", "ios": "https://dc.lft.to/lastmile_qr_scan"}, "fusion_lon": 0.0, "is_reserved": 0, "is_disabled": 0, "fusion_lat": 0.0, "type": "electric_scooter", "name": "f37722c02a1012a68e0d52e917609aaf", "lat": 38.899301333333334, "bike_id": "f37722c02a1012a68e0d52e917609aaf"}, {"lon": -76.97224383333334, "rental_uris": {"android": "https://dc.lft.to/lastmile_qr_scan", "ios": "https://dc.lft.to/lastmile_qr_scan"}, "fusion_lon": 0.0, "is_reserved": 0, "is_disabled": 0, "fusion_lat": 0.0, "type": "electric_bike", "name": "aa6fd4d6a8e9232a11dbe17ccf9bd0e8", "lat": 38.900321166666664, "bike_id": "aa6fd4d6a8e9232a11dbe17ccf9bd0e8"}, {"lon": -76.99606666666666, "rental_uris": {"android": "https://dc.lft.to/lastmile_qr_scan", "ios": "https://dc.lft.to/lastmile_qr_scan"}, "fusion_lon": 0.0, "is_reserved": 0, "is_disabled": 0, "fusion_lat": 0.0, "type": "electric_scooter", "name": "8f035408bcadf617273045b4f4e6e573", "lat": 38.92054133333333, "bike_id": "8f035408bcadf617273045b4f4e6e573"}, {"lon": -77.11755383333333, "rental_uris": {"android": "https://dc.lft.to/lastmile_qr_scan", "ios": "https://dc.lft.to/lastmile_qr_scan"}, "fusion_lon": 0.0, "is_reserved": 0, "is_disabled": 0, "fusion_lat": 0.0, "type": "electric_bike", "name": "4917a017a15dec01f00a0aaff0f93a75", "lat": 38.812469166666666, "bike_id": "4917a017a15dec01f00a0aaff0f93a75"}, {"lon": -77.04248683333333, "rental_uris": {"android": "https://dc.lft.to/lastmile_qr_scan", "ios": "https://dc.lft.to/lastmile_qr_scan"}, "fusion_lon": 0.0, "is_reserved": 0, "is_disabled": 0, "fusion_lat": 0.0, "type": "electric_scooter", "name": "d549319151bc9850021e0c94a90f80ae", "lat": 38.9242755, "bike_id": "d549319151bc9850021e0c94a90f80ae"}, {"lon": -76.97335416666667, "rental_uris": {"android": "https://dc.lft.to/lastmile_qr_scan", "ios": "https://dc.lft.to/lastmile_qr_scan"}, "fusion_lon": 0.0, "is_reserved": 0, "is_disabled": 0, "fusion_lat": 0.0, "type": "electric_bike", "name": "bccc0cad7fdc93e65ee53893fc34397b", "lat": 38.85556716666667, "bike_id": "bccc0cad7fdc93e65ee53893fc34397b"}, {"lon": -77.04160183333333, "rental_uris": {"android": "https://dc.lft.to/lastmile_qr_scan", "ios": "https://dc.lft.to/lastmile_qr_scan"}, "fusion_lon": 0.0, "is_reserved": 0, "is_disabled": 0, "fusion_lat": 0.0, "type": "electric_scooter", "name": "fd226d400803310402b2596f48a88144", "lat": 38.907204166666666, "bike_id": "fd226d400803310402b2596f48a88144"}, {"lon": -77.03635066666666, "rental_uris": {"android": "https://dc.lft.to/lastmile_qr_scan", "ios": "https://dc.lft.to/lastmile_qr_scan"}, "fusion_lon": 0.0, "is_reserved": 0, "is_disabled": 0, "fusion_lat": 0.0, "type": "electric_scooter", "name": "816c11f0b5bb42921de64aab8fb00803", "lat": 38.906640333333335, "bike_id": "816c11f0b5bb42921de64aab8fb00803"}, {"lon": -77.0319155, "rental_uris": {"android": "https://dc.lft.to/lastmile_qr_scan", "ios": "https://dc.lft.to/lastmile_qr_scan"}, "fusion_lon": 0.0, "is_reserved": 0, "is_disabled": 0, "fusion_lat": 0.0, "type": "electric_scooter", "name": "da54b81de85f27999de6ac4e48d7820a", "lat": 38.930567833333335, "bike_id": "da54b81de85f27999de6ac4e48d7820a"}, {"lon": -77.03742533333333, "rental_uris": {"android": "https://dc.lft.to/lastmile_qr_scan", "ios": "https://dc.lft.to/lastmile_qr_scan"}, "fusion_lon": 0.0, "is_reserved": 0, "is_disabled": 0, "fusion_lat": 0.0, "type": "electric_scooter", "name": "8f78df25936e84322e1962d0d9ea5e91", "lat": 38.90762566666667, "bike_id": "8f78df25936e84322e1962d0d9ea5e91"}, {"lon": -77.0076505, "rental_uris": {"android": "https://dc.lft.to/lastmile_qr_scan", "ios": "https://dc.lft.to/lastmile_qr_scan"}, "fusion_lon": 0.0, "is_reserved": 0, "is_disabled": 0, "fusion_lat": 0.0, "type": "electric_scooter", "name": "88be23094a2974b45c34252def75ce7d", "lat": 38.871145, "bike_id": "88be23094a2974b45c34252def75ce7d"}, {"lon": -77.12982683333334, "rental_uris": {"android": "https://dc.lft.to/lastmile_qr_scan", "ios": "https://dc.lft.to/lastmile_qr_scan"}, "fusion_lon": 0.0, "is_reserved": 0, "is_disabled": 0, "fusion_lat": 0.0, "type": "electric_bike", "name": "a957e733ac1e4554a748f52d081aecce", "lat": 38.799805166666665, "bike_id": "a957e733ac1e4554a748f52d081aecce"}, {"lon": -77.0419625, "rental_uris": {"android": "https://dc.lft.to/lastmile_qr_scan", "ios": "https://dc.lft.to/lastmile_qr_scan"}, "fusion_lon": 0.0, "is_reserved": 0, "is_disabled": 0, "fusion_lat": 0.0, "type": "electric_scooter", "name": "6fc26dbb54d23f2b5fdfdb173d21d24c", "lat": 38.926075166666664, "bike_id": "6fc26dbb54d23f2b5fdfdb173d21d24c"}, {"lon": -76.98926816666666, "rental_uris": {"android": "https://dc.lft.to/lastmile_qr_scan", "ios": "https://dc.lft.to/lastmile_qr_scan"}, "fusion_lon": 0.0, "is_reserved": 0, "is_disabled": 0, "fusion_lat": 0.0, "type": "electric_scooter", "name": "5f37bab56b1876959752d7951d201038", "lat": 38.93812833333333, "bike_id": "5f37bab56b1876959752d7951d201038"}, {"lon": -77.01500333333334, "rental_uris": {"android": "https://dc.lft.to/lastmile_qr_scan", "ios": "https://dc.lft.to/lastmile_qr_scan"}, "fusion_lon": 0.0, "is_reserved": 0, "is_disabled": 0, "fusion_lat": 0.0, "type": "electric_scooter", "name": "d6a6070f863ae04de2fd3ee36c049601", "lat": 38.91759666666667, "bike_id": "d6a6070f863ae04de2fd3ee36c049601"}, {"lon": -76.99329216666666, "rental_uris": {"android": "https://dc.lft.to/lastmile_qr_scan", "ios": "https://dc.lft.to/lastmile_qr_scan"}, "fusion_lon": 0.0, "is_reserved": 0, "is_disabled": 0, "fusion_lat": 0.0, "type": "electric_scooter", "name": "90a46cfc8863cac3095b83676ed355d0", "lat": 38.90613116666667, "bike_id": "90a46cfc8863cac3095b83676ed355d0"}, {"lon": -77.0309085, "rental_uris": {"android": "https://dc.lft.to/lastmile_qr_scan", "ios": "https://dc.lft.to/lastmile_qr_scan"}, "fusion_lon": 0.0, "is_reserved": 0, "is_disabled": 0, "fusion_lat": 0.0, "type": "electric_scooter", "name": "b797e1bae8369a70fc42304a2989b902", "lat": 38.910516333333334, "bike_id": "b797e1bae8369a70fc42304a2989b902"}, {"lon": -77.03096816666667, "rental_uris": {"android": "https://dc.lft.to/lastmile_qr_scan", "ios": "https://dc.lft.to/lastmile_qr_scan"}, "fusion_lon": 0.0, "is_reserved": 0, "is_disabled": 0, "fusion_lat": 0.0, "type": "electric_scooter", "name": "8c209e971fb04537422efb078c5aba98", "lat": 38.899837833333336, "bike_id": "8c209e971fb04537422efb078c5aba98"}, {"lon": -77.021542, "rental_uris": {"android": "https://dc.lft.to/lastmile_qr_scan", "ios": "https://dc.lft.to/lastmile_qr_scan"}, "fusion_lon": 0.0, "is_reserved": 0, "is_disabled": 0, "fusion_lat": 0.0, "type": "electric_scooter", "name": "ba2c529a6df4b27f2af41a78a5955481", "lat": 38.9259755, "bike_id": "ba2c529a6df4b27f2af41a78a5955481"}, {"lon": -77.00061466666666, "rental_uris": {"android": "https://dc.lft.to/lastmile_qr_scan", "ios": "https://dc.lft.to/lastmile_qr_scan"}, "fusion_lon": 0.0, "is_reserved": 0, "is_disabled": 0, "fusion_lat": 0.0, "type": "electric_scooter", "name": "1cf805fe66c810c9469fdc2245b3001f", "lat": 38.8768715, "bike_id": "1cf805fe66c810c9469fdc2245b3001f"}, {"lon": -77.038612, "rental_uris": {"android": "https://dc.lft.to/lastmile_qr_scan", "ios": "https://dc.lft.to/lastmile_qr_scan"}, "fusion_lon": 0.0, "is_reserved": 0, "is_disabled": 0, "fusion_lat": 0.0, "type": "electric_scooter", "name": "86ce233ea58f8ad639467a39b596f38d", "lat": 38.90648783333334, "bike_id": "86ce233ea58f8ad639467a39b596f38d"}, {"lon": -76.93380816666667, "rental_uris": {"android": "https://dc.lft.to/lastmile_qr_scan", "ios": "https://dc.lft.to/lastmile_qr_scan"}, "fusion_lon": 0.0, "is_reserved": 0, "is_disabled": 0, "fusion_lat": 0.0, "type": "electric_scooter", "name": "612941c7ba50fb11cca1353f8cca91da", "lat": 38.89910666666667, "bike_id": "612941c7ba50fb11cca1353f8cca91da"}, {"lon": -76.96509333333333, "rental_uris": {"android": "https://dc.lft.to/lastmile_qr_scan", "ios": "https://dc.lft.to/lastmile_qr_scan"}, "fusion_lon": 0.0, "is_reserved": 0, "is_disabled": 0, "fusion_lat": 0.0, "type": "electric_scooter", "name": "6b36368f0e35641df72f01657b321f28", "lat": 38.87648383333333, "bike_id": "6b36368f0e35641df72f01657b321f28"}, {"lon": -77.0995035, "rental_uris": {"android": "https://dc.lft.to/lastmile_qr_scan", "ios": "https://dc.lft.to/lastmile_qr_scan"}, "fusion_lon": 0.0, "is_reserved": 0, "is_disabled": 0, "fusion_lat": 0.0, "type": "electric_bike", "name": "ed6ef25331d8d270afa772614ada15fa", "lat": 39.0148255, "bike_id": "ed6ef25331d8d270afa772614ada15fa"}, {"lon": -77.038375, "rental_uris": {"android": "https://dc.lft.to/lastmile_qr_scan", "ios": "https://dc.lft.to/lastmile_qr_scan"}, "fusion_lon": 0.0, "is_reserved": 0, "is_disabled": 0, "fusion_lat": 0.0, "type": "electric_scooter", "name": "6764e9c27db966ca4f7f6c4547f783e0", "lat": 38.92540366666667, "bike_id": "6764e9c27db966ca4f7f6c4547f783e0"}, {"lon": -77.005902, "rental_uris": {"android": "https://dc.lft.to/lastmile_qr_scan", "ios": "https://dc.lft.to/lastmile_qr_scan"}, "fusion_lon": 0.0, "is_reserved": 0, "is_disabled": 0, "fusion_lat": 0.0, "type": "electric_scooter", "name": "d0f6d642bf210a1da9a2e6626964759b", "lat": 38.905963666666665, "bike_id": "d0f6d642bf210a1da9a2e6626964759b"}, {"lon": -77.04242116666667, "rental_uris": {"android": "https://dc.lft.to/lastmile_qr_scan", "ios": "https://dc.lft.to/lastmile_qr_scan"}, "fusion_lon": 0.0, "is_reserved": 0, "is_disabled": 0, "fusion_lat": 0.0, "type": "electric_scooter", "name": "b4723524078987d553159814f6a1c356", "lat": 38.90640766666667, "bike_id": "b4723524078987d553159814f6a1c356"}, {"lon": -76.99726516666666, "rental_uris": {"android": "https://dc.lft.to/lastmile_qr_scan", "ios": "https://dc.lft.to/lastmile_qr_scan"}, "fusion_lon": 0.0, "is_reserved": 0, "is_disabled": 0, "fusion_lat": 0.0, "type": "electric_scooter", "name": "981550ed6f89bc25397d7d8cf8603a85", "lat": 38.91022383333333, "bike_id": "981550ed6f89bc25397d7d8cf8603a85"}, {"lon": -77.04355316666667, "rental_uris": {"android": "https://dc.lft.to/lastmile_qr_scan", "ios": "https://dc.lft.to/lastmile_qr_scan"}, "fusion_lon": 0.0, "is_reserved": 0, "is_disabled": 0, "fusion_lat": 0.0, "type": "electric_scooter", "name": "5c24b94eff00a342798d9a0ae3c295fd", "lat": 38.927915666666664, "bike_id": "5c24b94eff00a342798d9a0ae3c295fd"}, {"lon": -77.0501745, "rental_uris": {"android": "https://dc.lft.to/lastmile_qr_scan", "ios": "https://dc.lft.to/lastmile_qr_scan"}, "fusion_lon": 0.0, "is_reserved": 0, "is_disabled": 0, "fusion_lat": 0.0, "type": "electric_scooter", "name": "db1c19c335b24a29b6ad2496970e3158", "lat": 38.923342833333336, "bike_id": "db1c19c335b24a29b6ad2496970e3158"}, {"lon": -77.0432555, "rental_uris": {"android": "https://dc.lft.to/lastmile_qr_scan", "ios": "https://dc.lft.to/lastmile_qr_scan"}, "fusion_lon": 0.0, "is_reserved": 0, "is_disabled": 0, "fusion_lat": 0.0, "type": "electric_scooter", "name": "84f0489df381785c10ca4059f5da2a1d", "lat": 38.90896866666667, "bike_id": "84f0489df381785c10ca4059f5da2a1d"}, {"lon": -77.046004, "rental_uris": {"android": "https://dc.lft.to/lastmile_qr_scan", "ios": "https://dc.lft.to/lastmile_qr_scan"}, "fusion_lon": 0.0, "is_reserved": 0, "is_disabled": 0, "fusion_lat": 0.0, "type": "electric_scooter", "name": "ec5e00fa87de64c59ab14be82418b419", "lat": 38.91718383333333, "bike_id": "ec5e00fa87de64c59ab14be82418b419"}, {"lon": -77.0434755, "rental_uris": {"android": "https://dc.lft.to/lastmile_qr_scan", "ios": "https://dc.lft.to/lastmile_qr_scan"}, "fusion_lon": 0.0, "is_reserved": 0, "is_disabled": 0, "fusion_lat": 0.0, "type": "electric_scooter", "name": "32dc5f2d26d42d126c19527438d9445e", "lat": 38.9062035, "bike_id": "32dc5f2d26d42d126c19527438d9445e"}, {"lon": -77.0280035, "rental_uris": {"android": "https://dc.lft.to/lastmile_qr_scan", "ios": "https://dc.lft.to/lastmile_qr_scan"}, "fusion_lon": 0.0, "is_reserved": 0, "is_disabled": 0, "fusion_lat": 0.0, "type": "electric_scooter", "name": "b348ac7c91e034bad3bf3605fc9f6259", "lat": 38.892193166666665, "bike_id": "b348ac7c91e034bad3bf3605fc9f6259"}, {"lon": -77.0431385, "rental_uris": {"android": "https://dc.lft.to/lastmile_qr_scan", "ios": "https://dc.lft.to/lastmile_qr_scan"}, "fusion_lon": 0.0, "is_reserved": 0, "is_disabled": 0, "fusion_lat": 0.0, "type": "electric_scooter", "name": "a1d264d0add68c9b1b7352e3d2a07f01", "lat": 38.923594333333334, "bike_id": "a1d264d0add68c9b1b7352e3d2a07f01"}, {"lon": -77.023592, "rental_uris": {"android": "https://dc.lft.to/lastmile_qr_scan", "ios": "https://dc.lft.to/lastmile_qr_scan"}, "fusion_lon": 0.0, "is_reserved": 0, "is_disabled": 0, "fusion_lat": 0.0, "type": "electric_scooter", "name": "9b3e76bb8157474f9dea40b3d95a4353", "lat": 38.9205505, "bike_id": "9b3e76bb8157474f9dea40b3d95a4353"}, {"lon": -77.03794766666667, "rental_uris": {"android": "https://dc.lft.to/lastmile_qr_scan", "ios": "https://dc.lft.to/lastmile_qr_scan"}, "fusion_lon": 0.0, "is_reserved": 0, "is_disabled": 0, "fusion_lat": 0.0, "type": "electric_scooter", "name": "e14ab8a27fecd74c7e3bce7525df977c", "lat": 38.92546933333333, "bike_id": "e14ab8a27fecd74c7e3bce7525df977c"}, {"lon": -77.00597283333333, "rental_uris": {"android": "https://dc.lft.to/lastmile_qr_scan", "ios": "https://dc.lft.to/lastmile_qr_scan"}, "fusion_lon": 0.0, "is_reserved": 0, "is_disabled": 0, "fusion_lat": 0.0, "type": "electric_scooter", "name": "bb74b933eb0eda7bc020ecf36a65e06b", "lat": 38.9058965, "bike_id": "bb74b933eb0eda7bc020ecf36a65e06b"}, {"lon": -77.04863, "rental_uris": {"android": "https://dc.lft.to/lastmile_qr_scan", "ios": "https://dc.lft.to/lastmile_qr_scan"}, "fusion_lon": 0.0, "is_reserved": 0, "is_disabled": 0, "fusion_lat": 0.0, "type": "electric_scooter", "name": "23de76af296f7234bd67b85955a0010d", "lat": 38.8922135, "bike_id": "23de76af296f7234bd67b85955a0010d"}, {"lon": -77.032836, "rental_uris": {"android": "https://dc.lft.to/lastmile_qr_scan", "ios": "https://dc.lft.to/lastmile_qr_scan"}, "fusion_lon": 0.0, "is_reserved": 0, "is_disabled": 0, "fusion_lat": 0.0, "type": "electric_scooter", "name": "4f3bf3c74518013fbf1f9843260bfc1a", "lat": 38.93961266666667, "bike_id": "4f3bf3c74518013fbf1f9843260bfc1a"}, {"lon": -76.986592, "rental_uris": {"android": "https://dc.lft.to/lastmile_qr_scan", "ios": "https://dc.lft.to/lastmile_qr_scan"}, "fusion_lon": 0.0, "is_reserved": 0, "is_disabled": 0, "fusion_lat": 0.0, "type": "electric_scooter", "name": "63ac545ab60f892958c2de41046acb9f", "lat": 38.89347716666666, "bike_id": "63ac545ab60f892958c2de41046acb9f"}, {"lon": -77.031759, "rental_uris": {"android": "https://dc.lft.to/lastmile_qr_scan", "ios": "https://dc.lft.to/lastmile_qr_scan"}, "fusion_lon": 0.0, "is_reserved": 0, "is_disabled": 0, "fusion_lat": 0.0, "type": "electric_scooter", "name": "209e2e6e7207e90491d32046cba87c78", "lat": 38.901052666666665, "bike_id": "209e2e6e7207e90491d32046cba87c78"}, {"lon": -77.0247615, "rental_uris": {"android": "https://dc.lft.to/lastmile_qr_scan", "ios": "https://dc.lft.to/lastmile_qr_scan"}, "fusion_lon": 0.0, "is_reserved": 0, "is_disabled": 0, "fusion_lat": 0.0, "type": "electric_scooter", "name": "7caeb6a44b3429a91fbb608734048c73", "lat": 38.91807766666667, "bike_id": "7caeb6a44b3429a91fbb608734048c73"}, {"lon": -77.0216335, "rental_uris": {"android": "https://dc.lft.to/lastmile_qr_scan", "ios": "https://dc.lft.to/lastmile_qr_scan"}, "fusion_lon": 0.0, "is_reserved": 0, "is_disabled": 0, "fusion_lat": 0.0, "type": "electric_scooter", "name": "3bbf210f3d12701ca61af20e1d4132e8", "lat": 38.9245, "bike_id": "3bbf210f3d12701ca61af20e1d4132e8"}, {"lon": -77.01914566666666, "rental_uris": {"android": "https://dc.lft.to/lastmile_qr_scan", "ios": "https://dc.lft.to/lastmile_qr_scan"}, "fusion_lon": 0.0, "is_reserved": 0, "is_disabled": 0, "fusion_lat": 0.0, "type": "electric_scooter", "name": "9fc97f4e59445c004168b8a12e23efa5", "lat": 38.9226245, "bike_id": "9fc97f4e59445c004168b8a12e23efa5"}, {"lon": -77.0151325, "rental_uris": {"android": "https://dc.lft.to/lastmile_qr_scan", "ios": "https://dc.lft.to/lastmile_qr_scan"}, "fusion_lon": 0.0, "is_reserved": 0, "is_disabled": 0, "fusion_lat": 0.0, "type": "electric_scooter", "name": "78e1af4e410d83c03ca8a9046a9c5f21", "lat": 38.9579495, "bike_id": "78e1af4e410d83c03ca8a9046a9c5f21"}, {"lon": -76.946537, "rental_uris": {"android": "https://dc.lft.to/lastmile_qr_scan", "ios": "https://dc.lft.to/lastmile_qr_scan"}, "fusion_lon": 0.0, "is_reserved": 0, "is_disabled": 0, "fusion_lat": 0.0, "type": "electric_scooter", "name": "502840336ca1b61a3bbb0c69217311cf", "lat": 38.898207166666666, "bike_id": "502840336ca1b61a3bbb0c69217311cf"}, {"lon": -77.00200183333334, "rental_uris": {"android": "https://dc.lft.to/lastmile_qr_scan", "ios": "https://dc.lft.to/lastmile_qr_scan"}, "fusion_lon": 0.0, "is_reserved": 0, "is_disabled": 0, "fusion_lat": 0.0, "type": "electric_scooter", "name": "bbc437ee41c0e7af440502ea99c11166", "lat": 38.91160816666667, "bike_id": "bbc437ee41c0e7af440502ea99c11166"}, {"lon": -77.007459, "rental_uris": {"android": "https://dc.lft.to/lastmile_qr_scan", "ios": "https://dc.lft.to/lastmile_qr_scan"}, "fusion_lon": 0.0, "is_reserved": 0, "is_disabled": 0, "fusion_lat": 0.0, "type": "electric_scooter", "name": "c14c0ccee0ab0ccda5315123a117ccc0", "lat": 38.87834983333333, "bike_id": "c14c0ccee0ab0ccda5315123a117ccc0"}, {"lon": -77.00066083333333, "rental_uris": {"android": "https://dc.lft.to/lastmile_qr_scan", "ios": "https://dc.lft.to/lastmile_qr_scan"}, "fusion_lon": 0.0, "is_reserved": 0, "is_disabled": 0, "fusion_lat": 0.0, "type": "electric_scooter", "name": "32253438116020d6381ea26c5b92920d", "lat": 38.876877666666665, "bike_id": "32253438116020d6381ea26c5b92920d"}, {"lon": -77.03992516666666, "rental_uris": {"android": "https://dc.lft.to/lastmile_qr_scan", "ios": "https://dc.lft.to/lastmile_qr_scan"}, "fusion_lon": 0.0, "is_reserved": 0, "is_disabled": 0, "fusion_lat": 0.0, "type": "electric_scooter", "name": "1db55e4dcc9cd45a2efa21578b802020", "lat": 38.934313333333336, "bike_id": "1db55e4dcc9cd45a2efa21578b802020"}, {"lon": -77.06524366666666, "rental_uris": {"android": "https://dc.lft.to/lastmile_qr_scan", "ios": "https://dc.lft.to/lastmile_qr_scan"}, "fusion_lon": 0.0, "is_reserved": 0, "is_disabled": 0, "fusion_lat": 0.0, "type": "electric_scooter", "name": "c08fa8a8cfd854cbd9681d801c354035", "lat": 38.92415, "bike_id": "c08fa8a8cfd854cbd9681d801c354035"}, {"lon": -77.019469, "rental_uris": {"android": "https://dc.lft.to/lastmile_qr_scan", "ios": "https://dc.lft.to/lastmile_qr_scan"}, "fusion_lon": 0.0, "is_reserved": 0, "is_disabled": 0, "fusion_lat": 0.0, "type": "electric_scooter", "name": "ad6b72cdf9ad9fb34117fb1848dc7ee4", "lat": 38.9241455, "bike_id": "ad6b72cdf9ad9fb34117fb1848dc7ee4"}, {"lon": -77.04808383333334, "rental_uris": {"android": "https://dc.lft.to/lastmile_qr_scan", "ios": "https://dc.lft.to/lastmile_qr_scan"}, "fusion_lon": 0.0, "is_reserved": 0, "is_disabled": 0, "fusion_lat": 0.0, "type": "electric_bike", "name": "569d0a910d8ec840274e5f60bad39823", "lat": 38.983141333333336, "bike_id": "569d0a910d8ec840274e5f60bad39823"}, {"lon": -77.01217183333333, "rental_uris": {"android": "https://dc.lft.to/lastmile_qr_scan", "ios": "https://dc.lft.to/lastmile_qr_scan"}, "fusion_lon": 0.0, "is_reserved": 0, "is_disabled": 0, "fusion_lat": 0.0, "type": "electric_scooter", "name": "7ef5b8daa17b4e1f24e377a623eae6ae", "lat": 38.920286, "bike_id": "7ef5b8daa17b4e1f24e377a623eae6ae"}, {"lon": -76.9396815, "rental_uris": {"android": "https://dc.lft.to/lastmile_qr_scan", "ios": "https://dc.lft.to/lastmile_qr_scan"}, "fusion_lon": 0.0, "is_reserved": 0, "is_disabled": 0, "fusion_lat": 0.0, "type": "electric_bike", "name": "01868444c12b44b5f999fdbecf837b1d", "lat": 38.98802333333333, "bike_id": "01868444c12b44b5f999fdbecf837b1d"}, {"lon": -77.04492016666667, "rental_uris": {"android": "https://dc.lft.to/lastmile_qr_scan", "ios": "https://dc.lft.to/lastmile_qr_scan"}, "fusion_lon": 0.0, "is_reserved": 0, "is_disabled": 0, "fusion_lat": 0.0, "type": "electric_scooter", "name": "78c67a384aa803fdbad2014ab0c08319", "lat": 38.905494166666664, "bike_id": "78c67a384aa803fdbad2014ab0c08319"}, {"lon": -77.03583883333333, "rental_uris": {"android": "https://dc.lft.to/lastmile_qr_scan", "ios": "https://dc.lft.to/lastmile_qr_scan"}, "fusion_lon": 0.0, "is_reserved": 0, "is_disabled": 0, "fusion_lat": 0.0, "type": "electric_bike", "name": "ca11ac4c132af5bb0c7d17803ceec588", "lat": 38.992166833333336, "bike_id": "ca11ac4c132af5bb0c7d17803ceec588"}, {"lon": -77.02957433333333, "rental_uris": {"android": "https://dc.lft.to/lastmile_qr_scan", "ios": "https://dc.lft.to/lastmile_qr_scan"}, "fusion_lon": 0.0, "is_reserved": 0, "is_disabled": 0, "fusion_lat": 0.0, "type": "electric_scooter", "name": "7e4a3955296e7a5c6aea785d9d27503d", "lat": 38.91886566666667, "bike_id": "7e4a3955296e7a5c6aea785d9d27503d"}, {"lon": -77.0220315, "rental_uris": {"android": "https://dc.lft.to/lastmile_qr_scan", "ios": "https://dc.lft.to/lastmile_qr_scan"}, "fusion_lon": 0.0, "is_reserved": 0, "is_disabled": 0, "fusion_lat": 0.0, "type": "electric_scooter", "name": "a25a83315ccb23476320745886771aa2", "lat": 38.8871935, "bike_id": "a25a83315ccb23476320745886771aa2"}, {"lon": -77.0725925, "rental_uris": {"android": "https://dc.lft.to/lastmile_qr_scan", "ios": "https://dc.lft.to/lastmile_qr_scan"}, "fusion_lon": 0.0, "is_reserved": 0, "is_disabled": 0, "fusion_lat": 0.0, "type": "electric_scooter", "name": "d3e6a43049d2641877141fa6872ad5cf", "lat": 38.9343495, "bike_id": "d3e6a43049d2641877141fa6872ad5cf"}, {"lon": -77.0433045, "rental_uris": {"android": "https://dc.lft.to/lastmile_qr_scan", "ios": "https://dc.lft.to/lastmile_qr_scan"}, "fusion_lon": 0.0, "is_reserved": 0, "is_disabled": 0, "fusion_lat": 0.0, "type": "electric_scooter", "name": "27daaa59876b6f355f6e9baac54c0bb3", "lat": 38.928094, "bike_id": "27daaa59876b6f355f6e9baac54c0bb3"}, {"lon": -77.01506116666667, "rental_uris": {"android": "https://dc.lft.to/lastmile_qr_scan", "ios": "https://dc.lft.to/lastmile_qr_scan"}, "fusion_lon": 0.0, "is_reserved": 0, "is_disabled": 0, "fusion_lat": 0.0, "type": "electric_scooter", "name": "dd5b5c7e81ebbf1e95e88b7049e3ea44", "lat": 38.92671516666667, "bike_id": "dd5b5c7e81ebbf1e95e88b7049e3ea44"}, {"lon": -76.949743, "rental_uris": {"android": "https://dc.lft.to/lastmile_qr_scan", "ios": "https://dc.lft.to/lastmile_qr_scan"}, "fusion_lon": 0.0, "is_reserved": 0, "is_disabled": 0, "fusion_lat": 0.0, "type": "electric_scooter", "name": "9f966ab5aebe2079282458163243f083", "lat": 38.904165166666665, "bike_id": "9f966ab5aebe2079282458163243f083"}, {"lon": -77.00932, "rental_uris": {"android": "https://dc.lft.to/lastmile_qr_scan", "ios": "https://dc.lft.to/lastmile_qr_scan"}, "fusion_lon": 0.0, "is_reserved": 0, "is_disabled": 0, "fusion_lat": 0.0, "type": "electric_scooter", "name": "87751ef7da4fcd79ea87bce801d263bf", "lat": 38.9223415, "bike_id": "87751ef7da4fcd79ea87bce801d263bf"}, {"lon": -76.95242416666666, "rental_uris": {"android": "https://dc.lft.to/lastmile_qr_scan", "ios": "https://dc.lft.to/lastmile_qr_scan"}, "fusion_lon": 0.0, "is_reserved": 0, "is_disabled": 0, "fusion_lat": 0.0, "type": "electric_bike", "name": "22b4ff5635f5504024a4e7739a7dcedf", "lat": 38.88461383333333, "bike_id": "22b4ff5635f5504024a4e7739a7dcedf"}, {"lon": -77.03944433333334, "rental_uris": {"android": "https://dc.lft.to/lastmile_qr_scan", "ios": "https://dc.lft.to/lastmile_qr_scan"}, "fusion_lon": 0.0, "is_reserved": 0, "is_disabled": 0, "fusion_lat": 0.0, "type": "electric_scooter", "name": "39c05ff4d82d6a8072ffc1dbc70dce11", "lat": 38.908312333333335, "bike_id": "39c05ff4d82d6a8072ffc1dbc70dce11"}, {"lon": -77.01230116666666, "rental_uris": {"android": "https://dc.lft.to/lastmile_qr_scan", "ios": "https://dc.lft.to/lastmile_qr_scan"}, "fusion_lon": 0.0, "is_reserved": 0, "is_disabled": 0, "fusion_lat": 0.0, "type": "electric_scooter", "name": "7150bcbf05307777740cda138d1c2c46", "lat": 38.89333516666667, "bike_id": "7150bcbf05307777740cda138d1c2c46"}, {"lon": -77.02008566666666, "rental_uris": {"android": "https://dc.lft.to/lastmile_qr_scan", "ios": "https://dc.lft.to/lastmile_qr_scan"}, "fusion_lon": 0.0, "is_reserved": 0, "is_disabled": 0, "fusion_lat": 0.0, "type": "electric_scooter", "name": "a921c6b64437cceb47adf3d9ba68e1a3", "lat": 38.89953466666667, "bike_id": "a921c6b64437cceb47adf3d9ba68e1a3"}, {"lon": -77.001646, "rental_uris": {"android": "https://dc.lft.to/lastmile_qr_scan", "ios": "https://dc.lft.to/lastmile_qr_scan"}, "fusion_lon": 0.0, "is_reserved": 0, "is_disabled": 0, "fusion_lat": 0.0, "type": "electric_scooter", "name": "5b67b3c83d594dca68197c82850aedcd", "lat": 38.873727, "bike_id": "5b67b3c83d594dca68197c82850aedcd"}, {"lon": -77.0076305, "rental_uris": {"android": "https://dc.lft.to/lastmile_qr_scan", "ios": "https://dc.lft.to/lastmile_qr_scan"}, "fusion_lon": 0.0, "is_reserved": 0, "is_disabled": 0, "fusion_lat": 0.0, "type": "electric_bike", "name": "515a736beb188fff795ade97ed979354", "lat": 38.874699166666666, "bike_id": "515a736beb188fff795ade97ed979354"}, {"lon": -77.02172666666667, "rental_uris": {"android": "https://dc.lft.to/lastmile_qr_scan", "ios": "https://dc.lft.to/lastmile_qr_scan"}, "fusion_lon": 0.0, "is_reserved": 0, "is_disabled": 0, "fusion_lat": 0.0, "type": "electric_scooter", "name": "cc00d7d96b0b25af986491337abae9a9", "lat": 38.94286833333334, "bike_id": "cc00d7d96b0b25af986491337abae9a9"}, {"lon": -77.03189766666667, "rental_uris": {"android": "https://dc.lft.to/lastmile_qr_scan", "ios": "https://dc.lft.to/lastmile_qr_scan"}, "fusion_lon": 0.0, "is_reserved": 0, "is_disabled": 0, "fusion_lat": 0.0, "type": "electric_scooter", "name": "a95edcc632937ed459805976ac0474b4", "lat": 38.91192816666667, "bike_id": "a95edcc632937ed459805976ac0474b4"}, {"lon": -77.02004233333334, "rental_uris": {"android": "https://dc.lft.to/lastmile_qr_scan", "ios": "https://dc.lft.to/lastmile_qr_scan"}, "fusion_lon": 0.0, "is_reserved": 0, "is_disabled": 0, "fusion_lat": 0.0, "type": "electric_scooter", "name": "7754d36d495e73dd035d4e82bf407b17", "lat": 38.964382, "bike_id": "7754d36d495e73dd035d4e82bf407b17"}, {"lon": -77.041054, "rental_uris": {"android": "https://dc.lft.to/lastmile_qr_scan", "ios": "https://dc.lft.to/lastmile_qr_scan"}, "fusion_lon": 0.0, "is_reserved": 0, "is_disabled": 0, "fusion_lat": 0.0, "type": "electric_scooter", "name": "415a42ec957c3eee04a90c34264870c3", "lat": 38.89855683333333, "bike_id": "415a42ec957c3eee04a90c34264870c3"}, {"lon": -77.00894933333333, "rental_uris": {"android": "https://dc.lft.to/lastmile_qr_scan", "ios": "https://dc.lft.to/lastmile_qr_scan"}, "fusion_lon": 0.0, "is_reserved": 0, "is_disabled": 0, "fusion_lat": 0.0, "type": "electric_scooter", "name": "6b804b2bcb63d81d530b997da7e1d0a1", "lat": 38.95561983333333, "bike_id": "6b804b2bcb63d81d530b997da7e1d0a1"}, {"lon": -77.01954233333333, "rental_uris": {"android": "https://dc.lft.to/lastmile_qr_scan", "ios": "https://dc.lft.to/lastmile_qr_scan"}, "fusion_lon": 0.0, "is_reserved": 0, "is_disabled": 0, "fusion_lat": 0.0, "type": "electric_scooter", "name": "c76788c4b7af37cf8bdcbea3ecde510f", "lat": 38.9231625, "bike_id": "c76788c4b7af37cf8bdcbea3ecde510f"}, {"lon": -77.04190933333334, "rental_uris": {"android": "https://dc.lft.to/lastmile_qr_scan", "ios": "https://dc.lft.to/lastmile_qr_scan"}, "fusion_lon": 0.0, "is_reserved": 0, "is_disabled": 0, "fusion_lat": 0.0, "type": "electric_scooter", "name": "9742472da8a092d040d189bfc0421d83", "lat": 38.89920033333333, "bike_id": "9742472da8a092d040d189bfc0421d83"}, {"lon": -77.0283945, "rental_uris": {"android": "https://dc.lft.to/lastmile_qr_scan", "ios": "https://dc.lft.to/lastmile_qr_scan"}, "fusion_lon": 0.0, "is_reserved": 0, "is_disabled": 0, "fusion_lat": 0.0, "type": "electric_bike", "name": "5f1c4c85e15e2c37cb8fe8a908b52d8c", "lat": 38.9425555, "bike_id": "5f1c4c85e15e2c37cb8fe8a908b52d8c"}, {"lon": -77.01950133333334, "rental_uris": {"android": "https://dc.lft.to/lastmile_qr_scan", "ios": "https://dc.lft.to/lastmile_qr_scan"}, "fusion_lon": 0.0, "is_reserved": 0, "is_disabled": 0, "fusion_lat": 0.0, "type": "electric_scooter", "name": "b1ca95c3b85b7130d3dc756e51552faf", "lat": 38.92259883333333, "bike_id": "b1ca95c3b85b7130d3dc756e51552faf"}, {"lon": -77.01555966666666, "rental_uris": {"android": "https://dc.lft.to/lastmile_qr_scan", "ios": "https://dc.lft.to/lastmile_qr_scan"}, "fusion_lon": 0.0, "is_reserved": 0, "is_disabled": 0, "fusion_lat": 0.0, "type": "electric_scooter", "name": "2189d5a85c7ee96177d2402394ab52ca", "lat": 38.914633333333335, "bike_id": "2189d5a85c7ee96177d2402394ab52ca"}, {"lon": -76.95698666666667, "rental_uris": {"android": "https://dc.lft.to/lastmile_qr_scan", "ios": "https://dc.lft.to/lastmile_qr_scan"}, "fusion_lon": 0.0, "is_reserved": 0, "is_disabled": 0, "fusion_lat": 0.0, "type": "electric_bike", "name": "e5fee5ab3b7447aa2bd9c745e59bda53", "lat": 38.8508115, "bike_id": "e5fee5ab3b7447aa2bd9c745e59bda53"}, {"lon": -77.02390883333334, "rental_uris": {"android": "https://dc.lft.to/lastmile_qr_scan", "ios": "https://dc.lft.to/lastmile_qr_scan"}, "fusion_lon": 0.0, "is_reserved": 0, "is_disabled": 0, "fusion_lat": 0.0, "type": "electric_scooter", "name": "0e3f260842cb0c543f120c404d1cad53", "lat": 38.91751166666667, "bike_id": "0e3f260842cb0c543f120c404d1cad53"}, {"lon": -76.986789, "rental_uris": {"android": "https://dc.lft.to/lastmile_qr_scan", "ios": "https://dc.lft.to/lastmile_qr_scan"}, "fusion_lon": 0.0, "is_reserved": 0, "is_disabled": 0, "fusion_lat": 0.0, "type": "electric_bike", "name": "1a759383e2a180fefef7b528ff87736a", "lat": 38.83505683333333, "bike_id": "1a759383e2a180fefef7b528ff87736a"}, {"lon": -77.003332, "rental_uris": {"android": "https://dc.lft.to/lastmile_qr_scan", "ios": "https://dc.lft.to/lastmile_qr_scan"}, "fusion_lon": 0.0, "is_reserved": 0, "is_disabled": 0, "fusion_lat": 0.0, "type": "electric_scooter", "name": "35a0097036cad4660d430352354484f8", "lat": 38.89366616666667, "bike_id": "35a0097036cad4660d430352354484f8"}, {"lon": -77.02395616666666, "rental_uris": {"android": "https://dc.lft.to/lastmile_qr_scan", "ios": "https://dc.lft.to/lastmile_qr_scan"}, "fusion_lon": 0.0, "is_reserved": 0, "is_disabled": 0, "fusion_lat": 0.0, "type": "electric_scooter", "name": "30b9f17e088cdd7ce878800b3458777e", "lat": 38.936953, "bike_id": "30b9f17e088cdd7ce878800b3458777e"}, {"lon": -77.03289316666667, "rental_uris": {"android": "https://dc.lft.to/lastmile_qr_scan", "ios": "https://dc.lft.to/lastmile_qr_scan"}, "fusion_lon": 0.0, "is_reserved": 0, "is_disabled": 0, "fusion_lat": 0.0, "type": "electric_scooter", "name": "65ccb7a49645309847912a2317b184b5", "lat": 38.927512, "bike_id": "65ccb7a49645309847912a2317b184b5"}, {"lon": -77.04654933333333, "rental_uris": {"android": "https://dc.lft.to/lastmile_qr_scan", "ios": "https://dc.lft.to/lastmile_qr_scan"}, "fusion_lon": 0.0, "is_reserved": 0, "is_disabled": 0, "fusion_lat": 0.0, "type": "electric_scooter", "name": "1d4afdf0072cc3a4564a1231ce29ad15", "lat": 38.903278, "bike_id": "1d4afdf0072cc3a4564a1231ce29ad15"}, {"lon": -76.9972135, "rental_uris": {"android": "https://dc.lft.to/lastmile_qr_scan", "ios": "https://dc.lft.to/lastmile_qr_scan"}, "fusion_lon": 0.0, "is_reserved": 0, "is_disabled": 0, "fusion_lat": 0.0, "type": "electric_scooter", "name": "ca9fe31cc35577c864354ce15a37bc07", "lat": 38.894317, "bike_id": "ca9fe31cc35577c864354ce15a37bc07"}, {"lon": -76.954383, "rental_uris": {"android": "https://dc.lft.to/lastmile_qr_scan", "ios": "https://dc.lft.to/lastmile_qr_scan"}, "fusion_lon": 0.0, "is_reserved": 0, "is_disabled": 0, "fusion_lat": 0.0, "type": "electric_scooter", "name": "5c74ab22897b7b3f2d90d9bac97c7607", "lat": 38.889940333333335, "bike_id": "5c74ab22897b7b3f2d90d9bac97c7607"}, {"lon": -77.02810733333334, "rental_uris": {"android": "https://dc.lft.to/lastmile_qr_scan", "ios": "https://dc.lft.to/lastmile_qr_scan"}, "fusion_lon": 0.0, "is_reserved": 0, "is_disabled": 0, "fusion_lat": 0.0, "type": "electric_scooter", "name": "12cb2ca9fe58b4e1f09a4530cca88e1f", "lat": 38.89788133333333, "bike_id": "12cb2ca9fe58b4e1f09a4530cca88e1f"}, {"lon": -77.0082185, "rental_uris": {"android": "https://dc.lft.to/lastmile_qr_scan", "ios": "https://dc.lft.to/lastmile_qr_scan"}, "fusion_lon": 0.0, "is_reserved": 0, "is_disabled": 0, "fusion_lat": 0.0, "type": "electric_scooter", "name": "aaef4bf419630b2bfe83b4fd31ab46cc", "lat": 38.87913983333333, "bike_id": "aaef4bf419630b2bfe83b4fd31ab46cc"}, {"lon": -77.00225516666667, "rental_uris": {"android": "https://dc.lft.to/lastmile_qr_scan", "ios": "https://dc.lft.to/lastmile_qr_scan"}, "fusion_lon": 0.0, "is_reserved": 0, "is_disabled": 0, "fusion_lat": 0.0, "type": "electric_scooter", "name": "793a546c748aa790553163d4e1120691", "lat": 38.90005383333333, "bike_id": "793a546c748aa790553163d4e1120691"}, {"lon": -77.038657, "rental_uris": {"android": "https://dc.lft.to/lastmile_qr_scan", "ios": "https://dc.lft.to/lastmile_qr_scan"}, "fusion_lon": 0.0, "is_reserved": 0, "is_disabled": 0, "fusion_lat": 0.0, "type": "electric_scooter", "name": "71c9a42ae7fc80424d546a0d5c2b529a", "lat": 38.917071, "bike_id": "71c9a42ae7fc80424d546a0d5c2b529a"}, {"lon": -77.040015, "rental_uris": {"android": "https://dc.lft.to/lastmile_qr_scan", "ios": "https://dc.lft.to/lastmile_qr_scan"}, "fusion_lon": 0.0, "is_reserved": 0, "is_disabled": 0, "fusion_lat": 0.0, "type": "electric_scooter", "name": "5ec5c7101e0119107dc00bfdcf2ce35c", "lat": 38.934260333333334, "bike_id": "5ec5c7101e0119107dc00bfdcf2ce35c"}, {"lon": -77.02288483333334, "rental_uris": {"android": "https://dc.lft.to/lastmile_qr_scan", "ios": "https://dc.lft.to/lastmile_qr_scan"}, "fusion_lon": 0.0, "is_reserved": 0, "is_disabled": 0, "fusion_lat": 0.0, "type": "electric_scooter", "name": "d1dfe70e15d5af558cd7625fdabe7fcc", "lat": 38.9163505, "bike_id": "d1dfe70e15d5af558cd7625fdabe7fcc"}, {"lon": -76.962627, "rental_uris": {"android": "https://dc.lft.to/lastmile_qr_scan", "ios": "https://dc.lft.to/lastmile_qr_scan"}, "fusion_lon": 0.0, "is_reserved": 0, "is_disabled": 0, "fusion_lat": 0.0, "type": "electric_scooter", "name": "842649151c5c89d898361748b08b7ea7", "lat": 38.87864166666667, "bike_id": "842649151c5c89d898361748b08b7ea7"}, {"lon": -77.04997466666667, "rental_uris": {"android": "https://dc.lft.to/lastmile_qr_scan", "ios": "https://dc.lft.to/lastmile_qr_scan"}, "fusion_lon": 0.0, "is_reserved": 0, "is_disabled": 0, "fusion_lat": 0.0, "type": "electric_scooter", "name": "5514d6a785136f72d530cecf8807c194", "lat": 38.8992435, "bike_id": "5514d6a785136f72d530cecf8807c194"}, {"lon": -77.038937, "rental_uris": {"android": "https://dc.lft.to/lastmile_qr_scan", "ios": "https://dc.lft.to/lastmile_qr_scan"}, "fusion_lon": 0.0, "is_reserved": 0, "is_disabled": 0, "fusion_lat": 0.0, "type": "electric_scooter", "name": "de49b5c39e8f0d2bc48deda6b13dee70", "lat": 38.90651866666666, "bike_id": "de49b5c39e8f0d2bc48deda6b13dee70"}, {"lon": -77.03634566666666, "rental_uris": {"android": "https://dc.lft.to/lastmile_qr_scan", "ios": "https://dc.lft.to/lastmile_qr_scan"}, "fusion_lon": 0.0, "is_reserved": 0, "is_disabled": 0, "fusion_lat": 0.0, "type": "electric_scooter", "name": "0ab174c9278f6d23352081c68e30e83d", "lat": 38.903703166666666, "bike_id": "0ab174c9278f6d23352081c68e30e83d"}, {"lon": -77.0366165, "rental_uris": {"android": "https://dc.lft.to/lastmile_qr_scan", "ios": "https://dc.lft.to/lastmile_qr_scan"}, "fusion_lon": 0.0, "is_reserved": 0, "is_disabled": 0, "fusion_lat": 0.0, "type": "electric_scooter", "name": "5179639543e28145b064e625451e0df6", "lat": 38.909083833333334, "bike_id": "5179639543e28145b064e625451e0df6"}, {"lon": -76.93759333333334, "rental_uris": {"android": "https://dc.lft.to/lastmile_qr_scan", "ios": "https://dc.lft.to/lastmile_qr_scan"}, "fusion_lon": 0.0, "is_reserved": 0, "is_disabled": 0, "fusion_lat": 0.0, "type": "electric_scooter", "name": "9c6443528bb15be9770240d61d6f41d3", "lat": 38.8905265, "bike_id": "9c6443528bb15be9770240d61d6f41d3"}, {"lon": -77.0426525, "rental_uris": {"android": "https://dc.lft.to/lastmile_qr_scan", "ios": "https://dc.lft.to/lastmile_qr_scan"}, "fusion_lon": 0.0, "is_reserved": 0, "is_disabled": 0, "fusion_lat": 0.0, "type": "electric_scooter", "name": "a69d76e7b9fde08641ed553d438fc42c", "lat": 38.89949166666667, "bike_id": "a69d76e7b9fde08641ed553d438fc42c"}, {"lon": -77.04542983333333, "rental_uris": {"android": "https://dc.lft.to/lastmile_qr_scan", "ios": "https://dc.lft.to/lastmile_qr_scan"}, "fusion_lon": 0.0, "is_reserved": 0, "is_disabled": 0, "fusion_lat": 0.0, "type": "electric_scooter", "name": "57a8d5a7c54a9249a9954d86be760faa", "lat": 38.91824183333333, "bike_id": "57a8d5a7c54a9249a9954d86be760faa"}, {"lon": -77.024104, "rental_uris": {"android": "https://dc.lft.to/lastmile_qr_scan", "ios": "https://dc.lft.to/lastmile_qr_scan"}, "fusion_lon": 0.0, "is_reserved": 0, "is_disabled": 0, "fusion_lat": 0.0, "type": "electric_scooter", "name": "7abfe25e304b9bd66ca45e0b16b5f8c9", "lat": 38.9004785, "bike_id": "7abfe25e304b9bd66ca45e0b16b5f8c9"}, {"lon": -77.03955283333333, "rental_uris": {"android": "https://dc.lft.to/lastmile_qr_scan", "ios": "https://dc.lft.to/lastmile_qr_scan"}, "fusion_lon": 0.0, "is_reserved": 0, "is_disabled": 0, "fusion_lat": 0.0, "type": "electric_scooter", "name": "cc8ececca24f25cced6ec37a0764606a", "lat": 38.91591233333333, "bike_id": "cc8ececca24f25cced6ec37a0764606a"}, {"lon": -77.03229716666667, "rental_uris": {"android": "https://dc.lft.to/lastmile_qr_scan", "ios": "https://dc.lft.to/lastmile_qr_scan"}, "fusion_lon": 0.0, "is_reserved": 0, "is_disabled": 0, "fusion_lat": 0.0, "type": "electric_scooter", "name": "eb31fb41e45f39e9a1e2f6aacfdc914e", "lat": 38.917227833333335, "bike_id": "eb31fb41e45f39e9a1e2f6aacfdc914e"}, {"lon": -77.073442, "rental_uris": {"android": "https://dc.lft.to/lastmile_qr_scan", "ios": "https://dc.lft.to/lastmile_qr_scan"}, "fusion_lon": 0.0, "is_reserved": 0, "is_disabled": 0, "fusion_lat": 0.0, "type": "electric_scooter", "name": "729a516a5d6befdbe2b7c07674bdcfa7", "lat": 38.92258316666667, "bike_id": "729a516a5d6befdbe2b7c07674bdcfa7"}, {"lon": -77.05180766666666, "rental_uris": {"android": "https://dc.lft.to/lastmile_qr_scan", "ios": "https://dc.lft.to/lastmile_qr_scan"}, "fusion_lon": 0.0, "is_reserved": 0, "is_disabled": 0, "fusion_lat": 0.0, "type": "electric_scooter", "name": "52de0429f9d38b5bdc620b1c7baa4c69", "lat": 38.92421616666667, "bike_id": "52de0429f9d38b5bdc620b1c7baa4c69"},