{"data": {"bikes": [{"is_disabled": 0, "is_reserved": 0, "fusion_lat": 0.0, "lat": 38.84475333333334, "fusion_lon": 0.0, "rental_uris": {"ios": "https://dc.lft.to/lastmile_qr_scan", "android": "https://dc.lft.to/lastmile_qr_scan"}, "lon": -76.99585666666667, "bike_id": "79e5ba8cb01064183714c8d197c169ad", "type": "electric_bike", "name": "79e5ba8cb01064183714c8d197c169ad"}, {"is_disabled": 0, "is_reserved": 0, "fusion_lat": 0.0, "lat": 38.876961, "fusion_lon": 0.0, "rental_uris": {"ios": "https://dc.lft.to/lastmile_qr_scan", "android": "https://dc.lft.to/lastmile_qr_scan"}, "lon": -76.99624516666667, "bike_id": "7f4c49be7c8b0184bd737c1923d1c68e", "type": "electric_scooter", "name": "7f4c49be7c8b0184bd737c1923d1c68e"}, {"is_disabled": 0, "is_reserved": 0, "fusion_lat": 0.0, "lat": 38.922369333333336, "fusion_lon": 0.0, "rental_uris": {"ios": "https://dc.lft.to/lastmile_qr_scan", "android": "https://dc.lft.to/lastmile_qr_scan"}, "lon": -77.03665883333333, "bike_id": "70c7f67fa1ba9eb9e4f7bcff9a93cb34", "type": "electric_scooter", "name": "70c7f67fa1ba9eb9e4f7bcff9a93cb34"}, {"is_disabled": 0, "is_reserved": 0, "fusion_lat": 0.0, "lat": 38.938681, "fusion_lon": 0.0, "rental_uris": {"ios": "https://dc.lft.to/lastmile_qr_scan", "android": "https://dc.lft.to/lastmile_qr_scan"}, "lon": -77.030438, "bike_id": "7c841e967e476f10fbc539e73ec420cb", "type": "electric_scooter", "name": "7c841e967e476f10fbc539e73ec420cb"}, {"is_disabled": 0, "is_reserved": 0, "fusion_lat": 0.0, "lat": 38.87448916666666, "fusion_lon": 0.0, "rental_uris": {"ios": "https://dc.lft.to/lastmile_qr_scan", "android": "https://dc.lft.to/lastmile_qr_scan"}, "lon": -77.00288516666667, "bike_id": "72d01175b341f729e6a95752f1db0eb9", "type": "electric_scooter", "name": "72d01175b341f729e6a95752f1db0eb9"}, {"is_disabled": 0, "is_reserved": 0, "fusion_lat": 0.0, "lat": 38.94719766666667, "fusion_lon": 0.0, "rental_uris": {"ios": "https://dc.lft.to/lastmile_qr_scan", "android": "https://dc.lft.to/lastmile_qr_scan"}, "lon": -77.0262255, "bike_id": "f5c25dcfc8c28817db28d82be9be54cb", "type": "electric_scooter", "name": "f5c25dcfc8c28817db28d82be9be54cb"}, {"is_disabled": 0, "is_reserved": 0, "fusion_lat": 0.0, "lat": 38.92339183333333, "fusion_lon": 0.0, "rental_uris": {"ios": "https://dc.lft.to/lastmile_qr_scan", "android": "https://dc.lft.to/lastmile_qr_scan"}, "lon": -77.035359, "bike_id": "957fbba6915dddb263bae400540d380f", "type": "electric_scooter", "name": "957fbba6915dddb263bae400540d380f"}, {"is_disabled": 0, "is_reserved": 0, "fusion_lat": 0.0, "lat": 38.9256475, "fusion_lon": 0.0, "rental_uris": {"ios": "https://dc.lft.to/lastmile_qr_scan", "android": "https://dc.lft.to/lastmile_qr_scan"}, "lon": -77.02281983333333, "bike_id": "eeff1477c7d9b0263cb25ccbcb1ffa6e", "type": "electric_scooter", "name": "eeff1477c7d9b0263cb25ccbcb1ffa6e"}, {"is_disabled": 0, "is_reserved": 0, "fusion_lat": 0.0, "lat": 38.94516516666667, "fusion_lon": 0.0, "rental_uris": {"ios": "https://dc.lft.to/lastmile_qr_scan", "android": "https://dc.lft.to/lastmile_qr_scan"}, "lon": -77.02366316666667, "bike_id": "0381433bd926727b6846038446f7c635", "type": "electric_bike", "name": "0381433bd926727b6846038446f7c635"}, {"is_disabled": 0, "is_reserved": 0, "fusion_lat": 0.0, "lat": 38.876937166666664, "fusion_lon": 0.0, "rental_uris": {"ios": "https://dc.lft.to/lastmile_qr_scan", "android": "https://dc.lft.to/lastmile_qr_scan"}, "lon": -77.017602, "bike_id": "6cb6a274c515c29a8cef76d0bd3cb694", "type": "electric_scooter", "name": "6cb6a274c515c29a8cef76d0bd3cb694"}, {"is_disabled": 0, "is_reserved": 0, "fusion_lat": 0.0, "lat": 38.929089, "fusion_lon": 0.0, "rental_uris": {"ios": "https://dc.lft.to/lastmile_qr_scan", "android": "https://dc.lft.to/lastmile_qr_scan"}, "lon": -77.02615066666667, "bike_id": "00fa8a398a46ae4b89ee9649de8f76a5", "type": "electric_scooter", "name": "00fa8a398a46ae4b89ee9649de8f76a5"}, {"is_disabled": 0, "is_reserved": 0, "fusion_lat": 0.0, "lat": 38.94195066666666, "fusion_lon": 0.0, "rental_uris": {"ios": "https://dc.lft.to/lastmile_qr_scan", "android": "https://dc.lft.to/lastmile_qr_scan"}, "lon": -77.0882455, "bike_id": "7546f6f5d4a3eba5da36c3058d0f87f5", "type": "electric_scooter", "name": "7546f6f5d4a3eba5da36c3058d0f87f5"}, {"is_disabled": 0, "is_reserved": 0, "fusion_lat": 0.0, "lat": 38.905608, "fusion_lon": 0.0, "rental_uris": {"ios": "https://dc.lft.to/lastmile_qr_scan", "android": "https://dc.lft.to/lastmile_qr_scan"}, "lon": -77.0486425, "bike_id": "1dcb743a7088c0a36546d9495c0038dd", "type": "electric_scooter", "name": "1dcb743a7088c0a36546d9495c0038dd"}, {"is_disabled": 0, "is_reserved": 0, "fusion_lat": 0.0, "lat": 38.906183166666665, "fusion_lon": 0.0, "rental_uris": {"ios": "https://dc.lft.to/lastmile_qr_scan", "android": "https://dc.lft.to/lastmile_qr_scan"}, "lon": -77.03392716666667, "bike_id": "cdd68c7e20ef85d782ece02abc63ae3e", "type": "electric_scooter", "name": "cdd68c7e20ef85d782ece02abc63ae3e"}, {"is_disabled": 0, "is_reserved": 0, "fusion_lat": 0.0, "lat": 38.895503, "fusion_lon": 0.0, "rental_uris": {"ios": "https://dc.lft.to/lastmile_qr_scan", "android": "https://dc.lft.to/lastmile_qr_scan"}, "lon": -77.01564883333333, "bike_id": "1dd4406b3fefca686d7cc5c199b7fc26", "type": "electric_scooter", "name": "1dd4406b3fefca686d7cc5c199b7fc26"}, {"is_disabled": 0, "is_reserved": 0, "fusion_lat": 0.0, "lat": 38.930565666666666, "fusion_lon": 0.0, "rental_uris": {"ios": "https://dc.lft.to/lastmile_qr_scan", "android": "https://dc.lft.to/lastmile_qr_scan"}, "lon": -76.97327216666666, "bike_id": "edd178eaba7d0992daea2a8e69901544", "type": "electric_scooter", "name": "edd178eaba7d0992daea2a8e69901544"}, {"is_disabled": 0, "is_reserved": 0, "fusion_lat": 0.0, "lat": 38.92596283333334, "fusion_lon": 0.0, "rental_uris": {"ios": "https://dc.lft.to/lastmile_qr_scan", "android": "https://dc.lft.to/lastmile_qr_scan"}, "lon": -77.02495316666666, "bike_id": "2bab57ab4a286e2b1fc8fda3a49a8dd5", "type": "electric_scooter", "name": "2bab57ab4a286e2b1fc8fda3a49a8dd5"}, {"is_disabled": 0, "is_reserved": 0, "fusion_lat": 0.0, "lat": 38.95635716666666, "fusion_lon": 0.0, "rental_uris": {"ios": "https://dc.lft.to/lastmile_qr_scan", "android": "https://dc.lft.to/lastmile_qr_scan"}, "lon": -77.03631066666667, "bike_id": "73dbe4ede8c48164dea37a3449d3cc27", "type": "electric_scooter", "name": "73dbe4ede8c48164dea37a3449d3cc27"}, {"is_disabled": 0, "is_reserved": 0, "fusion_lat": 0.0, "lat": 38.933427, "fusion_lon": 0.0, "rental_uris": {"ios": "https://dc.lft.to/lastmile_qr_scan", "android": "https://dc.lft.to/lastmile_qr_scan"}, "lon": -77.01931883333333, "bike_id": "88594af8700c43f5d35a4f02999c9da2", "type": "electric_scooter", "name": "88594af8700c43f5d35a4f02999c9da2"}, {"is_disabled": 0, "is_reserved": 0, "fusion_lat": 0.0, "lat": 38.92741016666667, "fusion_lon": 0.0, "rental_uris": {"ios": "https://dc.lft.to/lastmile_qr_scan", "android": "https://dc.lft.to/lastmile_qr_scan"}, "lon": -77.02278333333334, "bike_id": "98551372d20c2cc9dd7c7bdb6d585f79", "type": "electric_scooter", "name": "98551372d20c2cc9dd7c7bdb6d585f79"}, {"is_disabled": 0, "is_reserved": 0, "fusion_lat": 0.0, "lat": 38.91735233333333, "fusion_lon": 0.0, "rental_uris": {"ios": "https://dc.lft.to/lastmile_qr_scan", "android": "https://dc.lft.to/lastmile_qr_scan"}, "lon": -77.02605583333333, "bike_id": "5eafb7734fafd632875d59896b2925e4", "type": "electric_scooter", "name": "5eafb7734fafd632875d59896b2925e4"}, {"is_disabled": 0, "is_reserved": 0, "fusion_lat": 0.0, "lat": 38.906076166666665, "fusion_lon": 0.0, "rental_uris": {"ios": "https://dc.lft.to/lastmile_qr_scan", "android": "https://dc.lft.to/lastmile_qr_scan"}, "lon": -77.02110533333334, "bike_id": "4a06e4beedab8e51a7cf2ed65f526c34", "type": "electric_scooter", "name": "4a06e4beedab8e51a7cf2ed65f526c34"}, {"is_disabled": 0, "is_reserved": 0, "fusion_lat": 0.0, "lat": 38.89086066666667, "fusion_lon": 0.0, "rental_uris": {"ios": "https://dc.lft.to/lastmile_qr_scan", "android": "https://dc.lft.to/lastmile_qr_scan"}, "lon": -76.954728, "bike_id": "780669c03b877907ed40aa60312e9543", "type": "electric_bike", "name": "780669c03b877907ed40aa60312e9543"}, {"is_disabled": 0, "is_reserved": 0, "fusion_lat": 0.0, "lat": 38.9324565, "fusion_lon": 0.0, "rental_uris": {"ios": "https://dc.lft.to/lastmile_qr_scan", "android": "https://dc.lft.to/lastmile_qr_scan"}, "lon": -77.02032633333333, "bike_id": "50d62d62d175a1ff6b4c62dee6c516e7", "type": "electric_scooter", "name": "50d62d62d175a1ff6b4c62dee6c516e7"}, {"is_disabled": 0, "is_reserved": 0, "fusion_lat": 0.0, "lat": 38.9191005, "fusion_lon": 0.0, "rental_uris": {"ios": "https://dc.lft.to/lastmile_qr_scan", "android": "https://dc.lft.to/lastmile_qr_scan"}, "lon": -77.03443283333333, "bike_id": "3287b78637d9f4eb848b4dae0c9fb31b", "type": "electric_scooter", "name": "3287b78637d9f4eb848b4dae0c9fb31b"}, {"is_disabled": 0, "is_reserved": 0, "fusion_lat": 0.0, "lat": 38.893456, "fusion_lon": 0.0, "rental_uris": {"ios": "https://dc.lft.to/lastmile_qr_scan", "android": "https://dc.lft.to/lastmile_qr_scan"}, "lon": -76.99381516666666, "bike_id": "a46ebd718f96fc9265a7abb8821c7d6a", "type": "electric_scooter", "name": "a46ebd718f96fc9265a7abb8821c7d6a"}, {"is_disabled": 0, "is_reserved": 0, "fusion_lat": 0.0, "lat": 38.89277933333334, "fusion_lon": 0.0, "rental_uris": {"ios": "https://dc.lft.to/lastmile_qr_scan", "android": "https://dc.lft.to/lastmile_qr_scan"}, "lon": -77.04503016666666, "bike_id": "a2876853eb8f6a6a0e0c459b86dbe051", "type": "electric_scooter", "name": "a2876853eb8f6a6a0e0c459b86dbe051"}, {"is_disabled": 0, "is_reserved": 0, "fusion_lat": 0.0, "lat": 38.84096316666667, "fusion_lon": 0.0, "rental_uris": {"ios": "https://dc.lft.to/lastmile_qr_scan", "android": "https://dc.lft.to/lastmile_qr_scan"}, "lon": -76.98713116666667, "bike_id": "7cd2e2116be506b3b011bca4b24cc6ae", "type": "electric_bike", "name": "7cd2e2116be506b3b011bca4b24cc6ae"}, {"is_disabled": 0, "is_reserved": 0, "fusion_lat": 0.0, "lat": 38.91043766666667, "fusion_lon": 0.0, "rental_uris": {"ios": "https://dc.lft.to/lastmile_qr_scan", "android": "https://dc.lft.to/lastmile_qr_scan"}, "lon": -76.997997, "bike_id": "8f9371dec0b3570d449185a87ca9f6e2", "type": "electric_scooter", "name": "8f9371dec0b3570d449185a87ca9f6e2"}, {"is_disabled": 0, "is_reserved": 0, "fusion_lat": 0.0, "lat": 38.92421616666667, "fusion_lon": 0.0, "rental_uris": {"ios": "https://dc.lft.to/lastmile_qr_scan", "android": "https://dc.lft.to/lastmile_qr_scan"}, "lon": -77.05753616666667, "bike_id": "2d28aa830bcccb98e0948b71a699d82c", "type": "electric_scooter", "name": "2d28aa830bcccb98e0948b71a699d82c"}, {"is_disabled": 0, "is_reserved": 0, "fusion_lat": 0.0, "lat": 38.91835316666667, "fusion_lon": 0.0, "rental_uris": {"ios": "https://dc.lft.to/lastmile_qr_scan", "android": "https://dc.lft.to/lastmile_qr_scan"}, "lon": -77.0531195, "bike_id": "678325d2b6ec46205a1867c0198b8878", "type": "electric_scooter", "name": "678325d2b6ec46205a1867c0198b8878"}, {"is_disabled": 0, "is_reserved": 0, "fusion_lat": 0.0, "lat": 38.9055325, "fusion_lon": 0.0, "rental_uris": {"ios": "https://dc.lft.to/lastmile_qr_scan", "android": "https://dc.lft.to/lastmile_qr_scan"}, "lon": -77.00435066666667, "bike_id": "660b761815aa2a6ef69cf0b821c15412", "type": "electric_scooter", "name": "660b761815aa2a6ef69cf0b821c15412"}, {"is_disabled": 0, "is_reserved": 0, "fusion_lat": 0.0, "lat": 38.934620833333334, "fusion_lon": 0.0, "rental_uris": {"ios": "https://dc.lft.to/lastmile_qr_scan", "android": "https://dc.lft.to/lastmile_qr_scan"}, "lon": -77.02389533333333, "bike_id": "53a351c509768c46460596f49e2652ae", "type": "electric_scooter", "name": "53a351c509768c46460596f49e2652ae"}, {"is_disabled": 0, "is_reserved": 0, "fusion_lat": 0.0, "lat": 38.9086065, "fusion_lon": 0.0, "rental_uris": {"ios": "https://dc.lft.to/lastmile_qr_scan", "android": "https://dc.lft.to/lastmile_qr_scan"}, "lon": -77.03524166666666, "bike_id": "c8c9214175a7de726c778d3b92e63eb6", "type": "electric_scooter", "name": "c8c9214175a7de726c778d3b92e63eb6"}, {"is_disabled": 0, "is_reserved": 0, "fusion_lat": 0.0, "lat": 38.908012166666666, "fusion_lon": 0.0, "rental_uris": {"ios": "https://dc.lft.to/lastmile_qr_scan", "android": "https://dc.lft.to/lastmile_qr_scan"}, "lon": -77.0384235, "bike_id": "4b3bb4d9de258d87869bcdc126740c9d", "type": "electric_scooter", "name": "4b3bb4d9de258d87869bcdc126740c9d"}, {"is_disabled": 0, "is_reserved": 0, "fusion_lat": 0.0, "lat": 38.92154016666667, "fusion_lon": 0.0, "rental_uris": {"ios": "https://dc.lft.to/lastmile_qr_scan", "android": "https://dc.lft.to/lastmile_qr_scan"}, "lon": -77.0365985, "bike_id": "79cce6836fb7f08a092b67348c227f1f", "type": "electric_scooter", "name": "79cce6836fb7f08a092b67348c227f1f"}, {"is_disabled": 0, "is_reserved": 0, "fusion_lat": 0.0, "lat": 38.9066535, "fusion_lon": 0.0, "rental_uris": {"ios": "https://dc.lft.to/lastmile_qr_scan", "android": "https://dc.lft.to/lastmile_qr_scan"}, "lon": -77.02961166666667, "bike_id": "86e838aacf599d476c798f54a19a811b", "type": "electric_scooter", "name": "86e838aacf599d476c798f54a19a811b"}, {"is_disabled": 0, "is_reserved": 0, "fusion_lat": 0.0, "lat": 38.923529, "fusion_lon": 0.0, "rental_uris": {"ios": "https://dc.lft.to/lastmile_qr_scan", "android": "https://dc.lft.to/lastmile_qr_scan"}, "lon": -77.05278233333334, "bike_id": "c2ba6b888e2c61bca636c2eb0de3764c", "type": "electric_scooter", "name": "c2ba6b888e2c61bca636c2eb0de3764c"}, {"is_disabled": 0, "is_reserved": 0, "fusion_lat": 0.0, "lat": 38.967959, "fusion_lon": 0.0, "rental_uris": {"ios": "https://dc.lft.to/lastmile_qr_scan", "android": "https://dc.lft.to/lastmile_qr_scan"}, "lon": -77.02562583333334, "bike_id": "08f41d8bf52e66499cedf2cb4d77d7fd", "type": "electric_scooter", "name": "08f41d8bf52e66499cedf2cb4d77d7fd"}, {"is_disabled": 0, "is_reserved": 0, "fusion_lat": 0.0, "lat": 38.90445716666667, "fusion_lon": 0.0, "rental_uris": {"ios": "https://dc.lft.to/lastmile_qr_scan", "android": "https://dc.lft.to/lastmile_qr_scan"}, "lon": -77.03114283333333, "bike_id": "be57cad56260670552126067af5825ef", "type": "electric_scooter", "name": "be57cad56260670552126067af5825ef"}, {"is_disabled": 0, "is_reserved": 0, "fusion_lat": 0.0, "lat": 38.905789666666664, "fusion_lon": 0.0, "rental_uris": {"ios": "https://dc.lft.to/lastmile_qr_scan", "android": "https://dc.lft.to/lastmile_qr_scan"}, "lon": -77.00697733333334, "bike_id": "73ce7a5db7dc1cb0a26387c5f305a4b7", "type": "electric_scooter", "name": "73ce7a5db7dc1cb0a26387c5f305a4b7"}, {"is_disabled": 0, "is_reserved": 0, "fusion_lat": 0.0, "lat": 38.91751933333333, "fusion_lon": 0.0, "rental_uris": {"ios": "https://dc.lft.to/lastmile_qr_scan", "android": "https://dc.lft.to/lastmile_qr_scan"}, "lon": -77.04760766666666, "bike_id": "50800348fb31c0eb214234cdd8e5606c", "type": "electric_scooter", "name": "50800348fb31c0eb214234cdd8e5606c"}, {"is_disabled": 0, "is_reserved": 0, "fusion_lat": 0.0, "lat": 38.9221275, "fusion_lon": 0.0, "rental_uris": {"ios": "https://dc.lft.to/lastmile_qr_scan", "android": "https://dc.lft.to/lastmile_qr_scan"}, "lon": -77.07441116666666, "bike_id": "faa653eee35eee03d37de94f6afcf347", "type": "electric_scooter", "name": "faa653eee35eee03d37de94f6afcf347"}, {"is_disabled": 0, "is_reserved": 0, "fusion_lat": 0.0, "lat": 38.90588266666666, "fusion_lon": 0.0, "rental_uris": {"ios": "https://dc.lft.to/lastmile_qr_scan", "android": "https://dc.lft.to/lastmile_qr_scan"}, "lon": -77.01609666666667, "bike_id": "fb52b9be10b91798a011ac9336b5e556", "type": "electric_scooter", "name": "fb52b9be10b91798a011ac9336b5e556"}, {"is_disabled": 0, "is_reserved": 0, "fusion_lat": 0.0, "lat": 38.8842485, "fusion_lon": 0.0, "rental_uris": {"ios": "https://dc.lft.to/lastmile_qr_scan", "android": "https://dc.lft.to/lastmile_qr_scan"}, "lon": -77.025002, "bike_id": "83f2a2448f6243cc8af7b8b46415e58b", "type": "electric_scooter", "name": "83f2a2448f6243cc8af7b8b46415e58b"}, {"is_disabled": 0, "is_reserved": 0, "fusion_lat": 0.0, "lat": 38.921402666666665, "fusion_lon": 0.0, "rental_uris": {"ios": "https://dc.lft.to/lastmile_qr_scan", "android": "https://dc.lft.to/lastmile_qr_scan"}, "lon": -77.045681, "bike_id": "3699d9517929fb95fa9b9209f2b26d60", "type": "electric_scooter", "name": "3699d9517929fb95fa9b9209f2b26d60"}, {"is_disabled": 0, "is_reserved": 0, "fusion_lat": 0.0, "lat": 38.918182, "fusion_lon": 0.0, "rental_uris": {"ios": "https://dc.lft.to/lastmile_qr_scan", "android": "https://dc.lft.to/lastmile_qr_scan"}, "lon": -77.02519433333333, "bike_id": "13e7f79e063b1663f453ba9101e928d0", "type": "electric_scooter", "name": "13e7f79e063b1663f453ba9101e928d0"}, {"is_disabled": 0, "is_reserved": 0, "fusion_lat": 0.0, "lat": 38.93079566666667, "fusion_lon": 0.0, "rental_uris": {"ios": "https://dc.lft.to/lastmile_qr_scan", "android": "https://dc.lft.to/lastmile_qr_scan"}, "lon": -77.031536, "bike_id": "b499ca5934f491a67f3057b64e9c4074", "type": "electric_scooter", "name": "b499ca5934f491a67f3057b64e9c4074"}, {"is_disabled": 0, "is_reserved": 0, "fusion_lat": 0.0, "lat": 38.9120325, "fusion_lon": 0.0, "rental_uris": {"ios": "https://dc.lft.to/lastmile_qr_scan", "android": "https://dc.lft.to/lastmile_qr_scan"}, "lon": -77.026893, "bike_id": "5666f5b83d8e39b2a5c0c62d30290807", "type": "electric_scooter", "name": "5666f5b83d8e39b2a5c0c62d30290807"}, {"is_disabled": 0, "is_reserved": 0, "fusion_lat": 0.0, "lat": 38.921635, "fusion_lon": 0.0, "rental_uris": {"ios": "https://dc.lft.to/lastmile_qr_scan", "android": "https://dc.lft.to/lastmile_qr_scan"}, "lon": -77.03666633333333, "bike_id": "912d52808824c4f1da054415f392f406", "type": "electric_scooter", "name": "912d52808824c4f1da054415f392f406"}, {"is_disabled": 0, "is_reserved": 0, "fusion_lat": 0.0, "lat": 38.91785866666667, "fusion_lon": 0.0, "rental_uris": {"ios": "https://dc.lft.to/lastmile_qr_scan", "android": "https://dc.lft.to/lastmile_qr_scan"}, "lon": -77.02301516666667, "bike_id": "ef7948abe7e60edd43e4a8847a756c57", "type": "electric_scooter", "name": "ef7948abe7e60edd43e4a8847a756c57"}, {"is_disabled": 0, "is_reserved": 0, "fusion_lat": 0.0, "lat": 38.896195, "fusion_lon": 0.0, "rental_uris": {"ios": "https://dc.lft.to/lastmile_qr_scan", "android": "https://dc.lft.to/lastmile_qr_scan"}, "lon": -77.02149866666667, "bike_id": "8b30ddc87a0f3283081bee068d4771c1", "type": "electric_scooter", "name": "8b30ddc87a0f3283081bee068d4771c1"}, {"is_disabled": 0, "is_reserved": 0, "fusion_lat": 0.0, "lat": 38.90501666666667, "fusion_lon": 0.0, "rental_uris": {"ios": "https://dc.lft.to/lastmile_qr_scan", "android": "https://dc.lft.to/lastmile_qr_scan"}, "lon": -77.0294525, "bike_id": "17262f5ceb13932f14e25b53f3d51a3d", "type": "electric_scooter", "name": "17262f5ceb13932f14e25b53f3d51a3d"}, {"is_disabled": 0, "is_reserved": 0, "fusion_lat": 0.0, "lat": 38.91554933333333, "fusion_lon": 0.0, "rental_uris": {"ios": "https://dc.lft.to/lastmile_qr_scan", "android": "https://dc.lft.to/lastmile_qr_scan"}, "lon": -77.05405116666667, "bike_id": "97a6f598318a0bb4e472aac06cda909b", "type": "electric_scooter", "name": "97a6f598318a0bb4e472aac06cda909b"}, {"is_disabled": 0, "is_reserved": 0, "fusion_lat": 0.0, "lat": 38.91203933333333, "fusion_lon": 0.0, "rental_uris": {"ios": "https://dc.lft.to/lastmile_qr_scan", "android": "https://dc.lft.to/lastmile_qr_scan"}, "lon": -77.020919, "bike_id": "0d5d999921694ad0501f82acf2a8769d", "type": "electric_scooter", "name": "0d5d999921694ad0501f82acf2a8769d"}, {"is_disabled": 0, "is_reserved": 0, "fusion_lat": 0.0, "lat": 38.9100455, "fusion_lon": 0.0, "rental_uris": {"ios": "https://dc.lft.to/lastmile_qr_scan", "android": "https://dc.lft.to/lastmile_qr_scan"}, "lon": -76.986151, "bike_id": "f5db9c86858db6427f3116f94a71d258", "type": "electric_scooter", "name": "f5db9c86858db6427f3116f94a71d258"}, {"is_disabled": 0, "is_reserved": 0, "fusion_lat": 0.0, "lat": 38.9176845, "fusion_lon": 0.0, "rental_uris": {"ios": "https://dc.lft.to/lastmile_qr_scan", "android": "https://dc.lft.to/lastmile_qr_scan"}, "lon": -77.023444, "bike_id": "3ac6506a76fa125312effed9a64dd3ac", "type": "electric_scooter", "name": "3ac6506a76fa125312effed9a64dd3ac"}, {"is_disabled": 0, "is_reserved": 0, "fusion_lat": 0.0, "lat": 38.9083385, "fusion_lon": 0.0, "rental_uris": {"ios": "https://dc.lft.to/lastmile_qr_scan", "android": "https://dc.lft.to/lastmile_qr_scan"}, "lon": -77.00090516666667, "bike_id": "50970570f1b7a66a683d1587361c8d93", "type": "electric_scooter", "name": "50970570f1b7a66a683d1587361c8d93"}, {"is_disabled": 0, "is_reserved": 0, "fusion_lat": 0.0, "lat": 38.924807333333334, "fusion_lon": 0.0, "rental_uris": {"ios": "https://dc.lft.to/lastmile_qr_scan", "android": "https://dc.lft.to/lastmile_qr_scan"}, "lon": -77.037551, "bike_id": "76e2c95c8e2da7096c50f73c63ec08d8", "type": "electric_scooter", "name": "76e2c95c8e2da7096c50f73c63ec08d8"}, {"is_disabled": 0, "is_reserved": 0, "fusion_lat": 0.0, "lat": 38.917912666666666, "fusion_lon": 0.0, "rental_uris": {"ios": "https://dc.lft.to/lastmile_qr_scan", "android": "https://dc.lft.to/lastmile_qr_scan"}, "lon": -77.03220366666666, "bike_id": "3c71836fe86119739f7ea75fe066cf95", "type": "electric_scooter", "name": "3c71836fe86119739f7ea75fe066cf95"}, {"is_disabled": 0, "is_reserved": 0, "fusion_lat": 0.0, "lat": 38.93753, "fusion_lon": 0.0, "rental_uris": {"ios": "https://dc.lft.to/lastmile_qr_scan", "android": "https://dc.lft.to/lastmile_qr_scan"}, "lon": -77.03435183333333, "bike_id": "315a90fba73fc093503a4f373ff2d95d", "type": "electric_scooter", "name": "315a90fba73fc093503a4f373ff2d95d"}, {"is_disabled": 0, "is_reserved": 0, "fusion_lat": 0.0, "lat": 38.93466933333333, "fusion_lon": 0.0, "rental_uris": {"ios": "https://dc.lft.to/lastmile_qr_scan", "android": "https://dc.lft.to/lastmile_qr_scan"}, "lon": -77.02400283333333, "bike_id": "4c0ee01db3d7d514dc2af5700afdd2be", "type": "electric_scooter", "name": "4c0ee01db3d7d514dc2af5700afdd2be"}, {"is_disabled": 0, "is_reserved": 0, "fusion_lat": 0.0, "lat": 38.92053083333333, "fusion_lon": 0.0, "rental_uris": {"ios": "https://dc.lft.to/lastmile_qr_scan", "android": "https://dc.lft.to/lastmile_qr_scan"}, "lon": -76.998873, "bike_id": "42362a86c111d21f17e9153799bcad50", "type": "electric_scooter", "name": "42362a86c111d21f17e9153799bcad50"}, {"is_disabled": 0, "is_reserved": 0, "fusion_lat": 0.0, "lat": 38.8481155, "fusion_lon": 0.0, "rental_uris": {"ios": "https://dc.lft.to/lastmile_qr_scan", "android": "https://dc.lft.to/lastmile_qr_scan"}, "lon": -77.08412516666667, "bike_id": "758afd71c9219ae0ab8add6883295cf5", "type": "electric_bike", "name": "758afd71c9219ae0ab8add6883295cf5"}, {"is_disabled": 0, "is_reserved": 0, "fusion_lat": 0.0, "lat": 38.880091166666666, "fusion_lon": 0.0, "rental_uris": {"ios": "https://dc.lft.to/lastmile_qr_scan", "android": "https://dc.lft.to/lastmile_qr_scan"}, "lon": -76.997383, "bike_id": "0587fe64074627f5472ccff5e79521a5", "type": "electric_scooter", "name": "0587fe64074627f5472ccff5e79521a5"}, {"is_disabled": 0, "is_reserved": 0, "fusion_lat": 0.0, "lat": 38.89247833333334, "fusion_lon": 0.0, "rental_uris": {"ios": "https://dc.lft.to/lastmile_qr_scan", "android": "https://dc.lft.to/lastmile_qr_scan"}, "lon": -77.03959166666667, "bike_id": "0686b37a62f8f9bc3625ce4440a03c62", "type": "electric_scooter", "name": "0686b37a62f8f9bc3625ce4440a03c62"}, {"is_disabled": 0, "is_reserved": 0, "fusion_lat": 0.0, "lat": 38.918814, "fusion_lon": 0.0, "rental_uris": {"ios": "https://dc.lft.to/lastmile_qr_scan", "android": "https://dc.lft.to/lastmile_qr_scan"}, "lon": -77.04181433333333, "bike_id": "0185fa9d3a82e02e860b340c3170ffd6", "type": "electric_scooter", "name": "0185fa9d3a82e02e860b340c3170ffd6"}, {"is_disabled": 0, "is_reserved": 0, "fusion_lat": 0.0, "lat": 38.918224333333335, "fusion_lon": 0.0, "rental_uris": {"ios": "https://dc.lft.to/lastmile_qr_scan", "android": "https://dc.lft.to/lastmile_qr_scan"}, "lon": -77.01214533333334, "bike_id": "b676dc570a6ef8e107eefd3f275611b0", "type": "electric_scooter", "name": "b676dc570a6ef8e107eefd3f275611b0"}, {"is_disabled": 0, "is_reserved": 0, "fusion_lat": 0.0, "lat": 38.92706966666667, "fusion_lon": 0.0, "rental_uris": {"ios": "https://dc.lft.to/lastmile_qr_scan", "android": "https://dc.lft.to/lastmile_qr_scan"}, "lon": -77.03730216666666, "bike_id": "016c3cb46798e7b219a67f5ecdc520b3", "type": "electric_scooter", "name": "016c3cb46798e7b219a67f5ecdc520b3"}, {"is_disabled": 0, "is_reserved": 0, "fusion_lat": 0.0, "lat": 38.927224, "fusion_lon": 0.0, "rental_uris": {"ios": "https://dc.lft.to/lastmile_qr_scan", "android": "https://dc.lft.to/lastmile_qr_scan"}, "lon": -77.05141266666666, "bike_id": "c45f1e1b4a140f775b30ff842decbf3b", "type": "electric_scooter", "name": "c45f1e1b4a140f775b30ff842decbf3b"}, {"is_disabled": 0, "is_reserved": 0, "fusion_lat": 0.0, "lat": 38.910481833333336, "fusion_lon": 0.0, "rental_uris": {"ios": "https://dc.lft.to/lastmile_qr_scan", "android": "https://dc.lft.to/lastmile_qr_scan"}, "lon": -77.06098833333333, "bike_id": "bbad1dd2276ffb462ccb0a4a7637f3cf", "type": "electric_scooter", "name": "bbad1dd2276ffb462ccb0a4a7637f3cf"}, {"is_disabled": 0, "is_reserved": 0, "fusion_lat": 0.0, "lat": 38.95922183333333, "fusion_lon": 0.0, "rental_uris": {"ios": "https://dc.lft.to/lastmile_qr_scan", "android": "https://dc.lft.to/lastmile_qr_scan"}, "lon": -76.92510866666667, "bike_id": "356a35e61320d1abb6da10a0e9e16be9", "type": "electric_bike", "name": "356a35e61320d1abb6da10a0e9e16be9"}, {"is_disabled": 0, "is_reserved": 0, "fusion_lat": 0.0, "lat": 38.89882383333333, "fusion_lon": 0.0, "rental_uris": {"ios": "https://dc.lft.to/lastmile_qr_scan", "android": "https://dc.lft.to/lastmile_qr_scan"}, "lon": -76.93174883333333, "bike_id": "677a84396db1ad6defc88b4e0d0a4aa6", "type": "electric_scooter", "name": "677a84396db1ad6defc88b4e0d0a4aa6"}, {"is_disabled": 0, "is_reserved": 0, "fusion_lat": 0.0, "lat": 38.922496833333334, "fusion_lon": 0.0, "rental_uris": {"ios": "https://dc.lft.to/lastmile_qr_scan", "android": "https://dc.lft.to/lastmile_qr_scan"}, "lon": -77.031787, "bike_id": "56087a4386e36e996dd4f20f895adca0", "type": "electric_scooter", "name": "56087a4386e36e996dd4f20f895adca0"}, {"is_disabled": 0, "is_reserved": 0, "fusion_lat": 0.0, "lat": 38.90470916666666, "fusion_lon": 0.0, "rental_uris": {"ios": "https://dc.lft.to/lastmile_qr_scan", "android": "https://dc.lft.to/lastmile_qr_scan"}, "lon": -77.039068, "bike_id": "c846b6d0b8e38912eeff6a8d64dca74f", "type": "electric_scooter", "name": "c846b6d0b8e38912eeff6a8d64dca74f"}, {"is_disabled": 0, "is_reserved": 0, "fusion_lat": 0.0, "lat": 38.863685, "fusion_lon": 0.0, "rental_uris": {"ios": "https://dc.lft.to/lastmile_qr_scan", "android": "https://dc.lft.to/lastmile_qr_scan"}, "lon": -77.0136535, "bike_id": "06ee98ee7effdc0c7293a1beed121580", "type": "electric_scooter", "name": "06ee98ee7effdc0c7293a1beed121580"}, {"is_disabled": 0, "is_reserved": 0, "fusion_lat": 0.0, "lat": 38.89955283333333, "fusion_lon": 0.0, "rental_uris": {"ios": "https://dc.lft.to/lastmile_qr_scan", "android": "https://dc.lft.to/lastmile_qr_scan"}, "lon": -77.04768183333333, "bike_id": "40949013544f8ffad01c0b3254cb2ea3", "type": "electric_scooter", "name": "40949013544f8ffad01c0b3254cb2ea3"}, {"is_disabled": 0, "is_reserved": 0, "fusion_lat": 0.0, "lat": 38.8947805, "fusion_lon": 0.0, "rental_uris": {"ios": "https://dc.lft.to/lastmile_qr_scan", "android": "https://dc.lft.to/lastmile_qr_scan"}, "lon": -77.00274066666667, "bike_id": "c5f05dcb18a7b60762d949e616082889", "type": "electric_scooter", "name": "c5f05dcb18a7b60762d949e616082889"}, {"is_disabled": 0, "is_reserved": 0, "fusion_lat": 0.0, "lat": 38.87563516666667, "fusion_lon": 0.0, "rental_uris": {"ios": "https://dc.lft.to/lastmile_qr_scan", "android": "https://dc.lft.to/lastmile_qr_scan"}, "lon": -77.04709583333333, "bike_id": "5739cc70d115fdd29e68bf1e469db07f", "type": "electric_bike", "name": "5739cc70d115fdd29e68bf1e469db07f"}, {"is_disabled": 0, "is_reserved": 0, "fusion_lat": 0.0, "lat": 38.908889333333335, "fusion_lon": 0.0, "rental_uris": {"ios": "https://dc.lft.to/lastmile_qr_scan", "android": "https://dc.lft.to/lastmile_qr_scan"}, "lon": -77.0466435, "bike_id": "87b73079e9cbc29ed75c22f8a6fdf310", "type": "electric_scooter", "name": "87b73079e9cbc29ed75c22f8a6fdf310"}, {"is_disabled": 0, "is_reserved": 0, "fusion_lat": 0.0, "lat": 38.9075255, "fusion_lon": 0.0, "rental_uris": {"ios": "https://dc.lft.to/lastmile_qr_scan", "android": "https://dc.lft.to/lastmile_qr_scan"}, "lon": -76.99991466666667, "bike_id": "484072d2bf721082b0a4f01a6424a9ea", "type": "electric_scooter", "name": "484072d2bf721082b0a4f01a6424a9ea"}, {"is_disabled": 0, "is_reserved": 0, "fusion_lat": 0.0, "lat": 38.9985405, "fusion_lon": 0.0, "rental_uris": {"ios": "https://dc.lft.to/lastmile_qr_scan", "android": "https://dc.lft.to/lastmile_qr_scan"}, "lon": -77.00255016666667, "bike_id": "f7d3c4958cc60b2917363ffa952a5a2a", "type": "electric_bike", "name": "f7d3c4958cc60b2917363ffa952a5a2a"}, {"is_disabled": 0, "is_reserved": 0, "fusion_lat": 0.0, "lat": 38.91276716666667, "fusion_lon": 0.0, "rental_uris": {"ios": "https://dc.lft.to/lastmile_qr_scan", "android": "https://dc.lft.to/lastmile_qr_scan"}, "lon": -77.046656, "bike_id": "2467ba891113ed917af61583061d7e43", "type": "electric_scooter", "name": "2467ba891113ed917af61583061d7e43"}, {"is_disabled": 0, "is_reserved": 0, "fusion_lat": 0.0, "lat": 39.04232433333333, "fusion_lon": 0.0, "rental_uris": {"ios": "https://dc.lft.to/lastmile_qr_scan", "android": "https://dc.lft.to/lastmile_qr_scan"}, "lon": -76.99739133333334, "bike_id": "72499af19be5ddc427e762b9f81ca777", "type": "electric_bike", "name": "72499af19be5ddc427e762b9f81ca777"}, {"is_disabled": 0, "is_reserved": 0, "fusion_lat": 0.0, "lat": 38.91131433333334, "fusion_lon": 0.0, "rental_uris": {"ios": "https://dc.lft.to/lastmile_qr_scan", "android": "https://dc.lft.to/lastmile_qr_scan"}, "lon": -76.99749316666667, "bike_id": "28de7e3c7680046f48eb72a1a5c69667", "type": "electric_scooter", "name": "28de7e3c7680046f48eb72a1a5c69667"}, {"is_disabled": 0, "is_reserved": 0, "fusion_lat": 0.0, "lat": 38.96780716666667, "fusion_lon": 0.0, "rental_uris": {"ios": "https://dc.lft.to/lastmile_qr_scan", "android": "https://dc.lft.to/lastmile_qr_scan"}, "lon": -76.99647, "bike_id": "d13c6eddea0bbbb4536b637054696988", "type": "electric_bike", "name": "d13c6eddea0bbbb4536b637054696988"}, {"is_disabled": 0, "is_reserved": 0, "fusion_lat": 0.0, "lat": 38.9051475, "fusion_lon": 0.0, "rental_uris": {"ios": "https://dc.lft.to/lastmile_qr_scan", "android": "https://dc.lft.to/lastmile_qr_scan"}, "lon": -77.06120866666667, "bike_id": "63505aefdede6f265995d0c01cf03544", "type": "electric_scooter", "name": "63505aefdede6f265995d0c01cf03544"}, {"is_disabled": 0, "is_reserved": 0, "fusion_lat": 0.0, "lat": 38.8919675, "fusion_lon": 0.0, "rental_uris": {"ios": "https://dc.lft.to/lastmile_qr_scan", "android": "https://dc.lft.to/lastmile_qr_scan"}, "lon": -77.00297383333333, "bike_id": "1e1deb3da28101e0d72771b07e8cad07", "type": "electric_scooter", "name": "1e1deb3da28101e0d72771b07e8cad07"}, {"is_disabled": 0, "is_reserved": 0, "fusion_lat": 0.0, "lat": 38.93349083333333, "fusion_lon": 0.0, "rental_uris": {"ios": "https://dc.lft.to/lastmile_qr_scan", "android": "https://dc.lft.to/lastmile_qr_scan"}, "lon": -77.02564233333334, "bike_id": "cd2a3a18184a0e76ab2ead834b47876c", "type": "electric_scooter", "name": "cd2a3a18184a0e76ab2ead834b47876c"}, {"is_disabled": 0, "is_reserved": 0, "fusion_lat": 0.0, "lat": 38.9622695, "fusion_lon": 0.0, "rental_uris": {"ios": "https://dc.lft.to/lastmile_qr_scan", "android": "https://dc.lft.to/lastmile_qr_scan"}, "lon": -77.0262925, "bike_id": "57dfbcba8d6df9fbe6a33063c842950e", "type": "electric_bike", "name": "57dfbcba8d6df9fbe6a33063c842950e"}, {"is_disabled": 0, "is_reserved": 0, "fusion_lat": 0.0, "lat": 38.92450783333334, "fusion_lon": 0.0, "rental_uris": {"ios": "https://dc.lft.to/lastmile_qr_scan", "android": "https://dc.lft.to/lastmile_qr_scan"}, "lon": -77.02039116666667, "bike_id": "52d037065dcd82aef3ea46aa9af756a3", "type": "electric_scooter", "name": "52d037065dcd82aef3ea46aa9af756a3"}, {"is_disabled": 0, "is_reserved": 0, "fusion_lat": 0.0, "lat": 38.8073345, "fusion_lon": 0.0, "rental_uris": {"ios": "https://dc.lft.to/lastmile_qr_scan", "android": "https://dc.lft.to/lastmile_qr_scan"}, "lon": -76.99263, "bike_id": "cdfd880ac6166703a78c9470e4f08b3d", "type": "electric_bike", "name": "cdfd880ac6166703a78c9470e4f08b3d"}, {"is_disabled": 0, "is_reserved": 0, "fusion_lat": 0.0, "lat": 38.89208566666667, "fusion_lon": 0.0, "rental_uris": {"ios": "https://dc.lft.to/lastmile_qr_scan", "android": "https://dc.lft.to/lastmile_qr_scan"}, "lon": -76.99858316666666, "bike_id": "5c89c63dcfdf2e3bd3e0fe5710622ee4", "type": "electric_scooter", "name": "5c89c63dcfdf2e3bd3e0fe5710622ee4"}, {"is_disabled": 0, "is_reserved": 0, "fusion_lat": 0.0, "lat": 38.92167766666667, "fusion_lon": 0.0, "rental_uris": {"ios": "https://dc.lft.to/lastmile_qr_scan", "android": "https://dc.lft.to/lastmile_qr_scan"}, "lon": -76.99857683333333, "bike_id": "92d1a14a9cdae764048162ccadd62f9c", "type": "electric_scooter", "name": "92d1a14a9cdae764048162ccadd62f9c"}, {"is_disabled": 0, "is_reserved": 0, "fusion_lat": 0.0, "lat": 38.880046666666665, "fusion_lon": 0.0, "rental_uris": {"ios": "https://dc.lft.to/lastmile_qr_scan", "android": "https://dc.lft.to/lastmile_qr_scan"}, "lon": -76.99832516666666, "bike_id": "121b46b20ebbf1f5d9f28a553224964c", "type": "electric_scooter", "name": "121b46b20ebbf1f5d9f28a553224964c"}, {"is_disabled": 0, "is_reserved": 0, "fusion_lat": 0.0, "lat": 38.8900255, "fusion_lon": 0.0, "rental_uris": {"ios": "https://dc.lft.to/lastmile_qr_scan", "android": "https://dc.lft.to/lastmile_qr_scan"}, "lon": -77.04896383333333, "bike_id": "d09a286322d9bfe24445a3ba7b796a3f", "type": "electric_scooter", "name": "d09a286322d9bfe24445a3ba7b796a3f"}, {"is_disabled": 0, "is_reserved": 0, "fusion_lat": 0.0, "lat": 38.920921, "fusion_lon": 0.0, "rental_uris": {"ios": "https://dc.lft.to/lastmile_qr_scan", "android": "https://dc.lft.to/lastmile_qr_scan"}, "lon": -77.020752, "bike_id": "4c69bc2fededc4be25468bdef726c7ba", "type": "electric_scooter", "name": "4c69bc2fededc4be25468bdef726c7ba"}, {"is_disabled": 0, "is_reserved": 0, "fusion_lat": 0.0, "lat": 38.8993685, "fusion_lon": 0.0, "rental_uris": {"ios": "https://dc.lft.to/lastmile_qr_scan", "android": "https://dc.lft.to/lastmile_qr_scan"}, "lon": -76.93767716666666, "bike_id": "0b211eb0797fb3a62541c5b15f40736d", "type": "electric_scooter", "name": "0b211eb0797fb3a62541c5b15f40736d"}, {"is_disabled": 0, "is_reserved": 0, "fusion_lat": 0.0, "lat": 38.910371, "fusion_lon": 0.0, "rental_uris": {"ios": "https://dc.lft.to/lastmile_qr_scan", "android": "https://dc.lft.to/lastmile_qr_scan"}, "lon": -76.93834116666666, "bike_id": "0a41089f226010b9eb1482c418019727", "type": "electric_scooter", "name": "0a41089f226010b9eb1482c418019727"}, {"is_disabled": 0, "is_reserved": 0, "fusion_lat": 0.0, "lat": 38.89550833333333, "fusion_lon": 0.0, "rental_uris": {"ios": "https://dc.lft.to/lastmile_qr_scan", "android": "https://dc.lft.to/lastmile_qr_scan"}, "lon": -77.009094, "bike_id": "4ee85dc71988c95f16de61d28b68380d", "type": "electric_scooter", "name": "4ee85dc71988c95f16de61d28b68380d"}, {"is_disabled": 0, "is_reserved": 0, "fusion_lat": 0.0, "lat": 38.8963575, "fusion_lon": 0.0, "rental_uris": {"ios": "https://dc.lft.to/lastmile_qr_scan", "android": "https://dc.lft.to/lastmile_qr_scan"}, "lon": -76.92966916666667, "bike_id": "79a29585698e4c5c74840d3d9e64e1f9", "type": "electric_scooter", "name": "79a29585698e4c5c74840d3d9e64e1f9"}, {"is_disabled": 0, "is_reserved": 0, "fusion_lat": 0.0, "lat": 38.90182383333333, "fusion_lon": 0.0, "rental_uris": {"ios": "https://dc.lft.to/lastmile_qr_scan", "android": "https://dc.lft.to/lastmile_qr_scan"}, "lon": -76.97672116666666, "bike_id": "adeac045c3dd1a36f1f705f173d007bc", "type": "electric_scooter", "name": "adeac045c3dd1a36f1f705f173d007bc"}, {"is_disabled": 0, "is_reserved": 0, "fusion_lat": 0.0, "lat": 38.93027033333333, "fusion_lon": 0.0, "rental_uris": {"ios": "https://dc.lft.to/lastmile_qr_scan", "android": "https://dc.lft.to/lastmile_qr_scan"}, "lon": -77.01986833333333, "bike_id": "dd9d1987fe91bebf5f42bbdfff088e94", "type": "electric_scooter", "name": "dd9d1987fe91bebf5f42bbdfff088e94"}, {"is_disabled": 0, "is_reserved": 0, "fusion_lat": 0.0, "lat": 38.95608583333333, "fusion_lon": 0.0, "rental_uris": {"ios": "https://dc.lft.to/lastmile_qr_scan", "android": "https://dc.lft.to/lastmile_qr_scan"}, "lon": -77.01019966666667, "bike_id": "f236d849c2478bf18f24f67eea2521ff", "type": "electric_bike", "name": "f236d849c2478bf18f24f67eea2521ff"}, {"is_disabled": 0, "is_reserved": 0, "fusion_lat": 0.0, "lat": 39.034784, "fusion_lon": 0.0, "rental_uris": {"ios": "https://dc.lft.to/lastmile_qr_scan", "android": "https://dc.lft.to/lastmile_qr_scan"}, "lon": -77.041083, "bike_id": "5a68f4f9f8a88e30f4f0839898e7657c", "type": "electric_bike", "name": "5a68f4f9f8a88e30f4f0839898e7657c"}, {"is_disabled": 0, "is_reserved": 0, "fusion_lat": 0.0, "lat": 38.913509166666664, "fusion_lon": 0.0, "rental_uris": {"ios": "https://dc.lft.to/lastmile_qr_scan", "android": "https://dc.lft.to/lastmile_qr_scan"}, "lon": -76.9713685, "bike_id": "1596841c03fd80ab5038dcd294684e01", "type": "electric_scooter", "name": "1596841c03fd80ab5038dcd294684e01"}, {"is_disabled": 0, "is_reserved": 0, "fusion_lat": 0.0, "lat": 38.9250115, "fusion_lon": 0.0, "rental_uris": {"ios": "https://dc.lft.to/lastmile_qr_scan", "android": "https://dc.lft.to/lastmile_qr_scan"}, "lon": -77.02354583333333, "bike_id": "117978ea52face817519c5cf24520c3f", "type": "electric_scooter", "name": "117978ea52face817519c5cf24520c3f"}, {"is_disabled": 0, "is_reserved": 0, "fusion_lat": 0.0, "lat": 38.899337333333335, "fusion_lon": 0.0, "rental_uris": {"ios": "https://dc.lft.to/lastmile_qr_scan", "android": "https://dc.lft.to/lastmile_qr_scan"}, "lon": -77.01488416666666, "bike_id": "2a6ebd79245a98c83353c45814289d1e", "type": "electric_scooter", "name": "2a6ebd79245a98c83353c45814289d1e"}, {"is_disabled": 0, "is_reserved": 0, "fusion_lat": 0.0, "lat": 38.929775666666664, "fusion_lon": 0.0, "rental_uris": {"ios": "https://dc.lft.to/lastmile_qr_scan", "android": "https://dc.lft.to/lastmile_qr_scan"}, "lon": -77.0388645, "bike_id": "b28ceb85a688023f8361b893bba55876", "type": "electric_scooter", "name": "b28ceb85a688023f8361b893bba55876"}, {"is_disabled": 0, "is_reserved": 0, "fusion_lat": 0.0, "lat": 38.910274666666666, "fusion_lon": 0.0, "rental_uris": {"ios": "https://dc.lft.to/lastmile_qr_scan", "android": "https://dc.lft.to/lastmile_qr_scan"}, "lon": -76.92334466666667, "bike_id": "10f98708a26b4a0efac7c071e9c754d5", "type": "electric_bike", "name": "10f98708a26b4a0efac7c071e9c754d5"}, {"is_disabled": 0, "is_reserved": 0, "fusion_lat": 0.0, "lat": 38.90011033333333, "fusion_lon": 0.0, "rental_uris": {"ios": "https://dc.lft.to/lastmile_qr_scan", "android": "https://dc.lft.to/lastmile_qr_scan"}, "lon": -77.006538, "bike_id": "8824980185cbd954a5c3344d2989ac39", "type": "electric_scooter", "name": "8824980185cbd954a5c3344d2989ac39"}, {"is_disabled": 0, "is_reserved": 0, "fusion_lat": 0.0, "lat": 38.93243583333334, "fusion_lon": 0.0, "rental_uris": {"ios": "https://dc.lft.to/lastmile_qr_scan", "android": "https://dc.lft.to/lastmile_qr_scan"}, "lon": -77.02933916666667, "bike_id": "642d4b7b952dd0b112445d879e17c935", "type": "electric_scooter", "name": "642d4b7b952dd0b112445d879e17c935"}, {"is_disabled": 0, "is_reserved": 0, "fusion_lat": 0.0, "lat": 38.90915966666667, "fusion_lon": 0.0, "rental_uris": {"ios": "https://dc.lft.to/lastmile_qr_scan", "android": "https://dc.lft.to/lastmile_qr_scan"}, "lon": -77.04937483333333, "bike_id": "4e3d86658695f346807bbd5c667a1a79", "type": "electric_scooter", "name": "4e3d86658695f346807bbd5c667a1a79"}, {"is_disabled": 0, "is_reserved": 0, "fusion_lat": 0.0, "lat": 38.92014316666667, "fusion_lon": 0.0, "rental_uris": {"ios": "https://dc.lft.to/lastmile_qr_scan", "android": "https://dc.lft.to/lastmile_qr_scan"}, "lon": -76.99975266666667, "bike_id": "74d27620a3327bae981144d97b4421ce", "type": "electric_scooter", "name": "74d27620a3327bae981144d97b4421ce"}, {"is_disabled": 0, "is_reserved": 0, "fusion_lat": 0.0, "lat": 38.95733033333333, "fusion_lon": 0.0, "rental_uris": {"ios": "https://dc.lft.to/lastmile_qr_scan", "android": "https://dc.lft.to/lastmile_qr_scan"}, "lon": -77.0241915, "bike_id": "718c98113f4a1ef2de742ba1c81f78a8", "type": "electric_scooter", "name": "718c98113f4a1ef2de742ba1c81f78a8"}, {"is_disabled": 0, "is_reserved": 0, "fusion_lat": 0.0, "lat": 38.8984985, "fusion_lon": 0.0, "rental_uris": {"ios": "https://dc.lft.to/lastmile_qr_scan", "android": "https://dc.lft.to/lastmile_qr_scan"}, "lon": -77.00193316666666, "bike_id": "b26f6ff254e2372647fbe19848390926", "type": "electric_scooter", "name": "b26f6ff254e2372647fbe19848390926"}, {"is_disabled": 0, "is_reserved": 0, "fusion_lat": 0.0, "lat": 38.930355166666665, "fusion_lon": 0.0, "rental_uris": {"ios": "https://dc.lft.to/lastmile_qr_scan", "android": "https://dc.lft.to/lastmile_qr_scan"}, "lon": -77.029674, "bike_id": "1dce97fb65fc7911a6ca6862aa9eb3c5", "type": "electric_scooter", "name": "1dce97fb65fc7911a6ca6862aa9eb3c5"}, {"is_disabled": 0, "is_reserved": 0, "fusion_lat": 0.0, "lat": 38.92167416666667, "fusion_lon": 0.0, "rental_uris": {"ios": "https://dc.lft.to/lastmile_qr_scan", "android": "https://dc.lft.to/lastmile_qr_scan"}, "lon": -77.01812883333334, "bike_id": "8d5660b18235006327be70381385d7e7", "type": "electric_scooter", "name": "8d5660b18235006327be70381385d7e7"}, {"is_disabled": 0, "is_reserved": 0, "fusion_lat": 0.0, "lat": 38.925513, "fusion_lon": 0.0, "rental_uris": {"ios": "https://dc.lft.to/lastmile_qr_scan", "android": "https://dc.lft.to/lastmile_qr_scan"}, "lon": -76.996087, "bike_id": "c6da13ebcaf6a91fe039b2bb8ab4f783", "type": "electric_scooter", "name": "c6da13ebcaf6a91fe039b2bb8ab4f783"}, {"is_disabled": 0, "is_reserved": 0, "fusion_lat": 0.0, "lat": 38.914049166666665, "fusion_lon": 0.0, "rental_uris": {"ios": "https://dc.lft.to/lastmile_qr_scan", "android": "https://dc.lft.to/lastmile_qr_scan"}, "lon": -77.03082433333333, "bike_id": "688a71c9cce131a5f9810b2b0cd0886a", "type": "electric_scooter", "name": "688a71c9cce131a5f9810b2b0cd0886a"}, {"is_disabled": 0, "is_reserved": 0, "fusion_lat": 0.0, "lat": 38.960178666666664, "fusion_lon": 0.0, "rental_uris": {"ios": "https://dc.lft.to/lastmile_qr_scan", "android": "https://dc.lft.to/lastmile_qr_scan"}, "lon": -77.02824066666666, "bike_id": "526cc3eb66da4374a28480bcd0a4b9c5", "type": "electric_scooter", "name": "526cc3eb66da4374a28480bcd0a4b9c5"}, {"is_disabled": 0, "is_reserved": 0, "fusion_lat": 0.0, "lat": 38.90033866666667, "fusion_lon": 0.0, "rental_uris": {"ios": "https://dc.lft.to/lastmile_qr_scan", "android": "https://dc.lft.to/lastmile_qr_scan"}, "lon": -77.01693733333333, "bike_id": "0848367476bac1a07823735c5903bbc8", "type": "electric_scooter", "name": "0848367476bac1a07823735c5903bbc8"}, {"is_disabled": 0, "is_reserved": 0, "fusion_lat": 0.0, "lat": 38.915550333333336, "fusion_lon": 0.0, "rental_uris": {"ios": "https://dc.lft.to/lastmile_qr_scan", "android": "https://dc.lft.to/lastmile_qr_scan"}, "lon": -77.03827833333334, "bike_id": "016f29f43e3409fbfa4936aec96badf8", "type": "electric_scooter", "name": "016f29f43e3409fbfa4936aec96badf8"}, {"is_disabled": 0, "is_reserved": 0, "fusion_lat": 0.0, "lat": 38.8871125, "fusion_lon": 0.0, "rental_uris": {"ios": "https://dc.lft.to/lastmile_qr_scan", "android": "https://dc.lft.to/lastmile_qr_scan"}, "lon": -76.98379833333334, "bike_id": "d5f9959a5e67b8c1f6399a4a02a41522", "type": "electric_scooter", "name": "d5f9959a5e67b8c1f6399a4a02a41522"}, {"is_disabled": 0, "is_reserved": 0, "fusion_lat": 0.0, "lat": 38.922190666666665, "fusion_lon": 0.0, "rental_uris": {"ios": "https://dc.lft.to/lastmile_qr_scan", "android": "https://dc.lft.to/lastmile_qr_scan"}, "lon": -77.020363, "bike_id": "baff039f3a4e539adc76bc33702462bf", "type": "electric_scooter", "name": "baff039f3a4e539adc76bc33702462bf"}, {"is_disabled": 0, "is_reserved": 0, "fusion_lat": 0.0, "lat": 38.850702, "fusion_lon": 0.0, "rental_uris": {"ios": "https://dc.lft.to/lastmile_qr_scan", "android": "https://dc.lft.to/lastmile_qr_scan"}, "lon": -76.98176433333333, "bike_id": "787c3fa090b444cfc9dd4e03aefea630", "type": "electric_bike", "name": "787c3fa090b444cfc9dd4e03aefea630"}, {"is_disabled": 0, "is_reserved": 0, "fusion_lat": 0.0, "lat": 38.894989333333335, "fusion_lon": 0.0, "rental_uris": {"ios": "https://dc.lft.to/lastmile_qr_scan", "android": "https://dc.lft.to/lastmile_qr_scan"}, "lon": -76.97414416666666, "bike_id": "209006a25a75ebbc5cf374924cb83ce9", "type": "electric_scooter", "name": "209006a25a75ebbc5cf374924cb83ce9"}, {"is_disabled": 0, "is_reserved": 0, "fusion_lat": 0.0, "lat": 38.91747383333333, "fusion_lon": 0.0, "rental_uris": {"ios": "https://dc.lft.to/lastmile_qr_scan", "android": "https://dc.lft.to/lastmile_qr_scan"}, "lon": -77.01083216666666, "bike_id": "654b718eb976d185d96ea6d1775919d3", "type": "electric_scooter", "name": "654b718eb976d185d96ea6d1775919d3"}, {"is_disabled": 0, "is_reserved": 0, "fusion_lat": 0.0, "lat": 38.936111333333336, "fusion_lon": 0.0, "rental_uris": {"ios": "https://dc.lft.to/lastmile_qr_scan", "android": "https://dc.lft.to/lastmile_qr_scan"}, "lon": -77.05589516666667, "bike_id": "7e963927668ecbf12b6546120bf868fb", "type": "electric_scooter", "name": "7e963927668ecbf12b6546120bf868fb"}, {"is_disabled": 0, "is_reserved": 0, "fusion_lat": 0.0, "lat": 38.91949683333333, "fusion_lon": 0.0, "rental_uris": {"ios": "https://dc.lft.to/lastmile_qr_scan", "android": "https://dc.lft.to/lastmile_qr_scan"}, "lon": -77.045094, "bike_id": "44b8a2e6db561501b072c57741f93a01", "type": "electric_scooter", "name": "44b8a2e6db561501b072c57741f93a01"}, {"is_disabled": 0, "is_reserved": 0, "fusion_lat": 0.0, "lat": 38.895106, "fusion_lon": 0.0, "rental_uris": {"ios": "https://dc.lft.to/lastmile_qr_scan", "android": "https://dc.lft.to/lastmile_qr_scan"}, "lon": -77.02298983333333, "bike_id": "e7dc6fded0318193af2177b051d405e6", "type": "electric_scooter", "name": "e7dc6fded0318193af2177b051d405e6"}, {"is_disabled": 0, "is_reserved": 0, "fusion_lat": 0.0, "lat": 38.83575366666667, "fusion_lon": 0.0, "rental_uris": {"ios": "https://dc.lft.to/lastmile_qr_scan", "android": "https://dc.lft.to/lastmile_qr_scan"}, "lon": -76.99023983333333, "bike_id": "46015a7efa182cf8746116acb4a079bc", "type": "electric_bike", "name": "46015a7efa182cf8746116acb4a079bc"}, {"is_disabled": 0, "is_reserved": 0, "fusion_lat": 0.0, "lat": 39.0038065, "fusion_lon": 0.0, "rental_uris": {"ios": "https://dc.lft.to/lastmile_qr_scan", "android": "https://dc.lft.to/lastmile_qr_scan"}, "lon": -77.01290466666667, "bike_id": "91945d06df1ce1816c25db399ee5f78c", "type": "electric_bike", "name": "91945d06df1ce1816c25db399ee5f78c"}, {"is_disabled": 0, "is_reserved": 0, "fusion_lat": 0.0, "lat": 38.930819166666666, "fusion_lon": 0.0, "rental_uris": {"ios": "https://dc.lft.to/lastmile_qr_scan", "android": "https://dc.lft.to/lastmile_qr_scan"}, "lon": -77.07763433333334, "bike_id": "9a621059608beaee3b3a21460945fb4b", "type": "electric_scooter", "name": "9a621059608beaee3b3a21460945fb4b"}, {"is_disabled": 0, "is_reserved": 0, "fusion_lat": 0.0, "lat": 38.92575683333333, "fusion_lon": 0.0, "rental_uris": {"ios": "https://dc.lft.to/lastmile_qr_scan", "android": "https://dc.lft.to/lastmile_qr_scan"}, "lon": -76.99492983333333, "bike_id": "e04cdf5ecafda56ae22643643a830803", "type": "electric_scooter", "name": "e04cdf5ecafda56ae22643643a830803"}, {"is_disabled": 0, "is_reserved": 0, "fusion_lat": 0.0, "lat": 38.916775666666666, "fusion_lon": 0.0, "rental_uris": {"ios": "https://dc.lft.to/lastmile_qr_scan", "android": "https://dc.lft.to/lastmile_qr_scan"}, "lon": -77.095806, "bike_id": "6405d808cf77082c18afe990b8810817", "type": "electric_scooter", "name": "6405d808cf77082c18afe990b8810817"}, {"is_disabled": 0, "is_reserved": 0, "fusion_lat": 0.0, "lat": 38.92088066666667, "fusion_lon": 0.0, "rental_uris": {"ios": "https://dc.lft.to/lastmile_qr_scan", "android": "https://dc.lft.to/lastmile_qr_scan"}, "lon": -77.02360866666666, "bike_id": "68b6af7edc67071ac5d2f120730b9c2a", "type": "electric_scooter", "name": "68b6af7edc67071ac5d2f120730b9c2a"}, {"is_disabled": 0, "is_reserved": 0, "fusion_lat": 0.0, "lat": 38.9290745, "fusion_lon": 0.0, "rental_uris": {"ios": "https://dc.lft.to/lastmile_qr_scan", "android": "https://dc.lft.to/lastmile_qr_scan"}, "lon": -77.03216366666666, "bike_id": "a6680b150d816a5285f50eae81e09951", "type": "electric_scooter", "name": "a6680b150d816a5285f50eae81e09951"}, {"is_disabled": 0, "is_reserved": 0, "fusion_lat": 0.0, "lat": 38.93977616666667, "fusion_lon": 0.0, "rental_uris": {"ios": "https://dc.lft.to/lastmile_qr_scan", "android": "https://dc.lft.to/lastmile_qr_scan"}, "lon": -77.03428216666667, "bike_id": "e04ce74ed40a20a88d178da6e7748304", "type": "electric_scooter", "name": "e04ce74ed40a20a88d178da6e7748304"}, {"is_disabled": 0, "is_reserved": 0, "fusion_lat": 0.0, "lat": 38.920368333333336, "fusion_lon": 0.0, "rental_uris": {"ios": "https://dc.lft.to/lastmile_qr_scan", "android": "https://dc.lft.to/lastmile_qr_scan"}, "lon": -76.97956616666667, "bike_id": "930fd3072bcefd0f015ab2b3dbd01bad", "type": "electric_bike", "name": "930fd3072bcefd0f015ab2b3dbd01bad"}, {"is_disabled": 0, "is_reserved": 0, "fusion_lat": 0.0, "lat": 38.9132955, "fusion_lon": 0.0, "rental_uris": {"ios": "https://dc.lft.to/lastmile_qr_scan", "android": "https://dc.lft.to/lastmile_qr_scan"}, "lon": -77.043296, "bike_id": "63ab19571699734327f624c38ba4004d", "type": "electric_scooter", "name": "63ab19571699734327f624c38ba4004d"}, {"is_disabled": 0, "is_reserved": 0, "fusion_lat": 0.0, "lat": 38.892298833333335, "fusion_lon": 0.0, "rental_uris": {"ios": "https://dc.lft.to/lastmile_qr_scan", "android": "https://dc.lft.to/lastmile_qr_scan"}, "lon": -77.05006033333333, "bike_id": "97259dff81094882a6a7be6c573e8704", "type": "electric_scooter", "name": "97259dff81094882a6a7be6c573e8704"}, {"is_disabled": 0, "is_reserved": 0, "fusion_lat": 0.0, "lat": 38.8963815, "fusion_lon": 0.0, "rental_uris": {"ios": "https://dc.lft.to/lastmile_qr_scan", "android": "https://dc.lft.to/lastmile_qr_scan"}, "lon": -76.93929783333333, "bike_id": "1a691a85e8c79d8eb91860b400b35f6d", "type": "electric_scooter", "name": "1a691a85e8c79d8eb91860b400b35f6d"}, {"is_disabled": 0, "is_reserved": 0, "fusion_lat": 0.0, "lat": 38.950685, "fusion_lon": 0.0, "rental_uris": {"ios": "https://dc.lft.to/lastmile_qr_scan", "android": "https://dc.lft.to/lastmile_qr_scan"}, "lon": -76.99599716666667, "bike_id": "71ddeea3b9ec61ddcaafb82439454b32", "type": "electric_bike", "name": "71ddeea3b9ec61ddcaafb82439454b32"}, {"is_disabled": 0, "is_reserved": 0, "fusion_lat": 0.0, "lat": 38.89834183333333, "fusion_lon": 0.0, "rental_uris": {"ios": "https://dc.lft.to/lastmile_qr_scan", "android": "https://dc.lft.to/lastmile_qr_scan"}, "lon": -77.04655216666667, "bike_id": "d37cf24a492bb6152de8e19491907fee", "type": "electric_scooter", "name": "d37cf24a492bb6152de8e19491907fee"}, {"is_disabled": 0, "is_reserved": 0, "fusion_lat": 0.0, "lat": 38.953285, "fusion_lon": 0.0, "rental_uris": {"ios": "https://dc.lft.to/lastmile_qr_scan", "android": "https://dc.lft.to/lastmile_qr_scan"}, "lon": -76.98252483333333, "bike_id": "5387a1a58545d51e7b7e0466af5903b7", "type": "electric_bike", "name": "5387a1a58545d51e7b7e0466af5903b7"}, {"is_disabled": 0, "is_reserved": 0, "fusion_lat": 0.0, "lat": 38.8976105, "fusion_lon": 0.0, "rental_uris": {"ios": "https://dc.lft.to/lastmile_qr_scan", "android": "https://dc.lft.to/lastmile_qr_scan"}, "lon": -77.05496116666667, "bike_id": "4bb93164698910ee2c3edfae22f034ee", "type": "electric_scooter", "name": "4bb93164698910ee2c3edfae22f034ee"}, {"is_disabled": 0, "is_reserved": 0, "fusion_lat": 0.0, "lat": 38.909620333333336, "fusion_lon": 0.0, "rental_uris": {"ios": "https://dc.lft.to/lastmile_qr_scan", "android": "https://dc.lft.to/lastmile_qr_scan"}, "lon": -77.02216533333333, "bike_id": "be9491e61fbd47d4be8c188b2d0db9d7", "type": "electric_scooter", "name": "be9491e61fbd47d4be8c188b2d0db9d7"}, {"is_disabled": 0, "is_reserved": 0, "fusion_lat": 0.0, "lat": 38.9188215, "fusion_lon": 0.0, "rental_uris": {"ios": "https://dc.lft.to/lastmile_qr_scan", "android": "https://dc.lft.to/lastmile_qr_scan"}, "lon": -77.04173966666667, "bike_id": "44c266c98e9bac44b9f30daae4034a77", "type": "electric_scooter", "name": "44c266c98e9bac44b9f30daae4034a77"}, {"is_disabled": 0, "is_reserved": 0, "fusion_lat": 0.0, "lat": 38.914498, "fusion_lon": 0.0, "rental_uris": {"ios": "https://dc.lft.to/lastmile_qr_scan", "android": "https://dc.lft.to/lastmile_qr_scan"}, "lon": -77.00886683333333, "bike_id": "6d7c796ea2a3a52671eda39e9329de61", "type": "electric_scooter", "name": "6d7c796ea2a3a52671eda39e9329de61"}, {"is_disabled": 0, "is_reserved": 0, "fusion_lat": 0.0, "lat": 38.9056285, "fusion_lon": 0.0, "rental_uris": {"ios": "https://dc.lft.to/lastmile_qr_scan", "android": "https://dc.lft.to/lastmile_qr_scan"}, "lon": -77.027582, "bike_id": "d0c82bc5aafb31125d904f34c04e738c", "type": "electric_scooter", "name": "d0c82bc5aafb31125d904f34c04e738c"}, {"is_disabled": 0, "is_reserved": 0, "fusion_lat": 0.0, "lat": 38.922359, "fusion_lon": 0.0, "rental_uris": {"ios": "https://dc.lft.to/lastmile_qr_scan", "android": "https://dc.lft.to/lastmile_qr_scan"}, "lon": -77.03887883333333, "bike_id": "ef5dc34c502da1ce4144102819508166", "type": "electric_scooter", "name": "ef5dc34c502da1ce4144102819508166"}, {"is_disabled": 0, "is_reserved": 0, "fusion_lat": 0.0, "lat": 38.8813645, "fusion_lon": 0.0, "rental_uris": {"ios": "https://dc.lft.to/lastmile_qr_scan", "android": "https://dc.lft.to/lastmile_qr_scan"}, "lon": -77.013086, "bike_id": "aeb493916ad7dcb786cb9b6ac7248f56", "type": "electric_scooter", "name": "aeb493916ad7dcb786cb9b6ac7248f56"}, {"is_disabled": 0, "is_reserved": 0, "fusion_lat": 0.0, "lat": 38.87625966666667, "fusion_lon": 0.0, "rental_uris": {"ios": "https://dc.lft.to/lastmile_qr_scan", "android": "https://dc.lft.to/lastmile_qr_scan"}, "lon": -77.01598016666667, "bike_id": "d1a4acfda9f6203163cbeb43e20065e1", "type": "electric_scooter", "name": "d1a4acfda9f6203163cbeb43e20065e1"}, {"is_disabled": 0, "is_reserved": 0, "fusion_lat": 0.0, "lat": 38.912633166666666, "fusion_lon": 0.0, "rental_uris": {"ios": "https://dc.lft.to/lastmile_qr_scan", "android": "https://dc.lft.to/lastmile_qr_scan"}, "lon": -77.047153, "bike_id": "ff0339bcd0843a9c8fadabc01ac935da", "type": "electric_scooter", "name": "ff0339bcd0843a9c8fadabc01ac935da"}, {"is_disabled": 0, "is_reserved": 0, "fusion_lat": 0.0, "lat": 38.86888116666667, "fusion_lon": 0.0, "rental_uris": {"ios": "https://dc.lft.to/lastmile_qr_scan", "android": "https://dc.lft.to/lastmile_qr_scan"}, "lon": -76.99002033333333, "bike_id": "94a89931eacfbe709d4f9a94822fb82f", "type": "electric_scooter", "name": "94a89931eacfbe709d4f9a94822fb82f"}, {"is_disabled": 0, "is_reserved": 0, "fusion_lat": 0.0, "lat": 38.8960565, "fusion_lon": 0.0, "rental_uris": {"ios": "https://dc.lft.to/lastmile_qr_scan", "android": "https://dc.lft.to/lastmile_qr_scan"}, "lon": -76.98311916666667, "bike_id": "0946739342c0c04b8b92cede14445e93", "type": "electric_scooter", "name": "0946739342c0c04b8b92cede14445e93"}, {"is_disabled": 0, "is_reserved": 0, "fusion_lat": 0.0, "lat": 38.90048266666667, "fusion_lon": 0.0, "rental_uris": {"ios": "https://dc.lft.to/lastmile_qr_scan", "android": "https://dc.lft.to/lastmile_qr_scan"}, "lon": -77.050852, "bike_id": "878ae960ef97d4145ffd4ba2433b6c5b", "type": "electric_scooter", "name": "878ae960ef97d4145ffd4ba2433b6c5b"}, {"is_disabled": 0, "is_reserved": 0, "fusion_lat": 0.0, "lat": 38.92307816666667, "fusion_lon": 0.0, "rental_uris": {"ios": "https://dc.lft.to/lastmile_qr_scan", "android": "https://dc.lft.to/lastmile_qr_scan"}, "lon": -77.03804566666666, "bike_id": "97eb6bf8da95d4c8ebbfc2df5eebc947", "type": "electric_scooter", "name": "97eb6bf8da95d4c8ebbfc2df5eebc947"}, {"is_disabled": 0, "is_reserved": 0, "fusion_lat": 0.0, "lat": 38.917327666666665, "fusion_lon": 0.0, "rental_uris": {"ios": "https://dc.lft.to/lastmile_qr_scan", "android": "https://dc.lft.to/lastmile_qr_scan"}, "lon": -77.0260215, "bike_id": "83f6035b2754280537d2fb9822dedac4", "type": "electric_scooter", "name": "83f6035b2754280537d2fb9822dedac4"}, {"is_disabled": 0, "is_reserved": 0, "fusion_lat": 0.0, "lat": 38.91181016666667, "fusion_lon": 0.0, "rental_uris": {"ios": "https://dc.lft.to/lastmile_qr_scan", "android": "https://dc.lft.to/lastmile_qr_scan"}, "lon": -77.00455216666667, "bike_id": "3a783614a1903f5b6a8f1c6f21b932c8", "type": "electric_scooter", "name": "3a783614a1903f5b6a8f1c6f21b932c8"}, {"is_disabled": 0, "is_reserved": 0, "fusion_lat": 0.0, "lat": 38.917917333333335, "fusion_lon": 0.0, "rental_uris": {"ios": "https://dc.lft.to/lastmile_qr_scan", "android": "https://dc.lft.to/lastmile_qr_scan"}, "lon": -77.03437416666667, "bike_id": "5ff2d76cc843e796a6a02721b3e00df5", "type": "electric_scooter", "name": "5ff2d76cc843e796a6a02721b3e00df5"}, {"is_disabled": 0, "is_reserved": 0, "fusion_lat": 0.0, "lat": 38.934012, "fusion_lon": 0.0, "rental_uris": {"ios": "https://dc.lft.to/lastmile_qr_scan", "android": "https://dc.lft.to/lastmile_qr_scan"}, "lon": -77.035191, "bike_id": "847236da99a67a3661951797d917f3e9", "type": "electric_scooter", "name": "847236da99a67a3661951797d917f3e9"}, {"is_disabled": 0, "is_reserved": 0, "fusion_lat": 0.0, "lat": 38.9156955, "fusion_lon": 0.0, "rental_uris": {"ios": "https://dc.lft.to/lastmile_qr_scan", "android": "https://dc.lft.to/lastmile_qr_scan"}, "lon": -77.0364415, "bike_id": "b98ca93a9169a22dd68a92f1b060893d", "type": "electric_scooter", "name": "b98ca93a9169a22dd68a92f1b060893d"}, {"is_disabled": 0, "is_reserved": 0, "fusion_lat": 0.0, "lat": 38.918450166666666, "fusion_lon": 0.0, "rental_uris": {"ios": "https://dc.lft.to/lastmile_qr_scan", "android": "https://dc.lft.to/lastmile_qr_scan"}, "lon": -77.023045, "bike_id": "71869df327d588da2022036adbc5f86c", "type": "electric_scooter", "name": "71869df327d588da2022036adbc5f86c"}, {"is_disabled": 0, "is_reserved": 0, "fusion_lat": 0.0, "lat": 38.905526, "fusion_lon": 0.0, "rental_uris": {"ios": "https://dc.lft.to/lastmile_qr_scan", "android": "https://dc.lft.to/lastmile_qr_scan"}, "lon": -77.0259665, "bike_id": "63faf805e38870547f839048636309ab", "type": "electric_scooter", "name": "63faf805e38870547f839048636309ab"}, {"is_disabled": 0, "is_reserved": 0, "fusion_lat": 0.0, "lat": 38.900680666666666, "fusion_lon": 0.0, "rental_uris": {"ios": "https://dc.lft.to/lastmile_qr_scan", "android": "https://dc.lft.to/lastmile_qr_scan"}, "lon": -77.049923, "bike_id": "9fcce8948d8323044e00fbc02ebc2d59", "type": "electric_scooter", "name": "9fcce8948d8323044e00fbc02ebc2d59"}, {"is_disabled": 0, "is_reserved": 0, "fusion_lat": 0.0, "lat": 38.93398883333333, "fusion_lon": 0.0, "rental_uris": {"ios": "https://dc.lft.to/lastmile_qr_scan", "android": "https://dc.lft.to/lastmile_qr_scan"}, "lon": -77.02616816666666, "bike_id": "981bef66f06edcdce4ef4ec38fe5f62f", "type": "electric_scooter", "name": "981bef66f06edcdce4ef4ec38fe5f62f"}, {"is_disabled": 0, "is_reserved": 0, "fusion_lat": 0.0, "lat": 38.896722, "fusion_lon": 0.0, "rental_uris": {"ios": "https://dc.lft.to/lastmile_qr_scan", "android": "https://dc.lft.to/lastmile_qr_scan"}, "lon": -76.94913933333333, "bike_id": "7e75903cf5f4a9ef2fd111d56503b283", "type": "electric_scooter", "name": "7e75903cf5f4a9ef2fd111d56503b283"}, {"is_disabled": 0, "is_reserved": 0, "fusion_lat": 0.0, "lat": 38.90375616666667, "fusion_lon": 0.0, "rental_uris": {"ios": "https://dc.lft.to/lastmile_qr_scan", "android": "https://dc.lft.to/lastmile_qr_scan"}, "lon": -77.0165125, "bike_id": "7980636bb6df828f757e924db28bbd70", "type": "electric_scooter", "name": "7980636bb6df828f757e924db28bbd70"}, {"is_disabled": 0, "is_reserved": 0, "fusion_lat": 0.0, "lat": 38.9036405, "fusion_lon": 0.0, "rental_uris": {"ios": "https://dc.lft.to/lastmile_qr_scan", "android": "https://dc.lft.to/lastmile_qr_scan"}, "lon": -77.0034205, "bike_id": "a330430f174c7cc08fe5cb41c76c6d26", "type": "electric_scooter", "name": "a330430f174c7cc08fe5cb41c76c6d26"}, {"is_disabled": 0, "is_reserved": 0, "fusion_lat": 0.0, "lat": 38.92534533333333, "fusion_lon": 0.0, "rental_uris": {"ios": "https://dc.lft.to/lastmile_qr_scan", "android": "https://dc.lft.to/lastmile_qr_scan"}, "lon": -77.026214, "bike_id": "e777410771d55afac3cbe74eaac9ac5b", "type": "electric_bike", "name": "e777410771d55afac3cbe74eaac9ac5b"}, {"is_disabled": 0, "is_reserved": 0, "fusion_lat": 0.0, "lat": 38.91730283333333, "fusion_lon": 0.0, "rental_uris": {"ios": "https://dc.lft.to/lastmile_qr_scan", "android": "https://dc.lft.to/lastmile_qr_scan"}, "lon": -77.06904883333333, "bike_id": "4e7408fce6a7a85784ca85152d5e7c6b", "type": "electric_scooter", "name": "4e7408fce6a7a85784ca85152d5e7c6b"}, {"is_disabled": 0, "is_reserved": 0, "fusion_lat": 0.0, "lat": 38.80484116666667, "fusion_lon": 0.0, "rental_uris": {"ios": "https://dc.lft.to/lastmile_qr_scan", "android": "https://dc.lft.to/lastmile_qr_scan"}, "lon": -76.9910815, "bike_id": "1cb25923f4e17ca752f6b1416a79a306", "type": "electric_bike", "name": "1cb25923f4e17ca752f6b1416a79a306"}, {"is_disabled": 0, "is_reserved": 0, "fusion_lat": 0.0, "lat": 38.91554133333333, "fusion_lon": 0.0, "rental_uris": {"ios": "https://dc.lft.to/lastmile_qr_scan", "android": "https://dc.lft.to/lastmile_qr_scan"}, "lon": -77.0233745, "bike_id": "04d695c425cccd6fac7c5c2f7f496cd2", "type": "electric_scooter", "name": "04d695c425cccd6fac7c5c2f7f496cd2"}, {"is_disabled": 0, "is_reserved": 0, "fusion_lat": 0.0, "lat": 38.8924105, "fusion_lon": 0.0, "rental_uris": {"ios": "https://dc.lft.to/lastmile_qr_scan", "android": "https://dc.lft.to/lastmile_qr_scan"}, "lon": -77.03961266666667, "bike_id": "7c22de113face193b5cc0f29b169d014", "type": "electric_scooter", "name": "7c22de113face193b5cc0f29b169d014"}, {"is_disabled": 0, "is_reserved": 0, "fusion_lat": 0.0, "lat": 39.00097866666667, "fusion_lon": 0.0, "rental_uris": {"ios": "https://dc.lft.to/lastmile_qr_scan", "android": "https://dc.lft.to/lastmile_qr_scan"}, "lon": -76.90985683333334, "bike_id": "4044ada8b000dbc0864cb775cbfacb01", "type": "electric_bike", "name": "4044ada8b000dbc0864cb775cbfacb01"}, {"is_disabled": 0, "is_reserved": 0, "fusion_lat": 0.0, "lat": 38.9320995, "fusion_lon": 0.0, "rental_uris": {"ios": "https://dc.lft.to/lastmile_qr_scan", "android": "https://dc.lft.to/lastmile_qr_scan"}, "lon": -77.02287083333333, "bike_id": "a470164a60affe6ca7752c990d7c6ca5", "type": "electric_scooter", "name": "a470164a60affe6ca7752c990d7c6ca5"}, {"is_disabled": 0, "is_reserved": 0, "fusion_lat": 0.0, "lat": 38.92048916666667, "fusion_lon": 0.0, "rental_uris": {"ios": "https://dc.lft.to/lastmile_qr_scan", "android": "https://dc.lft.to/lastmile_qr_scan"}, "lon": -77.02441016666667, "bike_id": "256d63ee2f8b540bfaaef388b0171003", "type": "electric_scooter", "name": "256d63ee2f8b540bfaaef388b0171003"}, {"is_disabled": 0, "is_reserved": 0, "fusion_lat": 0.0, "lat": 38.93043016666667, "fusion_lon": 0.0, "rental_uris": {"ios": "https://dc.lft.to/lastmile_qr_scan", "android": "https://dc.lft.to/lastmile_qr_scan"}, "lon": -77.0318545, "bike_id": "3057fd916053d159275bf948160b2d6e", "type": "electric_scooter", "name": "3057fd916053d159275bf948160b2d6e"}, {"is_disabled": 0, "is_reserved": 0, "fusion_lat": 0.0, "lat": 38.90220983333333, "fusion_lon": 0.0, "rental_uris": {"ios": "https://dc.lft.to/lastmile_qr_scan", "android": "https://dc.lft.to/lastmile_qr_scan"}, "lon": -77.060849, "bike_id": "a1cb804b9bc7ef1a647d0f238a26fd4a", "type": "electric_scooter", "name": "a1cb804b9bc7ef1a647d0f238a26fd4a"}, {"is_disabled": 0, "is_reserved": 0, "fusion_lat": 0.0, "lat": 38.91605883333333, "fusion_lon": 0.0, "rental_uris": {"ios": "https://dc.lft.to/lastmile_qr_scan", "android": "https://dc.lft.to/lastmile_qr_scan"}, "lon": -77.043504, "bike_id": "8e5fbe7458349d02a061c68678eaec1b", "type": "electric_scooter", "name": "8e5fbe7458349d02a061c68678eaec1b"}, {"is_disabled": 0, "is_reserved": 0, "fusion_lat": 0.0, "lat": 38.846734833333336, "fusion_lon": 0.0, "rental_uris": {"ios": "https://dc.lft.to/lastmile_qr_scan", "android": "https://dc.lft.to/lastmile_qr_scan"}, "lon": -77.13936166666667, "bike_id": "002f38e75b395c41ad3e87da02d2b052", "type": "electric_bike", "name": "002f38e75b395c41ad3e87da02d2b052"}, {"is_disabled": 0, "is_reserved": 0, "fusion_lat": 0.0, "lat": 38.91710483333333, "fusion_lon": 0.0, "rental_uris": {"ios": "https://dc.lft.to/lastmile_qr_scan", "android": "https://dc.lft.to/lastmile_qr_scan"}, "lon": -77.03865233333333, "bike_id": "4e553207fe48783e693745e4801b2138", "type": "electric_scooter", "name": "4e553207fe48783e693745e4801b2138"}, {"is_disabled": 0, "is_reserved": 0, "fusion_lat": 0.0, "lat": 38.879445, "fusion_lon": 0.0, "rental_uris": {"ios": "https://dc.lft.to/lastmile_qr_scan", "android": "https://dc.lft.to/lastmile_qr_scan"}, "lon": -77.00513366666667, "bike_id": "2c10b0c43d724a66c782a341083dc49f", "type": "electric_scooter", "name": "2c10b0c43d724a66c782a341083dc49f"}, {"is_disabled": 0, "is_reserved": 0, "fusion_lat": 0.0, "lat": 38.925707833333334, "fusion_lon": 0.0, "rental_uris": {"ios": "https://dc.lft.to/lastmile_qr_scan", "android": "https://dc.lft.to/lastmile_qr_scan"}, "lon": -77.03784733333333, "bike_id": "1925712129f9ca7bb4598fd54bd616ce", "type": "electric_scooter", "name": "1925712129f9ca7bb4598fd54bd616ce"}, {"is_disabled": 0, "is_reserved": 0, "fusion_lat": 0.0, "lat": 38.915513, "fusion_lon": 0.0, "rental_uris": {"ios": "https://dc.lft.to/lastmile_qr_scan", "android": "https://dc.lft.to/lastmile_qr_scan"}, "lon": -77.050973, "bike_id": "23f3f92989052322809bac999e6ba482", "type": "electric_scooter", "name": "23f3f92989052322809bac999e6ba482"}, {"is_disabled": 0, "is_reserved": 0, "fusion_lat": 0.0, "lat": 38.8788235, "fusion_lon": 0.0, "rental_uris": {"ios": "https://dc.lft.to/lastmile_qr_scan", "android": "https://dc.lft.to/lastmile_qr_scan"}, "lon": -77.02320983333334, "bike_id": "618965bebc941c6e20878e1cecda1573", "type": "electric_scooter", "name": "618965bebc941c6e20878e1cecda1573"}, {"is_disabled": 0, "is_reserved": 0, "fusion_lat": 0.0, "lat": 38.990971333333334, "fusion_lon": 0.0, "rental_uris": {"ios": "https://dc.lft.to/lastmile_qr_scan", "android": "https://dc.lft.to/lastmile_qr_scan"}, "lon": -76.99371633333334, "bike_id": "e5353f2243ae46de5f152e6c376cf5b2", "type": "electric_bike", "name": "e5353f2243ae46de5f152e6c376cf5b2"}, {"is_disabled": 0, "is_reserved": 0, "fusion_lat": 0.0, "lat": 38.91954783333333, "fusion_lon": 0.0, "rental_uris": {"ios": "https://dc.lft.to/lastmile_qr_scan", "android": "https://dc.lft.to/lastmile_qr_scan"}, "lon": -77.07872833333333, "bike_id": "18ace8dc8a190ec8dd683c913275e4f9", "type": "electric_scooter", "name": "18ace8dc8a190ec8dd683c913275e4f9"}, {"is_disabled": 0, "is_reserved": 0, "fusion_lat": 0.0, "lat": 38.90844366666666, "fusion_lon": 0.0, "rental_uris": {"ios": "https://dc.lft.to/lastmile_qr_scan", "android": "https://dc.lft.to/lastmile_qr_scan"}, "lon": -77.05808166666667, "bike_id": "af6704d4943472c61864551493f8a039", "type": "electric_scooter", "name": "af6704d4943472c61864551493f8a039"}, {"is_disabled": 0, "is_reserved": 0, "fusion_lat": 0.0, "lat": 38.84858916666666, "fusion_lon": 0.0, "rental_uris": {"ios": "https://dc.lft.to/lastmile_qr_scan", "android": "https://dc.lft.to/lastmile_qr_scan"}, "lon": -77.06829366666666, "bike_id": "df53a49dc933b581901809539eb48278", "type": "electric_bike", "name": "df53a49dc933b581901809539eb48278"}, {"is_disabled": 0, "is_reserved": 0, "fusion_lat": 0.0, "lat": 38.906482, "fusion_lon": 0.0, "rental_uris": {"ios": "https://dc.lft.to/lastmile_qr_scan", "android": "https://dc.lft.to/lastmile_qr_scan"}, "lon": -77.04884133333333, "bike_id": "9070d537646229c38786b59afe846bb6", "type": "electric_scooter", "name": "9070d537646229c38786b59afe846bb6"}, {"is_disabled": 0, "is_reserved": 0, "fusion_lat": 0.0, "lat": 38.895402833333335, "fusion_lon": 0.0, "rental_uris": {"ios": "https://dc.lft.to/lastmile_qr_scan", "android": "https://dc.lft.to/lastmile_qr_scan"}, "lon": -77.02174533333333, "bike_id": "ac4add252a951d1ffb1e3946b9e41b93", "type": "electric_scooter", "name": "ac4add252a951d1ffb1e3946b9e41b93"}, {"is_disabled": 0, "is_reserved": 0, "fusion_lat": 0.0, "lat": 38.87906533333334, "fusion_lon": 0.0, "rental_uris": {"ios": "https://dc.lft.to/lastmile_qr_scan", "android": "https://dc.lft.to/lastmile_qr_scan"}, "lon": -77.00761683333333, "bike_id": "83d0b64ac52208edf4afd1e32d84d39a", "type": "electric_scooter", "name": "83d0b64ac52208edf4afd1e32d84d39a"}, {"is_disabled": 0, "is_reserved": 0, "fusion_lat": 0.0, "lat": 38.92432733333333, "fusion_lon": 0.0, "rental_uris": {"ios": "https://dc.lft.to/lastmile_qr_scan", "android": "https://dc.lft.to/lastmile_qr_scan"}, "lon": -77.042522, "bike_id": "abaf7b60e89d0f982a2b7ac01035af30", "type": "electric_scooter", "name": "abaf7b60e89d0f982a2b7ac01035af30"}, {"is_disabled": 0, "is_reserved": 0, "fusion_lat": 0.0, "lat": 38.916534666666664, "fusion_lon": 0.0, "rental_uris": {"ios": "https://dc.lft.to/lastmile_qr_scan", "android": "https://dc.lft.to/lastmile_qr_scan"}, "lon": -77.0095215, "bike_id": "d77f20967b377692354c4cc6aa5b5de6", "type": "electric_scooter", "name": "d77f20967b377692354c4cc6aa5b5de6"}, {"is_disabled": 0, "is_reserved": 0, "fusion_lat": 0.0, "lat": 38.878678, "fusion_lon": 0.0, "rental_uris": {"ios": "https://dc.lft.to/lastmile_qr_scan", "android": "https://dc.lft.to/lastmile_qr_scan"}, "lon": -77.00745283333333, "bike_id": "9635d74f65ca4b0c9fb24dabff712009", "type": "electric_scooter", "name": "9635d74f65ca4b0c9fb24dabff712009"}, {"is_disabled": 0, "is_reserved": 0, "fusion_lat": 0.0, "lat": 38.86635116666667, "fusion_lon": 0.0, "rental_uris": {"ios": "https://dc.lft.to/lastmile_qr_scan", "android": "https://dc.lft.to/lastmile_qr_scan"}, "lon": -76.99005216666667, "bike_id": "0de9e9c9916e70e724cd2a19d51b34a2", "type": "electric_bike", "name": "0de9e9c9916e70e724cd2a19d51b34a2"}, {"is_disabled": 0, "is_reserved": 0, "fusion_lat": 0.0, "lat": 38.89738066666666, "fusion_lon": 0.0, "rental_uris": {"ios": "https://dc.lft.to/lastmile_qr_scan", "android": "https://dc.lft.to/lastmile_qr_scan"}, "lon": -77.0464935, "bike_id": "ebfd396814ed5ef04ed0d0f81b2abce0", "type": "electric_scooter", "name": "ebfd396814ed5ef04ed0d0f81b2abce0"}, {"is_disabled": 0, "is_reserved": 0, "fusion_lat": 0.0, "lat": 38.923594666666666, "fusion_lon": 0.0, "rental_uris": {"ios": "https://dc.lft.to/lastmile_qr_scan", "android": "https://dc.lft.to/lastmile_qr_scan"}, "lon": -77.0438735, "bike_id": "7238d55fd70faba6d125f5ee125d1160", "type": "electric_scooter", "name": "7238d55fd70faba6d125f5ee125d1160"}, {"is_disabled": 0, "is_reserved": 0, "fusion_lat": 0.0, "lat": 38.91108583333333, "fusion_lon": 0.0, "rental_uris": {"ios": "https://dc.lft.to/lastmile_qr_scan", "android": "https://dc.lft.to/lastmile_qr_scan"}, "lon": -77.00381833333333, "bike_id": "c17622ed1d53743069a64a0c3ccdc293", "type": "electric_scooter", "name": "c17622ed1d53743069a64a0c3ccdc293"}, {"is_disabled": 0, "is_reserved": 0, "fusion_lat": 0.0, "lat": 38.9208705, "fusion_lon": 0.0, "rental_uris": {"ios": "https://dc.lft.to/lastmile_qr_scan", "android": "https://dc.lft.to/lastmile_qr_scan"}, "lon": -77.02361783333333, "bike_id": "e74d23eff47b8f31b14e6777fc1909c7", "type": "electric_scooter", "name": "e74d23eff47b8f31b14e6777fc1909c7"}, {"is_disabled": 0, "is_reserved": 0, "fusion_lat": 0.0, "lat": 38.92358333333333, "fusion_lon": 0.0, "rental_uris": {"ios": "https://dc.lft.to/lastmile_qr_scan", "android": "https://dc.lft.to/lastmile_qr_scan"}, "lon": -77.0730435, "bike_id": "a3bbf3cc7e90aacb6fc208fd68d2733e", "type": "electric_scooter", "name": "a3bbf3cc7e90aacb6fc208fd68d2733e"}, {"is_disabled": 0, "is_reserved": 0, "fusion_lat": 0.0, "lat": 38.936080833333335, "fusion_lon": 0.0, "rental_uris": {"ios": "https://dc.lft.to/lastmile_qr_scan", "android": "https://dc.lft.to/lastmile_qr_scan"}, "lon": -77.0558515, "bike_id": "dc2f3b139744d597d9634bc0b81e6483", "type": "electric_scooter", "name": "dc2f3b139744d597d9634bc0b81e6483"}, {"is_disabled": 0, "is_reserved": 0, "fusion_lat": 0.0, "lat": 38.93693316666667, "fusion_lon": 0.0, "rental_uris": {"ios": "https://dc.lft.to/lastmile_qr_scan", "android": "https://dc.lft.to/lastmile_qr_scan"}, "lon": -77.05596933333334, "bike_id": "1fb5afa469cddf4728f3ecb96ebf51a9", "type": "electric_scooter", "name": "1fb5afa469cddf4728f3ecb96ebf51a9"}, {"is_disabled": 0, "is_reserved": 0, "fusion_lat": 0.0, "lat": 38.914137, "fusion_lon": 0.0, "rental_uris": {"ios": "https://dc.lft.to/lastmile_qr_scan", "android": "https://dc.lft.to/lastmile_qr_scan"}, "lon": -77.0439595, "bike_id": "2b3ddd3b7cc0f7707730465e7594d812", "type": "electric_scooter", "name": "2b3ddd3b7cc0f7707730465e7594d812"}, {"is_disabled": 0, "is_reserved": 0, "fusion_lat": 0.0, "lat": 38.92649, "fusion_lon": 0.0, "rental_uris": {"ios": "https://dc.lft.to/lastmile_qr_scan", "android": "https://dc.lft.to/lastmile_qr_scan"}, "lon": -77.0244595, "bike_id": "e971c507837ab2d5f84734b61a73d4ff", "type": "electric_scooter", "name": "e971c507837ab2d5f84734b61a73d4ff"}, {"is_disabled": 0, "is_reserved": 0, "fusion_lat": 0.0, "lat": 38.93124066666667, "fusion_lon": 0.0, "rental_uris": {"ios": "https://dc.lft.to/lastmile_qr_scan", "android": "https://dc.lft.to/lastmile_qr_scan"}, "lon": -77.02074883333333, "bike_id": "4cc95c00c4d9011bf57c9bc5f458da7e", "type": "electric_scooter", "name": "4cc95c00c4d9011bf57c9bc5f458da7e"}, {"is_disabled": 0, "is_reserved": 0, "fusion_lat": 0.0, "lat": 38.926528, "fusion_lon": 0.0, "rental_uris": {"ios": "https://dc.lft.to/lastmile_qr_scan", "android": "https://dc.lft.to/lastmile_qr_scan"}, "lon": -77.02424583333334, "bike_id": "7401de9549fabae5f822aa20c9cb8f55", "type": "electric_scooter", "name": "7401de9549fabae5f822aa20c9cb8f55"}, {"is_disabled": 0, "is_reserved": 0, "fusion_lat": 0.0, "lat": 38.887116, "fusion_lon": 0.0, "rental_uris": {"ios": "https://dc.lft.to/lastmile_qr_scan", "android": "https://dc.lft.to/lastmile_qr_scan"}, "lon": -76.98382466666666, "bike_id": "0dce8986204d72f9d0843c153aced3e2", "type": "electric_scooter", "name": "0dce8986204d72f9d0843c153aced3e2"}, {"is_disabled": 0, "is_reserved": 0, "fusion_lat": 0.0, "lat": 38.911061, "fusion_lon": 0.0, "rental_uris": {"ios": "https://dc.lft.to/lastmile_qr_scan", "android": "https://dc.lft.to/lastmile_qr_scan"}, "lon": -77.04837166666667, "bike_id": "2fb4b73bbe6c629e0352be44e51b9069", "type": "electric_scooter", "name": "2fb4b73bbe6c629e0352be44e51b9069"}, {"is_disabled": 0, "is_reserved": 0, "fusion_lat": 0.0, "lat": 38.90183716666667, "fusion_lon": 0.0, "rental_uris": {"ios": "https://dc.lft.to/lastmile_qr_scan", "android": "https://dc.lft.to/lastmile_qr_scan"}, "lon": -76.976693, "bike_id": "8c5cbef350172e5a83659380f410ce66", "type": "electric_scooter", "name": "8c5cbef350172e5a83659380f410ce66"}, {"is_disabled": 0, "is_reserved": 0, "fusion_lat": 0.0, "lat": 38.9221935, "fusion_lon": 0.0, "rental_uris": {"ios": "https://dc.lft.to/lastmile_qr_scan", "android": "https://dc.lft.to/lastmile_qr_scan"}, "lon": -77.0329485, "bike_id": "05cf2966ec80692480459495a642f9d3", "type": "electric_scooter", "name": "05cf2966ec80692480459495a642f9d3"}, {"is_disabled": 0, "is_reserved": 0, "fusion_lat": 0.0, "lat": 38.9302225, "fusion_lon": 0.0, "rental_uris": {"ios": "https://dc.lft.to/lastmile_qr_scan", "android": "https://dc.lft.to/lastmile_qr_scan"}, "lon": -77.0379895, "bike_id": "564eecbad0c44a3eb7828a08ad7fa6cc", "type": "electric_scooter", "name": "564eecbad0c44a3eb7828a08ad7fa6cc"}, {"is_disabled": 0, "is_reserved": 0, "fusion_lat": 0.0, "lat": 38.90473566666667, "fusion_lon": 0.0, "rental_uris": {"ios": "https://dc.lft.to/lastmile_qr_scan", "android": "https://dc.lft.to/lastmile_qr_scan"}, "lon": -76.95050633333334, "bike_id": "359c13e465699c183f8e6b88fd01de0f", "type": "electric_scooter", "name": "359c13e465699c183f8e6b88fd01de0f"}, {"is_disabled": 0, "is_reserved": 0, "fusion_lat": 0.0, "lat": 38.897065, "fusion_lon": 0.0, "rental_uris": {"ios": "https://dc.lft.to/lastmile_qr_scan", "android": "https://dc.lft.to/lastmile_qr_scan"}, "lon": -77.048747, "bike_id": "343278ae5075118aa67f21dee5b72117", "type": "electric_scooter", "name": "343278ae5075118aa67f21dee5b72117"}, {"is_disabled": 0, "is_reserved": 0, "fusion_lat": 0.0, "lat": 38.855182166666665, "fusion_lon": 0.0, "rental_uris": {"ios": "https://dc.lft.to/lastmile_qr_scan", "android": "https://dc.lft.to/lastmile_qr_scan"}, "lon": -76.99154483333334, "bike_id": "0b183c5a9098483ceac942de78504a4a", "type": "electric_scooter", "name": "0b183c5a9098483ceac942de78504a4a"}, {"is_disabled": 0, "is_reserved": 0, "fusion_lat": 0.0, "lat": 38.9243035, "fusion_lon": 0.0, "rental_uris": {"ios": "https://dc.lft.to/lastmile_qr_scan", "android": "https://dc.lft.to/lastmile_qr_scan"}, "lon": -77.02978966666667, "bike_id": "c5eaa0f43022da141f2eb62f335de0b5", "type": "electric_scooter", "name": "c5eaa0f43022da141f2eb62f335de0b5"}, {"is_disabled": 0, "is_reserved": 0, "fusion_lat": 0.0, "lat": 38.9319785, "fusion_lon": 0.0, "rental_uris": {"ios": "https://dc.lft.to/lastmile_qr_scan", "android": "https://dc.lft.to/lastmile_qr_scan"}, "lon": -77.02451566666667, "bike_id": "f991b259dce6bcc3a24231b32a380f63", "type": "electric_scooter", "name": "f991b259dce6bcc3a24231b32a380f63"}, {"is_disabled": 0, "is_reserved": 0, "fusion_lat": 0.0, "lat": 38.92077783333333, "fusion_lon": 0.0, "rental_uris": {"ios": "https://dc.lft.to/lastmile_qr_scan", "android": "https://dc.lft.to/lastmile_qr_scan"}, "lon": -77.00453366666666, "bike_id": "84b2c7a0056482de2cb3b08a53d0828c", "type": "electric_scooter", "name": "84b2c7a0056482de2cb3b08a53d0828c"}, {"is_disabled": 0, "is_reserved": 0, "fusion_lat": 0.0, "lat": 38.908398166666665, "fusion_lon": 0.0, "rental_uris": {"ios": "https://dc.lft.to/lastmile_qr_scan", "android": "https://dc.lft.to/lastmile_qr_scan"}, "lon": -77.020599, "bike_id": "27d826ee9094238c8f58b1a3f0fe1bf6", "type": "electric_scooter", "name": "27d826ee9094238c8f58b1a3f0fe1bf6"}, {"is_disabled": 0, "is_reserved": 0, "fusion_lat": 0.0, "lat": 38.94604266666666, "fusion_lon": 0.0, "rental_uris": {"ios": "https://dc.lft.to/lastmile_qr_scan", "android": "https://dc.lft.to/lastmile_qr_scan"}, "lon": -77.017367, "bike_id": "7d0c771ac5c83730c071fa33af92cec6", "type": "electric_bike", "name": "7d0c771ac5c83730c071fa33af92cec6"}, {"is_disabled": 0, "is_reserved": 0, "fusion_lat": 0.0, "lat": 38.93699083333333, "fusion_lon": 0.0, "rental_uris": {"ios": "https://dc.lft.to/lastmile_qr_scan", "android": "https://dc.lft.to/lastmile_qr_scan"}, "lon": -77.055986, "bike_id": "1b2e21cb7c02e4fde6a48c958e8da867", "type": "electric_scooter", "name": "1b2e21cb7c02e4fde6a48c958e8da867"}, {"is_disabled": 0, "is_reserved": 0, "fusion_lat": 0.0, "lat": 38.928838666666664, "fusion_lon": 0.0, "rental_uris": {"ios": "https://dc.lft.to/lastmile_qr_scan", "android": "https://dc.lft.to/lastmile_qr_scan"}, "lon": -77.03361933333333, "bike_id": "5913eb133046466a3066b2df3baa24cf", "type": "electric_scooter", "name": "5913eb133046466a3066b2df3baa24cf"}, {"is_disabled": 0, "is_reserved": 0, "fusion_lat": 0.0, "lat": 38.953058166666665, "fusion_lon": 0.0, "rental_uris": {"ios": "https://dc.lft.to/lastmile_qr_scan", "android": "https://dc.lft.to/lastmile_qr_scan"}, "lon": -77.02021116666667, "bike_id": "2d77b05c96fa707b13c23a76e185966d", "type": "electric_scooter", "name": "2d77b05c96fa707b13c23a76e185966d"}, {"is_disabled": 0, "is_reserved": 0, "fusion_lat": 0.0, "lat": 38.9037495, "fusion_lon": 0.0, "rental_uris": {"ios": "https://dc.lft.to/lastmile_qr_scan", "android": "https://dc.lft.to/lastmile_qr_scan"}, "lon": -77.01849983333334, "bike_id": "95a7d4ae192250cc09c2de62a8e51b72", "type": "electric_scooter", "name": "95a7d4ae192250cc09c2de62a8e51b72"}, {"is_disabled": 0, "is_reserved": 0, "fusion_lat": 0.0, "lat": 38.953650333333336, "fusion_lon": 0.0, "rental_uris": {"ios": "https://dc.lft.to/lastmile_qr_scan", "android": "https://dc.lft.to/lastmile_qr_scan"}, "lon": -76.998491, "bike_id": "6fc1d51a8a4f4092c91da538aea9a116", "type": "electric_scooter", "name": "6fc1d51a8a4f4092c91da538aea9a116"}, {"is_disabled": 0, "is_reserved": 0, "fusion_lat": 0.0, "lat": 38.9345795, "fusion_lon": 0.0, "rental_uris": {"ios": "https://dc.lft.to/lastmile_qr_scan", "android": "https://dc.lft.to/lastmile_qr_scan"}, "lon": -77.02399716666666, "bike_id": "d0158ea016d56e92f2185c1a1664c6f5", "type": "electric_scooter", "name": "d0158ea016d56e92f2185c1a1664c6f5"}, {"is_disabled": 0, "is_reserved": 0, "fusion_lat": 0.0, "lat": 38.88581033333333, "fusion_lon": 0.0, "rental_uris": {"ios": "https://dc.lft.to/lastmile_qr_scan", "android": "https://dc.lft.to/lastmile_qr_scan"}, "lon": -77.012296, "bike_id": "c0bb8ee2ef457b83fb9d7afa7c2278a6", "type": "electric_scooter", "name": "c0bb8ee2ef457b83fb9d7afa7c2278a6"}, {"is_disabled": 0, "is_reserved": 0, "fusion_lat": 0.0, "lat": 38.92502433333333, "fusion_lon": 0.0, "rental_uris": {"ios": "https://dc.lft.to/lastmile_qr_scan", "android": "https://dc.lft.to/lastmile_qr_scan"}, "lon": -77.0434085, "bike_id": "83c4ed35959712214168aef13c2db51d", "type": "electric_scooter", "name": "83c4ed35959712214168aef13c2db51d"}, {"is_disabled": 0, "is_reserved": 0, "fusion_lat": 0.0, "lat": 38.911800666666664, "fusion_lon": 0.0, "rental_uris": {"ios": "https://dc.lft.to/lastmile_qr_scan", "android": "https://dc.lft.to/lastmile_qr_scan"}, "lon": -77.0403155, "bike_id": "d73f8dff9ab629f09613e16cb3df6308", "type": "electric_scooter", "name": "d73f8dff9ab629f09613e16cb3df6308"}, {"is_disabled": 0, "is_reserved": 0, "fusion_lat": 0.0, "lat": 38.908144166666666, "fusion_lon": 0.0, "rental_uris": {"ios": "https://dc.lft.to/lastmile_qr_scan", "android": "https://dc.lft.to/lastmile_qr_scan"}, "lon": -77.04437066666667, "bike_id": "527a15fa4282bc922213751b4477fadd", "type": "electric_scooter", "name": "527a15fa4282bc922213751b4477fadd"}, {"is_disabled": 0, "is_reserved": 0, "fusion_lat": 0.0, "lat": 38.8752355, "fusion_lon": 0.0, "rental_uris": {"ios": "https://dc.lft.to/lastmile_qr_scan", "android": "https://dc.lft.to/lastmile_qr_scan"}, "lon": -77.01229316666667, "bike_id": "b7075d7b4c36be9f8064d5a0363c2484", "type": "electric_scooter", "name": "b7075d7b4c36be9f8064d5a0363c2484"}, {"is_disabled": 0, "is_reserved": 0, "fusion_lat": 0.0, "lat": 38.927068, "fusion_lon": 0.0, "rental_uris": {"ios": "https://dc.lft.to/lastmile_qr_scan", "android": "https://dc.lft.to/lastmile_qr_scan"}, "lon": -76.96081283333334, "bike_id": "4f413b9dda24fe99db9c8464a96f0dc5", "type": "electric_scooter", "name": "4f413b9dda24fe99db9c8464a96f0dc5"}, {"is_disabled": 0, "is_reserved": 0, "fusion_lat": 0.0, "lat": 38.925703666666664, "fusion_lon": 0.0, "rental_uris": {"ios": "https://dc.lft.to/lastmile_qr_scan", "android": "https://dc.lft.to/lastmile_qr_scan"}, "lon": -76.9949235, "bike_id": "45eed53c7a56fe780705ea9a6737f964", "type": "electric_scooter", "name": "45eed53c7a56fe780705ea9a6737f964"}, {"is_disabled": 0, "is_reserved": 0, "fusion_lat": 0.0, "lat": 38.93946183333333, "fusion_lon": 0.0, "rental_uris": {"ios": "https://dc.lft.to/lastmile_qr_scan", "android": "https://dc.lft.to/lastmile_qr_scan"}, "lon": -77.02180416666667, "bike_id": "afa7f1431c34b59b833cafb6d9ed8c38", "type": "electric_scooter", "name": "afa7f1431c34b59b833cafb6d9ed8c38"}, {"is_disabled": 0, "is_reserved": 0, "fusion_lat": 0.0, "lat": 38.91901633333333, "fusion_lon": 0.0, "rental_uris": {"ios": "https://dc.lft.to/lastmile_qr_scan", "android": "https://dc.lft.to/lastmile_qr_scan"}, "lon": -77.000486, "bike_id": "01e7c084b9922b87ec0403b0118c263f", "type": "electric_scooter", "name": "01e7c084b9922b87ec0403b0118c263f"}, {"is_disabled": 0, "is_reserved": 0, "fusion_lat": 0.0, "lat": 38.88103816666667, "fusion_lon": 0.0, "rental_uris": {"ios": "https://dc.lft.to/lastmile_qr_scan", "android": "https://dc.lft.to/lastmile_qr_scan"}, "lon": -77.01233933333333, "bike_id": "54459c2a6d0c8e81def885e48db1b1db", "type": "electric_scooter", "name": "54459c2a6d0c8e81def885e48db1b1db"}, {"is_disabled": 0, "is_reserved": 0, "fusion_lat": 0.0, "lat": 38.877383333333334, "fusion_lon": 0.0, "rental_uris": {"ios": "https://dc.lft.to/lastmile_qr_scan", "android": "https://dc.lft.to/lastmile_qr_scan"}, "lon": -77.14873666666666, "bike_id": "6687c03a5f5ef1688e5c3aa7107d8c1c", "type": "electric_bike", "name": "6687c03a5f5ef1688e5c3aa7107d8c1c"}, {"is_disabled": 0, "is_reserved": 0, "fusion_lat": 0.0, "lat": 38.912052833333334, "fusion_lon": 0.0, "rental_uris": {"ios": "https://dc.lft.to/lastmile_qr_scan", "android": "https://dc.lft.to/lastmile_qr_scan"}, "lon": -77.00084633333333, "bike_id": "caaff43a632d9026caabd25f49ed5119", "type": "electric_scooter", "name": "caaff43a632d9026caabd25f49ed5119"}, {"is_disabled": 0, "is_reserved": 0, "fusion_lat": 0.0, "lat": 38.86517883333333, "fusion_lon": 0.0, "rental_uris": {"ios": "https://dc.lft.to/lastmile_qr_scan", "android": "https://dc.lft.to/lastmile_qr_scan"}, "lon": -76.97321216666667, "bike_id": "ba8dd5a785fc970b6f038a0afa9b5a1d", "type": "electric_bike", "name": "ba8dd5a785fc970b6f038a0afa9b5a1d"}, {"is_disabled": 0, "is_reserved": 0, "fusion_lat": 0.0, "lat": 38.885251833333335, "fusion_lon": 0.0, "rental_uris": {"ios": "https://dc.lft.to/lastmile_qr_scan", "android": "https://dc.lft.to/lastmile_qr_scan"}, "lon": -76.99606833333333, "bike_id": "30540469bfe04d90316c455acf4e9d16", "type": "electric_scooter", "name": "30540469bfe04d90316c455acf4e9d16"}, {"is_disabled": 0, "is_reserved": 0, "fusion_lat": 0.0, "lat": 39.00534733333333, "fusion_lon": 0.0, "rental_uris": {"ios": "https://dc.lft.to/lastmile_qr_scan", "android": "https://dc.lft.to/lastmile_qr_scan"}, "lon": -77.10402433333333, "bike_id": "c9ac5036ed5df111ea3958265174aa00", "type": "electric_bike", "name": "c9ac5036ed5df111ea3958265174aa00"}, {"is_disabled": 0, "is_reserved": 0, "fusion_lat": 0.0, "lat": 38.907691, "fusion_lon": 0.0, "rental_uris": {"ios": "https://dc.lft.to/lastmile_qr_scan", "android": "https://dc.lft.to/lastmile_qr_scan"}, "lon": -77.0449405, "bike_id": "41b3635570fd45156fc3f30a780eea88", "type": "electric_scooter", "name": "41b3635570fd45156fc3f30a780eea88"}, {"is_disabled": 0, "is_reserved": 0, "fusion_lat": 0.0, "lat": 38.87679633333333, "fusion_lon": 0.0, "rental_uris": {"ios": "https://dc.lft.to/lastmile_qr_scan", "android": "https://dc.lft.to/lastmile_qr_scan"}, "lon": -77.000541, "bike_id": "ca8fd2cff4623108c2f48be54d75779e", "type": "electric_scooter", "name": "ca8fd2cff4623108c2f48be54d75779e"}, {"is_disabled": 0, "is_reserved": 0, "fusion_lat": 0.0, "lat": 38.8303885, "fusion_lon": 0.0, "rental_uris": {"ios": "https://dc.lft.to/lastmile_qr_scan", "android": "https://dc.lft.to/lastmile_qr_scan"}, "lon": -77.00822116666667, "bike_id": "b386baf652b85b33f1e320d6fafc9c57", "type": "electric_bike", "name": "b386baf652b85b33f1e320d6fafc9c57"}, {"is_disabled": 0, "is_reserved": 0, "fusion_lat": 0.0, "lat": 38.904824166666664, "fusion_lon": 0.0, "rental_uris": {"ios": "https://dc.lft.to/lastmile_qr_scan", "android": "https://dc.lft.to/lastmile_qr_scan"}, "lon": -77.00836916666667, "bike_id": "4c8e7f51e4e279d3829012f855b8be22", "type": "electric_scooter", "name": "4c8e7f51e4e279d3829012f855b8be22"}, {"is_disabled": 0, "is_reserved": 0, "fusion_lat": 0.0, "lat": 38.845725, "fusion_lon": 0.0, "rental_uris": {"ios": "https://dc.lft.to/lastmile_qr_scan", "android": "https://dc.lft.to/lastmile_qr_scan"}, "lon": -77.074615, "bike_id": "ddc0c0bff7daddbfe9e085b4d9a580e4", "type": "electric_bike", "name": "ddc0c0bff7daddbfe9e085b4d9a580e4"}, {"is_disabled": 0, "is_reserved": 0, "fusion_lat": 0.0, "lat": 38.92350733333333, "fusion_lon": 0.0, "rental_uris": {"ios": "https://dc.lft.to/lastmile_qr_scan", "android": "https://dc.lft.to/lastmile_qr_scan"}, "lon": -77.03378316666667, "bike_id": "b4747f17717b43c567cf62a2e72ace2a", "type": "electric_scooter", "name": "b4747f17717b43c567cf62a2e72ace2a"}, {"is_disabled": 0, "is_reserved": 0, "fusion_lat": 0.0, "lat": 38.899661, "fusion_lon": 0.0, "rental_uris": {"ios": "https://dc.lft.to/lastmile_qr_scan", "android": "https://dc.lft.to/lastmile_qr_scan"}, "lon": -76.93765116666667, "bike_id": "b1f5ba206338946864f6c324914a6230", "type": "electric_scooter", "name": "b1f5ba206338946864f6c324914a6230"}, {"is_disabled": 0, "is_reserved": 0, "fusion_lat": 0.0, "lat": 38.92362766666667, "fusion_lon": 0.0, "rental_uris": {"ios": "https://dc.lft.to/lastmile_qr_scan", "android": "https://dc.lft.to/lastmile_qr_scan"}, "lon": -77.01920166666666, "bike_id": "fb7a8d0b26c2599f0aa417dc83de2cf2", "type": "electric_scooter", "name": "fb7a8d0b26c2599f0aa417dc83de2cf2"}, {"is_disabled": 0, "is_reserved": 0, "fusion_lat": 0.0, "lat": 38.9089335, "fusion_lon": 0.0, "rental_uris": {"ios": "https://dc.lft.to/lastmile_qr_scan", "android": "https://dc.lft.to/lastmile_qr_scan"}, "lon": -77.03398016666667, "bike_id": "439ca81d3d3c41a30e761d6f91869373", "type": "electric_scooter", "name": "439ca81d3d3c41a30e761d6f91869373"}, {"is_disabled": 0, "is_reserved": 0, "fusion_lat": 0.0, "lat": 38.90786033333333, "fusion_lon": 0.0, "rental_uris": {"ios": "https://dc.lft.to/lastmile_qr_scan", "android": "https://dc.lft.to/lastmile_qr_scan"}, "lon": -77.04482233333333, "bike_id": "6c016a968ce8bc363b35b4b6ddd95f97", "type": "electric_scooter", "name": "6c016a968ce8bc363b35b4b6ddd95f97"}, {"is_disabled": 0, "is_reserved": 0, "fusion_lat": 0.0, "lat": 38.90345083333333, "fusion_lon": 0.0, "rental_uris": {"ios": "https://dc.lft.to/lastmile_qr_scan", "android": "https://dc.lft.to/lastmile_qr_scan"}, "lon": -76.9827765, "bike_id": "fac3e4ff70f59f346ddebabde9decf78", "type": "electric_scooter", "name": "fac3e4ff70f59f346ddebabde9decf78"}, {"is_disabled": 0, "is_reserved": 0, "fusion_lat": 0.0, "lat": 38.884352166666666, "fusion_lon": 0.0, "rental_uris": {"ios": "https://dc.lft.to/lastmile_qr_scan", "android": "https://dc.lft.to/lastmile_qr_scan"}, "lon": -76.93548716666666, "bike_id": "dca7e5dbcea83800ef93c64040c86b68", "type": "electric_scooter", "name": "dca7e5dbcea83800ef93c64040c86b68"}, {"is_disabled": 0, "is_reserved": 0, "fusion_lat": 0.0, "lat": 38.923730166666665, "fusion_lon": 0.0, "rental_uris": {"ios": "https://dc.lft.to/lastmile_qr_scan", "android": "https://dc.lft.to/lastmile_qr_scan"}, "lon": -77.03118116666667, "bike_id": "6cf07cadf85873a8a3379a958e85faf8", "type": "electric_scooter", "name": "6cf07cadf85873a8a3379a958e85faf8"}, {"is_disabled": 0, "is_reserved": 0, "fusion_lat": 0.0, "lat": 38.88292366666667, "fusion_lon": 0.0, "rental_uris": {"ios": "https://dc.lft.to/lastmile_qr_scan", "android": "https://dc.lft.to/lastmile_qr_scan"}, "lon": -76.9319615, "bike_id": "7e787f104a9446beb6e4b60f7c08d881", "type": "electric_scooter", "name": "7e787f104a9446beb6e4b60f7c08d881"}, {"is_disabled": 0, "is_reserved": 0, "fusion_lat": 0.0, "lat": 38.90003083333333, "fusion_lon": 0.0, "rental_uris": {"ios": "https://dc.lft.to/lastmile_qr_scan", "android": "https://dc.lft.to/lastmile_qr_scan"}, "lon": -77.00098033333333, "bike_id": "62910959f6d6d7161e09a56160383653", "type": "electric_scooter", "name": "62910959f6d6d7161e09a56160383653"}, {"is_disabled": 0, "is_reserved": 0, "fusion_lat": 0.0, "lat": 38.963565, "fusion_lon": 0.0, "rental_uris": {"ios": "https://dc.lft.to/lastmile_qr_scan", "android": "https://dc.lft.to/lastmile_qr_scan"}, "lon": -77.03444383333333, "bike_id": "544e63d1027da582bd9ecfc541e17277", "type": "electric_scooter", "name": "544e63d1027da582bd9ecfc541e17277"}, {"is_disabled": 0, "is_reserved": 0, "fusion_lat": 0.0, "lat": 38.895508, "fusion_lon": 0.0, "rental_uris": {"ios": "https://dc.lft.to/lastmile_qr_scan", "android": "https://dc.lft.to/lastmile_qr_scan"}, "lon": -77.046565, "bike_id": "5c2856ef9d3cf7f011e175952c65f04e", "type": "electric_scooter", "name": "5c2856ef9d3cf7f011e175952c65f04e"}, {"is_disabled": 0, "is_reserved": 0, "fusion_lat": 0.0, "lat": 38.904437, "fusion_lon": 0.0, "rental_uris": {"ios": "https://dc.lft.to/lastmile_qr_scan", "android": "https://dc.lft.to/lastmile_qr_scan"}, "lon": -76.97305516666667, "bike_id": "64a3280d4eb998f61d382e71147eea30", "type": "electric_scooter", "name": "64a3280d4eb998f61d382e71147eea30"}, {"is_disabled": 0, "is_reserved": 0, "fusion_lat": 0.0, "lat": 38.842757166666665, "fusion_lon": 0.0, "rental_uris": {"ios": "https://dc.lft.to/lastmile_qr_scan", "android": "https://dc.lft.to/lastmile_qr_scan"}, "lon": -76.988319, "bike_id": "f36ab8664cfe5f71d11532bdd38a466b", "type": "electric_scooter", "name": "f36ab8664cfe5f71d11532bdd38a466b"}, {"is_disabled": 0, "is_reserved": 0, "fusion_lat": 0.0, "lat": 38.877556166666665, "fusion_lon": 0.0, "rental_uris": {"ios": "https://dc.lft.to/lastmile_qr_scan", "android": "https://dc.lft.to/lastmile_qr_scan"}, "lon": -77.0044765, "bike_id": "6e03831cbc1735b40f9fe00a15762cc5", "type": "electric_scooter", "name": "6e03831cbc1735b40f9fe00a15762cc5"}, {"is_disabled": 0, "is_reserved": 0, "fusion_lat": 0.0, "lat": 38.919961666666666, "fusion_lon": 0.0, "rental_uris": {"ios": "https://dc.lft.to/lastmile_qr_scan", "android": "https://dc.lft.to/lastmile_qr_scan"}, "lon": -77.032207, "bike_id": "bc000209ffe211c7ebc1faf290b6c694", "type": "electric_scooter", "name": "bc000209ffe211c7ebc1faf290b6c694"}, {"is_disabled": 0, "is_reserved": 0, "fusion_lat": 0.0, "lat": 38.9147385, "fusion_lon": 0.0, "rental_uris": {"ios": "https://dc.lft.to/lastmile_qr_scan", "android": "https://dc.lft.to/lastmile_qr_scan"}, "lon": -77.00199066666667, "bike_id": "7c29fa6cf4b19fe0ec20492b007422e3", "type": "electric_scooter", "name": "7c29fa6cf4b19fe0ec20492b007422e3"}, {"is_disabled": 0, "is_reserved": 0, "fusion_lat": 0.0, "lat": 38.92792166666667, "fusion_lon": 0.0, "rental_uris": {"ios": "https://dc.lft.to/lastmile_qr_scan", "android": "https://dc.lft.to/lastmile_qr_scan"}, "lon": -77.01405966666667, "bike_id": "f761d17b53470fb5a55acf8e32544a3c", "type": "electric_scooter", "name": "f761d17b53470fb5a55acf8e32544a3c"}, {"is_disabled": 0, "is_reserved": 0, "fusion_lat": 0.0, "lat": 38.896044, "fusion_lon": 0.0, "rental_uris": {"ios": "https://dc.lft.to/lastmile_qr_scan", "android": "https://dc.lft.to/lastmile_qr_scan"}, "lon": -76.99801683333334, "bike_id": "10a1d2c58e3aaa2c298a44f61bc813d3", "type": "electric_scooter", "name": "10a1d2c58e3aaa2c298a44f61bc813d3"}, {"is_disabled": 0, "is_reserved": 0, "fusion_lat": 0.0, "lat": 38.91111516666667, "fusion_lon": 0.0, "rental_uris": {"ios": "https://dc.lft.to/lastmile_qr_scan", "android": "https://dc.lft.to/lastmile_qr_scan"}, "lon": -77.01163916666667, "bike_id": "2d8bc218578650d7c576f5293ebc5f57", "type": "electric_scooter", "name": "2d8bc218578650d7c576f5293ebc5f57"}, {"is_disabled": 0, "is_reserved": 0, "fusion_lat": 0.0, "lat": 38.92891866666667, "fusion_lon": 0.0, "rental_uris": {"ios": "https://dc.lft.to/lastmile_qr_scan", "android": "https://dc.lft.to/lastmile_qr_scan"}, "lon": -77.022904, "bike_id": "72009b738fea3a872c4664e9de08ce2b", "type": "electric_scooter", "name": "72009b738fea3a872c4664e9de08ce2b"}, {"is_disabled": 0, "is_reserved": 0, "fusion_lat": 0.0, "lat": 38.89249216666666, "fusion_lon": 0.0, "rental_uris": {"ios": "https://dc.lft.to/lastmile_qr_scan", "android": "https://dc.lft.to/lastmile_qr_scan"}, "lon": -77.03957966666667, "bike_id": "8c705f2b4020bba32c6df046c8e78676", "type": "electric_scooter", "name": "8c705f2b4020bba32c6df046c8e78676"}, {"is_disabled": 0, "is_reserved": 0, "fusion_lat": 0.0, "lat": 38.91543383333333, "fusion_lon": 0.0, "rental_uris": {"ios": "https://dc.lft.to/lastmile_qr_scan", "android": "https://dc.lft.to/lastmile_qr_scan"}, "lon": -77.009179, "bike_id": "1d9eadeded7b245018b447b6c7509aa3", "type": "electric_scooter", "name": "1d9eadeded7b245018b447b6c7509aa3"}, {"is_disabled": 0, "is_reserved": 0, "fusion_lat": 0.0, "lat": 38.915817, "fusion_lon": 0.0, "rental_uris": {"ios": "https://dc.lft.to/lastmile_qr_scan", "android": "https://dc.lft.to/lastmile_qr_scan"}, "lon": -76.9772485, "bike_id": "45bdee75a71c46878e37b61b2f69e293", "type": "electric_scooter", "name": "45bdee75a71c46878e37b61b2f69e293"}, {"is_disabled": 0, "is_reserved": 0, "fusion_lat": 0.0, "lat": 38.9065685, "fusion_lon": 0.0, "rental_uris": {"ios": "https://dc.lft.to/lastmile_qr_scan", "android": "https://dc.lft.to/lastmile_qr_scan"}, "lon": -77.05331333333334, "bike_id": "9f466d72c51ce66e954089d807a6d534", "type": "electric_scooter", "name": "9f466d72c51ce66e954089d807a6d534"}, {"is_disabled": 0, "is_reserved": 0, "fusion_lat": 0.0, "lat": 38.923420166666666, "fusion_lon": 0.0, "rental_uris": {"ios": "https://dc.lft.to/lastmile_qr_scan", "android": "https://dc.lft.to/lastmile_qr_scan"}, "lon": -77.03530766666667, "bike_id": "6bcc95c4d0ce16010f81168aa3a00323", "type": "electric_scooter", "name": "6bcc95c4d0ce16010f81168aa3a00323"}, {"is_disabled": 0, "is_reserved": 0, "fusion_lat": 0.0, "lat": 38.96763216666667, "fusion_lon": 0.0, "rental_uris": {"ios": "https://dc.lft.to/lastmile_qr_scan", "android": "https://dc.lft.to/lastmile_qr_scan"}, "lon": -77.0342505, "bike_id": "295e637f47380c9369262314de407018", "type": "electric_scooter", "name": "295e637f47380c9369262314de407018"}, {"is_disabled": 0, "is_reserved": 0, "fusion_lat": 0.0, "lat": 38.92750233333334, "fusion_lon": 0.0, "rental_uris": {"ios": "https://dc.lft.to/lastmile_qr_scan", "android": "https://dc.lft.to/lastmile_qr_scan"}, "lon": -77.02374616666667, "bike_id": "33cee4f576bf881e7b5304f980870ae5", "type": "electric_scooter", "name": "33cee4f576bf881e7b5304f980870ae5"}, {"is_disabled": 0, "is_reserved": 0, "fusion_lat": 0.0, "lat": 38.907765, "fusion_lon": 0.0, "rental_uris": {"ios": "https://dc.lft.to/lastmile_qr_scan", "android": "https://dc.lft.to/lastmile_qr_scan"}, "lon": -77.0354395, "bike_id": "f3925439706b17be687cdfa28995b1d9", "type": "electric_scooter", "name": "f3925439706b17be687cdfa28995b1d9"}, {"is_disabled": 0, "is_reserved": 0, "fusion_lat": 0.0, "lat": 38.89562466666667, "fusion_lon": 0.0, "rental_uris": {"ios": "https://dc.lft.to/lastmile_qr_scan", "android": "https://dc.lft.to/lastmile_qr_scan"}, "lon": -77.12729466666667, "bike_id": "73cb04ff3f45f3bcdd9dac716db28166", "type": "electric_bike", "name": "73cb04ff3f45f3bcdd9dac716db28166"}, {"is_disabled": 0, "is_reserved": 0, "fusion_lat": 0.0, "lat": 38.92776166666667, "fusion_lon": 0.0, "rental_uris": {"ios": "https://dc.lft.to/lastmile_qr_scan", "android": "https://dc.lft.to/lastmile_qr_scan"}, "lon": -77.052636, "bike_id": "ab2d0a186aa835df6801c265ed9808c5", "type": "electric_scooter", "name": "ab2d0a186aa835df6801c265ed9808c5"}, {"is_disabled": 0, "is_reserved": 0, "fusion_lat": 0.0, "lat": 38.941042, "fusion_lon": 0.0, "rental_uris": {"ios": "https://dc.lft.to/lastmile_qr_scan", "android": "https://dc.lft.to/lastmile_qr_scan"}, "lon": -76.956246, "bike_id": "2f6b39d97a319a3e0d07327764a993ac", "type": "electric_bike", "name": "2f6b39d97a319a3e0d07327764a993ac"}, {"is_disabled": 0, "is_reserved": 0, "fusion_lat": 0.0, "lat": 38.92176283333333, "fusion_lon": 0.0, "rental_uris": {"ios": "https://dc.lft.to/lastmile_qr_scan", "android": "https://dc.lft.to/lastmile_qr_scan"}, "lon": -77.0182235, "bike_id": "afbb6f2f43d2a8dbf0aa70959d7c352b", "type": "electric_scooter", "name": "afbb6f2f43d2a8dbf0aa70959d7c352b"}, {"is_disabled": 0, "is_reserved": 0, "fusion_lat": 0.0, "lat": 38.905075, "fusion_lon": 0.0, "rental_uris": {"ios": "https://dc.lft.to/lastmile_qr_scan", "android": "https://dc.lft.to/lastmile_qr_scan"},