{"data": {"bikes": [{"rental_uris": {"android": "https://dc.lft.to/lastmile_qr_scan", "ios": "https://dc.lft.to/lastmile_qr_scan"}, "is_reserved": 0, "is_disabled": 0, "name": "c30ea26640eff7b962203ebd50d15807", "bike_id": "c30ea26640eff7b962203ebd50d15807", "fusion_lat": 0.0, "lon": -77.05397933333333, "type": "electric_scooter", "fusion_lon": 0.0, "lat": 38.910542}, {"rental_uris": {"android": "https://dc.lft.to/lastmile_qr_scan", "ios": "https://dc.lft.to/lastmile_qr_scan"}, "is_reserved": 0, "is_disabled": 0, "name": "d1b4b91330e3bbe101ae4a1a27f6561d", "bike_id": "d1b4b91330e3bbe101ae4a1a27f6561d", "fusion_lat": 0.0, "lon": -77.03342233333333, "type": "electric_scooter", "fusion_lon": 0.0, "lat": 38.92162066666667}, {"rental_uris": {"android": "https://dc.lft.to/lastmile_qr_scan", "ios": "https://dc.lft.to/lastmile_qr_scan"}, "is_reserved": 0, "is_disabled": 0, "name": "458be3d485e50a35bff7992942f9a257", "bike_id": "458be3d485e50a35bff7992942f9a257", "fusion_lat": 0.0, "lon": -77.03454483333333, "type": "electric_scooter", "fusion_lon": 0.0, "lat": 38.906255333333334}, {"rental_uris": {"android": "https://dc.lft.to/lastmile_qr_scan", "ios": "https://dc.lft.to/lastmile_qr_scan"}, "is_reserved": 0, "is_disabled": 0, "name": "79425905b8aca90c35e46e134c846854", "bike_id": "79425905b8aca90c35e46e134c846854", "fusion_lat": 0.0, "lon": -76.99572583333334, "type": "electric_scooter", "fusion_lon": 0.0, "lat": 38.9000775}, {"rental_uris": {"android": "https://dc.lft.to/lastmile_qr_scan", "ios": "https://dc.lft.to/lastmile_qr_scan"}, "is_reserved": 0, "is_disabled": 0, "name": "79c20b27edda46e6f96f62318b31b49e", "bike_id": "79c20b27edda46e6f96f62318b31b49e", "fusion_lat": 0.0, "lon": -77.07757366666667, "type": "electric_bike", "fusion_lon": 0.0, "lat": 38.841933833333336}, {"rental_uris": {"android": "https://dc.lft.to/lastmile_qr_scan", "ios": "https://dc.lft.to/lastmile_qr_scan"}, "is_reserved": 0, "is_disabled": 0, "name": "4f5b971cbd141c6d7200d63ce2368791", "bike_id": "4f5b971cbd141c6d7200d63ce2368791", "fusion_lat": 0.0, "lon": -77.07307933333334, "type": "electric_scooter", "fusion_lon": 0.0, "lat": 38.9219935}, {"rental_uris": {"android": "https://dc.lft.to/lastmile_qr_scan", "ios": "https://dc.lft.to/lastmile_qr_scan"}, "is_reserved": 0, "is_disabled": 0, "name": "f1c49ab494ec900f27ba9d4a72ff76bc", "bike_id": "f1c49ab494ec900f27ba9d4a72ff76bc", "fusion_lat": 0.0, "lon": -77.04328083333333, "type": "electric_scooter", "fusion_lon": 0.0, "lat": 38.8922065}, {"rental_uris": {"android": "https://dc.lft.to/lastmile_qr_scan", "ios": "https://dc.lft.to/lastmile_qr_scan"}, "is_reserved": 0, "is_disabled": 0, "name": "80d684777fe7774da8b775a7effbd3be", "bike_id": "80d684777fe7774da8b775a7effbd3be", "fusion_lat": 0.0, "lon": -77.03382933333333, "type": "electric_scooter", "fusion_lon": 0.0, "lat": 38.924673}, {"rental_uris": {"android": "https://dc.lft.to/lastmile_qr_scan", "ios": "https://dc.lft.to/lastmile_qr_scan"}, "is_reserved": 0, "is_disabled": 0, "name": "f16464c09ecd236d2a77f0bbdfed71c3", "bike_id": "f16464c09ecd236d2a77f0bbdfed71c3", "fusion_lat": 0.0, "lon": -77.048888, "type": "electric_scooter", "fusion_lon": 0.0, "lat": 38.905397}, {"rental_uris": {"android": "https://dc.lft.to/lastmile_qr_scan", "ios": "https://dc.lft.to/lastmile_qr_scan"}, "is_reserved": 0, "is_disabled": 0, "name": "051568333bc96c70432ede5bfd9a83ae", "bike_id": "051568333bc96c70432ede5bfd9a83ae", "fusion_lat": 0.0, "lon": -77.02766483333333, "type": "electric_scooter", "fusion_lon": 0.0, "lat": 38.95419416666667}, {"rental_uris": {"android": "https://dc.lft.to/lastmile_qr_scan", "ios": "https://dc.lft.to/lastmile_qr_scan"}, "is_reserved": 0, "is_disabled": 0, "name": "993760d6ea321caaad386991fbbb17eb", "bike_id": "993760d6ea321caaad386991fbbb17eb", "fusion_lat": 0.0, "lon": -76.98375266666666, "type": "electric_scooter", "fusion_lon": 0.0, "lat": 38.89264433333334}, {"rental_uris": {"android": "https://dc.lft.to/lastmile_qr_scan", "ios": "https://dc.lft.to/lastmile_qr_scan"}, "is_reserved": 0, "is_disabled": 0, "name": "92db51c39af28428239fddca5daa0b82", "bike_id": "92db51c39af28428239fddca5daa0b82", "fusion_lat": 0.0, "lon": -77.015051, "type": "electric_scooter", "fusion_lon": 0.0, "lat": 38.89335416666667}, {"rental_uris": {"android": "https://dc.lft.to/lastmile_qr_scan", "ios": "https://dc.lft.to/lastmile_qr_scan"}, "is_reserved": 0, "is_disabled": 0, "name": "afac971ff7e933005289126718024551", "bike_id": "afac971ff7e933005289126718024551", "fusion_lat": 0.0, "lon": -77.04880633333333, "type": "electric_scooter", "fusion_lon": 0.0, "lat": 38.90396583333333}, {"rental_uris": {"android": "https://dc.lft.to/lastmile_qr_scan", "ios": "https://dc.lft.to/lastmile_qr_scan"}, "is_reserved": 0, "is_disabled": 0, "name": "ccfc7fc601b4737eb2084461050852c1", "bike_id": "ccfc7fc601b4737eb2084461050852c1", "fusion_lat": 0.0, "lon": -77.01179733333333, "type": "electric_scooter", "fusion_lon": 0.0, "lat": 38.900329666666664}, {"rental_uris": {"android": "https://dc.lft.to/lastmile_qr_scan", "ios": "https://dc.lft.to/lastmile_qr_scan"}, "is_reserved": 0, "is_disabled": 0, "name": "cf71b9146edf61c42a26c1ed74536f86", "bike_id": "cf71b9146edf61c42a26c1ed74536f86", "fusion_lat": 0.0, "lon": -77.02117683333333, "type": "electric_bike", "fusion_lon": 0.0, "lat": 38.935971333333335}, {"rental_uris": {"android": "https://dc.lft.to/lastmile_qr_scan", "ios": "https://dc.lft.to/lastmile_qr_scan"}, "is_reserved": 0, "is_disabled": 0, "name": "0f0207fbb1a7e974a7fcd631fa4bf355", "bike_id": "0f0207fbb1a7e974a7fcd631fa4bf355", "fusion_lat": 0.0, "lon": -77.0345925, "type": "electric_scooter", "fusion_lon": 0.0, "lat": 38.911736166666664}, {"rental_uris": {"android": "https://dc.lft.to/lastmile_qr_scan", "ios": "https://dc.lft.to/lastmile_qr_scan"}, "is_reserved": 0, "is_disabled": 0, "name": "0bdf439d22b2da5387dea47f65fe5d4f", "bike_id": "0bdf439d22b2da5387dea47f65fe5d4f", "fusion_lat": 0.0, "lon": -77.00534683333333, "type": "electric_scooter", "fusion_lon": 0.0, "lat": 38.874686}, {"rental_uris": {"android": "https://dc.lft.to/lastmile_qr_scan", "ios": "https://dc.lft.to/lastmile_qr_scan"}, "is_reserved": 0, "is_disabled": 0, "name": "a0529a3f895e6deb4f2ac5ea15f41a6f", "bike_id": "a0529a3f895e6deb4f2ac5ea15f41a6f", "fusion_lat": 0.0, "lon": -77.02767083333333, "type": "electric_scooter", "fusion_lon": 0.0, "lat": 38.954197}, {"rental_uris": {"android": "https://dc.lft.to/lastmile_qr_scan", "ios": "https://dc.lft.to/lastmile_qr_scan"}, "is_reserved": 0, "is_disabled": 0, "name": "917dd8dda3feb07f49b149232107889c", "bike_id": "917dd8dda3feb07f49b149232107889c", "fusion_lat": 0.0, "lon": -77.028223, "type": "electric_scooter", "fusion_lon": 0.0, "lat": 38.914335333333334}, {"rental_uris": {"android": "https://dc.lft.to/lastmile_qr_scan", "ios": "https://dc.lft.to/lastmile_qr_scan"}, "is_reserved": 0, "is_disabled": 0, "name": "2ec0087a8b9278f16fb38e8a3d7fe057", "bike_id": "2ec0087a8b9278f16fb38e8a3d7fe057", "fusion_lat": 0.0, "lon": -77.02303816666667, "type": "electric_scooter", "fusion_lon": 0.0, "lat": 38.917905}, {"rental_uris": {"android": "https://dc.lft.to/lastmile_qr_scan", "ios": "https://dc.lft.to/lastmile_qr_scan"}, "is_reserved": 0, "is_disabled": 0, "name": "f57e5696e36ab95c1e20a506a04e0868", "bike_id": "f57e5696e36ab95c1e20a506a04e0868", "fusion_lat": 0.0, "lon": -77.0488605, "type": "electric_scooter", "fusion_lon": 0.0, "lat": 38.893242666666666}, {"rental_uris": {"android": "https://dc.lft.to/lastmile_qr_scan", "ios": "https://dc.lft.to/lastmile_qr_scan"}, "is_reserved": 0, "is_disabled": 0, "name": "86da85740fda6ccbe6cbac8251337ae6", "bike_id": "86da85740fda6ccbe6cbac8251337ae6", "fusion_lat": 0.0, "lon": -77.02810083333334, "type": "electric_scooter", "fusion_lon": 0.0, "lat": 38.9307935}, {"rental_uris": {"android": "https://dc.lft.to/lastmile_qr_scan", "ios": "https://dc.lft.to/lastmile_qr_scan"}, "is_reserved": 0, "is_disabled": 0, "name": "2eda00d54944c40f72c59e746a2e20e0", "bike_id": "2eda00d54944c40f72c59e746a2e20e0", "fusion_lat": 0.0, "lon": -77.0463895, "type": "electric_scooter", "fusion_lon": 0.0, "lat": 38.89221033333333}, {"rental_uris": {"android": "https://dc.lft.to/lastmile_qr_scan", "ios": "https://dc.lft.to/lastmile_qr_scan"}, "is_reserved": 0, "is_disabled": 0, "name": "fbc80927f4529ca2fe435607e8889978", "bike_id": "fbc80927f4529ca2fe435607e8889978", "fusion_lat": 0.0, "lon": -77.02605766666667, "type": "electric_scooter", "fusion_lon": 0.0, "lat": 38.92393583333333}, {"rental_uris": {"android": "https://dc.lft.to/lastmile_qr_scan", "ios": "https://dc.lft.to/lastmile_qr_scan"}, "is_reserved": 0, "is_disabled": 0, "name": "f85c5e84837dc406b61e96a11c18bacc", "bike_id": "f85c5e84837dc406b61e96a11c18bacc", "fusion_lat": 0.0, "lon": -76.90748266666667, "type": "electric_bike", "fusion_lon": 0.0, "lat": 38.8961715}, {"rental_uris": {"android": "https://dc.lft.to/lastmile_qr_scan", "ios": "https://dc.lft.to/lastmile_qr_scan"}, "is_reserved": 0, "is_disabled": 0, "name": "b89ea49843f4b4a7b5e61a5b7b266fcb", "bike_id": "b89ea49843f4b4a7b5e61a5b7b266fcb", "fusion_lat": 0.0, "lon": -77.0540425, "type": "electric_scooter", "fusion_lon": 0.0, "lat": 38.9015975}, {"rental_uris": {"android": "https://dc.lft.to/lastmile_qr_scan", "ios": "https://dc.lft.to/lastmile_qr_scan"}, "is_reserved": 0, "is_disabled": 0, "name": "cdf0ac2a86d0830e0c67c5c4d11850a3", "bike_id": "cdf0ac2a86d0830e0c67c5c4d11850a3", "fusion_lat": 0.0, "lon": -77.01071816666666, "type": "electric_scooter", "fusion_lon": 0.0, "lat": 38.92124716666667}, {"rental_uris": {"android": "https://dc.lft.to/lastmile_qr_scan", "ios": "https://dc.lft.to/lastmile_qr_scan"}, "is_reserved": 0, "is_disabled": 0, "name": "3cb970636f63923912dcbb1daa232a9e", "bike_id": "3cb970636f63923912dcbb1daa232a9e", "fusion_lat": 0.0, "lon": -77.03391, "type": "electric_scooter", "fusion_lon": 0.0, "lat": 38.93841716666667}, {"rental_uris": {"android": "https://dc.lft.to/lastmile_qr_scan", "ios": "https://dc.lft.to/lastmile_qr_scan"}, "is_reserved": 0, "is_disabled": 0, "name": "d157fd1cb9c31c79984df18a3a9726ab", "bike_id": "d157fd1cb9c31c79984df18a3a9726ab", "fusion_lat": 0.0, "lon": -77.02779266666667, "type": "electric_scooter", "fusion_lon": 0.0, "lat": 38.9621585}, {"rental_uris": {"android": "https://dc.lft.to/lastmile_qr_scan", "ios": "https://dc.lft.to/lastmile_qr_scan"}, "is_reserved": 0, "is_disabled": 0, "name": "385d29c61bb627a363244fc2c78b8c0f", "bike_id": "385d29c61bb627a363244fc2c78b8c0f", "fusion_lat": 0.0, "lon": -76.98637133333334, "type": "electric_scooter", "fusion_lon": 0.0, "lat": 38.880432666666664}, {"rental_uris": {"android": "https://dc.lft.to/lastmile_qr_scan", "ios": "https://dc.lft.to/lastmile_qr_scan"}, "is_reserved": 0, "is_disabled": 0, "name": "895090c7528d04f95156a24a03b23b91", "bike_id": "895090c7528d04f95156a24a03b23b91", "fusion_lat": 0.0, "lon": -77.08022116666666, "type": "electric_bike", "fusion_lon": 0.0, "lat": 38.957721666666664}, {"rental_uris": {"android": "https://dc.lft.to/lastmile_qr_scan", "ios": "https://dc.lft.to/lastmile_qr_scan"}, "is_reserved": 0, "is_disabled": 0, "name": "fbba0035a3a7ecab6ed1e8d7a2666a33", "bike_id": "fbba0035a3a7ecab6ed1e8d7a2666a33", "fusion_lat": 0.0, "lon": -77.02399566666666, "type": "electric_scooter", "fusion_lon": 0.0, "lat": 38.92400583333333}, {"rental_uris": {"android": "https://dc.lft.to/lastmile_qr_scan", "ios": "https://dc.lft.to/lastmile_qr_scan"}, "is_reserved": 0, "is_disabled": 0, "name": "caa33de1258879620070b7bd5e7f9bd9", "bike_id": "caa33de1258879620070b7bd5e7f9bd9", "fusion_lat": 0.0, "lon": -77.0981955, "type": "electric_bike", "fusion_lon": 0.0, "lat": 38.8501355}, {"rental_uris": {"android": "https://dc.lft.to/lastmile_qr_scan", "ios": "https://dc.lft.to/lastmile_qr_scan"}, "is_reserved": 0, "is_disabled": 0, "name": "615cf4676bf265c2415ca73479516f97", "bike_id": "615cf4676bf265c2415ca73479516f97", "fusion_lat": 0.0, "lon": -77.04351883333334, "type": "electric_scooter", "fusion_lon": 0.0, "lat": 38.9110175}, {"rental_uris": {"android": "https://dc.lft.to/lastmile_qr_scan", "ios": "https://dc.lft.to/lastmile_qr_scan"}, "is_reserved": 0, "is_disabled": 0, "name": "b3826285398d39d6985e7022d05ae3b5", "bike_id": "b3826285398d39d6985e7022d05ae3b5", "fusion_lat": 0.0, "lon": -77.05119366666666, "type": "electric_scooter", "fusion_lon": 0.0, "lat": 38.923436}, {"rental_uris": {"android": "https://dc.lft.to/lastmile_qr_scan", "ios": "https://dc.lft.to/lastmile_qr_scan"}, "is_reserved": 0, "is_disabled": 0, "name": "9dcbe53dc6c5f0b511c88d3e631b686f", "bike_id": "9dcbe53dc6c5f0b511c88d3e631b686f", "fusion_lat": 0.0, "lon": -77.00409066666667, "type": "electric_bike", "fusion_lon": 0.0, "lat": 38.985448}, {"rental_uris": {"android": "https://dc.lft.to/lastmile_qr_scan", "ios": "https://dc.lft.to/lastmile_qr_scan"}, "is_reserved": 0, "is_disabled": 0, "name": "b3df1149b612648b622530335c015829", "bike_id": "b3df1149b612648b622530335c015829", "fusion_lat": 0.0, "lon": -77.03316466666666, "type": "electric_scooter", "fusion_lon": 0.0, "lat": 38.92152083333333}, {"rental_uris": {"android": "https://dc.lft.to/lastmile_qr_scan", "ios": "https://dc.lft.to/lastmile_qr_scan"}, "is_reserved": 0, "is_disabled": 0, "name": "4c29617279ece4db83394fed18538af1", "bike_id": "4c29617279ece4db83394fed18538af1", "fusion_lat": 0.0, "lon": -76.990951, "type": "electric_bike", "fusion_lon": 0.0, "lat": 38.804795166666665}, {"rental_uris": {"android": "https://dc.lft.to/lastmile_qr_scan", "ios": "https://dc.lft.to/lastmile_qr_scan"}, "is_reserved": 0, "is_disabled": 0, "name": "72f38e3793a2ee24c976cbedcd61c6ca", "bike_id": "72f38e3793a2ee24c976cbedcd61c6ca", "fusion_lat": 0.0, "lon": -77.01101316666667, "type": "electric_scooter", "fusion_lon": 0.0, "lat": 38.895451}, {"rental_uris": {"android": "https://dc.lft.to/lastmile_qr_scan", "ios": "https://dc.lft.to/lastmile_qr_scan"}, "is_reserved": 0, "is_disabled": 0, "name": "9b7ba131f36a6a41876e9ca5aab14a39", "bike_id": "9b7ba131f36a6a41876e9ca5aab14a39", "fusion_lat": 0.0, "lon": -77.0338575, "type": "electric_scooter", "fusion_lon": 0.0, "lat": 38.921486333333334}, {"rental_uris": {"android": "https://dc.lft.to/lastmile_qr_scan", "ios": "https://dc.lft.to/lastmile_qr_scan"}, "is_reserved": 0, "is_disabled": 0, "name": "cdae082d05911089fc224e73b3227d5c", "bike_id": "cdae082d05911089fc224e73b3227d5c", "fusion_lat": 0.0, "lon": -77.04538383333333, "type": "electric_scooter", "fusion_lon": 0.0, "lat": 38.899678333333334}, {"rental_uris": {"android": "https://dc.lft.to/lastmile_qr_scan", "ios": "https://dc.lft.to/lastmile_qr_scan"}, "is_reserved": 0, "is_disabled": 0, "name": "a72554cb3dae145c8422e0a8095a1be7", "bike_id": "a72554cb3dae145c8422e0a8095a1be7", "fusion_lat": 0.0, "lon": -76.932137, "type": "electric_scooter", "fusion_lon": 0.0, "lat": 38.89664416666667}, {"rental_uris": {"android": "https://dc.lft.to/lastmile_qr_scan", "ios": "https://dc.lft.to/lastmile_qr_scan"}, "is_reserved": 0, "is_disabled": 0, "name": "b181930aed319417b02f946d87b031fb", "bike_id": "b181930aed319417b02f946d87b031fb", "fusion_lat": 0.0, "lon": -77.03257083333334, "type": "electric_scooter", "fusion_lon": 0.0, "lat": 38.9373185}, {"rental_uris": {"android": "https://dc.lft.to/lastmile_qr_scan", "ios": "https://dc.lft.to/lastmile_qr_scan"}, "is_reserved": 0, "is_disabled": 0, "name": "d03562b3953d99530bcb0e193cf26a5d", "bike_id": "d03562b3953d99530bcb0e193cf26a5d", "fusion_lat": 0.0, "lon": -77.02801283333334, "type": "electric_scooter", "fusion_lon": 0.0, "lat": 38.923218166666665}, {"rental_uris": {"android": "https://dc.lft.to/lastmile_qr_scan", "ios": "https://dc.lft.to/lastmile_qr_scan"}, "is_reserved": 0, "is_disabled": 0, "name": "6100a52608ffed10e335979ac8ba920f", "bike_id": "6100a52608ffed10e335979ac8ba920f", "fusion_lat": 0.0, "lon": -77.02285433333333, "type": "electric_scooter", "fusion_lon": 0.0, "lat": 38.91784966666667}, {"rental_uris": {"android": "https://dc.lft.to/lastmile_qr_scan", "ios": "https://dc.lft.to/lastmile_qr_scan"}, "is_reserved": 0, "is_disabled": 0, "name": "98e45fb9a692f77ec3401992d5e54ef0", "bike_id": "98e45fb9a692f77ec3401992d5e54ef0", "fusion_lat": 0.0, "lon": -77.03980566666667, "type": "electric_scooter", "fusion_lon": 0.0, "lat": 38.90026566666667}, {"rental_uris": {"android": "https://dc.lft.to/lastmile_qr_scan", "ios": "https://dc.lft.to/lastmile_qr_scan"}, "is_reserved": 0, "is_disabled": 0, "name": "1dcc1b2fc64b39fa59e22bdb666b72cb", "bike_id": "1dcc1b2fc64b39fa59e22bdb666b72cb", "fusion_lat": 0.0, "lon": -76.98618, "type": "electric_scooter", "fusion_lon": 0.0, "lat": 38.938272}, {"rental_uris": {"android": "https://dc.lft.to/lastmile_qr_scan", "ios": "https://dc.lft.to/lastmile_qr_scan"}, "is_reserved": 0, "is_disabled": 0, "name": "e3a8b381893934d8c18084dae51a8b0a", "bike_id": "e3a8b381893934d8c18084dae51a8b0a", "fusion_lat": 0.0, "lon": -77.05624066666667, "type": "electric_scooter", "fusion_lon": 0.0, "lat": 38.92341283333333}, {"rental_uris": {"android": "https://dc.lft.to/lastmile_qr_scan", "ios": "https://dc.lft.to/lastmile_qr_scan"}, "is_reserved": 0, "is_disabled": 0, "name": "83d8e3945b89db36f69259f27d3ae538", "bike_id": "83d8e3945b89db36f69259f27d3ae538", "fusion_lat": 0.0, "lon": -77.0205895, "type": "electric_bike", "fusion_lon": 0.0, "lat": 38.92847316666667}, {"rental_uris": {"android": "https://dc.lft.to/lastmile_qr_scan", "ios": "https://dc.lft.to/lastmile_qr_scan"}, "is_reserved": 0, "is_disabled": 0, "name": "eb75eb879812ad9ea45055ef3cdeb696", "bike_id": "eb75eb879812ad9ea45055ef3cdeb696", "fusion_lat": 0.0, "lon": -76.9951155, "type": "electric_scooter", "fusion_lon": 0.0, "lat": 38.883415166666666}, {"rental_uris": {"android": "https://dc.lft.to/lastmile_qr_scan", "ios": "https://dc.lft.to/lastmile_qr_scan"}, "is_reserved": 0, "is_disabled": 0, "name": "20c8b2048ed0748f66cbd17ed6e59c23", "bike_id": "20c8b2048ed0748f66cbd17ed6e59c23", "fusion_lat": 0.0, "lon": -77.04011583333333, "type": "electric_scooter", "fusion_lon": 0.0, "lat": 38.90996333333333}, {"rental_uris": {"android": "https://dc.lft.to/lastmile_qr_scan", "ios": "https://dc.lft.to/lastmile_qr_scan"}, "is_reserved": 0, "is_disabled": 0, "name": "06259b2ad3410fb452d53114b9b4c96f", "bike_id": "06259b2ad3410fb452d53114b9b4c96f", "fusion_lat": 0.0, "lon": -76.98887483333333, "type": "electric_scooter", "fusion_lon": 0.0, "lat": 38.902086}, {"rental_uris": {"android": "https://dc.lft.to/lastmile_qr_scan", "ios": "https://dc.lft.to/lastmile_qr_scan"}, "is_reserved": 0, "is_disabled": 0, "name": "3b96f4bc2e8402143109d4770d5876d6", "bike_id": "3b96f4bc2e8402143109d4770d5876d6", "fusion_lat": 0.0, "lon": -77.00605866666666, "type": "electric_scooter", "fusion_lon": 0.0, "lat": 38.876374166666665}, {"rental_uris": {"android": "https://dc.lft.to/lastmile_qr_scan", "ios": "https://dc.lft.to/lastmile_qr_scan"}, "is_reserved": 0, "is_disabled": 0, "name": "5c35974706df120a17c739444f3f9103", "bike_id": "5c35974706df120a17c739444f3f9103", "fusion_lat": 0.0, "lon": -76.98720566666667, "type": "electric_bike", "fusion_lon": 0.0, "lat": 38.8633625}, {"rental_uris": {"android": "https://dc.lft.to/lastmile_qr_scan", "ios": "https://dc.lft.to/lastmile_qr_scan"}, "is_reserved": 0, "is_disabled": 0, "name": "c1cd19110aa690d5bfdcc10dff31dda1", "bike_id": "c1cd19110aa690d5bfdcc10dff31dda1", "fusion_lat": 0.0, "lon": -77.01389933333333, "type": "electric_scooter", "fusion_lon": 0.0, "lat": 38.878927833333336}, {"rental_uris": {"android": "https://dc.lft.to/lastmile_qr_scan", "ios": "https://dc.lft.to/lastmile_qr_scan"}, "is_reserved": 0, "is_disabled": 0, "name": "dcde79bb70725a0737a896a3a1d8e9de", "bike_id": "dcde79bb70725a0737a896a3a1d8e9de", "fusion_lat": 0.0, "lon": -76.9874225, "type": "electric_scooter", "fusion_lon": 0.0, "lat": 38.87964133333333}, {"rental_uris": {"android": "https://dc.lft.to/lastmile_qr_scan", "ios": "https://dc.lft.to/lastmile_qr_scan"}, "is_reserved": 0, "is_disabled": 0, "name": "5e7b1c315089e53766b4d6d70cd5f619", "bike_id": "5e7b1c315089e53766b4d6d70cd5f619", "fusion_lat": 0.0, "lon": -77.0164575, "type": "electric_scooter", "fusion_lon": 0.0, "lat": 38.881144166666665}, {"rental_uris": {"android": "https://dc.lft.to/lastmile_qr_scan", "ios": "https://dc.lft.to/lastmile_qr_scan"}, "is_reserved": 0, "is_disabled": 0, "name": "6bc8ffe2263d084c833a19f4afa4498d", "bike_id": "6bc8ffe2263d084c833a19f4afa4498d", "fusion_lat": 0.0, "lon": -77.08323533333333, "type": "electric_bike", "fusion_lon": 0.0, "lat": 38.933471833333336}, {"rental_uris": {"android": "https://dc.lft.to/lastmile_qr_scan", "ios": "https://dc.lft.to/lastmile_qr_scan"}, "is_reserved": 0, "is_disabled": 0, "name": "4104708e76813ec5cbd4ac9995fc8b60", "bike_id": "4104708e76813ec5cbd4ac9995fc8b60", "fusion_lat": 0.0, "lon": -77.03449083333334, "type": "electric_scooter", "fusion_lon": 0.0, "lat": 38.909480333333335}, {"rental_uris": {"android": "https://dc.lft.to/lastmile_qr_scan", "ios": "https://dc.lft.to/lastmile_qr_scan"}, "is_reserved": 0, "is_disabled": 0, "name": "c4a2432bd325b35952db2f556916f034", "bike_id": "c4a2432bd325b35952db2f556916f034", "fusion_lat": 0.0, "lon": -76.98574783333333, "type": "electric_scooter", "fusion_lon": 0.0, "lat": 38.900338833333336}, {"rental_uris": {"android": "https://dc.lft.to/lastmile_qr_scan", "ios": "https://dc.lft.to/lastmile_qr_scan"}, "is_reserved": 0, "is_disabled": 0, "name": "0fa0d703b6642b68af44373d216dc928", "bike_id": "0fa0d703b6642b68af44373d216dc928", "fusion_lat": 0.0, "lon": -77.05598066666667, "type": "electric_scooter", "fusion_lon": 0.0, "lat": 38.89423333333333}, {"rental_uris": {"android": "https://dc.lft.to/lastmile_qr_scan", "ios": "https://dc.lft.to/lastmile_qr_scan"}, "is_reserved": 0, "is_disabled": 0, "name": "1c1c12f2a7f49116f255d5ad7da54539", "bike_id": "1c1c12f2a7f49116f255d5ad7da54539", "fusion_lat": 0.0, "lon": -77.03464, "type": "electric_scooter", "fusion_lon": 0.0, "lat": 38.91797483333333}, {"rental_uris": {"android": "https://dc.lft.to/lastmile_qr_scan", "ios": "https://dc.lft.to/lastmile_qr_scan"}, "is_reserved": 0, "is_disabled": 0, "name": "24da6c0467c9d873689fec7628922ba6", "bike_id": "24da6c0467c9d873689fec7628922ba6", "fusion_lat": 0.0, "lon": -77.029088, "type": "electric_scooter", "fusion_lon": 0.0, "lat": 38.932965}, {"rental_uris": {"android": "https://dc.lft.to/lastmile_qr_scan", "ios": "https://dc.lft.to/lastmile_qr_scan"}, "is_reserved": 0, "is_disabled": 0, "name": "d70e848897f8bd4e73588e1e6fe31836", "bike_id": "d70e848897f8bd4e73588e1e6fe31836", "fusion_lat": 0.0, "lon": -76.99517, "type": "electric_scooter", "fusion_lon": 0.0, "lat": 38.902564}, {"rental_uris": {"android": "https://dc.lft.to/lastmile_qr_scan", "ios": "https://dc.lft.to/lastmile_qr_scan"}, "is_reserved": 0, "is_disabled": 0, "name": "89dd56f8b18d06207ee1977943203104", "bike_id": "89dd56f8b18d06207ee1977943203104", "fusion_lat": 0.0, "lon": -77.01344933333333, "type": "electric_scooter", "fusion_lon": 0.0, "lat": 38.8812435}, {"rental_uris": {"android": "https://dc.lft.to/lastmile_qr_scan", "ios": "https://dc.lft.to/lastmile_qr_scan"}, "is_reserved": 0, "is_disabled": 0, "name": "9ba66ac69a4fd78d2b4b62f403e11cfb", "bike_id": "9ba66ac69a4fd78d2b4b62f403e11cfb", "fusion_lat": 0.0, "lon": -77.02607466666667, "type": "electric_scooter", "fusion_lon": 0.0, "lat": 38.925932}, {"rental_uris": {"android": "https://dc.lft.to/lastmile_qr_scan", "ios": "https://dc.lft.to/lastmile_qr_scan"}, "is_reserved": 0, "is_disabled": 0, "name": "7d829339963f86f414bdd0180dcb5b6b", "bike_id": "7d829339963f86f414bdd0180dcb5b6b", "fusion_lat": 0.0, "lon": -77.03037266666666, "type": "electric_scooter", "fusion_lon": 0.0, "lat": 38.90980066666667}, {"rental_uris": {"android": "https://dc.lft.to/lastmile_qr_scan", "ios": "https://dc.lft.to/lastmile_qr_scan"}, "is_reserved": 0, "is_disabled": 0, "name": "f17f73fed0553a59305b29ce35da2dbc", "bike_id": "f17f73fed0553a59305b29ce35da2dbc", "fusion_lat": 0.0, "lon": -77.030159, "type": "electric_scooter", "fusion_lon": 0.0, "lat": 38.89537683333333}, {"rental_uris": {"android": "https://dc.lft.to/lastmile_qr_scan", "ios": "https://dc.lft.to/lastmile_qr_scan"}, "is_reserved": 0, "is_disabled": 0, "name": "565bf6642cb7fb12c1e5cd881aeb6a53", "bike_id": "565bf6642cb7fb12c1e5cd881aeb6a53", "fusion_lat": 0.0, "lon": -77.021392, "type": "electric_scooter", "fusion_lon": 0.0, "lat": 38.894240833333335}, {"rental_uris": {"android": "https://dc.lft.to/lastmile_qr_scan", "ios": "https://dc.lft.to/lastmile_qr_scan"}, "is_reserved": 0, "is_disabled": 0, "name": "ea99798aa8bada1eea373aa08bb83a2d", "bike_id": "ea99798aa8bada1eea373aa08bb83a2d", "fusion_lat": 0.0, "lon": -77.02255866666667, "type": "electric_scooter", "fusion_lon": 0.0, "lat": 38.8936205}, {"rental_uris": {"android": "https://dc.lft.to/lastmile_qr_scan", "ios": "https://dc.lft.to/lastmile_qr_scan"}, "is_reserved": 0, "is_disabled": 0, "name": "7854264eafbde7bf8fe71a28d3b5bfb1", "bike_id": "7854264eafbde7bf8fe71a28d3b5bfb1", "fusion_lat": 0.0, "lon": -77.0400735, "type": "electric_scooter", "fusion_lon": 0.0, "lat": 38.917617166666666}, {"rental_uris": {"android": "https://dc.lft.to/lastmile_qr_scan", "ios": "https://dc.lft.to/lastmile_qr_scan"}, "is_reserved": 0, "is_disabled": 0, "name": "ec54e34c601dfc91f138e69ded75b7cd", "bike_id": "ec54e34c601dfc91f138e69ded75b7cd", "fusion_lat": 0.0, "lon": -77.021066, "type": "electric_scooter", "fusion_lon": 0.0, "lat": 38.90560933333333}, {"rental_uris": {"android": "https://dc.lft.to/lastmile_qr_scan", "ios": "https://dc.lft.to/lastmile_qr_scan"}, "is_reserved": 0, "is_disabled": 0, "name": "7eb76ba3dd260a5a145fa3fdb2b0a188", "bike_id": "7eb76ba3dd260a5a145fa3fdb2b0a188", "fusion_lat": 0.0, "lon": -77.02493433333333, "type": "electric_scooter", "fusion_lon": 0.0, "lat": 38.920691166666664}, {"rental_uris": {"android": "https://dc.lft.to/lastmile_qr_scan", "ios": "https://dc.lft.to/lastmile_qr_scan"}, "is_reserved": 0, "is_disabled": 0, "name": "df6d5d5eeb6c77c08c73e7cc205165a7", "bike_id": "df6d5d5eeb6c77c08c73e7cc205165a7", "fusion_lat": 0.0, "lon": -77.0034015, "type": "electric_scooter", "fusion_lon": 0.0, "lat": 38.88634233333333}, {"rental_uris": {"android": "https://dc.lft.to/lastmile_qr_scan", "ios": "https://dc.lft.to/lastmile_qr_scan"}, "is_reserved": 0, "is_disabled": 0, "name": "81b23e5d9e6ed3d8ec159828362019a4", "bike_id": "81b23e5d9e6ed3d8ec159828362019a4", "fusion_lat": 0.0, "lon": -77.0733305, "type": "electric_scooter", "fusion_lon": 0.0, "lat": 38.922586333333335}, {"rental_uris": {"android": "https://dc.lft.to/lastmile_qr_scan", "ios": "https://dc.lft.to/lastmile_qr_scan"}, "is_reserved": 0, "is_disabled": 0, "name": "884e219fdcd076823759cfe1a4aeebcb", "bike_id": "884e219fdcd076823759cfe1a4aeebcb", "fusion_lat": 0.0, "lon": -76.99422416666667, "type": "electric_scooter", "fusion_lon": 0.0, "lat": 38.933431166666665}, {"rental_uris": {"android": "https://dc.lft.to/lastmile_qr_scan", "ios": "https://dc.lft.to/lastmile_qr_scan"}, "is_reserved": 0, "is_disabled": 0, "name": "9346b6e74e206f46bee8f9fba4543342", "bike_id": "9346b6e74e206f46bee8f9fba4543342", "fusion_lat": 0.0, "lon": -77.03899016666666, "type": "electric_scooter", "fusion_lon": 0.0, "lat": 38.901215666666666}, {"rental_uris": {"android": "https://dc.lft.to/lastmile_qr_scan", "ios": "https://dc.lft.to/lastmile_qr_scan"}, "is_reserved": 0, "is_disabled": 0, "name": "6e683a8aea97932a150bdda35ac048e1", "bike_id": "6e683a8aea97932a150bdda35ac048e1", "fusion_lat": 0.0, "lon": -77.00627333333334, "type": "electric_scooter", "fusion_lon": 0.0, "lat": 38.8717195}, {"rental_uris": {"android": "https://dc.lft.to/lastmile_qr_scan", "ios": "https://dc.lft.to/lastmile_qr_scan"}, "is_reserved": 0, "is_disabled": 0, "name": "2d6ce70472a1adbabfdc364edf03dc32", "bike_id": "2d6ce70472a1adbabfdc364edf03dc32", "fusion_lat": 0.0, "lon": -77.0449895, "type": "electric_scooter", "fusion_lon": 0.0, "lat": 38.90285933333333}, {"rental_uris": {"android": "https://dc.lft.to/lastmile_qr_scan", "ios": "https://dc.lft.to/lastmile_qr_scan"}, "is_reserved": 0, "is_disabled": 0, "name": "2b0cd3031d04c039baf9f721b28943c3", "bike_id": "2b0cd3031d04c039baf9f721b28943c3", "fusion_lat": 0.0, "lon": -77.04172683333333, "type": "electric_scooter", "fusion_lon": 0.0, "lat": 38.91970883333333}, {"rental_uris": {"android": "https://dc.lft.to/lastmile_qr_scan", "ios": "https://dc.lft.to/lastmile_qr_scan"}, "is_reserved": 0, "is_disabled": 0, "name": "923ef2da85790e15297c36aa7888be05", "bike_id": "923ef2da85790e15297c36aa7888be05", "fusion_lat": 0.0, "lon": -77.02806016666666, "type": "electric_scooter", "fusion_lon": 0.0, "lat": 38.90553}, {"rental_uris": {"android": "https://dc.lft.to/lastmile_qr_scan", "ios": "https://dc.lft.to/lastmile_qr_scan"}, "is_reserved": 0, "is_disabled": 0, "name": "c963d89c76f0c81c5bcc83c553746f23", "bike_id": "c963d89c76f0c81c5bcc83c553746f23", "fusion_lat": 0.0, "lon": -77.12934983333334, "type": "electric_bike", "fusion_lon": 0.0, "lat": 38.865797666666666}, {"rental_uris": {"android": "https://dc.lft.to/lastmile_qr_scan", "ios": "https://dc.lft.to/lastmile_qr_scan"}, "is_reserved": 0, "is_disabled": 0, "name": "eef7d682e542c4dab3f7edcbc35be456", "bike_id": "eef7d682e542c4dab3f7edcbc35be456", "fusion_lat": 0.0, "lon": -76.989943, "type": "electric_scooter", "fusion_lon": 0.0, "lat": 38.8643905}, {"rental_uris": {"android": "https://dc.lft.to/lastmile_qr_scan", "ios": "https://dc.lft.to/lastmile_qr_scan"}, "is_reserved": 0, "is_disabled": 0, "name": "08eb2f1c1033f2ef9ccfe76dd0200477", "bike_id": "08eb2f1c1033f2ef9ccfe76dd0200477", "fusion_lat": 0.0, "lon": -77.02844533333334, "type": "electric_scooter", "fusion_lon": 0.0, "lat": 38.900716833333334}, {"rental_uris": {"android": "https://dc.lft.to/lastmile_qr_scan", "ios": "https://dc.lft.to/lastmile_qr_scan"}, "is_reserved": 0, "is_disabled": 0, "name": "c83d9a0e2ca60b8c37d971e748e16624", "bike_id": "c83d9a0e2ca60b8c37d971e748e16624", "fusion_lat": 0.0, "lon": -77.04196983333334, "type": "electric_scooter", "fusion_lon": 0.0, "lat": 38.92039916666667}, {"rental_uris": {"android": "https://dc.lft.to/lastmile_qr_scan", "ios": "https://dc.lft.to/lastmile_qr_scan"}, "is_reserved": 0, "is_disabled": 0, "name": "7a367651f48ba34ccd038ddb5dde5f1d", "bike_id": "7a367651f48ba34ccd038ddb5dde5f1d", "fusion_lat": 0.0, "lon": -76.929669, "type": "electric_scooter", "fusion_lon": 0.0, "lat": 38.896314833333335}, {"rental_uris": {"android": "https://dc.lft.to/lastmile_qr_scan", "ios": "https://dc.lft.to/lastmile_qr_scan"}, "is_reserved": 0, "is_disabled": 0, "name": "acf053036efb517669cc28dfd4bd7dcc", "bike_id": "acf053036efb517669cc28dfd4bd7dcc", "fusion_lat": 0.0, "lon": -77.04875933333334, "type": "electric_scooter", "fusion_lon": 0.0, "lat": 38.919753}, {"rental_uris": {"android": "https://dc.lft.to/lastmile_qr_scan", "ios": "https://dc.lft.to/lastmile_qr_scan"}, "is_reserved": 0, "is_disabled": 0, "name": "258b3c5707ca14dcae1ef4e4b3dff0b1", "bike_id": "258b3c5707ca14dcae1ef4e4b3dff0b1", "fusion_lat": 0.0, "lon": -77.02147266666667, "type": "electric_scooter", "fusion_lon": 0.0, "lat": 38.92750383333333}, {"rental_uris": {"android": "https://dc.lft.to/lastmile_qr_scan", "ios": "https://dc.lft.to/lastmile_qr_scan"}, "is_reserved": 0, "is_disabled": 0, "name": "5a5acec52102a50cc8e9c65a7302b383", "bike_id": "5a5acec52102a50cc8e9c65a7302b383", "fusion_lat": 0.0, "lon": -77.07634583333333, "type": "electric_scooter", "fusion_lon": 0.0, "lat": 38.92526066666667}, {"rental_uris": {"android": "https://dc.lft.to/lastmile_qr_scan", "ios": "https://dc.lft.to/lastmile_qr_scan"}, "is_reserved": 0, "is_disabled": 0, "name": "7571efdfd70364a46cae9234fdad3d8d", "bike_id": "7571efdfd70364a46cae9234fdad3d8d", "fusion_lat": 0.0, "lon": -76.929257, "type": "electric_scooter", "fusion_lon": 0.0, "lat": 38.89206333333333}, {"rental_uris": {"android": "https://dc.lft.to/lastmile_qr_scan", "ios": "https://dc.lft.to/lastmile_qr_scan"}, "is_reserved": 0, "is_disabled": 0, "name": "aa995d67868c02a8742d1d77681982a9", "bike_id": "aa995d67868c02a8742d1d77681982a9", "fusion_lat": 0.0, "lon": -77.05130866666667, "type": "electric_scooter", "fusion_lon": 0.0, "lat": 38.9061835}, {"rental_uris": {"android": "https://dc.lft.to/lastmile_qr_scan", "ios": "https://dc.lft.to/lastmile_qr_scan"}, "is_reserved": 0, "is_disabled": 0, "name": "17986fcc8de2d6f56024e586a50ee74c", "bike_id": "17986fcc8de2d6f56024e586a50ee74c", "fusion_lat": 0.0, "lon": -77.008907, "type": "electric_scooter", "fusion_lon": 0.0, "lat": 38.9097445}, {"rental_uris": {"android": "https://dc.lft.to/lastmile_qr_scan", "ios": "https://dc.lft.to/lastmile_qr_scan"}, "is_reserved": 0, "is_disabled": 0, "name": "d7c1b1f86b8fd7f2cdd9152b5f56183c", "bike_id": "d7c1b1f86b8fd7f2cdd9152b5f56183c", "fusion_lat": 0.0, "lon": -77.02276916666666, "type": "electric_scooter", "fusion_lon": 0.0, "lat": 38.89992016666667}, {"rental_uris": {"android": "https://dc.lft.to/lastmile_qr_scan", "ios": "https://dc.lft.to/lastmile_qr_scan"}, "is_reserved": 0, "is_disabled": 0, "name": "86eca79b2692b9244c658e7814ec19cf", "bike_id": "86eca79b2692b9244c658e7814ec19cf", "fusion_lat": 0.0, "lon": -77.03439416666667, "type": "electric_scooter", "fusion_lon": 0.0, "lat": 38.917911}, {"rental_uris": {"android": "https://dc.lft.to/lastmile_qr_scan", "ios": "https://dc.lft.to/lastmile_qr_scan"}, "is_reserved": 0, "is_disabled": 0, "name": "85c2696c6f4d50f4ec0d3d541b19f741", "bike_id": "85c2696c6f4d50f4ec0d3d541b19f741", "fusion_lat": 0.0, "lon": -76.96092233333333, "type": "electric_scooter", "fusion_lon": 0.0, "lat": 38.918579333333334}, {"rental_uris": {"android": "https://dc.lft.to/lastmile_qr_scan", "ios": "https://dc.lft.to/lastmile_qr_scan"}, "is_reserved": 0, "is_disabled": 0, "name": "f3e15a204a9e56903a8fe028d1449e16", "bike_id": "f3e15a204a9e56903a8fe028d1449e16", "fusion_lat": 0.0, "lon": -77.022858, "type": "electric_scooter", "fusion_lon": 0.0, "lat": 38.917824}, {"rental_uris": {"android": "https://dc.lft.to/lastmile_qr_scan", "ios": "https://dc.lft.to/lastmile_qr_scan"}, "is_reserved": 0, "is_disabled": 0, "name": "134d49f8cdadc3b18f9ef39d90f38ec9", "bike_id": "134d49f8cdadc3b18f9ef39d90f38ec9", "fusion_lat": 0.0, "lon": -77.04411783333333, "type": "electric_scooter", "fusion_lon": 0.0, "lat": 38.89590233333333}, {"rental_uris": {"android": "https://dc.lft.to/lastmile_qr_scan", "ios": "https://dc.lft.to/lastmile_qr_scan"}, "is_reserved": 0, "is_disabled": 0, "name": "512c459ea7759d466239fb32f15be718", "bike_id": "512c459ea7759d466239fb32f15be718", "fusion_lat": 0.0, "lon": -77.09454816666667, "type": "electric_bike", "fusion_lon": 0.0, "lat": 38.807519666666664}, {"rental_uris": {"android": "https://dc.lft.to/lastmile_qr_scan", "ios": "https://dc.lft.to/lastmile_qr_scan"}, "is_reserved": 0, "is_disabled": 0, "name": "eeb79ad11c4958700918b4014ae885a6", "bike_id": "eeb79ad11c4958700918b4014ae885a6", "fusion_lat": 0.0, "lon": -77.04621483333334, "type": "electric_scooter", "fusion_lon": 0.0, "lat": 38.91580883333334}, {"rental_uris": {"android": "https://dc.lft.to/lastmile_qr_scan", "ios": "https://dc.lft.to/lastmile_qr_scan"}, "is_reserved": 0, "is_disabled": 0, "name": "ec16a946ec6614513d6650bc5f374bc6", "bike_id": "ec16a946ec6614513d6650bc5f374bc6", "fusion_lat": 0.0, "lon": -77.06365366666667, "type": "electric_scooter", "fusion_lon": 0.0, "lat": 38.920195666666665}, {"rental_uris": {"android": "https://dc.lft.to/lastmile_qr_scan", "ios": "https://dc.lft.to/lastmile_qr_scan"}, "is_reserved": 0, "is_disabled": 0, "name": "5c2db73537cde5603c5dc5c897f855c0", "bike_id": "5c2db73537cde5603c5dc5c897f855c0", "fusion_lat": 0.0, "lon": -77.02333566666667, "type": "electric_scooter", "fusion_lon": 0.0, "lat": 38.93048266666667}, {"rental_uris": {"android": "https://dc.lft.to/lastmile_qr_scan", "ios": "https://dc.lft.to/lastmile_qr_scan"}, "is_reserved": 0, "is_disabled": 0, "name": "63eb718804487cde8fb7a9b8ce972bb9", "bike_id": "63eb718804487cde8fb7a9b8ce972bb9", "fusion_lat": 0.0, "lon": -76.998482, "type": "electric_scooter", "fusion_lon": 0.0, "lat": 38.90058533333333}, {"rental_uris": {"android": "https://dc.lft.to/lastmile_qr_scan", "ios": "https://dc.lft.to/lastmile_qr_scan"}, "is_reserved": 0, "is_disabled": 0, "name": "56329d31f567f634c548a4220846e27d", "bike_id": "56329d31f567f634c548a4220846e27d", "fusion_lat": 0.0, "lon": -76.998399, "type": "electric_scooter", "fusion_lon": 0.0, "lat": 38.90080116666667}, {"rental_uris": {"android": "https://dc.lft.to/lastmile_qr_scan", "ios": "https://dc.lft.to/lastmile_qr_scan"}, "is_reserved": 0, "is_disabled": 0, "name": "b592a0ec29811bbc1db02f345de5db6d", "bike_id": "b592a0ec29811bbc1db02f345de5db6d", "fusion_lat": 0.0, "lon": -77.04214966666666, "type": "electric_scooter", "fusion_lon": 0.0, "lat": 38.909256166666665}, {"rental_uris": {"android": "https://dc.lft.to/lastmile_qr_scan", "ios": "https://dc.lft.to/lastmile_qr_scan"}, "is_reserved": 0, "is_disabled": 0, "name": "c5d3f3431349b1043b7c7d5f7f6cf84c", "bike_id": "c5d3f3431349b1043b7c7d5f7f6cf84c", "fusion_lat": 0.0, "lon": -77.02352916666666, "type": "electric_scooter", "fusion_lon": 0.0, "lat": 38.94198183333334}, {"rental_uris": {"android": "https://dc.lft.to/lastmile_qr_scan", "ios": "https://dc.lft.to/lastmile_qr_scan"}, "is_reserved": 0, "is_disabled": 0, "name": "a6f0fae146d187259647fcbb427f1d17", "bike_id": "a6f0fae146d187259647fcbb427f1d17", "fusion_lat": 0.0, "lon": -77.0632015, "type": "electric_scooter", "fusion_lon": 0.0, "lat": 38.9133655}, {"rental_uris": {"android": "https://dc.lft.to/lastmile_qr_scan", "ios": "https://dc.lft.to/lastmile_qr_scan"}, "is_reserved": 0, "is_disabled": 0, "name": "fbfd5a4783664e3c7992c2f028b658e3", "bike_id": "fbfd5a4783664e3c7992c2f028b658e3", "fusion_lat": 0.0, "lon": -76.98373233333334, "type": "electric_scooter", "fusion_lon": 0.0, "lat": 38.89264083333333}, {"rental_uris": {"android": "https://dc.lft.to/lastmile_qr_scan", "ios": "https://dc.lft.to/lastmile_qr_scan"}, "is_reserved": 0, "is_disabled": 0, "name": "b8e39dfce98682fcd92ab68401f30ec9", "bike_id": "b8e39dfce98682fcd92ab68401f30ec9", "fusion_lat": 0.0, "lon": -76.996942, "type": "electric_scooter", "fusion_lon": 0.0, "lat": 38.88437166666667}, {"rental_uris": {"android": "https://dc.lft.to/lastmile_qr_scan", "ios": "https://dc.lft.to/lastmile_qr_scan"}, "is_reserved": 0, "is_disabled": 0, "name": "2db8976cbbf730eb6347359c18839091", "bike_id": "2db8976cbbf730eb6347359c18839091", "fusion_lat": 0.0, "lon": -77.04328983333333, "type": "electric_scooter", "fusion_lon": 0.0, "lat": 38.89225016666666}, {"rental_uris": {"android": "https://dc.lft.to/lastmile_qr_scan", "ios": "https://dc.lft.to/lastmile_qr_scan"}, "is_reserved": 0, "is_disabled": 0, "name": "7fb04c3a2cc06d7b50bac1b15c50c4c6", "bike_id": "7fb04c3a2cc06d7b50bac1b15c50c4c6", "fusion_lat": 0.0, "lon": -77.0145895, "type": "electric_scooter", "fusion_lon": 0.0, "lat": 38.917791333333334}, {"rental_uris": {"android": "https://dc.lft.to/lastmile_qr_scan", "ios": "https://dc.lft.to/lastmile_qr_scan"}, "is_reserved": 0, "is_disabled": 0, "name": "9f70a9840abad2dc3ca966e666083392", "bike_id": "9f70a9840abad2dc3ca966e666083392", "fusion_lat": 0.0, "lon": -77.021723, "type": "electric_scooter", "fusion_lon": 0.0, "lat": 38.924932}, {"rental_uris": {"android": "https://dc.lft.to/lastmile_qr_scan", "ios": "https://dc.lft.to/lastmile_qr_scan"}, "is_reserved": 0, "is_disabled": 0, "name": "a99b1c90cd4a0657ed4ff4038d89a978", "bike_id": "a99b1c90cd4a0657ed4ff4038d89a978", "fusion_lat": 0.0, "lon": -77.085364, "type": "electric_bike", "fusion_lon": 0.0, "lat": 38.85667216666667}, {"rental_uris": {"android": "https://dc.lft.to/lastmile_qr_scan", "ios": "https://dc.lft.to/lastmile_qr_scan"}, "is_reserved": 0, "is_disabled": 0, "name": "76b5575d6f7ad461637caeed71aae8f0", "bike_id": "76b5575d6f7ad461637caeed71aae8f0", "fusion_lat": 0.0, "lon": -77.03532233333334, "type": "electric_scooter", "fusion_lon": 0.0, "lat": 38.923485}, {"rental_uris": {"android": "https://dc.lft.to/lastmile_qr_scan", "ios": "https://dc.lft.to/lastmile_qr_scan"}, "is_reserved": 0, "is_disabled": 0, "name": "7eeb6eae3a96a117702361e8ac511831", "bike_id": "7eeb6eae3a96a117702361e8ac511831", "fusion_lat": 0.0, "lon": -77.01838083333334, "type": "electric_scooter", "fusion_lon": 0.0, "lat": 38.909571}, {"rental_uris": {"android": "https://dc.lft.to/lastmile_qr_scan", "ios": "https://dc.lft.to/lastmile_qr_scan"}, "is_reserved": 0, "is_disabled": 0, "name": "b243ba4c0aed236efc55b239a3df99f6", "bike_id": "b243ba4c0aed236efc55b239a3df99f6", "fusion_lat": 0.0, "lon": -77.02815, "type": "electric_scooter", "fusion_lon": 0.0, "lat": 38.881797166666665}, {"rental_uris": {"android": "https://dc.lft.to/lastmile_qr_scan", "ios": "https://dc.lft.to/lastmile_qr_scan"}, "is_reserved": 0, "is_disabled": 0, "name": "2e1c78805ba658763d40149a9033109f", "bike_id": "2e1c78805ba658763d40149a9033109f", "fusion_lat": 0.0, "lon": -77.0361345, "type": "electric_scooter", "fusion_lon": 0.0, "lat": 38.93731833333333}, {"rental_uris": {"android": "https://dc.lft.to/lastmile_qr_scan", "ios": "https://dc.lft.to/lastmile_qr_scan"}, "is_reserved": 0, "is_disabled": 0, "name": "500d84a6d83e9aee435afd8cbe0df356", "bike_id": "500d84a6d83e9aee435afd8cbe0df356", "fusion_lat": 0.0, "lon": -77.004722, "type": "electric_scooter", "fusion_lon": 0.0, "lat": 38.91145933333333}, {"rental_uris": {"android": "https://dc.lft.to/lastmile_qr_scan", "ios": "https://dc.lft.to/lastmile_qr_scan"}, "is_reserved": 0, "is_disabled": 0, "name": "34133b772b0fac87c617879c29365959", "bike_id": "34133b772b0fac87c617879c29365959", "fusion_lat": 0.0, "lon": -77.03442116666666, "type": "electric_scooter", "fusion_lon": 0.0, "lat": 38.922186333333336}, {"rental_uris": {"android": "https://dc.lft.to/lastmile_qr_scan", "ios": "https://dc.lft.to/lastmile_qr_scan"}, "is_reserved": 0, "is_disabled": 0, "name": "892603c57c102a186c67a17734e9b808", "bike_id": "892603c57c102a186c67a17734e9b808", "fusion_lat": 0.0, "lon": -77.040598, "type": "electric_scooter", "fusion_lon": 0.0, "lat": 38.90135433333333}, {"rental_uris": {"android": "https://dc.lft.to/lastmile_qr_scan", "ios": "https://dc.lft.to/lastmile_qr_scan"}, "is_reserved": 0, "is_disabled": 0, "name": "f097a879ea672dbc43ce43478abc7138", "bike_id": "f097a879ea672dbc43ce43478abc7138", "fusion_lat": 0.0, "lon": -77.03246116666666, "type": "electric_scooter", "fusion_lon": 0.0, "lat": 38.917125166666665}, {"rental_uris": {"android": "https://dc.lft.to/lastmile_qr_scan", "ios": "https://dc.lft.to/lastmile_qr_scan"}, "is_reserved": 0, "is_disabled": 0, "name": "fb50fad290b20a830c35a0e5f05323e2", "bike_id": "fb50fad290b20a830c35a0e5f05323e2", "fusion_lat": 0.0, "lon": -77.001993, "type": "electric_scooter", "fusion_lon": 0.0, "lat": 38.902365833333334}, {"rental_uris": {"android": "https://dc.lft.to/lastmile_qr_scan", "ios": "https://dc.lft.to/lastmile_qr_scan"}, "is_reserved": 0, "is_disabled": 0, "name": "2bae25eb4d01e1d5f4ee61a6a0424bba", "bike_id": "2bae25eb4d01e1d5f4ee61a6a0424bba", "fusion_lat": 0.0, "lon": -77.0016705, "type": "electric_scooter", "fusion_lon": 0.0, "lat": 38.90778183333333}, {"rental_uris": {"android": "https://dc.lft.to/lastmile_qr_scan", "ios": "https://dc.lft.to/lastmile_qr_scan"}, "is_reserved": 0, "is_disabled": 0, "name": "3fa6db1980998883ba3621d7d3f7f149", "bike_id": "3fa6db1980998883ba3621d7d3f7f149", "fusion_lat": 0.0, "lon": -77.00192916666667, "type": "electric_scooter", "fusion_lon": 0.0, "lat": 38.900385166666666}, {"rental_uris": {"android": "https://dc.lft.to/lastmile_qr_scan", "ios": "https://dc.lft.to/lastmile_qr_scan"}, "is_reserved": 0, "is_disabled": 0, "name": "d1d9cc640914c0aa46fb7bc97b04d034", "bike_id": "d1d9cc640914c0aa46fb7bc97b04d034", "fusion_lat": 0.0, "lon": -77.05513866666666, "type": "electric_scooter", "fusion_lon": 0.0, "lat": 38.92835683333333}, {"rental_uris": {"android": "https://dc.lft.to/lastmile_qr_scan", "ios": "https://dc.lft.to/lastmile_qr_scan"}, "is_reserved": 0, "is_disabled": 0, "name": "0b63eb411a7105c75fb8c87f6b07e034", "bike_id": "0b63eb411a7105c75fb8c87f6b07e034", "fusion_lat": 0.0, "lon": -77.03466283333333, "type": "electric_scooter", "fusion_lon": 0.0, "lat": 38.928720166666665}, {"rental_uris": {"android": "https://dc.lft.to/lastmile_qr_scan", "ios": "https://dc.lft.to/lastmile_qr_scan"}, "is_reserved": 0, "is_disabled": 0, "name": "10c6dddcfb83adf7bab882e5da9410a1", "bike_id": "10c6dddcfb83adf7bab882e5da9410a1", "fusion_lat": 0.0, "lon": -77.0325125, "type": "electric_scooter", "fusion_lon": 0.0, "lat": 38.9170765}, {"rental_uris": {"android": "https://dc.lft.to/lastmile_qr_scan", "ios": "https://dc.lft.to/lastmile_qr_scan"}, "is_reserved": 0, "is_disabled": 0, "name": "533540fb96895c000ffddfda03369da2", "bike_id": "533540fb96895c000ffddfda03369da2", "fusion_lat": 0.0, "lon": -76.96710883333333, "type": "electric_scooter", "fusion_lon": 0.0, "lat": 38.8597075}, {"rental_uris": {"android": "https://dc.lft.to/lastmile_qr_scan", "ios": "https://dc.lft.to/lastmile_qr_scan"}, "is_reserved": 0, "is_disabled": 0, "name": "59ac291f0a80c6e2aeed11c91dfd66cf", "bike_id": "59ac291f0a80c6e2aeed11c91dfd66cf", "fusion_lat": 0.0, "lon": -76.99540683333333, "type": "electric_bike", "fusion_lon": 0.0, "lat": 38.95631216666666}, {"rental_uris": {"android": "https://dc.lft.to/lastmile_qr_scan", "ios": "https://dc.lft.to/lastmile_qr_scan"}, "is_reserved": 0, "is_disabled": 0, "name": "e59fb572e8149b779b07914b738a91de", "bike_id": "e59fb572e8149b779b07914b738a91de", "fusion_lat": 0.0, "lon": -77.030613, "type": "electric_scooter", "fusion_lon": 0.0, "lat": 38.923749}, {"rental_uris": {"android": "https://dc.lft.to/lastmile_qr_scan", "ios": "https://dc.lft.to/lastmile_qr_scan"}, "is_reserved": 0, "is_disabled": 0, "name": "9a7ea6317d79cefc7dca5f7ca4e50600", "bike_id": "9a7ea6317d79cefc7dca5f7ca4e50600", "fusion_lat": 0.0, "lon": -77.02172483333334, "type": "electric_scooter", "fusion_lon": 0.0, "lat": 38.942911}, {"rental_uris": {"android": "https://dc.lft.to/lastmile_qr_scan", "ios": "https://dc.lft.to/lastmile_qr_scan"}, "is_reserved": 0, "is_disabled": 0, "name": "2106e7fc2d5a2c1f60337d8e1a250b52", "bike_id": "2106e7fc2d5a2c1f60337d8e1a250b52", "fusion_lat": 0.0, "lon": -77.01864766666667, "type": "electric_scooter", "fusion_lon": 0.0, "lat": 38.973687}, {"rental_uris": {"android": "https://dc.lft.to/lastmile_qr_scan", "ios": "https://dc.lft.to/lastmile_qr_scan"}, "is_reserved": 0, "is_disabled": 0, "name": "21205a7507ddef60d9cb06a422890673", "bike_id": "21205a7507ddef60d9cb06a422890673", "fusion_lat": 0.0, "lon": -77.02577516666666, "type": "electric_scooter", "fusion_lon": 0.0, "lat": 38.91259816666667}, {"rental_uris": {"android": "https://dc.lft.to/lastmile_qr_scan", "ios": "https://dc.lft.to/lastmile_qr_scan"}, "is_reserved": 0, "is_disabled": 0, "name": "96c9f6ab235ff59bbd37dbec0820ad11", "bike_id": "96c9f6ab235ff59bbd37dbec0820ad11", "fusion_lat": 0.0, "lon": -77.0034815, "type": "electric_scooter", "fusion_lon": 0.0, "lat": 38.876741}, {"rental_uris": {"android": "https://dc.lft.to/lastmile_qr_scan", "ios": "https://dc.lft.to/lastmile_qr_scan"}, "is_reserved": 0, "is_disabled": 0, "name": "275110b50d02a9cf14395fab07939202", "bike_id": "275110b50d02a9cf14395fab07939202", "fusion_lat": 0.0, "lon": -77.02177166666667, "type": "electric_scooter", "fusion_lon": 0.0, "lat": 38.8871105}, {"rental_uris": {"android": "https://dc.lft.to/lastmile_qr_scan", "ios": "https://dc.lft.to/lastmile_qr_scan"}, "is_reserved": 0, "is_disabled": 0, "name": "3d88e41d2283b3707e69d0fe54987e1b", "bike_id": "3d88e41d2283b3707e69d0fe54987e1b", "fusion_lat": 0.0, "lon": -77.027704, "type": "electric_scooter", "fusion_lon": 0.0, "lat": 38.93414166666667}, {"rental_uris": {"android": "https://dc.lft.to/lastmile_qr_scan", "ios": "https://dc.lft.to/lastmile_qr_scan"}, "is_reserved": 0, "is_disabled": 0, "name": "5b8151229fe76dbc327df3782aa5f1b7", "bike_id": "5b8151229fe76dbc327df3782aa5f1b7", "fusion_lat": 0.0, "lon": -76.93560083333334, "type": "electric_scooter", "fusion_lon": 0.0, "lat": 38.882744}, {"rental_uris": {"android": "https://dc.lft.to/lastmile_qr_scan", "ios": "https://dc.lft.to/lastmile_qr_scan"}, "is_reserved": 0, "is_disabled": 0, "name": "d513a8fdaddef105592fce16ba994add", "bike_id": "d513a8fdaddef105592fce16ba994add", "fusion_lat": 0.0, "lon": -77.00670516666666, "type": "electric_scooter", "fusion_lon": 0.0, "lat": 38.90004416666667}, {"rental_uris": {"android": "https://dc.lft.to/lastmile_qr_scan", "ios": "https://dc.lft.to/lastmile_qr_scan"}, "is_reserved": 0, "is_disabled": 0, "name": "f37693c58e07da289bf9a9e21bb425a5", "bike_id": "f37693c58e07da289bf9a9e21bb425a5", "fusion_lat": 0.0, "lon": -76.96554433333333, "type": "electric_scooter", "fusion_lon": 0.0, "lat": 38.918575833333335}, {"rental_uris": {"android": "https://dc.lft.to/lastmile_qr_scan", "ios": "https://dc.lft.to/lastmile_qr_scan"}, "is_reserved": 0, "is_disabled": 0, "name": "13d526d307e77e7e8119df62e72e1523", "bike_id": "13d526d307e77e7e8119df62e72e1523", "fusion_lat": 0.0, "lon": -77.02133833333333, "type": "electric_scooter", "fusion_lon": 0.0, "lat": 38.92274066666667}, {"rental_uris": {"android": "https://dc.lft.to/lastmile_qr_scan", "ios": "https://dc.lft.to/lastmile_qr_scan"}, "is_reserved": 0, "is_disabled": 0, "name": "9579f7c8f06bc187004a409fa3d0e6c4", "bike_id": "9579f7c8f06bc187004a409fa3d0e6c4", "fusion_lat": 0.0, "lon": -77.03172733333334, "type": "electric_scooter", "fusion_lon": 0.0, "lat": 38.929684}, {"rental_uris": {"android": "https://dc.lft.to/lastmile_qr_scan", "ios": "https://dc.lft.to/lastmile_qr_scan"}, "is_reserved": 0, "is_disabled": 0, "name": "58a56bcaa6f118b9d3356137e0d74b23", "bike_id": "58a56bcaa6f118b9d3356137e0d74b23", "fusion_lat": 0.0, "lon": -77.0406045, "type": "electric_bike", "fusion_lon": 0.0, "lat": 38.917689333333335}, {"rental_uris": {"android": "https://dc.lft.to/lastmile_qr_scan", "ios": "https://dc.lft.to/lastmile_qr_scan"}, "is_reserved": 0, "is_disabled": 0, "name": "751b763cb4c3d15adeb32684bee8d873", "bike_id": "751b763cb4c3d15adeb32684bee8d873", "fusion_lat": 0.0, "lon": -77.0170575, "type": "electric_scooter", "fusion_lon": 0.0, "lat": 38.90473266666667}, {"rental_uris": {"android": "https://dc.lft.to/lastmile_qr_scan", "ios": "https://dc.lft.to/lastmile_qr_scan"}, "is_reserved": 0, "is_disabled": 0, "name": "6004b45a5a542dd53c1631db7aab54a2", "bike_id": "6004b45a5a542dd53c1631db7aab54a2", "fusion_lat": 0.0, "lon": -77.02319566666667, "type": "electric_scooter", "fusion_lon": 0.0, "lat": 38.9170725}, {"rental_uris": {"android": "https://dc.lft.to/lastmile_qr_scan", "ios": "https://dc.lft.to/lastmile_qr_scan"}, "is_reserved": 0, "is_disabled": 0, "name": "d8139cc7d6756c1fb8a4b10421ea25f2", "bike_id": "d8139cc7d6756c1fb8a4b10421ea25f2", "fusion_lat": 0.0, "lon": -76.99024583333333, "type": "electric_bike", "fusion_lon": 0.0, "lat": 38.835887666666665}, {"rental_uris": {"android": "https://dc.lft.to/lastmile_qr_scan", "ios": "https://dc.lft.to/lastmile_qr_scan"}, "is_reserved": 0, "is_disabled": 0, "name": "4db41147c5b171283412c8d39c124a9c", "bike_id": "4db41147c5b171283412c8d39c124a9c", "fusion_lat": 0.0, "lon": -77.02141266666666, "type": "electric_bike", "fusion_lon": 0.0, "lat": 38.948095333333335}, {"rental_uris": {"android": "https://dc.lft.to/lastmile_qr_scan", "ios": "https://dc.lft.to/lastmile_qr_scan"}, "is_reserved": 0, "is_disabled": 0, "name": "767d618f7e5654c36ccee6d8ccf5df1b", "bike_id": "767d618f7e5654c36ccee6d8ccf5df1b", "fusion_lat": 0.0, "lon": -77.03465866666667, "type": "electric_scooter", "fusion_lon": 0.0, "lat": 38.913844}, {"rental_uris": {"android": "https://dc.lft.to/lastmile_qr_scan", "ios": "https://dc.lft.to/lastmile_qr_scan"}, "is_reserved": 0, "is_disabled": 0, "name": "b61bc08000a9d107cfc20088e0ee0c67", "bike_id": "b61bc08000a9d107cfc20088e0ee0c67", "fusion_lat": 0.0, "lon": -77.09616716666666, "type": "electric_bike", "fusion_lon": 0.0, "lat": 38.87886566666667}, {"rental_uris": {"android": "https://dc.lft.to/lastmile_qr_scan", "ios": "https://dc.lft.to/lastmile_qr_scan"}, "is_reserved": 0, "is_disabled": 0, "name": "799b0de61de08478864b7dc0a2f34f0a", "bike_id": "799b0de61de08478864b7dc0a2f34f0a", "fusion_lat": 0.0, "lon": -76.94031866666667, "type": "electric_bike", "fusion_lon": 0.0, "lat": 38.908186666666666}, {"rental_uris": {"android": "https://dc.lft.to/lastmile_qr_scan", "ios": "https://dc.lft.to/lastmile_qr_scan"}, "is_reserved": 0, "is_disabled": 0, "name": "692c2ca02926424cbbf05fadb57a906c", "bike_id": "692c2ca02926424cbbf05fadb57a906c", "fusion_lat": 0.0, "lon": -77.0256775, "type": "electric_scooter", "fusion_lon": 0.0, "lat": 38.88747216666667}, {"rental_uris": {"android": "https://dc.lft.to/lastmile_qr_scan", "ios": "https://dc.lft.to/lastmile_qr_scan"}, "is_reserved": 0, "is_disabled": 0, "name": "972721c404a09c7489d21af3a80944c2", "bike_id": "972721c404a09c7489d21af3a80944c2", "fusion_lat": 0.0, "lon": -77.03363583333334, "type": "electric_scooter", "fusion_lon": 0.0, "lat": 38.89961183333333}, {"rental_uris": {"android": "https://dc.lft.to/lastmile_qr_scan", "ios": "https://dc.lft.to/lastmile_qr_scan"}, "is_reserved": 0, "is_disabled": 0, "name": "45c5d9186bbdd4c060bbc191c9ebf73a", "bike_id": "45c5d9186bbdd4c060bbc191c9ebf73a", "fusion_lat": 0.0, "lon": -77.0195755, "type": "electric_scooter", "fusion_lon": 0.0, "lat": 38.923215666666664}, {"rental_uris": {"android": "https://dc.lft.to/lastmile_qr_scan", "ios": "https://dc.lft.to/lastmile_qr_scan"}, "is_reserved": 0, "is_disabled": 0, "name": "c62c8aa3a233da98949d78fd0951ccc9", "bike_id": "c62c8aa3a233da98949d78fd0951ccc9", "fusion_lat": 0.0, "lon": -77.0058975, "type": "electric_scooter", "fusion_lon": 0.0, "lat": 38.905749}, {"rental_uris": {"android": "https://dc.lft.to/lastmile_qr_scan", "ios": "https://dc.lft.to/lastmile_qr_scan"}, "is_reserved": 0, "is_disabled": 0, "name": "16c7b7fc42d31e3d2177b50d65e48aea", "bike_id": "16c7b7fc42d31e3d2177b50d65e48aea", "fusion_lat": 0.0, "lon": -77.02548866666666, "type": "electric_scooter", "fusion_lon": 0.0, "lat": 38.891984666666666}, {"rental_uris": {"android": "https://dc.lft.to/lastmile_qr_scan", "ios": "https://dc.lft.to/lastmile_qr_scan"}, "is_reserved": 0, "is_disabled": 0, "name": "bfa38b0b685261b521e541e73885a7bb", "bike_id": "bfa38b0b685261b521e541e73885a7bb", "fusion_lat": 0.0, "lon": -76.98364916666667, "type": "electric_bike", "fusion_lon": 0.0, "lat": 38.91493033333333}, {"rental_uris": {"android": "https://dc.lft.to/lastmile_qr_scan", "ios": "https://dc.lft.to/lastmile_qr_scan"}, "is_reserved": 0, "is_disabled": 0, "name": "aaea1fdefa7a8c4868fd936e24990c65", "bike_id": "aaea1fdefa7a8c4868fd936e24990c65", "fusion_lat": 0.0, "lon": -76.97221733333333, "type": "electric_bike", "fusion_lon": 0.0, "lat": 38.900306}, {"rental_uris": {"android": "https://dc.lft.to/lastmile_qr_scan", "ios": "https://dc.lft.to/lastmile_qr_scan"}, "is_reserved": 0, "is_disabled": 0, "name": "dbc6a20767568cf9ce7f5280d6674f25", "bike_id": "dbc6a20767568cf9ce7f5280d6674f25", "fusion_lat": 0.0, "lon": -77.02301833333334, "type": "electric_scooter", "fusion_lon": 0.0, "lat": 38.9167945}, {"rental_uris": {"android": "https://dc.lft.to/lastmile_qr_scan", "ios": "https://dc.lft.to/lastmile_qr_scan"}, "is_reserved": 0, "is_disabled": 0, "name": "c5b247cfe0901f2d6b2719961d688955", "bike_id": "c5b247cfe0901f2d6b2719961d688955", "fusion_lat": 0.0, "lon": -77.03199083333334, "type": "electric_scooter", "fusion_lon": 0.0, "lat": 38.9158775}, {"rental_uris": {"android": "https://dc.lft.to/lastmile_qr_scan", "ios": "https://dc.lft.to/lastmile_qr_scan"}, "is_reserved": 0, "is_disabled": 0, "name": "63a594649da29b12d920c592bf4c0a85", "bike_id": "63a594649da29b12d920c592bf4c0a85", "fusion_lat": 0.0, "lon": -77.02661633333334, "type": "electric_scooter", "fusion_lon": 0.0, "lat": 38.921746166666665}, {"rental_uris": {"android": "https://dc.lft.to/lastmile_qr_scan", "ios": "https://dc.lft.to/lastmile_qr_scan"}, "is_reserved": 0, "is_disabled": 0, "name": "214e487970322dc5dc71b474d2a8681d", "bike_id": "214e487970322dc5dc71b474d2a8681d", "fusion_lat": 0.0, "lon": -77.02140866666667, "type": "electric_scooter", "fusion_lon": 0.0, "lat": 38.904821166666665}, {"rental_uris": {"android": "https://dc.lft.to/lastmile_qr_scan", "ios": "https://dc.lft.to/lastmile_qr_scan"}, "is_reserved": 0, "is_disabled": 0, "name": "df4d8c8891b6d395525ed9cc52b4f4e0", "bike_id": "df4d8c8891b6d395525ed9cc52b4f4e0", "fusion_lat": 0.0, "lon": -77.0333405, "type": "electric_scooter", "fusion_lon": 0.0, "lat": 38.900258}, {"rental_uris": {"android": "https://dc.lft.to/lastmile_qr_scan", "ios": "https://dc.lft.to/lastmile_qr_scan"}, "is_reserved": 0, "is_disabled": 0, "name": "ffbb7c2399f92e122bcc32b4a290c6ef", "bike_id": "ffbb7c2399f92e122bcc32b4a290c6ef", "fusion_lat": 0.0, "lon": -77.043432, "type": "electric_scooter", "fusion_lon": 0.0, "lat": 38.913088333333334}, {"rental_uris": {"android": "https://dc.lft.to/lastmile_qr_scan", "ios": "https://dc.lft.to/lastmile_qr_scan"}, "is_reserved": 0, "is_disabled": 0, "name": "fade423d64ad663ce37ecb833473d86f", "bike_id": "fade423d64ad663ce37ecb833473d86f", "fusion_lat": 0.0, "lon": -77.02076083333333, "type": "electric_scooter", "fusion_lon": 0.0, "lat": 38.927133}, {"rental_uris": {"android": "https://dc.lft.to/lastmile_qr_scan", "ios": "https://dc.lft.to/lastmile_qr_scan"}, "is_reserved": 0, "is_disabled": 0, "name": "47120e5672a4d6e0598a5ad689fbe74b", "bike_id": "47120e5672a4d6e0598a5ad689fbe74b", "fusion_lat": 0.0, "lon": -76.98500433333334, "type": "electric_scooter", "fusion_lon": 0.0, "lat": 38.86061183333333}, {"rental_uris": {"android": "https://dc.lft.to/lastmile_qr_scan", "ios": "https://dc.lft.to/lastmile_qr_scan"}, "is_reserved": 0, "is_disabled": 0, "name": "b93ca2ba5a41a0be25bbf239f70c0300", "bike_id": "b93ca2ba5a41a0be25bbf239f70c0300", "fusion_lat": 0.0, "lon": -77.0269885, "type": "electric_scooter", "fusion_lon": 0.0, "lat": 38.9497765}, {"rental_uris": {"android": "https://dc.lft.to/lastmile_qr_scan", "ios": "https://dc.lft.to/lastmile_qr_scan"}, "is_reserved": 0, "is_disabled": 0, "name": "f71c0e279bbecb1afa0fae9771facc43", "bike_id": "f71c0e279bbecb1afa0fae9771facc43", "fusion_lat": 0.0, "lon": -77.03267683333333, "type": "electric_scooter", "fusion_lon": 0.0, "lat": 38.93422783333333}, {"rental_uris": {"android": "https://dc.lft.to/lastmile_qr_scan", "ios": "https://dc.lft.to/lastmile_qr_scan"}, "is_reserved": 0, "is_disabled": 0, "name": "651279f19ff4f6476c495fb7a6b3df7a", "bike_id": "651279f19ff4f6476c495fb7a6b3df7a", "fusion_lat": 0.0, "lon": -77.0335035, "type": "electric_scooter", "fusion_lon": 0.0, "lat": 38.902848}, {"rental_uris": {"android": "https://dc.lft.to/lastmile_qr_scan", "ios": "https://dc.lft.to/lastmile_qr_scan"}, "is_reserved": 0, "is_disabled": 0, "name": "3a06f1f2f6734ff09e4ee674b2fafe1d", "bike_id": "3a06f1f2f6734ff09e4ee674b2fafe1d", "fusion_lat": 0.0, "lon": -77.03187783333334, "type": "electric_scooter", "fusion_lon": 0.0, "lat": 38.919281}, {"rental_uris": {"android": "https://dc.lft.to/lastmile_qr_scan", "ios": "https://dc.lft.to/lastmile_qr_scan"}, "is_reserved": 0, "is_disabled": 0, "name": "4630a54c50acf32d0ded2bedf21d6922", "bike_id": "4630a54c50acf32d0ded2bedf21d6922", "fusion_lat": 0.0, "lon": -77.026108, "type": "electric_scooter", "fusion_lon": 0.0, "lat": 38.920356166666664}, {"rental_uris": {"android": "https://dc.lft.to/lastmile_qr_scan", "ios": "https://dc.lft.to/lastmile_qr_scan"}, "is_reserved": 0, "is_disabled": 0, "name": "20d50fb770daab0584284c88c90af72f", "bike_id": "20d50fb770daab0584284c88c90af72f", "fusion_lat": 0.0, "lon": -77.05124266666667, "type": "electric_scooter", "fusion_lon": 0.0, "lat": 38.906346666666664}, {"rental_uris": {"android": "https://dc.lft.to/lastmile_qr_scan", "ios": "https://dc.lft.to/lastmile_qr_scan"}, "is_reserved": 0, "is_disabled": 0, "name": "42722b62fc3aa2e010bdb292eb3da815", "bike_id": "42722b62fc3aa2e010bdb292eb3da815", "fusion_lat": 0.0, "lon": -77.02861816666666, "type": "electric_scooter", "fusion_lon": 0.0, "lat": 38.935323833333335}, {"rental_uris": {"android": "https://dc.lft.to/lastmile_qr_scan", "ios": "https://dc.lft.to/lastmile_qr_scan"}, "is_reserved": 0, "is_disabled": 0, "name": "224321253d8c73991bf89e5cf73aa5bf", "bike_id": "224321253d8c73991bf89e5cf73aa5bf", "fusion_lat": 0.0, "lon": -77.00602466666666, "type": "electric_scooter", "fusion_lon": 0.0, "lat": 38.87541483333333}, {"rental_uris": {"android": "https://dc.lft.to/lastmile_qr_scan", "ios": "https://dc.lft.to/lastmile_qr_scan"}, "is_reserved": 0, "is_disabled": 0, "name": "5f0730647630061dbc3494b50732c037", "bike_id": "5f0730647630061dbc3494b50732c037", "fusion_lat": 0.0, "lon": -77.0332565, "type": "electric_scooter", "fusion_lon": 0.0, "lat": 38.898784666666664}, {"rental_uris": {"android": "https://dc.lft.to/lastmile_qr_scan", "ios": "https://dc.lft.to/lastmile_qr_scan"}, "is_reserved": 0, "is_disabled": 0, "name": "cd88e548d2a0261976737fd94774031a", "bike_id": "cd88e548d2a0261976737fd94774031a", "fusion_lat": 0.0, "lon": -77.0343565, "type": "electric_scooter", "fusion_lon": 0.0, "lat": 38.902946666666665}, {"rental_uris": {"android": "https://dc.lft.to/lastmile_qr_scan", "ios": "https://dc.lft.to/lastmile_qr_scan"}, "is_reserved": 0, "is_disabled": 0, "name": "259a8288a524d8390659596f2ad4867a", "bike_id": "259a8288a524d8390659596f2ad4867a", "fusion_lat": 0.0, "lon": -77.00198483333334, "type": "electric_scooter", "fusion_lon": 0.0, "lat": 38.90034266666667}, {"rental_uris": {"android": "https://dc.lft.to/lastmile_qr_scan", "ios": "https://dc.lft.to/lastmile_qr_scan"}, "is_reserved": 0, "is_disabled": 0, "name": "6a93cdad5958c4545c57299c96aa88fb", "bike_id": "6a93cdad5958c4545c57299c96aa88fb", "fusion_lat": 0.0, "lon": -77.01917883333333, "type": "electric_scooter", "fusion_lon": 0.0, "lat": 38.92374516666667}, {"rental_uris": {"android": "https://dc.lft.to/lastmile_qr_scan", "ios": "https://dc.lft.to/lastmile_qr_scan"}, "is_reserved": 0, "is_disabled": 0, "name": "dd12145dd6a396fc0487a40ca1b622c9", "bike_id": "dd12145dd6a396fc0487a40ca1b622c9", "fusion_lat": 0.0, "lon": -77.03584916666667, "type": "electric_scooter", "fusion_lon": 0.0, "lat": 38.917570833333336}, {"rental_uris": {"android": "https://dc.lft.to/lastmile_qr_scan", "ios": "https://dc.lft.to/lastmile_qr_scan"}, "is_reserved": 0, "is_disabled": 0, "name": "6e5678a0d0b7951f2ed7a8b716db389f", "bike_id": "6e5678a0d0b7951f2ed7a8b716db389f", "fusion_lat": 0.0, "lon": -77.03469233333334, "type": "electric_scooter", "fusion_lon": 0.0, "lat": 38.92865616666667}, {"rental_uris": {"android": "https://dc.lft.to/lastmile_qr_scan", "ios": "https://dc.lft.to/lastmile_qr_scan"}, "is_reserved": 0, "is_disabled": 0, "name": "b5374ab798166bbb3952486217f4be0e", "bike_id": "b5374ab798166bbb3952486217f4be0e", "fusion_lat": 0.0, "lon": -77.0727465, "type": "electric_scooter", "fusion_lon": 0.0, "lat": 38.9158195}, {"rental_uris": {"android": "https://dc.lft.to/lastmile_qr_scan", "ios": "https://dc.lft.to/lastmile_qr_scan"}, "is_reserved": 0, "is_disabled": 0, "name": "2300b937e2f97a3c5ee9b5aa27e20e04", "bike_id": "2300b937e2f97a3c5ee9b5aa27e20e04", "fusion_lat": 0.0, "lon": -77.03234266666666, "type": "electric_scooter", "fusion_lon": 0.0, "lat": 38.909757666666664}, {"rental_uris": {"android": "https://dc.lft.to/lastmile_qr_scan", "ios": "https://dc.lft.to/lastmile_qr_scan"}, "is_reserved": 0, "is_disabled": 0, "name": "a659125ef5be38e0d9bcd169bf5d1518", "bike_id": "a659125ef5be38e0d9bcd169bf5d1518", "fusion_lat": 0.0, "lon": -77.022053, "type": "electric_scooter", "fusion_lon": 0.0, "lat": 38.901922166666665}, {"rental_uris": {"android": "https://dc.lft.to/lastmile_qr_scan", "ios": "https://dc.lft.to/lastmile_qr_scan"}, "is_reserved": 0, "is_disabled": 0, "name": "15a5cb3d96b4c66bcd83bb727daeac31", "bike_id": "15a5cb3d96b4c66bcd83bb727daeac31", "fusion_lat": 0.0, "lon": -77.01374766666666, "type": "electric_scooter", "fusion_lon": 0.0, "lat": 38.87815033333333}, {"rental_uris": {"android": "https://dc.lft.to/lastmile_qr_scan", "ios": "https://dc.lft.to/lastmile_qr_scan"}, "is_reserved": 0, "is_disabled": 0, "name": "fd22c058d335aa7e45786ff3b55c5374", "bike_id": "fd22c058d335aa7e45786ff3b55c5374", "fusion_lat": 0.0, "lon": -77.04077566666666, "type": "electric_bike", "fusion_lon": 0.0, "lat": 38.83063683333334}, {"rental_uris": {"android": "https://dc.lft.to/lastmile_qr_scan", "ios": "https://dc.lft.to/lastmile_qr_scan"}, "is_reserved": 0, "is_disabled": 0, "name": "51c0d391d4f72c3d630f1c8bc8280f1e", "bike_id": "51c0d391d4f72c3d630f1c8bc8280f1e", "fusion_lat": 0.0, "lon": -77.02407016666666, "type": "electric_scooter", "fusion_lon": 0.0, "lat": 38.90185316666667}, {"rental_uris": {"android": "https://dc.lft.to/lastmile_qr_scan", "ios": "https://dc.lft.to/lastmile_qr_scan"}, "is_reserved": 0, "is_disabled": 0, "name": "d92eaec4a9b39434f5d8729d1f99c61e", "bike_id": "d92eaec4a9b39434f5d8729d1f99c61e", "fusion_lat": 0.0, "lon": -77.00093233333334, "type": "electric_scooter", "fusion_lon": 0.0, "lat": 38.925521833333335}, {"rental_uris": {"android": "https://dc.lft.to/lastmile_qr_scan", "ios": "https://dc.lft.to/lastmile_qr_scan"}, "is_reserved": 0, "is_disabled": 0, "name": "9c2e0e73e74e866dc73d478c130aa389", "bike_id": "9c2e0e73e74e866dc73d478c130aa389", "fusion_lat": 0.0, "lon": -77.011902, "type": "electric_scooter", "fusion_lon": 0.0, "lat": 38.90010616666667}, {"rental_uris": {"android": "https://dc.lft.to/lastmile_qr_scan", "ios": "https://dc.lft.to/lastmile_qr_scan"}, "is_reserved": 0, "is_disabled": 0, "name": "7b556d063dd201524651100e7e1172a5", "bike_id": "7b556d063dd201524651100e7e1172a5", "fusion_lat": 0.0, "lon": -77.02557166666666, "type": "electric_scooter", "fusion_lon": 0.0, "lat": 38.89200116666667}, {"rental_uris": {"android": "https://dc.lft.to/lastmile_qr_scan", "ios": "https://dc.lft.to/lastmile_qr_scan"}, "is_reserved": 0, "is_disabled": 0, "name": "3425061d56f41604aaabd15774a49c39", "bike_id": "3425061d56f41604aaabd15774a49c39", "fusion_lat": 0.0, "lon": -77.01780383333333, "type": "electric_scooter", "fusion_lon": 0.0, "lat": 38.90052166666667}, {"rental_uris": {"android": "https://dc.lft.to/lastmile_qr_scan", "ios": "https://dc.lft.to/lastmile_qr_scan"}, "is_reserved": 0, "is_disabled": 0, "name": "48a0660b432bd15fe0c66096c0d60e3b", "bike_id": "48a0660b432bd15fe0c66096c0d60e3b", "fusion_lat": 0.0, "lon": -77.03966566666666, "type": "electric_scooter", "fusion_lon": 0.0, "lat": 38.90185}, {"rental_uris": {"android": "https://dc.lft.to/lastmile_qr_scan", "ios": "https://dc.lft.to/lastmile_qr_scan"}, "is_reserved": 0, "is_disabled": 0, "name": "7c9d4e73178315fbb86a89845ccfc780", "bike_id": "7c9d4e73178315fbb86a89845ccfc780", "fusion_lat": 0.0, "lon": -77.01772383333333, "type": "electric_scooter", "fusion_lon": 0.0, "lat": 38.92044283333333}, {"rental_uris": {"android": "https://dc.lft.to/lastmile_qr_scan", "ios": "https://dc.lft.to/lastmile_qr_scan"}, "is_reserved": 0, "is_disabled": 0, "name": "bcd811e6bee6b9db0c1c16f2bef1549c", "bike_id": "bcd811e6bee6b9db0c1c16f2bef1549c", "fusion_lat": 0.0, "lon": -77.0309135, "type": "electric_scooter", "fusion_lon": 0.0, "lat": 38.92237683333333}, {"rental_uris": {"android": "https://dc.lft.to/lastmile_qr_scan", "ios": "https://dc.lft.to/lastmile_qr_scan"}, "is_reserved": 0, "is_disabled": 0, "name": "b3e202c475cdaef2b0f6cffa79af6658", "bike_id": "b3e202c475cdaef2b0f6cffa79af6658", "fusion_lat": 0.0, "lon": -76.91803366666667, "type": "electric_bike", "fusion_lon": 0.0, "lat": 39.00001366666667}, {"rental_uris": {"android": "https://dc.lft.to/lastmile_qr_scan", "ios": "https://dc.lft.to/lastmile_qr_scan"}, "is_reserved": 0, "is_disabled": 0, "name": "43f5c232c4f07a6c65115506b28652b0", "bike_id": "43f5c232c4f07a6c65115506b28652b0", "fusion_lat": 0.0, "lon": -77.023672, "type": "electric_scooter", "fusion_lon": 0.0, "lat": 38.9204825}, {"rental_uris": {"android": "https://dc.lft.to/lastmile_qr_scan", "ios": "https://dc.lft.to/lastmile_qr_scan"}, "is_reserved": 0, "is_disabled": 0, "name": "9fcc014184333f7a98f90b37b9658d75", "bike_id": "9fcc014184333f7a98f90b37b9658d75", "fusion_lat": 0.0, "lon": -77.04772166666666, "type": "electric_scooter", "fusion_lon": 0.0, "lat": 38.917657}, {"rental_uris": {"android": "https://dc.lft.to/lastmile_qr_scan", "ios": "https://dc.lft.to/lastmile_qr_scan"}, "is_reserved": 0, "is_disabled": 0, "name": "04301a409607dc65bcfb07ed12d515d7", "bike_id": "04301a409607dc65bcfb07ed12d515d7", "fusion_lat": 0.0, "lon": -77.0356655, "type": "electric_scooter", "fusion_lon": 0.0, "lat": 38.92749166666667}, {"rental_uris": {"android": "https://dc.lft.to/lastmile_qr_scan", "ios": "https://dc.lft.to/lastmile_qr_scan"}, "is_reserved": 0, "is_disabled": 0, "name": "514db89c863fa286d42feabd453e6f80", "bike_id": "514db89c863fa286d42feabd453e6f80", "fusion_lat": 0.0, "lon": -77.03493616666667, "type": "electric_scooter", "fusion_lon": 0.0, "lat": 38.905847666666666}, {"rental_uris": {"android": "https://dc.lft.to/lastmile_qr_scan", "ios": "https://dc.lft.to/lastmile_qr_scan"}, "is_reserved": 0, "is_disabled": 0, "name": "935b26f8b508ee5b85120f79fb8d3f85", "bike_id": "935b26f8b508ee5b85120f79fb8d3f85", "fusion_lat": 0.0, "lon": -77.07753833333334, "type": "electric_bike", "fusion_lon": 0.0, "lat": 38.84194383333333}, {"rental_uris": {"android": "https://dc.lft.to/lastmile_qr_scan", "ios": "https://dc.lft.to/lastmile_qr_scan"}, "is_reserved": 0, "is_disabled": 0, "name": "c4e42cdd1cabf3b7d83a25e341ceaad9", "bike_id": "c4e42cdd1cabf3b7d83a25e341ceaad9", "fusion_lat": 0.0, "lon": -77.03205233333334, "type": "electric_scooter", "fusion_lon": 0.0, "lat": 38.9073565}, {"rental_uris": {"android": "https://dc.lft.to/lastmile_qr_scan", "ios": "https://dc.lft.to/lastmile_qr_scan"}, "is_reserved": 0, "is_disabled": 0, "name": "86204dd78086215841c24eca391715b8", "bike_id": "86204dd78086215841c24eca391715b8", "fusion_lat": 0.0, "lon": -77.05910066666667, "type": "electric_scooter", "fusion_lon": 0.0, "lat": 38.9047885}, {"rental_uris": {"android": "https://dc.lft.to/lastmile_qr_scan", "ios": "https://dc.lft.to/lastmile_qr_scan"}, "is_reserved": 0, "is_disabled": 0, "name": "d6b949fc86b257385fa1f1bea678ab8b", "bike_id": "d6b949fc86b257385fa1f1bea678ab8b", "fusion_lat": 0.0, "lon": -77.02557333333333, "type": "electric_scooter", "fusion_lon": 0.0, "lat": 38.95392666666667}, {"rental_uris": {"android": "https://dc.lft.to/lastmile_qr_scan", "ios": "https://dc.lft.to/lastmile_qr_scan"}, "is_reserved": 0, "is_disabled": 0, "name": "ad92193c05b3ce2f65514e3ebd4fe797", "bike_id": "ad92193c05b3ce2f65514e3ebd4fe797", "fusion_lat": 0.0, "lon": -77.0344065, "type": "electric_scooter", "fusion_lon": 0.0, "lat": 38.917969}, {"rental_uris": {"android": "https://dc.lft.to/lastmile_qr_scan", "ios": "https://dc.lft.to/lastmile_qr_scan"}, "is_reserved": 0, "is_disabled": 0, "name": "f636c90919bfbadf19d3a3cd80a9cb84", "bike_id": "f636c90919bfbadf19d3a3cd80a9cb84", "fusion_lat": 0.0, "lon": -76.96091016666666, "type": "electric_bike", "fusion_lon": 0.0, "lat": 38.91853116666667}, {"rental_uris": {"android": "https://dc.lft.to/lastmile_qr_scan", "ios": "https://dc.lft.to/lastmile_qr_scan"}, "is_reserved": 0, "is_disabled": 0, "name": "b18a67e0edee4bf9e75f1d79c386d268", "bike_id": "b18a67e0edee4bf9e75f1d79c386d268", "fusion_lat": 0.0, "lon": -76.92944016666667, "type": "electric_scooter", "fusion_lon": 0.0, "lat": 38.9034385}, {"rental_uris": {"android": "https://dc.lft.to/lastmile_qr_scan", "ios": "https://dc.lft.to/lastmile_qr_scan"}, "is_reserved": 0, "is_disabled": 0, "name": "7c6b8f075cec21ce00ca0f5a81c7eb3b", "bike_id": "7c6b8f075cec21ce00ca0f5a81c7eb3b", "fusion_lat": 0.0, "lon": -77.03457416666667, "type": "electric_scooter", "fusion_lon": 0.0, "lat": 38.9026935}, {"rental_uris": {"android": "https://dc.lft.to/lastmile_qr_scan", "ios": "https://dc.lft.to/lastmile_qr_scan"}, "is_reserved": 0, "is_disabled": 0, "name": "5a529cd09a9b29651a66c7af94c653bc", "bike_id": "5a529cd09a9b29651a66c7af94c653bc", "fusion_lat": 0.0, "lon": -77.04352533333333, "type": "electric_scooter", "fusion_lon": 0.0, "lat": 38.90468883333333}, {"rental_uris": {"android": "https://dc.lft.to/lastmile_qr_scan", "ios": "https://dc.lft.to/lastmile_qr_scan"}, "is_reserved": 0, "is_disabled": 0, "name": "8cc0e6e1dd18c268b796b8bb3380a44f", "bike_id": "8cc0e6e1dd18c268b796b8bb3380a44f", "fusion_lat": 0.0, "lon": -77.021803, "type": "electric_scooter", "fusion_lon": 0.0, "lat": 38.892274}, {"rental_uris": {"android": "https://dc.lft.to/lastmile_qr_scan", "ios": "https://dc.lft.to/lastmile_qr_scan"}, "is_reserved": 0, "is_disabled": 0, "name": "708ff5be933d6b1513808877173b8247", "bike_id": "708ff5be933d6b1513808877173b8247", "fusion_lat": 0.0, "lon": -77.044871, "type": "electric_scooter", "fusion_lon": 0.0, "lat": 38.901577333333336}, {"rental_uris": {"android": "https://dc.lft.to/lastmile_qr_scan", "ios": "https://dc.lft.to/lastmile_qr_scan"}, "is_reserved": 0, "is_disabled": 0, "name": "5dea06d8b206458c423447075b062acd", "bike_id": "5dea06d8b206458c423447075b062acd", "fusion_lat": 0.0, "lon": -76.98342133333334, "type": "electric_scooter", "fusion_lon": 0.0, "lat": 38.90093483333333}, {"rental_uris": {"android": "https://dc.lft.to/lastmile_qr_scan", "ios": "https://dc.lft.to/lastmile_qr_scan"}, "is_reserved": 0, "is_disabled": 0, "name": "f01378a5267c935df5ae2a2f3383e0c9", "bike_id": "f01378a5267c935df5ae2a2f3383e0c9", "fusion_lat": 0.0, "lon": -77.03194033333334, "type": "electric_scooter", "fusion_lon": 0.0, "lat": 38.91633233333334}, {"rental_uris": {"android": "https://dc.lft.to/lastmile_qr_scan", "ios": "https://dc.lft.to/lastmile_qr_scan"}, "is_reserved": 0, "is_disabled": 0, "name": "74a1c5389d124011002bf50482756d78", "bike_id": "74a1c5389d124011002bf50482756d78", "fusion_lat": 0.0, "lon": -77.02508266666666, "type": "electric_scooter", "fusion_lon": 0.0, "lat": 38.92063233333333}, {"rental_uris": {"android": "https://dc.lft.to/lastmile_qr_scan", "ios": "https://dc.lft.to/lastmile_qr_scan"}, "is_reserved": 0, "is_disabled": 0, "name": "aab1121f439c728dc36b014c9e00298b", "bike_id": "aab1121f439c728dc36b014c9e00298b", "fusion_lat": 0.0, "lon": -77.00210083333333, "type": "electric_scooter", "fusion_lon": 0.0, "lat": 38.90281516666667}, {"rental_uris": {"android": "https://dc.lft.to/lastmile_qr_scan", "ios": "https://dc.lft.to/lastmile_qr_scan"}, "is_reserved": 0, "is_disabled": 0, "name": "afd8dad1abef1ab7b522737974fc8c82", "bike_id": "afd8dad1abef1ab7b522737974fc8c82", "fusion_lat": 0.0, "lon": -77.01517116666666, "type": "electric_scooter", "fusion_lon": 0.0, "lat": 38.872206166666665}, {"rental_uris": {"android": "https://dc.lft.to/lastmile_qr_scan", "ios": "https://dc.lft.to/lastmile_qr_scan"}, "is_reserved": 0, "is_disabled": 0, "name": "63a3bc8d486c4d0348a22dd728531a6c", "bike_id": "63a3bc8d486c4d0348a22dd728531a6c", "fusion_lat": 0.0, "lon": -77.03176433333333, "type": "electric_scooter", "fusion_lon": 0.0, "lat": 38.91784633333333}, {"rental_uris": {"android": "https://dc.lft.to/lastmile_qr_scan", "ios": "https://dc.lft.to/lastmile_qr_scan"}, "is_reserved": 0, "is_disabled": 0, "name": "2f661deb5484a3c3079c78185affb8c7", "bike_id": "2f661deb5484a3c3079c78185affb8c7", "fusion_lat": 0.0, "lon": -77.0617275, "type": "electric_scooter", "fusion_lon": 0.0, "lat": 38.9413285}, {"rental_uris": {"android": "https://dc.lft.to/lastmile_qr_scan", "ios": "https://dc.lft.to/lastmile_qr_scan"}, "is_reserved": 0, "is_disabled": 0, "name": "7a224dd80171a0e50e955452049471ad", "bike_id": "7a224dd80171a0e50e955452049471ad", "fusion_lat": 0.0, "lon": -77.03707383333334, "type": "electric_scooter", "fusion_lon": 0.0, "lat": 38.928348666666665}, {"rental_uris": {"android": "https://dc.lft.to/lastmile_qr_scan", "ios": "https://dc.lft.to/lastmile_qr_scan"}, "is_reserved": 0, "is_disabled": 0, "name": "9279c2d666a3d257091479af7dfe235e", "bike_id": "9279c2d666a3d257091479af7dfe235e", "fusion_lat": 0.0, "lon": -77.06591566666667, "type": "electric_scooter", "fusion_lon": 0.0, "lat": 38.9040765}, {"rental_uris": {"android": "https://dc.lft.to/lastmile_qr_scan", "ios": "https://dc.lft.to/lastmile_qr_scan"}, "is_reserved": 0, "is_disabled": 0, "name": "eb7764fe8b0c962cc6c035400d3b22cf", "bike_id": "eb7764fe8b0c962cc6c035400d3b22cf", "fusion_lat": 0.0, "lon": -77.04092116666666, "type": "electric_scooter", "fusion_lon": 0.0, "lat": 38.910659}, {"rental_uris": {"android": "https://dc.lft.to/lastmile_qr_scan", "ios": "https://dc.lft.to/lastmile_qr_scan"}, "is_reserved": 0, "is_disabled": 0, "name": "eabbe440fb5e7757c54f7f6d99252ca8", "bike_id": "eabbe440fb5e7757c54f7f6d99252ca8", "fusion_lat": 0.0, "lon": -77.04443116666667, "type": "electric_scooter", "fusion_lon": 0.0, "lat": 38.903099}, {"rental_uris": {"android": "https://dc.lft.to/lastmile_qr_scan", "ios": "https://dc.lft.to/lastmile_qr_scan"}, "is_reserved": 0, "is_disabled": 0, "name": "15011653a1e929c6691df77ff446bba3", "bike_id": "15011653a1e929c6691df77ff446bba3", "fusion_lat": 0.0, "lon": -77.0106695, "type": "electric_scooter", "fusion_lon": 0.0, "lat": 38.9180895}, {"rental_uris": {"android": "https://dc.lft.to/lastmile_qr_scan", "ios": "https://dc.lft.to/lastmile_qr_scan"}, "is_reserved": 0, "is_disabled": 0, "name": "69afc02dc118c347ae36b7457afebe1f", "bike_id": "69afc02dc118c347ae36b7457afebe1f", "fusion_lat": 0.0, "lon": -77.0529945, "type": "electric_scooter", "fusion_lon": 0.0, "lat": 38.90400733333333}, {"rental_uris": {"android": "https://dc.lft.to/lastmile_qr_scan", "ios": "https://dc.lft.to/lastmile_qr_scan"}, "is_reserved": 0, "is_disabled": 0, "name": "2db417685f0ae999c764a67ca57bceff", "bike_id": "2db417685f0ae999c764a67ca57bceff", "fusion_lat": 0.0, "lon": -77.04925716666666, "type": "electric_scooter", "fusion_lon": 0.0, "lat": 38.89548116666667}, {"rental_uris": {"android": "https://dc.lft.to/lastmile_qr_scan", "ios": "https://dc.lft.to/lastmile_qr_scan"}, "is_reserved": 0, "is_disabled": 0, "name": "77618fb7545cdbb19f0fc6f0baffbc2e", "bike_id": "77618fb7545cdbb19f0fc6f0baffbc2e", "fusion_lat": 0.0, "lon": -77.0262805, "type": "electric_bike", "fusion_lon": 0.0, "lat": 38.9621525}, {"rental_uris": {"android": "https://dc.lft.to/lastmile_qr_scan", "ios": "https://dc.lft.to/lastmile_qr_scan"}, "is_reserved": 0, "is_disabled": 0, "name": "bcb54a6d821381b07dc52b7483504a6e", "bike_id": "bcb54a6d821381b07dc52b7483504a6e", "fusion_lat": 0.0, "lon": -77.012769, "type": "electric_scooter", "fusion_lon": 0.0, "lat": 38.909498}, {"rental_uris": {"android": "https://dc.lft.to/lastmile_qr_scan", "ios": "https://dc.lft.to/lastmile_qr_scan"}, "is_reserved": 0, "is_disabled": 0, "name": "74f827af72cf1710a8050299cbb4c353", "bike_id": "74f827af72cf1710a8050299cbb4c353", "fusion_lat": 0.0, "lon": -77.03090033333334, "type": "electric_scooter", "fusion_lon": 0.0, "lat": 38.898452166666665}, {"rental_uris": {"android": "https://dc.lft.to/lastmile_qr_scan", "ios": "https://dc.lft.to/lastmile_qr_scan"}, "is_reserved": 0, "is_disabled": 0, "name": "f18c790d57e51cfc1f41fcc05ee9d1ec", "bike_id": "f18c790d57e51cfc1f41fcc05ee9d1ec", "fusion_lat": 0.0, "lon": -76.99078966666667, "type": "electric_scooter", "fusion_lon": 0.0, "lat": 38.855663166666666}, {"rental_uris": {"android": "https://dc.lft.to/lastmile_qr_scan", "ios": "https://dc.lft.to/lastmile_qr_scan"}, "is_reserved": 0, "is_disabled": 0, "name": "cc3c5d3542234e5898a470886a52bc9b", "bike_id": "cc3c5d3542234e5898a470886a52bc9b", "fusion_lat": 0.0, "lon": -77.02127816666666, "type": "electric_bike", "fusion_lon": 0.0, "lat": 38.9358045}, {"rental_uris": {"android": "https://dc.lft.to/lastmile_qr_scan", "ios": "https://dc.lft.to/lastmile_qr_scan"}, "is_reserved": 0, "is_disabled": 0, "name": "630ad745e4eb3bac95d95c8a1cd59646", "bike_id": "630ad745e4eb3bac95d95c8a1cd59646", "fusion_lat": 0.0, "lon": -77.02414833333333, "type": "electric_scooter", "fusion_lon": 0.0, "lat": 38.93355116666667}, {"rental_uris": {"android": "https://dc.lft.to/lastmile_qr_scan", "ios": "https://dc.lft.to/lastmile_qr_scan"}, "is_reserved": 0, "is_disabled": 0, "name": "ec9cd9b3483efe402fda699e8b4f94fc", "bike_id": "ec9cd9b3483efe402fda699e8b4f94fc", "fusion_lat": 0.0, "lon": -77.0320655, "type": "electric_scooter", "fusion_lon": 0.0, "lat": 38.907402833333336}, {"rental_uris": {"android": "https://dc.lft.to/lastmile_qr_scan", "ios": "https://dc.lft.to/lastmile_qr_scan"}, "is_reserved": 0, "is_disabled": 0, "name": "8f7320ef2eb7a655ab54557c6d70441e", "bike_id": "8f7320ef2eb7a655ab54557c6d70441e", "fusion_lat": 0.0, "lon": -77.05043583333334, "type": "electric_scooter", "fusion_lon": 0.0, "lat": 38.923654666666664}, {"rental_uris": {"android": "https://dc.lft.to/lastmile_qr_scan", "ios": "https://dc.lft.to/lastmile_qr_scan"}, "is_reserved": 0, "is_disabled": 0, "name": "3fd43a5d14ec487b20ae0ba1df810ac6", "bike_id": "3fd43a5d14ec487b20ae0ba1df810ac6", "fusion_lat": 0.0, "lon": -77.02231616666667, "type": "electric_scooter", "fusion_lon": 0.0, "lat": 38.912508833333334}, {"rental_uris": {"android": "https://dc.lft.to/lastmile_qr_scan", "ios": "https://dc.lft.to/lastmile_qr_scan"}, "is_reserved": 0, "is_disabled": 0, "name": "03475c8e7cbed243f6e389cfec5aad85", "bike_id": "03475c8e7cbed243f6e389cfec5aad85", "fusion_lat": 0.0, "lon": -77.0020185, "type": "electric_scooter", "fusion_lon": 0.0, "lat": 38.90239033333334}, {"rental_uris": {"android": "https://dc.lft.to/lastmile_qr_scan", "ios": "https://dc.lft.to/lastmile_qr_scan"}, "is_reserved": 0, "is_disabled": 0, "name": "ea5332418364024bf545ff02183fa559", "bike_id": "ea5332418364024bf545ff02183fa559", "fusion_lat": 0.0, "lon": -76.98562016666666, "type": "electric_scooter", "fusion_lon": 0.0, "lat": 38.907068333333335}, {"rental_uris": {"android": "https://dc.lft.to/lastmile_qr_scan", "ios": "https://dc.lft.to/lastmile_qr_scan"}, "is_reserved": 0, "is_disabled": 0, "name": "4dd1344ce5aebda54201c0daed12712b", "bike_id": "4dd1344ce5aebda54201c0daed12712b", "fusion_lat": 0.0, "lon": -77.01643883333334, "type": "electric_scooter", "fusion_lon": 0.0, "lat": 38.9039035}, {"rental_uris": {"android": "https://dc.lft.to/lastmile_qr_scan", "ios": "https://dc.lft.to/lastmile_qr_scan"}, "is_reserved": 0, "is_disabled": 0, "name": "e47174018b2f97a1899de0bdf1693a8f", "bike_id": "e47174018b2f97a1899de0bdf1693a8f", "fusion_lat": 0.0, "lon": -77.0220595, "type": "electric_bike", "fusion_lon": 0.0, "lat": 38.964916}, {"rental_uris": {"android": "https://dc.lft.to/lastmile_qr_scan", "ios": "https://dc.lft.to/lastmile_qr_scan"}, "is_reserved": 0, "is_disabled": 0, "name": "9d5be868183dd0b09706b6d130e10bb7", "bike_id": "9d5be868183dd0b09706b6d130e10bb7", "fusion_lat": 0.0, "lon": -77.0208295, "type": "electric_scooter", "fusion_lon": 0.0, "lat": 38.9271325}, {"rental_uris": {"android": "https://dc.lft.to/lastmile_qr_scan", "ios": "https://dc.lft.to/lastmile_qr_scan"}, "is_reserved": 0, "is_disabled": 0, "name": "a12f3952951c7adb5496c6ce05bd7543", "bike_id": "a12f3952951c7adb5496c6ce05bd7543", "fusion_lat": 0.0, "lon": -77.02176333333334, "type": "electric_scooter", "fusion_lon": 0.0, "lat": 38.914675}, {"rental_uris": {"android": "https://dc.lft.to/lastmile_qr_scan", "ios": "https://dc.lft.to/lastmile_qr_scan"}, "is_reserved": 0, "is_disabled": 0, "name": "67471cd6d29183da3b991ad5b8fde41b", "bike_id": "67471cd6d29183da3b991ad5b8fde41b", "fusion_lat": 0.0, "lon": -77.01865983333333, "type": "electric_scooter", "fusion_lon": 0.0, "lat": 38.95153033333333}, {"rental_uris": {"android": "https://dc.lft.to/lastmile_qr_scan", "ios": "https://dc.lft.to/lastmile_qr_scan"}, "is_reserved": 0, "is_disabled": 0, "name": "3803ba7465102ffdebf398b31d8caf11", "bike_id": "3803ba7465102ffdebf398b31d8caf11", "fusion_lat": 0.0, "lon": -77.02495366666666, "type": "electric_scooter", "fusion_lon": 0.0, "lat": 38.91750733333333}, {"rental_uris": {"android": "https://dc.lft.to/lastmile_qr_scan", "ios": "https://dc.lft.to/lastmile_qr_scan"}, "is_reserved": 0, "is_disabled": 0, "name": "9ebd1da1ecf6cd37deba49c6fb878892", "bike_id": "9ebd1da1ecf6cd37deba49c6fb878892", "fusion_lat": 0.0, "lon": -77.02664233333333, "type": "electric_scooter", "fusion_lon": 0.0, "lat": 38.930992}, {"rental_uris": {"android": "https://dc.lft.to/lastmile_qr_scan", "ios": "https://dc.lft.to/lastmile_qr_scan"}, "is_reserved": 0, "is_disabled": 0, "name": "5681d7f43bd1e8b066a3ea3b57dd9faa", "bike_id": "5681d7f43bd1e8b066a3ea3b57dd9faa", "fusion_lat": 0.0, "lon": -77.02422716666666, "type": "electric_scooter", "fusion_lon": 0.0, "lat": 38.918235}, {"rental_uris": {"android": "https://dc.lft.to/lastmile_qr_scan", "ios": "https://dc.lft.to/lastmile_qr_scan"}, "is_reserved": 0, "is_disabled": 0, "name": "69438fc5c5a5ed3a64f9cc3d2c9333d8", "bike_id": "69438fc5c5a5ed3a64f9cc3d2c9333d8", "fusion_lat": 0.0, "lon": -76.93177366666667, "type": "electric_scooter", "fusion_lon": 0.0, "lat": 38.89881833333333}, {"rental_uris": {"android": "https://dc.lft.to/lastmile_qr_scan", "ios": "https://dc.lft.to/lastmile_qr_scan"}, "is_reserved": 0, "is_disabled": 0, "name": "57ca7d292e4176e2ee7133f13a03fe56", "bike_id": "57ca7d292e4176e2ee7133f13a03fe56", "fusion_lat": 0.0, "lon": -77.0155595, "type": "electric_scooter", "fusion_lon": 0.0, "lat": 38.918530833333335}, {"rental_uris": {"android": "https://dc.lft.to/lastmile_qr_scan", "ios": "https://dc.lft.to/lastmile_qr_scan"}, "is_reserved": 0, "is_disabled": 0, "name": "45682e651492096e33dc7243e922ffb9", "bike_id": "45682e651492096e33dc7243e922ffb9", "fusion_lat": 0.0, "lon": -77.04428666666666, "type": "electric_scooter", "fusion_lon": 0.0, "lat": 38.90561533333333}, {"rental_uris": {"android": "https://dc.lft.to/lastmile_qr_scan", "ios": "https://dc.lft.to/lastmile_qr_scan"}, "is_reserved": 0, "is_disabled": 0, "name": "179581a273072120b70b3761dd47db57", "bike_id": "179581a273072120b70b3761dd47db57", "fusion_lat": 0.0, "lon": -77.0165885, "type": "electric_scooter", "fusion_lon": 0.0, "lat": 38.9420615}, {"rental_uris": {"android": "https://dc.lft.to/lastmile_qr_scan", "ios": "https://dc.lft.to/lastmile_qr_scan"}, "is_reserved": 0, "is_disabled": 0, "name": "5def0e4488c79bf03f4ea9e501ea8782", "bike_id": "5def0e4488c79bf03f4ea9e501ea8782", "fusion_lat": 0.0, "lon": -77.02562483333334, "type": "electric_scooter", "fusion_lon": 0.0, "lat": 38.941946333333334}, {"rental_uris": {"android": "https://dc.lft.to/lastmile_qr_scan", "ios": "https://dc.lft.to/lastmile_qr_scan"}, "is_reserved": 0, "is_disabled": 0, "name": "4eeffa101f3e2693b61d52a50f0e1912", "bike_id": "4eeffa101f3e2693b61d52a50f0e1912", "fusion_lat": 0.0, "lon": -76.99955033333333, "type": "electric_scooter", "fusion_lon": 0.0, "lat": 38.90695566666667}, {"rental_uris": {"android": "https://dc.lft.to/lastmile_qr_scan", "ios": "https://dc.lft.to/lastmile_qr_scan"}, "is_reserved": 0, "is_disabled": 0, "name": "c21ae7bf202b28693bc253c3bccbb25e", "bike_id": "c21ae7bf202b28693bc253c3bccbb25e", "fusion_lat": 0.0, "lon": -77.00311416666666, "type": "electric_scooter", "fusion_lon": 0.0, "lat": 38.87668516666667}, {"rental_uris": {"android": "https://dc.lft.to/lastmile_qr_scan", "ios": "https://dc.lft.to/lastmile_qr_scan"}, "is_reserved": 0, "is_disabled": 0, "name": "5b196128272e70f8437a1e114d139a8b", "bike_id": "5b196128272e70f8437a1e114d139a8b", "fusion_lat": 0.0, "lon": -77.046434, "type": "electric_scooter", "fusion_lon": 0.0, "lat": 38.89224816666667}, {"rental_uris": {"android": "https://dc.lft.to/lastmile_qr_scan", "ios": "https://dc.lft.to/lastmile_qr_scan"}, "is_reserved": 0, "is_disabled": 0, "name": "f7383265b364d9bf1c8505b802e2e297", "bike_id": "f7383265b364d9bf1c8505b802e2e297", "fusion_lat": 0.0, "lon": -77.031878, "type": "electric_scooter", "fusion_lon": 0.0, "lat": 38.919305666666666}, {"rental_uris": {"android": "https://dc.lft.to/lastmile_qr_scan", "ios": "https://dc.lft.to/lastmile_qr_scan"}, "is_reserved": 0, "is_disabled": 0, "name": "9b17d2d22e1d739fe47da7c98ae218e3", "bike_id": "9b17d2d22e1d739fe47da7c98ae218e3", "fusion_lat": 0.0, "lon": -77.03708183333333, "type": "electric_scooter", "fusion_lon": 0.0, "lat": 38.92632233333333}, {"rental_uris": {"android": "https://dc.lft.to/lastmile_qr_scan", "ios": "https://dc.lft.to/lastmile_qr_scan"}, "is_reserved": 0, "is_disabled": 0, "name": "60407f53e820b7b98367f5d6c36677ac", "bike_id": "60407f53e820b7b98367f5d6c36677ac", "fusion_lat": 0.0, "lon": -77.05004466666666, "type": "electric_scooter", "fusion_lon": 0.0, "lat": 38.8923035}, {"rental_uris": {"android": "https://dc.lft.to/lastmile_qr_scan", "ios": "https://dc.lft.to/lastmile_qr_scan"}, "is_reserved": 0, "is_disabled": 0, "name": "4b4a1ff7fb01591040f8f60392ac7b7a", "bike_id": "4b4a1ff7fb01591040f8f60392ac7b7a", "fusion_lat": 0.0, "lon": -77.0526905, "type": "electric_scooter", "fusion_lon": 0.0, "lat": 38.9015045}, {"rental_uris": {"android": "https://dc.lft.to/lastmile_qr_scan", "ios": "https://dc.lft.to/lastmile_qr_scan"}, "is_reserved": 0, "is_disabled": 0, "name": "87977d6ca23a269a544f480c452f4a41", "bike_id": "87977d6ca23a269a544f480c452f4a41", "fusion_lat": 0.0, "lon": -77.02634016666667, "type": "electric_scooter", "fusion_lon": 0.0, "lat": 38.923779333333336}, {"rental_uris": {"android": "https://dc.lft.to/lastmile_qr_scan", "ios": "https://dc.lft.to/lastmile_qr_scan"}, "is_reserved": 0, "is_disabled": 0, "name": "9565e20107fda8d474669ca65f6d3bb1", "bike_id": "9565e20107fda8d474669ca65f6d3bb1", "fusion_lat": 0.0, "lon": -77.0450165, "type": "electric_scooter", "fusion_lon": 0.0, "lat": 38.91190433333333}, {"rental_uris": {"android": "https://dc.lft.to/lastmile_qr_scan", "ios": "https://dc.lft.to/lastmile_qr_scan"}, "is_reserved": 0, "is_disabled": 0, "name": "5466c208f0544788d04be67231a19b82", "bike_id": "5466c208f0544788d04be67231a19b82", "fusion_lat": 0.0, "lon": -76.9912205, "type": "electric_scooter", "fusion_lon": 0.0, "lat": 38.909027}, {"rental_uris": {"android": "https://dc.lft.to/lastmile_qr_scan", "ios": "https://dc.lft.to/lastmile_qr_scan"}, "is_reserved": 0, "is_disabled": 0, "name": "4f763a2faedbe5e0270b0940aeb6ec2e", "bike_id": "4f763a2faedbe5e0270b0940aeb6ec2e", "fusion_lat": 0.0, "lon": -77.04629266666667, "type": "electric_scooter", "fusion_lon": 0.0, "lat": 38.90472833333333}, {"rental_uris": {"android": "https://dc.lft.to/lastmile_qr_scan", "ios": "https://dc.lft.to/lastmile_qr_scan"}, "is_reserved": 0, "is_disabled": 0, "name": "06a57526ef65e81fcd588b9b9d84face", "bike_id": "06a57526ef65e81fcd588b9b9d84face", "fusion_lat": 0.0, "lon": -77.03093016666666, "type": "electric_scooter", "fusion_lon": 0.0, "lat": 38.90024316666667}, {"rental_uris": {"android": "https://dc.lft.to/lastmile_qr_scan", "ios": "https://dc.lft.to/lastmile_qr_scan"}, "is_reserved": 0, "is_disabled": 0, "name": "d656fc64c47d3cbf4a63cd329cb0627c", "bike_id": "d656fc64c47d3cbf4a63cd329cb0627c", "fusion_lat": 0.0, "lon": -77.018906, "type": "electric_scooter", "fusion_lon": 0.0, "lat": 38.9148885}, {"rental_uris": {"android": "https://dc.lft.to/lastmile_qr_scan", "ios": "https://dc.lft.to/lastmile_qr_scan"}, "is_reserved": 0, "is_disabled": 0, "name": "52ede4f4567465b220809aa3bd02aa3d", "bike_id": "52ede4f4567465b220809aa3bd02aa3d", "fusion_lat": 0.0, "lon": -77.0715215, "type": "electric_scooter", "fusion_lon": 0.0, "lat": 38.90602366666667}, {"rental_uris": {"android": "https://dc.lft.to/lastmile_qr_scan", "ios": "https://dc.lft.to/lastmile_qr_scan"}, "is_reserved": 0, "is_disabled": 0, "name": "420c5676e4c05a6ac864c1e940e01348", "bike_id": "420c5676e4c05a6ac864c1e940e01348", "fusion_lat": 0.0, "lon": -76.9466285, "type": "electric_scooter", "fusion_lon": 0.0, "lat": 38.8986725}, {"rental_uris": {"android": "https://dc.lft.to/lastmile_qr_scan", "ios": "https://dc.lft.to/lastmile_qr_scan"}, "is_reserved": 0, "is_disabled": 0, "name": "d53804119a92227b195048c268948170", "bike_id": "d53804119a92227b195048c268948170", "fusion_lat": 0.0, "lon": -77.03072116666667, "type": "electric_scooter", "fusion_lon": 0.0, "lat": 38.922486666666664}, {"rental_uris": {"android": "https://dc.lft.to/lastmile_qr_scan", "ios": "https://dc.lft.to/lastmile_qr_scan"}, "is_reserved": 0, "is_disabled": 0, "name": "993cd93bb365c71ddd18d12ee574fced", "bike_id": "993cd93bb365c71ddd18d12ee574fced", "fusion_lat": 0.0, "lon": -77.0220085, "type": "electric_scooter", "fusion_lon": 0.0, "lat": 38.9112695}, {"rental_uris": {"android": "https://dc.lft.to/lastmile_qr_scan", "ios": "https://dc.lft.to/lastmile_qr_scan"}, "is_reserved": 0, "is_disabled": 0, "name": "72ad3305da4136bec26b1fdf4ff6d7bb", "bike_id": "72ad3305da4136bec26b1fdf4ff6d7bb", "fusion_lat": 0.0, "lon": -77.005573, "type": "electric_scooter", "fusion_lon": 0.0, "lat": 38.902308}, {"rental_uris": {"android": "https://dc.lft.to/lastmile_qr_scan", "ios": "https://dc.lft.to/lastmile_qr_scan"}, "is_reserved": 0, "is_disabled": 0, "name": "ed361bdf2463307aa0ff48f97c15e1e9", "bike_id": "ed361bdf2463307aa0ff48f97c15e1e9", "fusion_lat": 0.0, "lon": -77.03188066666667, "type": "electric_scooter", "fusion_lon": 0.0, "lat": 38.9134625}, {"rental_uris": {"android": "https://dc.lft.to/lastmile_qr_scan", "ios": "https://dc.lft.to/lastmile_qr_scan"}, "is_reserved": 0, "is_disabled": 0, "name": "6b5a4cf7532f550293633824f16fc6a4", "bike_id": "6b5a4cf7532f550293633824f16fc6a4", "fusion_lat": 0.0, "lon": -77.02802666666666, "type": "electric_scooter", "fusion_lon": 0.0, "lat": 38.91757066666667}, {"rental_uris": {"android": "https://dc.lft.to/lastmile_qr_scan", "ios": "https://dc.lft.to/lastmile_qr_scan"}, "is_reserved": 0, "is_disabled": 0, "name": "6f7affe95b4180fa71382de44dce80ff", "bike_id": "6f7affe95b4180fa71382de44dce80ff", "fusion_lat": 0.0, "lon": -77.03273133333333, "type": "electric_scooter", "fusion_lon": 0.0, "lat": 38.920039}, {"rental_uris": {"android": "https://dc.lft.to/lastmile_qr_scan", "ios": "https://dc.lft.to/lastmile_qr_scan"}, "is_reserved": 0, "is_disabled": 0, "name": "5eaacd7c1d085721c250696699a64acb", "bike_id": "5eaacd7c1d085721c250696699a64acb", "fusion_lat": 0.0, "lon": -77.03588816666667, "type": "electric_scooter", "fusion_lon": 0.0, "lat": 38.90815416666667}, {"rental_uris": {"android": "https://dc.lft.to/lastmile_qr_scan", "ios": "https://dc.lft.to/lastmile_qr_scan"}, "is_reserved": 0, "is_disabled": 0, "name": "f258dd50b5ce6990ba2ee225a7730170", "bike_id": "f258dd50b5ce6990ba2ee225a7730170", "fusion_lat": 0.0, "lon": -76.98540566666667, "type": "electric_scooter", "fusion_lon": 0.0, "lat": 38.905904666666665}, {"rental_uris": {"android": "https://dc.lft.to/lastmile_qr_scan", "ios": "https://dc.lft.to/lastmile_qr_scan"}, "is_reserved": 0, "is_disabled": 0, "name": "72ad1fb070bcbe04cce89c77bc073195", "bike_id": "72ad1fb070bcbe04cce89c77bc073195", "fusion_lat": 0.0, "lon": -77.02508233333333, "type": "electric_scooter", "fusion_lon": 0.0, "lat": 38.91925666666667}, {"rental_uris": {"android": "https://dc.lft.to/lastmile_qr_scan", "ios": "https://dc.lft.to/lastmile_qr_scan"}, "is_reserved": 0, "is_disabled": 0, "name": "73d9ad91e66041cd96988f7d169dde74", "bike_id": "73d9ad91e66041cd96988f7d169dde74", "fusion_lat": 0.0, "lon": -76.97703933333334, "type": "electric_bike", "fusion_lon": 0.0, "lat": 38.822040333333334}, {"rental_uris": {"android": "https://dc.lft.to/lastmile_qr_scan", "ios": "https://dc.lft.to/lastmile_qr_scan"}, "is_reserved": 0, "is_disabled": 0, "name": "423731ac57f217514866214c084017a7", "bike_id": "423731ac57f217514866214c084017a7", "fusion_lat": 0.0, "lon": -77.02696733333333, "type": "electric_scooter", "fusion_lon": 0.0, "lat": 38.927837333333336}, {"rental_uris": {"android": "https://dc.lft.to/lastmile_qr_scan", "ios": "https://dc.lft.to/lastmile_qr_scan"}, "is_reserved": 0, "is_disabled": 0, "name": "f31c1e6045fb363e599aa06a4e87a094", "bike_id": "f31c1e6045fb363e599aa06a4e87a094", "fusion_lat": 0.0, "lon": -77.04142116666667, "type": "electric_scooter", "fusion_lon": 0.0, "lat": 38.922621166666666}, {"rental_uris": {"android": "https://dc.lft.to/lastmile_qr_scan", "ios": "https://dc.lft.to/lastmile_qr_scan"}, "is_reserved": 0, "is_disabled": 0, "name": "ba53d3a2e52b69159ca8b01a8a1a43d2", "bike_id": "ba53d3a2e52b69159ca8b01a8a1a43d2", "fusion_lat": 0.0, "lon": -77.08314033333333, "type": "electric_bike", "fusion_lon": 0.0, "lat": 38.85435866666667}, {"rental_uris": {"android": "https://dc.lft.to/lastmile_qr_scan", "ios": "https://dc.lft.to/lastmile_qr_scan"}, "is_reserved": 0, "is_disabled": 0, "name": "8f7dbb91f85df8a246e7c20dce50dd40", "bike_id": "8f7dbb91f85df8a246e7c20dce50dd40", "fusion_lat": 0.0, "lon": -77.04512883333334, "type": "electric_scooter", "fusion_lon": 0.0, "lat": 38.8922215}, {"rental_uris": {"android": "https://dc.lft.to/lastmile_qr_scan", "ios": "https://dc.lft.to/lastmile_qr_scan"}, "is_reserved": 0, "is_disabled": 0, "name": "790677ef8eb25bd83bb41bdff9f1723f", "bike_id": "790677ef8eb25bd83bb41bdff9f1723f", "fusion_lat": 0.0, "lon": -77.02408916666667, "type": "electric_scooter", "fusion_lon": 0.0, "lat": 38.91708883333333}, {"rental_uris": {"android": "https://dc.lft.to/lastmile_qr_scan", "ios": "https://dc.lft.to/lastmile_qr_scan"}, "is_reserved": 0, "is_disabled": 0, "name": "882bd1477025a538d553d218b0a81e55", "bike_id": "882bd1477025a538d553d218b0a81e55", "fusion_lat": 0.0, "lon": -76.93524933333333, "type": "electric_scooter", "fusion_lon": 0.0, "lat": 38.878970333333335}, {"rental_uris": {"android": "https://dc.lft.to/lastmile_qr_scan", "ios": "https://dc.lft.to/lastmile_qr_scan"}, "is_reserved": 0, "is_disabled": 0, "name": "0928407d682eb5ad83ba005563240668", "bike_id": "0928407d682eb5ad83ba005563240668", "fusion_lat": 0.0, "lon": -77.0280255, "type": "electric_scooter", "fusion_lon": 0.0, "lat": 38.910997}, {"rental_uris": {"android": "https://dc.lft.to/lastmile_qr_scan", "ios": "https://dc.lft.to/lastmile_qr_scan"}, "is_reserved": 0, "is_disabled": 0, "name": "05af38f2ad18b75a66ec29ed8f74cacd", "bike_id": "05af38f2ad18b75a66ec29ed8f74cacd", "fusion_lat": 0.0, "lon": -76.98357216666666, "type": "electric_scooter", "fusion_lon": 0.0, "lat": 38.88732133333333}, {"rental_uris": {"android": "https://dc.lft.to/lastmile_qr_scan", "ios": "https://dc.lft.to/lastmile_qr_scan"}, "is_reserved": 0, "is_disabled": 0, "name": "ccd62103aaa5995fcd0f7430af3defc0", "bike_id": "ccd62103aaa5995fcd0f7430af3defc0", "fusion_lat": 0.0, "lon": -77.00240366666667, "type": "electric_bike", "fusion_lon": 0.0, "lat": 38.91121966666667}, {"rental_uris": {"android": "https://dc.lft.to/lastmile_qr_scan", "ios": "https://dc.lft.to/lastmile_qr_scan"}, "is_reserved": 0, "is_disabled": 0, "name": "e2381e718e4e243a73b4da876021c1e5", "bike_id": "e2381e718e4e243a73b4da876021c1e5", "fusion_lat": 0.0, "lon": -77.0461025, "type": "electric_scooter", "fusion_lon": 0.0, "lat": 38.922261666666664}, {"rental_uris": {"android": "https://dc.lft.to/lastmile_qr_scan", "ios": "https://dc.lft.to/lastmile_qr_scan"}, "is_reserved": 0, "is_disabled": 0, "name": "5d629d2638ef9497988d3fd4fadff850", "bike_id": "5d629d2638ef9497988d3fd4fadff850", "fusion_lat": 0.0, "lon": -77.029589, "type": "electric_scooter", "fusion_lon": 0.0, "lat": 38.9067125}, {"rental_uris": {"android": "https://dc.lft.to/lastmile_qr_scan", "ios": "https://dc.lft.to/lastmile_qr_scan"}, "is_reserved": 0, "is_disabled": 0, "name": "511f66833506137f2b9f15d765c90ba2", "bike_id": "511f66833506137f2b9f15d765c90ba2", "fusion_lat": 0.0, "lon": -77.05119433333333, "type": "electric_scooter", "fusion_lon": 0.0, "lat": 38.92345066666667}, {"rental_uris": {"android": "https://dc.lft.to/lastmile_qr_scan", "ios": "https://dc.lft.to/lastmile_qr_scan"}, "is_reserved": 0, "is_disabled": 0, "name": "09aada21da2562fab8903ae788b36e34", "bike_id": "09aada21da2562fab8903ae788b36e34", "fusion_lat": 0.0, "lon": -77.03829083333333, "type": "electric_scooter", "fusion_lon": 0.0, "lat": 38.910009333333335}, {"rental_uris": {"android": "https://dc.lft.to/lastmile_qr_scan", "ios": "https://dc.lft.to/lastmile_qr_scan"},