{"data": {"bikes": [{"fusion_lat": 0.0, "fusion_lon": 0.0, "rental_uris": {"android": "https://dc.lft.to/lastmile_qr_scan", "ios": "https://dc.lft.to/lastmile_qr_scan"}, "lon": -77.02831016666667, "name": "c6cb1353e7a112b50690f70dd633277b", "is_disabled": 0, "is_reserved": 0, "bike_id": "c6cb1353e7a112b50690f70dd633277b", "lat": 38.88731166666667, "type": "electric_scooter"}, {"fusion_lat": 0.0, "fusion_lon": 0.0, "rental_uris": {"android": "https://dc.lft.to/lastmile_qr_scan", "ios": "https://dc.lft.to/lastmile_qr_scan"}, "lon": -77.03873366666667, "name": "843f9132f79038881ca3a3f504d62359", "is_disabled": 0, "is_reserved": 0, "bike_id": "843f9132f79038881ca3a3f504d62359", "lat": 38.9061115, "type": "electric_scooter"}, {"fusion_lat": 0.0, "fusion_lon": 0.0, "rental_uris": {"android": "https://dc.lft.to/lastmile_qr_scan", "ios": "https://dc.lft.to/lastmile_qr_scan"}, "lon": -77.0342905, "name": "ae3cd8de7e5d325bda65c9b4f0aa7b1e", "is_disabled": 0, "is_reserved": 0, "bike_id": "ae3cd8de7e5d325bda65c9b4f0aa7b1e", "lat": 38.966181, "type": "electric_bike"}, {"fusion_lat": 0.0, "fusion_lon": 0.0, "rental_uris": {"android": "https://dc.lft.to/lastmile_qr_scan", "ios": "https://dc.lft.to/lastmile_qr_scan"}, "lon": -77.00705483333333, "name": "71d0fb5c7bf0aaf73f113ab6e26ee92a", "is_disabled": 0, "is_reserved": 0, "bike_id": "71d0fb5c7bf0aaf73f113ab6e26ee92a", "lat": 38.9053715, "type": "electric_scooter"}, {"fusion_lat": 0.0, "fusion_lon": 0.0, "rental_uris": {"android": "https://dc.lft.to/lastmile_qr_scan", "ios": "https://dc.lft.to/lastmile_qr_scan"}, "lon": -77.00887816666666, "name": "ffdb08c27131b94ac8b372255f307c13", "is_disabled": 0, "is_reserved": 0, "bike_id": "ffdb08c27131b94ac8b372255f307c13", "lat": 38.968343, "type": "electric_scooter"}, {"fusion_lat": 0.0, "fusion_lon": 0.0, "rental_uris": {"android": "https://dc.lft.to/lastmile_qr_scan", "ios": "https://dc.lft.to/lastmile_qr_scan"}, "lon": -77.10855366666667, "name": "05085c668a76ba27b7dd41c6bc817a71", "is_disabled": 0, "is_reserved": 0, "bike_id": "05085c668a76ba27b7dd41c6bc817a71", "lat": 38.87236883333333, "type": "electric_bike"}, {"fusion_lat": 0.0, "fusion_lon": 0.0, "rental_uris": {"android": "https://dc.lft.to/lastmile_qr_scan", "ios": "https://dc.lft.to/lastmile_qr_scan"}, "lon": -77.05105416666666, "name": "3f63df7f9fc5d0fc07b892979b0144a0", "is_disabled": 0, "is_reserved": 0, "bike_id": "3f63df7f9fc5d0fc07b892979b0144a0", "lat": 38.9236385, "type": "electric_scooter"}, {"fusion_lat": 0.0, "fusion_lon": 0.0, "rental_uris": {"android": "https://dc.lft.to/lastmile_qr_scan", "ios": "https://dc.lft.to/lastmile_qr_scan"}, "lon": -77.02792666666667, "name": "af2992a12198da69508eff66640f0b5e", "is_disabled": 0, "is_reserved": 0, "bike_id": "af2992a12198da69508eff66640f0b5e", "lat": 38.96048866666667, "type": "electric_scooter"}, {"fusion_lat": 0.0, "fusion_lon": 0.0, "rental_uris": {"android": "https://dc.lft.to/lastmile_qr_scan", "ios": "https://dc.lft.to/lastmile_qr_scan"}, "lon": -77.032451, "name": "0ffe6be73be1a98baed78bb4d70d7fa0", "is_disabled": 0, "is_reserved": 0, "bike_id": "0ffe6be73be1a98baed78bb4d70d7fa0", "lat": 38.90552783333333, "type": "electric_scooter"}, {"fusion_lat": 0.0, "fusion_lon": 0.0, "rental_uris": {"android": "https://dc.lft.to/lastmile_qr_scan", "ios": "https://dc.lft.to/lastmile_qr_scan"}, "lon": -77.02204683333333, "name": "bffbf91fa11ab75351fb646e21cf2894", "is_disabled": 0, "is_reserved": 0, "bike_id": "bffbf91fa11ab75351fb646e21cf2894", "lat": 38.8959, "type": "electric_scooter"}, {"fusion_lat": 0.0, "fusion_lon": 0.0, "rental_uris": {"android": "https://dc.lft.to/lastmile_qr_scan", "ios": "https://dc.lft.to/lastmile_qr_scan"}, "lon": -77.0360255, "name": "532ee7d2f1472865c1fa1816efd2f2fa", "is_disabled": 0, "is_reserved": 0, "bike_id": "532ee7d2f1472865c1fa1816efd2f2fa", "lat": 38.90370383333333, "type": "electric_scooter"}, {"fusion_lat": 0.0, "fusion_lon": 0.0, "rental_uris": {"android": "https://dc.lft.to/lastmile_qr_scan", "ios": "https://dc.lft.to/lastmile_qr_scan"}, "lon": -77.032626, "name": "f41ca1fcbf103ccba32bc7d7e4282a47", "is_disabled": 0, "is_reserved": 0, "bike_id": "f41ca1fcbf103ccba32bc7d7e4282a47", "lat": 38.9377505, "type": "electric_scooter"}, {"fusion_lat": 0.0, "fusion_lon": 0.0, "rental_uris": {"android": "https://dc.lft.to/lastmile_qr_scan", "ios": "https://dc.lft.to/lastmile_qr_scan"}, "lon": -77.033618, "name": "3311730009b10eeacddf2cf58799f11a", "is_disabled": 0, "is_reserved": 0, "bike_id": "3311730009b10eeacddf2cf58799f11a", "lat": 38.886911166666664, "type": "electric_scooter"}, {"fusion_lat": 0.0, "fusion_lon": 0.0, "rental_uris": {"android": "https://dc.lft.to/lastmile_qr_scan", "ios": "https://dc.lft.to/lastmile_qr_scan"}, "lon": -77.03366266666667, "name": "356b6307de2922a710a432d27bb14856", "is_disabled": 0, "is_reserved": 0, "bike_id": "356b6307de2922a710a432d27bb14856", "lat": 38.923507666666666, "type": "electric_scooter"}, {"fusion_lat": 0.0, "fusion_lon": 0.0, "rental_uris": {"android": "https://dc.lft.to/lastmile_qr_scan", "ios": "https://dc.lft.to/lastmile_qr_scan"}, "lon": -77.02230683333333, "name": "cff2ae0acea700990b122730bc8ac604", "is_disabled": 0, "is_reserved": 0, "bike_id": "cff2ae0acea700990b122730bc8ac604", "lat": 38.887663333333336, "type": "electric_scooter"}, {"fusion_lat": 0.0, "fusion_lon": 0.0, "rental_uris": {"android": "https://dc.lft.to/lastmile_qr_scan", "ios": "https://dc.lft.to/lastmile_qr_scan"}, "lon": -77.04160183333333, "name": "dfd5d4faa4e967fbf4572ce225ee3744", "is_disabled": 0, "is_reserved": 0, "bike_id": "dfd5d4faa4e967fbf4572ce225ee3744", "lat": 38.903758333333336, "type": "electric_scooter"}, {"fusion_lat": 0.0, "fusion_lon": 0.0, "rental_uris": {"android": "https://dc.lft.to/lastmile_qr_scan", "ios": "https://dc.lft.to/lastmile_qr_scan"}, "lon": -77.033196, "name": "72b0dbd5faaec223dc44ab9d71790fa0", "is_disabled": 0, "is_reserved": 0, "bike_id": "72b0dbd5faaec223dc44ab9d71790fa0", "lat": 38.921582666666666, "type": "electric_scooter"}, {"fusion_lat": 0.0, "fusion_lon": 0.0, "rental_uris": {"android": "https://dc.lft.to/lastmile_qr_scan", "ios": "https://dc.lft.to/lastmile_qr_scan"}, "lon": -77.02227133333334, "name": "9253fbba94c81bd04cceb63d8fdc89d8", "is_disabled": 0, "is_reserved": 0, "bike_id": "9253fbba94c81bd04cceb63d8fdc89d8", "lat": 38.892172, "type": "electric_scooter"}, {"fusion_lat": 0.0, "fusion_lon": 0.0, "rental_uris": {"android": "https://dc.lft.to/lastmile_qr_scan", "ios": "https://dc.lft.to/lastmile_qr_scan"}, "lon": -77.03405916666667, "name": "0e26fd4cc5e4780dcbb139145e77fd6d", "is_disabled": 0, "is_reserved": 0, "bike_id": "0e26fd4cc5e4780dcbb139145e77fd6d", "lat": 38.92439366666667, "type": "electric_scooter"}, {"fusion_lat": 0.0, "fusion_lon": 0.0, "rental_uris": {"android": "https://dc.lft.to/lastmile_qr_scan", "ios": "https://dc.lft.to/lastmile_qr_scan"}, "lon": -76.99658733333334, "name": "f036c59893a88021314dad750fceaef3", "is_disabled": 0, "is_reserved": 0, "bike_id": "f036c59893a88021314dad750fceaef3", "lat": 38.86004783333333, "type": "electric_scooter"}, {"fusion_lat": 0.0, "fusion_lon": 0.0, "rental_uris": {"android": "https://dc.lft.to/lastmile_qr_scan", "ios": "https://dc.lft.to/lastmile_qr_scan"}, "lon": -76.98587483333333, "name": "77f874db7cb23b1aeecf40056500029b", "is_disabled": 0, "is_reserved": 0, "bike_id": "77f874db7cb23b1aeecf40056500029b", "lat": 38.88389333333333, "type": "electric_scooter"}, {"fusion_lat": 0.0, "fusion_lon": 0.0, "rental_uris": {"android": "https://dc.lft.to/lastmile_qr_scan", "ios": "https://dc.lft.to/lastmile_qr_scan"}, "lon": -76.93556833333334, "name": "0f79385c741623af48b0e0ed18a60fdf", "is_disabled": 0, "is_reserved": 0, "bike_id": "0f79385c741623af48b0e0ed18a60fdf", "lat": 38.88257333333333, "type": "electric_scooter"}, {"fusion_lat": 0.0, "fusion_lon": 0.0, "rental_uris": {"android": "https://dc.lft.to/lastmile_qr_scan", "ios": "https://dc.lft.to/lastmile_qr_scan"}, "lon": -77.0362385, "name": "eefc525e44b04c018f635b1752775e13", "is_disabled": 0, "is_reserved": 0, "bike_id": "eefc525e44b04c018f635b1752775e13", "lat": 38.901261833333336, "type": "electric_scooter"}, {"fusion_lat": 0.0, "fusion_lon": 0.0, "rental_uris": {"android": "https://dc.lft.to/lastmile_qr_scan", "ios": "https://dc.lft.to/lastmile_qr_scan"}, "lon": -77.0366865, "name": "10a18e3e526aba232b58c247b7d41617", "is_disabled": 0, "is_reserved": 0, "bike_id": "10a18e3e526aba232b58c247b7d41617", "lat": 38.9083195, "type": "electric_scooter"}, {"fusion_lat": 0.0, "fusion_lon": 0.0, "rental_uris": {"android": "https://dc.lft.to/lastmile_qr_scan", "ios": "https://dc.lft.to/lastmile_qr_scan"}, "lon": -77.00457266666666, "name": "09f3cb77a71d02fc88a55f042b2b2927", "is_disabled": 0, "is_reserved": 0, "bike_id": "09f3cb77a71d02fc88a55f042b2b2927", "lat": 38.87646733333333, "type": "electric_scooter"}, {"fusion_lat": 0.0, "fusion_lon": 0.0, "rental_uris": {"android": "https://dc.lft.to/lastmile_qr_scan", "ios": "https://dc.lft.to/lastmile_qr_scan"}, "lon": -77.00213966666666, "name": "c460240a8dacac7e1b45a4e621be9535", "is_disabled": 0, "is_reserved": 0, "bike_id": "c460240a8dacac7e1b45a4e621be9535", "lat": 38.895153666666666, "type": "electric_scooter"}, {"fusion_lat": 0.0, "fusion_lon": 0.0, "rental_uris": {"android": "https://dc.lft.to/lastmile_qr_scan", "ios": "https://dc.lft.to/lastmile_qr_scan"}, "lon": -77.02488133333334, "name": "5d5fd6b872067232b5f5ffb1d829c69b", "is_disabled": 0, "is_reserved": 0, "bike_id": "5d5fd6b872067232b5f5ffb1d829c69b", "lat": 38.941802833333334, "type": "electric_scooter"}, {"fusion_lat": 0.0, "fusion_lon": 0.0, "rental_uris": {"android": "https://dc.lft.to/lastmile_qr_scan", "ios": "https://dc.lft.to/lastmile_qr_scan"}, "lon": -77.07275883333334, "name": "57bbac6dd649b196f1214c635352ee75", "is_disabled": 0, "is_reserved": 0, "bike_id": "57bbac6dd649b196f1214c635352ee75", "lat": 38.934683166666666, "type": "electric_scooter"}, {"fusion_lat": 0.0, "fusion_lon": 0.0, "rental_uris": {"android": "https://dc.lft.to/lastmile_qr_scan", "ios": "https://dc.lft.to/lastmile_qr_scan"}, "lon": -77.01711083333333, "name": "c278c796f6c5b177183d0c6376fa4e75", "is_disabled": 0, "is_reserved": 0, "bike_id": "c278c796f6c5b177183d0c6376fa4e75", "lat": 38.902624833333334, "type": "electric_scooter"}, {"fusion_lat": 0.0, "fusion_lon": 0.0, "rental_uris": {"android": "https://dc.lft.to/lastmile_qr_scan", "ios": "https://dc.lft.to/lastmile_qr_scan"}, "lon": -77.05106433333333, "name": "d3415b93805f97e9109c798fa52039e4", "is_disabled": 0, "is_reserved": 0, "bike_id": "d3415b93805f97e9109c798fa52039e4", "lat": 38.92361833333333, "type": "electric_scooter"}, {"fusion_lat": 0.0, "fusion_lon": 0.0, "rental_uris": {"android": "https://dc.lft.to/lastmile_qr_scan", "ios": "https://dc.lft.to/lastmile_qr_scan"}, "lon": -76.99493116666666, "name": "8778937b737a8309db1e7d63484b1efe", "is_disabled": 0, "is_reserved": 0, "bike_id": "8778937b737a8309db1e7d63484b1efe", "lat": 38.86240566666667, "type": "electric_scooter"}, {"fusion_lat": 0.0, "fusion_lon": 0.0, "rental_uris": {"android": "https://dc.lft.to/lastmile_qr_scan", "ios": "https://dc.lft.to/lastmile_qr_scan"}, "lon": -77.02607016666667, "name": "bab1a9ee9f02047cd284a1b982e1ddec", "is_disabled": 0, "is_reserved": 0, "bike_id": "bab1a9ee9f02047cd284a1b982e1ddec", "lat": 38.92846333333333, "type": "electric_scooter"}, {"fusion_lat": 0.0, "fusion_lon": 0.0, "rental_uris": {"android": "https://dc.lft.to/lastmile_qr_scan", "ios": "https://dc.lft.to/lastmile_qr_scan"}, "lon": -77.0228345, "name": "070a762841c9cb35adbfdf35c5d0c319", "is_disabled": 0, "is_reserved": 0, "bike_id": "070a762841c9cb35adbfdf35c5d0c319", "lat": 38.908635333333336, "type": "electric_scooter"}, {"fusion_lat": 0.0, "fusion_lon": 0.0, "rental_uris": {"android": "https://dc.lft.to/lastmile_qr_scan", "ios": "https://dc.lft.to/lastmile_qr_scan"}, "lon": -76.93339016666667, "name": "780c778ed7732e1dc7869c65d5732e02", "is_disabled": 0, "is_reserved": 0, "bike_id": "780c778ed7732e1dc7869c65d5732e02", "lat": 38.90867516666667, "type": "electric_scooter"}, {"fusion_lat": 0.0, "fusion_lon": 0.0, "rental_uris": {"android": "https://dc.lft.to/lastmile_qr_scan", "ios": "https://dc.lft.to/lastmile_qr_scan"}, "lon": -77.007352, "name": "08783546534cccc74a4c18112ceb1bda", "is_disabled": 0, "is_reserved": 0, "bike_id": "08783546534cccc74a4c18112ceb1bda", "lat": 38.898423, "type": "electric_scooter"}, {"fusion_lat": 0.0, "fusion_lon": 0.0, "rental_uris": {"android": "https://dc.lft.to/lastmile_qr_scan", "ios": "https://dc.lft.to/lastmile_qr_scan"}, "lon": -77.0008355, "name": "86ded463f973b32c30b6918e1a5412a1", "is_disabled": 0, "is_reserved": 0, "bike_id": "86ded463f973b32c30b6918e1a5412a1", "lat": 38.875504666666664, "type": "electric_scooter"}, {"fusion_lat": 0.0, "fusion_lon": 0.0, "rental_uris": {"android": "https://dc.lft.to/lastmile_qr_scan", "ios": "https://dc.lft.to/lastmile_qr_scan"}, "lon": -76.954141, "name": "d5615cc9ad57d5fe5d1d2e6603c6a680", "is_disabled": 0, "is_reserved": 0, "bike_id": "d5615cc9ad57d5fe5d1d2e6603c6a680", "lat": 38.8900005, "type": "electric_scooter"}, {"fusion_lat": 0.0, "fusion_lon": 0.0, "rental_uris": {"android": "https://dc.lft.to/lastmile_qr_scan", "ios": "https://dc.lft.to/lastmile_qr_scan"}, "lon": -77.048314, "name": "54906ca3d05decdb1b101425bf8f7f5e", "is_disabled": 0, "is_reserved": 0, "bike_id": "54906ca3d05decdb1b101425bf8f7f5e", "lat": 38.91848, "type": "electric_scooter"}, {"fusion_lat": 0.0, "fusion_lon": 0.0, "rental_uris": {"android": "https://dc.lft.to/lastmile_qr_scan", "ios": "https://dc.lft.to/lastmile_qr_scan"}, "lon": -77.0228335, "name": "19d2cc18325e705dd9d7a6d41001b34b", "is_disabled": 0, "is_reserved": 0, "bike_id": "19d2cc18325e705dd9d7a6d41001b34b", "lat": 38.92518533333333, "type": "electric_scooter"}, {"fusion_lat": 0.0, "fusion_lon": 0.0, "rental_uris": {"android": "https://dc.lft.to/lastmile_qr_scan", "ios": "https://dc.lft.to/lastmile_qr_scan"}, "lon": -77.0421175, "name": "88fd797b1e72a01bcd1f6e187399bb69", "is_disabled": 0, "is_reserved": 0, "bike_id": "88fd797b1e72a01bcd1f6e187399bb69", "lat": 38.92305916666667, "type": "electric_scooter"}, {"fusion_lat": 0.0, "fusion_lon": 0.0, "rental_uris": {"android": "https://dc.lft.to/lastmile_qr_scan", "ios": "https://dc.lft.to/lastmile_qr_scan"}, "lon": -77.046783, "name": "b84ccb78710fd961a320c81f29423814", "is_disabled": 0, "is_reserved": 0, "bike_id": "b84ccb78710fd961a320c81f29423814", "lat": 38.8956015, "type": "electric_scooter"}, {"fusion_lat": 0.0, "fusion_lon": 0.0, "rental_uris": {"android": "https://dc.lft.to/lastmile_qr_scan", "ios": "https://dc.lft.to/lastmile_qr_scan"}, "lon": -76.96375633333334, "name": "339e5bd437c74759b66860bb49045035", "is_disabled": 0, "is_reserved": 0, "bike_id": "339e5bd437c74759b66860bb49045035", "lat": 38.94894516666667, "type": "electric_bike"}, {"fusion_lat": 0.0, "fusion_lon": 0.0, "rental_uris": {"android": "https://dc.lft.to/lastmile_qr_scan", "ios": "https://dc.lft.to/lastmile_qr_scan"}, "lon": -77.03198683333333, "name": "ac639d499991bd008ec4c256b3f289ac", "is_disabled": 0, "is_reserved": 0, "bike_id": "ac639d499991bd008ec4c256b3f289ac", "lat": 38.913272666666664, "type": "electric_scooter"}, {"fusion_lat": 0.0, "fusion_lon": 0.0, "rental_uris": {"android": "https://dc.lft.to/lastmile_qr_scan", "ios": "https://dc.lft.to/lastmile_qr_scan"}, "lon": -77.04448766666667, "name": "d51fbf5faeec852359a590ca67e19b69", "is_disabled": 0, "is_reserved": 0, "bike_id": "d51fbf5faeec852359a590ca67e19b69", "lat": 38.89616383333333, "type": "electric_scooter"}, {"fusion_lat": 0.0, "fusion_lon": 0.0, "rental_uris": {"android": "https://dc.lft.to/lastmile_qr_scan", "ios": "https://dc.lft.to/lastmile_qr_scan"}, "lon": -77.033042, "name": "1e199481ccd862cbe78aff0498589b41", "is_disabled": 0, "is_reserved": 0, "bike_id": "1e199481ccd862cbe78aff0498589b41", "lat": 38.92459983333333, "type": "electric_scooter"}, {"fusion_lat": 0.0, "fusion_lon": 0.0, "rental_uris": {"android": "https://dc.lft.to/lastmile_qr_scan", "ios": "https://dc.lft.to/lastmile_qr_scan"}, "lon": -77.037994, "name": "b3d696210f23e18f3c8ebc4a640b1a1a", "is_disabled": 0, "is_reserved": 0, "bike_id": "b3d696210f23e18f3c8ebc4a640b1a1a", "lat": 38.99676133333333, "type": "electric_bike"}, {"fusion_lat": 0.0, "fusion_lon": 0.0, "rental_uris": {"android": "https://dc.lft.to/lastmile_qr_scan", "ios": "https://dc.lft.to/lastmile_qr_scan"}, "lon": -77.02826583333334, "name": "fa7458b60d2ffd039880990294824e76", "is_disabled": 0, "is_reserved": 0, "bike_id": "fa7458b60d2ffd039880990294824e76", "lat": 38.9222895, "type": "electric_scooter"}, {"fusion_lat": 0.0, "fusion_lon": 0.0, "rental_uris": {"android": "https://dc.lft.to/lastmile_qr_scan", "ios": "https://dc.lft.to/lastmile_qr_scan"}, "lon": -77.04160733333333, "name": "22e2f52923f1d5a316ccbcc258bdf64a", "is_disabled": 0, "is_reserved": 0, "bike_id": "22e2f52923f1d5a316ccbcc258bdf64a", "lat": 38.90120816666666, "type": "electric_scooter"}, {"fusion_lat": 0.0, "fusion_lon": 0.0, "rental_uris": {"android": "https://dc.lft.to/lastmile_qr_scan", "ios": "https://dc.lft.to/lastmile_qr_scan"}, "lon": -77.05025366666666, "name": "a8d37e1b0e92e41e95d8354c178baba9", "is_disabled": 0, "is_reserved": 0, "bike_id": "a8d37e1b0e92e41e95d8354c178baba9", "lat": 38.896524666666664, "type": "electric_scooter"}, {"fusion_lat": 0.0, "fusion_lon": 0.0, "rental_uris": {"android": "https://dc.lft.to/lastmile_qr_scan", "ios": "https://dc.lft.to/lastmile_qr_scan"}, "lon": -77.02711416666666, "name": "4a9bcd39e757318331d21a47e7e0fb96", "is_disabled": 0, "is_reserved": 0, "bike_id": "4a9bcd39e757318331d21a47e7e0fb96", "lat": 38.906696333333336, "type": "electric_scooter"}, {"fusion_lat": 0.0, "fusion_lon": 0.0, "rental_uris": {"android": "https://dc.lft.to/lastmile_qr_scan", "ios": "https://dc.lft.to/lastmile_qr_scan"}, "lon": -77.03195216666667, "name": "3dc6685ab8f9131b0aace4c3ee1cecd2", "is_disabled": 0, "is_reserved": 0, "bike_id": "3dc6685ab8f9131b0aace4c3ee1cecd2", "lat": 38.90221, "type": "electric_scooter"}, {"fusion_lat": 0.0, "fusion_lon": 0.0, "rental_uris": {"android": "https://dc.lft.to/lastmile_qr_scan", "ios": "https://dc.lft.to/lastmile_qr_scan"}, "lon": -77.03364966666666, "name": "a57bd7e5cb1d3c26334f5d9838caa569", "is_disabled": 0, "is_reserved": 0, "bike_id": "a57bd7e5cb1d3c26334f5d9838caa569", "lat": 38.91724983333334, "type": "electric_scooter"}, {"fusion_lat": 0.0, "fusion_lon": 0.0, "rental_uris": {"android": "https://dc.lft.to/lastmile_qr_scan", "ios": "https://dc.lft.to/lastmile_qr_scan"}, "lon": -77.026995, "name": "acacfcba8e588ab4c50076804aecf29d", "is_disabled": 0, "is_reserved": 0, "bike_id": "acacfcba8e588ab4c50076804aecf29d", "lat": 38.925837666666666, "type": "electric_scooter"}, {"fusion_lat": 0.0, "fusion_lon": 0.0, "rental_uris": {"android": "https://dc.lft.to/lastmile_qr_scan", "ios": "https://dc.lft.to/lastmile_qr_scan"}, "lon": -77.02354616666666, "name": "e5802a9b97f8d8067af66364babc15ce", "is_disabled": 0, "is_reserved": 0, "bike_id": "e5802a9b97f8d8067af66364babc15ce", "lat": 38.930479, "type": "electric_scooter"}, {"fusion_lat": 0.0, "fusion_lon": 0.0, "rental_uris": {"android": "https://dc.lft.to/lastmile_qr_scan", "ios": "https://dc.lft.to/lastmile_qr_scan"}, "lon": -77.04484483333333, "name": "db55a39efc384bcfe41e04d69137bd92", "is_disabled": 0, "is_reserved": 0, "bike_id": "db55a39efc384bcfe41e04d69137bd92", "lat": 38.908782, "type": "electric_scooter"}, {"fusion_lat": 0.0, "fusion_lon": 0.0, "rental_uris": {"android": "https://dc.lft.to/lastmile_qr_scan", "ios": "https://dc.lft.to/lastmile_qr_scan"}, "lon": -77.02122933333334, "name": "17484107f21347d0bcf211aa839f90c4", "is_disabled": 0, "is_reserved": 0, "bike_id": "17484107f21347d0bcf211aa839f90c4", "lat": 38.922712833333335, "type": "electric_scooter"}, {"fusion_lat": 0.0, "fusion_lon": 0.0, "rental_uris": {"android": "https://dc.lft.to/lastmile_qr_scan", "ios": "https://dc.lft.to/lastmile_qr_scan"}, "lon": -77.02415466666666, "name": "0001c4fc6fa08a6005eda95df647f110", "is_disabled": 0, "is_reserved": 0, "bike_id": "0001c4fc6fa08a6005eda95df647f110", "lat": 38.896926, "type": "electric_scooter"}, {"fusion_lat": 0.0, "fusion_lon": 0.0, "rental_uris": {"android": "https://dc.lft.to/lastmile_qr_scan", "ios": "https://dc.lft.to/lastmile_qr_scan"}, "lon": -77.01194733333334, "name": "71774d13412870674a5a6aedb5be9f6e", "is_disabled": 0, "is_reserved": 0, "bike_id": "71774d13412870674a5a6aedb5be9f6e", "lat": 38.900101166666666, "type": "electric_scooter"}, {"fusion_lat": 0.0, "fusion_lon": 0.0, "rental_uris": {"android": "https://dc.lft.to/lastmile_qr_scan", "ios": "https://dc.lft.to/lastmile_qr_scan"}, "lon": -76.952827, "name": "fa1946a83a096e1f0599d37d7c4edcf0", "is_disabled": 0, "is_reserved": 0, "bike_id": "fa1946a83a096e1f0599d37d7c4edcf0", "lat": 38.86235116666667, "type": "electric_bike"}, {"fusion_lat": 0.0, "fusion_lon": 0.0, "rental_uris": {"android": "https://dc.lft.to/lastmile_qr_scan", "ios": "https://dc.lft.to/lastmile_qr_scan"}, "lon": -77.04146633333333, "name": "b7a03d77ebefd07f3b17603adf480bf9", "is_disabled": 0, "is_reserved": 0, "bike_id": "b7a03d77ebefd07f3b17603adf480bf9", "lat": 38.90518316666667, "type": "electric_scooter"}, {"fusion_lat": 0.0, "fusion_lon": 0.0, "rental_uris": {"android": "https://dc.lft.to/lastmile_qr_scan", "ios": "https://dc.lft.to/lastmile_qr_scan"}, "lon": -77.1874505, "name": "93b70235907d7a0a01bc1de999bb5e61", "is_disabled": 0, "is_reserved": 0, "bike_id": "93b70235907d7a0a01bc1de999bb5e61", "lat": 38.89352983333333, "type": "electric_bike"}, {"fusion_lat": 0.0, "fusion_lon": 0.0, "rental_uris": {"android": "https://dc.lft.to/lastmile_qr_scan", "ios": "https://dc.lft.to/lastmile_qr_scan"}, "lon": -77.060275, "name": "05b94cd63db37be9b617271a8fa23dd8", "is_disabled": 0, "is_reserved": 0, "bike_id": "05b94cd63db37be9b617271a8fa23dd8", "lat": 38.939108, "type": "electric_scooter"}, {"fusion_lat": 0.0, "fusion_lon": 0.0, "rental_uris": {"android": "https://dc.lft.to/lastmile_qr_scan", "ios": "https://dc.lft.to/lastmile_qr_scan"}, "lon": -77.00500116666667, "name": "eb2cf96fff927ac0c771b5cbd3ffb89a", "is_disabled": 0, "is_reserved": 0, "bike_id": "eb2cf96fff927ac0c771b5cbd3ffb89a", "lat": 38.905669333333336, "type": "electric_scooter"}, {"fusion_lat": 0.0, "fusion_lon": 0.0, "rental_uris": {"android": "https://dc.lft.to/lastmile_qr_scan", "ios": "https://dc.lft.to/lastmile_qr_scan"}, "lon": -77.03955116666667, "name": "5d7216a528890b1bd2250f0b82205dfe", "is_disabled": 0, "is_reserved": 0, "bike_id": "5d7216a528890b1bd2250f0b82205dfe", "lat": 38.8962205, "type": "electric_scooter"}, {"fusion_lat": 0.0, "fusion_lon": 0.0, "rental_uris": {"android": "https://dc.lft.to/lastmile_qr_scan", "ios": "https://dc.lft.to/lastmile_qr_scan"}, "lon": -77.04535883333334, "name": "bf246884c96f105b5c40a80d27c1e1b4", "is_disabled": 0, "is_reserved": 0, "bike_id": "bf246884c96f105b5c40a80d27c1e1b4", "lat": 38.90368466666666, "type": "electric_scooter"}, {"fusion_lat": 0.0, "fusion_lon": 0.0, "rental_uris": {"android": "https://dc.lft.to/lastmile_qr_scan", "ios": "https://dc.lft.to/lastmile_qr_scan"}, "lon": -77.03324566666667, "name": "6ab302e1bcaad242f7d5456e0e061a94", "is_disabled": 0, "is_reserved": 0, "bike_id": "6ab302e1bcaad242f7d5456e0e061a94", "lat": 38.913201, "type": "electric_scooter"}, {"fusion_lat": 0.0, "fusion_lon": 0.0, "rental_uris": {"android": "https://dc.lft.to/lastmile_qr_scan", "ios": "https://dc.lft.to/lastmile_qr_scan"}, "lon": -77.002981, "name": "e5697bdfbd120cb800071fc6bb96e9ee", "is_disabled": 0, "is_reserved": 0, "bike_id": "e5697bdfbd120cb800071fc6bb96e9ee", "lat": 38.833725, "type": "electric_bike"}, {"fusion_lat": 0.0, "fusion_lon": 0.0, "rental_uris": {"android": "https://dc.lft.to/lastmile_qr_scan", "ios": "https://dc.lft.to/lastmile_qr_scan"}, "lon": -77.043003, "name": "4ba68edb647e96a9e09f107e08319f32", "is_disabled": 0, "is_reserved": 0, "bike_id": "4ba68edb647e96a9e09f107e08319f32", "lat": 38.907303, "type": "electric_scooter"}, {"fusion_lat": 0.0, "fusion_lon": 0.0, "rental_uris": {"android": "https://dc.lft.to/lastmile_qr_scan", "ios": "https://dc.lft.to/lastmile_qr_scan"}, "lon": -77.027135, "name": "7e0f6e26bd8c8092814927f590c1ad7e", "is_disabled": 0, "is_reserved": 0, "bike_id": "7e0f6e26bd8c8092814927f590c1ad7e", "lat": 38.90668733333333, "type": "electric_scooter"}, {"fusion_lat": 0.0, "fusion_lon": 0.0, "rental_uris": {"android": "https://dc.lft.to/lastmile_qr_scan", "ios": "https://dc.lft.to/lastmile_qr_scan"}, "lon": -76.9901265, "name": "4e88f1d0cce83df5a712dbf2e7525c82", "is_disabled": 0, "is_reserved": 0, "bike_id": "4e88f1d0cce83df5a712dbf2e7525c82", "lat": 38.865075166666664, "type": "electric_scooter"}, {"fusion_lat": 0.0, "fusion_lon": 0.0, "rental_uris": {"android": "https://dc.lft.to/lastmile_qr_scan", "ios": "https://dc.lft.to/lastmile_qr_scan"}, "lon": -77.01950266666667, "name": "9fa79907fd86199e06bf0ed1006622b4", "is_disabled": 0, "is_reserved": 0, "bike_id": "9fa79907fd86199e06bf0ed1006622b4", "lat": 38.922477666666666, "type": "electric_scooter"}, {"fusion_lat": 0.0, "fusion_lon": 0.0, "rental_uris": {"android": "https://dc.lft.to/lastmile_qr_scan", "ios": "https://dc.lft.to/lastmile_qr_scan"}, "lon": -77.01998516666667, "name": "d048b63956bf895f25480fec2015f4c6", "is_disabled": 0, "is_reserved": 0, "bike_id": "d048b63956bf895f25480fec2015f4c6", "lat": 38.913623333333334, "type": "electric_scooter"}, {"fusion_lat": 0.0, "fusion_lon": 0.0, "rental_uris": {"android": "https://dc.lft.to/lastmile_qr_scan", "ios": "https://dc.lft.to/lastmile_qr_scan"}, "lon": -77.05253183333333, "name": "07d3e760f31e5aea1d416b9c2f1e1e8e", "is_disabled": 0, "is_reserved": 0, "bike_id": "07d3e760f31e5aea1d416b9c2f1e1e8e", "lat": 38.92778966666667, "type": "electric_scooter"}, {"fusion_lat": 0.0, "fusion_lon": 0.0, "rental_uris": {"android": "https://dc.lft.to/lastmile_qr_scan", "ios": "https://dc.lft.to/lastmile_qr_scan"}, "lon": -77.032295, "name": "bb59ffe20d332f38c78d292ac3d18a2d", "is_disabled": 0, "is_reserved": 0, "bike_id": "bb59ffe20d332f38c78d292ac3d18a2d", "lat": 38.9259185, "type": "electric_scooter"}, {"fusion_lat": 0.0, "fusion_lon": 0.0, "rental_uris": {"android": "https://dc.lft.to/lastmile_qr_scan", "ios": "https://dc.lft.to/lastmile_qr_scan"}, "lon": -77.0032675, "name": "cd32f7133dbfafaa5acbdb13f7ed3c63", "is_disabled": 0, "is_reserved": 0, "bike_id": "cd32f7133dbfafaa5acbdb13f7ed3c63", "lat": 38.877269166666665, "type": "electric_scooter"}, {"fusion_lat": 0.0, "fusion_lon": 0.0, "rental_uris": {"android": "https://dc.lft.to/lastmile_qr_scan", "ios": "https://dc.lft.to/lastmile_qr_scan"}, "lon": -77.00352, "name": "09f75f665b10c0fbac340dc27f71f12a", "is_disabled": 0, "is_reserved": 0, "bike_id": "09f75f665b10c0fbac340dc27f71f12a", "lat": 38.897088333333336, "type": "electric_bike"}, {"fusion_lat": 0.0, "fusion_lon": 0.0, "rental_uris": {"android": "https://dc.lft.to/lastmile_qr_scan", "ios": "https://dc.lft.to/lastmile_qr_scan"}, "lon": -77.02792716666667, "name": "6e97b7d40031c825e8c0a9ef26b1a790", "is_disabled": 0, "is_reserved": 0, "bike_id": "6e97b7d40031c825e8c0a9ef26b1a790", "lat": 38.8971195, "type": "electric_scooter"}, {"fusion_lat": 0.0, "fusion_lon": 0.0, "rental_uris": {"android": "https://dc.lft.to/lastmile_qr_scan", "ios": "https://dc.lft.to/lastmile_qr_scan"}, "lon": -77.03424566666666, "name": "4dcddf28f7aa91951587ee9d4644a0a5", "is_disabled": 0, "is_reserved": 0, "bike_id": "4dcddf28f7aa91951587ee9d4644a0a5", "lat": 38.9030005, "type": "electric_scooter"}, {"fusion_lat": 0.0, "fusion_lon": 0.0, "rental_uris": {"android": "https://dc.lft.to/lastmile_qr_scan", "ios": "https://dc.lft.to/lastmile_qr_scan"}, "lon": -77.02290766666667, "name": "325903a8e8152336ae3fd0f26d6b026c", "is_disabled": 0, "is_reserved": 0, "bike_id": "325903a8e8152336ae3fd0f26d6b026c", "lat": 38.92819166666666, "type": "electric_scooter"}, {"fusion_lat": 0.0, "fusion_lon": 0.0, "rental_uris": {"android": "https://dc.lft.to/lastmile_qr_scan", "ios": "https://dc.lft.to/lastmile_qr_scan"}, "lon": -77.0004105, "name": "749986ef3bc05ab6bb9d68a1fc3f7f94", "is_disabled": 0, "is_reserved": 0, "bike_id": "749986ef3bc05ab6bb9d68a1fc3f7f94", "lat": 38.8742985, "type": "electric_scooter"}, {"fusion_lat": 0.0, "fusion_lon": 0.0, "rental_uris": {"android": "https://dc.lft.to/lastmile_qr_scan", "ios": "https://dc.lft.to/lastmile_qr_scan"}, "lon": -77.003, "name": "013090b54fa84e694596ab17b40cca06", "is_disabled": 0, "is_reserved": 0, "bike_id": "013090b54fa84e694596ab17b40cca06", "lat": 38.89492716666667, "type": "electric_scooter"}, {"fusion_lat": 0.0, "fusion_lon": 0.0, "rental_uris": {"android": "https://dc.lft.to/lastmile_qr_scan", "ios": "https://dc.lft.to/lastmile_qr_scan"}, "lon": -77.00923733333333, "name": "e7c2d64dc6f5bce0aadacef525373631", "is_disabled": 0, "is_reserved": 0, "bike_id": "e7c2d64dc6f5bce0aadacef525373631", "lat": 38.89891266666667, "type": "electric_scooter"}, {"fusion_lat": 0.0, "fusion_lon": 0.0, "rental_uris": {"android": "https://dc.lft.to/lastmile_qr_scan", "ios": "https://dc.lft.to/lastmile_qr_scan"}, "lon": -76.98191716666666, "name": "273c5d43aa908a6cd92aa8ce6cd9faaa", "is_disabled": 0, "is_reserved": 0, "bike_id": "273c5d43aa908a6cd92aa8ce6cd9faaa", "lat": 38.984953833333336, "type": "electric_bike"}, {"fusion_lat": 0.0, "fusion_lon": 0.0, "rental_uris": {"android": "https://dc.lft.to/lastmile_qr_scan", "ios": "https://dc.lft.to/lastmile_qr_scan"}, "lon": -77.00376033333333, "name": "16bd954365fcbf7fd460fa30e76c1f4b", "is_disabled": 0, "is_reserved": 0, "bike_id": "16bd954365fcbf7fd460fa30e76c1f4b", "lat": 38.87636916666666, "type": "electric_scooter"}, {"fusion_lat": 0.0, "fusion_lon": 0.0, "rental_uris": {"android": "https://dc.lft.to/lastmile_qr_scan", "ios": "https://dc.lft.to/lastmile_qr_scan"}, "lon": -77.03589833333334, "name": "4ecd3a05710aad2b3396246ecb1106d9", "is_disabled": 0, "is_reserved": 0, "bike_id": "4ecd3a05710aad2b3396246ecb1106d9", "lat": 38.9314865, "type": "electric_scooter"}, {"fusion_lat": 0.0, "fusion_lon": 0.0, "rental_uris": {"android": "https://dc.lft.to/lastmile_qr_scan", "ios": "https://dc.lft.to/lastmile_qr_scan"}, "lon": -77.0500605, "name": "beacd7f1473d01fcfc4114594850f6f2", "is_disabled": 0, "is_reserved": 0, "bike_id": "beacd7f1473d01fcfc4114594850f6f2", "lat": 38.904132833333335, "type": "electric_scooter"}, {"fusion_lat": 0.0, "fusion_lon": 0.0, "rental_uris": {"android": "https://dc.lft.to/lastmile_qr_scan", "ios": "https://dc.lft.to/lastmile_qr_scan"}, "lon": -77.097137, "name": "829756734df0de57686dddc11a6c27da", "is_disabled": 0, "is_reserved": 0, "bike_id": "829756734df0de57686dddc11a6c27da", "lat": 38.95097533333333, "type": "electric_scooter"}, {"fusion_lat": 0.0, "fusion_lon": 0.0, "rental_uris": {"android": "https://dc.lft.to/lastmile_qr_scan", "ios": "https://dc.lft.to/lastmile_qr_scan"}, "lon": -77.03588683333334, "name": "c5667278334be5ccb691b003bbb5d0e7", "is_disabled": 0, "is_reserved": 0, "bike_id": "c5667278334be5ccb691b003bbb5d0e7", "lat": 38.9314915, "type": "electric_scooter"}, {"fusion_lat": 0.0, "fusion_lon": 0.0, "rental_uris": {"android": "https://dc.lft.to/lastmile_qr_scan", "ios": "https://dc.lft.to/lastmile_qr_scan"}, "lon": -77.02706716666667, "name": "c091030ef8b0b973920895dc933fee7b", "is_disabled": 0, "is_reserved": 0, "bike_id": "c091030ef8b0b973920895dc933fee7b", "lat": 38.90776433333333, "type": "electric_scooter"}, {"fusion_lat": 0.0, "fusion_lon": 0.0, "rental_uris": {"android": "https://dc.lft.to/lastmile_qr_scan", "ios": "https://dc.lft.to/lastmile_qr_scan"}, "lon": -77.04881433333334, "name": "49b87c2750d42d867c90f96d178e93aa", "is_disabled": 0, "is_reserved": 0, "bike_id": "49b87c2750d42d867c90f96d178e93aa", "lat": 38.90199783333333, "type": "electric_scooter"}, {"fusion_lat": 0.0, "fusion_lon": 0.0, "rental_uris": {"android": "https://dc.lft.to/lastmile_qr_scan", "ios": "https://dc.lft.to/lastmile_qr_scan"}, "lon": -76.96711533333334, "name": "79bcb7429d0320af047af01c9364822b", "is_disabled": 0, "is_reserved": 0, "bike_id": "79bcb7429d0320af047af01c9364822b", "lat": 38.8603485, "type": "electric_scooter"}, {"fusion_lat": 0.0, "fusion_lon": 0.0, "rental_uris": {"android": "https://dc.lft.to/lastmile_qr_scan", "ios": "https://dc.lft.to/lastmile_qr_scan"}, "lon": -77.0238225, "name": "47f2d830071d00a19d28b4522a13a163", "is_disabled": 0, "is_reserved": 0, "bike_id": "47f2d830071d00a19d28b4522a13a163", "lat": 38.90687166666667, "type": "electric_scooter"}, {"fusion_lat": 0.0, "fusion_lon": 0.0, "rental_uris": {"android": "https://dc.lft.to/lastmile_qr_scan", "ios": "https://dc.lft.to/lastmile_qr_scan"}, "lon": -77.02436416666667, "name": "9e289f9bc5d3c939600ee4ddee35405e", "is_disabled": 0, "is_reserved": 0, "bike_id": "9e289f9bc5d3c939600ee4ddee35405e", "lat": 38.92048116666667, "type": "electric_scooter"}, {"fusion_lat": 0.0, "fusion_lon": 0.0, "rental_uris": {"android": "https://dc.lft.to/lastmile_qr_scan", "ios": "https://dc.lft.to/lastmile_qr_scan"}, "lon": -77.07167833333334, "name": "eb7ce23bd3697992e16d4100987f08c9", "is_disabled": 0, "is_reserved": 0, "bike_id": "eb7ce23bd3697992e16d4100987f08c9", "lat": 38.907727333333334, "type": "electric_scooter"}, {"fusion_lat": 0.0, "fusion_lon": 0.0, "rental_uris": {"android": "https://dc.lft.to/lastmile_qr_scan", "ios": "https://dc.lft.to/lastmile_qr_scan"}, "lon": -77.0071165, "name": "6536a439ca921ca5223f84a9bf1c697e", "is_disabled": 0, "is_reserved": 0, "bike_id": "6536a439ca921ca5223f84a9bf1c697e", "lat": 38.88487333333333, "type": "electric_scooter"}, {"fusion_lat": 0.0, "fusion_lon": 0.0, "rental_uris": {"android": "https://dc.lft.to/lastmile_qr_scan", "ios": "https://dc.lft.to/lastmile_qr_scan"}, "lon": -77.0423745, "name": "a2f6c99de66d874bebd96991dd652fff", "is_disabled": 0, "is_reserved": 0, "bike_id": "a2f6c99de66d874bebd96991dd652fff", "lat": 38.922712833333335, "type": "electric_scooter"}, {"fusion_lat": 0.0, "fusion_lon": 0.0, "rental_uris": {"android": "https://dc.lft.to/lastmile_qr_scan", "ios": "https://dc.lft.to/lastmile_qr_scan"}, "lon": -77.0504515, "name": "d265e245bcf100899217add33b5b3693", "is_disabled": 0, "is_reserved": 0, "bike_id": "d265e245bcf100899217add33b5b3693", "lat": 38.923586, "type": "electric_scooter"}, {"fusion_lat": 0.0, "fusion_lon": 0.0, "rental_uris": {"android": "https://dc.lft.to/lastmile_qr_scan", "ios": "https://dc.lft.to/lastmile_qr_scan"}, "lon": -77.034629, "name": "61965ce2c64deb9b6e73d0ee0d2e46c5", "is_disabled": 0, "is_reserved": 0, "bike_id": "61965ce2c64deb9b6e73d0ee0d2e46c5", "lat": 38.9084495, "type": "electric_scooter"}, {"fusion_lat": 0.0, "fusion_lon": 0.0, "rental_uris": {"android": "https://dc.lft.to/lastmile_qr_scan", "ios": "https://dc.lft.to/lastmile_qr_scan"}, "lon": -77.022044, "name": "cef90bb9b1dc072d438e6c0dcf7cf69b", "is_disabled": 0, "is_reserved": 0, "bike_id": "cef90bb9b1dc072d438e6c0dcf7cf69b", "lat": 38.8958545, "type": "electric_scooter"}, {"fusion_lat": 0.0, "fusion_lon": 0.0, "rental_uris": {"android": "https://dc.lft.to/lastmile_qr_scan", "ios": "https://dc.lft.to/lastmile_qr_scan"}, "lon": -77.02647583333334, "name": "e4381129f1730011257604d7cfd1b746", "is_disabled": 0, "is_reserved": 0, "bike_id": "e4381129f1730011257604d7cfd1b746", "lat": 38.99422, "type": "electric_bike"}, {"fusion_lat": 0.0, "fusion_lon": 0.0, "rental_uris": {"android": "https://dc.lft.to/lastmile_qr_scan", "ios": "https://dc.lft.to/lastmile_qr_scan"}, "lon": -77.07274433333333, "name": "bdd8f5840df56597a7fb5dcf6e2cebac", "is_disabled": 0, "is_reserved": 0, "bike_id": "bdd8f5840df56597a7fb5dcf6e2cebac", "lat": 38.908987333333336, "type": "electric_scooter"}, {"fusion_lat": 0.0, "fusion_lon": 0.0, "rental_uris": {"android": "https://dc.lft.to/lastmile_qr_scan", "ios": "https://dc.lft.to/lastmile_qr_scan"}, "lon": -77.032012, "name": "15d7325db8c5fa2e9d0fe060bfe1abbf", "is_disabled": 0, "is_reserved": 0, "bike_id": "15d7325db8c5fa2e9d0fe060bfe1abbf", "lat": 38.91326383333333, "type": "electric_scooter"}, {"fusion_lat": 0.0, "fusion_lon": 0.0, "rental_uris": {"android": "https://dc.lft.to/lastmile_qr_scan", "ios": "https://dc.lft.to/lastmile_qr_scan"}, "lon": -77.0328645, "name": "675234eccb8030a28c69ab66bb16fc4d", "is_disabled": 0, "is_reserved": 0, "bike_id": "675234eccb8030a28c69ab66bb16fc4d", "lat": 38.934397833333335, "type": "electric_scooter"}, {"fusion_lat": 0.0, "fusion_lon": 0.0, "rental_uris": {"android": "https://dc.lft.to/lastmile_qr_scan", "ios": "https://dc.lft.to/lastmile_qr_scan"}, "lon": -77.01669416666667, "name": "986d2887a39113afefa176be1a02d384", "is_disabled": 0, "is_reserved": 0, "bike_id": "986d2887a39113afefa176be1a02d384", "lat": 38.881438333333335, "type": "electric_scooter"}, {"fusion_lat": 0.0, "fusion_lon": 0.0, "rental_uris": {"android": "https://dc.lft.to/lastmile_qr_scan", "ios": "https://dc.lft.to/lastmile_qr_scan"}, "lon": -77.02406916666666, "name": "bf385008683f1b0ae8ac00c850e1554d", "is_disabled": 0, "is_reserved": 0, "bike_id": "bf385008683f1b0ae8ac00c850e1554d", "lat": 38.941797333333334, "type": "electric_scooter"}, {"fusion_lat": 0.0, "fusion_lon": 0.0, "rental_uris": {"android": "https://dc.lft.to/lastmile_qr_scan", "ios": "https://dc.lft.to/lastmile_qr_scan"}, "lon": -77.0416615, "name": "ac4e0e7b6a66ab906fc71fcf026ab4c9", "is_disabled": 0, "is_reserved": 0, "bike_id": "ac4e0e7b6a66ab906fc71fcf026ab4c9", "lat": 38.89553133333333, "type": "electric_scooter"}, {"fusion_lat": 0.0, "fusion_lon": 0.0, "rental_uris": {"android": "https://dc.lft.to/lastmile_qr_scan", "ios": "https://dc.lft.to/lastmile_qr_scan"}, "lon": -77.02719033333334, "name": "c701916d17b4f48e296c314a5ce4912a", "is_disabled": 0, "is_reserved": 0, "bike_id": "c701916d17b4f48e296c314a5ce4912a", "lat": 38.89788633333333, "type": "electric_scooter"}, {"fusion_lat": 0.0, "fusion_lon": 0.0, "rental_uris": {"android": "https://dc.lft.to/lastmile_qr_scan", "ios": "https://dc.lft.to/lastmile_qr_scan"}, "lon": -77.05178816666667, "name": "e904187c0c2ca8a2fb0453e1351df77f", "is_disabled": 0, "is_reserved": 0, "bike_id": "e904187c0c2ca8a2fb0453e1351df77f", "lat": 38.924243833333335, "type": "electric_scooter"}, {"fusion_lat": 0.0, "fusion_lon": 0.0, "rental_uris": {"android": "https://dc.lft.to/lastmile_qr_scan", "ios": "https://dc.lft.to/lastmile_qr_scan"}, "lon": -77.03940133333333, "name": "11554b76321204a9cab42d4d38aa898e", "is_disabled": 0, "is_reserved": 0, "bike_id": "11554b76321204a9cab42d4d38aa898e", "lat": 38.898541333333334, "type": "electric_scooter"}, {"fusion_lat": 0.0, "fusion_lon": 0.0, "rental_uris": {"android": "https://dc.lft.to/lastmile_qr_scan", "ios": "https://dc.lft.to/lastmile_qr_scan"}, "lon": -77.02175583333333, "name": "c2a79b770344377b45885f4bf72b337f", "is_disabled": 0, "is_reserved": 0, "bike_id": "c2a79b770344377b45885f4bf72b337f", "lat": 38.8970625, "type": "electric_scooter"}, {"fusion_lat": 0.0, "fusion_lon": 0.0, "rental_uris": {"android": "https://dc.lft.to/lastmile_qr_scan", "ios": "https://dc.lft.to/lastmile_qr_scan"}, "lon": -77.03221716666667, "name": "f41191783eb5d2aab6b33ca37ced846a", "is_disabled": 0, "is_reserved": 0, "bike_id": "f41191783eb5d2aab6b33ca37ced846a", "lat": 38.899196333333336, "type": "electric_scooter"}, {"fusion_lat": 0.0, "fusion_lon": 0.0, "rental_uris": {"android": "https://dc.lft.to/lastmile_qr_scan", "ios": "https://dc.lft.to/lastmile_qr_scan"}, "lon": -77.01777616666666, "name": "09969f6da2bb3de413e4cebf83a9d9e0", "is_disabled": 0, "is_reserved": 0, "bike_id": "09969f6da2bb3de413e4cebf83a9d9e0", "lat": 38.887082166666666, "type": "electric_scooter"}, {"fusion_lat": 0.0, "fusion_lon": 0.0, "rental_uris": {"android": "https://dc.lft.to/lastmile_qr_scan", "ios": "https://dc.lft.to/lastmile_qr_scan"}, "lon": -77.05729066666666, "name": "704ebe63e1f8f5a8de3286eb0da26a7c", "is_disabled": 0, "is_reserved": 0, "bike_id": "704ebe63e1f8f5a8de3286eb0da26a7c", "lat": 38.93367583333333, "type": "electric_scooter"}, {"fusion_lat": 0.0, "fusion_lon": 0.0, "rental_uris": {"android": "https://dc.lft.to/lastmile_qr_scan", "ios": "https://dc.lft.to/lastmile_qr_scan"}, "lon": -77.05237116666666, "name": "cd871bd2bf83e2776d3c11ffe144dd57", "is_disabled": 0, "is_reserved": 0, "bike_id": "cd871bd2bf83e2776d3c11ffe144dd57", "lat": 38.92471716666667, "type": "electric_scooter"}, {"fusion_lat": 0.0, "fusion_lon": 0.0, "rental_uris": {"android": "https://dc.lft.to/lastmile_qr_scan", "ios": "https://dc.lft.to/lastmile_qr_scan"}, "lon": -77.02594633333334, "name": "018b47f89dfde2fb2a533ce03ca5045b", "is_disabled": 0, "is_reserved": 0, "bike_id": "018b47f89dfde2fb2a533ce03ca5045b", "lat": 38.9639115, "type": "electric_scooter"}, {"fusion_lat": 0.0, "fusion_lon": 0.0, "rental_uris": {"android": "https://dc.lft.to/lastmile_qr_scan", "ios": "https://dc.lft.to/lastmile_qr_scan"}, "lon": -77.0967595, "name": "0a2cb97e2b7a047a8d4bfc320d13427f", "is_disabled": 0, "is_reserved": 0, "bike_id": "0a2cb97e2b7a047a8d4bfc320d13427f", "lat": 38.94617083333333, "type": "electric_bike"}, {"fusion_lat": 0.0, "fusion_lon": 0.0, "rental_uris": {"android": "https://dc.lft.to/lastmile_qr_scan", "ios": "https://dc.lft.to/lastmile_qr_scan"}, "lon": -77.02383283333333, "name": "948072265155a54a58cf9182150ea57b", "is_disabled": 0, "is_reserved": 0, "bike_id": "948072265155a54a58cf9182150ea57b", "lat": 38.892267833333335, "type": "electric_scooter"}, {"fusion_lat": 0.0, "fusion_lon": 0.0, "rental_uris": {"android": "https://dc.lft.to/lastmile_qr_scan", "ios": "https://dc.lft.to/lastmile_qr_scan"}, "lon": -77.022775, "name": "b1e8e1afeee323197f2bcd190ba5328d", "is_disabled": 0, "is_reserved": 0, "bike_id": "b1e8e1afeee323197f2bcd190ba5328d", "lat": 38.897315166666665, "type": "electric_scooter"}, {"fusion_lat": 0.0, "fusion_lon": 0.0, "rental_uris": {"android": "https://dc.lft.to/lastmile_qr_scan", "ios": "https://dc.lft.to/lastmile_qr_scan"}, "lon": -77.012751, "name": "fe7b34bf06ab6552427f95da1b85ac60", "is_disabled": 0, "is_reserved": 0, "bike_id": "fe7b34bf06ab6552427f95da1b85ac60", "lat": 38.87299933333333, "type": "electric_scooter"}, {"fusion_lat": 0.0, "fusion_lon": 0.0, "rental_uris": {"android": "https://dc.lft.to/lastmile_qr_scan", "ios": "https://dc.lft.to/lastmile_qr_scan"}, "lon": -77.03917383333334, "name": "1c8cfd023eed040b57f8d29ae681e83a", "is_disabled": 0, "is_reserved": 0, "bike_id": "1c8cfd023eed040b57f8d29ae681e83a", "lat": 38.91107133333333, "type": "electric_scooter"}, {"fusion_lat": 0.0, "fusion_lon": 0.0, "rental_uris": {"android": "https://dc.lft.to/lastmile_qr_scan", "ios": "https://dc.lft.to/lastmile_qr_scan"}, "lon": -76.99768183333333, "name": "7fcdf956566534153a8d79aa6d93434d", "is_disabled": 0, "is_reserved": 0, "bike_id": "7fcdf956566534153a8d79aa6d93434d", "lat": 38.91111433333333, "type": "electric_scooter"}, {"fusion_lat": 0.0, "fusion_lon": 0.0, "rental_uris": {"android": "https://dc.lft.to/lastmile_qr_scan", "ios": "https://dc.lft.to/lastmile_qr_scan"}, "lon": -77.03941616666667, "name": "aad05630f06fae21548e78bf6325d008", "is_disabled": 0, "is_reserved": 0, "bike_id": "aad05630f06fae21548e78bf6325d008", "lat": 38.9011355, "type": "electric_scooter"}, {"fusion_lat": 0.0, "fusion_lon": 0.0, "rental_uris": {"android": "https://dc.lft.to/lastmile_qr_scan", "ios": "https://dc.lft.to/lastmile_qr_scan"}, "lon": -77.05158216666666, "name": "b84002caa476bd1baabc108da1bc2596", "is_disabled": 0, "is_reserved": 0, "bike_id": "b84002caa476bd1baabc108da1bc2596", "lat": 38.90183366666667, "type": "electric_scooter"}, {"fusion_lat": 0.0, "fusion_lon": 0.0, "rental_uris": {"android": "https://dc.lft.to/lastmile_qr_scan", "ios": "https://dc.lft.to/lastmile_qr_scan"}, "lon": -77.038696, "name": "df89c278658d6c8f54fb9a50ea8300f9", "is_disabled": 0, "is_reserved": 0, "bike_id": "df89c278658d6c8f54fb9a50ea8300f9", "lat": 38.90284716666667, "type": "electric_scooter"}, {"fusion_lat": 0.0, "fusion_lon": 0.0, "rental_uris": {"android": "https://dc.lft.to/lastmile_qr_scan", "ios": "https://dc.lft.to/lastmile_qr_scan"}, "lon": -77.02280816666666, "name": "e9ac5bd9d020653d03a65e8932760927", "is_disabled": 0, "is_reserved": 0, "bike_id": "e9ac5bd9d020653d03a65e8932760927", "lat": 38.895015, "type": "electric_scooter"}, {"fusion_lat": 0.0, "fusion_lon": 0.0, "rental_uris": {"android": "https://dc.lft.to/lastmile_qr_scan", "ios": "https://dc.lft.to/lastmile_qr_scan"}, "lon": -77.04504333333334, "name": "83075b70c33e4aa79cb85bfb3d42f2cf", "is_disabled": 0, "is_reserved": 0, "bike_id": "83075b70c33e4aa79cb85bfb3d42f2cf", "lat": 38.90361133333333, "type": "electric_scooter"}, {"fusion_lat": 0.0, "fusion_lon": 0.0, "rental_uris": {"android": "https://dc.lft.to/lastmile_qr_scan", "ios": "https://dc.lft.to/lastmile_qr_scan"}, "lon": -77.033799, "name": "d3f3583c2ec69e8fc9c2bb1d63c49053", "is_disabled": 0, "is_reserved": 0, "bike_id": "d3f3583c2ec69e8fc9c2bb1d63c49053", "lat": 38.925385666666664, "type": "electric_scooter"}, {"fusion_lat": 0.0, "fusion_lon": 0.0, "rental_uris": {"android": "https://dc.lft.to/lastmile_qr_scan", "ios": "https://dc.lft.to/lastmile_qr_scan"}, "lon": -77.01371433333334, "name": "46725054a4d9cc605eba178d4cfdaae1", "is_disabled": 0, "is_reserved": 0, "bike_id": "46725054a4d9cc605eba178d4cfdaae1", "lat": 38.92869133333333, "type": "electric_scooter"}, {"fusion_lat": 0.0, "fusion_lon": 0.0, "rental_uris": {"android": "https://dc.lft.to/lastmile_qr_scan", "ios": "https://dc.lft.to/lastmile_qr_scan"}, "lon": -77.02408, "name": "bd7c6f8e4934d45f9b92fa05e20330db", "is_disabled": 0, "is_reserved": 0, "bike_id": "bd7c6f8e4934d45f9b92fa05e20330db", "lat": 38.9056815, "type": "electric_scooter"}, {"fusion_lat": 0.0, "fusion_lon": 0.0, "rental_uris": {"android": "https://dc.lft.to/lastmile_qr_scan", "ios": "https://dc.lft.to/lastmile_qr_scan"}, "lon": -76.97030316666667, "name": "2185dfff4cd733eadf88173a41b4cd44", "is_disabled": 0, "is_reserved": 0, "bike_id": "2185dfff4cd733eadf88173a41b4cd44", "lat": 38.873566833333335, "type": "electric_scooter"}, {"fusion_lat": 0.0, "fusion_lon": 0.0, "rental_uris": {"android": "https://dc.lft.to/lastmile_qr_scan", "ios": "https://dc.lft.to/lastmile_qr_scan"}, "lon": -77.01775616666667, "name": "c6f56f4547f196d10f433c3191a7bdf6", "is_disabled": 0, "is_reserved": 0, "bike_id": "c6f56f4547f196d10f433c3191a7bdf6", "lat": 38.900909166666665, "type": "electric_scooter"}, {"fusion_lat": 0.0, "fusion_lon": 0.0, "rental_uris": {"android": "https://dc.lft.to/lastmile_qr_scan", "ios": "https://dc.lft.to/lastmile_qr_scan"}, "lon": -77.0216865, "name": "0892fed39f89ef54548d19ef097c5721", "is_disabled": 0, "is_reserved": 0, "bike_id": "0892fed39f89ef54548d19ef097c5721", "lat": 38.897296833333336, "type": "electric_scooter"}, {"fusion_lat": 0.0, "fusion_lon": 0.0, "rental_uris": {"android": "https://dc.lft.to/lastmile_qr_scan", "ios": "https://dc.lft.to/lastmile_qr_scan"}, "lon": -77.08068333333334, "name": "7f078c2899976f2ed92a8ed665cb1e3e", "is_disabled": 0, "is_reserved": 0, "bike_id": "7f078c2899976f2ed92a8ed665cb1e3e", "lat": 39.052548, "type": "electric_bike"}, {"fusion_lat": 0.0, "fusion_lon": 0.0, "rental_uris": {"android": "https://dc.lft.to/lastmile_qr_scan", "ios": "https://dc.lft.to/lastmile_qr_scan"}, "lon": -77.02950566666667, "name": "a3f6ce7fc273971700edfc77b8689697", "is_disabled": 0, "is_reserved": 0, "bike_id": "a3f6ce7fc273971700edfc77b8689697", "lat": 38.9027275, "type": "electric_scooter"}, {"fusion_lat": 0.0, "fusion_lon": 0.0, "rental_uris": {"android": "https://dc.lft.to/lastmile_qr_scan", "ios": "https://dc.lft.to/lastmile_qr_scan"}, "lon": -77.04490566666666, "name": "5d706658766385e56615a951e84054b3", "is_disabled": 0, "is_reserved": 0, "bike_id": "5d706658766385e56615a951e84054b3", "lat": 38.897542, "type": "electric_scooter"}, {"fusion_lat": 0.0, "fusion_lon": 0.0, "rental_uris": {"android": "https://dc.lft.to/lastmile_qr_scan", "ios": "https://dc.lft.to/lastmile_qr_scan"}, "lon": -77.04611666666666, "name": "e6f764b826787ac690478d737977c020", "is_disabled": 0, "is_reserved": 0, "bike_id": "e6f764b826787ac690478d737977c020", "lat": 38.91678433333333, "type": "electric_scooter"}, {"fusion_lat": 0.0, "fusion_lon": 0.0, "rental_uris": {"android": "https://dc.lft.to/lastmile_qr_scan", "ios": "https://dc.lft.to/lastmile_qr_scan"}, "lon": -77.00493666666667, "name": "f913360b8a0a8f3fc22b79036d78d2ed", "is_disabled": 0, "is_reserved": 0, "bike_id": "f913360b8a0a8f3fc22b79036d78d2ed", "lat": 38.87462983333333, "type": "electric_scooter"}, {"fusion_lat": 0.0, "fusion_lon": 0.0, "rental_uris": {"android": "https://dc.lft.to/lastmile_qr_scan", "ios": "https://dc.lft.to/lastmile_qr_scan"}, "lon": -77.02153083333333, "name": "9d229ab89d4be6d157ccc37cd632c8bf", "is_disabled": 0, "is_reserved": 0, "bike_id": "9d229ab89d4be6d157ccc37cd632c8bf", "lat": 38.918987666666666, "type": "electric_scooter"}, {"fusion_lat": 0.0, "fusion_lon": 0.0, "rental_uris": {"android": "https://dc.lft.to/lastmile_qr_scan", "ios": "https://dc.lft.to/lastmile_qr_scan"}, "lon": -77.03472033333334, "name": "6b875a64abeff49601172ddb0ef0a3a5", "is_disabled": 0, "is_reserved": 0, "bike_id": "6b875a64abeff49601172ddb0ef0a3a5", "lat": 38.9055025, "type": "electric_scooter"}, {"fusion_lat": 0.0, "fusion_lon": 0.0, "rental_uris": {"android": "https://dc.lft.to/lastmile_qr_scan", "ios": "https://dc.lft.to/lastmile_qr_scan"}, "lon": -76.93340733333334, "name": "d18f9b4e6f254e2ab511d78790ce572c", "is_disabled": 0, "is_reserved": 0, "bike_id": "d18f9b4e6f254e2ab511d78790ce572c", "lat": 38.908671, "type": "electric_scooter"}, {"fusion_lat": 0.0, "fusion_lon": 0.0, "rental_uris": {"android": "https://dc.lft.to/lastmile_qr_scan", "ios": "https://dc.lft.to/lastmile_qr_scan"}, "lon": -77.04015833333334, "name": "419096fe0c9b040932b776f0c42af96a", "is_disabled": 0, "is_reserved": 0, "bike_id": "419096fe0c9b040932b776f0c42af96a", "lat": 38.90378333333334, "type": "electric_scooter"}, {"fusion_lat": 0.0, "fusion_lon": 0.0, "rental_uris": {"android": "https://dc.lft.to/lastmile_qr_scan", "ios": "https://dc.lft.to/lastmile_qr_scan"}, "lon": -77.06793983333333, "name": "ec6b7ececc3e67cd688747c10dc78dd1", "is_disabled": 0, "is_reserved": 0, "bike_id": "ec6b7ececc3e67cd688747c10dc78dd1", "lat": 38.912788, "type": "electric_scooter"}, {"fusion_lat": 0.0, "fusion_lon": 0.0, "rental_uris": {"android": "https://dc.lft.to/lastmile_qr_scan", "ios": "https://dc.lft.to/lastmile_qr_scan"}, "lon": -77.01855666666667, "name": "0022f7aa94a7d87ad1cc9b0f8f4704d5", "is_disabled": 0, "is_reserved": 0, "bike_id": "0022f7aa94a7d87ad1cc9b0f8f4704d5", "lat": 38.949218, "type": "electric_scooter"}, {"fusion_lat": 0.0, "fusion_lon": 0.0, "rental_uris": {"android": "https://dc.lft.to/lastmile_qr_scan", "ios": "https://dc.lft.to/lastmile_qr_scan"}, "lon": -77.0507775, "name": "c1b3312844a118a50f597e7da26292db", "is_disabled": 0, "is_reserved": 0, "bike_id": "c1b3312844a118a50f597e7da26292db", "lat": 38.925289166666666, "type": "electric_scooter"}, {"fusion_lat": 0.0, "fusion_lon": 0.0, "rental_uris": {"android": "https://dc.lft.to/lastmile_qr_scan", "ios": "https://dc.lft.to/lastmile_qr_scan"}, "lon": -77.04509316666666, "name": "654698991d3466b7fff9c17e16376fce", "is_disabled": 0, "is_reserved": 0, "bike_id": "654698991d3466b7fff9c17e16376fce", "lat": 38.903648, "type": "electric_scooter"}, {"fusion_lat": 0.0, "fusion_lon": 0.0, "rental_uris": {"android": "https://dc.lft.to/lastmile_qr_scan", "ios": "https://dc.lft.to/lastmile_qr_scan"}, "lon": -77.018195, "name": "0b3c2a8de5ff9af6124cc651caf9c3bd", "is_disabled": 0, "is_reserved": 0, "bike_id": "0b3c2a8de5ff9af6124cc651caf9c3bd", "lat": 38.899649833333335, "type": "electric_scooter"}, {"fusion_lat": 0.0, "fusion_lon": 0.0, "rental_uris": {"android": "https://dc.lft.to/lastmile_qr_scan", "ios": "https://dc.lft.to/lastmile_qr_scan"}, "lon": -77.03334816666667, "name": "8718ee0e44c14858c65f151bed6856be", "is_disabled": 0, "is_reserved": 0, "bike_id": "8718ee0e44c14858c65f151bed6856be", "lat": 38.90238333333333, "type": "electric_scooter"}, {"fusion_lat": 0.0, "fusion_lon": 0.0, "rental_uris": {"android": "https://dc.lft.to/lastmile_qr_scan", "ios": "https://dc.lft.to/lastmile_qr_scan"}, "lon": -77.0451395, "name": "b83ffb253ce425c7358513d90816e591", "is_disabled": 0, "is_reserved": 0, "bike_id": "b83ffb253ce425c7358513d90816e591", "lat": 38.899635, "type": "electric_scooter"}, {"fusion_lat": 0.0, "fusion_lon": 0.0, "rental_uris": {"android": "https://dc.lft.to/lastmile_qr_scan", "ios": "https://dc.lft.to/lastmile_qr_scan"}, "lon": -77.02923233333334, "name": "c412e048fc691f99e1cebb0467b3c01c", "is_disabled": 0, "is_reserved": 0, "bike_id": "c412e048fc691f99e1cebb0467b3c01c", "lat": 38.91699766666667, "type": "electric_scooter"}, {"fusion_lat": 0.0, "fusion_lon": 0.0, "rental_uris": {"android": "https://dc.lft.to/lastmile_qr_scan", "ios": "https://dc.lft.to/lastmile_qr_scan"}, "lon": -77.03111166666666, "name": "447c9489827db83f90231c048a1b5b4c", "is_disabled": 0, "is_reserved": 0, "bike_id": "447c9489827db83f90231c048a1b5b4c", "lat": 38.88318433333333, "type": "electric_scooter"}, {"fusion_lat": 0.0, "fusion_lon": 0.0, "rental_uris": {"android": "https://dc.lft.to/lastmile_qr_scan", "ios": "https://dc.lft.to/lastmile_qr_scan"}, "lon": -77.0424965, "name": "f4019313d6c0051c6078ea2d29019e15", "is_disabled": 0, "is_reserved": 0, "bike_id": "f4019313d6c0051c6078ea2d29019e15", "lat": 38.9063855, "type": "electric_scooter"}, {"fusion_lat": 0.0, "fusion_lon": 0.0, "rental_uris": {"android": "https://dc.lft.to/lastmile_qr_scan", "ios": "https://dc.lft.to/lastmile_qr_scan"}, "lon": -77.02698366666667, "name": "e43b894b4edb0e49161b3a2c368cb096", "is_disabled": 0, "is_reserved": 0, "bike_id": "e43b894b4edb0e49161b3a2c368cb096", "lat": 38.94978116666667, "type": "electric_scooter"}, {"fusion_lat": 0.0, "fusion_lon": 0.0, "rental_uris": {"android": "https://dc.lft.to/lastmile_qr_scan", "ios": "https://dc.lft.to/lastmile_qr_scan"}, "lon": -76.98958866666666, "name": "2f19ca2134bffb02bcd0dfb6d5b7594c", "is_disabled": 0, "is_reserved": 0, "bike_id": "2f19ca2134bffb02bcd0dfb6d5b7594c", "lat": 38.858751, "type": "electric_scooter"}, {"fusion_lat": 0.0, "fusion_lon": 0.0, "rental_uris": {"android": "https://dc.lft.to/lastmile_qr_scan", "ios": "https://dc.lft.to/lastmile_qr_scan"}, "lon": -77.01218933333334, "name": "b6d79642fa9765fa301c5405bb0c3293", "is_disabled": 0, "is_reserved": 0, "bike_id": "b6d79642fa9765fa301c5405bb0c3293", "lat": 38.913459, "type": "electric_scooter"}, {"fusion_lat": 0.0, "fusion_lon": 0.0, "rental_uris": {"android": "https://dc.lft.to/lastmile_qr_scan", "ios": "https://dc.lft.to/lastmile_qr_scan"}, "lon": -77.035196, "name": "3b70b846c27dd8f4b47ce8bd83e3e868", "is_disabled": 0, "is_reserved": 0, "bike_id": "3b70b846c27dd8f4b47ce8bd83e3e868", "lat": 38.92532583333333, "type": "electric_scooter"}, {"fusion_lat": 0.0, "fusion_lon": 0.0, "rental_uris": {"android": "https://dc.lft.to/lastmile_qr_scan", "ios": "https://dc.lft.to/lastmile_qr_scan"}, "lon": -77.03217416666666, "name": "c9a947415888aab569f2be5d1796dd58", "is_disabled": 0, "is_reserved": 0, "bike_id": "c9a947415888aab569f2be5d1796dd58", "lat": 38.918449, "type": "electric_scooter"}, {"fusion_lat": 0.0, "fusion_lon": 0.0, "rental_uris": {"android": "https://dc.lft.to/lastmile_qr_scan", "ios": "https://dc.lft.to/lastmile_qr_scan"}, "lon": -77.031916, "name": "9bef65767be9f867d07396f2f79f4d87", "is_disabled": 0, "is_reserved": 0, "bike_id": "9bef65767be9f867d07396f2f79f4d87", "lat": 38.90127483333333, "type": "electric_scooter"}, {"fusion_lat": 0.0, "fusion_lon": 0.0, "rental_uris": {"android": "https://dc.lft.to/lastmile_qr_scan", "ios": "https://dc.lft.to/lastmile_qr_scan"}, "lon": -77.03213116666667, "name": "a3f54a78c51653e5709eeb8af4457ca9", "is_disabled": 0, "is_reserved": 0, "bike_id": "a3f54a78c51653e5709eeb8af4457ca9", "lat": 38.898382833333336, "type": "electric_scooter"}, {"fusion_lat": 0.0, "fusion_lon": 0.0, "rental_uris": {"android": "https://dc.lft.to/lastmile_qr_scan", "ios": "https://dc.lft.to/lastmile_qr_scan"}, "lon": -77.05045116666666, "name": "812ef6db01ef1310f1635bd1fbe02039", "is_disabled": 0, "is_reserved": 0, "bike_id": "812ef6db01ef1310f1635bd1fbe02039", "lat": 38.923595666666664, "type": "electric_scooter"}, {"fusion_lat": 0.0, "fusion_lon": 0.0, "rental_uris": {"android": "https://dc.lft.to/lastmile_qr_scan", "ios": "https://dc.lft.to/lastmile_qr_scan"}, "lon": -77.05001083333333, "name": "7c7feade1b1feb0a0483f36809ae33e8", "is_disabled": 0, "is_reserved": 0, "bike_id": "7c7feade1b1feb0a0483f36809ae33e8", "lat": 38.89392333333333, "type": "electric_scooter"}, {"fusion_lat": 0.0, "fusion_lon": 0.0, "rental_uris": {"android": "https://dc.lft.to/lastmile_qr_scan", "ios": "https://dc.lft.to/lastmile_qr_scan"}, "lon": -77.0236395, "name": "72ed7e8bbc25456552d53c17d1ae5c25", "is_disabled": 0, "is_reserved": 0, "bike_id": "72ed7e8bbc25456552d53c17d1ae5c25", "lat": 38.92513616666667, "type": "electric_scooter"}, {"fusion_lat": 0.0, "fusion_lon": 0.0, "rental_uris": {"android": "https://dc.lft.to/lastmile_qr_scan", "ios": "https://dc.lft.to/lastmile_qr_scan"}, "lon": -76.9994675, "name": "9e90cae9c707f05362b6d80b12afdef9", "is_disabled": 0, "is_reserved": 0, "bike_id": "9e90cae9c707f05362b6d80b12afdef9", "lat": 38.842921833333335, "type": "electric_scooter"}, {"fusion_lat": 0.0, "fusion_lon": 0.0, "rental_uris": {"android": "https://dc.lft.to/lastmile_qr_scan", "ios": "https://dc.lft.to/lastmile_qr_scan"}, "lon": -77.03253316666667, "name": "1f1e9a559d8bbe9b2ff840082f22fb05", "is_disabled": 0, "is_reserved": 0, "bike_id": "1f1e9a559d8bbe9b2ff840082f22fb05", "lat": 38.905497, "type": "electric_scooter"}, {"fusion_lat": 0.0, "fusion_lon": 0.0, "rental_uris": {"android": "https://dc.lft.to/lastmile_qr_scan", "ios": "https://dc.lft.to/lastmile_qr_scan"}, "lon": -77.02416883333333, "name": "41ffc8ec4ed991c14f21852d3be012d1", "is_disabled": 0, "is_reserved": 0, "bike_id": "41ffc8ec4ed991c14f21852d3be012d1", "lat": 38.879853833333335, "type": "electric_scooter"}, {"fusion_lat": 0.0, "fusion_lon": 0.0, "rental_uris": {"android": "https://dc.lft.to/lastmile_qr_scan", "ios": "https://dc.lft.to/lastmile_qr_scan"}, "lon": -76.984248, "name": "e4f73d446245cb0d284458954fd67c43", "is_disabled": 0, "is_reserved": 0, "bike_id": "e4f73d446245cb0d284458954fd67c43", "lat": 38.926431, "type": "electric_bike"}, {"fusion_lat": 0.0, "fusion_lon": 0.0, "rental_uris": {"android": "https://dc.lft.to/lastmile_qr_scan", "ios": "https://dc.lft.to/lastmile_qr_scan"}, "lon": -77.02216633333333, "name": "9ddb7ce33383cafae0500da9d76df0d1", "is_disabled": 0, "is_reserved": 0, "bike_id": "9ddb7ce33383cafae0500da9d76df0d1", "lat": 38.914109333333336, "type": "electric_scooter"}, {"fusion_lat": 0.0, "fusion_lon": 0.0, "rental_uris": {"android": "https://dc.lft.to/lastmile_qr_scan", "ios": "https://dc.lft.to/lastmile_qr_scan"}, "lon": -77.025341, "name": "c16d0aaeb934ef67f05d13095d734622", "is_disabled": 0, "is_reserved": 0, "bike_id": "c16d0aaeb934ef67f05d13095d734622", "lat": 38.935867333333334, "type": "electric_scooter"}, {"fusion_lat": 0.0, "fusion_lon": 0.0, "rental_uris": {"android": "https://dc.lft.to/lastmile_qr_scan", "ios": "https://dc.lft.to/lastmile_qr_scan"}, "lon": -77.02120816666667, "name": "71b1719b95e47181ce7ffe8dad8e65d9", "is_disabled": 0, "is_reserved": 0, "bike_id": "71b1719b95e47181ce7ffe8dad8e65d9", "lat": 38.919982166666664, "type": "electric_scooter"}, {"fusion_lat": 0.0, "fusion_lon": 0.0, "rental_uris": {"android": "https://dc.lft.to/lastmile_qr_scan", "ios": "https://dc.lft.to/lastmile_qr_scan"}, "lon": -76.95506383333333, "name": "2d53d203008243d72e1383691c7e74fe", "is_disabled": 0, "is_reserved": 0, "bike_id": "2d53d203008243d72e1383691c7e74fe", "lat": 38.93915883333333, "type": "electric_bike"}, {"fusion_lat": 0.0, "fusion_lon": 0.0, "rental_uris": {"android": "https://dc.lft.to/lastmile_qr_scan", "ios": "https://dc.lft.to/lastmile_qr_scan"}, "lon": -77.01757733333334, "name": "98626df6921c68e2829a7d8752dc1075", "is_disabled": 0, "is_reserved": 0, "bike_id": "98626df6921c68e2829a7d8752dc1075", "lat": 38.902566666666665, "type": "electric_scooter"}, {"fusion_lat": 0.0, "fusion_lon": 0.0, "rental_uris": {"android": "https://dc.lft.to/lastmile_qr_scan", "ios": "https://dc.lft.to/lastmile_qr_scan"}, "lon": -77.0433015, "name": "932987c66634df1c77e16205623bcee0", "is_disabled": 0, "is_reserved": 0, "bike_id": "932987c66634df1c77e16205623bcee0", "lat": 38.907540833333336, "type": "electric_scooter"}, {"fusion_lat": 0.0, "fusion_lon": 0.0, "rental_uris": {"android": "https://dc.lft.to/lastmile_qr_scan", "ios": "https://dc.lft.to/lastmile_qr_scan"}, "lon": -77.01412133333334, "name": "c6fab350f07102bd7457493a9b7eb041", "is_disabled": 0, "is_reserved": 0, "bike_id": "c6fab350f07102bd7457493a9b7eb041", "lat": 38.928318166666664, "type": "electric_scooter"}, {"fusion_lat": 0.0, "fusion_lon": 0.0, "rental_uris": {"android": "https://dc.lft.to/lastmile_qr_scan", "ios": "https://dc.lft.to/lastmile_qr_scan"}, "lon": -76.9833605, "name": "778b9d624c44368bfd23f242a109f5d3", "is_disabled": 0, "is_reserved": 0, "bike_id": "778b9d624c44368bfd23f242a109f5d3", "lat": 38.86565616666667, "type": "electric_scooter"}, {"fusion_lat": 0.0, "fusion_lon": 0.0, "rental_uris": {"android": "https://dc.lft.to/lastmile_qr_scan", "ios": "https://dc.lft.to/lastmile_qr_scan"}, "lon": -77.04750983333334, "name": "91391c906fd41e0be4e3f45603698115", "is_disabled": 0, "is_reserved": 0, "bike_id": "91391c906fd41e0be4e3f45603698115", "lat": 38.9036235, "type": "electric_scooter"}, {"fusion_lat": 0.0, "fusion_lon": 0.0, "rental_uris": {"android": "https://dc.lft.to/lastmile_qr_scan", "ios": "https://dc.lft.to/lastmile_qr_scan"}, "lon": -77.021734, "name": "32354454ae425aa79c99daaee576749b", "is_disabled": 0, "is_reserved": 0, "bike_id": "32354454ae425aa79c99daaee576749b", "lat": 38.942924, "type": "electric_scooter"}, {"fusion_lat": 0.0, "fusion_lon": 0.0, "rental_uris": {"android": "https://dc.lft.to/lastmile_qr_scan", "ios": "https://dc.lft.to/lastmile_qr_scan"}, "lon": -77.02240466666667, "name": "3602d04a44288db55e602ae563e2c819", "is_disabled": 0, "is_reserved": 0, "bike_id": "3602d04a44288db55e602ae563e2c819", "lat": 38.92466683333333, "type": "electric_scooter"}, {"fusion_lat": 0.0, "fusion_lon": 0.0, "rental_uris": {"android": "https://dc.lft.to/lastmile_qr_scan", "ios": "https://dc.lft.to/lastmile_qr_scan"}, "lon": -77.12978683333333, "name": "f42fa08d39cd0fa5bb6d07e08eab39c7", "is_disabled": 0, "is_reserved": 0, "bike_id": "f42fa08d39cd0fa5bb6d07e08eab39c7", "lat": 38.79984966666667, "type": "electric_bike"}, {"fusion_lat": 0.0, "fusion_lon": 0.0, "rental_uris": {"android": "https://dc.lft.to/lastmile_qr_scan", "ios": "https://dc.lft.to/lastmile_qr_scan"}, "lon": -77.05518883333333, "name": "c38f91047ebb1c0c11874b2fe55b90da", "is_disabled": 0, "is_reserved": 0, "bike_id": "c38f91047ebb1c0c11874b2fe55b90da", "lat": 38.944158, "type": "electric_scooter"}, {"fusion_lat": 0.0, "fusion_lon": 0.0, "rental_uris": {"android": "https://dc.lft.to/lastmile_qr_scan", "ios": "https://dc.lft.to/lastmile_qr_scan"}, "lon": -77.04556533333333, "name": "5bb199947ec728f0b22b1521e602aeac", "is_disabled": 0, "is_reserved": 0, "bike_id": "5bb199947ec728f0b22b1521e602aeac", "lat": 38.9176385, "type": "electric_scooter"}, {"fusion_lat": 0.0, "fusion_lon": 0.0, "rental_uris": {"android": "https://dc.lft.to/lastmile_qr_scan", "ios": "https://dc.lft.to/lastmile_qr_scan"}, "lon": -77.03864883333334, "name": "8c38652fd69ea229be3fd3c82df233a6", "is_disabled": 0, "is_reserved": 0, "bike_id": "8c38652fd69ea229be3fd3c82df233a6", "lat": 38.90278333333333, "type": "electric_scooter"}, {"fusion_lat": 0.0, "fusion_lon": 0.0, "rental_uris": {"android": "https://dc.lft.to/lastmile_qr_scan", "ios": "https://dc.lft.to/lastmile_qr_scan"}, "lon": -77.03873816666666, "name": "1a16aa32a0c9a1be44546ed2e240db02", "is_disabled": 0, "is_reserved": 0, "bike_id": "1a16aa32a0c9a1be44546ed2e240db02", "lat": 38.906173, "type": "electric_scooter"}, {"fusion_lat": 0.0, "fusion_lon": 0.0, "rental_uris": {"android": "https://dc.lft.to/lastmile_qr_scan", "ios": "https://dc.lft.to/lastmile_qr_scan"}, "lon": -77.04119816666666, "name": "3d555bd5b58fc00f27c7b4d9d5cd7ff5", "is_disabled": 0, "is_reserved": 0, "bike_id": "3d555bd5b58fc00f27c7b4d9d5cd7ff5", "lat": 38.93350916666667, "type": "electric_scooter"}, {"fusion_lat": 0.0, "fusion_lon": 0.0, "rental_uris": {"android": "https://dc.lft.to/lastmile_qr_scan", "ios": "https://dc.lft.to/lastmile_qr_scan"}, "lon": -77.00764283333334, "name": "acee9eeeec2a41ab3cddfe99b594c9c9", "is_disabled": 0, "is_reserved": 0, "bike_id": "acee9eeeec2a41ab3cddfe99b594c9c9", "lat": 38.917282, "type": "electric_scooter"}, {"fusion_lat": 0.0, "fusion_lon": 0.0, "rental_uris": {"android": "https://dc.lft.to/lastmile_qr_scan", "ios": "https://dc.lft.to/lastmile_qr_scan"}, "lon": -77.02096716666667, "name": "9245f878135daa770f9f566dde7e4c9f", "is_disabled": 0, "is_reserved": 0, "bike_id": "9245f878135daa770f9f566dde7e4c9f", "lat": 38.9219615, "type": "electric_scooter"}, {"fusion_lat": 0.0, "fusion_lon": 0.0, "rental_uris": {"android": "https://dc.lft.to/lastmile_qr_scan", "ios": "https://dc.lft.to/lastmile_qr_scan"}, "lon": -77.042219, "name": "f51b65c549ceb917637b1da258b7e82b", "is_disabled": 0, "is_reserved": 0, "bike_id": "f51b65c549ceb917637b1da258b7e82b", "lat": 38.922982833333336, "type": "electric_scooter"}, {"fusion_lat": 0.0, "fusion_lon": 0.0, "rental_uris": {"android": "https://dc.lft.to/lastmile_qr_scan", "ios": "https://dc.lft.to/lastmile_qr_scan"}, "lon": -77.04154733333333, "name": "6761450476d64d59648dd38bc5122c87", "is_disabled": 0, "is_reserved": 0, "bike_id": "6761450476d64d59648dd38bc5122c87", "lat": 38.901242833333335, "type": "electric_scooter"}, {"fusion_lat": 0.0, "fusion_lon": 0.0, "rental_uris": {"android": "https://dc.lft.to/lastmile_qr_scan", "ios": "https://dc.lft.to/lastmile_qr_scan"}, "lon": -77.001139, "name": "d95a8282fd341d791535006266d58d18", "is_disabled": 0, "is_reserved": 0, "bike_id": "d95a8282fd341d791535006266d58d18", "lat": 38.87375083333333, "type": "electric_scooter"}, {"fusion_lat": 0.0, "fusion_lon": 0.0, "rental_uris": {"android": "https://dc.lft.to/lastmile_qr_scan", "ios": "https://dc.lft.to/lastmile_qr_scan"}, "lon": -77.01949016666667, "name": "2333b4ceedac9ce0db1849a89e71104b", "is_disabled": 0, "is_reserved": 0, "bike_id": "2333b4ceedac9ce0db1849a89e71104b", "lat": 38.924194, "type": "electric_scooter"}, {"fusion_lat": 0.0, "fusion_lon": 0.0, "rental_uris": {"android": "https://dc.lft.to/lastmile_qr_scan", "ios": "https://dc.lft.to/lastmile_qr_scan"}, "lon": -77.06097516666667, "name": "5dc77320b2cd8e342bbd36fc384e5158", "is_disabled": 0, "is_reserved": 0, "bike_id": "5dc77320b2cd8e342bbd36fc384e5158", "lat": 38.905217666666665, "type": "electric_scooter"}, {"fusion_lat": 0.0, "fusion_lon": 0.0, "rental_uris": {"android": "https://dc.lft.to/lastmile_qr_scan", "ios": "https://dc.lft.to/lastmile_qr_scan"}, "lon": -77.04537516666667, "name": "d2bcb6042b98215f2c559d76e8bd2f89", "is_disabled": 0, "is_reserved": 0, "bike_id": "d2bcb6042b98215f2c559d76e8bd2f89", "lat": 38.91185983333333, "type": "electric_scooter"}, {"fusion_lat": 0.0, "fusion_lon": 0.0, "rental_uris": {"android": "https://dc.lft.to/lastmile_qr_scan", "ios": "https://dc.lft.to/lastmile_qr_scan"}, "lon": -77.01164033333333, "name": "44723090cd9c473a14a38a6f5a6c88be", "is_disabled": 0, "is_reserved": 0, "bike_id": "44723090cd9c473a14a38a6f5a6c88be", "lat": 38.91113516666667, "type": "electric_scooter"}, {"fusion_lat": 0.0, "fusion_lon": 0.0, "rental_uris": {"android": "https://dc.lft.to/lastmile_qr_scan", "ios": "https://dc.lft.to/lastmile_qr_scan"}, "lon": -77.076537, "name": "ee72a74b8606d6381ee383f90e8f9534", "is_disabled": 0, "is_reserved": 0, "bike_id": "ee72a74b8606d6381ee383f90e8f9534", "lat": 38.943206, "type": "electric_scooter"}, {"fusion_lat": 0.0, "fusion_lon": 0.0, "rental_uris": {"android": "https://dc.lft.to/lastmile_qr_scan", "ios": "https://dc.lft.to/lastmile_qr_scan"}, "lon": -77.035222, "name": "ab5197ab1bbcd6aa2804796287120dfc", "is_disabled": 0, "is_reserved": 0, "bike_id": "ab5197ab1bbcd6aa2804796287120dfc", "lat": 38.92532833333333, "type": "electric_scooter"}, {"fusion_lat": 0.0, "fusion_lon": 0.0, "rental_uris": {"android": "https://dc.lft.to/lastmile_qr_scan", "ios": "https://dc.lft.to/lastmile_qr_scan"}, "lon": -77.03398233333333, "name": "d2a0bb1d9bcdd3f0683cb2e650dbae2b", "is_disabled": 0, "is_reserved": 0, "bike_id": "d2a0bb1d9bcdd3f0683cb2e650dbae2b", "lat": 38.9219815, "type": "electric_scooter"}, {"fusion_lat": 0.0, "fusion_lon": 0.0, "rental_uris": {"android": "https://dc.lft.to/lastmile_qr_scan", "ios": "https://dc.lft.to/lastmile_qr_scan"}, "lon": -77.020865, "name": "ab5243481d9bde1f36ed705b90f46465", "is_disabled": 0, "is_reserved": 0, "bike_id": "ab5243481d9bde1f36ed705b90f46465", "lat": 38.92111583333333, "type": "electric_scooter"}, {"fusion_lat": 0.0, "fusion_lon": 0.0, "rental_uris": {"android": "https://dc.lft.to/lastmile_qr_scan", "ios": "https://dc.lft.to/lastmile_qr_scan"}, "lon": -76.9854125, "name": "4b304ce739c5f0e748531346ce85c635", "is_disabled": 0, "is_reserved": 0, "bike_id": "4b304ce739c5f0e748531346ce85c635", "lat": 38.87995516666667, "type": "electric_scooter"}, {"fusion_lat": 0.0, "fusion_lon": 0.0, "rental_uris": {"android": "https://dc.lft.to/lastmile_qr_scan", "ios": "https://dc.lft.to/lastmile_qr_scan"}, "lon": -77.02502166666666, "name": "d445728c350228503063e4d5e4611abe", "is_disabled": 0, "is_reserved": 0, "bike_id": "d445728c350228503063e4d5e4611abe", "lat": 38.90725716666667, "type": "electric_scooter"}, {"fusion_lat": 0.0, "fusion_lon": 0.0, "rental_uris": {"android": "https://dc.lft.to/lastmile_qr_scan", "ios": "https://dc.lft.to/lastmile_qr_scan"}, "lon": -77.03826216666667, "name": "6ef1da6d3c370b821b0a249adb040949", "is_disabled": 0, "is_reserved": 0, "bike_id": "6ef1da6d3c370b821b0a249adb040949", "lat": 38.912665833333335, "type": "electric_scooter"}, {"fusion_lat": 0.0, "fusion_lon": 0.0, "rental_uris": {"android": "https://dc.lft.to/lastmile_qr_scan", "ios": "https://dc.lft.to/lastmile_qr_scan"}, "lon": -77.0550815, "name": "2d29e37fbfc2e57591c5f3b3e8b96af3", "is_disabled": 0, "is_reserved": 0, "bike_id": "2d29e37fbfc2e57591c5f3b3e8b96af3", "lat": 38.92949333333333, "type": "electric_scooter"}, {"fusion_lat": 0.0, "fusion_lon": 0.0, "rental_uris": {"android": "https://dc.lft.to/lastmile_qr_scan", "ios": "https://dc.lft.to/lastmile_qr_scan"}, "lon": -77.002443, "name": "1ba364a3d9feac07f85262dd208b6b6e", "is_disabled": 0, "is_reserved": 0, "bike_id": "1ba364a3d9feac07f85262dd208b6b6e", "lat": 38.87484116666667, "type": "electric_scooter"}, {"fusion_lat": 0.0, "fusion_lon": 0.0, "rental_uris": {"android": "https://dc.lft.to/lastmile_qr_scan", "ios": "https://dc.lft.to/lastmile_qr_scan"}, "lon": -77.03968983333333, "name": "d20feb953975a54c7b1af0c3e883d64e", "is_disabled": 0, "is_reserved": 0, "bike_id": "d20feb953975a54c7b1af0c3e883d64e", "lat": 38.90297416666667, "type": "electric_scooter"}, {"fusion_lat": 0.0, "fusion_lon": 0.0, "rental_uris": {"android": "https://dc.lft.to/lastmile_qr_scan", "ios": "https://dc.lft.to/lastmile_qr_scan"}, "lon": -77.02410616666667, "name": "41243ae146b4ca2b9746f595e7dad2a3", "is_disabled": 0, "is_reserved": 0, "bike_id": "41243ae146b4ca2b9746f595e7dad2a3", "lat": 38.9056555, "type": "electric_scooter"}, {"fusion_lat": 0.0, "fusion_lon": 0.0, "rental_uris": {"android": "https://dc.lft.to/lastmile_qr_scan", "ios": "https://dc.lft.to/lastmile_qr_scan"}, "lon": -77.00588733333333, "name": "b40d9f64c2d69338b616cb5eb414b2ee", "is_disabled": 0, "is_reserved": 0, "bike_id": "b40d9f64c2d69338b616cb5eb414b2ee", "lat": 38.875516166666664, "type": "electric_scooter"}, {"fusion_lat": 0.0, "fusion_lon": 0.0, "rental_uris": {"android": "https://dc.lft.to/lastmile_qr_scan", "ios": "https://dc.lft.to/lastmile_qr_scan"}, "lon": -77.03634716666667, "name": "5836b0abb6a4d7d7eb913b8540825b3c", "is_disabled": 0, "is_reserved": 0, "bike_id": "5836b0abb6a4d7d7eb913b8540825b3c", "lat": 38.927357666666666, "type": "electric_scooter"}, {"fusion_lat": 0.0, "fusion_lon": 0.0, "rental_uris": {"android": "https://dc.lft.to/lastmile_qr_scan", "ios": "https://dc.lft.to/lastmile_qr_scan"}, "lon": -76.99083933333333, "name": "59c757f76940e0f7f48755fc141e8eb4", "is_disabled": 0, "is_reserved": 0, "bike_id": "59c757f76940e0f7f48755fc141e8eb4", "lat": 38.9426925, "type": "electric_bike"}, {"fusion_lat": 0.0, "fusion_lon": 0.0, "rental_uris": {"android": "https://dc.lft.to/lastmile_qr_scan", "ios": "https://dc.lft.to/lastmile_qr_scan"}, "lon": -77.03635666666666, "name": "dc52b333e99697a1639936a7c5d6b4c7", "is_disabled": 0, "is_reserved": 0, "bike_id": "dc52b333e99697a1639936a7c5d6b4c7", "lat": 38.90689416666667, "type": "electric_scooter"}, {"fusion_lat": 0.0, "fusion_lon": 0.0, "rental_uris": {"android": "https://dc.lft.to/lastmile_qr_scan", "ios": "https://dc.lft.to/lastmile_qr_scan"}, "lon": -76.975379, "name": "8f4476325d9274342ff9e2249e3d2efa", "is_disabled": 0, "is_reserved": 0, "bike_id": "8f4476325d9274342ff9e2249e3d2efa", "lat": 38.90321316666667, "type": "electric_scooter"}, {"fusion_lat": 0.0, "fusion_lon": 0.0, "rental_uris": {"android": "https://dc.lft.to/lastmile_qr_scan", "ios": "https://dc.lft.to/lastmile_qr_scan"}, "lon": -77.0438305, "name": "825f167961a2488572e2b45b009b9757", "is_disabled": 0, "is_reserved": 0, "bike_id": "825f167961a2488572e2b45b009b9757", "lat": 38.907271333333334, "type": "electric_scooter"}, {"fusion_lat": 0.0, "fusion_lon": 0.0, "rental_uris": {"android": "https://dc.lft.to/lastmile_qr_scan", "ios": "https://dc.lft.to/lastmile_qr_scan"}, "lon": -77.02487866666667, "name": "c15b7b3512c674b6a47869257cf02d66", "is_disabled": 0, "is_reserved": 0, "bike_id": "c15b7b3512c674b6a47869257cf02d66", "lat": 38.9418485, "type": "electric_scooter"}, {"fusion_lat": 0.0, "fusion_lon": 0.0, "rental_uris": {"android": "https://dc.lft.to/lastmile_qr_scan", "ios": "https://dc.lft.to/lastmile_qr_scan"}, "lon": -76.93731733333334, "name": "75e68819b5792b97273552c0e89e51ac", "is_disabled": 0, "is_reserved": 0, "bike_id": "75e68819b5792b97273552c0e89e51ac", "lat": 38.89021233333333, "type": "electric_scooter"}, {"fusion_lat": 0.0, "fusion_lon": 0.0, "rental_uris": {"android": "https://dc.lft.to/lastmile_qr_scan", "ios": "https://dc.lft.to/lastmile_qr_scan"}, "lon": -76.94941283333333, "name": "a63050ed9711612c70ac655a77b0c0b5", "is_disabled": 0, "is_reserved": 0, "bike_id": "a63050ed9711612c70ac655a77b0c0b5", "lat": 38.893617166666665, "type": "electric_scooter"}, {"fusion_lat": 0.0, "fusion_lon": 0.0, "rental_uris": {"android": "https://dc.lft.to/lastmile_qr_scan", "ios": "https://dc.lft.to/lastmile_qr_scan"}, "lon": -77.01410483333333, "name": "61d392c36adeae7c24341df77a08f467", "is_disabled": 0, "is_reserved": 0, "bike_id": "61d392c36adeae7c24341df77a08f467", "lat": 38.9279815, "type": "electric_scooter"}, {"fusion_lat": 0.0, "fusion_lon": 0.0, "rental_uris": {"android": "https://dc.lft.to/lastmile_qr_scan", "ios": "https://dc.lft.to/lastmile_qr_scan"}, "lon": -77.00926916666667, "name": "d7c3dd6217946d5f6282ce49c3e89d53", "is_disabled": 0, "is_reserved": 0, "bike_id": "d7c3dd6217946d5f6282ce49c3e89d53", "lat": 38.89604533333333, "type": "electric_scooter"}, {"fusion_lat": 0.0, "fusion_lon": 0.0, "rental_uris": {"android": "https://dc.lft.to/lastmile_qr_scan", "ios": "https://dc.lft.to/lastmile_qr_scan"}, "lon": -77.0876335, "name": "b63b3d267c2a13c5634b6375e161a347", "is_disabled": 0, "is_reserved": 0, "bike_id": "b63b3d267c2a13c5634b6375e161a347", "lat": 38.806490333333336, "type": "electric_bike"}, {"fusion_lat": 0.0, "fusion_lon": 0.0, "rental_uris": {"android": "https://dc.lft.to/lastmile_qr_scan", "ios": "https://dc.lft.to/lastmile_qr_scan"}, "lon": -77.01899133333333, "name": "38d0a098433aa3dd200a568d2cb6a8e2", "is_disabled": 0, "is_reserved": 0, "bike_id": "38d0a098433aa3dd200a568d2cb6a8e2", "lat": 38.9051885, "type": "electric_scooter"}, {"fusion_lat": 0.0, "fusion_lon": 0.0, "rental_uris": {"android": "https://dc.lft.to/lastmile_qr_scan", "ios": "https://dc.lft.to/lastmile_qr_scan"}, "lon": -77.04491833333333, "name": "b3fc923da5814bbf2546400e1c992129", "is_disabled": 0, "is_reserved": 0, "bike_id": "b3fc923da5814bbf2546400e1c992129", "lat": 38.904764666666665, "type": "electric_scooter"}, {"fusion_lat": 0.0, "fusion_lon": 0.0, "rental_uris": {"android": "https://dc.lft.to/lastmile_qr_scan", "ios": "https://dc.lft.to/lastmile_qr_scan"}, "lon": -77.00211333333333, "name": "9174647c425fbba189d95cc400d88189", "is_disabled": 0, "is_reserved": 0, "bike_id": "9174647c425fbba189d95cc400d88189", "lat": 38.8952405, "type": "electric_scooter"}, {"fusion_lat": 0.0, "fusion_lon": 0.0, "rental_uris": {"android": "https://dc.lft.to/lastmile_qr_scan", "ios": "https://dc.lft.to/lastmile_qr_scan"}, "lon": -77.0127105, "name": "b955e905aa8f0697b6510be073430495", "is_disabled": 0, "is_reserved": 0, "bike_id": "b955e905aa8f0697b6510be073430495", "lat": 38.91539083333333, "type": "electric_scooter"}, {"fusion_lat": 0.0, "fusion_lon": 0.0, "rental_uris": {"android": "https://dc.lft.to/lastmile_qr_scan", "ios": "https://dc.lft.to/lastmile_qr_scan"}, "lon": -77.03642283333333, "name": "44aa1667374a90558615062a75b9de37", "is_disabled": 0, "is_reserved": 0, "bike_id": "44aa1667374a90558615062a75b9de37", "lat": 38.9173415, "type": "electric_scooter"}, {"fusion_lat": 0.0, "fusion_lon": 0.0, "rental_uris": {"android": "https://dc.lft.to/lastmile_qr_scan", "ios": "https://dc.lft.to/lastmile_qr_scan"}, "lon": -76.95753633333334, "name": "6b747ba5c0c0bb09ffdb87ae5111abce", "is_disabled": 0, "is_reserved": 0, "bike_id": "6b747ba5c0c0bb09ffdb87ae5111abce", "lat": 38.88422816666667, "type": "electric_scooter"}, {"fusion_lat": 0.0, "fusion_lon": 0.0, "rental_uris": {"android": "https://dc.lft.to/lastmile_qr_scan", "ios": "https://dc.lft.to/lastmile_qr_scan"}, "lon": -77.08921766666667, "name": "19b0f6a89f4d0de60f3f35eb7450fc02", "is_disabled": 0, "is_reserved": 0, "bike_id": "19b0f6a89f4d0de60f3f35eb7450fc02", "lat": 38.8633575, "type": "electric_bike"}, {"fusion_lat": 0.0, "fusion_lon": 0.0, "rental_uris": {"android": "https://dc.lft.to/lastmile_qr_scan", "ios": "https://dc.lft.to/lastmile_qr_scan"}, "lon": -76.99792783333334, "name": "c90e62ec2a3bba37a8c3248d0630adf6", "is_disabled": 0, "is_reserved": 0, "bike_id": "c90e62ec2a3bba37a8c3248d0630adf6", "lat": 38.95086083333333, "type": "electric_bike"}, {"fusion_lat": 0.0, "fusion_lon": 0.0, "rental_uris": {"android": "https://dc.lft.to/lastmile_qr_scan", "ios": "https://dc.lft.to/lastmile_qr_scan"}, "lon": -77.04021633333333, "name": "7623e9bafd9bf9d6d58bec9f289f1f12", "is_disabled": 0, "is_reserved": 0, "bike_id": "7623e9bafd9bf9d6d58bec9f289f1f12", "lat": 38.924471, "type": "electric_scooter"}, {"fusion_lat": 0.0, "fusion_lon": 0.0, "rental_uris": {"android": "https://dc.lft.to/lastmile_qr_scan", "ios": "https://dc.lft.to/lastmile_qr_scan"}, "lon": -77.03589483333333, "name": "6e6ae8599d66ae2fc055339e60d89320", "is_disabled": 0, "is_reserved": 0, "bike_id": "6e6ae8599d66ae2fc055339e60d89320", "lat": 38.936715666666665, "type": "electric_scooter"}, {"fusion_lat": 0.0, "fusion_lon": 0.0, "rental_uris": {"android": "https://dc.lft.to/lastmile_qr_scan", "ios": "https://dc.lft.to/lastmile_qr_scan"}, "lon": -77.04178083333333, "name": "772164460bc6341134444056ad8be979", "is_disabled": 0, "is_reserved": 0, "bike_id": "772164460bc6341134444056ad8be979", "lat": 38.91392783333333, "type": "electric_scooter"}, {"fusion_lat": 0.0, "fusion_lon": 0.0, "rental_uris": {"android": "https://dc.lft.to/lastmile_qr_scan", "ios": "https://dc.lft.to/lastmile_qr_scan"}, "lon": -76.99041783333334, "name": "096bc56d70cc71dfc5495ff508a407eb", "is_disabled": 0, "is_reserved": 0, "bike_id": "096bc56d70cc71dfc5495ff508a407eb", "lat": 38.89793616666667, "type": "electric_bike"}, {"fusion_lat": 0.0, "fusion_lon": 0.0, "rental_uris": {"android": "https://dc.lft.to/lastmile_qr_scan", "ios": "https://dc.lft.to/lastmile_qr_scan"}, "lon": -77.04147233333333, "name": "70e64b618e7f2477491d55d54acc6fd9", "is_disabled": 0, "is_reserved": 0, "bike_id": "70e64b618e7f2477491d55d54acc6fd9", "lat": 38.919627, "type": "electric_scooter"}, {"fusion_lat": 0.0, "fusion_lon": 0.0, "rental_uris": {"android": "https://dc.lft.to/lastmile_qr_scan", "ios": "https://dc.lft.to/lastmile_qr_scan"}, "lon": -76.946531, "name": "8f1a4856a48f13223ea64ec8ec21aafc", "is_disabled": 0, "is_reserved": 0, "bike_id": "8f1a4856a48f13223ea64ec8ec21aafc", "lat": 38.898269166666665, "type": "electric_scooter"}, {"fusion_lat": 0.0, "fusion_lon": 0.0, "rental_uris": {"android": "https://dc.lft.to/lastmile_qr_scan", "ios": "https://dc.lft.to/lastmile_qr_scan"}, "lon": -77.02971366666667, "name": "ac03c01b8151c1e5a37250ddc509e370", "is_disabled": 0, "is_reserved": 0, "bike_id": "ac03c01b8151c1e5a37250ddc509e370", "lat": 38.9226615, "type": "electric_scooter"}, {"fusion_lat": 0.0, "fusion_lon": 0.0, "rental_uris": {"android": "https://dc.lft.to/lastmile_qr_scan", "ios": "https://dc.lft.to/lastmile_qr_scan"}, "lon": -77.02123283333333, "name": "35aa27f55da053915ee19514c6017040", "is_disabled": 0, "is_reserved": 0, "bike_id": "35aa27f55da053915ee19514c6017040", "lat": 38.922364333333334, "type": "electric_scooter"}, {"fusion_lat": 0.0, "fusion_lon": 0.0, "rental_uris": {"android": "https://dc.lft.to/lastmile_qr_scan", "ios": "https://dc.lft.to/lastmile_qr_scan"}, "lon": -77.00583166666667, "name": "d8224f674e4924960a6dda26a0c9a20b", "is_disabled": 0, "is_reserved": 0, "bike_id": "d8224f674e4924960a6dda26a0c9a20b", "lat": 38.92942433333333, "type": "electric_scooter"}, {"fusion_lat": 0.0, "fusion_lon": 0.0, "rental_uris": {"android": "https://dc.lft.to/lastmile_qr_scan", "ios": "https://dc.lft.to/lastmile_qr_scan"}, "lon": -77.08656983333333, "name": "014d197548f628a3829a9c1b8c92299d", "is_disabled": 0, "is_reserved": 0, "bike_id": "014d197548f628a3829a9c1b8c92299d", "lat": 38.86245616666667, "type": "electric_bike"}, {"fusion_lat": 0.0, "fusion_lon": 0.0, "rental_uris": {"android": "https://dc.lft.to/lastmile_qr_scan", "ios": "https://dc.lft.to/lastmile_qr_scan"}, "lon": -77.00181333333333, "name": "74b868ad16ed43874b404c3ee1d18fb3", "is_disabled": 0, "is_reserved": 0, "bike_id": "74b868ad16ed43874b404c3ee1d18fb3", "lat": 38.87668333333333, "type": "electric_scooter"}, {"fusion_lat": 0.0, "fusion_lon": 0.0, "rental_uris": {"android": "https://dc.lft.to/lastmile_qr_scan", "ios": "https://dc.lft.to/lastmile_qr_scan"}, "lon": -77.00874383333333, "name": "6fe4e6a33b0a01c1998240f41f5fa892", "is_disabled": 0, "is_reserved": 0, "bike_id": "6fe4e6a33b0a01c1998240f41f5fa892", "lat": 38.964627666666665, "type": "electric_bike"}, {"fusion_lat": 0.0, "fusion_lon": 0.0, "rental_uris": {"android": "https://dc.lft.to/lastmile_qr_scan", "ios": "https://dc.lft.to/lastmile_qr_scan"}, "lon": -77.02415, "name": "8f9522b64d89ed2bcc67bae361a77374", "is_disabled": 0, "is_reserved": 0, "bike_id": "8f9522b64d89ed2bcc67bae361a77374", "lat": 38.89690183333333, "type": "electric_scooter"}, {"fusion_lat": 0.0, "fusion_lon": 0.0, "rental_uris": {"android": "https://dc.lft.to/lastmile_qr_scan", "ios": "https://dc.lft.to/lastmile_qr_scan"}, "lon": -76.99778416666666, "name": "78c7db1d8fb9e75584e2cd8011fd6332", "is_disabled": 0, "is_reserved": 0, "bike_id": "78c7db1d8fb9e75584e2cd8011fd6332", "lat": 38.84435116666667, "type": "electric_scooter"}, {"fusion_lat": 0.0, "fusion_lon": 0.0, "rental_uris": {"android": "https://dc.lft.to/lastmile_qr_scan", "ios": "https://dc.lft.to/lastmile_qr_scan"}, "lon": -77.04340366666666, "name": "f081d0e53ea00304d6f171fdd913c93c", "is_disabled": 0, "is_reserved": 0, "bike_id": "f081d0e53ea00304d6f171fdd913c93c", "lat": 38.92814116666667, "type": "electric_scooter"}, {"fusion_lat": 0.0, "fusion_lon": 0.0, "rental_uris": {"android": "https://dc.lft.to/lastmile_qr_scan", "ios": "https://dc.lft.to/lastmile_qr_scan"}, "lon": -77.02381316666667, "name": "28768faa3334ff9dabbb3a6fa35e9721", "is_disabled": 0, "is_reserved": 0, "bike_id": "28768faa3334ff9dabbb3a6fa35e9721", "lat": 38.9166835, "type": "electric_scooter"}, {"fusion_lat": 0.0, "fusion_lon": 0.0, "rental_uris": {"android": "https://dc.lft.to/lastmile_qr_scan", "ios": "https://dc.lft.to/lastmile_qr_scan"}, "lon": -77.028986, "name": "7606cd16563337f42c2dea93bb21e051", "is_disabled": 0, "is_reserved": 0, "bike_id": "7606cd16563337f42c2dea93bb21e051", "lat": 38.92758366666666, "type": "electric_scooter"}, {"fusion_lat": 0.0, "fusion_lon": 0.0, "rental_uris": {"android": "https://dc.lft.to/lastmile_qr_scan", "ios": "https://dc.lft.to/lastmile_qr_scan"}, "lon": -77.04135133333334, "name": "34cd9c0b7e4c9fb075e99a0a9c1679e8", "is_disabled": 0, "is_reserved": 0, "bike_id": "34cd9c0b7e4c9fb075e99a0a9c1679e8", "lat": 38.9249275, "type": "electric_scooter"}, {"fusion_lat": 0.0, "fusion_lon": 0.0, "rental_uris": {"android": "https://dc.lft.to/lastmile_qr_scan", "ios": "https://dc.lft.to/lastmile_qr_scan"}, "lon": -76.992966, "name": "d4c787e12d23a7cc1f87e79bfb5975fd", "is_disabled": 0, "is_reserved": 0, "bike_id": "d4c787e12d23a7cc1f87e79bfb5975fd", "lat": 38.8576075, "type": "electric_scooter"}, {"fusion_lat": 0.0, "fusion_lon": 0.0, "rental_uris": {"android": "https://dc.lft.to/lastmile_qr_scan", "ios": "https://dc.lft.to/lastmile_qr_scan"}, "lon": -77.04402633333333, "name": "1e2dfe4c6334c02452259488b3b68bc9", "is_disabled": 0, "is_reserved": 0, "bike_id": "1e2dfe4c6334c02452259488b3b68bc9", "lat": 38.9000875, "type": "electric_scooter"}, {"fusion_lat": 0.0, "fusion_lon": 0.0, "rental_uris": {"android": "https://dc.lft.to/lastmile_qr_scan", "ios": "https://dc.lft.to/lastmile_qr_scan"}, "lon": -77.04880183333333, "name": "23fd8319ccc0169072c02baac4b04f19", "is_disabled": 0, "is_reserved": 0, "bike_id": "23fd8319ccc0169072c02baac4b04f19", "lat": 38.90468716666667, "type": "electric_scooter"}, {"fusion_lat": 0.0, "fusion_lon": 0.0, "rental_uris": {"android": "https://dc.lft.to/lastmile_qr_scan", "ios": "https://dc.lft.to/lastmile_qr_scan"}, "lon": -77.04361866666666, "name": "22d078fa083ff9e218ed7c71689ee866", "is_disabled": 0, "is_reserved": 0, "bike_id": "22d078fa083ff9e218ed7c71689ee866", "lat": 38.921200666666664, "type": "electric_scooter"}, {"fusion_lat": 0.0, "fusion_lon": 0.0, "rental_uris": {"android": "https://dc.lft.to/lastmile_qr_scan", "ios": "https://dc.lft.to/lastmile_qr_scan"}, "lon": -76.95176533333333, "name": "4a93097c28bb961b7aa1119ab53da336", "is_disabled": 0, "is_reserved": 0, "bike_id": "4a93097c28bb961b7aa1119ab53da336", "lat": 39.08444933333333, "type": "electric_bike"}, {"fusion_lat": 0.0, "fusion_lon": 0.0, "rental_uris": {"android": "https://dc.lft.to/lastmile_qr_scan", "ios": "https://dc.lft.to/lastmile_qr_scan"}, "lon": -77.05001, "name": "f219e1f1535cf8573bd973ff90cbbec2", "is_disabled": 0, "is_reserved": 0, "bike_id": "f219e1f1535cf8573bd973ff90cbbec2", "lat": 38.892255166666665, "type": "electric_scooter"}, {"fusion_lat": 0.0, "fusion_lon": 0.0, "rental_uris": {"android": "https://dc.lft.to/lastmile_qr_scan", "ios": "https://dc.lft.to/lastmile_qr_scan"}, "lon": -77.05150583333334, "name": "48564fa59042b0b20fbc767fe0fc185c", "is_disabled": 0, "is_reserved": 0, "bike_id": "48564fa59042b0b20fbc767fe0fc185c", "lat": 38.923734833333334, "type": "electric_scooter"}, {"fusion_lat": 0.0, "fusion_lon": 0.0, "rental_uris": {"android": "https://dc.lft.to/lastmile_qr_scan", "ios": "https://dc.lft.to/lastmile_qr_scan"}, "lon": -77.06383866666667, "name": "0faef4f682ed0d5d93918c0f610f7da1", "is_disabled": 0, "is_reserved": 0, "bike_id": "0faef4f682ed0d5d93918c0f610f7da1", "lat": 38.94500933333333, "type": "electric_scooter"}, {"fusion_lat": 0.0, "fusion_lon": 0.0, "rental_uris": {"android": "https://dc.lft.to/lastmile_qr_scan", "ios": "https://dc.lft.to/lastmile_qr_scan"}, "lon": -77.01951466666667, "name": "2fae34d4ba99aea46f22318b04e7a081", "is_disabled": 0, "is_reserved": 0, "bike_id": "2fae34d4ba99aea46f22318b04e7a081", "lat": 38.9232585, "type": "electric_scooter"}, {"fusion_lat": 0.0, "fusion_lon": 0.0, "rental_uris": {"android": "https://dc.lft.to/lastmile_qr_scan", "ios": "https://dc.lft.to/lastmile_qr_scan"}, "lon": -77.03420316666667, "name": "9d5752bd68a9ea577ffd334d1fc66774", "is_disabled": 0, "is_reserved": 0, "bike_id": "9d5752bd68a9ea577ffd334d1fc66774", "lat": 38.9025255, "type": "electric_scooter"}, {"fusion_lat": 0.0, "fusion_lon": 0.0, "rental_uris": {"android": "https://dc.lft.to/lastmile_qr_scan", "ios": "https://dc.lft.to/lastmile_qr_scan"}, "lon": -76.92653366666667, "name": "bdfccc177a18b50fc9b35ea3ffef995d", "is_disabled": 0, "is_reserved": 0, "bike_id": "bdfccc177a18b50fc9b35ea3ffef995d", "lat": 38.90171766666667, "type": "electric_scooter"}, {"fusion_lat": 0.0, "fusion_lon": 0.0, "rental_uris": {"android": "https://dc.lft.to/lastmile_qr_scan", "ios": "https://dc.lft.to/lastmile_qr_scan"}, "lon": -76.95245416666667, "name": "0cdff3c2370e06854a40f33da7b4d0ac", "is_disabled": 0, "is_reserved": 0, "bike_id": "0cdff3c2370e06854a40f33da7b4d0ac", "lat": 38.89044583333333, "type": "electric_scooter"}, {"fusion_lat": 0.0, "fusion_lon": 0.0, "rental_uris": {"android": "https://dc.lft.to/lastmile_qr_scan", "ios": "https://dc.lft.to/lastmile_qr_scan"}, "lon": -76.98891516666667, "name": "b32694ca1d430d3fba531bce88b4b245", "is_disabled": 0, "is_reserved": 0, "bike_id": "b32694ca1d430d3fba531bce88b4b245", "lat": 38.866631, "type": "electric_scooter"}, {"fusion_lat": 0.0, "fusion_lon": 0.0, "rental_uris": {"android": "https://dc.lft.to/lastmile_qr_scan", "ios": "https://dc.lft.to/lastmile_qr_scan"}, "lon": -77.010241, "name": "cfdbf71bb6a31a08a887ec98dbd21cc2", "is_disabled": 0, "is_reserved": 0, "bike_id": "cfdbf71bb6a31a08a887ec98dbd21cc2", "lat": 38.920273, "type": "electric_scooter"}, {"fusion_lat": 0.0, "fusion_lon": 0.0, "rental_uris": {"android": "https://dc.lft.to/lastmile_qr_scan", "ios": "https://dc.lft.to/lastmile_qr_scan"}, "lon": -77.03277833333334, "name": "0b0161c841605c0923a25a0693a1e365", "is_disabled": 0, "is_reserved": 0, "bike_id": "0b0161c841605c0923a25a0693a1e365", "lat": 38.89882766666667, "type": "electric_scooter"}, {"fusion_lat": 0.0, "fusion_lon": 0.0, "rental_uris": {"android": "https://dc.lft.to/lastmile_qr_scan", "ios": "https://dc.lft.to/lastmile_qr_scan"}, "lon": -77.02794366666667, "name": "91f5fb685b51c59ea01280ff9709aae2", "is_disabled": 0, "is_reserved": 0, "bike_id": "91f5fb685b51c59ea01280ff9709aae2", "lat": 38.8991975, "type": "electric_scooter"}, {"fusion_lat": 0.0, "fusion_lon": 0.0, "rental_uris": {"android": "https://dc.lft.to/lastmile_qr_scan", "ios": "https://dc.lft.to/lastmile_qr_scan"}, "lon": -77.03191533333333, "name": "b42d95466e20409909fb0dbc3202fd52", "is_disabled": 0, "is_reserved": 0, "bike_id": "b42d95466e20409909fb0dbc3202fd52", "lat": 38.90858866666667, "type": "electric_scooter"}, {"fusion_lat": 0.0, "fusion_lon": 0.0, "rental_uris": {"android": "https://dc.lft.to/lastmile_qr_scan", "ios": "https://dc.lft.to/lastmile_qr_scan"}, "lon": -77.04095883333333, "name": "bd39e36abe2f18751bb908e42f311eb4", "is_disabled": 0, "is_reserved": 0, "bike_id": "bd39e36abe2f18751bb908e42f311eb4", "lat": 38.917267833333334, "type": "electric_scooter"}, {"fusion_lat": 0.0, "fusion_lon": 0.0, "rental_uris": {"android": "https://dc.lft.to/lastmile_qr_scan", "ios": "https://dc.lft.to/lastmile_qr_scan"}, "lon": -77.02457216666667, "name": "82f3b37915d0dea5dfda979d3b106840", "is_disabled": 0, "is_reserved": 0, "bike_id": "82f3b37915d0dea5dfda979d3b106840", "lat": 38.917039833333334, "type": "electric_scooter"}, {"fusion_lat": 0.0, "fusion_lon": 0.0, "rental_uris": {"android": "https://dc.lft.to/lastmile_qr_scan", "ios": "https://dc.lft.to/lastmile_qr_scan"}, "lon": -76.98246316666666, "name": "44986e0550f314922cecc7572e0b6fbf", "is_disabled": 0, "is_reserved": 0, "bike_id": "44986e0550f314922cecc7572e0b6fbf", "lat": 38.895399833333336, "type": "electric_scooter"}, {"fusion_lat": 0.0, "fusion_lon": 0.0, "rental_uris": {"android": "https://dc.lft.to/lastmile_qr_scan", "ios": "https://dc.lft.to/lastmile_qr_scan"}, "lon": -77.02975816666667, "name": "28b9013cbf87ec2c66fea39788c38e26", "is_disabled": 0, "is_reserved": 0, "bike_id": "28b9013cbf87ec2c66fea39788c38e26", "lat": 38.89827666666667, "type": "electric_scooter"}, {"fusion_lat": 0.0, "fusion_lon": 0.0, "rental_uris": {"android": "https://dc.lft.to/lastmile_qr_scan", "ios": "https://dc.lft.to/lastmile_qr_scan"}, "lon": -77.03861633333334, "name": "d6ac98ae3e325614bb5bf914b4473413", "is_disabled": 0, "is_reserved": 0, "bike_id": "d6ac98ae3e325614bb5bf914b4473413", "lat": 38.9035245, "type": "electric_scooter"}, {"fusion_lat": 0.0, "fusion_lon": 0.0, "rental_uris": {"android": "https://dc.lft.to/lastmile_qr_scan", "ios": "https://dc.lft.to/lastmile_qr_scan"}, "lon": -77.05254366666666, "name": "b74eb28a51fb933354af8a0927b43953", "is_disabled": 0, "is_reserved": 0, "bike_id": "b74eb28a51fb933354af8a0927b43953", "lat": 38.927805, "type": "electric_scooter"}, {"fusion_lat": 0.0, "fusion_lon": 0.0, "rental_uris": {"android": "https://dc.lft.to/lastmile_qr_scan", "ios": "https://dc.lft.to/lastmile_qr_scan"}, "lon": -77.0279315, "name": "877397f3db97f6231c607e38b1e0b850", "is_disabled": 0, "is_reserved": 0, "bike_id": "877397f3db97f6231c607e38b1e0b850", "lat": 38.91705966666667, "type": "electric_scooter"}, {"fusion_lat": 0.0, "fusion_lon": 0.0, "rental_uris": {"android": "https://dc.lft.to/lastmile_qr_scan", "ios": "https://dc.lft.to/lastmile_qr_scan"}, "lon": -77.03194966666666, "name": "e82eb5b3f2459bf197c3b3b201f590ed", "is_disabled": 0, "is_reserved": 0, "bike_id": "e82eb5b3f2459bf197c3b3b201f590ed", "lat": 38.892321, "type": "electric_scooter"}, {"fusion_lat": 0.0, "fusion_lon": 0.0, "rental_uris": {"android": "https://dc.lft.to/lastmile_qr_scan", "ios": "https://dc.lft.to/lastmile_qr_scan"}, "lon": -76.94856466666667, "name": "33dfc0441669c022665636f1ee3bf477", "is_disabled": 0, "is_reserved": 0, "bike_id": "33dfc0441669c022665636f1ee3bf477", "lat": 38.882991, "type": "electric_scooter"}, {"fusion_lat": 0.0, "fusion_lon": 0.0, "rental_uris": {"android": "https://dc.lft.to/lastmile_qr_scan", "ios": "https://dc.lft.to/lastmile_qr_scan"}, "lon": -77.03452733333333, "name": "5d7a23e2170cc2a83b1730024ca22fc5", "is_disabled": 0, "is_reserved": 0, "bike_id": "5d7a23e2170cc2a83b1730024ca22fc5", "lat": 38.908427833333334, "type": "electric_scooter"}, {"fusion_lat": 0.0, "fusion_lon": 0.0, "rental_uris": {"android": "https://dc.lft.to/lastmile_qr_scan", "ios": "https://dc.lft.to/lastmile_qr_scan"}, "lon": -77.038028, "name": "6ee63dca3d73ae3ce08ce54a7639f835", "is_disabled": 0, "is_reserved": 0, "bike_id": "6ee63dca3d73ae3ce08ce54a7639f835", "lat": 38.90664733333333, "type": "electric_scooter"}, {"fusion_lat": 0.0, "fusion_lon": 0.0, "rental_uris": {"android": "https://dc.lft.to/lastmile_qr_scan", "ios": "https://dc.lft.to/lastmile_qr_scan"}, "lon": -77.04152183333333, "name": "952cb3cd10d17331143b7ad6f3efa1b0", "is_disabled": 0, "is_reserved": 0, "bike_id": "952cb3cd10d17331143b7ad6f3efa1b0", "lat": 38.892306, "type": "electric_scooter"}, {"fusion_lat": 0.0, "fusion_lon": 0.0, "rental_uris": {"android": "https://dc.lft.to/lastmile_qr_scan", "ios": "https://dc.lft.to/lastmile_qr_scan"}, "lon": -76.9900165, "name": "35ec9e1b9562d462f452c781883fdb9f", "is_disabled": 0, "is_reserved": 0, "bike_id": "35ec9e1b9562d462f452c781883fdb9f", "lat": 38.865021666666664, "type": "electric_scooter"}, {"fusion_lat": 0.0, "fusion_lon": 0.0, "rental_uris": {"android": "https://dc.lft.to/lastmile_qr_scan", "ios": "https://dc.lft.to/lastmile_qr_scan"}, "lon": -76.94813133333334, "name": "2b89130d03ab3c8645cb27f5cd4422b9", "is_disabled": 0, "is_reserved": 0, "bike_id": "2b89130d03ab3c8645cb27f5cd4422b9", "lat": 38.89370383333333, "type": "electric_scooter"}, {"fusion_lat": 0.0, "fusion_lon": 0.0, "rental_uris": {"android": "https://dc.lft.to/lastmile_qr_scan", "ios": "https://dc.lft.to/lastmile_qr_scan"}, "lon": -77.06416666666667, "name": "261f96115e0e59bc86a4d502946dcdda", "is_disabled": 0, "is_reserved": 0, "bike_id": "261f96115e0e59bc86a4d502946dcdda", "lat": 38.91346083333333, "type": "electric_scooter"}, {"fusion_lat": 0.0, "fusion_lon": 0.0, "rental_uris": {"android": "https://dc.lft.to/lastmile_qr_scan", "ios": "https://dc.lft.to/lastmile_qr_scan"}, "lon": -77.03246016666667, "name": "fe769c08451fa70d38de2bc286e30e71", "is_disabled": 0, "is_reserved": 0, "bike_id": "fe769c08451fa70d38de2bc286e30e71", "lat": 38.901447, "type": "electric_scooter"}, {"fusion_lat": 0.0, "fusion_lon": 0.0, "rental_uris": {"android": "https://dc.lft.to/lastmile_qr_scan", "ios": "https://dc.lft.to/lastmile_qr_scan"}, "lon": -77.03382516666667, "name": "74bccab6d4331eca3473b93a11ac308a", "is_disabled": 0, "is_reserved": 0, "bike_id": "74bccab6d4331eca3473b93a11ac308a", "lat": 38.921560166666666, "type": "electric_scooter"}, {"fusion_lat": 0.0, "fusion_lon": 0.0, "rental_uris": {"android": "https://dc.lft.to/lastmile_qr_scan", "ios": "https://dc.lft.to/lastmile_qr_scan"}, "lon": -76.995007, "name": "e4aa1a68b7401ce7eb55ab250bc5d8d8", "is_disabled": 0, "is_reserved": 0, "bike_id": "e4aa1a68b7401ce7eb55ab250bc5d8d8", "lat": 38.90980033333334, "type": "electric_scooter"}, {"fusion_lat": 0.0, "fusion_lon": 0.0, "rental_uris": {"android": "https://dc.lft.to/lastmile_qr_scan", "ios": "https://dc.lft.to/lastmile_qr_scan"}, "lon": -76.9808825, "name": "51cb6cdee5697564eff54983dcc0cb3d", "is_disabled": 0, "is_reserved": 0, "bike_id": "51cb6cdee5697564eff54983dcc0cb3d", "lat": 38.922433, "type": "electric_scooter"}, {"fusion_lat": 0.0, "fusion_lon": 0.0, "rental_uris": {"android": "https://dc.lft.to/lastmile_qr_scan", "ios": "https://dc.lft.to/lastmile_qr_scan"}, "lon": -76.995997, "name": "d89a36c988874465ae35e48977f689db", "is_disabled": 0, "is_reserved": 0, "bike_id": "d89a36c988874465ae35e48977f689db", "lat": 38.8569015, "type": "electric_scooter"}, {"fusion_lat": 0.0, "fusion_lon": 0.0, "rental_uris": {"android": "https://dc.lft.to/lastmile_qr_scan", "ios": "https://dc.lft.to/lastmile_qr_scan"}, "lon": -77.02345733333334, "name": "2a22018a49bb79225b8509912e499c00", "is_disabled": 0, "is_reserved": 0, "bike_id": "2a22018a49bb79225b8509912e499c00", "lat": 38.89386566666667, "type": "electric_scooter"}, {"fusion_lat": 0.0, "fusion_lon": 0.0, "rental_uris": {"android": "https://dc.lft.to/lastmile_qr_scan", "ios": "https://dc.lft.to/lastmile_qr_scan"}, "lon": -77.02724583333334, "name": "c0c43f9bab330477a2cbb458baf35f53", "is_disabled": 0, "is_reserved": 0, "bike_id": "c0c43f9bab330477a2cbb458baf35f53", "lat": 38.898303, "type": "electric_scooter"}, {"fusion_lat": 0.0, "fusion_lon": 0.0, "rental_uris": {"android": "https://dc.lft.to/lastmile_qr_scan", "ios": "https://dc.lft.to/lastmile_qr_scan"}, "lon": -77.04337266666667, "name": "831407f1efb580a4a106ee15358f333f", "is_disabled": 0, "is_reserved": 0, "bike_id": "831407f1efb580a4a106ee15358f333f", "lat": 38.9281585, "type": "electric_scooter"}, {"fusion_lat": 0.0, "fusion_lon": 0.0, "rental_uris": {"android": "https://dc.lft.to/lastmile_qr_scan", "ios": "https://dc.lft.to/lastmile_qr_scan"}, "lon": -77.0077145, "name": "c5558100be52e025d0a66ddd47f5858a", "is_disabled": 0, "is_reserved": 0, "bike_id": "c5558100be52e025d0a66ddd47f5858a", "lat": 38.907248, "type": "electric_scooter"}, {"fusion_lat": 0.0, "fusion_lon": 0.0, "rental_uris": {"android": "https://dc.lft.to/lastmile_qr_scan", "ios": "https://dc.lft.to/lastmile_qr_scan"}, "lon": -77.02382316666667, "name": "ed3bceb72c9a2c3e54f160b9340af388", "is_disabled": 0, "is_reserved": 0, "bike_id": "ed3bceb72c9a2c3e54f160b9340af388", "lat": 38.9071065, "type": "electric_scooter"},