{"data": {"bikes": [{"is_disabled": 0, "fusion_lon": 0.0, "fusion_lat": 0.0, "lat": 38.880396, "type": "electric_bike", "lon": -76.9901705, "bike_id": "f60984ab3cbc3bcaed9f459ca4214150", "rental_uris": {"android": "https://dc.lft.to/lastmile_qr_scan", "ios": "https://dc.lft.to/lastmile_qr_scan"}, "name": "f60984ab3cbc3bcaed9f459ca4214150", "is_reserved": 0}, {"is_disabled": 0, "fusion_lon": 0.0, "fusion_lat": 0.0, "lat": 38.92412233333334, "type": "electric_scooter", "lon": -77.05065916666666, "bike_id": "a0fd87d235992cf015b8991388a7e03c", "rental_uris": {"android": "https://dc.lft.to/lastmile_qr_scan", "ios": "https://dc.lft.to/lastmile_qr_scan"}, "name": "a0fd87d235992cf015b8991388a7e03c", "is_reserved": 0}, {"is_disabled": 0, "fusion_lon": 0.0, "fusion_lat": 0.0, "lat": 38.843009, "type": "electric_bike", "lon": -77.07641233333334, "bike_id": "be4870abd92d61e56815c08ee1943410", "rental_uris": {"android": "https://dc.lft.to/lastmile_qr_scan", "ios": "https://dc.lft.to/lastmile_qr_scan"}, "name": "be4870abd92d61e56815c08ee1943410", "is_reserved": 0}, {"is_disabled": 0, "fusion_lon": 0.0, "fusion_lat": 0.0, "lat": 38.90309283333333, "type": "electric_scooter", "lon": -77.0466145, "bike_id": "9ea97963cb8e8c4eda3f33949ea8e8a0", "rental_uris": {"android": "https://dc.lft.to/lastmile_qr_scan", "ios": "https://dc.lft.to/lastmile_qr_scan"}, "name": "9ea97963cb8e8c4eda3f33949ea8e8a0", "is_reserved": 0}, {"is_disabled": 0, "fusion_lon": 0.0, "fusion_lat": 0.0, "lat": 38.90838383333333, "type": "electric_scooter", "lon": -76.99694883333333, "bike_id": "ed9d45d2008092872748566237f84d0b", "rental_uris": {"android": "https://dc.lft.to/lastmile_qr_scan", "ios": "https://dc.lft.to/lastmile_qr_scan"}, "name": "ed9d45d2008092872748566237f84d0b", "is_reserved": 0}, {"is_disabled": 0, "fusion_lon": 0.0, "fusion_lat": 0.0, "lat": 38.906833, "type": "electric_scooter", "lon": -77.02694333333334, "bike_id": "4cfaffa5ca0a4be6eb62711484b02be0", "rental_uris": {"android": "https://dc.lft.to/lastmile_qr_scan", "ios": "https://dc.lft.to/lastmile_qr_scan"}, "name": "4cfaffa5ca0a4be6eb62711484b02be0", "is_reserved": 0}, {"is_disabled": 0, "fusion_lon": 0.0, "fusion_lat": 0.0, "lat": 38.87677633333333, "type": "electric_scooter", "lon": -77.01598983333334, "bike_id": "54c6a4f76bbccca674c0282c114e3629", "rental_uris": {"android": "https://dc.lft.to/lastmile_qr_scan", "ios": "https://dc.lft.to/lastmile_qr_scan"}, "name": "54c6a4f76bbccca674c0282c114e3629", "is_reserved": 0}, {"is_disabled": 0, "fusion_lon": 0.0, "fusion_lat": 0.0, "lat": 38.86624316666666, "type": "electric_scooter", "lon": -76.987143, "bike_id": "4ab20a6794f0ec6b78b530413ae166f0", "rental_uris": {"android": "https://dc.lft.to/lastmile_qr_scan", "ios": "https://dc.lft.to/lastmile_qr_scan"}, "name": "4ab20a6794f0ec6b78b530413ae166f0", "is_reserved": 0}, {"is_disabled": 0, "fusion_lon": 0.0, "fusion_lat": 0.0, "lat": 38.90629416666667, "type": "electric_scooter", "lon": -77.00598583333333, "bike_id": "c4b49e831af156533b49d0b358a88c9b", "rental_uris": {"android": "https://dc.lft.to/lastmile_qr_scan", "ios": "https://dc.lft.to/lastmile_qr_scan"}, "name": "c4b49e831af156533b49d0b358a88c9b", "is_reserved": 0}, {"is_disabled": 0, "fusion_lon": 0.0, "fusion_lat": 0.0, "lat": 38.911160833333334, "type": "electric_scooter", "lon": -77.03616283333334, "bike_id": "3fdc85da3d5a7f07759417fdfb4cac9d", "rental_uris": {"android": "https://dc.lft.to/lastmile_qr_scan", "ios": "https://dc.lft.to/lastmile_qr_scan"}, "name": "3fdc85da3d5a7f07759417fdfb4cac9d", "is_reserved": 0}, {"is_disabled": 0, "fusion_lon": 0.0, "fusion_lat": 0.0, "lat": 38.92577983333334, "type": "electric_scooter", "lon": -76.99486316666666, "bike_id": "a8bac96d8f99d3cf8b198d161944a674", "rental_uris": {"android": "https://dc.lft.to/lastmile_qr_scan", "ios": "https://dc.lft.to/lastmile_qr_scan"}, "name": "a8bac96d8f99d3cf8b198d161944a674", "is_reserved": 0}, {"is_disabled": 0, "fusion_lon": 0.0, "fusion_lat": 0.0, "lat": 38.916808833333334, "type": "electric_scooter", "lon": -77.02806216666667, "bike_id": "afa62f7b3539df75fc207b68b6f031ff", "rental_uris": {"android": "https://dc.lft.to/lastmile_qr_scan", "ios": "https://dc.lft.to/lastmile_qr_scan"}, "name": "afa62f7b3539df75fc207b68b6f031ff", "is_reserved": 0}, {"is_disabled": 0, "fusion_lon": 0.0, "fusion_lat": 0.0, "lat": 38.927506, "type": "electric_scooter", "lon": -77.033561, "bike_id": "ce565d3c48cf3e26568d9113bdfecbd3", "rental_uris": {"android": "https://dc.lft.to/lastmile_qr_scan", "ios": "https://dc.lft.to/lastmile_qr_scan"}, "name": "ce565d3c48cf3e26568d9113bdfecbd3", "is_reserved": 0}, {"is_disabled": 0, "fusion_lon": 0.0, "fusion_lat": 0.0, "lat": 38.905018, "type": "electric_scooter", "lon": -77.05685333333334, "bike_id": "b62bebea8fa79b187ef3506ba29ac52b", "rental_uris": {"android": "https://dc.lft.to/lastmile_qr_scan", "ios": "https://dc.lft.to/lastmile_qr_scan"}, "name": "b62bebea8fa79b187ef3506ba29ac52b", "is_reserved": 0}, {"is_disabled": 0, "fusion_lon": 0.0, "fusion_lat": 0.0, "lat": 38.90166333333333, "type": "electric_scooter", "lon": -77.05313566666666, "bike_id": "98e5e796d424523ebb155c9f7d032a5e", "rental_uris": {"android": "https://dc.lft.to/lastmile_qr_scan", "ios": "https://dc.lft.to/lastmile_qr_scan"}, "name": "98e5e796d424523ebb155c9f7d032a5e", "is_reserved": 0}, {"is_disabled": 0, "fusion_lon": 0.0, "fusion_lat": 0.0, "lat": 38.9203335, "type": "electric_scooter", "lon": -77.02586183333334, "bike_id": "cdfd7c05674768766b0801e651579473", "rental_uris": {"android": "https://dc.lft.to/lastmile_qr_scan", "ios": "https://dc.lft.to/lastmile_qr_scan"}, "name": "cdfd7c05674768766b0801e651579473", "is_reserved": 0}, {"is_disabled": 0, "fusion_lon": 0.0, "fusion_lat": 0.0, "lat": 38.913566333333335, "type": "electric_scooter", "lon": -77.0416735, "bike_id": "9e30b2393e12561ff62a59e7cdc9d4db", "rental_uris": {"android": "https://dc.lft.to/lastmile_qr_scan", "ios": "https://dc.lft.to/lastmile_qr_scan"}, "name": "9e30b2393e12561ff62a59e7cdc9d4db", "is_reserved": 0}, {"is_disabled": 0, "fusion_lon": 0.0, "fusion_lat": 0.0, "lat": 38.941993333333336, "type": "electric_scooter", "lon": -77.02577266666667, "bike_id": "c99cf9fbd8550f246c59a6e1e99b3007", "rental_uris": {"android": "https://dc.lft.to/lastmile_qr_scan", "ios": "https://dc.lft.to/lastmile_qr_scan"}, "name": "c99cf9fbd8550f246c59a6e1e99b3007", "is_reserved": 0}, {"is_disabled": 0, "fusion_lon": 0.0, "fusion_lat": 0.0, "lat": 38.91554516666667, "type": "electric_scooter", "lon": -77.04179233333333, "bike_id": "8fd02479ef7ee128a5cdd3f42ad6a09a", "rental_uris": {"android": "https://dc.lft.to/lastmile_qr_scan", "ios": "https://dc.lft.to/lastmile_qr_scan"}, "name": "8fd02479ef7ee128a5cdd3f42ad6a09a", "is_reserved": 0}, {"is_disabled": 0, "fusion_lon": 0.0, "fusion_lat": 0.0, "lat": 38.9882465, "type": "electric_bike", "lon": -76.9875725, "bike_id": "7b9ad8a2e1f28e599db2b5e01d77d74b", "rental_uris": {"android": "https://dc.lft.to/lastmile_qr_scan", "ios": "https://dc.lft.to/lastmile_qr_scan"}, "name": "7b9ad8a2e1f28e599db2b5e01d77d74b", "is_reserved": 0}, {"is_disabled": 0, "fusion_lon": 0.0, "fusion_lat": 0.0, "lat": 38.88278716666667, "type": "electric_scooter", "lon": -76.98776966666667, "bike_id": "2ac408dcb102f7afe45a96f3d8aa8de7", "rental_uris": {"android": "https://dc.lft.to/lastmile_qr_scan", "ios": "https://dc.lft.to/lastmile_qr_scan"}, "name": "2ac408dcb102f7afe45a96f3d8aa8de7", "is_reserved": 0}, {"is_disabled": 0, "fusion_lon": 0.0, "fusion_lat": 0.0, "lat": 38.87883516666667, "type": "electric_scooter", "lon": -77.0231655, "bike_id": "0b29740d16251a21346444c4861412d4", "rental_uris": {"android": "https://dc.lft.to/lastmile_qr_scan", "ios": "https://dc.lft.to/lastmile_qr_scan"}, "name": "0b29740d16251a21346444c4861412d4", "is_reserved": 0}, {"is_disabled": 0, "fusion_lon": 0.0, "fusion_lat": 0.0, "lat": 38.90472783333333, "type": "electric_bike", "lon": -76.92948683333333, "bike_id": "10561deff64d2a3a3e688abdc806183b", "rental_uris": {"android": "https://dc.lft.to/lastmile_qr_scan", "ios": "https://dc.lft.to/lastmile_qr_scan"}, "name": "10561deff64d2a3a3e688abdc806183b", "is_reserved": 0}, {"is_disabled": 0, "fusion_lon": 0.0, "fusion_lat": 0.0, "lat": 38.97526516666667, "type": "electric_bike", "lon": -77.0095295, "bike_id": "32908d9ea3fee57d60cb93ee15ce6734", "rental_uris": {"android": "https://dc.lft.to/lastmile_qr_scan", "ios": "https://dc.lft.to/lastmile_qr_scan"}, "name": "32908d9ea3fee57d60cb93ee15ce6734", "is_reserved": 0}, {"is_disabled": 0, "fusion_lon": 0.0, "fusion_lat": 0.0, "lat": 38.928573166666666, "type": "electric_scooter", "lon": -76.99763933333334, "bike_id": "a46d3469faf25ee3581fc52e1fd6b6da", "rental_uris": {"android": "https://dc.lft.to/lastmile_qr_scan", "ios": "https://dc.lft.to/lastmile_qr_scan"}, "name": "a46d3469faf25ee3581fc52e1fd6b6da", "is_reserved": 0}, {"is_disabled": 0, "fusion_lon": 0.0, "fusion_lat": 0.0, "lat": 38.916312833333336, "type": "electric_scooter", "lon": -77.04512083333333, "bike_id": "e38d764a696d39439a2be2318c897be7", "rental_uris": {"android": "https://dc.lft.to/lastmile_qr_scan", "ios": "https://dc.lft.to/lastmile_qr_scan"}, "name": "e38d764a696d39439a2be2318c897be7", "is_reserved": 0}, {"is_disabled": 0, "fusion_lon": 0.0, "fusion_lat": 0.0, "lat": 38.85281716666667, "type": "electric_bike", "lon": -76.9815165, "bike_id": "8fdd64b47cf00b0bf522487e7413778c", "rental_uris": {"android": "https://dc.lft.to/lastmile_qr_scan", "ios": "https://dc.lft.to/lastmile_qr_scan"}, "name": "8fdd64b47cf00b0bf522487e7413778c", "is_reserved": 0}, {"is_disabled": 0, "fusion_lon": 0.0, "fusion_lat": 0.0, "lat": 38.91344216666667, "type": "electric_scooter", "lon": -77.041634, "bike_id": "95a03f3b020bcba611e97d27894366fa", "rental_uris": {"android": "https://dc.lft.to/lastmile_qr_scan", "ios": "https://dc.lft.to/lastmile_qr_scan"}, "name": "95a03f3b020bcba611e97d27894366fa", "is_reserved": 0}, {"is_disabled": 0, "fusion_lon": 0.0, "fusion_lat": 0.0, "lat": 38.90778916666667, "type": "electric_scooter", "lon": -77.04671366666666, "bike_id": "169b500e6e2517a540ed44754dabaa7e", "rental_uris": {"android": "https://dc.lft.to/lastmile_qr_scan", "ios": "https://dc.lft.to/lastmile_qr_scan"}, "name": "169b500e6e2517a540ed44754dabaa7e", "is_reserved": 0}, {"is_disabled": 0, "fusion_lon": 0.0, "fusion_lat": 0.0, "lat": 38.902687666666665, "type": "electric_scooter", "lon": -77.03449983333333, "bike_id": "788d97cb56d7ddc39ec4d29fabe60681", "rental_uris": {"android": "https://dc.lft.to/lastmile_qr_scan", "ios": "https://dc.lft.to/lastmile_qr_scan"}, "name": "788d97cb56d7ddc39ec4d29fabe60681", "is_reserved": 0}, {"is_disabled": 0, "fusion_lon": 0.0, "fusion_lat": 0.0, "lat": 38.898332, "type": "electric_bike", "lon": -77.029757, "bike_id": "2decf2f955266a8f132d6e8bd4271a2e", "rental_uris": {"android": "https://dc.lft.to/lastmile_qr_scan", "ios": "https://dc.lft.to/lastmile_qr_scan"}, "name": "2decf2f955266a8f132d6e8bd4271a2e", "is_reserved": 0}, {"is_disabled": 0, "fusion_lon": 0.0, "fusion_lat": 0.0, "lat": 38.914129333333335, "type": "electric_scooter", "lon": -77.039925, "bike_id": "48191d913a74f26d5120b127701e7d31", "rental_uris": {"android": "https://dc.lft.to/lastmile_qr_scan", "ios": "https://dc.lft.to/lastmile_qr_scan"}, "name": "48191d913a74f26d5120b127701e7d31", "is_reserved": 0}, {"is_disabled": 0, "fusion_lon": 0.0, "fusion_lat": 0.0, "lat": 38.93412283333333, "type": "electric_scooter", "lon": -77.03890783333334, "bike_id": "be1dcaef6ad9820c8928eb296788efe6", "rental_uris": {"android": "https://dc.lft.to/lastmile_qr_scan", "ios": "https://dc.lft.to/lastmile_qr_scan"}, "name": "be1dcaef6ad9820c8928eb296788efe6", "is_reserved": 0}, {"is_disabled": 0, "fusion_lon": 0.0, "fusion_lat": 0.0, "lat": 38.904425, "type": "electric_scooter", "lon": -77.02418983333334, "bike_id": "84e66d69c7afce2f11052092cd90ad28", "rental_uris": {"android": "https://dc.lft.to/lastmile_qr_scan", "ios": "https://dc.lft.to/lastmile_qr_scan"}, "name": "84e66d69c7afce2f11052092cd90ad28", "is_reserved": 0}, {"is_disabled": 0, "fusion_lon": 0.0, "fusion_lat": 0.0, "lat": 38.929676, "type": "electric_scooter", "lon": -77.03249216666667, "bike_id": "c1b8e3071aab2202908727c65b8e9d51", "rental_uris": {"android": "https://dc.lft.to/lastmile_qr_scan", "ios": "https://dc.lft.to/lastmile_qr_scan"}, "name": "c1b8e3071aab2202908727c65b8e9d51", "is_reserved": 0}, {"is_disabled": 0, "fusion_lon": 0.0, "fusion_lat": 0.0, "lat": 38.90247766666667, "type": "electric_scooter", "lon": -77.027464, "bike_id": "c6d94b83813bfb45b4086f38efa89260", "rental_uris": {"android": "https://dc.lft.to/lastmile_qr_scan", "ios": "https://dc.lft.to/lastmile_qr_scan"}, "name": "c6d94b83813bfb45b4086f38efa89260", "is_reserved": 0}, {"is_disabled": 0, "fusion_lon": 0.0, "fusion_lat": 0.0, "lat": 38.833798333333334, "type": "electric_scooter", "lon": -76.99305716666667, "bike_id": "76a39222f9496703a50351507e3e5db6", "rental_uris": {"android": "https://dc.lft.to/lastmile_qr_scan", "ios": "https://dc.lft.to/lastmile_qr_scan"}, "name": "76a39222f9496703a50351507e3e5db6", "is_reserved": 0}, {"is_disabled": 0, "fusion_lon": 0.0, "fusion_lat": 0.0, "lat": 38.92610216666667, "type": "electric_scooter", "lon": -77.02409, "bike_id": "18c16c5b63d795346d8c81bf08b20e3e", "rental_uris": {"android": "https://dc.lft.to/lastmile_qr_scan", "ios": "https://dc.lft.to/lastmile_qr_scan"}, "name": "18c16c5b63d795346d8c81bf08b20e3e", "is_reserved": 0}, {"is_disabled": 0, "fusion_lon": 0.0, "fusion_lat": 0.0, "lat": 38.9314815, "type": "electric_scooter", "lon": -77.029105, "bike_id": "60da7c8fb527eca16eec648663d4451a", "rental_uris": {"android": "https://dc.lft.to/lastmile_qr_scan", "ios": "https://dc.lft.to/lastmile_qr_scan"}, "name": "60da7c8fb527eca16eec648663d4451a", "is_reserved": 0}, {"is_disabled": 0, "fusion_lon": 0.0, "fusion_lat": 0.0, "lat": 38.919078, "type": "electric_scooter", "lon": -77.01770366666666, "bike_id": "77bdbe9003503a75e7ec086ce9e7e79a", "rental_uris": {"android": "https://dc.lft.to/lastmile_qr_scan", "ios": "https://dc.lft.to/lastmile_qr_scan"}, "name": "77bdbe9003503a75e7ec086ce9e7e79a", "is_reserved": 0}, {"is_disabled": 0, "fusion_lon": 0.0, "fusion_lat": 0.0, "lat": 38.901037, "type": "electric_scooter", "lon": -77.0477525, "bike_id": "8eb9d0b6889299875331ac1a936977cf", "rental_uris": {"android": "https://dc.lft.to/lastmile_qr_scan", "ios": "https://dc.lft.to/lastmile_qr_scan"}, "name": "8eb9d0b6889299875331ac1a936977cf", "is_reserved": 0}, {"is_disabled": 0, "fusion_lon": 0.0, "fusion_lat": 0.0, "lat": 38.9010095, "type": "electric_scooter", "lon": -76.9883285, "bike_id": "e052692a083cf5351bb7b81b87fa4fec", "rental_uris": {"android": "https://dc.lft.to/lastmile_qr_scan", "ios": "https://dc.lft.to/lastmile_qr_scan"}, "name": "e052692a083cf5351bb7b81b87fa4fec", "is_reserved": 0}, {"is_disabled": 0, "fusion_lon": 0.0, "fusion_lat": 0.0, "lat": 38.927636666666665, "type": "electric_scooter", "lon": -77.02903866666666, "bike_id": "67a3e2cd9ee1466893e98d198b0c00ab", "rental_uris": {"android": "https://dc.lft.to/lastmile_qr_scan", "ios": "https://dc.lft.to/lastmile_qr_scan"}, "name": "67a3e2cd9ee1466893e98d198b0c00ab", "is_reserved": 0}, {"is_disabled": 0, "fusion_lon": 0.0, "fusion_lat": 0.0, "lat": 38.92466366666667, "type": "electric_scooter", "lon": -77.02709766666666, "bike_id": "33610a744f0d5f6424bc8333e7ffc48d", "rental_uris": {"android": "https://dc.lft.to/lastmile_qr_scan", "ios": "https://dc.lft.to/lastmile_qr_scan"}, "name": "33610a744f0d5f6424bc8333e7ffc48d", "is_reserved": 0}, {"is_disabled": 0, "fusion_lon": 0.0, "fusion_lat": 0.0, "lat": 38.9185085, "type": "electric_scooter", "lon": -77.0245085, "bike_id": "9d3fc2fe885ff7c53a099d70708f9d19", "rental_uris": {"android": "https://dc.lft.to/lastmile_qr_scan", "ios": "https://dc.lft.to/lastmile_qr_scan"}, "name": "9d3fc2fe885ff7c53a099d70708f9d19", "is_reserved": 0}, {"is_disabled": 0, "fusion_lon": 0.0, "fusion_lat": 0.0, "lat": 38.9205465, "type": "electric_scooter", "lon": -77.03389333333334, "bike_id": "d3c63e8922a9d5ae1b4860dc3e24d31a", "rental_uris": {"android": "https://dc.lft.to/lastmile_qr_scan", "ios": "https://dc.lft.to/lastmile_qr_scan"}, "name": "d3c63e8922a9d5ae1b4860dc3e24d31a", "is_reserved": 0}, {"is_disabled": 0, "fusion_lon": 0.0, "fusion_lat": 0.0, "lat": 38.903874333333334, "type": "electric_scooter", "lon": -77.004715, "bike_id": "d53ec54b8ee160d5fb1c01c7f8ba25a7", "rental_uris": {"android": "https://dc.lft.to/lastmile_qr_scan", "ios": "https://dc.lft.to/lastmile_qr_scan"}, "name": "d53ec54b8ee160d5fb1c01c7f8ba25a7", "is_reserved": 0}, {"is_disabled": 0, "fusion_lon": 0.0, "fusion_lat": 0.0, "lat": 38.932275833333335, "type": "electric_scooter", "lon": -76.99532266666667, "bike_id": "3c6500294133abbf94bb38ba521c3198", "rental_uris": {"android": "https://dc.lft.to/lastmile_qr_scan", "ios": "https://dc.lft.to/lastmile_qr_scan"}, "name": "3c6500294133abbf94bb38ba521c3198", "is_reserved": 0}, {"is_disabled": 0, "fusion_lon": 0.0, "fusion_lat": 0.0, "lat": 38.88990066666667, "type": "electric_scooter", "lon": -77.00046566666667, "bike_id": "eb3e4b3ef2ca69d3582abe87cff26e0c", "rental_uris": {"android": "https://dc.lft.to/lastmile_qr_scan", "ios": "https://dc.lft.to/lastmile_qr_scan"}, "name": "eb3e4b3ef2ca69d3582abe87cff26e0c", "is_reserved": 0}, {"is_disabled": 0, "fusion_lon": 0.0, "fusion_lat": 0.0, "lat": 39.0520405, "type": "electric_bike", "lon": -77.04406116666667, "bike_id": "3a453e6bb841c812c7de2fd68d2efdf5", "rental_uris": {"android": "https://dc.lft.to/lastmile_qr_scan", "ios": "https://dc.lft.to/lastmile_qr_scan"}, "name": "3a453e6bb841c812c7de2fd68d2efdf5", "is_reserved": 0}, {"is_disabled": 0, "fusion_lon": 0.0, "fusion_lat": 0.0, "lat": 38.920618, "type": "electric_scooter", "lon": -77.04354616666667, "bike_id": "bd343fcddbff5b33f7a1f14c19020639", "rental_uris": {"android": "https://dc.lft.to/lastmile_qr_scan", "ios": "https://dc.lft.to/lastmile_qr_scan"}, "name": "bd343fcddbff5b33f7a1f14c19020639", "is_reserved": 0}, {"is_disabled": 0, "fusion_lon": 0.0, "fusion_lat": 0.0, "lat": 38.89794966666667, "type": "electric_scooter", "lon": -77.02388966666666, "bike_id": "a288c0d3006f02046963016165160bc9", "rental_uris": {"android": "https://dc.lft.to/lastmile_qr_scan", "ios": "https://dc.lft.to/lastmile_qr_scan"}, "name": "a288c0d3006f02046963016165160bc9", "is_reserved": 0}, {"is_disabled": 0, "fusion_lon": 0.0, "fusion_lat": 0.0, "lat": 38.897286333333334, "type": "electric_bike", "lon": -76.90544683333333, "bike_id": "b6eaf2f484ed2ad6ae7f495c1a1ffa87", "rental_uris": {"android": "https://dc.lft.to/lastmile_qr_scan", "ios": "https://dc.lft.to/lastmile_qr_scan"}, "name": "b6eaf2f484ed2ad6ae7f495c1a1ffa87", "is_reserved": 0}, {"is_disabled": 0, "fusion_lon": 0.0, "fusion_lat": 0.0, "lat": 38.91847583333333, "type": "electric_scooter", "lon": -77.024523, "bike_id": "c192ac4f3fd523b060b9ca047727c8b1", "rental_uris": {"android": "https://dc.lft.to/lastmile_qr_scan", "ios": "https://dc.lft.to/lastmile_qr_scan"}, "name": "c192ac4f3fd523b060b9ca047727c8b1", "is_reserved": 0}, {"is_disabled": 0, "fusion_lon": 0.0, "fusion_lat": 0.0, "lat": 38.905391333333334, "type": "electric_scooter", "lon": -77.02209483333333, "bike_id": "9596fbc6a3fbd7487135b03b81303779", "rental_uris": {"android": "https://dc.lft.to/lastmile_qr_scan", "ios": "https://dc.lft.to/lastmile_qr_scan"}, "name": "9596fbc6a3fbd7487135b03b81303779", "is_reserved": 0}, {"is_disabled": 0, "fusion_lon": 0.0, "fusion_lat": 0.0, "lat": 38.94096833333333, "type": "electric_scooter", "lon": -77.07735266666667, "bike_id": "0a58e0f282fe32b8686b7fdc87730c04", "rental_uris": {"android": "https://dc.lft.to/lastmile_qr_scan", "ios": "https://dc.lft.to/lastmile_qr_scan"}, "name": "0a58e0f282fe32b8686b7fdc87730c04", "is_reserved": 0}, {"is_disabled": 0, "fusion_lon": 0.0, "fusion_lat": 0.0, "lat": 38.96814533333333, "type": "electric_scooter", "lon": -77.0088935, "bike_id": "4630d5202ca46da57b24ce369bfa6505", "rental_uris": {"android": "https://dc.lft.to/lastmile_qr_scan", "ios": "https://dc.lft.to/lastmile_qr_scan"}, "name": "4630d5202ca46da57b24ce369bfa6505", "is_reserved": 0}, {"is_disabled": 0, "fusion_lon": 0.0, "fusion_lat": 0.0, "lat": 38.83173933333333, "type": "electric_bike", "lon": -76.99748183333334, "bike_id": "d16ab4a90f9fc0586a2221093d4664b3", "rental_uris": {"android": "https://dc.lft.to/lastmile_qr_scan", "ios": "https://dc.lft.to/lastmile_qr_scan"}, "name": "d16ab4a90f9fc0586a2221093d4664b3", "is_reserved": 0}, {"is_disabled": 0, "fusion_lon": 0.0, "fusion_lat": 0.0, "lat": 38.901172, "type": "electric_scooter", "lon": -77.04066733333333, "bike_id": "74acf42108d45e25f075d8b7dc157a36", "rental_uris": {"android": "https://dc.lft.to/lastmile_qr_scan", "ios": "https://dc.lft.to/lastmile_qr_scan"}, "name": "74acf42108d45e25f075d8b7dc157a36", "is_reserved": 0}, {"is_disabled": 0, "fusion_lon": 0.0, "fusion_lat": 0.0, "lat": 38.913802, "type": "electric_scooter", "lon": -77.02974483333334, "bike_id": "f0049fdd42e9f8c4f65c68c34aa7ba52", "rental_uris": {"android": "https://dc.lft.to/lastmile_qr_scan", "ios": "https://dc.lft.to/lastmile_qr_scan"}, "name": "f0049fdd42e9f8c4f65c68c34aa7ba52", "is_reserved": 0}, {"is_disabled": 0, "fusion_lon": 0.0, "fusion_lat": 0.0, "lat": 38.92707983333333, "type": "electric_scooter", "lon": -76.97208133333334, "bike_id": "7de6fa2003ddae348335e4242dcfd297", "rental_uris": {"android": "https://dc.lft.to/lastmile_qr_scan", "ios": "https://dc.lft.to/lastmile_qr_scan"}, "name": "7de6fa2003ddae348335e4242dcfd297", "is_reserved": 0}, {"is_disabled": 0, "fusion_lon": 0.0, "fusion_lat": 0.0, "lat": 38.908353, "type": "electric_scooter", "lon": -77.03338283333333, "bike_id": "f197b6594a399214b6aebbc0d937b765", "rental_uris": {"android": "https://dc.lft.to/lastmile_qr_scan", "ios": "https://dc.lft.to/lastmile_qr_scan"}, "name": "f197b6594a399214b6aebbc0d937b765", "is_reserved": 0}, {"is_disabled": 0, "fusion_lon": 0.0, "fusion_lat": 0.0, "lat": 38.9065205, "type": "electric_scooter", "lon": -77.0253925, "bike_id": "b4b043384b26936a90b577646a211f38", "rental_uris": {"android": "https://dc.lft.to/lastmile_qr_scan", "ios": "https://dc.lft.to/lastmile_qr_scan"}, "name": "b4b043384b26936a90b577646a211f38", "is_reserved": 0}, {"is_disabled": 0, "fusion_lon": 0.0, "fusion_lat": 0.0, "lat": 38.892603, "type": "electric_scooter", "lon": -76.94155766666667, "bike_id": "d14d77b4533ce755382574d06be5e57a", "rental_uris": {"android": "https://dc.lft.to/lastmile_qr_scan", "ios": "https://dc.lft.to/lastmile_qr_scan"}, "name": "d14d77b4533ce755382574d06be5e57a", "is_reserved": 0}, {"is_disabled": 0, "fusion_lon": 0.0, "fusion_lat": 0.0, "lat": 38.929372666666666, "type": "electric_scooter", "lon": -77.03286683333333, "bike_id": "6161bc701d5bd8b4b77ced02425647f2", "rental_uris": {"android": "https://dc.lft.to/lastmile_qr_scan", "ios": "https://dc.lft.to/lastmile_qr_scan"}, "name": "6161bc701d5bd8b4b77ced02425647f2", "is_reserved": 0}, {"is_disabled": 0, "fusion_lon": 0.0, "fusion_lat": 0.0, "lat": 38.9130815, "type": "electric_scooter", "lon": -77.03173783333334, "bike_id": "f7cb0a2563ff27f0592a6aeddd86c818", "rental_uris": {"android": "https://dc.lft.to/lastmile_qr_scan", "ios": "https://dc.lft.to/lastmile_qr_scan"}, "name": "f7cb0a2563ff27f0592a6aeddd86c818", "is_reserved": 0}, {"is_disabled": 0, "fusion_lon": 0.0, "fusion_lat": 0.0, "lat": 38.911091, "type": "electric_scooter", "lon": -77.02856416666667, "bike_id": "f1045799d8d504d1873ff9dd2999a782", "rental_uris": {"android": "https://dc.lft.to/lastmile_qr_scan", "ios": "https://dc.lft.to/lastmile_qr_scan"}, "name": "f1045799d8d504d1873ff9dd2999a782", "is_reserved": 0}, {"is_disabled": 0, "fusion_lon": 0.0, "fusion_lat": 0.0, "lat": 38.88348766666667, "type": "electric_scooter", "lon": -76.9278535, "bike_id": "cfb0b7b0a89d20a57d08cc8db4dcc3bd", "rental_uris": {"android": "https://dc.lft.to/lastmile_qr_scan", "ios": "https://dc.lft.to/lastmile_qr_scan"}, "name": "cfb0b7b0a89d20a57d08cc8db4dcc3bd", "is_reserved": 0}, {"is_disabled": 0, "fusion_lon": 0.0, "fusion_lat": 0.0, "lat": 38.92815316666667, "type": "electric_scooter", "lon": -77.01400633333333, "bike_id": "78cbfbafee2dd11f430290a8c88e4695", "rental_uris": {"android": "https://dc.lft.to/lastmile_qr_scan", "ios": "https://dc.lft.to/lastmile_qr_scan"}, "name": "78cbfbafee2dd11f430290a8c88e4695", "is_reserved": 0}, {"is_disabled": 0, "fusion_lon": 0.0, "fusion_lat": 0.0, "lat": 38.90548833333333, "type": "electric_scooter", "lon": -77.05700816666666, "bike_id": "f023d081339e6d7479e07f125f71abd7", "rental_uris": {"android": "https://dc.lft.to/lastmile_qr_scan", "ios": "https://dc.lft.to/lastmile_qr_scan"}, "name": "f023d081339e6d7479e07f125f71abd7", "is_reserved": 0}, {"is_disabled": 0, "fusion_lon": 0.0, "fusion_lat": 0.0, "lat": 38.836024, "type": "electric_scooter", "lon": -77.00359416666667, "bike_id": "a9b9780f066316c4951893ed83900888", "rental_uris": {"android": "https://dc.lft.to/lastmile_qr_scan", "ios": "https://dc.lft.to/lastmile_qr_scan"}, "name": "a9b9780f066316c4951893ed83900888", "is_reserved": 0}, {"is_disabled": 0, "fusion_lon": 0.0, "fusion_lat": 0.0, "lat": 38.998788, "type": "electric_bike", "lon": -77.02881916666666, "bike_id": "0ddad9e4cf1a0dcc2e5b08adc9541e13", "rental_uris": {"android": "https://dc.lft.to/lastmile_qr_scan", "ios": "https://dc.lft.to/lastmile_qr_scan"}, "name": "0ddad9e4cf1a0dcc2e5b08adc9541e13", "is_reserved": 0}, {"is_disabled": 0, "fusion_lon": 0.0, "fusion_lat": 0.0, "lat": 38.96760883333334, "type": "electric_bike", "lon": -77.09158533333333, "bike_id": "9b06c4dd0f88f61503161b17ed89a0d5", "rental_uris": {"android": "https://dc.lft.to/lastmile_qr_scan", "ios": "https://dc.lft.to/lastmile_qr_scan"}, "name": "9b06c4dd0f88f61503161b17ed89a0d5", "is_reserved": 0}, {"is_disabled": 0, "fusion_lon": 0.0, "fusion_lat": 0.0, "lat": 38.9046445, "type": "electric_scooter", "lon": -77.04185466666667, "bike_id": "412c3842ce485215930a3a9a85273edb", "rental_uris": {"android": "https://dc.lft.to/lastmile_qr_scan", "ios": "https://dc.lft.to/lastmile_qr_scan"}, "name": "412c3842ce485215930a3a9a85273edb", "is_reserved": 0}, {"is_disabled": 0, "fusion_lon": 0.0, "fusion_lat": 0.0, "lat": 38.93631366666666, "type": "electric_scooter", "lon": -77.03658783333333, "bike_id": "c11dce8476f3821532444dc0a1eee5ec", "rental_uris": {"android": "https://dc.lft.to/lastmile_qr_scan", "ios": "https://dc.lft.to/lastmile_qr_scan"}, "name": "c11dce8476f3821532444dc0a1eee5ec", "is_reserved": 0}, {"is_disabled": 0, "fusion_lon": 0.0, "fusion_lat": 0.0, "lat": 38.858069666666665, "type": "electric_scooter", "lon": -76.986546, "bike_id": "9d803d1234f0fdb0e7774064e356134c", "rental_uris": {"android": "https://dc.lft.to/lastmile_qr_scan", "ios": "https://dc.lft.to/lastmile_qr_scan"}, "name": "9d803d1234f0fdb0e7774064e356134c", "is_reserved": 0}, {"is_disabled": 0, "fusion_lon": 0.0, "fusion_lat": 0.0, "lat": 38.86319183333333, "type": "electric_scooter", "lon": -76.9905265, "bike_id": "e5777f34512dfe96bd680cafdaee08e7", "rental_uris": {"android": "https://dc.lft.to/lastmile_qr_scan", "ios": "https://dc.lft.to/lastmile_qr_scan"}, "name": "e5777f34512dfe96bd680cafdaee08e7", "is_reserved": 0}, {"is_disabled": 0, "fusion_lon": 0.0, "fusion_lat": 0.0, "lat": 38.91477283333333, "type": "electric_scooter", "lon": -76.98358116666667, "bike_id": "da440e3b4ea4cc590ca999879e80166b", "rental_uris": {"android": "https://dc.lft.to/lastmile_qr_scan", "ios": "https://dc.lft.to/lastmile_qr_scan"}, "name": "da440e3b4ea4cc590ca999879e80166b", "is_reserved": 0}, {"is_disabled": 0, "fusion_lon": 0.0, "fusion_lat": 0.0, "lat": 38.91930766666667, "type": "electric_scooter", "lon": -77.025025, "bike_id": "9f4025db9e757c2027f6801c11b7420f", "rental_uris": {"android": "https://dc.lft.to/lastmile_qr_scan", "ios": "https://dc.lft.to/lastmile_qr_scan"}, "name": "9f4025db9e757c2027f6801c11b7420f", "is_reserved": 0}, {"is_disabled": 0, "fusion_lon": 0.0, "fusion_lat": 0.0, "lat": 38.908523, "type": "electric_scooter", "lon": -77.06342016666666, "bike_id": "f053c33ef6af1eb2a02f01d52c4a7e87", "rental_uris": {"android": "https://dc.lft.to/lastmile_qr_scan", "ios": "https://dc.lft.to/lastmile_qr_scan"}, "name": "f053c33ef6af1eb2a02f01d52c4a7e87", "is_reserved": 0}, {"is_disabled": 0, "fusion_lon": 0.0, "fusion_lat": 0.0, "lat": 38.85866466666667, "type": "electric_scooter", "lon": -76.99023533333333, "bike_id": "e691f8aef9bcef9a4ead5708b9b95d04", "rental_uris": {"android": "https://dc.lft.to/lastmile_qr_scan", "ios": "https://dc.lft.to/lastmile_qr_scan"}, "name": "e691f8aef9bcef9a4ead5708b9b95d04", "is_reserved": 0}, {"is_disabled": 0, "fusion_lon": 0.0, "fusion_lat": 0.0, "lat": 38.92435183333333, "type": "electric_scooter", "lon": -77.05199583333334, "bike_id": "5c6ec75c2ec6da5e933fdebbb0a9d39b", "rental_uris": {"android": "https://dc.lft.to/lastmile_qr_scan", "ios": "https://dc.lft.to/lastmile_qr_scan"}, "name": "5c6ec75c2ec6da5e933fdebbb0a9d39b", "is_reserved": 0}, {"is_disabled": 0, "fusion_lon": 0.0, "fusion_lat": 0.0, "lat": 38.916744, "type": "electric_scooter", "lon": -77.034713, "bike_id": "2e83e16bdeb73fa856b0c82a015974cb", "rental_uris": {"android": "https://dc.lft.to/lastmile_qr_scan", "ios": "https://dc.lft.to/lastmile_qr_scan"}, "name": "2e83e16bdeb73fa856b0c82a015974cb", "is_reserved": 0}, {"is_disabled": 0, "fusion_lon": 0.0, "fusion_lat": 0.0, "lat": 38.902451666666664, "type": "electric_scooter", "lon": -77.03886983333334, "bike_id": "62a958223c9915b7cbb0a931396eae61", "rental_uris": {"android": "https://dc.lft.to/lastmile_qr_scan", "ios": "https://dc.lft.to/lastmile_qr_scan"}, "name": "62a958223c9915b7cbb0a931396eae61", "is_reserved": 0}, {"is_disabled": 0, "fusion_lon": 0.0, "fusion_lat": 0.0, "lat": 38.94040233333333, "type": "electric_scooter", "lon": -77.02911783333333, "bike_id": "6a7391f406e2ee9e5318443233836934", "rental_uris": {"android": "https://dc.lft.to/lastmile_qr_scan", "ios": "https://dc.lft.to/lastmile_qr_scan"}, "name": "6a7391f406e2ee9e5318443233836934", "is_reserved": 0}, {"is_disabled": 0, "fusion_lon": 0.0, "fusion_lat": 0.0, "lat": 38.89731916666667, "type": "electric_scooter", "lon": -77.027113, "bike_id": "3032de0dabc64bb88fdf3c0eab169a59", "rental_uris": {"android": "https://dc.lft.to/lastmile_qr_scan", "ios": "https://dc.lft.to/lastmile_qr_scan"}, "name": "3032de0dabc64bb88fdf3c0eab169a59", "is_reserved": 0}, {"is_disabled": 0, "fusion_lon": 0.0, "fusion_lat": 0.0, "lat": 38.972501333333334, "type": "electric_bike", "lon": -76.99272433333333, "bike_id": "5a9ecf9faf833adcdfbe298e64b69198", "rental_uris": {"android": "https://dc.lft.to/lastmile_qr_scan", "ios": "https://dc.lft.to/lastmile_qr_scan"}, "name": "5a9ecf9faf833adcdfbe298e64b69198", "is_reserved": 0}, {"is_disabled": 0, "fusion_lon": 0.0, "fusion_lat": 0.0, "lat": 38.92612, "type": "electric_scooter", "lon": -77.02162466666667, "bike_id": "fb5cb1308cee49dd0bbb9b6c7f8793d4", "rental_uris": {"android": "https://dc.lft.to/lastmile_qr_scan", "ios": "https://dc.lft.to/lastmile_qr_scan"}, "name": "fb5cb1308cee49dd0bbb9b6c7f8793d4", "is_reserved": 0}, {"is_disabled": 0, "fusion_lon": 0.0, "fusion_lat": 0.0, "lat": 38.91990116666667, "type": "electric_scooter", "lon": -76.97315483333334, "bike_id": "650ab6e6efead0fe3984d50f1b17e6a2", "rental_uris": {"android": "https://dc.lft.to/lastmile_qr_scan", "ios": "https://dc.lft.to/lastmile_qr_scan"}, "name": "650ab6e6efead0fe3984d50f1b17e6a2", "is_reserved": 0}, {"is_disabled": 0, "fusion_lon": 0.0, "fusion_lat": 0.0, "lat": 38.92017333333333, "type": "electric_scooter", "lon": -77.03122983333333, "bike_id": "314d64fca818b2d072908314bd0174b1", "rental_uris": {"android": "https://dc.lft.to/lastmile_qr_scan", "ios": "https://dc.lft.to/lastmile_qr_scan"}, "name": "314d64fca818b2d072908314bd0174b1", "is_reserved": 0}, {"is_disabled": 0, "fusion_lon": 0.0, "fusion_lat": 0.0, "lat": 38.8937125, "type": "electric_scooter", "lon": -76.978165, "bike_id": "4646a77e66db4d4268319240461ef9cd", "rental_uris": {"android": "https://dc.lft.to/lastmile_qr_scan", "ios": "https://dc.lft.to/lastmile_qr_scan"}, "name": "4646a77e66db4d4268319240461ef9cd", "is_reserved": 0}, {"is_disabled": 0, "fusion_lon": 0.0, "fusion_lat": 0.0, "lat": 38.89825116666667, "type": "electric_scooter", "lon": -77.02798816666666, "bike_id": "f85fa5ee3a6ed71890d249983fcb607f", "rental_uris": {"android": "https://dc.lft.to/lastmile_qr_scan", "ios": "https://dc.lft.to/lastmile_qr_scan"}, "name": "f85fa5ee3a6ed71890d249983fcb607f", "is_reserved": 0}, {"is_disabled": 0, "fusion_lon": 0.0, "fusion_lat": 0.0, "lat": 38.89525416666667, "type": "electric_scooter", "lon": -77.002091, "bike_id": "aaf1f2a28b7a95250e55c7a5b97afaf1", "rental_uris": {"android": "https://dc.lft.to/lastmile_qr_scan", "ios": "https://dc.lft.to/lastmile_qr_scan"}, "name": "aaf1f2a28b7a95250e55c7a5b97afaf1", "is_reserved": 0}, {"is_disabled": 0, "fusion_lon": 0.0, "fusion_lat": 0.0, "lat": 38.96022983333334, "type": "electric_bike", "lon": -76.92724966666667, "bike_id": "7df9ba7983778d8835b7ec2bbe07b13f", "rental_uris": {"android": "https://dc.lft.to/lastmile_qr_scan", "ios": "https://dc.lft.to/lastmile_qr_scan"}, "name": "7df9ba7983778d8835b7ec2bbe07b13f", "is_reserved": 0}, {"is_disabled": 0, "fusion_lon": 0.0, "fusion_lat": 0.0, "lat": 38.897269666666666, "type": "electric_scooter", "lon": -77.02251833333334, "bike_id": "093ba3fdb4f17e0a3bf031bba1aa7c69", "rental_uris": {"android": "https://dc.lft.to/lastmile_qr_scan", "ios": "https://dc.lft.to/lastmile_qr_scan"}, "name": "093ba3fdb4f17e0a3bf031bba1aa7c69", "is_reserved": 0}, {"is_disabled": 0, "fusion_lon": 0.0, "fusion_lat": 0.0, "lat": 38.909510833333336, "type": "electric_scooter", "lon": -77.04767833333334, "bike_id": "f1821298748b65f1836ebfc66f828917", "rental_uris": {"android": "https://dc.lft.to/lastmile_qr_scan", "ios": "https://dc.lft.to/lastmile_qr_scan"}, "name": "f1821298748b65f1836ebfc66f828917", "is_reserved": 0}, {"is_disabled": 0, "fusion_lon": 0.0, "fusion_lat": 0.0, "lat": 38.900252333333334, "type": "electric_scooter", "lon": -77.03969866666667, "bike_id": "e4a4d4770b335bd40092242f7f14d77a", "rental_uris": {"android": "https://dc.lft.to/lastmile_qr_scan", "ios": "https://dc.lft.to/lastmile_qr_scan"}, "name": "e4a4d4770b335bd40092242f7f14d77a", "is_reserved": 0}, {"is_disabled": 0, "fusion_lon": 0.0, "fusion_lat": 0.0, "lat": 38.90305866666667, "type": "electric_scooter", "lon": -77.021329, "bike_id": "59ac43b78efa3cf1eed3257d0448fc0b", "rental_uris": {"android": "https://dc.lft.to/lastmile_qr_scan", "ios": "https://dc.lft.to/lastmile_qr_scan"}, "name": "59ac43b78efa3cf1eed3257d0448fc0b", "is_reserved": 0}, {"is_disabled": 0, "fusion_lon": 0.0, "fusion_lat": 0.0, "lat": 38.92965216666666, "type": "electric_bike", "lon": -77.0562535, "bike_id": "c139f7388bf5802757735385f552a79a", "rental_uris": {"android": "https://dc.lft.to/lastmile_qr_scan", "ios": "https://dc.lft.to/lastmile_qr_scan"}, "name": "c139f7388bf5802757735385f552a79a", "is_reserved": 0}, {"is_disabled": 0, "fusion_lon": 0.0, "fusion_lat": 0.0, "lat": 38.90257283333333, "type": "electric_scooter", "lon": -77.0405705, "bike_id": "8b000a550fe25a30623eabc2b4358009", "rental_uris": {"android": "https://dc.lft.to/lastmile_qr_scan", "ios": "https://dc.lft.to/lastmile_qr_scan"}, "name": "8b000a550fe25a30623eabc2b4358009", "is_reserved": 0}, {"is_disabled": 0, "fusion_lon": 0.0, "fusion_lat": 0.0, "lat": 38.937575, "type": "electric_scooter", "lon": -77.024958, "bike_id": "65ca79cfd184ae832da40720c8059267", "rental_uris": {"android": "https://dc.lft.to/lastmile_qr_scan", "ios": "https://dc.lft.to/lastmile_qr_scan"}, "name": "65ca79cfd184ae832da40720c8059267", "is_reserved": 0}, {"is_disabled": 0, "fusion_lon": 0.0, "fusion_lat": 0.0, "lat": 38.873196166666666, "type": "electric_scooter", "lon": -77.001796, "bike_id": "096c3d1af153bb98f414f5895635cb68", "rental_uris": {"android": "https://dc.lft.to/lastmile_qr_scan", "ios": "https://dc.lft.to/lastmile_qr_scan"}, "name": "096c3d1af153bb98f414f5895635cb68", "is_reserved": 0}, {"is_disabled": 0, "fusion_lon": 0.0, "fusion_lat": 0.0, "lat": 39.03884216666667, "type": "electric_bike", "lon": -77.1091015, "bike_id": "b9f686563bee47da0140a2c7ab341c60", "rental_uris": {"android": "https://dc.lft.to/lastmile_qr_scan", "ios": "https://dc.lft.to/lastmile_qr_scan"}, "name": "b9f686563bee47da0140a2c7ab341c60", "is_reserved": 0}, {"is_disabled": 0, "fusion_lon": 0.0, "fusion_lat": 0.0, "lat": 38.89758533333333, "type": "electric_scooter", "lon": -77.04819883333333, "bike_id": "c75541582f4b890821fd485a063371b4", "rental_uris": {"android": "https://dc.lft.to/lastmile_qr_scan", "ios": "https://dc.lft.to/lastmile_qr_scan"}, "name": "c75541582f4b890821fd485a063371b4", "is_reserved": 0}, {"is_disabled": 0, "fusion_lon": 0.0, "fusion_lat": 0.0, "lat": 38.93482, "type": "electric_scooter", "lon": -77.07265333333334, "bike_id": "48397a4e0503c35432465834be2718c4", "rental_uris": {"android": "https://dc.lft.to/lastmile_qr_scan", "ios": "https://dc.lft.to/lastmile_qr_scan"}, "name": "48397a4e0503c35432465834be2718c4", "is_reserved": 0}, {"is_disabled": 0, "fusion_lon": 0.0, "fusion_lat": 0.0, "lat": 38.936694833333334, "type": "electric_bike", "lon": -76.95204666666666, "bike_id": "47a5fc1b4141b13967152165533e0a41", "rental_uris": {"android": "https://dc.lft.to/lastmile_qr_scan", "ios": "https://dc.lft.to/lastmile_qr_scan"}, "name": "47a5fc1b4141b13967152165533e0a41", "is_reserved": 0}, {"is_disabled": 0, "fusion_lon": 0.0, "fusion_lat": 0.0, "lat": 38.9103715, "type": "electric_scooter", "lon": -77.04258516666667, "bike_id": "fe35d01d613bb069aed9057391f7decc", "rental_uris": {"android": "https://dc.lft.to/lastmile_qr_scan", "ios": "https://dc.lft.to/lastmile_qr_scan"}, "name": "fe35d01d613bb069aed9057391f7decc", "is_reserved": 0}, {"is_disabled": 0, "fusion_lon": 0.0, "fusion_lat": 0.0, "lat": 38.92577583333333, "type": "electric_scooter", "lon": -77.04013366666666, "bike_id": "fc9428f5dba0d8c9e544bbdbf7e26df7", "rental_uris": {"android": "https://dc.lft.to/lastmile_qr_scan", "ios": "https://dc.lft.to/lastmile_qr_scan"}, "name": "fc9428f5dba0d8c9e544bbdbf7e26df7", "is_reserved": 0}, {"is_disabled": 0, "fusion_lon": 0.0, "fusion_lat": 0.0, "lat": 38.90536916666667, "type": "electric_scooter", "lon": -77.057067, "bike_id": "276a74c0fbe69360a3e0faa000ed0ead", "rental_uris": {"android": "https://dc.lft.to/lastmile_qr_scan", "ios": "https://dc.lft.to/lastmile_qr_scan"}, "name": "276a74c0fbe69360a3e0faa000ed0ead", "is_reserved": 0}, {"is_disabled": 0, "fusion_lon": 0.0, "fusion_lat": 0.0, "lat": 38.90948516666667, "type": "electric_scooter", "lon": -77.04731733333334, "bike_id": "6c50fea04f2be8c10d5fca8ac29933c3", "rental_uris": {"android": "https://dc.lft.to/lastmile_qr_scan", "ios": "https://dc.lft.to/lastmile_qr_scan"}, "name": "6c50fea04f2be8c10d5fca8ac29933c3", "is_reserved": 0}, {"is_disabled": 0, "fusion_lon": 0.0, "fusion_lat": 0.0, "lat": 38.885795333333334, "type": "electric_scooter", "lon": -76.91906283333333, "bike_id": "1a648bd89504d6f0dfb2bd46714b6929", "rental_uris": {"android": "https://dc.lft.to/lastmile_qr_scan", "ios": "https://dc.lft.to/lastmile_qr_scan"}, "name": "1a648bd89504d6f0dfb2bd46714b6929", "is_reserved": 0}, {"is_disabled": 0, "fusion_lon": 0.0, "fusion_lat": 0.0, "lat": 38.9926595, "type": "electric_scooter", "lon": -77.0360955, "bike_id": "ed7c039bfd8791b4baa83130a9f0a0c5", "rental_uris": {"android": "https://dc.lft.to/lastmile_qr_scan", "ios": "https://dc.lft.to/lastmile_qr_scan"}, "name": "ed7c039bfd8791b4baa83130a9f0a0c5", "is_reserved": 0}, {"is_disabled": 0, "fusion_lon": 0.0, "fusion_lat": 0.0, "lat": 38.919470833333335, "type": "electric_scooter", "lon": -77.045046, "bike_id": "06572d795b62d0022f873fe60fad371b", "rental_uris": {"android": "https://dc.lft.to/lastmile_qr_scan", "ios": "https://dc.lft.to/lastmile_qr_scan"}, "name": "06572d795b62d0022f873fe60fad371b", "is_reserved": 0}, {"is_disabled": 0, "fusion_lon": 0.0, "fusion_lat": 0.0, "lat": 39.02686166666667, "type": "electric_bike", "lon": -77.12594383333334, "bike_id": "61949db767f8740d581e892321e813fd", "rental_uris": {"android": "https://dc.lft.to/lastmile_qr_scan", "ios": "https://dc.lft.to/lastmile_qr_scan"}, "name": "61949db767f8740d581e892321e813fd", "is_reserved": 0}, {"is_disabled": 0, "fusion_lon": 0.0, "fusion_lat": 0.0, "lat": 38.885040000000004, "type": "electric_scooter", "lon": -77.00324016666667, "bike_id": "58bc99852408584a9bffb286f3d2ba9a", "rental_uris": {"android": "https://dc.lft.to/lastmile_qr_scan", "ios": "https://dc.lft.to/lastmile_qr_scan"}, "name": "58bc99852408584a9bffb286f3d2ba9a", "is_reserved": 0}, {"is_disabled": 0, "fusion_lon": 0.0, "fusion_lat": 0.0, "lat": 38.9063755, "type": "electric_scooter", "lon": -76.98569133333334, "bike_id": "2f650ada2ac0ab3b96795cc13aa0ebec", "rental_uris": {"android": "https://dc.lft.to/lastmile_qr_scan", "ios": "https://dc.lft.to/lastmile_qr_scan"}, "name": "2f650ada2ac0ab3b96795cc13aa0ebec", "is_reserved": 0}, {"is_disabled": 0, "fusion_lon": 0.0, "fusion_lat": 0.0, "lat": 38.9051405, "type": "electric_bike", "lon": -76.981102, "bike_id": "d23f8e479fef2e68a11b26b54c437e3e", "rental_uris": {"android": "https://dc.lft.to/lastmile_qr_scan", "ios": "https://dc.lft.to/lastmile_qr_scan"}, "name": "d23f8e479fef2e68a11b26b54c437e3e", "is_reserved": 0}, {"is_disabled": 0, "fusion_lon": 0.0, "fusion_lat": 0.0, "lat": 38.91715966666667, "type": "electric_scooter", "lon": -77.098112, "bike_id": "2df2945e19c520706ff8b35986a7c4df", "rental_uris": {"android": "https://dc.lft.to/lastmile_qr_scan", "ios": "https://dc.lft.to/lastmile_qr_scan"}, "name": "2df2945e19c520706ff8b35986a7c4df", "is_reserved": 0}, {"is_disabled": 0, "fusion_lon": 0.0, "fusion_lat": 0.0, "lat": 38.91111716666666, "type": "electric_scooter", "lon": -77.03831433333333, "bike_id": "6032b1bf0bb4720d5252b1e1bd823145", "rental_uris": {"android": "https://dc.lft.to/lastmile_qr_scan", "ios": "https://dc.lft.to/lastmile_qr_scan"}, "name": "6032b1bf0bb4720d5252b1e1bd823145", "is_reserved": 0}, {"is_disabled": 0, "fusion_lon": 0.0, "fusion_lat": 0.0, "lat": 38.889871, "type": "electric_scooter", "lon": -77.00245116666666, "bike_id": "9bbfd2d84cb2c9a3bb593e014f71a807", "rental_uris": {"android": "https://dc.lft.to/lastmile_qr_scan", "ios": "https://dc.lft.to/lastmile_qr_scan"}, "name": "9bbfd2d84cb2c9a3bb593e014f71a807", "is_reserved": 0}, {"is_disabled": 0, "fusion_lon": 0.0, "fusion_lat": 0.0, "lat": 38.90952033333333, "type": "electric_scooter", "lon": -77.0288305, "bike_id": "b882bf50a1f8c64409008cb81d5c9ac4", "rental_uris": {"android": "https://dc.lft.to/lastmile_qr_scan", "ios": "https://dc.lft.to/lastmile_qr_scan"}, "name": "b882bf50a1f8c64409008cb81d5c9ac4", "is_reserved": 0}, {"is_disabled": 0, "fusion_lon": 0.0, "fusion_lat": 0.0, "lat": 38.898391333333336, "type": "electric_scooter", "lon": -77.02200966666666, "bike_id": "2302193b565e06b125e0f1ebb94ef2ba", "rental_uris": {"android": "https://dc.lft.to/lastmile_qr_scan", "ios": "https://dc.lft.to/lastmile_qr_scan"}, "name": "2302193b565e06b125e0f1ebb94ef2ba", "is_reserved": 0}, {"is_disabled": 0, "fusion_lon": 0.0, "fusion_lat": 0.0, "lat": 38.897971, "type": "electric_scooter", "lon": -76.93050066666666, "bike_id": "088c658a436e4b4288abe60b24363db6", "rental_uris": {"android": "https://dc.lft.to/lastmile_qr_scan", "ios": "https://dc.lft.to/lastmile_qr_scan"}, "name": "088c658a436e4b4288abe60b24363db6", "is_reserved": 0}, {"is_disabled": 0, "fusion_lon": 0.0, "fusion_lat": 0.0, "lat": 38.905592666666664, "type": "electric_scooter", "lon": -77.02794266666666, "bike_id": "f61a2e8a30fa1e1a424bb75361a1f467", "rental_uris": {"android": "https://dc.lft.to/lastmile_qr_scan", "ios": "https://dc.lft.to/lastmile_qr_scan"}, "name": "f61a2e8a30fa1e1a424bb75361a1f467", "is_reserved": 0}, {"is_disabled": 0, "fusion_lon": 0.0, "fusion_lat": 0.0, "lat": 38.935436833333334, "type": "electric_scooter", "lon": -77.05766216666666, "bike_id": "7843560c2339ebebf2e58e4df5477284", "rental_uris": {"android": "https://dc.lft.to/lastmile_qr_scan", "ios": "https://dc.lft.to/lastmile_qr_scan"}, "name": "7843560c2339ebebf2e58e4df5477284", "is_reserved": 0}, {"is_disabled": 0, "fusion_lon": 0.0, "fusion_lat": 0.0, "lat": 38.94249833333333, "type": "electric_scooter", "lon": -77.02167283333333, "bike_id": "ae0d01d60ce5bac032cf385707c29f48", "rental_uris": {"android": "https://dc.lft.to/lastmile_qr_scan", "ios": "https://dc.lft.to/lastmile_qr_scan"}, "name": "ae0d01d60ce5bac032cf385707c29f48", "is_reserved": 0}, {"is_disabled": 0, "fusion_lon": 0.0, "fusion_lat": 0.0, "lat": 38.867317, "type": "electric_scooter", "lon": -76.98848033333333, "bike_id": "bdd6b44c480bccbda7afb6552a62ae6e", "rental_uris": {"android": "https://dc.lft.to/lastmile_qr_scan", "ios": "https://dc.lft.to/lastmile_qr_scan"}, "name": "bdd6b44c480bccbda7afb6552a62ae6e", "is_reserved": 0}, {"is_disabled": 0, "fusion_lon": 0.0, "fusion_lat": 0.0, "lat": 38.87005633333333, "type": "electric_scooter", "lon": -77.01373116666667, "bike_id": "a8fe8b359712329939863bd7e747b0dd", "rental_uris": {"android": "https://dc.lft.to/lastmile_qr_scan", "ios": "https://dc.lft.to/lastmile_qr_scan"}, "name": "a8fe8b359712329939863bd7e747b0dd", "is_reserved": 0}, {"is_disabled": 0, "fusion_lon": 0.0, "fusion_lat": 0.0, "lat": 38.831523, "type": "electric_bike", "lon": -76.9968725, "bike_id": "903b0b2151235ae46195b2751e2afba4", "rental_uris": {"android": "https://dc.lft.to/lastmile_qr_scan", "ios": "https://dc.lft.to/lastmile_qr_scan"}, "name": "903b0b2151235ae46195b2751e2afba4", "is_reserved": 0}, {"is_disabled": 0, "fusion_lon": 0.0, "fusion_lat": 0.0, "lat": 38.949815666666666, "type": "electric_scooter", "lon": -77.02702533333333, "bike_id": "cdf9896b0243fd20b9a3b8524c6b6454", "rental_uris": {"android": "https://dc.lft.to/lastmile_qr_scan", "ios": "https://dc.lft.to/lastmile_qr_scan"}, "name": "cdf9896b0243fd20b9a3b8524c6b6454", "is_reserved": 0}, {"is_disabled": 0, "fusion_lon": 0.0, "fusion_lat": 0.0, "lat": 38.8853385, "type": "electric_scooter", "lon": -76.92697766666667, "bike_id": "209f00bb61702022c37aac286a0cbfcb", "rental_uris": {"android": "https://dc.lft.to/lastmile_qr_scan", "ios": "https://dc.lft.to/lastmile_qr_scan"}, "name": "209f00bb61702022c37aac286a0cbfcb", "is_reserved": 0}, {"is_disabled": 0, "fusion_lon": 0.0, "fusion_lat": 0.0, "lat": 38.93962966666667, "type": "electric_scooter", "lon": -77.03278483333334, "bike_id": "4e04e04ea8957243b6c5a0134a7ed9c0", "rental_uris": {"android": "https://dc.lft.to/lastmile_qr_scan", "ios": "https://dc.lft.to/lastmile_qr_scan"}, "name": "4e04e04ea8957243b6c5a0134a7ed9c0", "is_reserved": 0}, {"is_disabled": 0, "fusion_lon": 0.0, "fusion_lat": 0.0, "lat": 38.897435333333334, "type": "electric_scooter", "lon": -77.00040483333333, "bike_id": "441084003accc4c3d64283f5b181203d", "rental_uris": {"android": "https://dc.lft.to/lastmile_qr_scan", "ios": "https://dc.lft.to/lastmile_qr_scan"}, "name": "441084003accc4c3d64283f5b181203d", "is_reserved": 0}, {"is_disabled": 0, "fusion_lon": 0.0, "fusion_lat": 0.0, "lat": 38.95610116666667, "type": "electric_scooter", "lon": -77.02758, "bike_id": "b445f357ded40fe40021e81c0f03d263", "rental_uris": {"android": "https://dc.lft.to/lastmile_qr_scan", "ios": "https://dc.lft.to/lastmile_qr_scan"}, "name": "b445f357ded40fe40021e81c0f03d263", "is_reserved": 0}, {"is_disabled": 0, "fusion_lon": 0.0, "fusion_lat": 0.0, "lat": 38.82446783333333, "type": "electric_bike", "lon": -77.07039416666667, "bike_id": "f2deee8a82d9a5fb24ed964a25310a98", "rental_uris": {"android": "https://dc.lft.to/lastmile_qr_scan", "ios": "https://dc.lft.to/lastmile_qr_scan"}, "name": "f2deee8a82d9a5fb24ed964a25310a98", "is_reserved": 0}, {"is_disabled": 0, "fusion_lon": 0.0, "fusion_lat": 0.0, "lat": 38.89834183333333, "type": "electric_scooter", "lon": -76.94632583333333, "bike_id": "a82bc3689213420b2253fcc361176b48", "rental_uris": {"android": "https://dc.lft.to/lastmile_qr_scan", "ios": "https://dc.lft.to/lastmile_qr_scan"}, "name": "a82bc3689213420b2253fcc361176b48", "is_reserved": 0}, {"is_disabled": 0, "fusion_lon": 0.0, "fusion_lat": 0.0, "lat": 38.93479983333334, "type": "electric_scooter", "lon": -77.05793033333333, "bike_id": "c3047296f021095c5a48f219a9b36d49", "rental_uris": {"android": "https://dc.lft.to/lastmile_qr_scan", "ios": "https://dc.lft.to/lastmile_qr_scan"}, "name": "c3047296f021095c5a48f219a9b36d49", "is_reserved": 0}, {"is_disabled": 0, "fusion_lon": 0.0, "fusion_lat": 0.0, "lat": 38.90216433333333, "type": "electric_scooter", "lon": -77.02435016666666, "bike_id": "405be3130b973d660de405f4b6ab8829", "rental_uris": {"android": "https://dc.lft.to/lastmile_qr_scan", "ios": "https://dc.lft.to/lastmile_qr_scan"}, "name": "405be3130b973d660de405f4b6ab8829", "is_reserved": 0}, {"is_disabled": 0, "fusion_lon": 0.0, "fusion_lat": 0.0, "lat": 38.82782866666667, "type": "electric_bike", "lon": -77.11078116666667, "bike_id": "fa80639e345da76cacf13e5e7fd22b56", "rental_uris": {"android": "https://dc.lft.to/lastmile_qr_scan", "ios": "https://dc.lft.to/lastmile_qr_scan"}, "name": "fa80639e345da76cacf13e5e7fd22b56", "is_reserved": 0}, {"is_disabled": 0, "fusion_lon": 0.0, "fusion_lat": 0.0, "lat": 38.930235, "type": "electric_scooter", "lon": -77.03453, "bike_id": "ac677ee6a582b0d8b5d120891b5a0d59", "rental_uris": {"android": "https://dc.lft.to/lastmile_qr_scan", "ios": "https://dc.lft.to/lastmile_qr_scan"}, "name": "ac677ee6a582b0d8b5d120891b5a0d59", "is_reserved": 0}, {"is_disabled": 0, "fusion_lon": 0.0, "fusion_lat": 0.0, "lat": 38.99250516666667, "type": "electric_bike", "lon": -77.049925, "bike_id": "eaf17cc304b1f3905ef5c2a41562c946", "rental_uris": {"android": "https://dc.lft.to/lastmile_qr_scan", "ios": "https://dc.lft.to/lastmile_qr_scan"}, "name": "eaf17cc304b1f3905ef5c2a41562c946", "is_reserved": 0}, {"is_disabled": 0, "fusion_lon": 0.0, "fusion_lat": 0.0, "lat": 38.912645166666664, "type": "electric_scooter", "lon": -77.04095566666666, "bike_id": "7ccf9a9ab0fbcf74ccc9d0017ee8eac4", "rental_uris": {"android": "https://dc.lft.to/lastmile_qr_scan", "ios": "https://dc.lft.to/lastmile_qr_scan"}, "name": "7ccf9a9ab0fbcf74ccc9d0017ee8eac4", "is_reserved": 0}, {"is_disabled": 0, "fusion_lon": 0.0, "fusion_lat": 0.0, "lat": 38.89691033333333, "type": "electric_scooter", "lon": -77.02684483333333, "bike_id": "35795ee652362e4480955e7bacae3acc", "rental_uris": {"android": "https://dc.lft.to/lastmile_qr_scan", "ios": "https://dc.lft.to/lastmile_qr_scan"}, "name": "35795ee652362e4480955e7bacae3acc", "is_reserved": 0}, {"is_disabled": 0, "fusion_lon": 0.0, "fusion_lat": 0.0, "lat": 39.0065605, "type": "electric_bike", "lon": -76.90027383333333, "bike_id": "5fe5a4bc4c447c45648b529ab06a956b", "rental_uris": {"android": "https://dc.lft.to/lastmile_qr_scan", "ios": "https://dc.lft.to/lastmile_qr_scan"}, "name": "5fe5a4bc4c447c45648b529ab06a956b", "is_reserved": 0}, {"is_disabled": 0, "fusion_lon": 0.0, "fusion_lat": 0.0, "lat": 38.959885166666666, "type": "electric_bike", "lon": -76.99868966666666, "bike_id": "3429a25f759e6a1b87d42a4b69c76ebb", "rental_uris": {"android": "https://dc.lft.to/lastmile_qr_scan", "ios": "https://dc.lft.to/lastmile_qr_scan"}, "name": "3429a25f759e6a1b87d42a4b69c76ebb", "is_reserved": 0}, {"is_disabled": 0, "fusion_lon": 0.0, "fusion_lat": 0.0, "lat": 38.950771333333336, "type": "electric_scooter", "lon": -77.02872183333334, "bike_id": "6437b4e2ae01029cd08fcbf223ba301e", "rental_uris": {"android": "https://dc.lft.to/lastmile_qr_scan", "ios": "https://dc.lft.to/lastmile_qr_scan"}, "name": "6437b4e2ae01029cd08fcbf223ba301e", "is_reserved": 0}, {"is_disabled": 0, "fusion_lon": 0.0, "fusion_lat": 0.0, "lat": 38.8837485, "type": "electric_scooter", "lon": -76.92645883333333, "bike_id": "62fd33993890ee0e4194ad3d98d1ceb9", "rental_uris": {"android": "https://dc.lft.to/lastmile_qr_scan", "ios": "https://dc.lft.to/lastmile_qr_scan"}, "name": "62fd33993890ee0e4194ad3d98d1ceb9", "is_reserved": 0}, {"is_disabled": 0, "fusion_lon": 0.0, "fusion_lat": 0.0, "lat": 38.8962035, "type": "electric_scooter", "lon": -76.95634916666667, "bike_id": "203458d3cc95b0b887657845af8f54be", "rental_uris": {"android": "https://dc.lft.to/lastmile_qr_scan", "ios": "https://dc.lft.to/lastmile_qr_scan"}, "name": "203458d3cc95b0b887657845af8f54be", "is_reserved": 0}, {"is_disabled": 0, "fusion_lon": 0.0, "fusion_lat": 0.0, "lat": 38.902526, "type": "electric_scooter", "lon": -77.022014, "bike_id": "0b6cb9b04e11cefe52e1aed4651d5e8b", "rental_uris": {"android": "https://dc.lft.to/lastmile_qr_scan", "ios": "https://dc.lft.to/lastmile_qr_scan"}, "name": "0b6cb9b04e11cefe52e1aed4651d5e8b", "is_reserved": 0}, {"is_disabled": 0, "fusion_lon": 0.0, "fusion_lat": 0.0, "lat": 38.918799166666666, "type": "electric_scooter", "lon": -77.01595416666666, "bike_id": "0a35dcd05c1ab0337b4cd8ee6b477886", "rental_uris": {"android": "https://dc.lft.to/lastmile_qr_scan", "ios": "https://dc.lft.to/lastmile_qr_scan"}, "name": "0a35dcd05c1ab0337b4cd8ee6b477886", "is_reserved": 0}, {"is_disabled": 0, "fusion_lon": 0.0, "fusion_lat": 0.0, "lat": 38.92153783333333, "type": "electric_scooter", "lon": -77.04284, "bike_id": "9deb36caf4be240de9278959d2558de9", "rental_uris": {"android": "https://dc.lft.to/lastmile_qr_scan", "ios": "https://dc.lft.to/lastmile_qr_scan"}, "name": "9deb36caf4be240de9278959d2558de9", "is_reserved": 0}, {"is_disabled": 0, "fusion_lon": 0.0, "fusion_lat": 0.0, "lat": 38.910292, "type": "electric_scooter", "lon": -77.00756983333333, "bike_id": "f29bf3edb097cdc9fae3d2eb7ca8d809", "rental_uris": {"android": "https://dc.lft.to/lastmile_qr_scan", "ios": "https://dc.lft.to/lastmile_qr_scan"}, "name": "f29bf3edb097cdc9fae3d2eb7ca8d809", "is_reserved": 0}, {"is_disabled": 0, "fusion_lon": 0.0, "fusion_lat": 0.0, "lat": 38.93190716666667, "type": "electric_bike", "lon": -77.22937466666667, "bike_id": "24e777a1b3b07c4b3a2ffbf54c5dd852", "rental_uris": {"android": "https://dc.lft.to/lastmile_qr_scan", "ios": "https://dc.lft.to/lastmile_qr_scan"}, "name": "24e777a1b3b07c4b3a2ffbf54c5dd852", "is_reserved": 0}, {"is_disabled": 0, "fusion_lon": 0.0, "fusion_lat": 0.0, "lat": 38.9140435, "type": "electric_scooter", "lon": -77.03224016666667, "bike_id": "12cdd379509c7346477885bce41a09c0", "rental_uris": {"android": "https://dc.lft.to/lastmile_qr_scan", "ios": "https://dc.lft.to/lastmile_qr_scan"}, "name": "12cdd379509c7346477885bce41a09c0", "is_reserved": 0}, {"is_disabled": 0, "fusion_lon": 0.0, "fusion_lat": 0.0, "lat": 38.888261166666666, "type": "electric_bike", "lon": -77.12740483333333, "bike_id": "b98d01b38b759ca210b2f0fedfd4713a", "rental_uris": {"android": "https://dc.lft.to/lastmile_qr_scan", "ios": "https://dc.lft.to/lastmile_qr_scan"}, "name": "b98d01b38b759ca210b2f0fedfd4713a", "is_reserved": 0}, {"is_disabled": 0, "fusion_lon": 0.0, "fusion_lat": 0.0, "lat": 38.975738, "type": "electric_bike", "lon": -76.96402333333333, "bike_id": "7aed09e9450de36c07ffda072aab55dd", "rental_uris": {"android": "https://dc.lft.to/lastmile_qr_scan", "ios": "https://dc.lft.to/lastmile_qr_scan"}, "name": "7aed09e9450de36c07ffda072aab55dd", "is_reserved": 0}, {"is_disabled": 0, "fusion_lon": 0.0, "fusion_lat": 0.0, "lat": 38.855325666666666, "type": "electric_bike", "lon": -77.10703716666667, "bike_id": "e316d8cbddc50e364b5ea7f49f0a61e7", "rental_uris": {"android": "https://dc.lft.to/lastmile_qr_scan", "ios": "https://dc.lft.to/lastmile_qr_scan"}, "name": "e316d8cbddc50e364b5ea7f49f0a61e7", "is_reserved": 0}, {"is_disabled": 0, "fusion_lon": 0.0, "fusion_lat": 0.0, "lat": 38.99090833333333, "type": "electric_bike", "lon": -76.874946, "bike_id": "4836453911741b80528449683f5af02b", "rental_uris": {"android": "https://dc.lft.to/lastmile_qr_scan", "ios": "https://dc.lft.to/lastmile_qr_scan"}, "name": "4836453911741b80528449683f5af02b", "is_reserved": 0}, {"is_disabled": 0, "fusion_lon": 0.0, "fusion_lat": 0.0, "lat": 38.88968166666667, "type": "electric_bike", "lon": -76.94859616666666, "bike_id": "2c3fc76182a193720e85cdd1810db6a2", "rental_uris": {"android": "https://dc.lft.to/lastmile_qr_scan", "ios": "https://dc.lft.to/lastmile_qr_scan"}, "name": "2c3fc76182a193720e85cdd1810db6a2", "is_reserved": 0}, {"is_disabled": 0, "fusion_lon": 0.0, "fusion_lat": 0.0, "lat": 38.92294366666667, "type": "electric_scooter", "lon": -77.04143333333333, "bike_id": "7d3869ed6e410871b70c0fbc0ef727fc", "rental_uris": {"android": "https://dc.lft.to/lastmile_qr_scan", "ios": "https://dc.lft.to/lastmile_qr_scan"}, "name": "7d3869ed6e410871b70c0fbc0ef727fc", "is_reserved": 0}, {"is_disabled": 0, "fusion_lon": 0.0, "fusion_lat": 0.0, "lat": 38.905155666666666, "type": "electric_scooter", "lon": -77.05115233333333, "bike_id": "f62a68a91f35526ac7d5f31aa2616eb6", "rental_uris": {"android": "https://dc.lft.to/lastmile_qr_scan", "ios": "https://dc.lft.to/lastmile_qr_scan"}, "name": "f62a68a91f35526ac7d5f31aa2616eb6", "is_reserved": 0}, {"is_disabled": 0, "fusion_lon": 0.0, "fusion_lat": 0.0, "lat": 38.90767183333333, "type": "electric_scooter", "lon": -77.03265166666667, "bike_id": "cb4c716d1a05b45681455aaa740230c0", "rental_uris": {"android": "https://dc.lft.to/lastmile_qr_scan", "ios": "https://dc.lft.to/lastmile_qr_scan"}, "name": "cb4c716d1a05b45681455aaa740230c0", "is_reserved": 0}, {"is_disabled": 0, "fusion_lon": 0.0, "fusion_lat": 0.0, "lat": 38.957244833333334, "type": "electric_scooter", "lon": -77.03097833333334, "bike_id": "6bd63bbb69dfe45c8886e8b5a54c893a", "rental_uris": {"android": "https://dc.lft.to/lastmile_qr_scan", "ios": "https://dc.lft.to/lastmile_qr_scan"}, "name": "6bd63bbb69dfe45c8886e8b5a54c893a", "is_reserved": 0}, {"is_disabled": 0, "fusion_lon": 0.0, "fusion_lat": 0.0, "lat": 38.899013833333335, "type": "electric_scooter", "lon": -77.0164015, "bike_id": "b0e0913165d7a99159a2dc1c5afe354b", "rental_uris": {"android": "https://dc.lft.to/lastmile_qr_scan", "ios": "https://dc.lft.to/lastmile_qr_scan"}, "name": "b0e0913165d7a99159a2dc1c5afe354b", "is_reserved": 0}, {"is_disabled": 0, "fusion_lon": 0.0, "fusion_lat": 0.0, "lat": 38.8604225, "type": "electric_scooter", "lon": -76.983738, "bike_id": "7e236d4e77854190f5312b296910f33b", "rental_uris": {"android": "https://dc.lft.to/lastmile_qr_scan", "ios": "https://dc.lft.to/lastmile_qr_scan"}, "name": "7e236d4e77854190f5312b296910f33b", "is_reserved": 0}, {"is_disabled": 0, "fusion_lon": 0.0, "fusion_lat": 0.0, "lat": 38.9613395, "type": "electric_scooter", "lon": -77.0280805, "bike_id": "a48e5804ebf1d269cf22323adf93fc85", "rental_uris": {"android": "https://dc.lft.to/lastmile_qr_scan", "ios": "https://dc.lft.to/lastmile_qr_scan"}, "name": "a48e5804ebf1d269cf22323adf93fc85", "is_reserved": 0}, {"is_disabled": 0, "fusion_lon": 0.0, "fusion_lat": 0.0, "lat": 38.8652215, "type": "electric_scooter", "lon": -76.97334916666667, "bike_id": "0449950f17175486499df39a4cf05753", "rental_uris": {"android": "https://dc.lft.to/lastmile_qr_scan", "ios": "https://dc.lft.to/lastmile_qr_scan"}, "name": "0449950f17175486499df39a4cf05753", "is_reserved": 0}, {"is_disabled": 0, "fusion_lon": 0.0, "fusion_lat": 0.0, "lat": 38.9205055, "type": "electric_scooter", "lon": -77.02465083333334, "bike_id": "e667c0ad88166e6b0387ab181d901155", "rental_uris": {"android": "https://dc.lft.to/lastmile_qr_scan", "ios": "https://dc.lft.to/lastmile_qr_scan"}, "name": "e667c0ad88166e6b0387ab181d901155", "is_reserved": 0}, {"is_disabled": 0, "fusion_lon": 0.0, "fusion_lat": 0.0, "lat": 38.934068833333335, "type": "electric_scooter", "lon": -77.03260866666666, "bike_id": "8d00567024945cd713d7152068bdc8ad", "rental_uris": {"android": "https://dc.lft.to/lastmile_qr_scan", "ios": "https://dc.lft.to/lastmile_qr_scan"}, "name": "8d00567024945cd713d7152068bdc8ad", "is_reserved": 0}, {"is_disabled": 0, "fusion_lon": 0.0, "fusion_lat": 0.0, "lat": 38.85842016666667, "type": "electric_scooter", "lon": -76.99068266666667, "bike_id": "19e788eac0fea31155ed12914b48997b", "rental_uris": {"android": "https://dc.lft.to/lastmile_qr_scan", "ios": "https://dc.lft.to/lastmile_qr_scan"}, "name": "19e788eac0fea31155ed12914b48997b", "is_reserved": 0}, {"is_disabled": 0, "fusion_lon": 0.0, "fusion_lat": 0.0, "lat": 38.94983883333333, "type": "electric_scooter", "lon": -77.0270255, "bike_id": "8eaac958cb0ed2070c147874e2f69f74", "rental_uris": {"android": "https://dc.lft.to/lastmile_qr_scan", "ios": "https://dc.lft.to/lastmile_qr_scan"}, "name": "8eaac958cb0ed2070c147874e2f69f74", "is_reserved": 0}, {"is_disabled": 0, "fusion_lon": 0.0, "fusion_lat": 0.0, "lat": 38.962168, "type": "electric_scooter", "lon": -77.02801783333334, "bike_id": "dce3f6d2ce40ab56e8d59f52fac1482d", "rental_uris": {"android": "https://dc.lft.to/lastmile_qr_scan", "ios": "https://dc.lft.to/lastmile_qr_scan"}, "name": "dce3f6d2ce40ab56e8d59f52fac1482d", "is_reserved": 0}, {"is_disabled": 0, "fusion_lon": 0.0, "fusion_lat": 0.0, "lat": 38.90899616666667, "type": "electric_scooter", "lon": -77.02597066666667, "bike_id": "8d498a84a1d1ae7ed5c2219b6cec4f54", "rental_uris": {"android": "https://dc.lft.to/lastmile_qr_scan", "ios": "https://dc.lft.to/lastmile_qr_scan"}, "name": "8d498a84a1d1ae7ed5c2219b6cec4f54", "is_reserved": 0}, {"is_disabled": 0, "fusion_lon": 0.0, "fusion_lat": 0.0, "lat": 38.89498833333333, "type": "electric_scooter", "lon": -77.02287216666667, "bike_id": "5a7547050cfe3c3f9d5fb5b4b71826a1", "rental_uris": {"android": "https://dc.lft.to/lastmile_qr_scan", "ios": "https://dc.lft.to/lastmile_qr_scan"}, "name": "5a7547050cfe3c3f9d5fb5b4b71826a1", "is_reserved": 0}, {"is_disabled": 0, "fusion_lon": 0.0, "fusion_lat": 0.0, "lat": 38.902663833333335, "type": "electric_scooter", "lon": -77.01998033333334, "bike_id": "67a45b532447c9f368348945ff0c2ae6", "rental_uris": {"android": "https://dc.lft.to/lastmile_qr_scan", "ios": "https://dc.lft.to/lastmile_qr_scan"}, "name": "67a45b532447c9f368348945ff0c2ae6", "is_reserved": 0}, {"is_disabled": 0, "fusion_lon": 0.0, "fusion_lat": 0.0, "lat": 38.935614666666666, "type": "electric_scooter", "lon": -77.08199466666667, "bike_id": "59b4a1141d71340ba7770c5bb4a8ad3f", "rental_uris": {"android": "https://dc.lft.to/lastmile_qr_scan", "ios": "https://dc.lft.to/lastmile_qr_scan"}, "name": "59b4a1141d71340ba7770c5bb4a8ad3f", "is_reserved": 0}, {"is_disabled": 0, "fusion_lon": 0.0, "fusion_lat": 0.0, "lat": 38.898607, "type": "electric_scooter", "lon": -77.02727116666667, "bike_id": "fe0dac9dfd198a2600b73e5163757154", "rental_uris": {"android": "https://dc.lft.to/lastmile_qr_scan", "ios": "https://dc.lft.to/lastmile_qr_scan"}, "name": "fe0dac9dfd198a2600b73e5163757154", "is_reserved": 0}, {"is_disabled": 0, "fusion_lon": 0.0, "fusion_lat": 0.0, "lat": 38.84599383333333, "type": "electric_bike", "lon": -76.968811, "bike_id": "f14bc63b96a4cc2c3c977fc208264af0", "rental_uris": {"android": "https://dc.lft.to/lastmile_qr_scan", "ios": "https://dc.lft.to/lastmile_qr_scan"}, "name": "f14bc63b96a4cc2c3c977fc208264af0", "is_reserved": 0}, {"is_disabled": 0, "fusion_lon": 0.0, "fusion_lat": 0.0, "lat": 38.89504866666667, "type": "electric_scooter", "lon": -77.01609183333333, "bike_id": "540ba165ba1ce441fd339bc2f6d12ded", "rental_uris": {"android": "https://dc.lft.to/lastmile_qr_scan", "ios": "https://dc.lft.to/lastmile_qr_scan"}, "name": "540ba165ba1ce441fd339bc2f6d12ded", "is_reserved": 0}, {"is_disabled": 0, "fusion_lon": 0.0, "fusion_lat": 0.0, "lat": 38.899093666666666, "type": "electric_scooter", "lon": -76.93390466666666, "bike_id": "abc122297c371f61858f465a83db3dda", "rental_uris": {"android": "https://dc.lft.to/lastmile_qr_scan", "ios": "https://dc.lft.to/lastmile_qr_scan"}, "name": "abc122297c371f61858f465a83db3dda", "is_reserved": 0}, {"is_disabled": 0, "fusion_lon": 0.0, "fusion_lat": 0.0, "lat": 38.883946, "type": "electric_bike", "lon": -77.03077516666667, "bike_id": "436d90be03679d85ba512193ca5b99a9", "rental_uris": {"android": "https://dc.lft.to/lastmile_qr_scan", "ios": "https://dc.lft.to/lastmile_qr_scan"}, "name": "436d90be03679d85ba512193ca5b99a9", "is_reserved": 0}, {"is_disabled": 0, "fusion_lon": 0.0, "fusion_lat": 0.0, "lat": 38.95965116666667, "type": "electric_scooter", "lon": -77.021123, "bike_id": "099eb6929edd6bd9274d008d3ac646ee", "rental_uris": {"android": "https://dc.lft.to/lastmile_qr_scan", "ios": "https://dc.lft.to/lastmile_qr_scan"}, "name": "099eb6929edd6bd9274d008d3ac646ee", "is_reserved": 0}, {"is_disabled": 0, "fusion_lon": 0.0, "fusion_lat": 0.0, "lat": 38.88072366666667, "type": "electric_scooter", "lon": -76.995058, "bike_id": "6b296f0f36dd0b95375308380f08d17d", "rental_uris": {"android": "https://dc.lft.to/lastmile_qr_scan", "ios": "https://dc.lft.to/lastmile_qr_scan"}, "name": "6b296f0f36dd0b95375308380f08d17d", "is_reserved": 0}, {"is_disabled": 0, "fusion_lon": 0.0, "fusion_lat": 0.0, "lat": 38.9077745, "type": "electric_scooter", "lon": -77.04264016666667, "bike_id": "4777ca5c2b2452f084b55876015bc60e", "rental_uris": {"android": "https://dc.lft.to/lastmile_qr_scan", "ios": "https://dc.lft.to/lastmile_qr_scan"}, "name": "4777ca5c2b2452f084b55876015bc60e", "is_reserved": 0}, {"is_disabled": 0, "fusion_lon": 0.0, "fusion_lat": 0.0, "lat": 38.92260616666667, "type": "electric_scooter", "lon": -77.04206316666667, "bike_id": "f5d450377b6bccbd3c0c1d055ba9516b", "rental_uris": {"android": "https://dc.lft.to/lastmile_qr_scan", "ios": "https://dc.lft.to/lastmile_qr_scan"}, "name": "f5d450377b6bccbd3c0c1d055ba9516b", "is_reserved": 0}, {"is_disabled": 0, "fusion_lon": 0.0, "fusion_lat": 0.0, "lat": 38.94474833333334, "type": "electric_bike", "lon": -77.03163, "bike_id": "ced95cb5e1c618daa864791258cd4a73", "rental_uris": {"android": "https://dc.lft.to/lastmile_qr_scan", "ios": "https://dc.lft.to/lastmile_qr_scan"}, "name": "ced95cb5e1c618daa864791258cd4a73", "is_reserved": 0}, {"is_disabled": 0, "fusion_lon": 0.0, "fusion_lat": 0.0, "lat": 38.97051666666667, "type": "electric_bike", "lon": -77.03084033333333, "bike_id": "bc04a36137cb4c99fc27f5a29ad62add", "rental_uris": {"android": "https://dc.lft.to/lastmile_qr_scan", "ios": "https://dc.lft.to/lastmile_qr_scan"}, "name": "bc04a36137cb4c99fc27f5a29ad62add", "is_reserved": 0}, {"is_disabled": 0, "fusion_lon": 0.0, "fusion_lat": 0.0, "lat": 38.913971833333335, "type": "electric_scooter", "lon": -77.02969616666667, "bike_id": "dfaa92ca10724cc640e94f853b880b17", "rental_uris": {"android": "https://dc.lft.to/lastmile_qr_scan", "ios": "https://dc.lft.to/lastmile_qr_scan"}, "name": "dfaa92ca10724cc640e94f853b880b17", "is_reserved": 0}, {"is_disabled": 0, "fusion_lon": 0.0, "fusion_lat": 0.0, "lat": 38.9149125, "type": "electric_scooter", "lon": -77.028164, "bike_id": "f0ecd6b2a8bb80bc5393ea21ba27a781", "rental_uris": {"android": "https://dc.lft.to/lastmile_qr_scan", "ios": "https://dc.lft.to/lastmile_qr_scan"}, "name": "f0ecd6b2a8bb80bc5393ea21ba27a781", "is_reserved": 0}, {"is_disabled": 0, "fusion_lon": 0.0, "fusion_lat": 0.0, "lat": 38.91844116666667, "type": "electric_scooter", "lon": -77.02591483333333, "bike_id": "17d5e52f585f24702b77c0627b23a658", "rental_uris": {"android": "https://dc.lft.to/lastmile_qr_scan", "ios": "https://dc.lft.to/lastmile_qr_scan"}, "name": "17d5e52f585f24702b77c0627b23a658", "is_reserved": 0}, {"is_disabled": 0, "fusion_lon": 0.0, "fusion_lat": 0.0, "lat": 38.902448, "type": "electric_bike", "lon": -76.97014683333333, "bike_id": "268fb57ce68a1ecfa97efab0e0309d8e", "rental_uris": {"android": "https://dc.lft.to/lastmile_qr_scan", "ios": "https://dc.lft.to/lastmile_qr_scan"}, "name": "268fb57ce68a1ecfa97efab0e0309d8e", "is_reserved": 0}, {"is_disabled": 0, "fusion_lon": 0.0, "fusion_lat": 0.0, "lat": 38.914181166666665, "type": "electric_scooter", "lon": -77.03172383333333, "bike_id": "3c3145949af2af592ff057e922465bfe", "rental_uris": {"android": "https://dc.lft.to/lastmile_qr_scan", "ios": "https://dc.lft.to/lastmile_qr_scan"}, "name": "3c3145949af2af592ff057e922465bfe", "is_reserved": 0}, {"is_disabled": 0, "fusion_lon": 0.0, "fusion_lat": 0.0, "lat": 38.91182516666667, "type": "electric_scooter", "lon": -77.03807633333334, "bike_id": "8c0cc06e0261e391ad268024e5ebf109", "rental_uris": {"android": "https://dc.lft.to/lastmile_qr_scan", "ios": "https://dc.lft.to/lastmile_qr_scan"}, "name": "8c0cc06e0261e391ad268024e5ebf109", "is_reserved": 0}, {"is_disabled": 0, "fusion_lon": 0.0, "fusion_lat": 0.0, "lat": 38.89719816666667, "type": "electric_scooter", "lon": -77.02421133333333, "bike_id": "c0cb944a4c8178a3af0d6aa18cd58b84", "rental_uris": {"android": "https://dc.lft.to/lastmile_qr_scan", "ios": "https://dc.lft.to/lastmile_qr_scan"}, "name": "c0cb944a4c8178a3af0d6aa18cd58b84", "is_reserved": 0}, {"is_disabled": 0, "fusion_lon": 0.0, "fusion_lat": 0.0, "lat": 38.91440133333333, "type": "electric_scooter", "lon": -77.021659, "bike_id": "89eb15aa608cbcd9a32192e91309015c", "rental_uris": {"android": "https://dc.lft.to/lastmile_qr_scan", "ios": "https://dc.lft.to/lastmile_qr_scan"}, "name": "89eb15aa608cbcd9a32192e91309015c", "is_reserved": 0}, {"is_disabled": 0, "fusion_lon": 0.0, "fusion_lat": 0.0, "lat": 38.912946833333336, "type": "electric_scooter", "lon": -77.032092, "bike_id": "305a8fd6ee67691b5557b83294aafb44", "rental_uris": {"android": "https://dc.lft.to/lastmile_qr_scan", "ios": "https://dc.lft.to/lastmile_qr_scan"}, "name": "305a8fd6ee67691b5557b83294aafb44", "is_reserved": 0}, {"is_disabled": 0, "fusion_lon": 0.0, "fusion_lat": 0.0, "lat": 38.87623083333333, "type": "electric_scooter", "lon": -76.965363, "bike_id": "c5b4c15e15531e4ebea01500c49ac942", "rental_uris": {"android": "https://dc.lft.to/lastmile_qr_scan", "ios": "https://dc.lft.to/lastmile_qr_scan"}, "name": "c5b4c15e15531e4ebea01500c49ac942", "is_reserved": 0}, {"is_disabled": 0, "fusion_lon": 0.0, "fusion_lat": 0.0, "lat": 38.9164085, "type": "electric_scooter", "lon": -77.0237865, "bike_id": "9e57630f61553968341fe65a70036b0c", "rental_uris": {"android": "https://dc.lft.to/lastmile_qr_scan", "ios": "https://dc.lft.to/lastmile_qr_scan"}, "name": "9e57630f61553968341fe65a70036b0c", "is_reserved": 0}, {"is_disabled": 0, "fusion_lon": 0.0, "fusion_lat": 0.0, "lat": 38.931388166666665, "type": "electric_scooter", "lon": -77.03238983333334, "bike_id": "0fc0a6729a34c0770aed1d7abe6a3927", "rental_uris": {"android": "https://dc.lft.to/lastmile_qr_scan", "ios": "https://dc.lft.to/lastmile_qr_scan"}, "name": "0fc0a6729a34c0770aed1d7abe6a3927", "is_reserved": 0}, {"is_disabled": 0, "fusion_lon": 0.0, "fusion_lat": 0.0, "lat": 38.9001685, "type": "electric_scooter", "lon": -77.03963866666666, "bike_id": "74c5551f27694f25140b9130ef81e4eb", "rental_uris": {"android": "https://dc.lft.to/lastmile_qr_scan", "ios": "https://dc.lft.to/lastmile_qr_scan"}, "name": "74c5551f27694f25140b9130ef81e4eb", "is_reserved": 0}, {"is_disabled": 0, "fusion_lon": 0.0, "fusion_lat": 0.0, "lat": 38.905052, "type": "electric_bike", "lon": -77.0568255, "bike_id": "5eb4555ce1ba0a8fe09f5a4710c00a6a", "rental_uris": {"android": "https://dc.lft.to/lastmile_qr_scan", "ios": "https://dc.lft.to/lastmile_qr_scan"}, "name": "5eb4555ce1ba0a8fe09f5a4710c00a6a", "is_reserved": 0}, {"is_disabled": 0, "fusion_lon": 0.0, "fusion_lat": 0.0, "lat": 38.944944666666665, "type": "electric_bike", "lon": -76.98659133333334, "bike_id": "3605c15dc5988ab566198779870bd911", "rental_uris": {"android": "https://dc.lft.to/lastmile_qr_scan", "ios": "https://dc.lft.to/lastmile_qr_scan"}, "name": "3605c15dc5988ab566198779870bd911", "is_reserved": 0}, {"is_disabled": 0, "fusion_lon": 0.0, "fusion_lat": 0.0, "lat": 38.893667666666666, "type": "electric_scooter", "lon": -77.003214, "bike_id": "493777e096253071fe84114d2d2e7529", "rental_uris": {"android": "https://dc.lft.to/lastmile_qr_scan", "ios": "https://dc.lft.to/lastmile_qr_scan"}, "name": "493777e096253071fe84114d2d2e7529", "is_reserved": 0}, {"is_disabled": 0, "fusion_lon": 0.0, "fusion_lat": 0.0, "lat": 38.918137, "type": "electric_scooter", "lon": -77.0325105, "bike_id": "c9d0f0169c2b98939e6b48be63658ad1", "rental_uris": {"android": "https://dc.lft.to/lastmile_qr_scan", "ios": "https://dc.lft.to/lastmile_qr_scan"}, "name": "c9d0f0169c2b98939e6b48be63658ad1", "is_reserved": 0}, {"is_disabled": 0, "fusion_lon": 0.0, "fusion_lat": 0.0, "lat": 38.898774, "type": "electric_scooter", "lon": -77.0201035, "bike_id": "d45d72e3153d27cc531837126564425e", "rental_uris": {"android": "https://dc.lft.to/lastmile_qr_scan", "ios": "https://dc.lft.to/lastmile_qr_scan"}, "name": "d45d72e3153d27cc531837126564425e", "is_reserved": 0}, {"is_disabled": 0, "fusion_lon": 0.0, "fusion_lat": 0.0, "lat": 38.945564833333336, "type": "electric_bike", "lon": -77.0512035, "bike_id": "7c1fdc7a0cfc713b122251071102a148", "rental_uris": {"android": "https://dc.lft.to/lastmile_qr_scan", "ios": "https://dc.lft.to/lastmile_qr_scan"}, "name": "7c1fdc7a0cfc713b122251071102a148", "is_reserved": 0}, {"is_disabled": 0, "fusion_lon": 0.0, "fusion_lat": 0.0, "lat": 38.916947, "type": "electric_scooter", "lon": -77.00521516666667, "bike_id": "9e0ef87eff1c162770469778f2ade5e3", "rental_uris": {"android": "https://dc.lft.to/lastmile_qr_scan", "ios": "https://dc.lft.to/lastmile_qr_scan"}, "name": "9e0ef87eff1c162770469778f2ade5e3", "is_reserved": 0}, {"is_disabled": 0, "fusion_lon": 0.0, "fusion_lat": 0.0, "lat": 38.9206595, "type": "electric_scooter", "lon": -77.04333816666667, "bike_id": "4952cb770d4b4a18fba7cc5f012d0aac", "rental_uris": {"android": "https://dc.lft.to/lastmile_qr_scan", "ios": "https://dc.lft.to/lastmile_qr_scan"}, "name": "4952cb770d4b4a18fba7cc5f012d0aac", "is_reserved": 0}, {"is_disabled": 0, "fusion_lon": 0.0, "fusion_lat": 0.0, "lat": 38.906678, "type": "electric_scooter", "lon": -77.03756783333333, "bike_id": "4797fe2a1d6c0f664e6aa5b95a05a3be", "rental_uris": {"android": "https://dc.lft.to/lastmile_qr_scan", "ios": "https://dc.lft.to/lastmile_qr_scan"}, "name": "4797fe2a1d6c0f664e6aa5b95a05a3be", "is_reserved": 0}, {"is_disabled": 0, "fusion_lon": 0.0, "fusion_lat": 0.0, "lat": 38.9290565, "type": "electric_scooter", "lon": -77.03254433333333, "bike_id": "e01fc77757c00100beb2fb176bfed90b", "rental_uris": {"android": "https://dc.lft.to/lastmile_qr_scan", "ios": "https://dc.lft.to/lastmile_qr_scan"}, "name": "e01fc77757c00100beb2fb176bfed90b", "is_reserved": 0}, {"is_disabled": 0, "fusion_lon": 0.0, "fusion_lat": 0.0, "lat": 38.90679566666667, "type": "electric_scooter", "lon": -76.97998283333334, "bike_id": "fbe2d5bf0ebf6b90c32dbdf294491286", "rental_uris": {"android": "https://dc.lft.to/lastmile_qr_scan", "ios": "https://dc.lft.to/lastmile_qr_scan"}, "name": "fbe2d5bf0ebf6b90c32dbdf294491286", "is_reserved": 0}, {"is_disabled": 0, "fusion_lon": 0.0, "fusion_lat": 0.0, "lat": 38.90877666666667, "type": "electric_scooter", "lon": -77.03537316666667, "bike_id": "5487446140675ad5b0d41d242b39f983", "rental_uris": {"android": "https://dc.lft.to/lastmile_qr_scan", "ios": "https://dc.lft.to/lastmile_qr_scan"}, "name": "5487446140675ad5b0d41d242b39f983", "is_reserved": 0}, {"is_disabled": 0, "fusion_lon": 0.0, "fusion_lat": 0.0, "lat": 38.90152766666667, "type": "electric_scooter", "lon": -77.0228695, "bike_id": "3dd5300264ee3a770190c488c7db5ce3", "rental_uris": {"android": "https://dc.lft.to/lastmile_qr_scan", "ios": "https://dc.lft.to/lastmile_qr_scan"}, "name": "3dd5300264ee3a770190c488c7db5ce3", "is_reserved": 0}, {"is_disabled": 0, "fusion_lon": 0.0, "fusion_lat": 0.0, "lat": 38.911547166666665, "type": "electric_scooter", "lon": -77.00467833333333, "bike_id": "0f3b04aebf902ea02c04ed4320dfcc08", "rental_uris": {"android": "https://dc.lft.to/lastmile_qr_scan", "ios": "https://dc.lft.to/lastmile_qr_scan"}, "name": "0f3b04aebf902ea02c04ed4320dfcc08", "is_reserved": 0}, {"is_disabled": 0, "fusion_lon": 0.0, "fusion_lat": 0.0, "lat": 38.89608716666667, "type": "electric_scooter", "lon": -77.00930466666667, "bike_id": "b420dc52fc7d7a2df640ee8944f2148a", "rental_uris": {"android": "https://dc.lft.to/lastmile_qr_scan", "ios": "https://dc.lft.to/lastmile_qr_scan"}, "name": "b420dc52fc7d7a2df640ee8944f2148a", "is_reserved": 0}, {"is_disabled": 0, "fusion_lon": 0.0, "fusion_lat": 0.0, "lat": 38.94204, "type": "electric_scooter", "lon": -77.025913, "bike_id": "8b521604f056c0e32c39ec2e9f61463f", "rental_uris": {"android": "https://dc.lft.to/lastmile_qr_scan", "ios": "https://dc.lft.to/lastmile_qr_scan"}, "name": "8b521604f056c0e32c39ec2e9f61463f", "is_reserved": 0}, {"is_disabled": 0, "fusion_lon": 0.0, "fusion_lat": 0.0, "lat": 38.95562566666667, "type": "electric_scooter", "lon": -77.07026183333333, "bike_id": "554b58568ccd0cef2e407dd6d6b866ed", "rental_uris": {"android": "https://dc.lft.to/lastmile_qr_scan", "ios": "https://dc.lft.to/lastmile_qr_scan"}, "name": "554b58568ccd0cef2e407dd6d6b866ed", "is_reserved": 0}, {"is_disabled": 0, "fusion_lon": 0.0, "fusion_lat": 0.0, "lat": 38.91606183333333, "type": "electric_scooter", "lon": -77.03103216666666, "bike_id": "5d0348701411914bf516cfa72ba85258", "rental_uris": {"android": "https://dc.lft.to/lastmile_qr_scan", "ios": "https://dc.lft.to/lastmile_qr_scan"}, "name": "5d0348701411914bf516cfa72ba85258", "is_reserved": 0}, {"is_disabled": 0, "fusion_lon": 0.0, "fusion_lat": 0.0, "lat": 38.92764, "type": "electric_scooter", "lon": -77.0284305, "bike_id": "bf7bd390f51d6f03b5ab59c6c34ac70f", "rental_uris": {"android": "https://dc.lft.to/lastmile_qr_scan", "ios": "https://dc.lft.to/lastmile_qr_scan"}, "name": "bf7bd390f51d6f03b5ab59c6c34ac70f", "is_reserved": 0}, {"is_disabled": 0, "fusion_lon": 0.0, "fusion_lat": 0.0, "lat": 38.959568166666664, "type": "electric_bike", "lon": -77.02512666666667, "bike_id": "5f152a8a3832a6d0c5237b22e3c359cd", "rental_uris": {"android": "https://dc.lft.to/lastmile_qr_scan", "ios": "https://dc.lft.to/lastmile_qr_scan"}, "name": "5f152a8a3832a6d0c5237b22e3c359cd", "is_reserved": 0}, {"is_disabled": 0, "fusion_lon": 0.0, "fusion_lat": 0.0, "lat": 38.85807583333333, "type": "electric_scooter", "lon": -76.9865315, "bike_id": "3a5ee621e3b52cba899286144835da1f", "rental_uris": {"android": "https://dc.lft.to/lastmile_qr_scan", "ios": "https://dc.lft.to/lastmile_qr_scan"}, "name": "3a5ee621e3b52cba899286144835da1f", "is_reserved": 0}, {"is_disabled": 0, "fusion_lon": 0.0, "fusion_lat": 0.0, "lat": 38.91183916666667, "type": "electric_scooter", "lon": -77.03499766666667, "bike_id": "a066e685d8edbbbc60d04b2928083e64", "rental_uris": {"android": "https://dc.lft.to/lastmile_qr_scan", "ios": "https://dc.lft.to/lastmile_qr_scan"}, "name": "a066e685d8edbbbc60d04b2928083e64", "is_reserved": 0}, {"is_disabled": 0, "fusion_lon": 0.0, "fusion_lat": 0.0, "lat": 38.926056, "type": "electric_scooter", "lon": -77.0570675, "bike_id": "f5c187d976bfc5d7da27b0c6fd6df641", "rental_uris": {"android": "https://dc.lft.to/lastmile_qr_scan", "ios": "https://dc.lft.to/lastmile_qr_scan"}, "name": "f5c187d976bfc5d7da27b0c6fd6df641", "is_reserved": 0}, {"is_disabled": 0, "fusion_lon": 0.0, "fusion_lat": 0.0, "lat": 38.89532783333333, "type": "electric_scooter", "lon": -77.01136133333333, "bike_id": "96e634e0315c07cf83a1b0b623f26e29", "rental_uris": {"android": "https://dc.lft.to/lastmile_qr_scan", "ios": "https://dc.lft.to/lastmile_qr_scan"}, "name": "96e634e0315c07cf83a1b0b623f26e29", "is_reserved": 0}, {"is_disabled": 0, "fusion_lon": 0.0, "fusion_lat": 0.0, "lat": 38.936626, "type": "electric_scooter", "lon": -77.032647, "bike_id": "77a2831edabf46e22b21b4b0a39159ac", "rental_uris": {"android": "https://dc.lft.to/lastmile_qr_scan", "ios": "https://dc.lft.to/lastmile_qr_scan"}, "name": "77a2831edabf46e22b21b4b0a39159ac", "is_reserved": 0}, {"is_disabled": 0, "fusion_lon": 0.0, "fusion_lat": 0.0, "lat": 38.8634305, "type": "electric_scooter", "lon": -76.982653, "bike_id": "d8162c825ca33dbbdc55dc29bfd58173", "rental_uris": {"android": "https://dc.lft.to/lastmile_qr_scan", "ios": "https://dc.lft.to/lastmile_qr_scan"}, "name": "d8162c825ca33dbbdc55dc29bfd58173", "is_reserved": 0}, {"is_disabled": 0, "fusion_lon": 0.0, "fusion_lat": 0.0, "lat": 38.92034233333333, "type": "electric_scooter", "lon": -77.0258595, "bike_id": "6451e714aa507e8e157a3577933b9f3e", "rental_uris": {"android": "https://dc.lft.to/lastmile_qr_scan", "ios": "https://dc.lft.to/lastmile_qr_scan"}, "name": "6451e714aa507e8e157a3577933b9f3e", "is_reserved": 0}, {"is_disabled": 0, "fusion_lon": 0.0, "fusion_lat": 0.0, "lat": 38.916016, "type": "electric_scooter", "lon": -77.023526, "bike_id": "b085ea9f3d996369fc42528ae2dbcf13", "rental_uris": {"android": "https://dc.lft.to/lastmile_qr_scan", "ios": "https://dc.lft.to/lastmile_qr_scan"}, "name": "b085ea9f3d996369fc42528ae2dbcf13", "is_reserved": 0}, {"is_disabled": 0, "fusion_lon": 0.0, "fusion_lat": 0.0, "lat": 38.85866083333333, "type": "electric_scooter", "lon": -76.99020116666667, "bike_id": "272659242fe76c52f59deba11607229e", "rental_uris": {"android": "https://dc.lft.to/lastmile_qr_scan", "ios": "https://dc.lft.to/lastmile_qr_scan"}, "name": "272659242fe76c52f59deba11607229e", "is_reserved": 0}, {"is_disabled": 0, "fusion_lon": 0.0, "fusion_lat": 0.0, "lat": 38.923066666666664, "type": "electric_scooter", "lon": -77.04736783333334, "bike_id": "7d35dd5f9caa31113a6f97202548a49b", "rental_uris": {"android": "https://dc.lft.to/lastmile_qr_scan", "ios": "https://dc.lft.to/lastmile_qr_scan"}, "name": "7d35dd5f9caa31113a6f97202548a49b", "is_reserved": 0}, {"is_disabled": 0, "fusion_lon": 0.0, "fusion_lat": 0.0, "lat": 38.88134633333333, "type": "electric_scooter", "lon": -77.027111, "bike_id": "ccf26d235837608251a7d96113892eec", "rental_uris": {"android": "https://dc.lft.to/lastmile_qr_scan", "ios": "https://dc.lft.to/lastmile_qr_scan"}, "name": "ccf26d235837608251a7d96113892eec", "is_reserved": 0}, {"is_disabled": 0, "fusion_lon": 0.0, "fusion_lat": 0.0, "lat": 38.88687383333333, "type": "electric_scooter", "lon": -77.01373566666666, "bike_id": "6d6ea37ed4e2da2904e1b35fb8280998", "rental_uris": {"android": "https://dc.lft.to/lastmile_qr_scan", "ios": "https://dc.lft.to/lastmile_qr_scan"}, "name": "6d6ea37ed4e2da2904e1b35fb8280998", "is_reserved": 0}, {"is_disabled": 0, "fusion_lon": 0.0, "fusion_lat": 0.0, "lat": 38.918720666666665, "type": "electric_scooter", "lon": -77.02483083333334, "bike_id": "ace19405aaa4144d625cad6c92554ed4", "rental_uris": {"android": "https://dc.lft.to/lastmile_qr_scan", "ios": "https://dc.lft.to/lastmile_qr_scan"}, "name": "ace19405aaa4144d625cad6c92554ed4", "is_reserved": 0}, {"is_disabled": 0, "fusion_lon": 0.0, "fusion_lat": 0.0, "lat": 38.844313166666666, "type": "electric_scooter", "lon": -76.9978795, "bike_id": "6af1b9c73c380489295e3e17e21af5cc", "rental_uris": {"android": "https://dc.lft.to/lastmile_qr_scan", "ios": "https://dc.lft.to/lastmile_qr_scan"}, "name": "6af1b9c73c380489295e3e17e21af5cc", "is_reserved": 0}, {"is_disabled": 0, "fusion_lon": 0.0, "fusion_lat": 0.0, "lat": 38.92788616666667, "type": "electric_scooter", "lon": -77.02549216666667, "bike_id": "3e0f99369b6b52a508afbe2f98de4d91", "rental_uris": {"android": "https://dc.lft.to/lastmile_qr_scan", "ios": "https://dc.lft.to/lastmile_qr_scan"}, "name": "3e0f99369b6b52a508afbe2f98de4d91", "is_reserved": 0}, {"is_disabled": 0, "fusion_lon": 0.0, "fusion_lat": 0.0, "lat": 38.88111166666667, "type": "electric_scooter", "lon": -77.02648183333334, "bike_id": "82974bb6aa81e6b9d320d5d741962369", "rental_uris": {"android": "https://dc.lft.to/lastmile_qr_scan", "ios": "https://dc.lft.to/lastmile_qr_scan"}, "name": "82974bb6aa81e6b9d320d5d741962369", "is_reserved": 0}, {"is_disabled": 0, "fusion_lon": 0.0, "fusion_lat": 0.0, "lat": 38.94822516666667, "type": "electric_scooter", "lon": -77.07999366666667, "bike_id": "8beaeacbcfdff7ca97e6ddc35733b926", "rental_uris": {"android": "https://dc.lft.to/lastmile_qr_scan", "ios": "https://dc.lft.to/lastmile_qr_scan"}, "name": "8beaeacbcfdff7ca97e6ddc35733b926", "is_reserved": 0}, {"is_disabled": 0, "fusion_lon": 0.0, "fusion_lat": 0.0, "lat": 38.92855566666667, "type": "electric_scooter", "lon": -77.01403466666666, "bike_id": "69b1be2e952ba7fae5f0105391bffc37", "rental_uris": {"android": "https://dc.lft.to/lastmile_qr_scan", "ios": "https://dc.lft.to/lastmile_qr_scan"}, "name": "69b1be2e952ba7fae5f0105391bffc37", "is_reserved": 0}, {"is_disabled": 0, "fusion_lon": 0.0, "fusion_lat": 0.0, "lat": 38.915399666666666, "type": "electric_bike", "lon": -77.032013, "bike_id": "eee265cdcbb189f15f80114cb842f1d5", "rental_uris": {"android": "https://dc.lft.to/lastmile_qr_scan", "ios": "https://dc.lft.to/lastmile_qr_scan"}, "name": "eee265cdcbb189f15f80114cb842f1d5", "is_reserved": 0}, {"is_disabled": 0, "fusion_lon": 0.0, "fusion_lat": 0.0, "lat": 38.8949275, "type": "electric_scooter", "lon": -77.009532, "bike_id": "f7bbc826a6dbe162323829964aff4215", "rental_uris": {"android": "https://dc.lft.to/lastmile_qr_scan", "ios": "https://dc.lft.to/lastmile_qr_scan"}, "name": "f7bbc826a6dbe162323829964aff4215", "is_reserved": 0}, {"is_disabled": 0, "fusion_lon": 0.0, "fusion_lat": 0.0, "lat": 39.05456933333333, "type": "electric_bike", "lon": -77.14323483333334, "bike_id": "acccf756f28a641fd1a4511a240da4eb", "rental_uris": {"android": "https://dc.lft.to/lastmile_qr_scan", "ios": "https://dc.lft.to/lastmile_qr_scan"}, "name": "acccf756f28a641fd1a4511a240da4eb", "is_reserved": 0}, {"is_disabled": 0, "fusion_lon": 0.0, "fusion_lat": 0.0, "lat": 38.7761965, "type": "electric_bike", "lon": -77.08352933333333, "bike_id": "9b729c09b8c315e698e5dbbbbc07ebff", "rental_uris": {"android": "https://dc.lft.to/lastmile_qr_scan", "ios": "https://dc.lft.to/lastmile_qr_scan"}, "name": "9b729c09b8c315e698e5dbbbbc07ebff", "is_reserved": 0}, {"is_disabled": 0, "fusion_lon": 0.0, "fusion_lat": 0.0, "lat": 38.88133716666667, "type": "electric_scooter", "lon": -77.02706183333333, "bike_id": "abdbdb6c7af1706f93bfb62a042ce4a0", "rental_uris": {"android": "https://dc.lft.to/lastmile_qr_scan", "ios": "https://dc.lft.to/lastmile_qr_scan"}, "name": "abdbdb6c7af1706f93bfb62a042ce4a0", "is_reserved": 0}, {"is_disabled": 0, "fusion_lon": 0.0, "fusion_lat": 0.0, "lat": 38.905513666666664, "type": "electric_scooter", "lon": -76.98142233333333, "bike_id": "9e5f0da0c6340ab4d12fed37a42322e4", "rental_uris": {"android": "https://dc.lft.to/lastmile_qr_scan", "ios": "https://dc.lft.to/lastmile_qr_scan"}, "name": "9e5f0da0c6340ab4d12fed37a42322e4", "is_reserved": 0}, {"is_disabled": 0, "fusion_lon": 0.0, "fusion_lat": 0.0, "lat": 38.8819615, "type": "electric_scooter", "lon": -76.994991, "bike_id": "c943c277ba7fe252ca43664aa8fc8169", "rental_uris": {"android": "https://dc.lft.to/lastmile_qr_scan", "ios": "https://dc.lft.to/lastmile_qr_scan"}, "name": "c943c277ba7fe252ca43664aa8fc8169", "is_reserved": 0}, {"is_disabled": 0, "fusion_lon": 0.0, "fusion_lat": 0.0, "lat": 38.8939195, "type": "electric_scooter", "lon": -76.9499575, "bike_id": "669dead21935369360cd5d25bcad5ac7", "rental_uris": {"android": "https://dc.lft.to/lastmile_qr_scan", "ios": "https://dc.lft.to/lastmile_qr_scan"}, "name": "669dead21935369360cd5d25bcad5ac7", "is_reserved": 0}, {"is_disabled": 0, "fusion_lon": 0.0, "fusion_lat": 0.0, "lat": 38.90511816666667, "type": "electric_scooter", "lon": -77.01709016666666, "bike_id": "33106fbdea737bbb401292fef6218b92", "rental_uris": {"android": "https://dc.lft.to/lastmile_qr_scan", "ios": "https://dc.lft.to/lastmile_qr_scan"}, "name": "33106fbdea737bbb401292fef6218b92", "is_reserved": 0}, {"is_disabled": 0, "fusion_lon": 0.0, "fusion_lat": 0.0, "lat": 38.9345455, "type": "electric_scooter", "lon": -77.03054, "bike_id": "7e465423961ed9e3dd60605bb95de329", "rental_uris": {"android": "https://dc.lft.to/lastmile_qr_scan", "ios": "https://dc.lft.to/lastmile_qr_scan"}, "name": "7e465423961ed9e3dd60605bb95de329", "is_reserved": 0}, {"is_disabled": 0, "fusion_lon": 0.0, "fusion_lat": 0.0, "lat": 38.945943, "type": "electric_bike", "lon": -77.34406866666667, "bike_id": "5ad7f59a167459ccfc3f3bd4a4792cee", "rental_uris": {"android": "https://dc.lft.to/lastmile_qr_scan", "ios": "https://dc.lft.to/lastmile_qr_scan"}, "name": "5ad7f59a167459ccfc3f3bd4a4792cee", "is_reserved": 0}, {"is_disabled": 0, "fusion_lon": 0.0, "fusion_lat": 0.0, "lat": 38.9123285, "type": "electric_scooter", "lon": -77.04884066666666, "bike_id": "c9dcca16970cf073f92cf4075401cb2f", "rental_uris": {"android": "https://dc.lft.to/lastmile_qr_scan", "ios": "https://dc.lft.to/lastmile_qr_scan"}, "name": "c9dcca16970cf073f92cf4075401cb2f", "is_reserved": 0}, {"is_disabled": 0, "fusion_lon": 0.0, "fusion_lat": 0.0, "lat": 38.884447333333334, "type": "electric_scooter", "lon": -77.02962283333333, "bike_id": "79505c06b00f2f67d828d63f08aad184", "rental_uris": {"android": "https://dc.lft.to/lastmile_qr_scan", "ios": "https://dc.lft.to/lastmile_qr_scan"}, "name": "79505c06b00f2f67d828d63f08aad184", "is_reserved": 0}, {"is_disabled": 0, "fusion_lon": 0.0, "fusion_lat": 0.0, "lat": 38.91461283333334, "type": "electric_scooter", "lon": -77.0318735, "bike_id": "2c683987e00f6cba440e3d25bb1a3b42", "rental_uris": {"android": "https://dc.lft.to/lastmile_qr_scan", "ios": "https://dc.lft.to/lastmile_qr_scan"}, "name": "2c683987e00f6cba440e3d25bb1a3b42", "is_reserved": 0}, {"is_disabled": 0, "fusion_lon": 0.0, "fusion_lat": 0.0, "lat": 38.91705783333333, "type": "electric_scooter", "lon": -77.00112016666667, "bike_id": "e14c7d8860c77e2b4ad0928aea48ba45", "rental_uris": {"android": "https://dc.lft.to/lastmile_qr_scan", "ios": "https://dc.lft.to/lastmile_qr_scan"}, "name": "e14c7d8860c77e2b4ad0928aea48ba45", "is_reserved": 0}, {"is_disabled": 0, "fusion_lon": 0.0, "fusion_lat": 0.0, "lat": 38.925534166666665, "type": "electric_scooter", "lon": -77.0378125, "bike_id": "678abe9f88f758ad8721e68febc97a73", "rental_uris": {"android": "https://dc.lft.to/lastmile_qr_scan", "ios": "https://dc.lft.to/lastmile_qr_scan"}, "name": "678abe9f88f758ad8721e68febc97a73", "is_reserved": 0}, {"is_disabled": 0, "fusion_lon": 0.0, "fusion_lat": 0.0, "lat": 38.892285666666666, "type": "electric_scooter", "lon": -77.0464415, "bike_id": "13d6e065552284d8adcd3e2db7b34b4b", "rental_uris": {"android": "https://dc.lft.to/lastmile_qr_scan", "ios": "https://dc.lft.to/lastmile_qr_scan"}, "name": "13d6e065552284d8adcd3e2db7b34b4b", "is_reserved": 0}, {"is_disabled": 0, "fusion_lon": 0.0, "fusion_lat": 0.0, "lat": 38.90852016666667, "type": "electric_scooter", "lon": -77.0325205, "bike_id": "bbded32bf2cd407ad59fe314827b9840", "rental_uris": {"android": "https://dc.lft.to/lastmile_qr_scan", "ios": "https://dc.lft.to/lastmile_qr_scan"}, "name": "bbded32bf2cd407ad59fe314827b9840", "is_reserved": 0}, {"is_disabled": 0, "fusion_lon": 0.0, "fusion_lat": 0.0, "lat": 38.985041333333335, "type": "electric_bike", "lon": -76.98199966666667, "bike_id": "7364c31797f9989155391182f6b7a304", "rental_uris": {"android": "https://dc.lft.to/lastmile_qr_scan", "ios": "https://dc.lft.to/lastmile_qr_scan"}, "name": "7364c31797f9989155391182f6b7a304", "is_reserved": 0}, {"is_disabled": 0, "fusion_lon": 0.0, "fusion_lat": 0.0, "lat": 38.918452333333335, "type": "electric_scooter", "lon": -77.026994, "bike_id": "96873a0d80e07776f2b86cae859754bf", "rental_uris": {"android": "https://dc.lft.to/lastmile_qr_scan", "ios": "https://dc.lft.to/lastmile_qr_scan"}, "name": "96873a0d80e07776f2b86cae859754bf", "is_reserved": 0}, {"is_disabled": 0, "fusion_lon": 0.0, "fusion_lat": 0.0, "lat": 38.89863116666667, "type": "electric_scooter", "lon": -77.02281566666667, "bike_id": "0475a07df06ebfac393e0d6736e5d880", "rental_uris": {"android": "https://dc.lft.to/lastmile_qr_scan", "ios": "https://dc.lft.to/lastmile_qr_scan"}, "name": "0475a07df06ebfac393e0d6736e5d880", "is_reserved": 0}, {"is_disabled": 0, "fusion_lon": 0.0, "fusion_lat": 0.0, "lat": 38.904603333333334, "type": "electric_scooter", "lon": -77.03797966666667, "bike_id": "cb05ab26a763ad7f50de65a507e87c8f", "rental_uris": {"android": "https://dc.lft.to/lastmile_qr_scan", "ios": "https://dc.lft.to/lastmile_qr_scan"}, "name": "cb05ab26a763ad7f50de65a507e87c8f", "is_reserved": 0}, {"is_disabled": 0, "fusion_lon": 0.0, "fusion_lat": 0.0, "lat": 38.91852166666666, "type": "electric_bike", "lon": -76.96088966666667, "bike_id": "ce9c33ac893399565b11e09604e78202", "rental_uris": {"android": "https://dc.lft.to/lastmile_qr_scan", "ios": "https://dc.lft.to/lastmile_qr_scan"}, "name": "ce9c33ac893399565b11e09604e78202", "is_reserved": 0}, {"is_disabled": 0, "fusion_lon": 0.0, "fusion_lat": 0.0, "lat": 38.870710833333334, "type": "electric_bike", "lon": -77.00724883333334, "bike_id": "45f4df5a91f2a223a61a86b43cbd821e", "rental_uris": {"android": "https://dc.lft.to/lastmile_qr_scan", "ios": "https://dc.lft.to/lastmile_qr_scan"}, "name": "45f4df5a91f2a223a61a86b43cbd821e", "is_reserved": 0}, {"is_disabled": 0, "fusion_lon": 0.0, "fusion_lat": 0.0, "lat": 38.91358533333333, "type": "electric_scooter", "lon": -77.018821, "bike_id": "638d3e3f408b97eadb02288e1e0fbb61", "rental_uris": {"android": "https://dc.lft.to/lastmile_qr_scan", "ios": "https://dc.lft.to/lastmile_qr_scan"}, "name": "638d3e3f408b97eadb02288e1e0fbb61", "is_reserved": 0}, {"is_disabled": 0, "fusion_lon": 0.0, "fusion_lat": 0.0, "lat": 38.9117095, "type": "electric_scooter", "lon": -77.00455516666666, "bike_id": "dcd8ff57a029fc25c629349e894a2053", "rental_uris": {"android": "https://dc.lft.to/lastmile_qr_scan", "ios": "https://dc.lft.to/lastmile_qr_scan"}, "name": "dcd8ff57a029fc25c629349e894a2053", "is_reserved": 0}, {"is_disabled": 0, "fusion_lon": 0.0, "fusion_lat": 0.0, "lat": 38.8873865, "type": "electric_scooter", "lon": -77.003296, "bike_id": "0584d38397c936afaf1cc1b37693fc25", "rental_uris": {"android": "https://dc.lft.to/lastmile_qr_scan", "ios": "https://dc.lft.to/lastmile_qr_scan"}, "name": "0584d38397c936afaf1cc1b37693fc25", "is_reserved": 0}, {"is_disabled": 0, "fusion_lon": 0.0, "fusion_lat": 0.0, "lat": 38.86840816666667, "type": "electric_bike", "lon": -77.09734583333334, "bike_id": "8e0d4b2837b5bf6b46d8e32df97f7975", "rental_uris": {"android": "https://dc.lft.to/lastmile_qr_scan", "ios": "https://dc.lft.to/lastmile_qr_scan"}, "name": "8e0d4b2837b5bf6b46d8e32df97f7975", "is_reserved": 0}, {"is_disabled": 0, "fusion_lon": 0.0, "fusion_lat": 0.0, "lat": 38.912658, "type": "electric_scooter", "lon": -77.03705383333333, "bike_id": "640014a3c3c5492cf0cae687f290b6ac", "rental_uris": {"android": "https://dc.lft.to/lastmile_qr_scan", "ios": "https://dc.lft.to/lastmile_qr_scan"}, "name": "640014a3c3c5492cf0cae687f290b6ac", "is_reserved": 0}, {"is_disabled": 0, "fusion_lon": 0.0, "fusion_lat": 0.0, "lat": 38.919885666666666, "type": "electric_bike", "lon": -76.973083, "bike_id": "76e78f85aed772ad0eaeaea7fcaab564", "rental_uris": {"android": "https://dc.lft.to/lastmile_qr_scan", "ios": "https://dc.lft.to/lastmile_qr_scan"}, "name": "76e78f85aed772ad0eaeaea7fcaab564", "is_reserved": 0}, {"is_disabled": 0, "fusion_lon": 0.0, "fusion_lat": 0.0, "lat": 38.8975865, "type": "electric_scooter", "lon": -77.0303485, "bike_id": "565e0863bed37397401566c63a2d9f37", "rental_uris": {"android": "https://dc.lft.to/lastmile_qr_scan", "ios": "https://dc.lft.to/lastmile_qr_scan"}, "name": "565e0863bed37397401566c63a2d9f37", "is_reserved": 0}, {"is_disabled": 0, "fusion_lon": 0.0, "fusion_lat": 0.0, "lat": 38.93376583333333, "type": "electric_scooter", "lon": -77.07247016666666, "bike_id": "e437db37f001cb531665d17bf83f54c6", "rental_uris": {"android": "https://dc.lft.to/lastmile_qr_scan", "ios": "https://dc.lft.to/lastmile_qr_scan"}, "name": "e437db37f001cb531665d17bf83f54c6", "is_reserved": 0}, {"is_disabled": 0, "fusion_lon": 0.0, "fusion_lat": 0.0, "lat": 38.896278, "type": "electric_scooter", "lon": -77.00900416666667, "bike_id": "954255d2b245543eefac68450777befa", "rental_uris": {"android": "https://dc.lft.to/lastmile_qr_scan", "ios": "https://dc.lft.to/lastmile_qr_scan"}, "name": "954255d2b245543eefac68450777befa", "is_reserved": 0}, {"is_disabled": 0, "fusion_lon": 0.0, "fusion_lat": 0.0, "lat": 38.907817666666666, "type": "electric_scooter", "lon": -77.04334316666667, "bike_id": "af80fa0249659f851bec19598b596bc3", "rental_uris": {"android": "https://dc.lft.to/lastmile_qr_scan", "ios": "https://dc.lft.to/lastmile_qr_scan"}, "name": "af80fa0249659f851bec19598b596bc3", "is_reserved": 0}, {"is_disabled": 0, "fusion_lon": 0.0, "fusion_lat": 0.0, "lat": 38.914152, "type": "electric_scooter", "lon": -77.0221435, "bike_id": "05d7b97aee35a680588ea495aab3f20a", "rental_uris": {"android": "https://dc.lft.to/lastmile_qr_scan", "ios": "https://dc.lft.to/lastmile_qr_scan"}, "name": "05d7b97aee35a680588ea495aab3f20a", "is_reserved": 0}, {"is_disabled": 0, "fusion_lon": 0.0, "fusion_lat": 0.0, "lat": 38.9048285, "type": "electric_scooter", "lon": -77.03563883333334, "bike_id": "119d8ead754c834317595f06d49e591c", "rental_uris": {"android": "https://dc.lft.to/lastmile_qr_scan", "ios": "https://dc.lft.to/lastmile_qr_scan"}, "name": "119d8ead754c834317595f06d49e591c", "is_reserved": 0}, {"is_disabled": 0, "fusion_lon": 0.0, "fusion_lat": 0.0, "lat": 38.905479666666665, "type": "electric_scooter", "lon": -77.00584966666666, "bike_id": "e89c397e8d2dd584a416ce62cc1a0ee6", "rental_uris": {"android": "https://dc.lft.to/lastmile_qr_scan", "ios": "https://dc.lft.to/lastmile_qr_scan"}, "name": "e89c397e8d2dd584a416ce62cc1a0ee6", "is_reserved": 0}, {"is_disabled": 0, "fusion_lon": 0.0, "fusion_lat": 0.0, "lat": 38.97538683333333, "type": "electric_bike", "lon": -76.99529683333333, "bike_id": "158e3f5b421e882b8db47098c117a34c", "rental_uris": {"android": "https://dc.lft.to/lastmile_qr_scan", "ios": "https://dc.lft.to/lastmile_qr_scan"}, "name": "158e3f5b421e882b8db47098c117a34c", "is_reserved": 0}, {"is_disabled": 0, "fusion_lon": 0.0, "fusion_lat": 0.0, "lat": 38.90714116666667, "type": "electric_scooter", "lon": -77.0242625, "bike_id": "b50708a0207d5719b7692866b0c752d6", "rental_uris": {"android": "https://dc.lft.to/lastmile_qr_scan", "ios": "https://dc.lft.to/lastmile_qr_scan"}, "name": "b50708a0207d5719b7692866b0c752d6", "is_reserved": 0}, {"is_disabled": 0, "fusion_lon": 0.0, "fusion_lat": 0.0, "lat": 38.915901, "type": "electric_bike", "lon": -76.971493, "bike_id": "5d6135f563ec30f47918014e48283b53", "rental_uris": {"android": "https://dc.lft.to/lastmile_qr_scan", "ios": "https://dc.lft.to/lastmile_qr_scan"}, "name": "5d6135f563ec30f47918014e48283b53", "is_reserved": 0}, {"is_disabled": 0, "fusion_lon": 0.0, "fusion_lat": 0.0, "lat": 38.93580766666667, "type": "electric_bike", "lon": -77.08257266666666, "bike_id": "ad517222aa8020e9bc3981c407f74c2f", "rental_uris": {"android": "https://dc.lft.to/lastmile_qr_scan", "ios": "https://dc.lft.to/lastmile_qr_scan"}, "name": "ad517222aa8020e9bc3981c407f74c2f", "is_reserved": 0}, {"is_disabled": 0, "fusion_lon": 0.0, "fusion_lat": 0.0, "lat": 38.87141033333333, "type": "electric_scooter", "lon": -77.007538, "bike_id": "e0e712bcb93051f7b9c75cb0fe51adab", "rental_uris": {"android": "https://dc.lft.to/lastmile_qr_scan", "ios": "https://dc.lft.to/lastmile_qr_scan"}, "name": "e0e712bcb93051f7b9c75cb0fe51adab", "is_reserved": 0}, {"is_disabled": 0, "fusion_lon": 0.0, "fusion_lat": 0.0, "lat": 38.881338, "type": "electric_scooter", "lon": -77.027099, "bike_id": "1167f8d1d5e4b50f439536a6f72c71b2", "rental_uris": {"android": "https://dc.lft.to/lastmile_qr_scan", "ios": "https://dc.lft.to/lastmile_qr_scan"}, "name": "1167f8d1d5e4b50f439536a6f72c71b2", "is_reserved": 0}, {"is_disabled": 0, "fusion_lon": 0.0, "fusion_lat": 0.0, "lat": 38.873252666666666, "type": "electric_bike", "lon": -77.10620466666667, "bike_id": "435e3a3f848c80e1e5b7e1ff361932c1", "rental_uris": {"android": "https://dc.lft.to/lastmile_qr_scan", "ios": "https://dc.lft.to/lastmile_qr_scan"}, "name": "435e3a3f848c80e1e5b7e1ff361932c1", "is_reserved": 0},