{"data": {"bikes": [{"bike_id": "0b75030a651598ca3d647ed326e6dbcd", "fusion_lon": 0.0, "lon": -76.99431, "name": "0b75030a651598ca3d647ed326e6dbcd", "is_disabled": 0, "rental_uris": {"android": "https://dc.lft.to/lastmile_qr_scan", "ios": "https://dc.lft.to/lastmile_qr_scan"}, "type": "electric_scooter", "lat": 38.903165333333334, "is_reserved": 0, "fusion_lat": 0.0}, {"bike_id": "6678e46048398f80f707fc1412c6d2db", "fusion_lon": 0.0, "lon": -77.0378625, "name": "6678e46048398f80f707fc1412c6d2db", "is_disabled": 0, "rental_uris": {"android": "https://dc.lft.to/lastmile_qr_scan", "ios": "https://dc.lft.to/lastmile_qr_scan"}, "type": "electric_scooter", "lat": 38.92505383333334, "is_reserved": 0, "fusion_lat": 0.0}, {"bike_id": "4d1a7d6256558fb728fcda323443acb3", "fusion_lon": 0.0, "lon": -77.03001916666666, "name": "4d1a7d6256558fb728fcda323443acb3", "is_disabled": 0, "rental_uris": {"android": "https://dc.lft.to/lastmile_qr_scan", "ios": "https://dc.lft.to/lastmile_qr_scan"}, "type": "electric_scooter", "lat": 38.88414783333333, "is_reserved": 0, "fusion_lat": 0.0}, {"bike_id": "5b003266036cd62a89e51c142fd75d85", "fusion_lon": 0.0, "lon": -77.03194216666667, "name": "5b003266036cd62a89e51c142fd75d85", "is_disabled": 0, "rental_uris": {"android": "https://dc.lft.to/lastmile_qr_scan", "ios": "https://dc.lft.to/lastmile_qr_scan"}, "type": "electric_scooter", "lat": 38.91474933333333, "is_reserved": 0, "fusion_lat": 0.0}, {"bike_id": "74d3870ccf6ed0828fa42f5d725a81cf", "fusion_lon": 0.0, "lon": -76.98825833333333, "name": "74d3870ccf6ed0828fa42f5d725a81cf", "is_disabled": 0, "rental_uris": {"android": "https://dc.lft.to/lastmile_qr_scan", "ios": "https://dc.lft.to/lastmile_qr_scan"}, "type": "electric_scooter", "lat": 38.900299, "is_reserved": 0, "fusion_lat": 0.0}, {"bike_id": "97f7ead3e2fa4dd752647477b9a1eff6", "fusion_lon": 0.0, "lon": -77.07822766666666, "name": "97f7ead3e2fa4dd752647477b9a1eff6", "is_disabled": 0, "rental_uris": {"android": "https://dc.lft.to/lastmile_qr_scan", "ios": "https://dc.lft.to/lastmile_qr_scan"}, "type": "electric_bike", "lat": 38.91277083333333, "is_reserved": 0, "fusion_lat": 0.0}, {"bike_id": "fad7cd2a75f6d37ce42f4ab2dba0e850", "fusion_lon": 0.0, "lon": -77.02721533333333, "name": "fad7cd2a75f6d37ce42f4ab2dba0e850", "is_disabled": 0, "rental_uris": {"android": "https://dc.lft.to/lastmile_qr_scan", "ios": "https://dc.lft.to/lastmile_qr_scan"}, "type": "electric_scooter", "lat": 38.94084183333333, "is_reserved": 0, "fusion_lat": 0.0}, {"bike_id": "cc6f958caccd9c1566ab90e1dbbd740d", "fusion_lon": 0.0, "lon": -76.9975255, "name": "cc6f958caccd9c1566ab90e1dbbd740d", "is_disabled": 0, "rental_uris": {"android": "https://dc.lft.to/lastmile_qr_scan", "ios": "https://dc.lft.to/lastmile_qr_scan"}, "type": "electric_scooter", "lat": 38.93226266666667, "is_reserved": 0, "fusion_lat": 0.0}, {"bike_id": "7770f8ae2bbc62a4e3655d0bd39de423", "fusion_lon": 0.0, "lon": -77.00382616666667, "name": "7770f8ae2bbc62a4e3655d0bd39de423", "is_disabled": 0, "rental_uris": {"android": "https://dc.lft.to/lastmile_qr_scan", "ios": "https://dc.lft.to/lastmile_qr_scan"}, "type": "electric_bike", "lat": 38.90744016666667, "is_reserved": 0, "fusion_lat": 0.0}, {"bike_id": "4b0cef2baef36f7944cf3cba7cf1f242", "fusion_lon": 0.0, "lon": -77.04260666666667, "name": "4b0cef2baef36f7944cf3cba7cf1f242", "is_disabled": 0, "rental_uris": {"android": "https://dc.lft.to/lastmile_qr_scan", "ios": "https://dc.lft.to/lastmile_qr_scan"}, "type": "electric_scooter", "lat": 38.922843666666665, "is_reserved": 0, "fusion_lat": 0.0}, {"bike_id": "b5987556fca92e6bc4110506acd2fc4c", "fusion_lon": 0.0, "lon": -77.001974, "name": "b5987556fca92e6bc4110506acd2fc4c", "is_disabled": 0, "rental_uris": {"android": "https://dc.lft.to/lastmile_qr_scan", "ios": "https://dc.lft.to/lastmile_qr_scan"}, "type": "electric_scooter", "lat": 38.9078905, "is_reserved": 0, "fusion_lat": 0.0}, {"bike_id": "874f60ef38eb52930c1d3ce46b51c10d", "fusion_lon": 0.0, "lon": -77.0338155, "name": "874f60ef38eb52930c1d3ce46b51c10d", "is_disabled": 0, "rental_uris": {"android": "https://dc.lft.to/lastmile_qr_scan", "ios": "https://dc.lft.to/lastmile_qr_scan"}, "type": "electric_scooter", "lat": 38.92847166666667, "is_reserved": 0, "fusion_lat": 0.0}, {"bike_id": "a81f460f70c485f777015e402c355611", "fusion_lon": 0.0, "lon": -77.03545383333334, "name": "a81f460f70c485f777015e402c355611", "is_disabled": 0, "rental_uris": {"android": "https://dc.lft.to/lastmile_qr_scan", "ios": "https://dc.lft.to/lastmile_qr_scan"}, "type": "electric_scooter", "lat": 38.92474816666667, "is_reserved": 0, "fusion_lat": 0.0}, {"bike_id": "ce9f7a6315bf1397695739d79bc41007", "fusion_lon": 0.0, "lon": -77.016568, "name": "ce9f7a6315bf1397695739d79bc41007", "is_disabled": 0, "rental_uris": {"android": "https://dc.lft.to/lastmile_qr_scan", "ios": "https://dc.lft.to/lastmile_qr_scan"}, "type": "electric_scooter", "lat": 38.88126483333333, "is_reserved": 0, "fusion_lat": 0.0}, {"bike_id": "f62b9d7450aa65ea1c61650f91a95b2b", "fusion_lon": 0.0, "lon": -77.10089316666667, "name": "f62b9d7450aa65ea1c61650f91a95b2b", "is_disabled": 0, "rental_uris": {"android": "https://dc.lft.to/lastmile_qr_scan", "ios": "https://dc.lft.to/lastmile_qr_scan"}, "type": "electric_bike", "lat": 38.959605833333335, "is_reserved": 0, "fusion_lat": 0.0}, {"bike_id": "7037385bf2c96bc1faca46f180b30921", "fusion_lon": 0.0, "lon": -77.04893133333333, "name": "7037385bf2c96bc1faca46f180b30921", "is_disabled": 0, "rental_uris": {"android": "https://dc.lft.to/lastmile_qr_scan", "ios": "https://dc.lft.to/lastmile_qr_scan"}, "type": "electric_scooter", "lat": 38.90079933333333, "is_reserved": 0, "fusion_lat": 0.0}, {"bike_id": "840466607044f381e7c73a3b0ef87ebd", "fusion_lon": 0.0, "lon": -77.03277683333333, "name": "840466607044f381e7c73a3b0ef87ebd", "is_disabled": 0, "rental_uris": {"android": "https://dc.lft.to/lastmile_qr_scan", "ios": "https://dc.lft.to/lastmile_qr_scan"}, "type": "electric_scooter", "lat": 38.916267500000004, "is_reserved": 0, "fusion_lat": 0.0}, {"bike_id": "06bb010e7c31bd769506b00709cac040", "fusion_lon": 0.0, "lon": -77.03584783333334, "name": "06bb010e7c31bd769506b00709cac040", "is_disabled": 0, "rental_uris": {"android": "https://dc.lft.to/lastmile_qr_scan", "ios": "https://dc.lft.to/lastmile_qr_scan"}, "type": "electric_scooter", "lat": 38.927980166666664, "is_reserved": 0, "fusion_lat": 0.0}, {"bike_id": "f9db4f4d103819d3b2f23e6780f96be1", "fusion_lon": 0.0, "lon": -77.04341616666666, "name": "f9db4f4d103819d3b2f23e6780f96be1", "is_disabled": 0, "rental_uris": {"android": "https://dc.lft.to/lastmile_qr_scan", "ios": "https://dc.lft.to/lastmile_qr_scan"}, "type": "electric_scooter", "lat": 38.90506083333333, "is_reserved": 0, "fusion_lat": 0.0}, {"bike_id": "5a548f032b82ecd81bf0af22390b0c8f", "fusion_lon": 0.0, "lon": -76.95017916666667, "name": "5a548f032b82ecd81bf0af22390b0c8f", "is_disabled": 0, "rental_uris": {"android": "https://dc.lft.to/lastmile_qr_scan", "ios": "https://dc.lft.to/lastmile_qr_scan"}, "type": "electric_scooter", "lat": 38.8938845, "is_reserved": 0, "fusion_lat": 0.0}, {"bike_id": "ef2a0344675cb67c448038bde6ef8212", "fusion_lon": 0.0, "lon": -77.0400825, "name": "ef2a0344675cb67c448038bde6ef8212", "is_disabled": 0, "rental_uris": {"android": "https://dc.lft.to/lastmile_qr_scan", "ios": "https://dc.lft.to/lastmile_qr_scan"}, "type": "electric_scooter", "lat": 38.924282833333336, "is_reserved": 0, "fusion_lat": 0.0}, {"bike_id": "0157efe27b646baebb26807d4160fa11", "fusion_lon": 0.0, "lon": -77.0365845, "name": "0157efe27b646baebb26807d4160fa11", "is_disabled": 0, "rental_uris": {"android": "https://dc.lft.to/lastmile_qr_scan", "ios": "https://dc.lft.to/lastmile_qr_scan"}, "type": "electric_scooter", "lat": 38.928621666666665, "is_reserved": 0, "fusion_lat": 0.0}, {"bike_id": "4e45df60f6790c208061e549d6c204cd", "fusion_lon": 0.0, "lon": -76.972636, "name": "4e45df60f6790c208061e549d6c204cd", "is_disabled": 0, "rental_uris": {"android": "https://dc.lft.to/lastmile_qr_scan", "ios": "https://dc.lft.to/lastmile_qr_scan"}, "type": "electric_bike", "lat": 38.91963916666667, "is_reserved": 0, "fusion_lat": 0.0}, {"bike_id": "7d0a4e11a080441b7029cf0f39dd3276", "fusion_lon": 0.0, "lon": -77.05876283333333, "name": "7d0a4e11a080441b7029cf0f39dd3276", "is_disabled": 0, "rental_uris": {"android": "https://dc.lft.to/lastmile_qr_scan", "ios": "https://dc.lft.to/lastmile_qr_scan"}, "type": "electric_bike", "lat": 38.9589225, "is_reserved": 0, "fusion_lat": 0.0}, {"bike_id": "49af351aa293b823685ac16a5914408f", "fusion_lon": 0.0, "lon": -77.04870266666667, "name": "49af351aa293b823685ac16a5914408f", "is_disabled": 0, "rental_uris": {"android": "https://dc.lft.to/lastmile_qr_scan", "ios": "https://dc.lft.to/lastmile_qr_scan"}, "type": "electric_scooter", "lat": 38.90469316666667, "is_reserved": 0, "fusion_lat": 0.0}, {"bike_id": "793179d0b56d0a3d3ebc0a50bf97a0b8", "fusion_lon": 0.0, "lon": -77.0129105, "name": "793179d0b56d0a3d3ebc0a50bf97a0b8", "is_disabled": 0, "rental_uris": {"android": "https://dc.lft.to/lastmile_qr_scan", "ios": "https://dc.lft.to/lastmile_qr_scan"}, "type": "electric_bike", "lat": 39.00379933333333, "is_reserved": 0, "fusion_lat": 0.0}, {"bike_id": "84344d2c7850723770f21fc356c9a269", "fusion_lon": 0.0, "lon": -77.046502, "name": "84344d2c7850723770f21fc356c9a269", "is_disabled": 0, "rental_uris": {"android": "https://dc.lft.to/lastmile_qr_scan", "ios": "https://dc.lft.to/lastmile_qr_scan"}, "type": "electric_bike", "lat": 39.0550225, "is_reserved": 0, "fusion_lat": 0.0}, {"bike_id": "fd4273e534b0cbfe43539a558ca91c13", "fusion_lon": 0.0, "lon": -76.93731783333334, "name": "fd4273e534b0cbfe43539a558ca91c13", "is_disabled": 0, "rental_uris": {"android": "https://dc.lft.to/lastmile_qr_scan", "ios": "https://dc.lft.to/lastmile_qr_scan"}, "type": "electric_scooter", "lat": 38.89013583333333, "is_reserved": 0, "fusion_lat": 0.0}, {"bike_id": "dd91b60a26fb924d7c436ef6b2d87569", "fusion_lon": 0.0, "lon": -77.03405133333334, "name": "dd91b60a26fb924d7c436ef6b2d87569", "is_disabled": 0, "rental_uris": {"android": "https://dc.lft.to/lastmile_qr_scan", "ios": "https://dc.lft.to/lastmile_qr_scan"}, "type": "electric_scooter", "lat": 38.9071435, "is_reserved": 0, "fusion_lat": 0.0}, {"bike_id": "03c6c8d84dd212e73b104c49546651da", "fusion_lon": 0.0, "lon": -77.0384465, "name": "03c6c8d84dd212e73b104c49546651da", "is_disabled": 0, "rental_uris": {"android": "https://dc.lft.to/lastmile_qr_scan", "ios": "https://dc.lft.to/lastmile_qr_scan"}, "type": "electric_scooter", "lat": 38.9067525, "is_reserved": 0, "fusion_lat": 0.0}, {"bike_id": "b1faeffb8804159144b9c732ea834416", "fusion_lon": 0.0, "lon": -77.028838, "name": "b1faeffb8804159144b9c732ea834416", "is_disabled": 0, "rental_uris": {"android": "https://dc.lft.to/lastmile_qr_scan", "ios": "https://dc.lft.to/lastmile_qr_scan"}, "type": "electric_bike", "lat": 38.998852, "is_reserved": 0, "fusion_lat": 0.0}, {"bike_id": "285c0654476aa98dda62b26becf40083", "fusion_lon": 0.0, "lon": -77.03181166666667, "name": "285c0654476aa98dda62b26becf40083", "is_disabled": 0, "rental_uris": {"android": "https://dc.lft.to/lastmile_qr_scan", "ios": "https://dc.lft.to/lastmile_qr_scan"}, "type": "electric_scooter", "lat": 38.90147266666666, "is_reserved": 0, "fusion_lat": 0.0}, {"bike_id": "780d3c210a09f85f0ded28f234ecc479", "fusion_lon": 0.0, "lon": -76.98882216666667, "name": "780d3c210a09f85f0ded28f234ecc479", "is_disabled": 0, "rental_uris": {"android": "https://dc.lft.to/lastmile_qr_scan", "ios": "https://dc.lft.to/lastmile_qr_scan"}, "type": "electric_scooter", "lat": 38.8666025, "is_reserved": 0, "fusion_lat": 0.0}, {"bike_id": "fe5de69cc102618e929142a4f271839f", "fusion_lon": 0.0, "lon": -77.03414533333333, "name": "fe5de69cc102618e929142a4f271839f", "is_disabled": 0, "rental_uris": {"android": "https://dc.lft.to/lastmile_qr_scan", "ios": "https://dc.lft.to/lastmile_qr_scan"}, "type": "electric_scooter", "lat": 38.905613333333335, "is_reserved": 0, "fusion_lat": 0.0}, {"bike_id": "4dbdcc69a8a9063635524c740764b5fe", "fusion_lon": 0.0, "lon": -77.02156683333334, "name": "4dbdcc69a8a9063635524c740764b5fe", "is_disabled": 0, "rental_uris": {"android": "https://dc.lft.to/lastmile_qr_scan", "ios": "https://dc.lft.to/lastmile_qr_scan"}, "type": "electric_scooter", "lat": 38.924966, "is_reserved": 0, "fusion_lat": 0.0}, {"bike_id": "89bdc2145d7408c99340a60b9535878a", "fusion_lon": 0.0, "lon": -77.02408716666666, "name": "89bdc2145d7408c99340a60b9535878a", "is_disabled": 0, "rental_uris": {"android": "https://dc.lft.to/lastmile_qr_scan", "ios": "https://dc.lft.to/lastmile_qr_scan"}, "type": "electric_scooter", "lat": 38.90578, "is_reserved": 0, "fusion_lat": 0.0}, {"bike_id": "82d678d05817a7541b1e211c2f2596dc", "fusion_lon": 0.0, "lon": -77.02373533333333, "name": "82d678d05817a7541b1e211c2f2596dc", "is_disabled": 0, "rental_uris": {"android": "https://dc.lft.to/lastmile_qr_scan", "ios": "https://dc.lft.to/lastmile_qr_scan"}, "type": "electric_scooter", "lat": 38.90194483333333, "is_reserved": 0, "fusion_lat": 0.0}, {"bike_id": "7e95091f2dfe2583fca0030831a057d5", "fusion_lon": 0.0, "lon": -77.2164815, "name": "7e95091f2dfe2583fca0030831a057d5", "is_disabled": 0, "rental_uris": {"android": "https://dc.lft.to/lastmile_qr_scan", "ios": "https://dc.lft.to/lastmile_qr_scan"}, "type": "electric_bike", "lat": 38.93013166666667, "is_reserved": 0, "fusion_lat": 0.0}, {"bike_id": "4890503eec554f3c2c3deb17b38f204e", "fusion_lon": 0.0, "lon": -77.05755516666666, "name": "4890503eec554f3c2c3deb17b38f204e", "is_disabled": 0, "rental_uris": {"android": "https://dc.lft.to/lastmile_qr_scan", "ios": "https://dc.lft.to/lastmile_qr_scan"}, "type": "electric_scooter", "lat": 38.92494883333333, "is_reserved": 0, "fusion_lat": 0.0}, {"bike_id": "245cf10d02ff580ee5e6d8d1f0c833cb", "fusion_lon": 0.0, "lon": -76.98769533333333, "name": "245cf10d02ff580ee5e6d8d1f0c833cb", "is_disabled": 0, "rental_uris": {"android": "https://dc.lft.to/lastmile_qr_scan", "ios": "https://dc.lft.to/lastmile_qr_scan"}, "type": "electric_bike", "lat": 38.857686666666666, "is_reserved": 0, "fusion_lat": 0.0}, {"bike_id": "f9e2c347bcb05f9794f85477d01b8a32", "fusion_lon": 0.0, "lon": -77.048979, "name": "f9e2c347bcb05f9794f85477d01b8a32", "is_disabled": 0, "rental_uris": {"android": "https://dc.lft.to/lastmile_qr_scan", "ios": "https://dc.lft.to/lastmile_qr_scan"}, "type": "electric_scooter", "lat": 38.8899935, "is_reserved": 0, "fusion_lat": 0.0}, {"bike_id": "60bed7363bd3dfab7f589ba1e3d069cd", "fusion_lon": 0.0, "lon": -77.0498095, "name": "60bed7363bd3dfab7f589ba1e3d069cd", "is_disabled": 0, "rental_uris": {"android": "https://dc.lft.to/lastmile_qr_scan", "ios": "https://dc.lft.to/lastmile_qr_scan"}, "type": "electric_bike", "lat": 39.0629335, "is_reserved": 0, "fusion_lat": 0.0}, {"bike_id": "97eb98e753e37b2a3f01e3e7a2a14b00", "fusion_lon": 0.0, "lon": -76.98422366666667, "name": "97eb98e753e37b2a3f01e3e7a2a14b00", "is_disabled": 0, "rental_uris": {"android": "https://dc.lft.to/lastmile_qr_scan", "ios": "https://dc.lft.to/lastmile_qr_scan"}, "type": "electric_bike", "lat": 38.85508216666667, "is_reserved": 0, "fusion_lat": 0.0}, {"bike_id": "8ef8b88d0931d821181559616fd096ca", "fusion_lon": 0.0, "lon": -77.03208766666667, "name": "8ef8b88d0931d821181559616fd096ca", "is_disabled": 0, "rental_uris": {"android": "https://dc.lft.to/lastmile_qr_scan", "ios": "https://dc.lft.to/lastmile_qr_scan"}, "type": "electric_scooter", "lat": 38.89531933333333, "is_reserved": 0, "fusion_lat": 0.0}, {"bike_id": "f8b28bd43ca655fa5a794c206dabfc02", "fusion_lon": 0.0, "lon": -77.02389133333334, "name": "f8b28bd43ca655fa5a794c206dabfc02", "is_disabled": 0, "rental_uris": {"android": "https://dc.lft.to/lastmile_qr_scan", "ios": "https://dc.lft.to/lastmile_qr_scan"}, "type": "electric_scooter", "lat": 38.901991833333334, "is_reserved": 0, "fusion_lat": 0.0}, {"bike_id": "df5ab1b92967b906d415b7839e1cbfb0", "fusion_lon": 0.0, "lon": -77.039607, "name": "df5ab1b92967b906d415b7839e1cbfb0", "is_disabled": 0, "rental_uris": {"android": "https://dc.lft.to/lastmile_qr_scan", "ios": "https://dc.lft.to/lastmile_qr_scan"}, "type": "electric_scooter", "lat": 38.902569666666665, "is_reserved": 0, "fusion_lat": 0.0}, {"bike_id": "40949a91e6d5a3c59a1291cbfcc20fc9", "fusion_lon": 0.0, "lon": -77.00242666666666, "name": "40949a91e6d5a3c59a1291cbfcc20fc9", "is_disabled": 0, "rental_uris": {"android": "https://dc.lft.to/lastmile_qr_scan", "ios": "https://dc.lft.to/lastmile_qr_scan"}, "type": "electric_scooter", "lat": 38.885122, "is_reserved": 0, "fusion_lat": 0.0}, {"bike_id": "0033c2187ad8d554b869c9dc03c20bb5", "fusion_lon": 0.0, "lon": -77.02549666666667, "name": "0033c2187ad8d554b869c9dc03c20bb5", "is_disabled": 0, "rental_uris": {"android": "https://dc.lft.to/lastmile_qr_scan", "ios": "https://dc.lft.to/lastmile_qr_scan"}, "type": "electric_scooter", "lat": 38.9163335, "is_reserved": 0, "fusion_lat": 0.0}, {"bike_id": "8b741fcb7d4821101a3af3222a163d95", "fusion_lon": 0.0, "lon": -77.00886233333334, "name": "8b741fcb7d4821101a3af3222a163d95", "is_disabled": 0, "rental_uris": {"android": "https://dc.lft.to/lastmile_qr_scan", "ios": "https://dc.lft.to/lastmile_qr_scan"}, "type": "electric_scooter", "lat": 38.924862166666664, "is_reserved": 0, "fusion_lat": 0.0}, {"bike_id": "369d3e1cd99970982759cbc740163de0", "fusion_lon": 0.0, "lon": -77.02802983333333, "name": "369d3e1cd99970982759cbc740163de0", "is_disabled": 0, "rental_uris": {"android": "https://dc.lft.to/lastmile_qr_scan", "ios": "https://dc.lft.to/lastmile_qr_scan"}, "type": "electric_scooter", "lat": 38.962331166666665, "is_reserved": 0, "fusion_lat": 0.0}, {"bike_id": "edaeb26db768e1e95f3b7fc2ca13bedb", "fusion_lon": 0.0, "lon": -77.02564466666666, "name": "edaeb26db768e1e95f3b7fc2ca13bedb", "is_disabled": 0, "rental_uris": {"android": "https://dc.lft.to/lastmile_qr_scan", "ios": "https://dc.lft.to/lastmile_qr_scan"}, "type": "electric_scooter", "lat": 38.88053516666667, "is_reserved": 0, "fusion_lat": 0.0}, {"bike_id": "6c2863d9b916a4653854108f3a3e85d3", "fusion_lon": 0.0, "lon": -77.034949, "name": "6c2863d9b916a4653854108f3a3e85d3", "is_disabled": 0, "rental_uris": {"android": "https://dc.lft.to/lastmile_qr_scan", "ios": "https://dc.lft.to/lastmile_qr_scan"}, "type": "electric_scooter", "lat": 38.9169515, "is_reserved": 0, "fusion_lat": 0.0}, {"bike_id": "ceb05782f67d2578a12baa00c3c1666c", "fusion_lon": 0.0, "lon": -77.04398666666667, "name": "ceb05782f67d2578a12baa00c3c1666c", "is_disabled": 0, "rental_uris": {"android": "https://dc.lft.to/lastmile_qr_scan", "ios": "https://dc.lft.to/lastmile_qr_scan"}, "type": "electric_scooter", "lat": 38.912638666666666, "is_reserved": 0, "fusion_lat": 0.0}, {"bike_id": "000022f2102980d7247e98422223f6b5", "fusion_lon": 0.0, "lon": -77.049283, "name": "000022f2102980d7247e98422223f6b5", "is_disabled": 0, "rental_uris": {"android": "https://dc.lft.to/lastmile_qr_scan", "ios": "https://dc.lft.to/lastmile_qr_scan"}, "type": "electric_bike", "lat": 38.8134515, "is_reserved": 0, "fusion_lat": 0.0}, {"bike_id": "6c86a84a9bb10110afe09d554c623784", "fusion_lon": 0.0, "lon": -77.04358916666666, "name": "6c86a84a9bb10110afe09d554c623784", "is_disabled": 0, "rental_uris": {"android": "https://dc.lft.to/lastmile_qr_scan", "ios": "https://dc.lft.to/lastmile_qr_scan"}, "type": "electric_scooter", "lat": 38.90290983333333, "is_reserved": 0, "fusion_lat": 0.0}, {"bike_id": "52367fbc247ec716f876b3d80d6827f9", "fusion_lon": 0.0, "lon": -77.01743633333334, "name": "52367fbc247ec716f876b3d80d6827f9", "is_disabled": 0, "rental_uris": {"android": "https://dc.lft.to/lastmile_qr_scan", "ios": "https://dc.lft.to/lastmile_qr_scan"}, "type": "electric_scooter", "lat": 38.874975, "is_reserved": 0, "fusion_lat": 0.0}, {"bike_id": "95eac189107c7efe7cc9d700913dfe9f", "fusion_lon": 0.0, "lon": -77.01995083333334, "name": "95eac189107c7efe7cc9d700913dfe9f", "is_disabled": 0, "rental_uris": {"android": "https://dc.lft.to/lastmile_qr_scan", "ios": "https://dc.lft.to/lastmile_qr_scan"}, "type": "electric_scooter", "lat": 38.91364083333333, "is_reserved": 0, "fusion_lat": 0.0}, {"bike_id": "963cd4ef34c51d0f591d15eb11043d4b", "fusion_lon": 0.0, "lon": -77.0238965, "name": "963cd4ef34c51d0f591d15eb11043d4b", "is_disabled": 0, "rental_uris": {"android": "https://dc.lft.to/lastmile_qr_scan", "ios": "https://dc.lft.to/lastmile_qr_scan"}, "type": "electric_scooter", "lat": 38.901986, "is_reserved": 0, "fusion_lat": 0.0}, {"bike_id": "49df61192c5eb00ee86e7d5b51d8d58f", "fusion_lon": 0.0, "lon": -77.05855183333334, "name": "49df61192c5eb00ee86e7d5b51d8d58f", "is_disabled": 0, "rental_uris": {"android": "https://dc.lft.to/lastmile_qr_scan", "ios": "https://dc.lft.to/lastmile_qr_scan"}, "type": "electric_scooter", "lat": 38.935865, "is_reserved": 0, "fusion_lat": 0.0}, {"bike_id": "a6f6fba018568943fedd850a3f2c6636", "fusion_lon": 0.0, "lon": -77.017385, "name": "a6f6fba018568943fedd850a3f2c6636", "is_disabled": 0, "rental_uris": {"android": "https://dc.lft.to/lastmile_qr_scan", "ios": "https://dc.lft.to/lastmile_qr_scan"}, "type": "electric_scooter", "lat": 38.872713833333336, "is_reserved": 0, "fusion_lat": 0.0}, {"bike_id": "593138d1b507d78b25f1daa4804868cf", "fusion_lon": 0.0, "lon": -77.02692766666667, "name": "593138d1b507d78b25f1daa4804868cf", "is_disabled": 0, "rental_uris": {"android": "https://dc.lft.to/lastmile_qr_scan", "ios": "https://dc.lft.to/lastmile_qr_scan"}, "type": "electric_scooter", "lat": 38.911229166666665, "is_reserved": 0, "fusion_lat": 0.0}, {"bike_id": "78c71fe2935fcad77065b0e5d92ed8e1", "fusion_lon": 0.0, "lon": -77.04569383333333, "name": "78c71fe2935fcad77065b0e5d92ed8e1", "is_disabled": 0, "rental_uris": {"android": "https://dc.lft.to/lastmile_qr_scan", "ios": "https://dc.lft.to/lastmile_qr_scan"}, "type": "electric_bike", "lat": 38.92419116666667, "is_reserved": 0, "fusion_lat": 0.0}, {"bike_id": "393cf3ee6e86fd52f4f1d5e6e8e20df0", "fusion_lon": 0.0, "lon": -76.98717483333333, "name": "393cf3ee6e86fd52f4f1d5e6e8e20df0", "is_disabled": 0, "rental_uris": {"android": "https://dc.lft.to/lastmile_qr_scan", "ios": "https://dc.lft.to/lastmile_qr_scan"}, "type": "electric_scooter", "lat": 38.8663335, "is_reserved": 0, "fusion_lat": 0.0}, {"bike_id": "2651a223830e8e03ff36f4f003e09253", "fusion_lon": 0.0, "lon": -77.04638766666666, "name": "2651a223830e8e03ff36f4f003e09253", "is_disabled": 0, "rental_uris": {"android": "https://dc.lft.to/lastmile_qr_scan", "ios": "https://dc.lft.to/lastmile_qr_scan"}, "type": "electric_scooter", "lat": 38.89529116666667, "is_reserved": 0, "fusion_lat": 0.0}, {"bike_id": "e5239462bc9cce8667d3617133f9729d", "fusion_lon": 0.0, "lon": -77.033018, "name": "e5239462bc9cce8667d3617133f9729d", "is_disabled": 0, "rental_uris": {"android": "https://dc.lft.to/lastmile_qr_scan", "ios": "https://dc.lft.to/lastmile_qr_scan"}, "type": "electric_scooter", "lat": 38.90739, "is_reserved": 0, "fusion_lat": 0.0}, {"bike_id": "72b04badc55ca0a1604a8db8d22c7897", "fusion_lon": 0.0, "lon": -77.02166233333334, "name": "72b04badc55ca0a1604a8db8d22c7897", "is_disabled": 0, "rental_uris": {"android": "https://dc.lft.to/lastmile_qr_scan", "ios": "https://dc.lft.to/lastmile_qr_scan"}, "type": "electric_scooter", "lat": 38.89731616666667, "is_reserved": 0, "fusion_lat": 0.0}, {"bike_id": "f9cc36fd3f48c3e33ecbd9d8b98013a9", "fusion_lon": 0.0, "lon": -76.94633766666666, "name": "f9cc36fd3f48c3e33ecbd9d8b98013a9", "is_disabled": 0, "rental_uris": {"android": "https://dc.lft.to/lastmile_qr_scan", "ios": "https://dc.lft.to/lastmile_qr_scan"}, "type": "electric_scooter", "lat": 38.898424, "is_reserved": 0, "fusion_lat": 0.0}, {"bike_id": "00a07a62d3bf06ef5a892453c7fdb5ae", "fusion_lon": 0.0, "lon": -77.03364966666666, "name": "00a07a62d3bf06ef5a892453c7fdb5ae", "is_disabled": 0, "rental_uris": {"android": "https://dc.lft.to/lastmile_qr_scan", "ios": "https://dc.lft.to/lastmile_qr_scan"}, "type": "electric_scooter", "lat": 38.902688833333336, "is_reserved": 0, "fusion_lat": 0.0}, {"bike_id": "e6aaefe99e5bc9f51d0ccc4bcd3f0e71", "fusion_lon": 0.0, "lon": -77.02192666666667, "name": "e6aaefe99e5bc9f51d0ccc4bcd3f0e71", "is_disabled": 0, "rental_uris": {"android": "https://dc.lft.to/lastmile_qr_scan", "ios": "https://dc.lft.to/lastmile_qr_scan"}, "type": "electric_scooter", "lat": 38.884965666666666, "is_reserved": 0, "fusion_lat": 0.0}, {"bike_id": "02be3b134e7d41b39f6fd3d7cb7bdc73", "fusion_lon": 0.0, "lon": -77.02312716666667, "name": "02be3b134e7d41b39f6fd3d7cb7bdc73", "is_disabled": 0, "rental_uris": {"android": "https://dc.lft.to/lastmile_qr_scan", "ios": "https://dc.lft.to/lastmile_qr_scan"}, "type": "electric_scooter", "lat": 38.916160166666664, "is_reserved": 0, "fusion_lat": 0.0}, {"bike_id": "87afdfa5ba3b34f4c59487f14ccd173f", "fusion_lon": 0.0, "lon": -77.04600616666667, "name": "87afdfa5ba3b34f4c59487f14ccd173f", "is_disabled": 0, "rental_uris": {"android": "https://dc.lft.to/lastmile_qr_scan", "ios": "https://dc.lft.to/lastmile_qr_scan"}, "type": "electric_scooter", "lat": 38.902701, "is_reserved": 0, "fusion_lat": 0.0}, {"bike_id": "b8250f43a1d28d32bb0617086865453a", "fusion_lon": 0.0, "lon": -77.03844266666667, "name": "b8250f43a1d28d32bb0617086865453a", "is_disabled": 0, "rental_uris": {"android": "https://dc.lft.to/lastmile_qr_scan", "ios": "https://dc.lft.to/lastmile_qr_scan"}, "type": "electric_scooter", "lat": 38.908022, "is_reserved": 0, "fusion_lat": 0.0}, {"bike_id": "a70f705cce998c8bfe8d35df9386e098", "fusion_lon": 0.0, "lon": -77.02718566666667, "name": "a70f705cce998c8bfe8d35df9386e098", "is_disabled": 0, "rental_uris": {"android": "https://dc.lft.to/lastmile_qr_scan", "ios": "https://dc.lft.to/lastmile_qr_scan"}, "type": "electric_scooter", "lat": 38.94955933333333, "is_reserved": 0, "fusion_lat": 0.0}, {"bike_id": "dcc3140dac49d1af1635e885c8e19fd3", "fusion_lon": 0.0, "lon": -77.030943, "name": "dcc3140dac49d1af1635e885c8e19fd3", "is_disabled": 0, "rental_uris": {"android": "https://dc.lft.to/lastmile_qr_scan", "ios": "https://dc.lft.to/lastmile_qr_scan"}, "type": "electric_scooter", "lat": 38.9110175, "is_reserved": 0, "fusion_lat": 0.0}, {"bike_id": "7726e76cddf8a7e3a968b22964d200d2", "fusion_lon": 0.0, "lon": -77.03175733333333, "name": "7726e76cddf8a7e3a968b22964d200d2", "is_disabled": 0, "rental_uris": {"android": "https://dc.lft.to/lastmile_qr_scan", "ios": "https://dc.lft.to/lastmile_qr_scan"}, "type": "electric_scooter", "lat": 38.919231, "is_reserved": 0, "fusion_lat": 0.0}, {"bike_id": "492fb92a4c8de2cb7dfa2ae0e545b025", "fusion_lon": 0.0, "lon": -77.01292466666666, "name": "492fb92a4c8de2cb7dfa2ae0e545b025", "is_disabled": 0, "rental_uris": {"android": "https://dc.lft.to/lastmile_qr_scan", "ios": "https://dc.lft.to/lastmile_qr_scan"}, "type": "electric_scooter", "lat": 38.900562666666666, "is_reserved": 0, "fusion_lat": 0.0}, {"bike_id": "665b07f458aac8f4be4c2d154228e863", "fusion_lon": 0.0, "lon": -77.05024583333334, "name": "665b07f458aac8f4be4c2d154228e863", "is_disabled": 0, "rental_uris": {"android": "https://dc.lft.to/lastmile_qr_scan", "ios": "https://dc.lft.to/lastmile_qr_scan"}, "type": "electric_scooter", "lat": 38.906161833333336, "is_reserved": 0, "fusion_lat": 0.0}, {"bike_id": "038dfa70b1a0d51804284d6756ea8c60", "fusion_lon": 0.0, "lon": -77.026159, "name": "038dfa70b1a0d51804284d6756ea8c60", "is_disabled": 0, "rental_uris": {"android": "https://dc.lft.to/lastmile_qr_scan", "ios": "https://dc.lft.to/lastmile_qr_scan"}, "type": "electric_scooter", "lat": 38.92809533333333, "is_reserved": 0, "fusion_lat": 0.0}, {"bike_id": "9066e063da1c3071465a1aa0d3481c5e", "fusion_lon": 0.0, "lon": -77.0231965, "name": "9066e063da1c3071465a1aa0d3481c5e", "is_disabled": 0, "rental_uris": {"android": "https://dc.lft.to/lastmile_qr_scan", "ios": "https://dc.lft.to/lastmile_qr_scan"}, "type": "electric_scooter", "lat": 38.9294365, "is_reserved": 0, "fusion_lat": 0.0}, {"bike_id": "b7fa4ab86ddedd109f0b964798520b39", "fusion_lon": 0.0, "lon": -77.03714933333333, "name": "b7fa4ab86ddedd109f0b964798520b39", "is_disabled": 0, "rental_uris": {"android": "https://dc.lft.to/lastmile_qr_scan", "ios": "https://dc.lft.to/lastmile_qr_scan"}, "type": "electric_scooter", "lat": 38.90368433333333, "is_reserved": 0, "fusion_lat": 0.0}, {"bike_id": "316c305f5350c305240b1b9d20e01d7b", "fusion_lon": 0.0, "lon": -76.99517566666667, "name": "316c305f5350c305240b1b9d20e01d7b", "is_disabled": 0, "rental_uris": {"android": "https://dc.lft.to/lastmile_qr_scan", "ios": "https://dc.lft.to/lastmile_qr_scan"}, "type": "electric_scooter", "lat": 38.90978616666666, "is_reserved": 0, "fusion_lat": 0.0}, {"bike_id": "59cd46649c37ed7a5c78e8de39b29d51", "fusion_lon": 0.0, "lon": -77.03108316666666, "name": "59cd46649c37ed7a5c78e8de39b29d51", "is_disabled": 0, "rental_uris": {"android": "https://dc.lft.to/lastmile_qr_scan", "ios": "https://dc.lft.to/lastmile_qr_scan"}, "type": "electric_scooter", "lat": 38.9464825, "is_reserved": 0, "fusion_lat": 0.0}, {"bike_id": "2694f32b6affc5c447c86eafb6abe632", "fusion_lon": 0.0, "lon": -77.03165216666666, "name": "2694f32b6affc5c447c86eafb6abe632", "is_disabled": 0, "rental_uris": {"android": "https://dc.lft.to/lastmile_qr_scan", "ios": "https://dc.lft.to/lastmile_qr_scan"}, "type": "electric_scooter", "lat": 38.892219833333336, "is_reserved": 0, "fusion_lat": 0.0}, {"bike_id": "4652f1a28c045b5cc0eccbebed3bccec", "fusion_lon": 0.0, "lon": -77.1170925, "name": "4652f1a28c045b5cc0eccbebed3bccec", "is_disabled": 0, "rental_uris": {"android": "https://dc.lft.to/lastmile_qr_scan", "ios": "https://dc.lft.to/lastmile_qr_scan"}, "type": "electric_bike", "lat": 38.86744983333333, "is_reserved": 0, "fusion_lat": 0.0}, {"bike_id": "5ab74f628b95eb3290dd11cb05d608fc", "fusion_lon": 0.0, "lon": -77.00368633333333, "name": "5ab74f628b95eb3290dd11cb05d608fc", "is_disabled": 0, "rental_uris": {"android": "https://dc.lft.to/lastmile_qr_scan", "ios": "https://dc.lft.to/lastmile_qr_scan"}, "type": "electric_scooter", "lat": 38.882607, "is_reserved": 0, "fusion_lat": 0.0}, {"bike_id": "7ed116d75a8a556d1021dbec3668262a", "fusion_lon": 0.0, "lon": -77.00656383333333, "name": "7ed116d75a8a556d1021dbec3668262a", "is_disabled": 0, "rental_uris": {"android": "https://dc.lft.to/lastmile_qr_scan", "ios": "https://dc.lft.to/lastmile_qr_scan"}, "type": "electric_scooter", "lat": 38.94462466666667, "is_reserved": 0, "fusion_lat": 0.0}, {"bike_id": "e859273d309de976e19364f2ae4501c7", "fusion_lon": 0.0, "lon": -76.98841233333333, "name": "e859273d309de976e19364f2ae4501c7", "is_disabled": 0, "rental_uris": {"android": "https://dc.lft.to/lastmile_qr_scan", "ios": "https://dc.lft.to/lastmile_qr_scan"}, "type": "electric_bike", "lat": 38.842765, "is_reserved": 0, "fusion_lat": 0.0}, {"bike_id": "cd2ca8892716ee437710cbff6a4b8cef", "fusion_lon": 0.0, "lon": -77.02489883333334, "name": "cd2ca8892716ee437710cbff6a4b8cef", "is_disabled": 0, "rental_uris": {"android": "https://dc.lft.to/lastmile_qr_scan", "ios": "https://dc.lft.to/lastmile_qr_scan"}, "type": "electric_scooter", "lat": 38.90727, "is_reserved": 0, "fusion_lat": 0.0}, {"bike_id": "f73025955324caa24c9dc4b9bb1b3d9f", "fusion_lon": 0.0, "lon": -77.0298735, "name": "f73025955324caa24c9dc4b9bb1b3d9f", "is_disabled": 0, "rental_uris": {"android": "https://dc.lft.to/lastmile_qr_scan", "ios": "https://dc.lft.to/lastmile_qr_scan"}, "type": "electric_scooter", "lat": 38.90364866666667, "is_reserved": 0, "fusion_lat": 0.0}, {"bike_id": "352a28cda9061b57a9b7d6345368e1e7", "fusion_lon": 0.0, "lon": -77.04892016666666, "name": "352a28cda9061b57a9b7d6345368e1e7", "is_disabled": 0, "rental_uris": {"android": "https://dc.lft.to/lastmile_qr_scan", "ios": "https://dc.lft.to/lastmile_qr_scan"}, "type": "electric_scooter", "lat": 38.900796666666665, "is_reserved": 0, "fusion_lat": 0.0}, {"bike_id": "f64b4a470e0c5283f4af40b7c6ba476c", "fusion_lon": 0.0, "lon": -77.06925516666666, "name": "f64b4a470e0c5283f4af40b7c6ba476c", "is_disabled": 0, "rental_uris": {"android": "https://dc.lft.to/lastmile_qr_scan", "ios": "https://dc.lft.to/lastmile_qr_scan"}, "type": "electric_scooter", "lat": 38.9077165, "is_reserved": 0, "fusion_lat": 0.0}, {"bike_id": "f80c6c0cc0f95fae5fb843b8d100ba74", "fusion_lon": 0.0, "lon": -77.059325, "name": "f80c6c0cc0f95fae5fb843b8d100ba74", "is_disabled": 0, "rental_uris": {"android": "https://dc.lft.to/lastmile_qr_scan", "ios": "https://dc.lft.to/lastmile_qr_scan"}, "type": "electric_scooter", "lat": 38.909410666666666, "is_reserved": 0, "fusion_lat": 0.0}, {"bike_id": "34cb48bfe9aef38c56ed78e8c1d8c2ec", "fusion_lon": 0.0, "lon": -77.04635, "name": "34cb48bfe9aef38c56ed78e8c1d8c2ec", "is_disabled": 0, "rental_uris": {"android": "https://dc.lft.to/lastmile_qr_scan", "ios": "https://dc.lft.to/lastmile_qr_scan"}, "type": "electric_scooter", "lat": 38.9157225, "is_reserved": 0, "fusion_lat": 0.0}, {"bike_id": "6a5c70882c87016de1c31ec70b2fdd6a", "fusion_lon": 0.0, "lon": -77.03361516666666, "name": "6a5c70882c87016de1c31ec70b2fdd6a", "is_disabled": 0, "rental_uris": {"android": "https://dc.lft.to/lastmile_qr_scan", "ios": "https://dc.lft.to/lastmile_qr_scan"}, "type": "electric_scooter", "lat": 38.928863666666665, "is_reserved": 0, "fusion_lat": 0.0}, {"bike_id": "f5fd4840cb673f510e5416615223cf53", "fusion_lon": 0.0, "lon": -77.0137335, "name": "f5fd4840cb673f510e5416615223cf53", "is_disabled": 0, "rental_uris": {"android": "https://dc.lft.to/lastmile_qr_scan", "ios": "https://dc.lft.to/lastmile_qr_scan"}, "type": "electric_scooter", "lat": 38.88678183333333, "is_reserved": 0, "fusion_lat": 0.0}, {"bike_id": "aa60722f5efc9e492d90f1930a239eaa", "fusion_lon": 0.0, "lon": -77.0396145, "name": "aa60722f5efc9e492d90f1930a239eaa", "is_disabled": 0, "rental_uris": {"android": "https://dc.lft.to/lastmile_qr_scan", "ios": "https://dc.lft.to/lastmile_qr_scan"}, "type": "electric_scooter", "lat": 38.9062555, "is_reserved": 0, "fusion_lat": 0.0}, {"bike_id": "ab015e5fac0036b7ee29f63f707edfbb", "fusion_lon": 0.0, "lon": -77.03454533333333, "name": "ab015e5fac0036b7ee29f63f707edfbb", "is_disabled": 0, "rental_uris": {"android": "https://dc.lft.to/lastmile_qr_scan", "ios": "https://dc.lft.to/lastmile_qr_scan"}, "type": "electric_scooter", "lat": 38.907641, "is_reserved": 0, "fusion_lat": 0.0}, {"bike_id": "5cff59b6c1eb775da3de0faf873d1280", "fusion_lon": 0.0, "lon": -77.03506816666666, "name": "5cff59b6c1eb775da3de0faf873d1280", "is_disabled": 0, "rental_uris": {"android": "https://dc.lft.to/lastmile_qr_scan", "ios": "https://dc.lft.to/lastmile_qr_scan"}, "type": "electric_scooter", "lat": 38.9263065, "is_reserved": 0, "fusion_lat": 0.0}, {"bike_id": "9d2cc21a218d67999e08da38ee692aa2", "fusion_lon": 0.0, "lon": -77.0180335, "name": "9d2cc21a218d67999e08da38ee692aa2", "is_disabled": 0, "rental_uris": {"android": "https://dc.lft.to/lastmile_qr_scan", "ios": "https://dc.lft.to/lastmile_qr_scan"}, "type": "electric_scooter", "lat": 38.90820566666667, "is_reserved": 0, "fusion_lat": 0.0}, {"bike_id": "a760edf40892886e7afbdff360123f72", "fusion_lon": 0.0, "lon": -77.01651716666667, "name": "a760edf40892886e7afbdff360123f72", "is_disabled": 0, "rental_uris": {"android": "https://dc.lft.to/lastmile_qr_scan", "ios": "https://dc.lft.to/lastmile_qr_scan"}, "type": "electric_scooter", "lat": 38.915882333333336, "is_reserved": 0, "fusion_lat": 0.0}, {"bike_id": "b08627581c7482286eb3e227febb09b9", "fusion_lon": 0.0, "lon": -77.03703033333333, "name": "b08627581c7482286eb3e227febb09b9", "is_disabled": 0, "rental_uris": {"android": "https://dc.lft.to/lastmile_qr_scan", "ios": "https://dc.lft.to/lastmile_qr_scan"}, "type": "electric_scooter", "lat": 38.926442333333334, "is_reserved": 0, "fusion_lat": 0.0}, {"bike_id": "6b7a7624d4a397f514f7a9f7183118b1", "fusion_lon": 0.0, "lon": -76.9908915, "name": "6b7a7624d4a397f514f7a9f7183118b1", "is_disabled": 0, "rental_uris": {"android": "https://dc.lft.to/lastmile_qr_scan", "ios": "https://dc.lft.to/lastmile_qr_scan"}, "type": "electric_scooter", "lat": 38.92953283333333, "is_reserved": 0, "fusion_lat": 0.0}, {"bike_id": "6bf20849262e42004253496793e932a3", "fusion_lon": 0.0, "lon": -77.02582216666667, "name": "6bf20849262e42004253496793e932a3", "is_disabled": 0, "rental_uris": {"android": "https://dc.lft.to/lastmile_qr_scan", "ios": "https://dc.lft.to/lastmile_qr_scan"}, "type": "electric_scooter", "lat": 38.88352716666667, "is_reserved": 0, "fusion_lat": 0.0}, {"bike_id": "c7a905cdd997c5fd72aa9d6a4acebfc1", "fusion_lon": 0.0, "lon": -77.023275, "name": "c7a905cdd997c5fd72aa9d6a4acebfc1", "is_disabled": 0, "rental_uris": {"android": "https://dc.lft.to/lastmile_qr_scan", "ios": "https://dc.lft.to/lastmile_qr_scan"}, "type": "electric_scooter", "lat": 38.927108, "is_reserved": 0, "fusion_lat": 0.0}, {"bike_id": "4f6f00a9a2a2e1df91d03640765a245c", "fusion_lon": 0.0, "lon": -77.03987316666667, "name": "4f6f00a9a2a2e1df91d03640765a245c", "is_disabled": 0, "rental_uris": {"android": "https://dc.lft.to/lastmile_qr_scan", "ios": "https://dc.lft.to/lastmile_qr_scan"}, "type": "electric_scooter", "lat": 38.91765183333333, "is_reserved": 0, "fusion_lat": 0.0}, {"bike_id": "c1b7f6c0f23a6f147a377842b8d0d354", "fusion_lon": 0.0, "lon": -77.0060755, "name": "c1b7f6c0f23a6f147a377842b8d0d354", "is_disabled": 0, "rental_uris": {"android": "https://dc.lft.to/lastmile_qr_scan", "ios": "https://dc.lft.to/lastmile_qr_scan"}, "type": "electric_scooter", "lat": 38.906298166666666, "is_reserved": 0, "fusion_lat": 0.0}, {"bike_id": "909c481dcf553142195d7a6208bebc87", "fusion_lon": 0.0, "lon": -77.03125616666667, "name": "909c481dcf553142195d7a6208bebc87", "is_disabled": 0, "rental_uris": {"android": "https://dc.lft.to/lastmile_qr_scan", "ios": "https://dc.lft.to/lastmile_qr_scan"}, "type": "electric_scooter", "lat": 38.915532, "is_reserved": 0, "fusion_lat": 0.0}, {"bike_id": "559677a761d48e17ed62e2511128b571", "fusion_lon": 0.0, "lon": -76.9247955, "name": "559677a761d48e17ed62e2511128b571", "is_disabled": 0, "rental_uris": {"android": "https://dc.lft.to/lastmile_qr_scan", "ios": "https://dc.lft.to/lastmile_qr_scan"}, "type": "electric_bike", "lat": 38.95888166666667, "is_reserved": 0, "fusion_lat": 0.0}, {"bike_id": "53a668cfcfe33beb910fcbf3bb2e74b7", "fusion_lon": 0.0, "lon": -77.02670266666667, "name": "53a668cfcfe33beb910fcbf3bb2e74b7", "is_disabled": 0, "rental_uris": {"android": "https://dc.lft.to/lastmile_qr_scan", "ios": "https://dc.lft.to/lastmile_qr_scan"}, "type": "electric_scooter", "lat": 38.9287255, "is_reserved": 0, "fusion_lat": 0.0}, {"bike_id": "fe9e5d4f19b184221077ccb8d3f257f4", "fusion_lon": 0.0, "lon": -77.00799783333333, "name": "fe9e5d4f19b184221077ccb8d3f257f4", "is_disabled": 0, "rental_uris": {"android": "https://dc.lft.to/lastmile_qr_scan", "ios": "https://dc.lft.to/lastmile_qr_scan"}, "type": "electric_scooter", "lat": 38.8971705, "is_reserved": 0, "fusion_lat": 0.0}, {"bike_id": "534bd6367cb9150a821cd99e83e73be0", "fusion_lon": 0.0, "lon": -77.0040675, "name": "534bd6367cb9150a821cd99e83e73be0", "is_disabled": 0, "rental_uris": {"android": "https://dc.lft.to/lastmile_qr_scan", "ios": "https://dc.lft.to/lastmile_qr_scan"}, "type": "electric_scooter", "lat": 38.87646633333333, "is_reserved": 0, "fusion_lat": 0.0}, {"bike_id": "44bac902b4c21caad8d75bfc28465baf", "fusion_lon": 0.0, "lon": -77.03077933333333, "name": "44bac902b4c21caad8d75bfc28465baf", "is_disabled": 0, "rental_uris": {"android": "https://dc.lft.to/lastmile_qr_scan", "ios": "https://dc.lft.to/lastmile_qr_scan"}, "type": "electric_scooter", "lat": 38.89756933333334, "is_reserved": 0, "fusion_lat": 0.0}, {"bike_id": "91e2a81eae7dc2a31cba66960637eb7a", "fusion_lon": 0.0, "lon": -77.03443733333333, "name": "91e2a81eae7dc2a31cba66960637eb7a", "is_disabled": 0, "rental_uris": {"android": "https://dc.lft.to/lastmile_qr_scan", "ios": "https://dc.lft.to/lastmile_qr_scan"}, "type": "electric_scooter", "lat": 38.918161166666664, "is_reserved": 0, "fusion_lat": 0.0}, {"bike_id": "72265560117b760f6ef439e34c481f5d", "fusion_lon": 0.0, "lon": -77.03503016666667, "name": "72265560117b760f6ef439e34c481f5d", "is_disabled": 0, "rental_uris": {"android": "https://dc.lft.to/lastmile_qr_scan", "ios": "https://dc.lft.to/lastmile_qr_scan"}, "type": "electric_scooter", "lat": 38.918704, "is_reserved": 0, "fusion_lat": 0.0}, {"bike_id": "38bc18d3747bbb06a44e596fc0025f4c", "fusion_lon": 0.0, "lon": -77.13468716666667, "name": "38bc18d3747bbb06a44e596fc0025f4c", "is_disabled": 0, "rental_uris": {"android": "https://dc.lft.to/lastmile_qr_scan", "ios": "https://dc.lft.to/lastmile_qr_scan"}, "type": "electric_bike", "lat": 38.853616833333334, "is_reserved": 0, "fusion_lat": 0.0}, {"bike_id": "f01d5a53d09cf08a858e6c68401dc85c", "fusion_lon": 0.0, "lon": -77.031856, "name": "f01d5a53d09cf08a858e6c68401dc85c", "is_disabled": 0, "rental_uris": {"android": "https://dc.lft.to/lastmile_qr_scan", "ios": "https://dc.lft.to/lastmile_qr_scan"}, "type": "electric_scooter", "lat": 38.919229, "is_reserved": 0, "fusion_lat": 0.0}, {"bike_id": "1f017a1a8c80aec19e521b4391698d79", "fusion_lon": 0.0, "lon": -77.03401966666667, "name": "1f017a1a8c80aec19e521b4391698d79", "is_disabled": 0, "rental_uris": {"android": "https://dc.lft.to/lastmile_qr_scan", "ios": "https://dc.lft.to/lastmile_qr_scan"}, "type": "electric_scooter", "lat": 38.93125, "is_reserved": 0, "fusion_lat": 0.0}, {"bike_id": "34d73ba6b82dd614248b500b86678362", "fusion_lon": 0.0, "lon": -77.04372933333333, "name": "34d73ba6b82dd614248b500b86678362", "is_disabled": 0, "rental_uris": {"android": "https://dc.lft.to/lastmile_qr_scan", "ios": "https://dc.lft.to/lastmile_qr_scan"}, "type": "electric_scooter", "lat": 38.89997783333333, "is_reserved": 0, "fusion_lat": 0.0}, {"bike_id": "30f72a41b1fd4d9170ca2d81d43b6a89", "fusion_lon": 0.0, "lon": -77.00562566666666, "name": "30f72a41b1fd4d9170ca2d81d43b6a89", "is_disabled": 0, "rental_uris": {"android": "https://dc.lft.to/lastmile_qr_scan", "ios": "https://dc.lft.to/lastmile_qr_scan"}, "type": "electric_scooter", "lat": 38.88502066666667, "is_reserved": 0, "fusion_lat": 0.0}, {"bike_id": "254d423b9fe9cc36fb72b1c5332b865c", "fusion_lon": 0.0, "lon": -77.04481566666666, "name": "254d423b9fe9cc36fb72b1c5332b865c", "is_disabled": 0, "rental_uris": {"android": "https://dc.lft.to/lastmile_qr_scan", "ios": "https://dc.lft.to/lastmile_qr_scan"}, "type": "electric_scooter", "lat": 38.9085755, "is_reserved": 0, "fusion_lat": 0.0}, {"bike_id": "e9005be32d58d9f793872c664333759f", "fusion_lon": 0.0, "lon": -77.03847433333334, "name": "e9005be32d58d9f793872c664333759f", "is_disabled": 0, "rental_uris": {"android": "https://dc.lft.to/lastmile_qr_scan", "ios": "https://dc.lft.to/lastmile_qr_scan"}, "type": "electric_scooter", "lat": 38.91017816666667, "is_reserved": 0, "fusion_lat": 0.0}, {"bike_id": "6c7a93678fbf4151339759571e187dab", "fusion_lon": 0.0, "lon": -76.94185583333334, "name": "6c7a93678fbf4151339759571e187dab", "is_disabled": 0, "rental_uris": {"android": "https://dc.lft.to/lastmile_qr_scan", "ios": "https://dc.lft.to/lastmile_qr_scan"}, "type": "electric_scooter", "lat": 38.89755566666667, "is_reserved": 0, "fusion_lat": 0.0}, {"bike_id": "5d6f294ccc08515c95ebf45ad8ad5559", "fusion_lon": 0.0, "lon": -77.03516683333334, "name": "5d6f294ccc08515c95ebf45ad8ad5559", "is_disabled": 0, "rental_uris": {"android": "https://dc.lft.to/lastmile_qr_scan", "ios": "https://dc.lft.to/lastmile_qr_scan"}, "type": "electric_scooter", "lat": 38.9222225, "is_reserved": 0, "fusion_lat": 0.0}, {"bike_id": "5bc0bf8dfdd9f78104f01cd90fbe0d10", "fusion_lon": 0.0, "lon": -77.00194616666667, "name": "5bc0bf8dfdd9f78104f01cd90fbe0d10", "is_disabled": 0, "rental_uris": {"android": "https://dc.lft.to/lastmile_qr_scan", "ios": "https://dc.lft.to/lastmile_qr_scan"}, "type": "electric_scooter", "lat": 38.8934475, "is_reserved": 0, "fusion_lat": 0.0}, {"bike_id": "81348ea9041e7033ee36eb13d8ea79a6", "fusion_lon": 0.0, "lon": -76.98838383333333, "name": "81348ea9041e7033ee36eb13d8ea79a6", "is_disabled": 0, "rental_uris": {"android": "https://dc.lft.to/lastmile_qr_scan", "ios": "https://dc.lft.to/lastmile_qr_scan"}, "type": "electric_scooter", "lat": 38.900291333333335, "is_reserved": 0, "fusion_lat": 0.0}, {"bike_id": "a86456b691451aba26a120f85b46617c", "fusion_lon": 0.0, "lon": -76.99739983333333, "name": "a86456b691451aba26a120f85b46617c", "is_disabled": 0, "rental_uris": {"android": "https://dc.lft.to/lastmile_qr_scan", "ios": "https://dc.lft.to/lastmile_qr_scan"}, "type": "electric_scooter", "lat": 38.90134966666667, "is_reserved": 0, "fusion_lat": 0.0}, {"bike_id": "75e0a7c4203ed1eca7936567f4a0144e", "fusion_lon": 0.0, "lon": -77.034177, "name": "75e0a7c4203ed1eca7936567f4a0144e", "is_disabled": 0, "rental_uris": {"android": "https://dc.lft.to/lastmile_qr_scan", "ios": "https://dc.lft.to/lastmile_qr_scan"}, "type": "electric_scooter", "lat": 38.92246683333333, "is_reserved": 0, "fusion_lat": 0.0}, {"bike_id": "d16f49bcae8ab8845637bcef359563c3", "fusion_lon": 0.0, "lon": -77.04192283333333, "name": "d16f49bcae8ab8845637bcef359563c3", "is_disabled": 0, "rental_uris": {"android": "https://dc.lft.to/lastmile_qr_scan", "ios": "https://dc.lft.to/lastmile_qr_scan"}, "type": "electric_scooter", "lat": 38.89358383333333, "is_reserved": 0, "fusion_lat": 0.0}, {"bike_id": "6dd0f434d52dbb99c0c99ee7e3004640", "fusion_lon": 0.0, "lon": -77.03346966666666, "name": "6dd0f434d52dbb99c0c99ee7e3004640", "is_disabled": 0, "rental_uris": {"android": "https://dc.lft.to/lastmile_qr_scan", "ios": "https://dc.lft.to/lastmile_qr_scan"}, "type": "electric_scooter", "lat": 38.907129166666664, "is_reserved": 0, "fusion_lat": 0.0}, {"bike_id": "222a4d539b80e4207ea3412a68bf2f92", "fusion_lon": 0.0, "lon": -77.120147, "name": "222a4d539b80e4207ea3412a68bf2f92", "is_disabled": 0, "rental_uris": {"android": "https://dc.lft.to/lastmile_qr_scan", "ios": "https://dc.lft.to/lastmile_qr_scan"}, "type": "electric_bike", "lat": 38.855146833333336, "is_reserved": 0, "fusion_lat": 0.0}, {"bike_id": "66c11cb6b47735854ada05f058b2a397", "fusion_lon": 0.0, "lon": -77.00208683333334, "name": "66c11cb6b47735854ada05f058b2a397", "is_disabled": 0, "rental_uris": {"android": "https://dc.lft.to/lastmile_qr_scan", "ios": "https://dc.lft.to/lastmile_qr_scan"}, "type": "electric_scooter", "lat": 38.900759, "is_reserved": 0, "fusion_lat": 0.0}, {"bike_id": "eb224a918a7bb6935019bd3192a1593e", "fusion_lon": 0.0, "lon": -77.03620183333334, "name": "eb224a918a7bb6935019bd3192a1593e", "is_disabled": 0, "rental_uris": {"android": "https://dc.lft.to/lastmile_qr_scan", "ios": "https://dc.lft.to/lastmile_qr_scan"}, "type": "electric_scooter", "lat": 38.90570866666667, "is_reserved": 0, "fusion_lat": 0.0}, {"bike_id": "85cf6631f162e072d2e397103b6a7341", "fusion_lon": 0.0, "lon": -76.995362, "name": "85cf6631f162e072d2e397103b6a7341", "is_disabled": 0, "rental_uris": {"android": "https://dc.lft.to/lastmile_qr_scan", "ios": "https://dc.lft.to/lastmile_qr_scan"}, "type": "electric_scooter", "lat": 38.862455, "is_reserved": 0, "fusion_lat": 0.0}, {"bike_id": "387ba74f929631077e29bdcc229bf006", "fusion_lon": 0.0, "lon": -76.97235333333333, "name": "387ba74f929631077e29bdcc229bf006", "is_disabled": 0, "rental_uris": {"android": "https://dc.lft.to/lastmile_qr_scan", "ios": "https://dc.lft.to/lastmile_qr_scan"}, "type": "electric_bike", "lat": 38.85454133333333, "is_reserved": 0, "fusion_lat": 0.0}, {"bike_id": "ca41e7f6ddb7b3a29a590f47f782dd91", "fusion_lon": 0.0, "lon": -77.04133733333333, "name": "ca41e7f6ddb7b3a29a590f47f782dd91", "is_disabled": 0, "rental_uris": {"android": "https://dc.lft.to/lastmile_qr_scan", "ios": "https://dc.lft.to/lastmile_qr_scan"}, "type": "electric_scooter", "lat": 38.922599, "is_reserved": 0, "fusion_lat": 0.0}, {"bike_id": "4f946db05b1076d727d5c2dae7ff344f", "fusion_lon": 0.0, "lon": -77.03865966666666, "name": "4f946db05b1076d727d5c2dae7ff344f", "is_disabled": 0, "rental_uris": {"android": "https://dc.lft.to/lastmile_qr_scan", "ios": "https://dc.lft.to/lastmile_qr_scan"}, "type": "electric_scooter", "lat": 38.91709933333333, "is_reserved": 0, "fusion_lat": 0.0}, {"bike_id": "d9aa4aa9afbcc5abc28a978f751c2a07", "fusion_lon": 0.0, "lon": -77.00830633333334, "name": "d9aa4aa9afbcc5abc28a978f751c2a07", "is_disabled": 0, "rental_uris": {"android": "https://dc.lft.to/lastmile_qr_scan", "ios": "https://dc.lft.to/lastmile_qr_scan"}, "type": "electric_bike", "lat": 38.82906233333333, "is_reserved": 0, "fusion_lat": 0.0}, {"bike_id": "019c303de5fce2b92fdb16713e8c1ef3", "fusion_lon": 0.0, "lon": -77.044841, "name": "019c303de5fce2b92fdb16713e8c1ef3", "is_disabled": 0, "rental_uris": {"android": "https://dc.lft.to/lastmile_qr_scan", "ios": "https://dc.lft.to/lastmile_qr_scan"}, "type": "electric_scooter", "lat": 38.9242515, "is_reserved": 0, "fusion_lat": 0.0}, {"bike_id": "936aa621d8639aae8b12e337af0255f4", "fusion_lon": 0.0, "lon": -77.03869866666666, "name": "936aa621d8639aae8b12e337af0255f4", "is_disabled": 0, "rental_uris": {"android": "https://dc.lft.to/lastmile_qr_scan", "ios": "https://dc.lft.to/lastmile_qr_scan"}, "type": "electric_scooter", "lat": 38.93248716666667, "is_reserved": 0, "fusion_lat": 0.0}, {"bike_id": "c1f3e8489c39fd3c4d6dc4c14fd2724e", "fusion_lon": 0.0, "lon": -76.994853, "name": "c1f3e8489c39fd3c4d6dc4c14fd2724e", "is_disabled": 0, "rental_uris": {"android": "https://dc.lft.to/lastmile_qr_scan", "ios": "https://dc.lft.to/lastmile_qr_scan"}, "type": "electric_scooter", "lat": 38.909847, "is_reserved": 0, "fusion_lat": 0.0}, {"bike_id": "8a18429c0adbf559052950598a194245", "fusion_lon": 0.0, "lon": -77.0280075, "name": "8a18429c0adbf559052950598a194245", "is_disabled": 0, "rental_uris": {"android": "https://dc.lft.to/lastmile_qr_scan", "ios": "https://dc.lft.to/lastmile_qr_scan"}, "type": "electric_scooter", "lat": 38.899375166666665, "is_reserved": 0, "fusion_lat": 0.0}, {"bike_id": "2d2a344cf5b8b19b0b1728dcf44981cb", "fusion_lon": 0.0, "lon": -76.9494125, "name": "2d2a344cf5b8b19b0b1728dcf44981cb", "is_disabled": 0, "rental_uris": {"android": "https://dc.lft.to/lastmile_qr_scan", "ios": "https://dc.lft.to/lastmile_qr_scan"}, "type": "electric_scooter", "lat": 38.8949505, "is_reserved": 0, "fusion_lat": 0.0}, {"bike_id": "de22cf58ef47acdf41fc5ed2ceb3577f", "fusion_lon": 0.0, "lon": -77.020678, "name": "de22cf58ef47acdf41fc5ed2ceb3577f", "is_disabled": 0, "rental_uris": {"android": "https://dc.lft.to/lastmile_qr_scan", "ios": "https://dc.lft.to/lastmile_qr_scan"}, "type": "electric_scooter", "lat": 38.902254666666664, "is_reserved": 0, "fusion_lat": 0.0}, {"bike_id": "d05f5297c7ad2766903b9fe75c58a85f", "fusion_lon": 0.0, "lon": -77.04019233333334, "name": "d05f5297c7ad2766903b9fe75c58a85f", "is_disabled": 0, "rental_uris": {"android": "https://dc.lft.to/lastmile_qr_scan", "ios": "https://dc.lft.to/lastmile_qr_scan"}, "type": "electric_scooter", "lat": 38.90313066666667, "is_reserved": 0, "fusion_lat": 0.0}, {"bike_id": "9d1681c25f42a073bd539bf211e62f9b", "fusion_lon": 0.0, "lon": -77.03895883333334, "name": "9d1681c25f42a073bd539bf211e62f9b", "is_disabled": 0, "rental_uris": {"android": "https://dc.lft.to/lastmile_qr_scan", "ios": "https://dc.lft.to/lastmile_qr_scan"}, "type": "electric_scooter", "lat": 38.9220075, "is_reserved": 0, "fusion_lat": 0.0}, {"bike_id": "b3326e718b97e8f0a22777e8ced81070", "fusion_lon": 0.0, "lon": -77.04350166666667, "name": "b3326e718b97e8f0a22777e8ced81070", "is_disabled": 0, "rental_uris": {"android": "https://dc.lft.to/lastmile_qr_scan", "ios": "https://dc.lft.to/lastmile_qr_scan"}, "type": "electric_scooter", "lat": 38.90248416666667, "is_reserved": 0, "fusion_lat": 0.0}, {"bike_id": "21946f2476910982f3d1105883b224fe", "fusion_lon": 0.0, "lon": -77.03350433333334, "name": "21946f2476910982f3d1105883b224fe", "is_disabled": 0, "rental_uris": {"android": "https://dc.lft.to/lastmile_qr_scan", "ios": "https://dc.lft.to/lastmile_qr_scan"}, "type": "electric_scooter", "lat": 38.92874666666667, "is_reserved": 0, "fusion_lat": 0.0}, {"bike_id": "5a092fa5a7c1938c6de7ddfbcb349a86", "fusion_lon": 0.0, "lon": -76.996992, "name": "5a092fa5a7c1938c6de7ddfbcb349a86", "is_disabled": 0, "rental_uris": {"android": "https://dc.lft.to/lastmile_qr_scan", "ios": "https://dc.lft.to/lastmile_qr_scan"}, "type": "electric_scooter", "lat": 38.908349, "is_reserved": 0, "fusion_lat": 0.0}, {"bike_id": "cf76752ce0ad414d3344d60fa7d78f33", "fusion_lon": 0.0, "lon": -77.02488766666667, "name": "cf76752ce0ad414d3344d60fa7d78f33", "is_disabled": 0, "rental_uris": {"android": "https://dc.lft.to/lastmile_qr_scan", "ios": "https://dc.lft.to/lastmile_qr_scan"}, "type": "electric_scooter", "lat": 38.94183616666667, "is_reserved": 0, "fusion_lat": 0.0}, {"bike_id": "6d742fb632950237942c9fc4301b8b2c", "fusion_lon": 0.0, "lon": -77.0312985, "name": "6d742fb632950237942c9fc4301b8b2c", "is_disabled": 0, "rental_uris": {"android": "https://dc.lft.to/lastmile_qr_scan", "ios": "https://dc.lft.to/lastmile_qr_scan"}, "type": "electric_scooter", "lat": 38.923723833333334, "is_reserved": 0, "fusion_lat": 0.0}, {"bike_id": "a550d95c00bdba1cf12c7a027529e296", "fusion_lon": 0.0, "lon": -77.04413866666667, "name": "a550d95c00bdba1cf12c7a027529e296", "is_disabled": 0, "rental_uris": {"android": "https://dc.lft.to/lastmile_qr_scan", "ios": "https://dc.lft.to/lastmile_qr_scan"}, "type": "electric_scooter", "lat": 38.91785566666667, "is_reserved": 0, "fusion_lat": 0.0}, {"bike_id": "9fb37ae91ef05fcc6e2973f66de4022b", "fusion_lon": 0.0, "lon": -77.017079, "name": "9fb37ae91ef05fcc6e2973f66de4022b", "is_disabled": 0, "rental_uris": {"android": "https://dc.lft.to/lastmile_qr_scan", "ios": "https://dc.lft.to/lastmile_qr_scan"}, "type": "electric_scooter", "lat": 38.9174465, "is_reserved": 0, "fusion_lat": 0.0}, {"bike_id": "32bc8babe911053bc017e07b5ef20ece", "fusion_lon": 0.0, "lon": -77.0365745, "name": "32bc8babe911053bc017e07b5ef20ece", "is_disabled": 0, "rental_uris": {"android": "https://dc.lft.to/lastmile_qr_scan", "ios": "https://dc.lft.to/lastmile_qr_scan"}, "type": "electric_scooter", "lat": 38.922861166666664, "is_reserved": 0, "fusion_lat": 0.0}, {"bike_id": "aa810f0e873616faf05e2efb2c6a0373", "fusion_lon": 0.0, "lon": -77.0415575, "name": "aa810f0e873616faf05e2efb2c6a0373", "is_disabled": 0, "rental_uris": {"android": "https://dc.lft.to/lastmile_qr_scan", "ios": "https://dc.lft.to/lastmile_qr_scan"}, "type": "electric_scooter", "lat": 38.91488833333333, "is_reserved": 0, "fusion_lat": 0.0}, {"bike_id": "94f12d6084a5fbe9f59c596665d67bc2", "fusion_lon": 0.0, "lon": -77.04030916666666, "name": "94f12d6084a5fbe9f59c596665d67bc2", "is_disabled": 0, "rental_uris": {"android": "https://dc.lft.to/lastmile_qr_scan", "ios": "https://dc.lft.to/lastmile_qr_scan"}, "type": "electric_scooter", "lat": 38.9000405, "is_reserved": 0, "fusion_lat": 0.0}, {"bike_id": "03075289ac6aca7b0024d7e6af6c1c38", "fusion_lon": 0.0, "lon": -76.98326216666666, "name": "03075289ac6aca7b0024d7e6af6c1c38", "is_disabled": 0, "rental_uris": {"android": "https://dc.lft.to/lastmile_qr_scan", "ios": "https://dc.lft.to/lastmile_qr_scan"}, "type": "electric_scooter", "lat": 38.9086905, "is_reserved": 0, "fusion_lat": 0.0}, {"bike_id": "1ed0ae7b392d5fd2287b98628a7981e2", "fusion_lon": 0.0, "lon": -77.03465833333334, "name": "1ed0ae7b392d5fd2287b98628a7981e2", "is_disabled": 0, "rental_uris": {"android": "https://dc.lft.to/lastmile_qr_scan", "ios": "https://dc.lft.to/lastmile_qr_scan"}, "type": "electric_scooter", "lat": 38.904568, "is_reserved": 0, "fusion_lat": 0.0}, {"bike_id": "6e011300c7a02245e54aff5c308343be", "fusion_lon": 0.0, "lon": -77.04604583333334, "name": "6e011300c7a02245e54aff5c308343be", "is_disabled": 0, "rental_uris": {"android": "https://dc.lft.to/lastmile_qr_scan", "ios": "https://dc.lft.to/lastmile_qr_scan"}, "type": "electric_scooter", "lat": 38.91927883333334, "is_reserved": 0, "fusion_lat": 0.0}, {"bike_id": "e1ee8782c80bcf7e5254ec4c0d968727", "fusion_lon": 0.0, "lon": -77.08275833333333, "name": "e1ee8782c80bcf7e5254ec4c0d968727", "is_disabled": 0, "rental_uris": {"android": "https://dc.lft.to/lastmile_qr_scan", "ios": "https://dc.lft.to/lastmile_qr_scan"}, "type": "electric_scooter", "lat": 38.93019366666667, "is_reserved": 0, "fusion_lat": 0.0}, {"bike_id": "d5b0183b2a498d1b6213f39972e30d34", "fusion_lon": 0.0, "lon": -77.02490316666666, "name": "d5b0183b2a498d1b6213f39972e30d34", "is_disabled": 0, "rental_uris": {"android": "https://dc.lft.to/lastmile_qr_scan", "ios": "https://dc.lft.to/lastmile_qr_scan"}, "type": "electric_scooter", "lat": 38.94183016666667, "is_reserved": 0, "fusion_lat": 0.0}, {"bike_id": "7f60acd170b25ddaff0fc37434c6bb2f", "fusion_lon": 0.0, "lon": -77.01763816666667, "name": "7f60acd170b25ddaff0fc37434c6bb2f", "is_disabled": 0, "rental_uris": {"android": "https://dc.lft.to/lastmile_qr_scan", "ios": "https://dc.lft.to/lastmile_qr_scan"}, "type": "electric_scooter", "lat": 38.90253833333333, "is_reserved": 0, "fusion_lat": 0.0}, {"bike_id": "3c1be1d44a48c05be40d0ffc292a3127", "fusion_lon": 0.0, "lon": -76.99122733333333, "name": "3c1be1d44a48c05be40d0ffc292a3127", "is_disabled": 0, "rental_uris": {"android": "https://dc.lft.to/lastmile_qr_scan", "ios": "https://dc.lft.to/lastmile_qr_scan"}, "type": "electric_scooter", "lat": 38.861988333333336, "is_reserved": 0, "fusion_lat": 0.0}, {"bike_id": "8e62e54a40b2dd412e0a243cf3bdd243", "fusion_lon": 0.0, "lon": -77.0323895, "name": "8e62e54a40b2dd412e0a243cf3bdd243", "is_disabled": 0, "rental_uris": {"android": "https://dc.lft.to/lastmile_qr_scan", "ios": "https://dc.lft.to/lastmile_qr_scan"}, "type": "electric_scooter", "lat": 38.91912033333333, "is_reserved": 0, "fusion_lat": 0.0}, {"bike_id": "a96e3648f2daedf292535b9d52f49ba6", "fusion_lon": 0.0, "lon": -77.02895566666666, "name": "a96e3648f2daedf292535b9d52f49ba6", "is_disabled": 0, "rental_uris": {"android": "https://dc.lft.to/lastmile_qr_scan", "ios": "https://dc.lft.to/lastmile_qr_scan"}, "type": "electric_scooter", "lat": 38.917131833333336, "is_reserved": 0, "fusion_lat": 0.0}, {"bike_id": "7329e597556e8069817a0e96fdf402fe", "fusion_lon": 0.0, "lon": -77.010275, "name": "7329e597556e8069817a0e96fdf402fe", "is_disabled": 0, "rental_uris": {"android": "https://dc.lft.to/lastmile_qr_scan", "ios": "https://dc.lft.to/lastmile_qr_scan"}, "type": "electric_scooter", "lat": 38.916997, "is_reserved": 0, "fusion_lat": 0.0}, {"bike_id": "7aa93ea7489b8ac6b458b4a5c339c4b2", "fusion_lon": 0.0, "lon": -77.03315966666666, "name": "7aa93ea7489b8ac6b458b4a5c339c4b2", "is_disabled": 0, "rental_uris": {"android": "https://dc.lft.to/lastmile_qr_scan", "ios": "https://dc.lft.to/lastmile_qr_scan"}, "type": "electric_scooter", "lat": 38.921605666666665, "is_reserved": 0, "fusion_lat": 0.0}, {"bike_id": "f7b6797a4cf36c05e2cf2afb7b563128", "fusion_lon": 0.0, "lon": -77.04349666666667, "name": "f7b6797a4cf36c05e2cf2afb7b563128", "is_disabled": 0, "rental_uris": {"android": "https://dc.lft.to/lastmile_qr_scan", "ios": "https://dc.lft.to/lastmile_qr_scan"}, "type": "electric_scooter", "lat": 38.90395083333333, "is_reserved": 0, "fusion_lat": 0.0}, {"bike_id": "ea4fb2c44ba82a9062b11b09b2846823", "fusion_lon": 0.0, "lon": -77.00574066666667, "name": "ea4fb2c44ba82a9062b11b09b2846823", "is_disabled": 0, "rental_uris": {"android": "https://dc.lft.to/lastmile_qr_scan", "ios": "https://dc.lft.to/lastmile_qr_scan"}, "type": "electric_scooter", "lat": 38.87319166666666, "is_reserved": 0, "fusion_lat": 0.0}, {"bike_id": "ea35d630abaaf0cf131dad35336965c4", "fusion_lon": 0.0, "lon": -77.0318575, "name": "ea35d630abaaf0cf131dad35336965c4", "is_disabled": 0, "rental_uris": {"android": "https://dc.lft.to/lastmile_qr_scan", "ios": "https://dc.lft.to/lastmile_qr_scan"}, "type": "electric_scooter", "lat": 38.913390666666665, "is_reserved": 0, "fusion_lat": 0.0}, {"bike_id": "94e98b6d2774e6c0898e55ba03643980", "fusion_lon": 0.0, "lon": -77.04393933333333, "name": "94e98b6d2774e6c0898e55ba03643980", "is_disabled": 0, "rental_uris": {"android": "https://dc.lft.to/lastmile_qr_scan", "ios": "https://dc.lft.to/lastmile_qr_scan"}, "type": "electric_scooter", "lat": 38.905547, "is_reserved": 0, "fusion_lat": 0.0}, {"bike_id": "369743b52ad56e7fbb786fa376511c85", "fusion_lon": 0.0, "lon": -77.03293966666666, "name": "369743b52ad56e7fbb786fa376511c85", "is_disabled": 0, "rental_uris": {"android": "https://dc.lft.to/lastmile_qr_scan", "ios": "https://dc.lft.to/lastmile_qr_scan"}, "type": "electric_scooter", "lat": 38.94714966666667, "is_reserved": 0, "fusion_lat": 0.0}, {"bike_id": "f7dc93a8adf494152e83375bdc2537db", "fusion_lon": 0.0, "lon": -77.04012433333334, "name": "f7dc93a8adf494152e83375bdc2537db", "is_disabled": 0, "rental_uris": {"android": "https://dc.lft.to/lastmile_qr_scan", "ios": "https://dc.lft.to/lastmile_qr_scan"}, "type": "electric_scooter", "lat": 38.9182285, "is_reserved": 0, "fusion_lat": 0.0}, {"bike_id": "eb964143c430b3128373bf4e4237f2c6", "fusion_lon": 0.0, "lon": -77.04184566666666, "name": "eb964143c430b3128373bf4e4237f2c6", "is_disabled": 0, "rental_uris": {"android": "https://dc.lft.to/lastmile_qr_scan", "ios": "https://dc.lft.to/lastmile_qr_scan"}, "type": "electric_scooter", "lat": 38.892879, "is_reserved": 0, "fusion_lat": 0.0}, {"bike_id": "d0048da0a9bb22104f470c9ca9699b33", "fusion_lon": 0.0, "lon": -76.94577266666667, "name": "d0048da0a9bb22104f470c9ca9699b33", "is_disabled": 0, "rental_uris": {"android": "https://dc.lft.to/lastmile_qr_scan", "ios": "https://dc.lft.to/lastmile_qr_scan"}, "type": "electric_bike", "lat": 38.937417833333335, "is_reserved": 0, "fusion_lat": 0.0}, {"bike_id": "800107fdd5027311992e8693193f9f55", "fusion_lon": 0.0, "lon": -77.0317265, "name": "800107fdd5027311992e8693193f9f55", "is_disabled": 0, "rental_uris": {"android": "https://dc.lft.to/lastmile_qr_scan", "ios": "https://dc.lft.to/lastmile_qr_scan"}, "type": "electric_scooter", "lat": 38.9095695, "is_reserved": 0, "fusion_lat": 0.0}, {"bike_id": "3066067b25ffa2c578899589adb8be14", "fusion_lon": 0.0, "lon": -77.00237866666667, "name": "3066067b25ffa2c578899589adb8be14", "is_disabled": 0, "rental_uris": {"android": "https://dc.lft.to/lastmile_qr_scan", "ios": "https://dc.lft.to/lastmile_qr_scan"}, "type": "electric_scooter", "lat": 38.908907, "is_reserved": 0, "fusion_lat": 0.0}, {"bike_id": "16af14d95f6957d9b9a12f0c1b927e90", "fusion_lon": 0.0, "lon": -77.03833583333333, "name": "16af14d95f6957d9b9a12f0c1b927e90", "is_disabled": 0, "rental_uris": {"android": "https://dc.lft.to/lastmile_qr_scan", "ios": "https://dc.lft.to/lastmile_qr_scan"}, "type": "electric_scooter", "lat": 38.903429333333335, "is_reserved": 0, "fusion_lat": 0.0}, {"bike_id": "0c74b443e2bd40a72ff3cdbbf2c3e878", "fusion_lon": 0.0, "lon": -76.98008283333333, "name": "0c74b443e2bd40a72ff3cdbbf2c3e878", "is_disabled": 0, "rental_uris": {"android": "https://dc.lft.to/lastmile_qr_scan", "ios": "https://dc.lft.to/lastmile_qr_scan"}, "type": "electric_scooter", "lat": 38.85326416666667, "is_reserved": 0, "fusion_lat": 0.0}, {"bike_id": "c1211daad04d1422eee59edd5f33de83", "fusion_lon": 0.0, "lon": -77.02347483333334, "name": "c1211daad04d1422eee59edd5f33de83", "is_disabled": 0, "rental_uris": {"android": "https://dc.lft.to/lastmile_qr_scan", "ios": "https://dc.lft.to/lastmile_qr_scan"}, "type": "electric_scooter", "lat": 38.88743733333333, "is_reserved": 0, "fusion_lat": 0.0}, {"bike_id": "a0cf9e2b5dfda651e0ebcdd060e79c7c", "fusion_lon": 0.0, "lon": -77.028941, "name": "a0cf9e2b5dfda651e0ebcdd060e79c7c", "is_disabled": 0, "rental_uris": {"android": "https://dc.lft.to/lastmile_qr_scan", "ios": "https://dc.lft.to/lastmile_qr_scan"}, "type": "electric_scooter", "lat": 38.914038833333336, "is_reserved": 0, "fusion_lat": 0.0}, {"bike_id": "f3ebdf28605f29b3d3ab2a21f672d3e0", "fusion_lon": 0.0, "lon": -76.94836866666667, "name": "f3ebdf28605f29b3d3ab2a21f672d3e0", "is_disabled": 0, "rental_uris": {"android": "https://dc.lft.to/lastmile_qr_scan", "ios": "https://dc.lft.to/lastmile_qr_scan"}, "type": "electric_scooter", "lat": 38.895850833333334, "is_reserved": 0, "fusion_lat": 0.0}, {"bike_id": "92f76beeb0a2fe3a90a54188e5cf11ae", "fusion_lon": 0.0, "lon": -77.03117716666667, "name": "92f76beeb0a2fe3a90a54188e5cf11ae", "is_disabled": 0, "rental_uris": {"android": "https://dc.lft.to/lastmile_qr_scan", "ios": "https://dc.lft.to/lastmile_qr_scan"}, "type": "electric_scooter", "lat": 38.915612333333335, "is_reserved": 0, "fusion_lat": 0.0}, {"bike_id": "e6dcd88b2491677b726485fbe551908a", "fusion_lon": 0.0, "lon": -77.04275133333333, "name": "e6dcd88b2491677b726485fbe551908a", "is_disabled": 0, "rental_uris": {"android": "https://dc.lft.to/lastmile_qr_scan", "ios": "https://dc.lft.to/lastmile_qr_scan"}, "type": "electric_scooter", "lat": 38.92283183333333, "is_reserved": 0, "fusion_lat": 0.0}, {"bike_id": "af87f51fc17bfd9d48db1de58ed6b6d0", "fusion_lon": 0.0, "lon": -77.02774683333334, "name": "af87f51fc17bfd9d48db1de58ed6b6d0", "is_disabled": 0, "rental_uris": {"android": "https://dc.lft.to/lastmile_qr_scan", "ios": "https://dc.lft.to/lastmile_qr_scan"}, "type": "electric_scooter", "lat": 38.91696483333333, "is_reserved": 0, "fusion_lat": 0.0}, {"bike_id": "34e0ce6d54dfa61a41ea8fb09d926936", "fusion_lon": 0.0, "lon": -77.0349425, "name": "34e0ce6d54dfa61a41ea8fb09d926936", "is_disabled": 0, "rental_uris": {"android": "https://dc.lft.to/lastmile_qr_scan", "ios": "https://dc.lft.to/lastmile_qr_scan"}, "type": "electric_scooter", "lat": 38.924815333333335, "is_reserved": 0, "fusion_lat": 0.0}, {"bike_id": "c6fccfe00a3be50d66f458c5464824c4", "fusion_lon": 0.0, "lon": -77.04443816666667, "name": "c6fccfe00a3be50d66f458c5464824c4", "is_disabled": 0, "rental_uris": {"android": "https://dc.lft.to/lastmile_qr_scan", "ios": "https://dc.lft.to/lastmile_qr_scan"}, "type": "electric_scooter", "lat": 38.91099833333333, "is_reserved": 0, "fusion_lat": 0.0}, {"bike_id": "0ad7629383ede5fa75b4e081193d3eec", "fusion_lon": 0.0, "lon": -77.03457066666667, "name": "0ad7629383ede5fa75b4e081193d3eec", "is_disabled": 0, "rental_uris": {"android": "https://dc.lft.to/lastmile_qr_scan", "ios": "https://dc.lft.to/lastmile_qr_scan"}, "type": "electric_scooter", "lat": 38.90561483333333, "is_reserved": 0, "fusion_lat": 0.0}, {"bike_id": "cdb7e568533be8006650341e8d0d7f06", "fusion_lon": 0.0, "lon": -77.02214166666667, "name": "cdb7e568533be8006650341e8d0d7f06", "is_disabled": 0, "rental_uris": {"android": "https://dc.lft.to/lastmile_qr_scan", "ios": "https://dc.lft.to/lastmile_qr_scan"}, "type": "electric_scooter", "lat": 38.91422033333333, "is_reserved": 0, "fusion_lat": 0.0}, {"bike_id": "3ec858c33a236f5ebf552b73562bb545", "fusion_lon": 0.0, "lon": -77.0669585, "name": "3ec858c33a236f5ebf552b73562bb545", "is_disabled": 0, "rental_uris": {"android": "https://dc.lft.to/lastmile_qr_scan", "ios": "https://dc.lft.to/lastmile_qr_scan"}, "type": "electric_bike", "lat": 38.831745833333336, "is_reserved": 0, "fusion_lat": 0.0}, {"bike_id": "3bfabcaae0137820a46e08b6ac816b5d", "fusion_lon": 0.0, "lon": -77.00276383333333, "name": "3bfabcaae0137820a46e08b6ac816b5d", "is_disabled": 0, "rental_uris": {"android": "https://dc.lft.to/lastmile_qr_scan", "ios": "https://dc.lft.to/lastmile_qr_scan"}, "type": "electric_scooter", "lat": 38.9059285, "is_reserved": 0, "fusion_lat": 0.0}, {"bike_id": "0d81456ff555ee3e78106bc3357547e3", "fusion_lon": 0.0, "lon": -77.04591933333333, "name": "0d81456ff555ee3e78106bc3357547e3", "is_disabled": 0, "rental_uris": {"android": "https://dc.lft.to/lastmile_qr_scan", "ios": "https://dc.lft.to/lastmile_qr_scan"}, "type": "electric_scooter", "lat": 38.918620833333335, "is_reserved": 0, "fusion_lat": 0.0}, {"bike_id": "bc11fc3fc7f442dd3012dcc207a83a06", "fusion_lon": 0.0, "lon": -77.04482716666666, "name": "bc11fc3fc7f442dd3012dcc207a83a06", "is_disabled": 0, "rental_uris": {"android": "https://dc.lft.to/lastmile_qr_scan", "ios": "https://dc.lft.to/lastmile_qr_scan"}, "type": "electric_scooter", "lat": 38.90854933333333, "is_reserved": 0, "fusion_lat": 0.0}, {"bike_id": "9d7506b0ad76dd6819a1064543742d53", "fusion_lon": 0.0, "lon": -77.04342216666667, "name": "9d7506b0ad76dd6819a1064543742d53", "is_disabled": 0, "rental_uris": {"android": "https://dc.lft.to/lastmile_qr_scan", "ios": "https://dc.lft.to/lastmile_qr_scan"}, "type": "electric_scooter", "lat": 38.908434166666666, "is_reserved": 0, "fusion_lat": 0.0}, {"bike_id": "3a470af61ba14da3369239f7ff42188a", "fusion_lon": 0.0, "lon": -76.99772283333333, "name": "3a470af61ba14da3369239f7ff42188a", "is_disabled": 0, "rental_uris": {"android": "https://dc.lft.to/lastmile_qr_scan", "ios": "https://dc.lft.to/lastmile_qr_scan"}, "type": "electric_scooter", "lat": 38.844227333333336, "is_reserved": 0, "fusion_lat": 0.0}, {"bike_id": "889121c8c17f6bb613159bbbd151651a", "fusion_lon": 0.0, "lon": -76.95751283333334, "name": "889121c8c17f6bb613159bbbd151651a", "is_disabled": 0, "rental_uris": {"android": "https://dc.lft.to/lastmile_qr_scan", "ios": "https://dc.lft.to/lastmile_qr_scan"}, "type": "electric_scooter", "lat": 38.8842895, "is_reserved": 0, "fusion_lat": 0.0}, {"bike_id": "958acc714c137108cdc4be2824911faa", "fusion_lon": 0.0, "lon": -77.03120666666666, "name": "958acc714c137108cdc4be2824911faa", "is_disabled": 0, "rental_uris": {"android": "https://dc.lft.to/lastmile_qr_scan", "ios": "https://dc.lft.to/lastmile_qr_scan"}, "type": "electric_scooter", "lat": 38.915602666666665, "is_reserved": 0, "fusion_lat": 0.0}, {"bike_id": "a24ec867f134078f452b769668f84968", "fusion_lon": 0.0, "lon": -77.04861333333334, "name": "a24ec867f134078f452b769668f84968", "is_disabled": 0, "rental_uris": {"android": "https://dc.lft.to/lastmile_qr_scan", "ios": "https://dc.lft.to/lastmile_qr_scan"}, "type": "electric_scooter", "lat": 38.9152625, "is_reserved": 0, "fusion_lat": 0.0}, {"bike_id": "23ad026b078c2df93a6944e19ec44053", "fusion_lon": 0.0, "lon": -77.0345525, "name": "23ad026b078c2df93a6944e19ec44053", "is_disabled": 0, "rental_uris": {"android": "https://dc.lft.to/lastmile_qr_scan", "ios": "https://dc.lft.to/lastmile_qr_scan"}, "type": "electric_scooter", "lat": 38.90563866666667, "is_reserved": 0, "fusion_lat": 0.0}, {"bike_id": "07bd44143a7604226fe5f1f7d3849da3", "fusion_lon": 0.0, "lon": -77.10601533333333, "name": "07bd44143a7604226fe5f1f7d3849da3", "is_disabled": 0, "rental_uris": {"android": "https://dc.lft.to/lastmile_qr_scan", "ios": "https://dc.lft.to/lastmile_qr_scan"}, "type": "electric_bike", "lat": 38.928950666666665, "is_reserved": 0, "fusion_lat": 0.0}, {"bike_id": "05cbb9324864c286787d3bb92df1fef8", "fusion_lon": 0.0, "lon": -77.01579983333333, "name": "05cbb9324864c286787d3bb92df1fef8", "is_disabled": 0, "rental_uris": {"android": "https://dc.lft.to/lastmile_qr_scan", "ios": "https://dc.lft.to/lastmile_qr_scan"}, "type": "electric_scooter", "lat": 38.91680266666667, "is_reserved": 0, "fusion_lat": 0.0}, {"bike_id": "30e09be4bcdd36b90ec3628d106b8b0f", "fusion_lon": 0.0, "lon": -76.9496675, "name": "30e09be4bcdd36b90ec3628d106b8b0f", "is_disabled": 0, "rental_uris": {"android": "https://dc.lft.to/lastmile_qr_scan", "ios": "https://dc.lft.to/lastmile_qr_scan"}, "type": "electric_scooter", "lat": 38.89359533333333, "is_reserved": 0, "fusion_lat": 0.0}, {"bike_id": "ce453b755952fdf820c4d42e142133bf", "fusion_lon": 0.0, "lon": -76.98071916666666, "name": "ce453b755952fdf820c4d42e142133bf", "is_disabled": 0, "rental_uris": {"android": "https://dc.lft.to/lastmile_qr_scan", "ios": "https://dc.lft.to/lastmile_qr_scan"}, "type": "electric_scooter", "lat": 38.90169683333333, "is_reserved": 0, "fusion_lat": 0.0}, {"bike_id": "db254936aeb76efb9ed18484e9d0ef73", "fusion_lon": 0.0, "lon": -77.011899, "name": "db254936aeb76efb9ed18484e9d0ef73", "is_disabled": 0, "rental_uris": {"android": "https://dc.lft.to/lastmile_qr_scan", "ios": "https://dc.lft.to/lastmile_qr_scan"}, "type": "electric_scooter", "lat": 38.903181000000004, "is_reserved": 0, "fusion_lat": 0.0}, {"bike_id": "ecd162b159483565ffb020f22dbb1daa", "fusion_lon": 0.0, "lon": -77.021246, "name": "ecd162b159483565ffb020f22dbb1daa", "is_disabled": 0, "rental_uris": {"android": "https://dc.lft.to/lastmile_qr_scan", "ios": "https://dc.lft.to/lastmile_qr_scan"}, "type": "electric_scooter", "lat": 38.8874445, "is_reserved": 0, "fusion_lat": 0.0}, {"bike_id": "1c2b53750f4216acc4da07a09d097157", "fusion_lon": 0.0, "lon": -77.04474416666666, "name": "1c2b53750f4216acc4da07a09d097157", "is_disabled": 0, "rental_uris": {"android": "https://dc.lft.to/lastmile_qr_scan", "ios": "https://dc.lft.to/lastmile_qr_scan"}, "type": "electric_scooter", "lat": 38.911663, "is_reserved": 0, "fusion_lat": 0.0}, {"bike_id": "9ad13f4f46166d09780ee05e3c43400c", "fusion_lon": 0.0, "lon": -76.996946, "name": "9ad13f4f46166d09780ee05e3c43400c", "is_disabled": 0, "rental_uris": {"android": "https://dc.lft.to/lastmile_qr_scan", "ios": "https://dc.lft.to/lastmile_qr_scan"}, "type": "electric_scooter", "lat": 38.88420816666667, "is_reserved": 0, "fusion_lat": 0.0}, {"bike_id": "3e30dbdcd909c742fb3875c46ce4d900", "fusion_lon": 0.0, "lon": -77.01798166666667, "name": "3e30dbdcd909c742fb3875c46ce4d900", "is_disabled": 0, "rental_uris": {"android": "https://dc.lft.to/lastmile_qr_scan", "ios": "https://dc.lft.to/lastmile_qr_scan"}, "type": "electric_scooter", "lat": 38.876721333333336, "is_reserved": 0, "fusion_lat": 0.0}, {"bike_id": "06e98ba6813ef95374032aab724e0119", "fusion_lon": 0.0, "lon": -77.0318345, "name": "06e98ba6813ef95374032aab724e0119", "is_disabled": 0, "rental_uris": {"android": "https://dc.lft.to/lastmile_qr_scan", "ios": "https://dc.lft.to/lastmile_qr_scan"}, "type": "electric_scooter", "lat": 38.9238385, "is_reserved": 0, "fusion_lat": 0.0}, {"bike_id": "c65bd629ce1426c3a60e56e5752433dc", "fusion_lon": 0.0, "lon": -77.02192283333333, "name": "c65bd629ce1426c3a60e56e5752433dc", "is_disabled": 0, "rental_uris": {"android": "https://dc.lft.to/lastmile_qr_scan", "ios": "https://dc.lft.to/lastmile_qr_scan"}, "type": "electric_scooter", "lat": 38.9109625, "is_reserved": 0, "fusion_lat": 0.0}, {"bike_id": "bb7192a029421e0166f18fdba63bccc5", "fusion_lon": 0.0, "lon": -77.03197716666666, "name": "bb7192a029421e0166f18fdba63bccc5", "is_disabled": 0, "rental_uris": {"android": "https://dc.lft.to/lastmile_qr_scan", "ios": "https://dc.lft.to/lastmile_qr_scan"}, "type": "electric_scooter", "lat": 38.909206166666664, "is_reserved": 0, "fusion_lat": 0.0}, {"bike_id": "22e473214c2616a98a1ca13e419d333b", "fusion_lon": 0.0, "lon": -76.9838015, "name": "22e473214c2616a98a1ca13e419d333b", "is_disabled": 0, "rental_uris": {"android": "https://dc.lft.to/lastmile_qr_scan", "ios": "https://dc.lft.to/lastmile_qr_scan"}, "type": "electric_scooter", "lat": 38.861230666666664, "is_reserved": 0, "fusion_lat": 0.0}, {"bike_id": "bee66f7b2cb9fd8969f6e55331b53ffa", "fusion_lon": 0.0, "lon": -77.03257, "name": "bee66f7b2cb9fd8969f6e55331b53ffa", "is_disabled": 0, "rental_uris": {"android": "https://dc.lft.to/lastmile_qr_scan", "ios": "https://dc.lft.to/lastmile_qr_scan"}, "type": "electric_scooter", "lat": 38.93889633333333, "is_reserved": 0, "fusion_lat": 0.0}, {"bike_id": "f09941800b595b8ba53121e3114e2449", "fusion_lon": 0.0, "lon": -76.98118916666667, "name": "f09941800b595b8ba53121e3114e2449", "is_disabled": 0, "rental_uris": {"android": "https://dc.lft.to/lastmile_qr_scan", "ios": "https://dc.lft.to/lastmile_qr_scan"}, "type": "electric_scooter", "lat": 38.91464583333333, "is_reserved": 0, "fusion_lat": 0.0}, {"bike_id": "e5a0ba42d71ae8d670672bc299fcaa5c", "fusion_lon": 0.0, "lon": -76.995284, "name": "e5a0ba42d71ae8d670672bc299fcaa5c", "is_disabled": 0, "rental_uris": {"android": "https://dc.lft.to/lastmile_qr_scan", "ios": "https://dc.lft.to/lastmile_qr_scan"}, "type": "electric_scooter", "lat": 38.862459666666666, "is_reserved": 0, "fusion_lat": 0.0}, {"bike_id": "2a5bbc8c1d49f349eaa9a564f9a3f06d", "fusion_lon": 0.0, "lon": -77.0417065, "name": "2a5bbc8c1d49f349eaa9a564f9a3f06d", "is_disabled": 0, "rental_uris": {"android": "https://dc.lft.to/lastmile_qr_scan", "ios": "https://dc.lft.to/lastmile_qr_scan"}, "type": "electric_scooter", "lat": 38.917343, "is_reserved": 0, "fusion_lat": 0.0}, {"bike_id": "8fe0e84338494cbe3c0febe4d49d7403", "fusion_lon": 0.0, "lon": -77.012003, "name": "8fe0e84338494cbe3c0febe4d49d7403", "is_disabled": 0, "rental_uris": {"android": "https://dc.lft.to/lastmile_qr_scan", "ios": "https://dc.lft.to/lastmile_qr_scan"}, "type": "electric_scooter", "lat": 38.900128, "is_reserved": 0, "fusion_lat": 0.0}, {"bike_id": "6b39eec514b1be73fbd9547ade4ee339", "fusion_lon": 0.0, "lon": -76.98057033333333, "name": "6b39eec514b1be73fbd9547ade4ee339", "is_disabled": 0, "rental_uris": {"android": "https://dc.lft.to/lastmile_qr_scan", "ios": "https://dc.lft.to/lastmile_qr_scan"}, "type": "electric_scooter", "lat": 38.884879166666664, "is_reserved": 0, "fusion_lat": 0.0}, {"bike_id": "e7055f3629779eb027572d1fcaa3aaeb", "fusion_lon": 0.0, "lon": -77.04364533333333, "name": "e7055f3629779eb027572d1fcaa3aaeb", "is_disabled": 0, "rental_uris": {"android": "https://dc.lft.to/lastmile_qr_scan", "ios": "https://dc.lft.to/lastmile_qr_scan"}, "type": "electric_scooter", "lat": 38.905429833333336, "is_reserved": 0, "fusion_lat": 0.0}, {"bike_id": "15684ca96dec7a0dd0bafe72b5a24a9e", "fusion_lon": 0.0, "lon": -77.02911566666667, "name": "15684ca96dec7a0dd0bafe72b5a24a9e", "is_disabled": 0, "rental_uris": {"android": "https://dc.lft.to/lastmile_qr_scan", "ios": "https://dc.lft.to/lastmile_qr_scan"}, "type": "electric_scooter", "lat": 38.8984285, "is_reserved": 0, "fusion_lat": 0.0}, {"bike_id": "54493e3fbdf60d54fcf95368f14afca6", "fusion_lon": 0.0, "lon": -77.01346083333334, "name": "54493e3fbdf60d54fcf95368f14afca6", "is_disabled": 0, "rental_uris": {"android": "https://dc.lft.to/lastmile_qr_scan", "ios": "https://dc.lft.to/lastmile_qr_scan"}, "type": "electric_scooter", "lat": 38.899125, "is_reserved": 0, "fusion_lat": 0.0}, {"bike_id": "f22d54b1b34dfaca757c902d119ccf76", "fusion_lon": 0.0, "lon": -77.023831, "name": "f22d54b1b34dfaca757c902d119ccf76", "is_disabled": 0, "rental_uris": {"android": "https://dc.lft.to/lastmile_qr_scan", "ios": "https://dc.lft.to/lastmile_qr_scan"}, "type": "electric_scooter", "lat": 38.91963533333333, "is_reserved": 0, "fusion_lat": 0.0}, {"bike_id": "65905caf26b98290ae385210b6502c8f", "fusion_lon": 0.0, "lon": -77.021891, "name": "65905caf26b98290ae385210b6502c8f", "is_disabled": 0, "rental_uris": {"android": "https://dc.lft.to/lastmile_qr_scan", "ios": "https://dc.lft.to/lastmile_qr_scan"}, "type": "electric_scooter", "lat": 38.91059766666667, "is_reserved": 0, "fusion_lat": 0.0}, {"bike_id": "4f231ccd767e9d19d73244e195eb5c93", "fusion_lon": 0.0, "lon": -77.01531166666666, "name": "4f231ccd767e9d19d73244e195eb5c93", "is_disabled": 0, "rental_uris": {"android": "https://dc.lft.to/lastmile_qr_scan", "ios": "https://dc.lft.to/lastmile_qr_scan"}, "type": "electric_scooter", "lat": 38.88741366666667, "is_reserved": 0, "fusion_lat": 0.0}, {"bike_id": "fcf2224b2cccbd5737e98b7bd1edb93e", "fusion_lon": 0.0, "lon": -77.0199845, "name": "fcf2224b2cccbd5737e98b7bd1edb93e", "is_disabled": 0, "rental_uris": {"android": "https://dc.lft.to/lastmile_qr_scan", "ios": "https://dc.lft.to/lastmile_qr_scan"}, "type": "electric_scooter", "lat": 38.895629166666666, "is_reserved": 0, "fusion_lat": 0.0}, {"bike_id": "8b8bd09c9ec6268bd35b0ef6c84da27d", "fusion_lon": 0.0, "lon": -77.0198005, "name": "8b8bd09c9ec6268bd35b0ef6c84da27d", "is_disabled": 0, "rental_uris": {"android": "https://dc.lft.to/lastmile_qr_scan", "ios": "https://dc.lft.to/lastmile_qr_scan"}, "type": "electric_scooter", "lat": 38.886181, "is_reserved": 0, "fusion_lat": 0.0}, {"bike_id": "ebd7a2740166048c25f23e3be40e9ad0", "fusion_lon": 0.0, "lon": -77.029639, "name": "ebd7a2740166048c25f23e3be40e9ad0", "is_disabled": 0, "rental_uris": {"android": "https://dc.lft.to/lastmile_qr_scan", "ios": "https://dc.lft.to/lastmile_qr_scan"}, "type": "electric_scooter", "lat": 38.926871166666665, "is_reserved": 0, "fusion_lat": 0.0}, {"bike_id": "f247710e860e9b8fbd11eb82fb170a8b", "fusion_lon": 0.0, "lon": -77.08186833333333, "name": "f247710e860e9b8fbd11eb82fb170a8b", "is_disabled": 0, "rental_uris": {"android": "https://dc.lft.to/lastmile_qr_scan", "ios": "https://dc.lft.to/lastmile_qr_scan"}, "type": "electric_scooter", "lat": 38.9355265, "is_reserved": 0, "fusion_lat": 0.0}, {"bike_id": "67ff19fa722e70d8d8219dd17742674c", "fusion_lon": 0.0, "lon": -77.017829, "name": "67ff19fa722e70d8d8219dd17742674c", "is_disabled": 0, "rental_uris": {"android": "https://dc.lft.to/lastmile_qr_scan", "ios": "https://dc.lft.to/lastmile_qr_scan"}, "type": "electric_scooter", "lat": 38.911126, "is_reserved": 0, "fusion_lat": 0.0}, {"bike_id": "d285c01b890d0904924630857f64ae11", "fusion_lon": 0.0, "lon": -77.00339783333334, "name": "d285c01b890d0904924630857f64ae11", "is_disabled": 0, "rental_uris": {"android": "https://dc.lft.to/lastmile_qr_scan", "ios": "https://dc.lft.to/lastmile_qr_scan"}, "type": "electric_scooter", "lat": 38.891876, "is_reserved": 0, "fusion_lat": 0.0}, {"bike_id": "da7cfef5ccbf1dcab9f224e75b346594", "fusion_lon": 0.0, "lon": -77.041463, "name": "da7cfef5ccbf1dcab9f224e75b346594", "is_disabled": 0, "rental_uris": {"android": "https://dc.lft.to/lastmile_qr_scan", "ios": "https://dc.lft.to/lastmile_qr_scan"}, "type": "electric_scooter", "lat": 38.915522, "is_reserved": 0, "fusion_lat": 0.0}, {"bike_id": "2c39e39557fb413f68698cfd61cb1977", "fusion_lon": 0.0, "lon": -77.04562216666666, "name": "2c39e39557fb413f68698cfd61cb1977", "is_disabled": 0, "rental_uris": {"android": "https://dc.lft.to/lastmile_qr_scan", "ios": "https://dc.lft.to/lastmile_qr_scan"}, "type": "electric_scooter", "lat": 38.917610333333336, "is_reserved": 0, "fusion_lat": 0.0}, {"bike_id": "a0c00207001d8617bf22e41853b060c1", "fusion_lon": 0.0, "lon": -77.03479216666666, "name": "a0c00207001d8617bf22e41853b060c1", "is_disabled": 0, "rental_uris": {"android": "https://dc.lft.to/lastmile_qr_scan", "ios": "https://dc.lft.to/lastmile_qr_scan"}, "type": "electric_scooter", "lat": 38.907651666666666, "is_reserved": 0, "fusion_lat": 0.0}, {"bike_id": "9629ec4a93dfaee985385e90806f12d6", "fusion_lon": 0.0, "lon": -77.027044, "name": "9629ec4a93dfaee985385e90806f12d6", "is_disabled": 0, "rental_uris": {"android": "https://dc.lft.to/lastmile_qr_scan", "ios": "https://dc.lft.to/lastmile_qr_scan"}, "type": "electric_scooter", "lat": 38.9288, "is_reserved": 0, "fusion_lat": 0.0}, {"bike_id": "81be89b3be714406ffc5649d37935728", "fusion_lon": 0.0, "lon": -76.99776133333333, "name": "81be89b3be714406ffc5649d37935728", "is_disabled": 0, "rental_uris": {"android": "https://dc.lft.to/lastmile_qr_scan", "ios": "https://dc.lft.to/lastmile_qr_scan"}, "type": "electric_scooter", "lat": 38.84422683333333, "is_reserved": 0, "fusion_lat": 0.0}, {"bike_id": "f02c04398dbec1592e8954c44e030aa7", "fusion_lon": 0.0, "lon": -76.94637616666667, "name": "f02c04398dbec1592e8954c44e030aa7", "is_disabled": 0, "rental_uris": {"android": "https://dc.lft.to/lastmile_qr_scan", "ios": "https://dc.lft.to/lastmile_qr_scan"}, "type": "electric_scooter", "lat": 38.898452666666664, "is_reserved": 0, "fusion_lat": 0.0}, {"bike_id": "2b9d163f0d9f4963aaf8c7bfaab501be", "fusion_lon": 0.0, "lon": -76.95753816666667, "name": "2b9d163f0d9f4963aaf8c7bfaab501be", "is_disabled": 0, "rental_uris": {"android": "https://dc.lft.to/lastmile_qr_scan", "ios": "https://dc.lft.to/lastmile_qr_scan"}, "type": "electric_scooter", "lat": 38.884272333333335, "is_reserved": 0, "fusion_lat": 0.0}, {"bike_id": "e068e48f90f5d0c0e49815f059c5a184", "fusion_lon": 0.0, "lon": -76.99773833333333, "name": "e068e48f90f5d0c0e49815f059c5a184", "is_disabled": 0, "rental_uris": {"android": "https://dc.lft.to/lastmile_qr_scan", "ios": "https://dc.lft.to/lastmile_qr_scan"}, "type": "electric_scooter", "lat": 38.844293, "is_reserved": 0, "fusion_lat": 0.0}, {"bike_id": "d0db9224335c6581aa2f90c36f412573", "fusion_lon": 0.0, "lon": -77.02028816666666, "name": "d0db9224335c6581aa2f90c36f412573", "is_disabled": 0, "rental_uris": {"android": "https://dc.lft.to/lastmile_qr_scan", "ios": "https://dc.lft.to/lastmile_qr_scan"}, "type": "electric_scooter", "lat": 38.92411633333333, "is_reserved": 0, "fusion_lat": 0.0}, {"bike_id": "3ff7818310509591b9c3850c3c9e9602", "fusion_lon": 0.0, "lon": -77.02509816666667, "name": "3ff7818310509591b9c3850c3c9e9602", "is_disabled": 0, "rental_uris": {"android": "https://dc.lft.to/lastmile_qr_scan", "ios": "https://dc.lft.to/lastmile_qr_scan"}, "type": "electric_scooter", "lat": 38.89823583333333, "is_reserved": 0, "fusion_lat": 0.0}, {"bike_id": "6719f0805610ef11ae1284129976d02f", "fusion_lon": 0.0, "lon": -77.04615766666667, "name": "6719f0805610ef11ae1284129976d02f", "is_disabled": 0, "rental_uris": {"android": "https://dc.lft.to/lastmile_qr_scan", "ios": "https://dc.lft.to/lastmile_qr_scan"}, "type": "electric_scooter", "lat": 38.904636333333336, "is_reserved": 0, "fusion_lat": 0.0}, {"bike_id": "87fbd09c5eb14012536f33a0d5ed540a", "fusion_lon": 0.0, "lon": -76.978285, "name": "87fbd09c5eb14012536f33a0d5ed540a", "is_disabled": 0, "rental_uris": {"android": "https://dc.lft.to/lastmile_qr_scan", "ios": "https://dc.lft.to/lastmile_qr_scan"}, "type": "electric_bike", "lat": 38.843706166666664, "is_reserved": 0, "fusion_lat": 0.0}, {"bike_id": "444c30270aaa20dffe70769a0fa07773", "fusion_lon": 0.0, "lon": -76.93752816666667, "name": "444c30270aaa20dffe70769a0fa07773", "is_disabled": 0, "rental_uris": {"android": "https://dc.lft.to/lastmile_qr_scan", "ios": "https://dc.lft.to/lastmile_qr_scan"}, "type": "electric_scooter", "lat": 38.89040816666667, "is_reserved": 0, "fusion_lat": 0.0}, {"bike_id": "cb627d8a1373087311282d91d0fa4b70", "fusion_lon": 0.0, "lon": -76.97095716666666, "name": "cb627d8a1373087311282d91d0fa4b70", "is_disabled": 0, "rental_uris": {"android": "https://dc.lft.to/lastmile_qr_scan", "ios": "https://dc.lft.to/lastmile_qr_scan"}, "type": "electric_bike", "lat": 38.857192166666664, "is_reserved": 0, "fusion_lat": 0.0}, {"bike_id": "b26959d165e4635cb35ee678415fab19", "fusion_lon": 0.0, "lon": -77.05077083333333, "name": "b26959d165e4635cb35ee678415fab19", "is_disabled": 0, "rental_uris": {"android": "https://dc.lft.to/lastmile_qr_scan", "ios": "https://dc.lft.to/lastmile_qr_scan"}, "type": "electric_bike", "lat": 38.862074166666666, "is_reserved": 0, "fusion_lat": 0.0}, {"bike_id": "e854573e46ed69a610d0e3ab172ec905", "fusion_lon": 0.0, "lon": -77.00350883333333, "name": "e854573e46ed69a610d0e3ab172ec905", "is_disabled": 0, "rental_uris": {"android": "https://dc.lft.to/lastmile_qr_scan", "ios": "https://dc.lft.to/lastmile_qr_scan"}, "type": "electric_scooter", "lat": 38.902414, "is_reserved": 0, "fusion_lat": 0.0}, {"bike_id": "8e7dd7bab198a3c1dd56784611ad88c2", "fusion_lon": 0.0, "lon": -77.046847, "name": "8e7dd7bab198a3c1dd56784611ad88c2", "is_disabled": 0, "rental_uris": {"android": "https://dc.lft.to/lastmile_qr_scan", "ios": "https://dc.lft.to/lastmile_qr_scan"}, "type": "electric_scooter", "lat": 38.90593666666667, "is_reserved": 0, "fusion_lat": 0.0}, {"bike_id": "df0417db375538234e0fc6e96aaecae6", "fusion_lon": 0.0, "lon": -77.04467833333334, "name": "df0417db375538234e0fc6e96aaecae6", "is_disabled": 0, "rental_uris": {"android": "https://dc.lft.to/lastmile_qr_scan", "ios": "https://dc.lft.to/lastmile_qr_scan"}, "type": "electric_scooter", "lat": 38.895319666666666, "is_reserved": 0, "fusion_lat": 0.0}, {"bike_id": "269f6cdcc2aa5308132c1b19c396a78d", "fusion_lon": 0.0, "lon": -77.031621, "name": "269f6cdcc2aa5308132c1b19c396a78d", "is_disabled": 0, "rental_uris": {"android": "https://dc.lft.to/lastmile_qr_scan", "ios": "https://dc.lft.to/lastmile_qr_scan"}, "type": "electric_bike", "lat": 38.999491166666665, "is_reserved": 0, "fusion_lat": 0.0}, {"bike_id": "b1452b73ecfe83b60def053ef54a79d1", "fusion_lon": 0.0, "lon": -76.9835885, "name": "b1452b73ecfe83b60def053ef54a79d1", "is_disabled": 0, "rental_uris": {"android": "https://dc.lft.to/lastmile_qr_scan", "ios": "https://dc.lft.to/lastmile_qr_scan"}, "type": "electric_scooter", "lat": 38.885974833333336, "is_reserved": 0, "fusion_lat": 0.0}, {"bike_id": "3c397dc2a5b06b0492dea8060b4f4e37", "fusion_lon": 0.0, "lon": -77.03550583333333, "name": "3c397dc2a5b06b0492dea8060b4f4e37", "is_disabled": 0, "rental_uris": {"android": "https://dc.lft.to/lastmile_qr_scan", "ios": "https://dc.lft.to/lastmile_qr_scan"}, "type": "electric_scooter", "lat": 38.928621666666665, "is_reserved": 0, "fusion_lat": 0.0}, {"bike_id": "d51bc79cf04a97789ca4c70fc4e8d752", "fusion_lon": 0.0, "lon": -77.0446055, "name": "d51bc79cf04a97789ca4c70fc4e8d752", "is_disabled": 0, "rental_uris": {"android": "https://dc.lft.to/lastmile_qr_scan", "ios": "https://dc.lft.to/lastmile_qr_scan"}, "type": "electric_scooter", "lat": 38.918503666666666, "is_reserved": 0, "fusion_lat": 0.0}, {"bike_id": "93bc93edb2ce510b82b8338e822d3db8", "fusion_lon": 0.0, "lon": -77.07010166666667, "name": "93bc93edb2ce510b82b8338e822d3db8", "is_disabled": 0, "rental_uris": {"android": "https://dc.lft.to/lastmile_qr_scan", "ios": "https://dc.lft.to/lastmile_qr_scan"}, "type": "electric_bike", "lat": 38.92766433333333, "is_reserved": 0, "fusion_lat": 0.0}, {"bike_id": "50ecd65fd3fb817cecdc96b291505c2b", "fusion_lon": 0.0, "lon": -77.03286716666666, "name": "50ecd65fd3fb817cecdc96b291505c2b", "is_disabled": 0, "rental_uris": {"android": "https://dc.lft.to/lastmile_qr_scan", "ios": "https://dc.lft.to/lastmile_qr_scan"}, "type": "electric_scooter", "lat": 38.920520333333336, "is_reserved": 0, "fusion_lat": 0.0}, {"bike_id": "23224f7cdffa04c65fe442ae3bb12a58", "fusion_lon": 0.0, "lon": -77.039323, "name": "23224f7cdffa04c65fe442ae3bb12a58", "is_disabled": 0, "rental_uris": {"android": "https://dc.lft.to/lastmile_qr_scan", "ios": "https://dc.lft.to/lastmile_qr_scan"}, "type": "electric_scooter", "lat": 38.9249315, "is_reserved": 0, "fusion_lat": 0.0}, {"bike_id": "39b561e01dba512e7a310d435446de04", "fusion_lon": 0.0, "lon": -77.02351033333333, "name": "39b561e01dba512e7a310d435446de04", "is_disabled": 0, "rental_uris": {"android": "https://dc.lft.to/lastmile_qr_scan", "ios": "https://dc.lft.to/lastmile_qr_scan"}, "type": "electric_scooter", "lat": 38.946148, "is_reserved": 0, "fusion_lat": 0.0}, {"bike_id": "e08e8d68ce46e3a625362f3461c07ee1", "fusion_lon": 0.0, "lon": -77.01571466666667, "name": "e08e8d68ce46e3a625362f3461c07ee1", "is_disabled": 0, "rental_uris": {"android": "https://dc.lft.to/lastmile_qr_scan", "ios": "https://dc.lft.to/lastmile_qr_scan"}, "type": "electric_scooter", "lat": 38.926829833333336, "is_reserved": 0, "fusion_lat": 0.0}, {"bike_id": "811e0b57ba8cba031417be1a4d65cc6b", "fusion_lon": 0.0, "lon": -77.0325935, "name": "811e0b57ba8cba031417be1a4d65cc6b", "is_disabled": 0, "rental_uris": {"android": "https://dc.lft.to/lastmile_qr_scan", "ios": "https://dc.lft.to/lastmile_qr_scan"}, "type": "electric_scooter", "lat": 38.91406933333333, "is_reserved": 0, "fusion_lat": 0.0}, {"bike_id": "12c405735db5159941e7c3efe6318583", "fusion_lon": 0.0, "lon": -76.987123, "name": "12c405735db5159941e7c3efe6318583", "is_disabled": 0, "rental_uris": {"android": "https://dc.lft.to/lastmile_qr_scan", "ios": "https://dc.lft.to/lastmile_qr_scan"}, "type": "electric_scooter", "lat": 38.866976333333334, "is_reserved": 0, "fusion_lat": 0.0}, {"bike_id": "551422e441156fd73f58aff2ddabff48", "fusion_lon": 0.0, "lon": -77.02216233333333, "name": "551422e441156fd73f58aff2ddabff48", "is_disabled": 0, "rental_uris": {"android": "https://dc.lft.to/lastmile_qr_scan", "ios": "https://dc.lft.to/lastmile_qr_scan"}, "type": "electric_scooter", "lat": 38.896278833333334, "is_reserved": 0, "fusion_lat": 0.0}, {"bike_id": "e1d5b0b9c9287c1706aa45c42e8d78c9", "fusion_lon": 0.0, "lon": -77.02094133333334, "name": "e1d5b0b9c9287c1706aa45c42e8d78c9", "is_disabled": 0, "rental_uris": {"android": "https://dc.lft.to/lastmile_qr_scan", "ios": "https://dc.lft.to/lastmile_qr_scan"}, "type": "electric_scooter", "lat": 38.931146166666664, "is_reserved": 0, "fusion_lat": 0.0}, {"bike_id": "00ce12403318421dedaaabca7f125e3d", "fusion_lon": 0.0, "lon": -76.99901483333333, "name": "00ce12403318421dedaaabca7f125e3d", "is_disabled": 0, "rental_uris": {"android": "https://dc.lft.to/lastmile_qr_scan", "ios": "https://dc.lft.to/lastmile_qr_scan"}, "type": "electric_scooter", "lat": 38.94687966666667, "is_reserved": 0, "fusion_lat": 0.0}, {"bike_id": "609b0f13f659226286606c6729a4c6b3", "fusion_lon": 0.0, "lon": -76.99632183333334, "name": "609b0f13f659226286606c6729a4c6b3", "is_disabled": 0, "rental_uris": {"android": "https://dc.lft.to/lastmile_qr_scan", "ios": "https://dc.lft.to/lastmile_qr_scan"}, "type": "electric_scooter", "lat": 38.886098833333335, "is_reserved": 0, "fusion_lat": 0.0}, {"bike_id": "cf8f063ce3e333ffadaab5bc9f172115", "fusion_lon": 0.0, "lon": -77.0131745, "name": "cf8f063ce3e333ffadaab5bc9f172115", "is_disabled": 0, "rental_uris": {"android": "https://dc.lft.to/lastmile_qr_scan", "ios": "https://dc.lft.to/lastmile_qr_scan"}, "type": "electric_scooter", "lat": 38.93029466666667, "is_reserved": 0, "fusion_lat": 0.0}, {"bike_id": "5ef7c5ffc437f987cd9fd66db8a81d54", "fusion_lon": 0.0, "lon": -77.02316416666666, "name": "5ef7c5ffc437f987cd9fd66db8a81d54", "is_disabled": 0, "rental_uris": {"android": "https://dc.lft.to/lastmile_qr_scan", "ios": "https://dc.lft.to/lastmile_qr_scan"}, "type": "electric_scooter", "lat": 38.91777833333333, "is_reserved": 0, "fusion_lat": 0.0}, {"bike_id": "e16e7795dacdd89df94bd97b02fe47e3", "fusion_lon": 0.0, "lon": -77.07724366666666, "name": "e16e7795dacdd89df94bd97b02fe47e3", "is_disabled": 0, "rental_uris": {"android": "https://dc.lft.to/lastmile_qr_scan", "ios": "https://dc.lft.to/lastmile_qr_scan"}, "type": "electric_scooter", "lat": 38.957638333333335, "is_reserved": 0, "fusion_lat": 0.0}, {"bike_id": "0a2a762aae5f16c386bf7e079ed41416", "fusion_lon": 0.0, "lon": -77.02703966666667, "name": "0a2a762aae5f16c386bf7e079ed41416", "is_disabled": 0, "rental_uris": {"android": "https://dc.lft.to/lastmile_qr_scan", "ios": "https://dc.lft.to/lastmile_qr_scan"}, "type": "electric_scooter", "lat": 38.9066565, "is_reserved": 0, "fusion_lat": 0.0}, {"bike_id": "aeeba7c87894a1ab0aac8d98f37ab124", "fusion_lon": 0.0, "lon": -77.048722, "name": "aeeba7c87894a1ab0aac8d98f37ab124", "is_disabled": 0, "rental_uris": {"android": "https://dc.lft.to/lastmile_qr_scan", "ios": "https://dc.lft.to/lastmile_qr_scan"}, "type": "electric_scooter", "lat": 38.909759333333334, "is_reserved": 0, "fusion_lat": 0.0}, {"bike_id": "fc050adcf0be2632dae7bfd914a14b6e", "fusion_lon": 0.0, "lon": -77.0217055, "name": "fc050adcf0be2632dae7bfd914a14b6e", "is_disabled": 0, "rental_uris": {"android": "https://dc.lft.to/lastmile_qr_scan", "ios": "https://dc.lft.to/lastmile_qr_scan"}, "type": "electric_scooter", "lat": 38.9198735, "is_reserved": 0, "fusion_lat": 0.0}, {"bike_id": "8303235aa1f266b84cc5ab59d8762428", "fusion_lon": 0.0, "lon": -77.0254205, "name": "8303235aa1f266b84cc5ab59d8762428", "is_disabled": 0, "rental_uris": {"android": "https://dc.lft.to/lastmile_qr_scan", "ios": "https://dc.lft.to/lastmile_qr_scan"}, "type": "electric_scooter", "lat": 38.94115433333333, "is_reserved": 0, "fusion_lat": 0.0}, {"bike_id": "db48dc8dbab49bcafdda30472c413649", "fusion_lon": 0.0, "lon": -77.058595, "name": "db48dc8dbab49bcafdda30472c413649", "is_disabled": 0, "rental_uris": {"android": "https://dc.lft.to/lastmile_qr_scan", "ios": "https://dc.lft.to/lastmile_qr_scan"}, "type": "electric_scooter", "lat": 38.9360675, "is_reserved": 0, "fusion_lat": 0.0}, {"bike_id": "f1cfd62cf1debc623e45432eacdf4784", "fusion_lon": 0.0, "lon": -77.03501833333333, "name": "f1cfd62cf1debc623e45432eacdf4784", "is_disabled": 0, "rental_uris": {"android": "https://dc.lft.to/lastmile_qr_scan", "ios": "https://dc.lft.to/lastmile_qr_scan"}, "type": "electric_scooter", "lat": 38.900615333333334, "is_reserved": 0, "fusion_lat": 0.0}, {"bike_id": "3dc72b8d30ef6931e9f98b17201bb5cb", "fusion_lon": 0.0, "lon": -77.0181635, "name": "3dc72b8d30ef6931e9f98b17201bb5cb", "is_disabled": 0, "rental_uris": {"android": "https://dc.lft.to/lastmile_qr_scan", "ios": "https://dc.lft.to/lastmile_qr_scan"}, "type": "electric_scooter", "lat": 38.92366083333334, "is_reserved": 0, "fusion_lat": 0.0}, {"bike_id": "1cebbb9e4eb604074db9d429936a8eab", "fusion_lon": 0.0, "lon": -77.0386635, "name": "1cebbb9e4eb604074db9d429936a8eab", "is_disabled": 0, "rental_uris": {"android": "https://dc.lft.to/lastmile_qr_scan", "ios": "https://dc.lft.to/lastmile_qr_scan"}, "type": "electric_scooter", "lat": 38.918200166666665, "is_reserved": 0, "fusion_lat": 0.0}, {"bike_id": "c29953e4da9fa1a9a80a6de4d84e9312", "fusion_lon": 0.0, "lon": -77.04178716666667, "name": "c29953e4da9fa1a9a80a6de4d84e9312", "is_disabled": 0, "rental_uris": {"android": "https://dc.lft.to/lastmile_qr_scan", "ios": "https://dc.lft.to/lastmile_qr_scan"}, "type": "electric_scooter", "lat": 38.9056895, "is_reserved": 0, "fusion_lat": 0.0}, {"bike_id": "b3fbf7409725edd0619002572887d70f", "fusion_lon": 0.0, "lon": -77.01295966666666, "name": "b3fbf7409725edd0619002572887d70f", "is_disabled": 0, "rental_uris": {"android": "https://dc.lft.to/lastmile_qr_scan", "ios": "https://dc.lft.to/lastmile_qr_scan"}, "type": "electric_scooter", "lat": 38.91405116666667, "is_reserved": 0, "fusion_lat": 0.0}, {"bike_id": "69ebc2381776900b60f6c7c7b07b3ba3", "fusion_lon": 0.0, "lon": -77.006815, "name": "69ebc2381776900b60f6c7c7b07b3ba3", "is_disabled": 0, "rental_uris": {"android": "https://dc.lft.to/lastmile_qr_scan", "ios": "https://dc.lft.to/lastmile_qr_scan"}, "type": "electric_scooter", "lat": 38.9001865, "is_reserved": 0, "fusion_lat": 0.0}, {"bike_id": "1ee4df65945117833dd311c998a7885f", "fusion_lon": 0.0, "lon": -77.04237016666667, "name": "1ee4df65945117833dd311c998a7885f", "is_disabled": 0, "rental_uris": {"android": "https://dc.lft.to/lastmile_qr_scan", "ios": "https://dc.lft.to/lastmile_qr_scan"}, "type": "electric_scooter", "lat": 38.92224683333333, "is_reserved": 0, "fusion_lat": 0.0}, {"bike_id": "dcfff3bace3a6c575455344b859138fd", "fusion_lon": 0.0, "lon": -77.050877, "name": "dcfff3bace3a6c575455344b859138fd", "is_disabled": 0, "rental_uris": {"android": "https://dc.lft.to/lastmile_qr_scan", "ios": "https://dc.lft.to/lastmile_qr_scan"}, "type": "electric_scooter", "lat": 38.923402833333334, "is_reserved": 0, "fusion_lat": 0.0}, {"bike_id": "e167e20dd5c01ab61b348325aac453ef", "fusion_lon": 0.0, "lon": -77.03513383333333, "name": "e167e20dd5c01ab61b348325aac453ef", "is_disabled": 0, "rental_uris": {"android": "https://dc.lft.to/lastmile_qr_scan", "ios": "https://dc.lft.to/lastmile_qr_scan"}, "type": "electric_bike", "lat": 38.96204933333333, "is_reserved": 0, "fusion_lat": 0.0}, {"bike_id": "09116f9b54fb606fbfaa86c890ca3095", "fusion_lon": 0.0, "lon": -77.01196833333333, "name": "09116f9b54fb606fbfaa86c890ca3095", "is_disabled": 0, "rental_uris": {"android": "https://dc.lft.to/lastmile_qr_scan", "ios": "https://dc.lft.to/lastmile_qr_scan"}, "type": "electric_scooter", "lat": 38.900084, "is_reserved": 0, "fusion_lat": 0.0}, {"bike_id": "67f54708479580c9ec4a8e930de3be0d", "fusion_lon": 0.0, "lon": -77.01544766666666, "name": "67f54708479580c9ec4a8e930de3be0d", "is_disabled": 0, "rental_uris": {"android": "https://dc.lft.to/lastmile_qr_scan", "ios": "https://dc.lft.to/lastmile_qr_scan"}, "type": "electric_scooter", "lat": 38.89133533333333, "is_reserved": 0, "fusion_lat": 0.0}, {"bike_id": "a90f413021a7f091b0587b4d86d07a2c", "fusion_lon": 0.0, "lon": -77.028154, "name": "a90f413021a7f091b0587b4d86d07a2c", "is_disabled": 0, "rental_uris": {"android": "https://dc.lft.to/lastmile_qr_scan", "ios": "https://dc.lft.to/lastmile_qr_scan"}, "type": "electric_scooter", "lat": 38.91689216666666, "is_reserved": 0, "fusion_lat": 0.0},