{"data": {"bikes": [{"name": "a1b2b922685fb2a333ed19add82e13ad", "fusion_lon": 0.0, "lat": 38.94967483333333, "is_reserved": 0, "type": "electric_bike", "bike_id": "a1b2b922685fb2a333ed19add82e13ad", "is_disabled": 0, "rental_uris": {"android": "https://dc.lft.to/lastmile_qr_scan", "ios": "https://dc.lft.to/lastmile_qr_scan"}, "lon": -77.02739366666667, "fusion_lat": 0.0}, {"name": "99095e8477abc8288e08bd83058e425c", "fusion_lon": 0.0, "lat": 38.981377, "is_reserved": 0, "type": "electric_scooter", "bike_id": "99095e8477abc8288e08bd83058e425c", "is_disabled": 0, "rental_uris": {"android": "https://dc.lft.to/lastmile_qr_scan", "ios": "https://dc.lft.to/lastmile_qr_scan"}, "lon": -77.02225133333333, "fusion_lat": 0.0}, {"name": "66a54c33e89b7ec904470ad39442650d", "fusion_lon": 0.0, "lat": 38.92526066666667, "is_reserved": 0, "type": "electric_scooter", "bike_id": "66a54c33e89b7ec904470ad39442650d", "is_disabled": 0, "rental_uris": {"android": "https://dc.lft.to/lastmile_qr_scan", "ios": "https://dc.lft.to/lastmile_qr_scan"}, "lon": -77.0769405, "fusion_lat": 0.0}, {"name": "6db8eda5c8b3804d46eb30e43ce19a10", "fusion_lon": 0.0, "lat": 38.92967066666667, "is_reserved": 0, "type": "electric_scooter", "bike_id": "6db8eda5c8b3804d46eb30e43ce19a10", "is_disabled": 0, "rental_uris": {"android": "https://dc.lft.to/lastmile_qr_scan", "ios": "https://dc.lft.to/lastmile_qr_scan"}, "lon": -77.03121783333333, "fusion_lat": 0.0}, {"name": "b0e2c051a24af594d1958fe4f87cc282", "fusion_lon": 0.0, "lat": 38.92241466666667, "is_reserved": 0, "type": "electric_scooter", "bike_id": "b0e2c051a24af594d1958fe4f87cc282", "is_disabled": 0, "rental_uris": {"android": "https://dc.lft.to/lastmile_qr_scan", "ios": "https://dc.lft.to/lastmile_qr_scan"}, "lon": -77.01827616666667, "fusion_lat": 0.0}, {"name": "2051ba6833e8f989362752c29b391bfa", "fusion_lon": 0.0, "lat": 38.89549566666667, "is_reserved": 0, "type": "electric_scooter", "bike_id": "2051ba6833e8f989362752c29b391bfa", "is_disabled": 0, "rental_uris": {"android": "https://dc.lft.to/lastmile_qr_scan", "ios": "https://dc.lft.to/lastmile_qr_scan"}, "lon": -77.02846266666667, "fusion_lat": 0.0}, {"name": "8bc2744fa9797b9bb462ad458aea7a8b", "fusion_lon": 0.0, "lat": 38.91274033333333, "is_reserved": 0, "type": "electric_scooter", "bike_id": "8bc2744fa9797b9bb462ad458aea7a8b", "is_disabled": 0, "rental_uris": {"android": "https://dc.lft.to/lastmile_qr_scan", "ios": "https://dc.lft.to/lastmile_qr_scan"}, "lon": -77.02226566666667, "fusion_lat": 0.0}, {"name": "127383d633baf07ab089c42e5793a3d5", "fusion_lon": 0.0, "lat": 38.90718283333333, "is_reserved": 0, "type": "electric_scooter", "bike_id": "127383d633baf07ab089c42e5793a3d5", "is_disabled": 0, "rental_uris": {"android": "https://dc.lft.to/lastmile_qr_scan", "ios": "https://dc.lft.to/lastmile_qr_scan"}, "lon": -77.018249, "fusion_lat": 0.0}, {"name": "8c945faaafe24dbfb1a16106a013900d", "fusion_lon": 0.0, "lat": 38.914728833333335, "is_reserved": 0, "type": "electric_scooter", "bike_id": "8c945faaafe24dbfb1a16106a013900d", "is_disabled": 0, "rental_uris": {"android": "https://dc.lft.to/lastmile_qr_scan", "ios": "https://dc.lft.to/lastmile_qr_scan"}, "lon": -77.04489816666667, "fusion_lat": 0.0}, {"name": "7bc1101eeeb5fb12c176c43a71265588", "fusion_lon": 0.0, "lat": 38.914872, "is_reserved": 0, "type": "electric_scooter", "bike_id": "7bc1101eeeb5fb12c176c43a71265588", "is_disabled": 0, "rental_uris": {"android": "https://dc.lft.to/lastmile_qr_scan", "ios": "https://dc.lft.to/lastmile_qr_scan"}, "lon": -77.06736283333333, "fusion_lat": 0.0}, {"name": "54bb9c907b782e4b55ba1ee0c9d61903", "fusion_lon": 0.0, "lat": 38.90719283333333, "is_reserved": 0, "type": "electric_scooter", "bike_id": "54bb9c907b782e4b55ba1ee0c9d61903", "is_disabled": 0, "rental_uris": {"android": "https://dc.lft.to/lastmile_qr_scan", "ios": "https://dc.lft.to/lastmile_qr_scan"}, "lon": -77.04512316666667, "fusion_lat": 0.0}, {"name": "38e7a8970b7764d62e00fdc48a53a3c0", "fusion_lon": 0.0, "lat": 38.957346, "is_reserved": 0, "type": "electric_scooter", "bike_id": "38e7a8970b7764d62e00fdc48a53a3c0", "is_disabled": 0, "rental_uris": {"android": "https://dc.lft.to/lastmile_qr_scan", "ios": "https://dc.lft.to/lastmile_qr_scan"}, "lon": -77.02400633333333, "fusion_lat": 0.0}, {"name": "67c1fb5a92f441ee35f7840d9aee64aa", "fusion_lon": 0.0, "lat": 38.93376966666666, "is_reserved": 0, "type": "electric_scooter", "bike_id": "67c1fb5a92f441ee35f7840d9aee64aa", "is_disabled": 0, "rental_uris": {"android": "https://dc.lft.to/lastmile_qr_scan", "ios": "https://dc.lft.to/lastmile_qr_scan"}, "lon": -77.032566, "fusion_lat": 0.0}, {"name": "79ef6600a2f635b341324d22effb7662", "fusion_lon": 0.0, "lat": 38.90388633333333, "is_reserved": 0, "type": "electric_scooter", "bike_id": "79ef6600a2f635b341324d22effb7662", "is_disabled": 0, "rental_uris": {"android": "https://dc.lft.to/lastmile_qr_scan", "ios": "https://dc.lft.to/lastmile_qr_scan"}, "lon": -77.04005216666667, "fusion_lat": 0.0}, {"name": "af3409efbf902bbd64839b1ace8bbfb7", "fusion_lon": 0.0, "lat": 38.927753333333335, "is_reserved": 0, "type": "electric_scooter", "bike_id": "af3409efbf902bbd64839b1ace8bbfb7", "is_disabled": 0, "rental_uris": {"android": "https://dc.lft.to/lastmile_qr_scan", "ios": "https://dc.lft.to/lastmile_qr_scan"}, "lon": -77.02712083333333, "fusion_lat": 0.0}, {"name": "73d55fe5d59bda6a7d08318fd6ce7779", "fusion_lon": 0.0, "lat": 38.907192333333334, "is_reserved": 0, "type": "electric_scooter", "bike_id": "73d55fe5d59bda6a7d08318fd6ce7779", "is_disabled": 0, "rental_uris": {"android": "https://dc.lft.to/lastmile_qr_scan", "ios": "https://dc.lft.to/lastmile_qr_scan"}, "lon": -77.0760895, "fusion_lat": 0.0}, {"name": "473467691da3b4b867430fb857fb641b", "fusion_lon": 0.0, "lat": 38.91985016666667, "is_reserved": 0, "type": "electric_scooter", "bike_id": "473467691da3b4b867430fb857fb641b", "is_disabled": 0, "rental_uris": {"android": "https://dc.lft.to/lastmile_qr_scan", "ios": "https://dc.lft.to/lastmile_qr_scan"}, "lon": -77.041705, "fusion_lat": 0.0}, {"name": "09f963df13a29a8e731a88255ec4bd92", "fusion_lon": 0.0, "lat": 38.882520166666666, "is_reserved": 0, "type": "electric_scooter", "bike_id": "09f963df13a29a8e731a88255ec4bd92", "is_disabled": 0, "rental_uris": {"android": "https://dc.lft.to/lastmile_qr_scan", "ios": "https://dc.lft.to/lastmile_qr_scan"}, "lon": -76.9911445, "fusion_lat": 0.0}, {"name": "0474f80242d0cef5e6facc11ba0ea44b", "fusion_lon": 0.0, "lat": 38.9079895, "is_reserved": 0, "type": "electric_scooter", "bike_id": "0474f80242d0cef5e6facc11ba0ea44b", "is_disabled": 0, "rental_uris": {"android": "https://dc.lft.to/lastmile_qr_scan", "ios": "https://dc.lft.to/lastmile_qr_scan"}, "lon": -77.03421966666667, "fusion_lat": 0.0}, {"name": "d0edef741a12ec66229d876a513939bd", "fusion_lon": 0.0, "lat": 38.91872333333333, "is_reserved": 0, "type": "electric_scooter", "bike_id": "d0edef741a12ec66229d876a513939bd", "is_disabled": 0, "rental_uris": {"android": "https://dc.lft.to/lastmile_qr_scan", "ios": "https://dc.lft.to/lastmile_qr_scan"}, "lon": -77.0475445, "fusion_lat": 0.0}, {"name": "7342b266ac224d7556b698e156111cb0", "fusion_lon": 0.0, "lat": 38.925582666666664, "is_reserved": 0, "type": "electric_scooter", "bike_id": "7342b266ac224d7556b698e156111cb0", "is_disabled": 0, "rental_uris": {"android": "https://dc.lft.to/lastmile_qr_scan", "ios": "https://dc.lft.to/lastmile_qr_scan"}, "lon": -77.037802, "fusion_lat": 0.0}, {"name": "dfdc8348f4505a5dade495756a67ba13", "fusion_lon": 0.0, "lat": 38.8961115, "is_reserved": 0, "type": "electric_scooter", "bike_id": "dfdc8348f4505a5dade495756a67ba13", "is_disabled": 0, "rental_uris": {"android": "https://dc.lft.to/lastmile_qr_scan", "ios": "https://dc.lft.to/lastmile_qr_scan"}, "lon": -77.04558783333333, "fusion_lat": 0.0}, {"name": "a5283e8265c8136a4d5e7d5ec4b6deea", "fusion_lon": 0.0, "lat": 38.92091466666667, "is_reserved": 0, "type": "electric_scooter", "bike_id": "a5283e8265c8136a4d5e7d5ec4b6deea", "is_disabled": 0, "rental_uris": {"android": "https://dc.lft.to/lastmile_qr_scan", "ios": "https://dc.lft.to/lastmile_qr_scan"}, "lon": -77.02283016666667, "fusion_lat": 0.0}, {"name": "60ed27c0965c436a5439f8c9205e49ac", "fusion_lon": 0.0, "lat": 38.90408166666667, "is_reserved": 0, "type": "electric_scooter", "bike_id": "60ed27c0965c436a5439f8c9205e49ac", "is_disabled": 0, "rental_uris": {"android": "https://dc.lft.to/lastmile_qr_scan", "ios": "https://dc.lft.to/lastmile_qr_scan"}, "lon": -76.97332866666666, "fusion_lat": 0.0}, {"name": "a5ef697c9791201399cd7adfe6e75a50", "fusion_lon": 0.0, "lat": 38.886016, "is_reserved": 0, "type": "electric_scooter", "bike_id": "a5ef697c9791201399cd7adfe6e75a50", "is_disabled": 0, "rental_uris": {"android": "https://dc.lft.to/lastmile_qr_scan", "ios": "https://dc.lft.to/lastmile_qr_scan"}, "lon": -76.9909565, "fusion_lat": 0.0}, {"name": "e14c22a9e4f73b9553c489e91b35d1a6", "fusion_lon": 0.0, "lat": 38.9155645, "is_reserved": 0, "type": "electric_scooter", "bike_id": "e14c22a9e4f73b9553c489e91b35d1a6", "is_disabled": 0, "rental_uris": {"android": "https://dc.lft.to/lastmile_qr_scan", "ios": "https://dc.lft.to/lastmile_qr_scan"}, "lon": -77.04173566666667, "fusion_lat": 0.0}, {"name": "d439d2b83db67ec35931846d22445ca6", "fusion_lon": 0.0, "lat": 38.90631916666667, "is_reserved": 0, "type": "electric_scooter", "bike_id": "d439d2b83db67ec35931846d22445ca6", "is_disabled": 0, "rental_uris": {"android": "https://dc.lft.to/lastmile_qr_scan", "ios": "https://dc.lft.to/lastmile_qr_scan"}, "lon": -77.04128483333334, "fusion_lat": 0.0}, {"name": "1d8061791df771a4e3151e7033ed378e", "fusion_lon": 0.0, "lat": 38.88199916666667, "is_reserved": 0, "type": "electric_scooter", "bike_id": "1d8061791df771a4e3151e7033ed378e", "is_disabled": 0, "rental_uris": {"android": "https://dc.lft.to/lastmile_qr_scan", "ios": "https://dc.lft.to/lastmile_qr_scan"}, "lon": -76.98922266666666, "fusion_lat": 0.0}, {"name": "9c291a7df8493fccaf94934b4093fe47", "fusion_lon": 0.0, "lat": 38.91844583333334, "is_reserved": 0, "type": "electric_scooter", "bike_id": "9c291a7df8493fccaf94934b4093fe47", "is_disabled": 0, "rental_uris": {"android": "https://dc.lft.to/lastmile_qr_scan", "ios": "https://dc.lft.to/lastmile_qr_scan"}, "lon": -77.02297683333333, "fusion_lat": 0.0}, {"name": "34201d94b3443fd3947858d1c47449c2", "fusion_lon": 0.0, "lat": 38.8771595, "is_reserved": 0, "type": "electric_scooter", "bike_id": "34201d94b3443fd3947858d1c47449c2", "is_disabled": 0, "rental_uris": {"android": "https://dc.lft.to/lastmile_qr_scan", "ios": "https://dc.lft.to/lastmile_qr_scan"}, "lon": -77.0041745, "fusion_lat": 0.0}, {"name": "ba8682391e6659633e70c7427cd5916b", "fusion_lon": 0.0, "lat": 38.9009615, "is_reserved": 0, "type": "electric_scooter", "bike_id": "ba8682391e6659633e70c7427cd5916b", "is_disabled": 0, "rental_uris": {"android": "https://dc.lft.to/lastmile_qr_scan", "ios": "https://dc.lft.to/lastmile_qr_scan"}, "lon": -76.97644066666666, "fusion_lat": 0.0}, {"name": "6f9321ee6181a01aaaa34a55477495f8", "fusion_lon": 0.0, "lat": 38.899242, "is_reserved": 0, "type": "electric_scooter", "bike_id": "6f9321ee6181a01aaaa34a55477495f8", "is_disabled": 0, "rental_uris": {"android": "https://dc.lft.to/lastmile_qr_scan", "ios": "https://dc.lft.to/lastmile_qr_scan"}, "lon": -76.9337235, "fusion_lat": 0.0}, {"name": "c8c6f1e0d0294c851be5f389b911590d", "fusion_lon": 0.0, "lat": 38.86506283333333, "is_reserved": 0, "type": "electric_scooter", "bike_id": "c8c6f1e0d0294c851be5f389b911590d", "is_disabled": 0, "rental_uris": {"android": "https://dc.lft.to/lastmile_qr_scan", "ios": "https://dc.lft.to/lastmile_qr_scan"}, "lon": -76.990012, "fusion_lat": 0.0}, {"name": "7434fa46b54b9a6a871b976c91e575b6", "fusion_lon": 0.0, "lat": 38.924879, "is_reserved": 0, "type": "electric_scooter", "bike_id": "7434fa46b54b9a6a871b976c91e575b6", "is_disabled": 0, "rental_uris": {"android": "https://dc.lft.to/lastmile_qr_scan", "ios": "https://dc.lft.to/lastmile_qr_scan"}, "lon": -77.02133216666667, "fusion_lat": 0.0}, {"name": "7f12e2a2bb8cfb725ca5e175fa16a7b0", "fusion_lon": 0.0, "lat": 38.893535, "is_reserved": 0, "type": "electric_scooter", "bike_id": "7f12e2a2bb8cfb725ca5e175fa16a7b0", "is_disabled": 0, "rental_uris": {"android": "https://dc.lft.to/lastmile_qr_scan", "ios": "https://dc.lft.to/lastmile_qr_scan"}, "lon": -77.01205983333334, "fusion_lat": 0.0}, {"name": "18985aad8fd39af8dee59e2c9e4324d1", "fusion_lon": 0.0, "lat": 38.92509916666667, "is_reserved": 0, "type": "electric_scooter", "bike_id": "18985aad8fd39af8dee59e2c9e4324d1", "is_disabled": 0, "rental_uris": {"android": "https://dc.lft.to/lastmile_qr_scan", "ios": "https://dc.lft.to/lastmile_qr_scan"}, "lon": -77.021608, "fusion_lat": 0.0}, {"name": "d21cf8909eb24f25a51028c82c0720d4", "fusion_lon": 0.0, "lat": 38.925085, "is_reserved": 0, "type": "electric_scooter", "bike_id": "d21cf8909eb24f25a51028c82c0720d4", "is_disabled": 0, "rental_uris": {"android": "https://dc.lft.to/lastmile_qr_scan", "ios": "https://dc.lft.to/lastmile_qr_scan"}, "lon": -77.023265, "fusion_lat": 0.0}, {"name": "1d990ec467910dd4ccaa5ed2e6203193", "fusion_lon": 0.0, "lat": 38.86316266666667, "is_reserved": 0, "type": "electric_scooter", "bike_id": "1d990ec467910dd4ccaa5ed2e6203193", "is_disabled": 0, "rental_uris": {"android": "https://dc.lft.to/lastmile_qr_scan", "ios": "https://dc.lft.to/lastmile_qr_scan"}, "lon": -76.9868715, "fusion_lat": 0.0}, {"name": "765535d411737f83d39813345a51bae0", "fusion_lon": 0.0, "lat": 38.876372, "is_reserved": 0, "type": "electric_scooter", "bike_id": "765535d411737f83d39813345a51bae0", "is_disabled": 0, "rental_uris": {"android": "https://dc.lft.to/lastmile_qr_scan", "ios": "https://dc.lft.to/lastmile_qr_scan"}, "lon": -77.00453383333333, "fusion_lat": 0.0}, {"name": "c028d5a7057bbdf7211a674c21ea7644", "fusion_lon": 0.0, "lat": 38.917630333333335, "is_reserved": 0, "type": "electric_scooter", "bike_id": "c028d5a7057bbdf7211a674c21ea7644", "is_disabled": 0, "rental_uris": {"android": "https://dc.lft.to/lastmile_qr_scan", "ios": "https://dc.lft.to/lastmile_qr_scan"}, "lon": -77.02291733333334, "fusion_lat": 0.0}, {"name": "37476622389a436964e7263e44466b86", "fusion_lon": 0.0, "lat": 38.921031666666664, "is_reserved": 0, "type": "electric_scooter", "bike_id": "37476622389a436964e7263e44466b86", "is_disabled": 0, "rental_uris": {"android": "https://dc.lft.to/lastmile_qr_scan", "ios": "https://dc.lft.to/lastmile_qr_scan"}, "lon": -77.031706, "fusion_lat": 0.0}, {"name": "ffe573f9cf182500e5ee7536c11355b0", "fusion_lon": 0.0, "lat": 38.909683, "is_reserved": 0, "type": "electric_scooter", "bike_id": "ffe573f9cf182500e5ee7536c11355b0", "is_disabled": 0, "rental_uris": {"android": "https://dc.lft.to/lastmile_qr_scan", "ios": "https://dc.lft.to/lastmile_qr_scan"}, "lon": -77.03998216666666, "fusion_lat": 0.0}, {"name": "fc96b9b22b096f5ad01cd260e1bc3407", "fusion_lon": 0.0, "lat": 38.919968833333336, "is_reserved": 0, "type": "electric_scooter", "bike_id": "fc96b9b22b096f5ad01cd260e1bc3407", "is_disabled": 0, "rental_uris": {"android": "https://dc.lft.to/lastmile_qr_scan", "ios": "https://dc.lft.to/lastmile_qr_scan"}, "lon": -77.03300633333333, "fusion_lat": 0.0}, {"name": "7538d06c7bfeb60ce8a6f5f1ee703516", "fusion_lon": 0.0, "lat": 38.903492666666665, "is_reserved": 0, "type": "electric_scooter", "bike_id": "7538d06c7bfeb60ce8a6f5f1ee703516", "is_disabled": 0, "rental_uris": {"android": "https://dc.lft.to/lastmile_qr_scan", "ios": "https://dc.lft.to/lastmile_qr_scan"}, "lon": -76.9850135, "fusion_lat": 0.0}, {"name": "678b3cb2f0b303211916e5d2ff7cdcde", "fusion_lon": 0.0, "lat": 38.892344666666666, "is_reserved": 0, "type": "electric_scooter", "bike_id": "678b3cb2f0b303211916e5d2ff7cdcde", "is_disabled": 0, "rental_uris": {"android": "https://dc.lft.to/lastmile_qr_scan", "ios": "https://dc.lft.to/lastmile_qr_scan"}, "lon": -77.0313325, "fusion_lat": 0.0}, {"name": "3a92791cf5917da616569fe3c9c5bbb3", "fusion_lon": 0.0, "lat": 38.91696116666667, "is_reserved": 0, "type": "electric_scooter", "bike_id": "3a92791cf5917da616569fe3c9c5bbb3", "is_disabled": 0, "rental_uris": {"android": "https://dc.lft.to/lastmile_qr_scan", "ios": "https://dc.lft.to/lastmile_qr_scan"}, "lon": -77.02453716666666, "fusion_lat": 0.0}, {"name": "184ac64eb77112ee4d7d5e554c3a79f5", "fusion_lon": 0.0, "lat": 38.9209525, "is_reserved": 0, "type": "electric_scooter", "bike_id": "184ac64eb77112ee4d7d5e554c3a79f5", "is_disabled": 0, "rental_uris": {"android": "https://dc.lft.to/lastmile_qr_scan", "ios": "https://dc.lft.to/lastmile_qr_scan"}, "lon": -77.01666366666667, "fusion_lat": 0.0}, {"name": "a47af4ff58b3c20ad9bbac3f91a5fce5", "fusion_lon": 0.0, "lat": 38.91552816666667, "is_reserved": 0, "type": "electric_scooter", "bike_id": "a47af4ff58b3c20ad9bbac3f91a5fce5", "is_disabled": 0, "rental_uris": {"android": "https://dc.lft.to/lastmile_qr_scan", "ios": "https://dc.lft.to/lastmile_qr_scan"}, "lon": -77.0384615, "fusion_lat": 0.0}, {"name": "156b3fa64ffe617a3784c39e2f5f2ac1", "fusion_lon": 0.0, "lat": 38.94039333333333, "is_reserved": 0, "type": "electric_scooter", "bike_id": "156b3fa64ffe617a3784c39e2f5f2ac1", "is_disabled": 0, "rental_uris": {"android": "https://dc.lft.to/lastmile_qr_scan", "ios": "https://dc.lft.to/lastmile_qr_scan"}, "lon": -77.02900983333333, "fusion_lat": 0.0}, {"name": "c7a6f9d4747632086e566b69f0f589e4", "fusion_lon": 0.0, "lat": 38.9107365, "is_reserved": 0, "type": "electric_scooter", "bike_id": "c7a6f9d4747632086e566b69f0f589e4", "is_disabled": 0, "rental_uris": {"android": "https://dc.lft.to/lastmile_qr_scan", "ios": "https://dc.lft.to/lastmile_qr_scan"}, "lon": -77.0383755, "fusion_lat": 0.0}, {"name": "b37c56383f6a47155224c16e106d710e", "fusion_lon": 0.0, "lat": 38.8382745, "is_reserved": 0, "type": "electric_bike", "bike_id": "b37c56383f6a47155224c16e106d710e", "is_disabled": 0, "rental_uris": {"android": "https://dc.lft.to/lastmile_qr_scan", "ios": "https://dc.lft.to/lastmile_qr_scan"}, "lon": -77.079081, "fusion_lat": 0.0}, {"name": "0b37614c82ca6643497bdfcb56bb6476", "fusion_lon": 0.0, "lat": 38.886531, "is_reserved": 0, "type": "electric_scooter", "bike_id": "0b37614c82ca6643497bdfcb56bb6476", "is_disabled": 0, "rental_uris": {"android": "https://dc.lft.to/lastmile_qr_scan", "ios": "https://dc.lft.to/lastmile_qr_scan"}, "lon": -76.99988716666667, "fusion_lat": 0.0}, {"name": "7c4b6ddcedf70c55deb546535c283180", "fusion_lon": 0.0, "lat": 38.948332666666666, "is_reserved": 0, "type": "electric_bike", "bike_id": "7c4b6ddcedf70c55deb546535c283180", "is_disabled": 0, "rental_uris": {"android": "https://dc.lft.to/lastmile_qr_scan", "ios": "https://dc.lft.to/lastmile_qr_scan"}, "lon": -77.03374216666667, "fusion_lat": 0.0}, {"name": "82b16c301ac7e9024d9dc3418db3aaba", "fusion_lon": 0.0, "lat": 38.907953166666665, "is_reserved": 0, "type": "electric_scooter", "bike_id": "82b16c301ac7e9024d9dc3418db3aaba", "is_disabled": 0, "rental_uris": {"android": "https://dc.lft.to/lastmile_qr_scan", "ios": "https://dc.lft.to/lastmile_qr_scan"}, "lon": -77.038638, "fusion_lat": 0.0}, {"name": "1df5837c540be775c28469bdc39cab4a", "fusion_lon": 0.0, "lat": 38.924611666666664, "is_reserved": 0, "type": "electric_scooter", "bike_id": "1df5837c540be775c28469bdc39cab4a", "is_disabled": 0, "rental_uris": {"android": "https://dc.lft.to/lastmile_qr_scan", "ios": "https://dc.lft.to/lastmile_qr_scan"}, "lon": -77.027103, "fusion_lat": 0.0}, {"name": "80d966c20bc2ebec7598ec21d590c447", "fusion_lon": 0.0, "lat": 38.924536, "is_reserved": 0, "type": "electric_scooter", "bike_id": "80d966c20bc2ebec7598ec21d590c447", "is_disabled": 0, "rental_uris": {"android": "https://dc.lft.to/lastmile_qr_scan", "ios": "https://dc.lft.to/lastmile_qr_scan"}, "lon": -77.0396585, "fusion_lat": 0.0}, {"name": "9017ca75aedb94b314a1a0cefc8ee3c0", "fusion_lon": 0.0, "lat": 38.87553583333333, "is_reserved": 0, "type": "electric_scooter", "bike_id": "9017ca75aedb94b314a1a0cefc8ee3c0", "is_disabled": 0, "rental_uris": {"android": "https://dc.lft.to/lastmile_qr_scan", "ios": "https://dc.lft.to/lastmile_qr_scan"}, "lon": -77.005652, "fusion_lat": 0.0}, {"name": "9fdbdd87075225bc438d4fa5c80e18fc", "fusion_lon": 0.0, "lat": 38.903795, "is_reserved": 0, "type": "electric_scooter", "bike_id": "9fdbdd87075225bc438d4fa5c80e18fc", "is_disabled": 0, "rental_uris": {"android": "https://dc.lft.to/lastmile_qr_scan", "ios": "https://dc.lft.to/lastmile_qr_scan"}, "lon": -77.0363145, "fusion_lat": 0.0}, {"name": "94f9365dd07f9ef09a0df1925994275a", "fusion_lon": 0.0, "lat": 38.884062166666666, "is_reserved": 0, "type": "electric_scooter", "bike_id": "94f9365dd07f9ef09a0df1925994275a", "is_disabled": 0, "rental_uris": {"android": "https://dc.lft.to/lastmile_qr_scan", "ios": "https://dc.lft.to/lastmile_qr_scan"}, "lon": -76.95392583333333, "fusion_lat": 0.0}, {"name": "ca8b5b6665ec5d18f51fbe29b94fa115", "fusion_lon": 0.0, "lat": 38.908368, "is_reserved": 0, "type": "electric_bike", "bike_id": "ca8b5b6665ec5d18f51fbe29b94fa115", "is_disabled": 0, "rental_uris": {"android": "https://dc.lft.to/lastmile_qr_scan", "ios": "https://dc.lft.to/lastmile_qr_scan"}, "lon": -76.93304083333334, "fusion_lat": 0.0}, {"name": "44931269390e81a6e0a8e65ef02be184", "fusion_lon": 0.0, "lat": 38.92403083333333, "is_reserved": 0, "type": "electric_scooter", "bike_id": "44931269390e81a6e0a8e65ef02be184", "is_disabled": 0, "rental_uris": {"android": "https://dc.lft.to/lastmile_qr_scan", "ios": "https://dc.lft.to/lastmile_qr_scan"}, "lon": -77.0214095, "fusion_lat": 0.0}, {"name": "786dbde46915244d46ba47afc5d97e0f", "fusion_lon": 0.0, "lat": 38.916224166666666, "is_reserved": 0, "type": "electric_scooter", "bike_id": "786dbde46915244d46ba47afc5d97e0f", "is_disabled": 0, "rental_uris": {"android": "https://dc.lft.to/lastmile_qr_scan", "ios": "https://dc.lft.to/lastmile_qr_scan"}, "lon": -77.0484885, "fusion_lat": 0.0}, {"name": "7eb77cb1e3c7f2c88cba61bd9fecb217", "fusion_lon": 0.0, "lat": 38.910135333333336, "is_reserved": 0, "type": "electric_bike", "bike_id": "7eb77cb1e3c7f2c88cba61bd9fecb217", "is_disabled": 0, "rental_uris": {"android": "https://dc.lft.to/lastmile_qr_scan", "ios": "https://dc.lft.to/lastmile_qr_scan"}, "lon": -77.22797333333334, "fusion_lat": 0.0}, {"name": "60869192c8623217d80212733387f97e", "fusion_lon": 0.0, "lat": 38.923156666666664, "is_reserved": 0, "type": "electric_scooter", "bike_id": "60869192c8623217d80212733387f97e", "is_disabled": 0, "rental_uris": {"android": "https://dc.lft.to/lastmile_qr_scan", "ios": "https://dc.lft.to/lastmile_qr_scan"}, "lon": -77.02752816666667, "fusion_lat": 0.0}, {"name": "859fb1ecc949d741fc1beb7f38fcaa30", "fusion_lon": 0.0, "lat": 38.8760405, "is_reserved": 0, "type": "electric_scooter", "bike_id": "859fb1ecc949d741fc1beb7f38fcaa30", "is_disabled": 0, "rental_uris": {"android": "https://dc.lft.to/lastmile_qr_scan", "ios": "https://dc.lft.to/lastmile_qr_scan"}, "lon": -77.000582, "fusion_lat": 0.0}, {"name": "20a3e1cd9079cfe820a406ac855ae9de", "fusion_lon": 0.0, "lat": 38.942060833333336, "is_reserved": 0, "type": "electric_scooter", "bike_id": "20a3e1cd9079cfe820a406ac855ae9de", "is_disabled": 0, "rental_uris": {"android": "https://dc.lft.to/lastmile_qr_scan", "ios": "https://dc.lft.to/lastmile_qr_scan"}, "lon": -77.02511616666666, "fusion_lat": 0.0}, {"name": "9d56571d55dcd018b1edd140230d1198", "fusion_lon": 0.0, "lat": 38.8980605, "is_reserved": 0, "type": "electric_scooter", "bike_id": "9d56571d55dcd018b1edd140230d1198", "is_disabled": 0, "rental_uris": {"android": "https://dc.lft.to/lastmile_qr_scan", "ios": "https://dc.lft.to/lastmile_qr_scan"}, "lon": -77.03327033333333, "fusion_lat": 0.0}, {"name": "3e28afe47c61e0584231847b58aa8a3e", "fusion_lon": 0.0, "lat": 38.872816, "is_reserved": 0, "type": "electric_bike", "bike_id": "3e28afe47c61e0584231847b58aa8a3e", "is_disabled": 0, "rental_uris": {"android": "https://dc.lft.to/lastmile_qr_scan", "ios": "https://dc.lft.to/lastmile_qr_scan"}, "lon": -77.23316216666667, "fusion_lat": 0.0}, {"name": "fdd4d4f3c189d71585b662abfd4f70c6", "fusion_lon": 0.0, "lat": 38.86354566666667, "is_reserved": 0, "type": "electric_scooter", "bike_id": "fdd4d4f3c189d71585b662abfd4f70c6", "is_disabled": 0, "rental_uris": {"android": "https://dc.lft.to/lastmile_qr_scan", "ios": "https://dc.lft.to/lastmile_qr_scan"}, "lon": -76.98706183333333, "fusion_lat": 0.0}, {"name": "65b56216ba4025c62f81c42b1f812824", "fusion_lon": 0.0, "lat": 38.90395766666666, "is_reserved": 0, "type": "electric_scooter", "bike_id": "65b56216ba4025c62f81c42b1f812824", "is_disabled": 0, "rental_uris": {"android": "https://dc.lft.to/lastmile_qr_scan", "ios": "https://dc.lft.to/lastmile_qr_scan"}, "lon": -77.03832483333333, "fusion_lat": 0.0}, {"name": "69f1a5552f13741ca9a9d444f74469fa", "fusion_lon": 0.0, "lat": 38.887327166666665, "is_reserved": 0, "type": "electric_scooter", "bike_id": "69f1a5552f13741ca9a9d444f74469fa", "is_disabled": 0, "rental_uris": {"android": "https://dc.lft.to/lastmile_qr_scan", "ios": "https://dc.lft.to/lastmile_qr_scan"}, "lon": -77.028241, "fusion_lat": 0.0}, {"name": "941b198cf51b441e2c91d6e3715de2f7", "fusion_lon": 0.0, "lat": 38.9003095, "is_reserved": 0, "type": "electric_scooter", "bike_id": "941b198cf51b441e2c91d6e3715de2f7", "is_disabled": 0, "rental_uris": {"android": "https://dc.lft.to/lastmile_qr_scan", "ios": "https://dc.lft.to/lastmile_qr_scan"}, "lon": -77.01185466666666, "fusion_lat": 0.0}, {"name": "6f29b2af4d2674ec819be6a11947927c", "fusion_lon": 0.0, "lat": 38.9152175, "is_reserved": 0, "type": "electric_scooter", "bike_id": "6f29b2af4d2674ec819be6a11947927c", "is_disabled": 0, "rental_uris": {"android": "https://dc.lft.to/lastmile_qr_scan", "ios": "https://dc.lft.to/lastmile_qr_scan"}, "lon": -77.03164833333334, "fusion_lat": 0.0}, {"name": "0838e22c5278051563d668bfe656d903", "fusion_lon": 0.0, "lat": 38.880576, "is_reserved": 0, "type": "electric_bike", "bike_id": "0838e22c5278051563d668bfe656d903", "is_disabled": 0, "rental_uris": {"android": "https://dc.lft.to/lastmile_qr_scan", "ios": "https://dc.lft.to/lastmile_qr_scan"}, "lon": -76.96230366666667, "fusion_lat": 0.0}, {"name": "76850f87e9565946f9730f018fe3c4be", "fusion_lon": 0.0, "lat": 38.906097333333335, "is_reserved": 0, "type": "electric_scooter", "bike_id": "76850f87e9565946f9730f018fe3c4be", "is_disabled": 0, "rental_uris": {"android": "https://dc.lft.to/lastmile_qr_scan", "ios": "https://dc.lft.to/lastmile_qr_scan"}, "lon": -77.05689366666667, "fusion_lat": 0.0}, {"name": "16fe9df69f22cbd12326ef7882de56c9", "fusion_lon": 0.0, "lat": 38.86952566666667, "is_reserved": 0, "type": "electric_scooter", "bike_id": "16fe9df69f22cbd12326ef7882de56c9", "is_disabled": 0, "rental_uris": {"android": "https://dc.lft.to/lastmile_qr_scan", "ios": "https://dc.lft.to/lastmile_qr_scan"}, "lon": -76.981713, "fusion_lat": 0.0}, {"name": "aedf7b32d71adc32b281ee2076c404e8", "fusion_lon": 0.0, "lat": 38.88511483333333, "is_reserved": 0, "type": "electric_scooter", "bike_id": "aedf7b32d71adc32b281ee2076c404e8", "is_disabled": 0, "rental_uris": {"android": "https://dc.lft.to/lastmile_qr_scan", "ios": "https://dc.lft.to/lastmile_qr_scan"}, "lon": -77.00564866666667, "fusion_lat": 0.0}, {"name": "c24fec059c123a52a75ed3bd34f4f5fc", "fusion_lon": 0.0, "lat": 38.89324283333333, "is_reserved": 0, "type": "electric_scooter", "bike_id": "c24fec059c123a52a75ed3bd34f4f5fc", "is_disabled": 0, "rental_uris": {"android": "https://dc.lft.to/lastmile_qr_scan", "ios": "https://dc.lft.to/lastmile_qr_scan"}, "lon": -77.048707, "fusion_lat": 0.0}, {"name": "afee3a02ecee6569d6aa5ad81bcd516e", "fusion_lon": 0.0, "lat": 38.92125816666667, "is_reserved": 0, "type": "electric_scooter", "bike_id": "afee3a02ecee6569d6aa5ad81bcd516e", "is_disabled": 0, "rental_uris": {"android": "https://dc.lft.to/lastmile_qr_scan", "ios": "https://dc.lft.to/lastmile_qr_scan"}, "lon": -77.04436183333334, "fusion_lat": 0.0}, {"name": "d7bf670bffd6f3d4ef9bdf0f95868371", "fusion_lon": 0.0, "lat": 38.923248, "is_reserved": 0, "type": "electric_scooter", "bike_id": "d7bf670bffd6f3d4ef9bdf0f95868371", "is_disabled": 0, "rental_uris": {"android": "https://dc.lft.to/lastmile_qr_scan", "ios": "https://dc.lft.to/lastmile_qr_scan"}, "lon": -77.02139266666667, "fusion_lat": 0.0}, {"name": "0a55ac355ead28078bdbc42b6a04d6eb", "fusion_lon": 0.0, "lat": 38.93675866666667, "is_reserved": 0, "type": "electric_scooter", "bike_id": "0a55ac355ead28078bdbc42b6a04d6eb", "is_disabled": 0, "rental_uris": {"android": "https://dc.lft.to/lastmile_qr_scan", "ios": "https://dc.lft.to/lastmile_qr_scan"}, "lon": -77.03281183333333, "fusion_lat": 0.0}, {"name": "2923ac3025ebcf64be9faf5ebc44ddac", "fusion_lon": 0.0, "lat": 38.90058333333333, "is_reserved": 0, "type": "electric_scooter", "bike_id": "2923ac3025ebcf64be9faf5ebc44ddac", "is_disabled": 0, "rental_uris": {"android": "https://dc.lft.to/lastmile_qr_scan", "ios": "https://dc.lft.to/lastmile_qr_scan"}, "lon": -76.93468, "fusion_lat": 0.0}, {"name": "7ee78d4088c7b9f254430d2c7c021839", "fusion_lon": 0.0, "lat": 38.93007983333333, "is_reserved": 0, "type": "electric_scooter", "bike_id": "7ee78d4088c7b9f254430d2c7c021839", "is_disabled": 0, "rental_uris": {"android": "https://dc.lft.to/lastmile_qr_scan", "ios": "https://dc.lft.to/lastmile_qr_scan"}, "lon": -77.01430933333333, "fusion_lat": 0.0}, {"name": "7ca6e0148b3b6e10089eba9c7ffdff30", "fusion_lon": 0.0, "lat": 38.8569085, "is_reserved": 0, "type": "electric_scooter", "bike_id": "7ca6e0148b3b6e10089eba9c7ffdff30", "is_disabled": 0, "rental_uris": {"android": "https://dc.lft.to/lastmile_qr_scan", "ios": "https://dc.lft.to/lastmile_qr_scan"}, "lon": -76.98964783333334, "fusion_lat": 0.0}, {"name": "ba83f270ba9fb351f735aaf51eb040ff", "fusion_lon": 0.0, "lat": 39.057862, "is_reserved": 0, "type": "electric_bike", "bike_id": "ba83f270ba9fb351f735aaf51eb040ff", "is_disabled": 0, "rental_uris": {"android": "https://dc.lft.to/lastmile_qr_scan", "ios": "https://dc.lft.to/lastmile_qr_scan"}, "lon": -77.15021066666667, "fusion_lat": 0.0}, {"name": "8df85d0986c378720fe7d57a767237f0", "fusion_lon": 0.0, "lat": 38.9207095, "is_reserved": 0, "type": "electric_scooter", "bike_id": "8df85d0986c378720fe7d57a767237f0", "is_disabled": 0, "rental_uris": {"android": "https://dc.lft.to/lastmile_qr_scan", "ios": "https://dc.lft.to/lastmile_qr_scan"}, "lon": -77.02419783333333, "fusion_lat": 0.0}, {"name": "efb8731c1e6f1cfbc6776fca8b299bfc", "fusion_lon": 0.0, "lat": 38.84426166666667, "is_reserved": 0, "type": "electric_scooter", "bike_id": "efb8731c1e6f1cfbc6776fca8b299bfc", "is_disabled": 0, "rental_uris": {"android": "https://dc.lft.to/lastmile_qr_scan", "ios": "https://dc.lft.to/lastmile_qr_scan"}, "lon": -76.99775916666667, "fusion_lat": 0.0}, {"name": "408db5455cb37dc171dd8f1ea8ce350a", "fusion_lon": 0.0, "lat": 38.90899533333334, "is_reserved": 0, "type": "electric_scooter", "bike_id": "408db5455cb37dc171dd8f1ea8ce350a", "is_disabled": 0, "rental_uris": {"android": "https://dc.lft.to/lastmile_qr_scan", "ios": "https://dc.lft.to/lastmile_qr_scan"}, "lon": -77.0725945, "fusion_lat": 0.0}, {"name": "3f595a34e78db331dc9cf68828ae6361", "fusion_lon": 0.0, "lat": 38.837332, "is_reserved": 0, "type": "electric_bike", "bike_id": "3f595a34e78db331dc9cf68828ae6361", "is_disabled": 0, "rental_uris": {"android": "https://dc.lft.to/lastmile_qr_scan", "ios": "https://dc.lft.to/lastmile_qr_scan"}, "lon": -77.09548766666667, "fusion_lat": 0.0}, {"name": "9095c4ff8a5c9c66b75a8cf34afcb3cc", "fusion_lon": 0.0, "lat": 38.9028025, "is_reserved": 0, "type": "electric_scooter", "bike_id": "9095c4ff8a5c9c66b75a8cf34afcb3cc", "is_disabled": 0, "rental_uris": {"android": "https://dc.lft.to/lastmile_qr_scan", "ios": "https://dc.lft.to/lastmile_qr_scan"}, "lon": -77.05806833333334, "fusion_lat": 0.0}, {"name": "5a50ef587be07d5b70804b37b68f266c", "fusion_lon": 0.0, "lat": 38.90977066666667, "is_reserved": 0, "type": "electric_scooter", "bike_id": "5a50ef587be07d5b70804b37b68f266c", "is_disabled": 0, "rental_uris": {"android": "https://dc.lft.to/lastmile_qr_scan", "ios": "https://dc.lft.to/lastmile_qr_scan"}, "lon": -77.04798116666667, "fusion_lat": 0.0}, {"name": "254394a929f62a68c1858f2994a25edd", "fusion_lon": 0.0, "lat": 38.906023833333336, "is_reserved": 0, "type": "electric_scooter", "bike_id": "254394a929f62a68c1858f2994a25edd", "is_disabled": 0, "rental_uris": {"android": "https://dc.lft.to/lastmile_qr_scan", "ios": "https://dc.lft.to/lastmile_qr_scan"}, "lon": -77.0411565, "fusion_lat": 0.0}, {"name": "154507d7ba67fa2bca53e56d64d3b777", "fusion_lon": 0.0, "lat": 38.9165305, "is_reserved": 0, "type": "electric_scooter", "bike_id": "154507d7ba67fa2bca53e56d64d3b777", "is_disabled": 0, "rental_uris": {"android": "https://dc.lft.to/lastmile_qr_scan", "ios": "https://dc.lft.to/lastmile_qr_scan"}, "lon": -77.022852, "fusion_lat": 0.0}, {"name": "bfa6f467083496078bcc926b11636925", "fusion_lon": 0.0, "lat": 38.93436833333333, "is_reserved": 0, "type": "electric_scooter", "bike_id": "bfa6f467083496078bcc926b11636925", "is_disabled": 0, "rental_uris": {"android": "https://dc.lft.to/lastmile_qr_scan", "ios": "https://dc.lft.to/lastmile_qr_scan"}, "lon": -77.0453645, "fusion_lat": 0.0}, {"name": "0bf9a620adc74667c8586c9da1d462f4", "fusion_lon": 0.0, "lat": 38.942044333333335, "is_reserved": 0, "type": "electric_scooter", "bike_id": "0bf9a620adc74667c8586c9da1d462f4", "is_disabled": 0, "rental_uris": {"android": "https://dc.lft.to/lastmile_qr_scan", "ios": "https://dc.lft.to/lastmile_qr_scan"}, "lon": -77.02518183333333, "fusion_lat": 0.0}, {"name": "1438250f62bc2434f19658d09b7ffef9", "fusion_lon": 0.0, "lat": 38.90312766666667, "is_reserved": 0, "type": "electric_scooter", "bike_id": "1438250f62bc2434f19658d09b7ffef9", "is_disabled": 0, "rental_uris": {"android": "https://dc.lft.to/lastmile_qr_scan", "ios": "https://dc.lft.to/lastmile_qr_scan"}, "lon": -77.02219516666666, "fusion_lat": 0.0}, {"name": "a9ec5aff1c51dcf44c5d8a2eb450df66", "fusion_lon": 0.0, "lat": 38.912786833333335, "is_reserved": 0, "type": "electric_scooter", "bike_id": "a9ec5aff1c51dcf44c5d8a2eb450df66", "is_disabled": 0, "rental_uris": {"android": "https://dc.lft.to/lastmile_qr_scan", "ios": "https://dc.lft.to/lastmile_qr_scan"}, "lon": -77.04499216666666, "fusion_lat": 0.0}, {"name": "aee477e6e452138db83fc8233db84145", "fusion_lon": 0.0, "lat": 38.904054, "is_reserved": 0, "type": "electric_scooter", "bike_id": "aee477e6e452138db83fc8233db84145", "is_disabled": 0, "rental_uris": {"android": "https://dc.lft.to/lastmile_qr_scan", "ios": "https://dc.lft.to/lastmile_qr_scan"}, "lon": -77.04359833333334, "fusion_lat": 0.0}, {"name": "433c4483123458c4d1071c17c76a62d4", "fusion_lon": 0.0, "lat": 38.9499425, "is_reserved": 0, "type": "electric_scooter", "bike_id": "433c4483123458c4d1071c17c76a62d4", "is_disabled": 0, "rental_uris": {"android": "https://dc.lft.to/lastmile_qr_scan", "ios": "https://dc.lft.to/lastmile_qr_scan"}, "lon": -77.0333075, "fusion_lat": 0.0}, {"name": "e39be2f84888f68904d625e1d2283e65", "fusion_lon": 0.0, "lat": 38.92384066666666, "is_reserved": 0, "type": "electric_scooter", "bike_id": "e39be2f84888f68904d625e1d2283e65", "is_disabled": 0, "rental_uris": {"android": "https://dc.lft.to/lastmile_qr_scan", "ios": "https://dc.lft.to/lastmile_qr_scan"}, "lon": -77.02056916666666, "fusion_lat": 0.0}, {"name": "c1dc410f43d4b35ac15d964546b82320", "fusion_lon": 0.0, "lat": 38.866447, "is_reserved": 0, "type": "electric_scooter", "bike_id": "c1dc410f43d4b35ac15d964546b82320", "is_disabled": 0, "rental_uris": {"android": "https://dc.lft.to/lastmile_qr_scan", "ios": "https://dc.lft.to/lastmile_qr_scan"}, "lon": -76.982617, "fusion_lat": 0.0}, {"name": "607692cf54bc4cdae701853a5cfdb4a0", "fusion_lon": 0.0, "lat": 38.90181966666667, "is_reserved": 0, "type": "electric_scooter", "bike_id": "607692cf54bc4cdae701853a5cfdb4a0", "is_disabled": 0, "rental_uris": {"android": "https://dc.lft.to/lastmile_qr_scan", "ios": "https://dc.lft.to/lastmile_qr_scan"}, "lon": -76.98815216666667, "fusion_lat": 0.0}, {"name": "495cba7f6415843bd3c440938a2f1d50", "fusion_lon": 0.0, "lat": 38.9287495, "is_reserved": 0, "type": "electric_scooter", "bike_id": "495cba7f6415843bd3c440938a2f1d50", "is_disabled": 0, "rental_uris": {"android": "https://dc.lft.to/lastmile_qr_scan", "ios": "https://dc.lft.to/lastmile_qr_scan"}, "lon": -77.03281116666666, "fusion_lat": 0.0}, {"name": "30a656d61c36b0d09871e5fe0b573060", "fusion_lon": 0.0, "lat": 38.94181566666666, "is_reserved": 0, "type": "electric_scooter", "bike_id": "30a656d61c36b0d09871e5fe0b573060", "is_disabled": 0, "rental_uris": {"android": "https://dc.lft.to/lastmile_qr_scan", "ios": "https://dc.lft.to/lastmile_qr_scan"}, "lon": -77.02486033333334, "fusion_lat": 0.0}, {"name": "c9974b65172a7f55c7b08ce8815bb193", "fusion_lon": 0.0, "lat": 38.922208166666664, "is_reserved": 0, "type": "electric_scooter", "bike_id": "c9974b65172a7f55c7b08ce8815bb193", "is_disabled": 0, "rental_uris": {"android": "https://dc.lft.to/lastmile_qr_scan", "ios": "https://dc.lft.to/lastmile_qr_scan"}, "lon": -77.03290666666666, "fusion_lat": 0.0}, {"name": "081a2de4af3f9b2ac32d0272468dc6bb", "fusion_lon": 0.0, "lat": 38.91409, "is_reserved": 0, "type": "electric_scooter", "bike_id": "081a2de4af3f9b2ac32d0272468dc6bb", "is_disabled": 0, "rental_uris": {"android": "https://dc.lft.to/lastmile_qr_scan", "ios": "https://dc.lft.to/lastmile_qr_scan"}, "lon": -77.02152833333334, "fusion_lat": 0.0}, {"name": "58b0f1e8491c4e616e2fcec8af4b22bf", "fusion_lon": 0.0, "lat": 38.80760466666667, "is_reserved": 0, "type": "electric_bike", "bike_id": "58b0f1e8491c4e616e2fcec8af4b22bf", "is_disabled": 0, "rental_uris": {"android": "https://dc.lft.to/lastmile_qr_scan", "ios": "https://dc.lft.to/lastmile_qr_scan"}, "lon": -77.09465316666666, "fusion_lat": 0.0}, {"name": "b27710939184144dc8068b57b94e496e", "fusion_lon": 0.0, "lat": 38.993448666666666, "is_reserved": 0, "type": "electric_bike", "bike_id": "b27710939184144dc8068b57b94e496e", "is_disabled": 0, "rental_uris": {"android": "https://dc.lft.to/lastmile_qr_scan", "ios": "https://dc.lft.to/lastmile_qr_scan"}, "lon": -77.1157885, "fusion_lat": 0.0}, {"name": "3188da5e2c57ae0f7c719af29afde353", "fusion_lon": 0.0, "lat": 38.92700983333334, "is_reserved": 0, "type": "electric_scooter", "bike_id": "3188da5e2c57ae0f7c719af29afde353", "is_disabled": 0, "rental_uris": {"android": "https://dc.lft.to/lastmile_qr_scan", "ios": "https://dc.lft.to/lastmile_qr_scan"}, "lon": -77.024228, "fusion_lat": 0.0}, {"name": "ffa0335c4c622e74a5b528edbb74c9e3", "fusion_lon": 0.0, "lat": 38.919613, "is_reserved": 0, "type": "electric_scooter", "bike_id": "ffa0335c4c622e74a5b528edbb74c9e3", "is_disabled": 0, "rental_uris": {"android": "https://dc.lft.to/lastmile_qr_scan", "ios": "https://dc.lft.to/lastmile_qr_scan"}, "lon": -77.03474616666666, "fusion_lat": 0.0}, {"name": "5ef2777d8b429666b0f83b099a30a158", "fusion_lon": 0.0, "lat": 38.8986685, "is_reserved": 0, "type": "electric_scooter", "bike_id": "5ef2777d8b429666b0f83b099a30a158", "is_disabled": 0, "rental_uris": {"android": "https://dc.lft.to/lastmile_qr_scan", "ios": "https://dc.lft.to/lastmile_qr_scan"}, "lon": -77.023635, "fusion_lat": 0.0}, {"name": "ccf189f3895f5f92931946b8a0cdc6bd", "fusion_lon": 0.0, "lat": 38.865067, "is_reserved": 0, "type": "electric_scooter", "bike_id": "ccf189f3895f5f92931946b8a0cdc6bd", "is_disabled": 0, "rental_uris": {"android": "https://dc.lft.to/lastmile_qr_scan", "ios": "https://dc.lft.to/lastmile_qr_scan"}, "lon": -76.98998116666667, "fusion_lat": 0.0}, {"name": "80dd7d02f4e8aae15c5b159596ab5295", "fusion_lon": 0.0, "lat": 38.94619133333333, "is_reserved": 0, "type": "electric_scooter", "bike_id": "80dd7d02f4e8aae15c5b159596ab5295", "is_disabled": 0, "rental_uris": {"android": "https://dc.lft.to/lastmile_qr_scan", "ios": "https://dc.lft.to/lastmile_qr_scan"}, "lon": -77.02170566666666, "fusion_lat": 0.0}, {"name": "49642390cb007c5205ee59ac5bb536cb", "fusion_lon": 0.0, "lat": 38.9169285, "is_reserved": 0, "type": "electric_scooter", "bike_id": "49642390cb007c5205ee59ac5bb536cb", "is_disabled": 0, "rental_uris": {"android": "https://dc.lft.to/lastmile_qr_scan", "ios": "https://dc.lft.to/lastmile_qr_scan"}, "lon": -77.02513783333333, "fusion_lat": 0.0}, {"name": "4bdfa97b31d267030ff8b4106f291729", "fusion_lon": 0.0, "lat": 38.921812833333334, "is_reserved": 0, "type": "electric_scooter", "bike_id": "4bdfa97b31d267030ff8b4106f291729", "is_disabled": 0, "rental_uris": {"android": "https://dc.lft.to/lastmile_qr_scan", "ios": "https://dc.lft.to/lastmile_qr_scan"}, "lon": -77.0423945, "fusion_lat": 0.0}, {"name": "9f49093167c8bf1c01b7e5723aee08b4", "fusion_lon": 0.0, "lat": 38.920553, "is_reserved": 0, "type": "electric_scooter", "bike_id": "9f49093167c8bf1c01b7e5723aee08b4", "is_disabled": 0, "rental_uris": {"android": "https://dc.lft.to/lastmile_qr_scan", "ios": "https://dc.lft.to/lastmile_qr_scan"}, "lon": -77.029826, "fusion_lat": 0.0}, {"name": "e685c211565314a8d54421b65ae14270", "fusion_lon": 0.0, "lat": 38.8999295, "is_reserved": 0, "type": "electric_scooter", "bike_id": "e685c211565314a8d54421b65ae14270", "is_disabled": 0, "rental_uris": {"android": "https://dc.lft.to/lastmile_qr_scan", "ios": "https://dc.lft.to/lastmile_qr_scan"}, "lon": -77.00641683333333, "fusion_lat": 0.0}, {"name": "c866ed36f073c522219a7c87e0007edc", "fusion_lon": 0.0, "lat": 38.90254066666667, "is_reserved": 0, "type": "electric_scooter", "bike_id": "c866ed36f073c522219a7c87e0007edc", "is_disabled": 0, "rental_uris": {"android": "https://dc.lft.to/lastmile_qr_scan", "ios": "https://dc.lft.to/lastmile_qr_scan"}, "lon": -77.017542, "fusion_lat": 0.0}, {"name": "f69edce2ab6ea96c68edb2a88c898985", "fusion_lon": 0.0, "lat": 38.90156, "is_reserved": 0, "type": "electric_scooter", "bike_id": "f69edce2ab6ea96c68edb2a88c898985", "is_disabled": 0, "rental_uris": {"android": "https://dc.lft.to/lastmile_qr_scan", "ios": "https://dc.lft.to/lastmile_qr_scan"}, "lon": -77.023734, "fusion_lat": 0.0}, {"name": "5464263bce759ba89aa51c20fa430e0f", "fusion_lon": 0.0, "lat": 38.919140166666665, "is_reserved": 0, "type": "electric_scooter", "bike_id": "5464263bce759ba89aa51c20fa430e0f", "is_disabled": 0, "rental_uris": {"android": "https://dc.lft.to/lastmile_qr_scan", "ios": "https://dc.lft.to/lastmile_qr_scan"}, "lon": -77.02611766666666, "fusion_lat": 0.0}, {"name": "571df0277a3c791ad241d5844778dcda", "fusion_lon": 0.0, "lat": 38.9209645, "is_reserved": 0, "type": "electric_scooter", "bike_id": "571df0277a3c791ad241d5844778dcda", "is_disabled": 0, "rental_uris": {"android": "https://dc.lft.to/lastmile_qr_scan", "ios": "https://dc.lft.to/lastmile_qr_scan"}, "lon": -77.024245, "fusion_lat": 0.0}, {"name": "8dcdfa34225ffb9b025f881e2b532b17", "fusion_lon": 0.0, "lat": 38.923907166666666, "is_reserved": 0, "type": "electric_scooter", "bike_id": "8dcdfa34225ffb9b025f881e2b532b17", "is_disabled": 0, "rental_uris": {"android": "https://dc.lft.to/lastmile_qr_scan", "ios": "https://dc.lft.to/lastmile_qr_scan"}, "lon": -77.03659133333333, "fusion_lat": 0.0}, {"name": "8730ff55450f70be03537080ae16824b", "fusion_lon": 0.0, "lat": 38.924491333333336, "is_reserved": 0, "type": "electric_scooter", "bike_id": "8730ff55450f70be03537080ae16824b", "is_disabled": 0, "rental_uris": {"android": "https://dc.lft.to/lastmile_qr_scan", "ios": "https://dc.lft.to/lastmile_qr_scan"}, "lon": -77.041145, "fusion_lat": 0.0}, {"name": "aa1bd71de13ecf83d8fb64e8ea850d5e", "fusion_lon": 0.0, "lat": 38.87207683333333, "is_reserved": 0, "type": "electric_scooter", "bike_id": "aa1bd71de13ecf83d8fb64e8ea850d5e", "is_disabled": 0, "rental_uris": {"android": "https://dc.lft.to/lastmile_qr_scan", "ios": "https://dc.lft.to/lastmile_qr_scan"}, "lon": -77.0163725, "fusion_lat": 0.0}, {"name": "f3acdf5e607bf601b15972fb2a5dfb3c", "fusion_lon": 0.0, "lat": 38.9272495, "is_reserved": 0, "type": "electric_scooter", "bike_id": "f3acdf5e607bf601b15972fb2a5dfb3c", "is_disabled": 0, "rental_uris": {"android": "https://dc.lft.to/lastmile_qr_scan", "ios": "https://dc.lft.to/lastmile_qr_scan"}, "lon": -77.02309266666667, "fusion_lat": 0.0}, {"name": "09acac4cc9a1316d7b419db31c24e8f9", "fusion_lon": 0.0, "lat": 38.89731583333333, "is_reserved": 0, "type": "electric_scooter", "bike_id": "09acac4cc9a1316d7b419db31c24e8f9", "is_disabled": 0, "rental_uris": {"android": "https://dc.lft.to/lastmile_qr_scan", "ios": "https://dc.lft.to/lastmile_qr_scan"}, "lon": -77.05518616666667, "fusion_lat": 0.0}, {"name": "3f83d6bb45c6df0bcfd7189c28cc5a15", "fusion_lon": 0.0, "lat": 38.878535166666666, "is_reserved": 0, "type": "electric_scooter", "bike_id": "3f83d6bb45c6df0bcfd7189c28cc5a15", "is_disabled": 0, "rental_uris": {"android": "https://dc.lft.to/lastmile_qr_scan", "ios": "https://dc.lft.to/lastmile_qr_scan"}, "lon": -77.00827133333334, "fusion_lat": 0.0}, {"name": "3170548e687fd186c7f1540b1e9a7f9d", "fusion_lon": 0.0, "lat": 38.90242516666667, "is_reserved": 0, "type": "electric_scooter", "bike_id": "3170548e687fd186c7f1540b1e9a7f9d", "is_disabled": 0, "rental_uris": {"android": "https://dc.lft.to/lastmile_qr_scan", "ios": "https://dc.lft.to/lastmile_qr_scan"}, "lon": -77.02826116666667, "fusion_lat": 0.0}, {"name": "e34a0fdbf4299cda6b0378c1804c7908", "fusion_lon": 0.0, "lat": 38.909371166666666, "is_reserved": 0, "type": "electric_scooter", "bike_id": "e34a0fdbf4299cda6b0378c1804c7908", "is_disabled": 0, "rental_uris": {"android": "https://dc.lft.to/lastmile_qr_scan", "ios": "https://dc.lft.to/lastmile_qr_scan"}, "lon": -77.026886, "fusion_lat": 0.0}, {"name": "57aa186b8d57ab02caade3f66f316f25", "fusion_lon": 0.0, "lat": 38.91561033333333, "is_reserved": 0, "type": "electric_scooter", "bike_id": "57aa186b8d57ab02caade3f66f316f25", "is_disabled": 0, "rental_uris": {"android": "https://dc.lft.to/lastmile_qr_scan", "ios": "https://dc.lft.to/lastmile_qr_scan"}, "lon": -77.0386175, "fusion_lat": 0.0}, {"name": "21d275d61aac5492e12b8c4abbd46a5d", "fusion_lon": 0.0, "lat": 38.902741, "is_reserved": 0, "type": "electric_scooter", "bike_id": "21d275d61aac5492e12b8c4abbd46a5d", "is_disabled": 0, "rental_uris": {"android": "https://dc.lft.to/lastmile_qr_scan", "ios": "https://dc.lft.to/lastmile_qr_scan"}, "lon": -77.00325383333333, "fusion_lat": 0.0}, {"name": "d9d94caa4ea81a0444e016e8b3e9a3ae", "fusion_lon": 0.0, "lat": 38.892241166666665, "is_reserved": 0, "type": "electric_scooter", "bike_id": "d9d94caa4ea81a0444e016e8b3e9a3ae", "is_disabled": 0, "rental_uris": {"android": "https://dc.lft.to/lastmile_qr_scan", "ios": "https://dc.lft.to/lastmile_qr_scan"}, "lon": -77.04859483333334, "fusion_lat": 0.0}, {"name": "016db9dff62352897a48a48d0dd32695", "fusion_lon": 0.0, "lat": 38.87612816666667, "is_reserved": 0, "type": "electric_scooter", "bike_id": "016db9dff62352897a48a48d0dd32695", "is_disabled": 0, "rental_uris": {"android": "https://dc.lft.to/lastmile_qr_scan", "ios": "https://dc.lft.to/lastmile_qr_scan"}, "lon": -77.0023505, "fusion_lat": 0.0}, {"name": "64d39dab99bcc367056f6529f309ec15", "fusion_lon": 0.0, "lat": 38.92162283333333, "is_reserved": 0, "type": "electric_scooter", "bike_id": "64d39dab99bcc367056f6529f309ec15", "is_disabled": 0, "rental_uris": {"android": "https://dc.lft.to/lastmile_qr_scan", "ios": "https://dc.lft.to/lastmile_qr_scan"}, "lon": -77.03384566666666, "fusion_lat": 0.0}, {"name": "bcbb196e65a11dc38fdafc94f01f5a87", "fusion_lon": 0.0, "lat": 38.932235666666664, "is_reserved": 0, "type": "electric_scooter", "bike_id": "bcbb196e65a11dc38fdafc94f01f5a87", "is_disabled": 0, "rental_uris": {"android": "https://dc.lft.to/lastmile_qr_scan", "ios": "https://dc.lft.to/lastmile_qr_scan"}, "lon": -76.99602183333333, "fusion_lat": 0.0}, {"name": "4dcb3db7ddee9fa8dd8615da1d33379d", "fusion_lon": 0.0, "lat": 38.90876266666667, "is_reserved": 0, "type": "electric_scooter", "bike_id": "4dcb3db7ddee9fa8dd8615da1d33379d", "is_disabled": 0, "rental_uris": {"android": "https://dc.lft.to/lastmile_qr_scan", "ios": "https://dc.lft.to/lastmile_qr_scan"}, "lon": -77.0427455, "fusion_lat": 0.0}, {"name": "9ac683651da1b2ae0f677849f8051d56", "fusion_lon": 0.0, "lat": 38.92237383333333, "is_reserved": 0, "type": "electric_scooter", "bike_id": "9ac683651da1b2ae0f677849f8051d56", "is_disabled": 0, "rental_uris": {"android": "https://dc.lft.to/lastmile_qr_scan", "ios": "https://dc.lft.to/lastmile_qr_scan"}, "lon": -77.03519433333334, "fusion_lat": 0.0}, {"name": "142d823822c0e72e40a99f277039e8ae", "fusion_lon": 0.0, "lat": 38.880556, "is_reserved": 0, "type": "electric_scooter", "bike_id": "142d823822c0e72e40a99f277039e8ae", "is_disabled": 0, "rental_uris": {"android": "https://dc.lft.to/lastmile_qr_scan", "ios": "https://dc.lft.to/lastmile_qr_scan"}, "lon": -76.9321275, "fusion_lat": 0.0}, {"name": "46af1404b0ff6157ccc8afc1a1c1b979", "fusion_lon": 0.0, "lat": 38.926188833333335, "is_reserved": 0, "type": "electric_scooter", "bike_id": "46af1404b0ff6157ccc8afc1a1c1b979", "is_disabled": 0, "rental_uris": {"android": "https://dc.lft.to/lastmile_qr_scan", "ios": "https://dc.lft.to/lastmile_qr_scan"}, "lon": -77.04323216666667, "fusion_lat": 0.0}, {"name": "42740f9331d0de520eeb9163fbb10379", "fusion_lon": 0.0, "lat": 38.9324365, "is_reserved": 0, "type": "electric_scooter", "bike_id": "42740f9331d0de520eeb9163fbb10379", "is_disabled": 0, "rental_uris": {"android": "https://dc.lft.to/lastmile_qr_scan", "ios": "https://dc.lft.to/lastmile_qr_scan"}, "lon": -77.03857366666666, "fusion_lat": 0.0}, {"name": "2b1c9750dba2e344c21b91ef2cacc911", "fusion_lon": 0.0, "lat": 38.904182666666664, "is_reserved": 0, "type": "electric_scooter", "bike_id": "2b1c9750dba2e344c21b91ef2cacc911", "is_disabled": 0, "rental_uris": {"android": "https://dc.lft.to/lastmile_qr_scan", "ios": "https://dc.lft.to/lastmile_qr_scan"}, "lon": -77.04366683333333, "fusion_lat": 0.0}, {"name": "534612164551f101f15ae807416e3337", "fusion_lon": 0.0, "lat": 38.90869883333333, "is_reserved": 0, "type": "electric_scooter", "bike_id": "534612164551f101f15ae807416e3337", "is_disabled": 0, "rental_uris": {"android": "https://dc.lft.to/lastmile_qr_scan", "ios": "https://dc.lft.to/lastmile_qr_scan"}, "lon": -77.04278566666666, "fusion_lat": 0.0}, {"name": "0b6b6d5b22d26d18f6fe47fdf060e7aa", "fusion_lon": 0.0, "lat": 38.90119983333334, "is_reserved": 0, "type": "electric_scooter", "bike_id": "0b6b6d5b22d26d18f6fe47fdf060e7aa", "is_disabled": 0, "rental_uris": {"android": "https://dc.lft.to/lastmile_qr_scan", "ios": "https://dc.lft.to/lastmile_qr_scan"}, "lon": -77.026833, "fusion_lat": 0.0}, {"name": "31316b56f0c7dbdcbc5cf6869af9674d", "fusion_lon": 0.0, "lat": 38.902631666666665, "is_reserved": 0, "type": "electric_scooter", "bike_id": "31316b56f0c7dbdcbc5cf6869af9674d", "is_disabled": 0, "rental_uris": {"android": "https://dc.lft.to/lastmile_qr_scan", "ios": "https://dc.lft.to/lastmile_qr_scan"}, "lon": -77.00326833333334, "fusion_lat": 0.0}, {"name": "28407ddfb3c25928875cb5c0a1700edf", "fusion_lon": 0.0, "lat": 38.887165, "is_reserved": 0, "type": "electric_scooter", "bike_id": "28407ddfb3c25928875cb5c0a1700edf", "is_disabled": 0, "rental_uris": {"android": "https://dc.lft.to/lastmile_qr_scan", "ios": "https://dc.lft.to/lastmile_qr_scan"}, "lon": -77.01769933333334, "fusion_lat": 0.0}, {"name": "917a67f29cfab8d4680af59f340d439a", "fusion_lon": 0.0, "lat": 38.90383283333333, "is_reserved": 0, "type": "electric_scooter", "bike_id": "917a67f29cfab8d4680af59f340d439a", "is_disabled": 0, "rental_uris": {"android": "https://dc.lft.to/lastmile_qr_scan", "ios": "https://dc.lft.to/lastmile_qr_scan"}, "lon": -77.0419645, "fusion_lat": 0.0}, {"name": "f863b9f047fb5635ae292e4621481e91", "fusion_lon": 0.0, "lat": 38.91818283333333, "is_reserved": 0, "type": "electric_scooter", "bike_id": "f863b9f047fb5635ae292e4621481e91", "is_disabled": 0, "rental_uris": {"android": "https://dc.lft.to/lastmile_qr_scan", "ios": "https://dc.lft.to/lastmile_qr_scan"}, "lon": -77.03661666666666, "fusion_lat": 0.0}, {"name": "ef317262cea9b8df217f2c0c3f3474b9", "fusion_lon": 0.0, "lat": 38.90652583333333, "is_reserved": 0, "type": "electric_scooter", "bike_id": "ef317262cea9b8df217f2c0c3f3474b9", "is_disabled": 0, "rental_uris": {"android": "https://dc.lft.to/lastmile_qr_scan", "ios": "https://dc.lft.to/lastmile_qr_scan"}, "lon": -77.04873116666667, "fusion_lat": 0.0}, {"name": "9be8549f8fc3ab43cc8142fd23b1308e", "fusion_lon": 0.0, "lat": 38.9054325, "is_reserved": 0, "type": "electric_scooter", "bike_id": "9be8549f8fc3ab43cc8142fd23b1308e", "is_disabled": 0, "rental_uris": {"android": "https://dc.lft.to/lastmile_qr_scan", "ios": "https://dc.lft.to/lastmile_qr_scan"}, "lon": -77.0346, "fusion_lat": 0.0}, {"name": "2df557f248a962220a815ee8bd01fce4", "fusion_lon": 0.0, "lat": 38.884788666666665, "is_reserved": 0, "type": "electric_scooter", "bike_id": "2df557f248a962220a815ee8bd01fce4", "is_disabled": 0, "rental_uris": {"android": "https://dc.lft.to/lastmile_qr_scan", "ios": "https://dc.lft.to/lastmile_qr_scan"}, "lon": -77.02652366666666, "fusion_lat": 0.0}, {"name": "570db629f619e9be746ad4358c891ff5", "fusion_lon": 0.0, "lat": 38.951839, "is_reserved": 0, "type": "electric_scooter", "bike_id": "570db629f619e9be746ad4358c891ff5", "is_disabled": 0, "rental_uris": {"android": "https://dc.lft.to/lastmile_qr_scan", "ios": "https://dc.lft.to/lastmile_qr_scan"}, "lon": -77.0261045, "fusion_lat": 0.0}, {"name": "490170dd955cf49906d3057251ad40c0", "fusion_lon": 0.0, "lat": 38.91266666666667, "is_reserved": 0, "type": "electric_scooter", "bike_id": "490170dd955cf49906d3057251ad40c0", "is_disabled": 0, "rental_uris": {"android": "https://dc.lft.to/lastmile_qr_scan", "ios": "https://dc.lft.to/lastmile_qr_scan"}, "lon": -77.01849266666666, "fusion_lat": 0.0}, {"name": "d207fab75b5e5c6209c7834bc28abcd5", "fusion_lon": 0.0, "lat": 38.93482983333333, "is_reserved": 0, "type": "electric_scooter", "bike_id": "d207fab75b5e5c6209c7834bc28abcd5", "is_disabled": 0, "rental_uris": {"android": "https://dc.lft.to/lastmile_qr_scan", "ios": "https://dc.lft.to/lastmile_qr_scan"}, "lon": -77.0360655, "fusion_lat": 0.0}, {"name": "9bdb9da6b341dc10c2d585b212134d24", "fusion_lon": 0.0, "lat": 38.92505716666667, "is_reserved": 0, "type": "electric_scooter", "bike_id": "9bdb9da6b341dc10c2d585b212134d24", "is_disabled": 0, "rental_uris": {"android": "https://dc.lft.to/lastmile_qr_scan", "ios": "https://dc.lft.to/lastmile_qr_scan"}, "lon": -77.0235845, "fusion_lat": 0.0}, {"name": "27a975e05770b7a536968842cb03366e", "fusion_lon": 0.0, "lat": 38.9147655, "is_reserved": 0, "type": "electric_scooter", "bike_id": "27a975e05770b7a536968842cb03366e", "is_disabled": 0, "rental_uris": {"android": "https://dc.lft.to/lastmile_qr_scan", "ios": "https://dc.lft.to/lastmile_qr_scan"}, "lon": -77.03177733333334, "fusion_lat": 0.0}, {"name": "b69916c1cf6a2b90319790e5ab76cb84", "fusion_lon": 0.0, "lat": 38.89615933333333, "is_reserved": 0, "type": "electric_scooter", "bike_id": "b69916c1cf6a2b90319790e5ab76cb84", "is_disabled": 0, "rental_uris": {"android": "https://dc.lft.to/lastmile_qr_scan", "ios": "https://dc.lft.to/lastmile_qr_scan"}, "lon": -76.98164783333333, "fusion_lat": 0.0}, {"name": "6a155705882763e0f3e643b6d3961006", "fusion_lon": 0.0, "lat": 38.92610616666666, "is_reserved": 0, "type": "electric_bike", "bike_id": "6a155705882763e0f3e643b6d3961006", "is_disabled": 0, "rental_uris": {"android": "https://dc.lft.to/lastmile_qr_scan", "ios": "https://dc.lft.to/lastmile_qr_scan"}, "lon": -77.03949666666666, "fusion_lat": 0.0}, {"name": "f8879f79fd41051e11d9af4212b762ea", "fusion_lon": 0.0, "lat": 38.9033275, "is_reserved": 0, "type": "electric_scooter", "bike_id": "f8879f79fd41051e11d9af4212b762ea", "is_disabled": 0, "rental_uris": {"android": "https://dc.lft.to/lastmile_qr_scan", "ios": "https://dc.lft.to/lastmile_qr_scan"}, "lon": -77.01110283333334, "fusion_lat": 0.0}, {"name": "dc656817ffc6d478d73cc8f65fa2c3cd", "fusion_lon": 0.0, "lat": 38.907802, "is_reserved": 0, "type": "electric_scooter", "bike_id": "dc656817ffc6d478d73cc8f65fa2c3cd", "is_disabled": 0, "rental_uris": {"android": "https://dc.lft.to/lastmile_qr_scan", "ios": "https://dc.lft.to/lastmile_qr_scan"}, "lon": -77.038261, "fusion_lat": 0.0}, {"name": "24cb051161b9f716e451f8202ba22678", "fusion_lon": 0.0, "lat": 38.877094666666665, "is_reserved": 0, "type": "electric_scooter", "bike_id": "24cb051161b9f716e451f8202ba22678", "is_disabled": 0, "rental_uris": {"android": "https://dc.lft.to/lastmile_qr_scan", "ios": "https://dc.lft.to/lastmile_qr_scan"}, "lon": -77.01728066666666, "fusion_lat": 0.0}, {"name": "bdc88f97badbd39878b9e883c45bea6e", "fusion_lon": 0.0, "lat": 38.9086115, "is_reserved": 0, "type": "electric_scooter", "bike_id": "bdc88f97badbd39878b9e883c45bea6e", "is_disabled": 0, "rental_uris": {"android": "https://dc.lft.to/lastmile_qr_scan", "ios": "https://dc.lft.to/lastmile_qr_scan"}, "lon": -76.99946966666667, "fusion_lat": 0.0}, {"name": "7b8f2a64e0a172ef763d81798798527c", "fusion_lon": 0.0, "lat": 38.88394433333333, "is_reserved": 0, "type": "electric_scooter", "bike_id": "7b8f2a64e0a172ef763d81798798527c", "is_disabled": 0, "rental_uris": {"android": "https://dc.lft.to/lastmile_qr_scan", "ios": "https://dc.lft.to/lastmile_qr_scan"}, "lon": -76.95447183333333, "fusion_lat": 0.0}, {"name": "be36af5c36ed355206c23d14e3e56f61", "fusion_lon": 0.0, "lat": 38.90316816666667, "is_reserved": 0, "type": "electric_scooter", "bike_id": "be36af5c36ed355206c23d14e3e56f61", "is_disabled": 0, "rental_uris": {"android": "https://dc.lft.to/lastmile_qr_scan", "ios": "https://dc.lft.to/lastmile_qr_scan"}, "lon": -77.01877016666667, "fusion_lat": 0.0}, {"name": "52e0a6d6bea8fa630708c15c85399d4a", "fusion_lon": 0.0, "lat": 38.90031783333333, "is_reserved": 0, "type": "electric_scooter", "bike_id": "52e0a6d6bea8fa630708c15c85399d4a", "is_disabled": 0, "rental_uris": {"android": "https://dc.lft.to/lastmile_qr_scan", "ios": "https://dc.lft.to/lastmile_qr_scan"}, "lon": -77.00214533333333, "fusion_lat": 0.0}, {"name": "9828d7730d196f15d46a85b9a9c72e0b", "fusion_lon": 0.0, "lat": 38.91818216666667, "is_reserved": 0, "type": "electric_scooter", "bike_id": "9828d7730d196f15d46a85b9a9c72e0b", "is_disabled": 0, "rental_uris": {"android": "https://dc.lft.to/lastmile_qr_scan", "ios": "https://dc.lft.to/lastmile_qr_scan"}, "lon": -77.0366845, "fusion_lat": 0.0}, {"name": "ee0bd2e977390fe7c81a6ddb524e9c5b", "fusion_lon": 0.0, "lat": 38.89864816666667, "is_reserved": 0, "type": "electric_scooter", "bike_id": "ee0bd2e977390fe7c81a6ddb524e9c5b", "is_disabled": 0, "rental_uris": {"android": "https://dc.lft.to/lastmile_qr_scan", "ios": "https://dc.lft.to/lastmile_qr_scan"}, "lon": -76.92750433333333, "fusion_lat": 0.0}, {"name": "5d348dea10bcad7ec6f7e0313e455008", "fusion_lon": 0.0, "lat": 38.931178, "is_reserved": 0, "type": "electric_scooter", "bike_id": "5d348dea10bcad7ec6f7e0313e455008", "is_disabled": 0, "rental_uris": {"android": "https://dc.lft.to/lastmile_qr_scan", "ios": "https://dc.lft.to/lastmile_qr_scan"}, "lon": -77.02096766666666, "fusion_lat": 0.0}, {"name": "f830a3f6a515465b88e7db5c750180c9", "fusion_lon": 0.0, "lat": 38.8553875, "is_reserved": 0, "type": "electric_scooter", "bike_id": "f830a3f6a515465b88e7db5c750180c9", "is_disabled": 0, "rental_uris": {"android": "https://dc.lft.to/lastmile_qr_scan", "ios": "https://dc.lft.to/lastmile_qr_scan"}, "lon": -76.98412583333334, "fusion_lat": 0.0}, {"name": "d505465cb9eb3f9310d8418d096f7188", "fusion_lon": 0.0, "lat": 38.8802205, "is_reserved": 0, "type": "electric_scooter", "bike_id": "d505465cb9eb3f9310d8418d096f7188", "is_disabled": 0, "rental_uris": {"android": "https://dc.lft.to/lastmile_qr_scan", "ios": "https://dc.lft.to/lastmile_qr_scan"}, "lon": -76.931118, "fusion_lat": 0.0}, {"name": "03bc0d907ed19d4259a6e185c881848d", "fusion_lon": 0.0, "lat": 38.924532, "is_reserved": 0, "type": "electric_scooter", "bike_id": "03bc0d907ed19d4259a6e185c881848d", "is_disabled": 0, "rental_uris": {"android": "https://dc.lft.to/lastmile_qr_scan", "ios": "https://dc.lft.to/lastmile_qr_scan"}, "lon": -77.03989933333334, "fusion_lat": 0.0}, {"name": "5feff7b205265e71f810673461d1769a", "fusion_lon": 0.0, "lat": 38.959421, "is_reserved": 0, "type": "electric_scooter", "bike_id": "5feff7b205265e71f810673461d1769a", "is_disabled": 0, "rental_uris": {"android": "https://dc.lft.to/lastmile_qr_scan", "ios": "https://dc.lft.to/lastmile_qr_scan"}, "lon": -77.0304545, "fusion_lat": 0.0}, {"name": "b2221d2badfb08ba655733852958100c", "fusion_lon": 0.0, "lat": 38.90782983333333, "is_reserved": 0, "type": "electric_scooter", "bike_id": "b2221d2badfb08ba655733852958100c", "is_disabled": 0, "rental_uris": {"android": "https://dc.lft.to/lastmile_qr_scan", "ios": "https://dc.lft.to/lastmile_qr_scan"}, "lon": -77.00224366666667, "fusion_lat": 0.0}, {"name": "411ef48ac5d6c33708fccc8d1dfd5f01", "fusion_lon": 0.0, "lat": 38.905046666666664, "is_reserved": 0, "type": "electric_scooter", "bike_id": "411ef48ac5d6c33708fccc8d1dfd5f01", "is_disabled": 0, "rental_uris": {"android": "https://dc.lft.to/lastmile_qr_scan", "ios": "https://dc.lft.to/lastmile_qr_scan"}, "lon": -77.02944366666667, "fusion_lat": 0.0}, {"name": "5c57bc470b552426154ff49c65b4bb65", "fusion_lon": 0.0, "lat": 38.900791166666664, "is_reserved": 0, "type": "electric_scooter", "bike_id": "5c57bc470b552426154ff49c65b4bb65", "is_disabled": 0, "rental_uris": {"android": "https://dc.lft.to/lastmile_qr_scan", "ios": "https://dc.lft.to/lastmile_qr_scan"}, "lon": -76.93013583333334, "fusion_lat": 0.0}, {"name": "7fc059d54dd93a4e96f9fabcf5e49fe9", "fusion_lon": 0.0, "lat": 38.95657083333333, "is_reserved": 0, "type": "electric_bike", "bike_id": "7fc059d54dd93a4e96f9fabcf5e49fe9", "is_disabled": 0, "rental_uris": {"android": "https://dc.lft.to/lastmile_qr_scan", "ios": "https://dc.lft.to/lastmile_qr_scan"}, "lon": -77.012737, "fusion_lat": 0.0}, {"name": "9ea89bcc71f57abc37de29f26b6efc68", "fusion_lon": 0.0, "lat": 38.929784166666664, "is_reserved": 0, "type": "electric_scooter", "bike_id": "9ea89bcc71f57abc37de29f26b6efc68", "is_disabled": 0, "rental_uris": {"android": "https://dc.lft.to/lastmile_qr_scan", "ios": "https://dc.lft.to/lastmile_qr_scan"}, "lon": -77.01304683333333, "fusion_lat": 0.0}, {"name": "e2a7fe6eca54459f56753369138964fa", "fusion_lon": 0.0, "lat": 38.926557833333334, "is_reserved": 0, "type": "electric_scooter", "bike_id": "e2a7fe6eca54459f56753369138964fa", "is_disabled": 0, "rental_uris": {"android": "https://dc.lft.to/lastmile_qr_scan", "ios": "https://dc.lft.to/lastmile_qr_scan"}, "lon": -77.0370665, "fusion_lat": 0.0}, {"name": "857c698334a15fabe33743d93b758604", "fusion_lon": 0.0, "lat": 38.91318033333334, "is_reserved": 0, "type": "electric_bike", "bike_id": "857c698334a15fabe33743d93b758604", "is_disabled": 0, "rental_uris": {"android": "https://dc.lft.to/lastmile_qr_scan", "ios": "https://dc.lft.to/lastmile_qr_scan"}, "lon": -77.223008, "fusion_lat": 0.0}, {"name": "1113a9159ebe2eecd27b3b2b883ec3c9", "fusion_lon": 0.0, "lat": 38.94180083333333, "is_reserved": 0, "type": "electric_scooter", "bike_id": "1113a9159ebe2eecd27b3b2b883ec3c9", "is_disabled": 0, "rental_uris": {"android": "https://dc.lft.to/lastmile_qr_scan", "ios": "https://dc.lft.to/lastmile_qr_scan"}, "lon": -77.02549666666667, "fusion_lat": 0.0}, {"name": "db6f9cbe8d06eb9e90021503b71a28c8", "fusion_lon": 0.0, "lat": 38.91925666666667, "is_reserved": 0, "type": "electric_scooter", "bike_id": "db6f9cbe8d06eb9e90021503b71a28c8", "is_disabled": 0, "rental_uris": {"android": "https://dc.lft.to/lastmile_qr_scan", "ios": "https://dc.lft.to/lastmile_qr_scan"}, "lon": -77.04255083333334, "fusion_lat": 0.0}, {"name": "3b02a7c75b491c89b9f213f3c6970bb5", "fusion_lon": 0.0, "lat": 38.931884833333335, "is_reserved": 0, "type": "electric_scooter", "bike_id": "3b02a7c75b491c89b9f213f3c6970bb5", "is_disabled": 0, "rental_uris": {"android": "https://dc.lft.to/lastmile_qr_scan", "ios": "https://dc.lft.to/lastmile_qr_scan"}, "lon": -77.03878683333333, "fusion_lat": 0.0}, {"name": "201cce145bb1b3d7f2311c354d0f31e9", "fusion_lon": 0.0, "lat": 38.866908333333335, "is_reserved": 0, "type": "electric_scooter", "bike_id": "201cce145bb1b3d7f2311c354d0f31e9", "is_disabled": 0, "rental_uris": {"android": "https://dc.lft.to/lastmile_qr_scan", "ios": "https://dc.lft.to/lastmile_qr_scan"}, "lon": -76.98561333333333, "fusion_lat": 0.0}, {"name": "2bcce51adc81371b4bb1af6b9a09db49", "fusion_lon": 0.0, "lat": 38.863741, "is_reserved": 0, "type": "electric_scooter", "bike_id": "2bcce51adc81371b4bb1af6b9a09db49", "is_disabled": 0, "rental_uris": {"android": "https://dc.lft.to/lastmile_qr_scan", "ios": "https://dc.lft.to/lastmile_qr_scan"}, "lon": -76.99060633333333, "fusion_lat": 0.0}, {"name": "08a51f94d07529fbff208324d073f5af", "fusion_lon": 0.0, "lat": 38.90581566666667, "is_reserved": 0, "type": "electric_scooter", "bike_id": "08a51f94d07529fbff208324d073f5af", "is_disabled": 0, "rental_uris": {"android": "https://dc.lft.to/lastmile_qr_scan", "ios": "https://dc.lft.to/lastmile_qr_scan"}, "lon": -77.02766716666666, "fusion_lat": 0.0}, {"name": "1dba4a667f24fa9bae33df6630e0d021", "fusion_lon": 0.0, "lat": 38.911949666666665, "is_reserved": 0, "type": "electric_scooter", "bike_id": "1dba4a667f24fa9bae33df6630e0d021", "is_disabled": 0, "rental_uris": {"android": "https://dc.lft.to/lastmile_qr_scan", "ios": "https://dc.lft.to/lastmile_qr_scan"}, "lon": -77.03837316666667, "fusion_lat": 0.0}, {"name": "3105aa29659da6c49572c2e07d1a4950", "fusion_lon": 0.0, "lat": 38.9117655, "is_reserved": 0, "type": "electric_scooter", "bike_id": "3105aa29659da6c49572c2e07d1a4950", "is_disabled": 0, "rental_uris": {"android": "https://dc.lft.to/lastmile_qr_scan", "ios": "https://dc.lft.to/lastmile_qr_scan"}, "lon": -77.0112425, "fusion_lat": 0.0}, {"name": "30ebdb51315e9361000a252c83988cee", "fusion_lon": 0.0, "lat": 38.91410583333333, "is_reserved": 0, "type": "electric_scooter", "bike_id": "30ebdb51315e9361000a252c83988cee", "is_disabled": 0, "rental_uris": {"android": "https://dc.lft.to/lastmile_qr_scan", "ios": "https://dc.lft.to/lastmile_qr_scan"}, "lon": -77.04217283333334, "fusion_lat": 0.0}, {"name": "0e85b262aec259e47fb1f8c2d16c7f3b", "fusion_lon": 0.0, "lat": 38.888705333333334, "is_reserved": 0, "type": "electric_scooter", "bike_id": "0e85b262aec259e47fb1f8c2d16c7f3b", "is_disabled": 0, "rental_uris": {"android": "https://dc.lft.to/lastmile_qr_scan", "ios": "https://dc.lft.to/lastmile_qr_scan"}, "lon": -76.99030933333333, "fusion_lat": 0.0}, {"name": "95f648fc60299b96b4b2112f7ec47847", "fusion_lon": 0.0, "lat": 38.911429, "is_reserved": 0, "type": "electric_scooter", "bike_id": "95f648fc60299b96b4b2112f7ec47847", "is_disabled": 0, "rental_uris": {"android": "https://dc.lft.to/lastmile_qr_scan", "ios": "https://dc.lft.to/lastmile_qr_scan"}, "lon": -77.02381466666667, "fusion_lat": 0.0}, {"name": "5c5449b46a0bf1320c12985916e36450", "fusion_lon": 0.0, "lat": 38.90368933333333, "is_reserved": 0, "type": "electric_scooter", "bike_id": "5c5449b46a0bf1320c12985916e36450", "is_disabled": 0, "rental_uris": {"android": "https://dc.lft.to/lastmile_qr_scan", "ios": "https://dc.lft.to/lastmile_qr_scan"}, "lon": -77.029427, "fusion_lat": 0.0}, {"name": "39d27a840f261d53bc48dda8766d2755", "fusion_lon": 0.0, "lat": 38.913753, "is_reserved": 0, "type": "electric_scooter", "bike_id": "39d27a840f261d53bc48dda8766d2755", "is_disabled": 0, "rental_uris": {"android": "https://dc.lft.to/lastmile_qr_scan", "ios": "https://dc.lft.to/lastmile_qr_scan"}, "lon": -77.0141635, "fusion_lat": 0.0}, {"name": "a3564ef1b503bd925054b571cccb9f38", "fusion_lon": 0.0, "lat": 38.90669366666667, "is_reserved": 0, "type": "electric_scooter", "bike_id": "a3564ef1b503bd925054b571cccb9f38", "is_disabled": 0, "rental_uris": {"android": "https://dc.lft.to/lastmile_qr_scan", "ios": "https://dc.lft.to/lastmile_qr_scan"}, "lon": -77.0353535, "fusion_lat": 0.0}, {"name": "17b25f8c9cad2cadb532cd99040be5b8", "fusion_lon": 0.0, "lat": 38.91986, "is_reserved": 0, "type": "electric_scooter", "bike_id": "17b25f8c9cad2cadb532cd99040be5b8", "is_disabled": 0, "rental_uris": {"android": "https://dc.lft.to/lastmile_qr_scan", "ios": "https://dc.lft.to/lastmile_qr_scan"}, "lon": -77.02392, "fusion_lat": 0.0}, {"name": "519421845ac1ec0658326cbf5b4449b2", "fusion_lon": 0.0, "lat": 38.865126833333335, "is_reserved": 0, "type": "electric_bike", "bike_id": "519421845ac1ec0658326cbf5b4449b2", "is_disabled": 0, "rental_uris": {"android": "https://dc.lft.to/lastmile_qr_scan", "ios": "https://dc.lft.to/lastmile_qr_scan"}, "lon": -76.97328633333333, "fusion_lat": 0.0}, {"name": "520c94fd3c0f44d1733cf98fb610ca52", "fusion_lon": 0.0, "lat": 38.917466833333336, "is_reserved": 0, "type": "electric_scooter", "bike_id": "520c94fd3c0f44d1733cf98fb610ca52", "is_disabled": 0, "rental_uris": {"android": "https://dc.lft.to/lastmile_qr_scan", "ios": "https://dc.lft.to/lastmile_qr_scan"}, "lon": -77.0363665, "fusion_lat": 0.0}, {"name": "c00433ff9107d3e9979b976e3316ca41", "fusion_lon": 0.0, "lat": 38.901777, "is_reserved": 0, "type": "electric_scooter", "bike_id": "c00433ff9107d3e9979b976e3316ca41", "is_disabled": 0, "rental_uris": {"android": "https://dc.lft.to/lastmile_qr_scan", "ios": "https://dc.lft.to/lastmile_qr_scan"}, "lon": -76.9829635, "fusion_lat": 0.0}, {"name": "0893719973237c0cf803ad05840d813b", "fusion_lon": 0.0, "lat": 38.898561, "is_reserved": 0, "type": "electric_scooter", "bike_id": "0893719973237c0cf803ad05840d813b", "is_disabled": 0, "rental_uris": {"android": "https://dc.lft.to/lastmile_qr_scan", "ios": "https://dc.lft.to/lastmile_qr_scan"}, "lon": -77.02378083333333, "fusion_lat": 0.0}, {"name": "78037df137dbc33431bef928e08fb1ae", "fusion_lon": 0.0, "lat": 38.88744416666667, "is_reserved": 0, "type": "electric_scooter", "bike_id": "78037df137dbc33431bef928e08fb1ae", "is_disabled": 0, "rental_uris": {"android": "https://dc.lft.to/lastmile_qr_scan", "ios": "https://dc.lft.to/lastmile_qr_scan"}, "lon": -77.02723383333333, "fusion_lat": 0.0}, {"name": "a7922a42c3d38a17e1b1d45b2180786c", "fusion_lon": 0.0, "lat": 38.91717466666667, "is_reserved": 0, "type": "electric_scooter", "bike_id": "a7922a42c3d38a17e1b1d45b2180786c", "is_disabled": 0, "rental_uris": {"android": "https://dc.lft.to/lastmile_qr_scan", "ios": "https://dc.lft.to/lastmile_qr_scan"}, "lon": -77.01213766666666, "fusion_lat": 0.0}, {"name": "ae16c9b0f8828e412382141ba10f0983", "fusion_lon": 0.0, "lat": 38.8972225, "is_reserved": 0, "type": "electric_scooter", "bike_id": "ae16c9b0f8828e412382141ba10f0983", "is_disabled": 0, "rental_uris": {"android": "https://dc.lft.to/lastmile_qr_scan", "ios": "https://dc.lft.to/lastmile_qr_scan"}, "lon": -77.00780216666666, "fusion_lat": 0.0}, {"name": "795ac74856778542383b31d8b07d0d0e", "fusion_lon": 0.0, "lat": 38.9199365, "is_reserved": 0, "type": "electric_scooter", "bike_id": "795ac74856778542383b31d8b07d0d0e", "is_disabled": 0, "rental_uris": {"android": "https://dc.lft.to/lastmile_qr_scan", "ios": "https://dc.lft.to/lastmile_qr_scan"}, "lon": -77.02365933333333, "fusion_lat": 0.0}, {"name": "3367212e69ab03bf070f4474c14bb261", "fusion_lon": 0.0, "lat": 38.92161133333333, "is_reserved": 0, "type": "electric_scooter", "bike_id": "3367212e69ab03bf070f4474c14bb261", "is_disabled": 0, "rental_uris": {"android": "https://dc.lft.to/lastmile_qr_scan", "ios": "https://dc.lft.to/lastmile_qr_scan"}, "lon": -77.03511016666667, "fusion_lat": 0.0}, {"name": "b7e1c0c31a4d24280cba3e8abd2439b8", "fusion_lon": 0.0, "lat": 38.918828166666664, "is_reserved": 0, "type": "electric_scooter", "bike_id": "b7e1c0c31a4d24280cba3e8abd2439b8", "is_disabled": 0, "rental_uris": {"android": "https://dc.lft.to/lastmile_qr_scan", "ios": "https://dc.lft.to/lastmile_qr_scan"}, "lon": -76.96545716666667, "fusion_lat": 0.0}, {"name": "5bd50d26e5b4854b5596f2f69b7df739", "fusion_lon": 0.0, "lat": 38.930840333333336, "is_reserved": 0, "type": "electric_scooter", "bike_id": "5bd50d26e5b4854b5596f2f69b7df739", "is_disabled": 0, "rental_uris": {"android": "https://dc.lft.to/lastmile_qr_scan", "ios": "https://dc.lft.to/lastmile_qr_scan"}, "lon": -76.996031, "fusion_lat": 0.0}, {"name": "15c67d82c8b8211c248e39c0cd9ff14d", "fusion_lon": 0.0, "lat": 38.93549933333333, "is_reserved": 0, "type": "electric_scooter", "bike_id": "15c67d82c8b8211c248e39c0cd9ff14d", "is_disabled": 0, "rental_uris": {"android": "https://dc.lft.to/lastmile_qr_scan", "ios": "https://dc.lft.to/lastmile_qr_scan"}, "lon": -77.05852366666667, "fusion_lat": 0.0}, {"name": "ca639936adcf733b6c434be2545a6fec", "fusion_lon": 0.0, "lat": 38.9157275, "is_reserved": 0, "type": "electric_scooter", "bike_id": "ca639936adcf733b6c434be2545a6fec", "is_disabled": 0, "rental_uris": {"android": "https://dc.lft.to/lastmile_qr_scan", "ios": "https://dc.lft.to/lastmile_qr_scan"}, "lon": -77.02285566666667, "fusion_lat": 0.0}, {"name": "e8e98471e624c03c845e2cf945d47a0e", "fusion_lon": 0.0, "lat": 38.89359016666667, "is_reserved": 0, "type": "electric_scooter", "bike_id": "e8e98471e624c03c845e2cf945d47a0e", "is_disabled": 0, "rental_uris": {"android": "https://dc.lft.to/lastmile_qr_scan", "ios": "https://dc.lft.to/lastmile_qr_scan"}, "lon": -76.94933683333333, "fusion_lat": 0.0}, {"name": "24e36bf5a6b8da5d33937b929b2b6d24", "fusion_lon": 0.0, "lat": 38.9050655, "is_reserved": 0, "type": "electric_scooter", "bike_id": "24e36bf5a6b8da5d33937b929b2b6d24", "is_disabled": 0, "rental_uris": {"android": "https://dc.lft.to/lastmile_qr_scan", "ios": "https://dc.lft.to/lastmile_qr_scan"}, "lon": -77.02946266666666, "fusion_lat": 0.0}, {"name": "39e69fa3a9c3ea6fe83e7e82f4c04bd7", "fusion_lon": 0.0, "lat": 38.92315033333333, "is_reserved": 0, "type": "electric_scooter", "bike_id": "39e69fa3a9c3ea6fe83e7e82f4c04bd7", "is_disabled": 0, "rental_uris": {"android": "https://dc.lft.to/lastmile_qr_scan", "ios": "https://dc.lft.to/lastmile_qr_scan"}, "lon": -77.04113566666666, "fusion_lat": 0.0}, {"name": "c6cd16b393034a6049ee787b2574c293", "fusion_lon": 0.0, "lat": 38.90785733333333, "is_reserved": 0, "type": "electric_scooter", "bike_id": "c6cd16b393034a6049ee787b2574c293", "is_disabled": 0, "rental_uris": {"android": "https://dc.lft.to/lastmile_qr_scan", "ios": "https://dc.lft.to/lastmile_qr_scan"}, "lon": -77.02390916666667, "fusion_lat": 0.0}, {"name": "35311311d232e0696853745e421702b7", "fusion_lon": 0.0, "lat": 38.91697683333334, "is_reserved": 0, "type": "electric_scooter", "bike_id": "35311311d232e0696853745e421702b7", "is_disabled": 0, "rental_uris": {"android": "https://dc.lft.to/lastmile_qr_scan", "ios": "https://dc.lft.to/lastmile_qr_scan"}, "lon": -77.03148333333333, "fusion_lat": 0.0}, {"name": "3fda455017de3658abe933ce0538b2f2", "fusion_lon": 0.0, "lat": 38.864707833333334, "is_reserved": 0, "type": "electric_scooter", "bike_id": "3fda455017de3658abe933ce0538b2f2", "is_disabled": 0, "rental_uris": {"android": "https://dc.lft.to/lastmile_qr_scan", "ios": "https://dc.lft.to/lastmile_qr_scan"}, "lon": -76.97740883333333, "fusion_lat": 0.0}, {"name": "f6da2871d3549dc1df5dcdaf449ac3d4", "fusion_lon": 0.0, "lat": 38.91190116666667, "is_reserved": 0, "type": "electric_scooter", "bike_id": "f6da2871d3549dc1df5dcdaf449ac3d4", "is_disabled": 0, "rental_uris": {"android": "https://dc.lft.to/lastmile_qr_scan", "ios": "https://dc.lft.to/lastmile_qr_scan"}, "lon": -77.01012833333333, "fusion_lat": 0.0}, {"name": "b720177f57832df865c1b8cd1d7ca030", "fusion_lon": 0.0, "lat": 38.9696145, "is_reserved": 0, "type": "electric_bike", "bike_id": "b720177f57832df865c1b8cd1d7ca030", "is_disabled": 0, "rental_uris": {"android": "https://dc.lft.to/lastmile_qr_scan", "ios": "https://dc.lft.to/lastmile_qr_scan"}, "lon": -76.9575055, "fusion_lat": 0.0}, {"name": "6cc808d97456ce96a79e50d70169526f", "fusion_lon": 0.0, "lat": 38.911088666666664, "is_reserved": 0, "type": "electric_bike", "bike_id": "6cc808d97456ce96a79e50d70169526f", "is_disabled": 0, "rental_uris": {"android": "https://dc.lft.to/lastmile_qr_scan", "ios": "https://dc.lft.to/lastmile_qr_scan"}, "lon": -77.0149985, "fusion_lat": 0.0}, {"name": "9e394ad8e01a7636d182d7c9b0ae5635", "fusion_lon": 0.0, "lat": 38.931666166666666, "is_reserved": 0, "type": "electric_bike", "bike_id": "9e394ad8e01a7636d182d7c9b0ae5635", "is_disabled": 0, "rental_uris": {"android": "https://dc.lft.to/lastmile_qr_scan", "ios": "https://dc.lft.to/lastmile_qr_scan"}, "lon": -76.97625583333334, "fusion_lat": 0.0}, {"name": "d1b9d9a95e820b214eeee6c0c216786b", "fusion_lon": 0.0, "lat": 38.935308, "is_reserved": 0, "type": "electric_scooter", "bike_id": "d1b9d9a95e820b214eeee6c0c216786b", "is_disabled": 0, "rental_uris": {"android": "https://dc.lft.to/lastmile_qr_scan", "ios": "https://dc.lft.to/lastmile_qr_scan"}, "lon": -77.0235075, "fusion_lat": 0.0}, {"name": "26220ba5554bf3e8cadcbff1ff04a011", "fusion_lon": 0.0, "lat": 38.9286015, "is_reserved": 0, "type": "electric_scooter", "bike_id": "26220ba5554bf3e8cadcbff1ff04a011", "is_disabled": 0, "rental_uris": {"android": "https://dc.lft.to/lastmile_qr_scan", "ios": "https://dc.lft.to/lastmile_qr_scan"}, "lon": -77.02799333333333, "fusion_lat": 0.0}, {"name": "e2e990e736f327ca30eeb4fb810bad1a", "fusion_lon": 0.0, "lat": 38.9168415, "is_reserved": 0, "type": "electric_scooter", "bike_id": "e2e990e736f327ca30eeb4fb810bad1a", "is_disabled": 0, "rental_uris": {"android": "https://dc.lft.to/lastmile_qr_scan", "ios": "https://dc.lft.to/lastmile_qr_scan"}, "lon": -77.02698833333334, "fusion_lat": 0.0}, {"name": "ab4fabae21050afac5840558a2ccd8f9", "fusion_lon": 0.0, "lat": 38.92183716666667, "is_reserved": 0, "type": "electric_scooter", "bike_id": "ab4fabae21050afac5840558a2ccd8f9", "is_disabled": 0, "rental_uris": {"android": "https://dc.lft.to/lastmile_qr_scan", "ios": "https://dc.lft.to/lastmile_qr_scan"}, "lon": -77.02669016666667, "fusion_lat": 0.0}, {"name": "2bf487b5c2c07f3f3463e6c42d22dcf8", "fusion_lon": 0.0, "lat": 38.9068575, "is_reserved": 0, "type": "electric_scooter", "bike_id": "2bf487b5c2c07f3f3463e6c42d22dcf8", "is_disabled": 0, "rental_uris": {"android": "https://dc.lft.to/lastmile_qr_scan", "ios": "https://dc.lft.to/lastmile_qr_scan"}, "lon": -77.07143116666667, "fusion_lat": 0.0}, {"name": "86ae535ab201d25667572fba964ca2be", "fusion_lon": 0.0, "lat": 38.919801, "is_reserved": 0, "type": "electric_scooter", "bike_id": "86ae535ab201d25667572fba964ca2be", "is_disabled": 0, "rental_uris": {"android": "https://dc.lft.to/lastmile_qr_scan", "ios": "https://dc.lft.to/lastmile_qr_scan"}, "lon": -77.04216066666666, "fusion_lat": 0.0}, {"name": "965bde5b54a601c114624934f8e2a32a", "fusion_lon": 0.0, "lat": 38.928333333333335, "is_reserved": 0, "type": "electric_scooter", "bike_id": "965bde5b54a601c114624934f8e2a32a", "is_disabled": 0, "rental_uris": {"android": "https://dc.lft.to/lastmile_qr_scan", "ios": "https://dc.lft.to/lastmile_qr_scan"}, "lon": -77.026164, "fusion_lat": 0.0}, {"name": "4fdb476d492b7e1746d2ed6568ca5ebe", "fusion_lon": 0.0, "lat": 38.923029166666666, "is_reserved": 0, "type": "electric_scooter", "bike_id": "4fdb476d492b7e1746d2ed6568ca5ebe", "is_disabled": 0, "rental_uris": {"android": "https://dc.lft.to/lastmile_qr_scan", "ios": "https://dc.lft.to/lastmile_qr_scan"}, "lon": -77.03113516666667, "fusion_lat": 0.0}, {"name": "38fc2139d26f4fa4208b89322b0e5273", "fusion_lon": 0.0, "lat": 38.927028, "is_reserved": 0, "type": "electric_scooter", "bike_id": "38fc2139d26f4fa4208b89322b0e5273", "is_disabled": 0, "rental_uris": {"android": "https://dc.lft.to/lastmile_qr_scan", "ios": "https://dc.lft.to/lastmile_qr_scan"}, "lon": -77.02065666666667, "fusion_lat": 0.0}, {"name": "ae6b336f6a969b2af12ec1c3b92c1a24", "fusion_lon": 0.0, "lat": 38.922487833333335, "is_reserved": 0, "type": "electric_scooter", "bike_id": "ae6b336f6a969b2af12ec1c3b92c1a24", "is_disabled": 0, "rental_uris": {"android": "https://dc.lft.to/lastmile_qr_scan", "ios": "https://dc.lft.to/lastmile_qr_scan"}, "lon": -77.03883033333334, "fusion_lat": 0.0}, {"name": "76d95cde45352e013334c9da7788749f", "fusion_lon": 0.0, "lat": 38.899579333333335, "is_reserved": 0, "type": "electric_scooter", "bike_id": "76d95cde45352e013334c9da7788749f", "is_disabled": 0, "rental_uris": {"android": "https://dc.lft.to/lastmile_qr_scan", "ios": "https://dc.lft.to/lastmile_qr_scan"}, "lon": -77.01606233333334, "fusion_lat": 0.0}, {"name": "8c27542480c61d7db2474def8cf2bd8d", "fusion_lon": 0.0, "lat": 38.9452135, "is_reserved": 0, "type": "electric_scooter", "bike_id": "8c27542480c61d7db2474def8cf2bd8d", "is_disabled": 0, "rental_uris": {"android": "https://dc.lft.to/lastmile_qr_scan", "ios": "https://dc.lft.to/lastmile_qr_scan"}, "lon": -77.01980916666666, "fusion_lat": 0.0}, {"name": "eb039ab79773cde478d61d093ed63f25", "fusion_lon": 0.0, "lat": 38.91870633333333, "is_reserved": 0, "type": "electric_scooter", "bike_id": "eb039ab79773cde478d61d093ed63f25", "is_disabled": 0, "rental_uris": {"android": "https://dc.lft.to/lastmile_qr_scan", "ios": "https://dc.lft.to/lastmile_qr_scan"}, "lon": -77.041585, "fusion_lat": 0.0}, {"name": "ef59858ea2b7cc5b5b3e104a374bea7a", "fusion_lon": 0.0, "lat": 38.910199166666665, "is_reserved": 0, "type": "electric_scooter", "bike_id": "ef59858ea2b7cc5b5b3e104a374bea7a", "is_disabled": 0, "rental_uris": {"android": "https://dc.lft.to/lastmile_qr_scan", "ios": "https://dc.lft.to/lastmile_qr_scan"}, "lon": -77.02166116666666, "fusion_lat": 0.0}, {"name": "e9ab40751f235fd4bfd18ba62fda3a53", "fusion_lon": 0.0, "lat": 38.896677, "is_reserved": 0, "type": "electric_scooter", "bike_id": "e9ab40751f235fd4bfd18ba62fda3a53", "is_disabled": 0, "rental_uris": {"android": "https://dc.lft.to/lastmile_qr_scan", "ios": "https://dc.lft.to/lastmile_qr_scan"}, "lon": -76.98809866666667, "fusion_lat": 0.0}, {"name": "6bbab1288adce5397eb43decc52b5935", "fusion_lon": 0.0, "lat": 38.928924333333335, "is_reserved": 0, "type": "electric_scooter", "bike_id": "6bbab1288adce5397eb43decc52b5935", "is_disabled": 0, "rental_uris": {"android": "https://dc.lft.to/lastmile_qr_scan", "ios": "https://dc.lft.to/lastmile_qr_scan"}, "lon": -77.02751983333333, "fusion_lat": 0.0}, {"name": "d418abf02359f50e668f1eb028b43fe5", "fusion_lon": 0.0, "lat": 38.89800683333333, "is_reserved": 0, "type": "electric_scooter", "bike_id": "d418abf02359f50e668f1eb028b43fe5", "is_disabled": 0, "rental_uris": {"android": "https://dc.lft.to/lastmile_qr_scan", "ios": "https://dc.lft.to/lastmile_qr_scan"}, "lon": -77.054643, "fusion_lat": 0.0}, {"name": "23f4cb379b347d4d1d12acb5b44df353", "fusion_lon": 0.0, "lat": 38.91768483333333, "is_reserved": 0, "type": "electric_scooter", "bike_id": "23f4cb379b347d4d1d12acb5b44df353", "is_disabled": 0, "rental_uris": {"android": "https://dc.lft.to/lastmile_qr_scan", "ios": "https://dc.lft.to/lastmile_qr_scan"}, "lon": -77.04057116666667, "fusion_lat": 0.0}, {"name": "8e314f2e044f9cea30ad3f26068dc251", "fusion_lon": 0.0, "lat": 38.903327, "is_reserved": 0, "type": "electric_scooter", "bike_id": "8e314f2e044f9cea30ad3f26068dc251", "is_disabled": 0, "rental_uris": {"android": "https://dc.lft.to/lastmile_qr_scan", "ios": "https://dc.lft.to/lastmile_qr_scan"}, "lon": -76.97589516666666, "fusion_lat": 0.0}, {"name": "b19ddea282e06ed98066656ff6035ec9", "fusion_lon": 0.0, "lat": 38.870678166666664, "is_reserved": 0, "type": "electric_scooter", "bike_id": "b19ddea282e06ed98066656ff6035ec9", "is_disabled": 0, "rental_uris": {"android": "https://dc.lft.to/lastmile_qr_scan", "ios": "https://dc.lft.to/lastmile_qr_scan"}, "lon": -76.98935349999999, "fusion_lat": 0.0}, {"name": "1ad71a6d2dd59fcbd3636e8b2104966b", "fusion_lon": 0.0, "lat": 38.92035516666667, "is_reserved": 0, "type": "electric_scooter", "bike_id": "1ad71a6d2dd59fcbd3636e8b2104966b", "is_disabled": 0, "rental_uris": {"android": "https://dc.lft.to/lastmile_qr_scan", "ios": "https://dc.lft.to/lastmile_qr_scan"}, "lon": -77.02582083333333, "fusion_lat": 0.0}, {"name": "b782783464f3b0eadcfeaa597afedff2", "fusion_lon": 0.0, "lat": 38.9373015, "is_reserved": 0, "type": "electric_bike", "bike_id": "b782783464f3b0eadcfeaa597afedff2", "is_disabled": 0, "rental_uris": {"android": "https://dc.lft.to/lastmile_qr_scan", "ios": "https://dc.lft.to/lastmile_qr_scan"}, "lon": -77.02689466666666, "fusion_lat": 0.0}, {"name": "f89fabf5673bef6d8d9dba7dd6487497", "fusion_lon": 0.0, "lat": 38.878361, "is_reserved": 0, "type": "electric_scooter", "bike_id": "f89fabf5673bef6d8d9dba7dd6487497", "is_disabled": 0, "rental_uris": {"android": "https://dc.lft.to/lastmile_qr_scan", "ios": "https://dc.lft.to/lastmile_qr_scan"}, "lon": -77.01595966666666, "fusion_lat": 0.0}, {"name": "a3b138ae06d50234feac6c9957d8717f", "fusion_lon": 0.0, "lat": 38.89296233333334, "is_reserved": 0, "type": "electric_scooter", "bike_id": "a3b138ae06d50234feac6c9957d8717f", "is_disabled": 0, "rental_uris": {"android": "https://dc.lft.to/lastmile_qr_scan", "ios": "https://dc.lft.to/lastmile_qr_scan"}, "lon": -76.9392405, "fusion_lat": 0.0}, {"name": "1713744127b7cb3e21492fcb8d87f95b", "fusion_lon": 0.0, "lat": 38.92032116666667, "is_reserved": 0, "type": "electric_scooter", "bike_id": "1713744127b7cb3e21492fcb8d87f95b", "is_disabled": 0, "rental_uris": {"android": "https://dc.lft.to/lastmile_qr_scan", "ios": "https://dc.lft.to/lastmile_qr_scan"}, "lon": -77.025827, "fusion_lat": 0.0}, {"name": "c2bf03accdef34bfc6e89d8f8a6fb8f7", "fusion_lon": 0.0, "lat": 38.9238285, "is_reserved": 0, "type": "electric_scooter", "bike_id": "c2bf03accdef34bfc6e89d8f8a6fb8f7", "is_disabled": 0, "rental_uris": {"android": "https://dc.lft.to/lastmile_qr_scan", "ios": "https://dc.lft.to/lastmile_qr_scan"}, "lon": -77.029238, "fusion_lat": 0.0}, {"name": "9f79717a41f0d26f4e7f4988886e37b7", "fusion_lon": 0.0, "lat": 38.9456615, "is_reserved": 0, "type": "electric_bike", "bike_id": "9f79717a41f0d26f4e7f4988886e37b7", "is_disabled": 0, "rental_uris": {"android": "https://dc.lft.to/lastmile_qr_scan", "ios": "https://dc.lft.to/lastmile_qr_scan"}, "lon": -76.96686433333333, "fusion_lat": 0.0}, {"name": "f34d7740676d5c18f58797c080bf8112", "fusion_lon": 0.0, "lat": 38.90383283333333, "is_reserved": 0, "type": "electric_scooter", "bike_id": "f34d7740676d5c18f58797c080bf8112", "is_disabled": 0, "rental_uris": {"android": "https://dc.lft.to/lastmile_qr_scan", "ios": "https://dc.lft.to/lastmile_qr_scan"}, "lon": -77.026063, "fusion_lat": 0.0}, {"name": "c500765fa26d627eaeb5878df07a407d", "fusion_lon": 0.0, "lat": 38.921574666666665, "is_reserved": 0, "type": "electric_scooter", "bike_id": "c500765fa26d627eaeb5878df07a407d", "is_disabled": 0, "rental_uris": {"android": "https://dc.lft.to/lastmile_qr_scan", "ios": "https://dc.lft.to/lastmile_qr_scan"}, "lon": -77.03456633333333, "fusion_lat": 0.0}, {"name": "1e7d67df6fc974e9b94cf0c047757cc1", "fusion_lon": 0.0, "lat": 38.9287555, "is_reserved": 0, "type": "electric_scooter", "bike_id": "1e7d67df6fc974e9b94cf0c047757cc1", "is_disabled": 0, "rental_uris": {"android": "https://dc.lft.to/lastmile_qr_scan", "ios": "https://dc.lft.to/lastmile_qr_scan"}, "lon": -77.04228283333333, "fusion_lat": 0.0}, {"name": "de486ad4bf37eb3e85f7fd312b0df8d8", "fusion_lon": 0.0, "lat": 38.90664366666667, "is_reserved": 0, "type": "electric_scooter", "bike_id": "de486ad4bf37eb3e85f7fd312b0df8d8", "is_disabled": 0, "rental_uris": {"android": "https://dc.lft.to/lastmile_qr_scan", "ios": "https://dc.lft.to/lastmile_qr_scan"}, "lon": -77.03858233333334, "fusion_lat": 0.0}, {"name": "3aebda9cf4c39916624d8dfc714bbb0c", "fusion_lon": 0.0, "lat": 38.8723005, "is_reserved": 0, "type": "electric_scooter", "bike_id": "3aebda9cf4c39916624d8dfc714bbb0c", "is_disabled": 0, "rental_uris": {"android": "https://dc.lft.to/lastmile_qr_scan", "ios": "https://dc.lft.to/lastmile_qr_scan"}, "lon": -77.01162683333334, "fusion_lat": 0.0}, {"name": "2e11640f44f5d9d6f3209908e9bdeb5c", "fusion_lon": 0.0, "lat": 38.9000145, "is_reserved": 0, "type": "electric_scooter", "bike_id": "2e11640f44f5d9d6f3209908e9bdeb5c", "is_disabled": 0, "rental_uris": {"android": "https://dc.lft.to/lastmile_qr_scan", "ios": "https://dc.lft.to/lastmile_qr_scan"}, "lon": -77.001367, "fusion_lat": 0.0}, {"name": "6ff351d9c01a346a0af9f847e043628b", "fusion_lon": 0.0, "lat": 38.970502333333336, "is_reserved": 0, "type": "electric_bike", "bike_id": "6ff351d9c01a346a0af9f847e043628b", "is_disabled": 0, "rental_uris": {"android": "https://dc.lft.to/lastmile_qr_scan", "ios": "https://dc.lft.to/lastmile_qr_scan"}, "lon": -76.93615666666666, "fusion_lat": 0.0}, {"name": "7066b3434ae19ad58f6c98f631e45fc6", "fusion_lon": 0.0, "lat": 38.98431983333333, "is_reserved": 0, "type": "electric_scooter", "bike_id": "7066b3434ae19ad58f6c98f631e45fc6", "is_disabled": 0, "rental_uris": {"android": "https://dc.lft.to/lastmile_qr_scan", "ios": "https://dc.lft.to/lastmile_qr_scan"}, "lon": -77.0267095, "fusion_lat": 0.0}, {"name": "283a309768865ae9d00dec61879cec38", "fusion_lon": 0.0, "lat": 38.918085833333336, "is_reserved": 0, "type": "electric_scooter", "bike_id": "283a309768865ae9d00dec61879cec38", "is_disabled": 0, "rental_uris": {"android": "https://dc.lft.to/lastmile_qr_scan", "ios": "https://dc.lft.to/lastmile_qr_scan"}, "lon": -77.03435816666666, "fusion_lat": 0.0}, {"name": "fe9ba9465da3c31982897ebd546c36d7", "fusion_lon": 0.0, "lat": 38.894777166666664, "is_reserved": 0, "type": "electric_scooter", "bike_id": "fe9ba9465da3c31982897ebd546c36d7", "is_disabled": 0, "rental_uris": {"android": "https://dc.lft.to/lastmile_qr_scan", "ios": "https://dc.lft.to/lastmile_qr_scan"}, "lon": -77.04650666666667, "fusion_lat": 0.0}, {"name": "e5637777f7d649c3fc6690031365b5c8", "fusion_lon": 0.0, "lat": 38.911216333333336, "is_reserved": 0, "type": "electric_scooter", "bike_id": "e5637777f7d649c3fc6690031365b5c8", "is_disabled": 0, "rental_uris": {"android": "https://dc.lft.to/lastmile_qr_scan", "ios": "https://dc.lft.to/lastmile_qr_scan"}, "lon": -77.02234116666666, "fusion_lat": 0.0}, {"name": "943a40be2199a4c47c51b3f22e9326bb", "fusion_lon": 0.0, "lat": 38.89221366666666, "is_reserved": 0, "type": "electric_scooter", "bike_id": "943a40be2199a4c47c51b3f22e9326bb", "is_disabled": 0, "rental_uris": {"android": "https://dc.lft.to/lastmile_qr_scan", "ios": "https://dc.lft.to/lastmile_qr_scan"}, "lon": -77.04864666666667, "fusion_lat": 0.0}, {"name": "9da75ef15001fbd85b974fae1a4dd49a", "fusion_lon": 0.0, "lat": 38.89241483333333, "is_reserved": 0, "type": "electric_scooter", "bike_id": "9da75ef15001fbd85b974fae1a4dd49a", "is_disabled": 0, "rental_uris": {"android": "https://dc.lft.to/lastmile_qr_scan", "ios": "https://dc.lft.to/lastmile_qr_scan"}, "lon": -77.02409983333334, "fusion_lat": 0.0}, {"name": "3b5fcc6bbf276477c0729602267246c2", "fusion_lon": 0.0, "lat": 38.907796166666664, "is_reserved": 0, "type": "electric_scooter", "bike_id": "3b5fcc6bbf276477c0729602267246c2", "is_disabled": 0, "rental_uris": {"android": "https://dc.lft.to/lastmile_qr_scan", "ios": "https://dc.lft.to/lastmile_qr_scan"}, "lon": -77.03829016666667, "fusion_lat": 0.0}, {"name": "30fbd1a3775d890019bbc9bc048b757c", "fusion_lon": 0.0, "lat": 38.8960595, "is_reserved": 0, "type": "electric_scooter", "bike_id": "30fbd1a3775d890019bbc9bc048b757c", "is_disabled": 0, "rental_uris": {"android": "https://dc.lft.to/lastmile_qr_scan", "ios": "https://dc.lft.to/lastmile_qr_scan"}, "lon": -77.0543985, "fusion_lat": 0.0}, {"name": "718a10f9904afdc99d550b33dd434ed8", "fusion_lon": 0.0, "lat": 38.93229783333334, "is_reserved": 0, "type": "electric_bike", "bike_id": "718a10f9904afdc99d550b33dd434ed8", "is_disabled": 0, "rental_uris": {"android": "https://dc.lft.to/lastmile_qr_scan", "ios": "https://dc.lft.to/lastmile_qr_scan"}, "lon": -77.18121683333334, "fusion_lat": 0.0}, {"name": "852f82734a328e4fd3dd836e0274a74e", "fusion_lon": 0.0, "lat": 38.91327533333333, "is_reserved": 0, "type": "electric_scooter", "bike_id": "852f82734a328e4fd3dd836e0274a74e", "is_disabled": 0, "rental_uris": {"android": "https://dc.lft.to/lastmile_qr_scan", "ios": "https://dc.lft.to/lastmile_qr_scan"}, "lon": -77.06250116666666, "fusion_lat": 0.0}, {"name": "28d081f5b3baa4a81e830f6e3d35d8cf", "fusion_lon": 0.0, "lat": 38.951794, "is_reserved": 0, "type": "electric_scooter", "bike_id": "28d081f5b3baa4a81e830f6e3d35d8cf", "is_disabled": 0, "rental_uris": {"android": "https://dc.lft.to/lastmile_qr_scan", "ios": "https://dc.lft.to/lastmile_qr_scan"}, "lon": -77.0260445, "fusion_lat": 0.0}, {"name": "6fe9180668743b28be4079772eb1fdb4", "fusion_lon": 0.0, "lat": 38.8764005, "is_reserved": 0, "type": "electric_scooter", "bike_id": "6fe9180668743b28be4079772eb1fdb4", "is_disabled": 0, "rental_uris": {"android": "https://dc.lft.to/lastmile_qr_scan", "ios": "https://dc.lft.to/lastmile_qr_scan"}, "lon": -77.00451816666667, "fusion_lat": 0.0}, {"name": "2dce7210f036954e5c68c1dbd29d5e3d", "fusion_lon": 0.0, "lat": 38.915523666666665, "is_reserved": 0, "type": "electric_scooter", "bike_id": "2dce7210f036954e5c68c1dbd29d5e3d", "is_disabled": 0, "rental_uris": {"android": "https://dc.lft.to/lastmile_qr_scan", "ios": "https://dc.lft.to/lastmile_qr_scan"}, "lon": -77.04123316666667, "fusion_lat": 0.0}, {"name": "44fe3446f533b13c8eeb10ef17d8b963", "fusion_lon": 0.0, "lat": 38.91685433333333, "is_reserved": 0, "type": "electric_scooter", "bike_id": "44fe3446f533b13c8eeb10ef17d8b963", "is_disabled": 0, "rental_uris": {"android": "https://dc.lft.to/lastmile_qr_scan", "ios": "https://dc.lft.to/lastmile_qr_scan"}, "lon": -77.02693033333334, "fusion_lat": 0.0}, {"name": "b9a192e8ec31994085a11c7a5f18b81c", "fusion_lon": 0.0, "lat": 38.92262633333333, "is_reserved": 0, "type": "electric_scooter", "bike_id": "b9a192e8ec31994085a11c7a5f18b81c", "is_disabled": 0, "rental_uris": {"android": "https://dc.lft.to/lastmile_qr_scan", "ios": "https://dc.lft.to/lastmile_qr_scan"}, "lon": -77.0732395, "fusion_lat": 0.0}, {"name": "f43189f666e2c874792dec2a45a170c8", "fusion_lon": 0.0, "lat": 38.9176995, "is_reserved": 0, "type": "electric_scooter", "bike_id": "f43189f666e2c874792dec2a45a170c8", "is_disabled": 0, "rental_uris": {"android": "https://dc.lft.to/lastmile_qr_scan", "ios": "https://dc.lft.to/lastmile_qr_scan"}, "lon": -77.04057616666667, "fusion_lat": 0.0}, {"name": "e4ac03c83717b355c70d8a04f441a60a", "fusion_lon": 0.0, "lat": 38.907532333333336, "is_reserved": 0, "type": "electric_scooter", "bike_id": "e4ac03c83717b355c70d8a04f441a60a", "is_disabled": 0, "rental_uris": {"android": "https://dc.lft.to/lastmile_qr_scan", "ios": "https://dc.lft.to/lastmile_qr_scan"}, "lon": -77.04310033333333, "fusion_lat": 0.0}, {"name": "4cd68292d72247b1bbcdcdfe194bbb6b", "fusion_lon": 0.0, "lat": 38.958769, "is_reserved": 0, "type": "electric_bike", "bike_id": "4cd68292d72247b1bbcdcdfe194bbb6b", "is_disabled": 0, "rental_uris": {"android": "https://dc.lft.to/lastmile_qr_scan", "ios": "https://dc.lft.to/lastmile_qr_scan"}, "lon": -77.00141883333333, "fusion_lat": 0.0}, {"name": "93abf9151fa9cd6b85b47de485527562", "fusion_lon": 0.0, "lat": 38.861800333333335, "is_reserved": 0, "type": "electric_scooter", "bike_id": "93abf9151fa9cd6b85b47de485527562", "is_disabled": 0, "rental_uris": {"android": "https://dc.lft.to/lastmile_qr_scan", "ios": "https://dc.lft.to/lastmile_qr_scan"}, "lon": -77.08829733333333, "fusion_lat": 0.0}, {"name": "2eba22c8a76b53bfec1ca2460a4300b7", "fusion_lon": 0.0, "lat": 38.92419233333333, "is_reserved": 0, "type": "electric_scooter", "bike_id": "2eba22c8a76b53bfec1ca2460a4300b7", "is_disabled": 0, "rental_uris": {"android": "https://dc.lft.to/lastmile_qr_scan", "ios": "https://dc.lft.to/lastmile_qr_scan"}, "lon": -77.05060733333333, "fusion_lat": 0.0}, {"name": "445a1cf47b1fe8bed96c3308f84cb3cc", "fusion_lon": 0.0, "lat": 38.91031383333333, "is_reserved": 0, "type": "electric_scooter", "bike_id": "445a1cf47b1fe8bed96c3308f84cb3cc", "is_disabled": 0, "rental_uris": {"android": "https://dc.lft.to/lastmile_qr_scan", "ios": "https://dc.lft.to/lastmile_qr_scan"}, "lon": -77.00763066666667, "fusion_lat": 0.0}, {"name": "c9cc12affeb40277600ee7dccac247ad", "fusion_lon": 0.0, "lat": 38.888868333333335, "is_reserved": 0, "type": "electric_scooter", "bike_id": "c9cc12affeb40277600ee7dccac247ad", "is_disabled": 0, "rental_uris": {"android": "https://dc.lft.to/lastmile_qr_scan", "ios": "https://dc.lft.to/lastmile_qr_scan"}, "lon": -76.94774883333334, "fusion_lat": 0.0}, {"name": "23dd3dbdcdd7d46b5fba0b555aa268f4", "fusion_lon": 0.0, "lat": 38.977284833333336, "is_reserved": 0, "type": "electric_scooter", "bike_id": "23dd3dbdcdd7d46b5fba0b555aa268f4", "is_disabled": 0, "rental_uris": {"android": "https://dc.lft.to/lastmile_qr_scan", "ios": "https://dc.lft.to/lastmile_qr_scan"}, "lon": -77.01726, "fusion_lat": 0.0}, {"name": "646a7a6458da88c32a27154e8b85aff7", "fusion_lon": 0.0, "lat": 38.910321833333334, "is_reserved": 0, "type": "electric_scooter", "bike_id": "646a7a6458da88c32a27154e8b85aff7", "is_disabled": 0, "rental_uris": {"android": "https://dc.lft.to/lastmile_qr_scan", "ios": "https://dc.lft.to/lastmile_qr_scan"}, "lon": -77.007626, "fusion_lat": 0.0}, {"name": "630b64a92685ca20502cc0eadf216e86", "fusion_lon": 0.0, "lat": 38.9009145, "is_reserved": 0, "type": "electric_scooter", "bike_id": "630b64a92685ca20502cc0eadf216e86", "is_disabled": 0, "rental_uris": {"android": "https://dc.lft.to/lastmile_qr_scan", "ios": "https://dc.lft.to/lastmile_qr_scan"}, "lon": -76.98334566666666, "fusion_lat": 0.0}, {"name": "c40812e44873e82f3e3d0024a8bd2ae8", "fusion_lon": 0.0, "lat": 38.7961585, "is_reserved": 0, "type": "electric_bike", "bike_id": "c40812e44873e82f3e3d0024a8bd2ae8", "is_disabled": 0, "rental_uris": {"android": "https://dc.lft.to/lastmile_qr_scan", "ios": "https://dc.lft.to/lastmile_qr_scan"}, "lon": -76.99740466666667, "fusion_lat": 0.0}, {"name": "3fc27b54ab325758c3e9c18c99a5f5a2", "fusion_lon": 0.0, "lat": 38.90569833333333, "is_reserved": 0, "type": "electric_scooter", "bike_id": "3fc27b54ab325758c3e9c18c99a5f5a2", "is_disabled": 0, "rental_uris": {"android": "https://dc.lft.to/lastmile_qr_scan", "ios": "https://dc.lft.to/lastmile_qr_scan"}, "lon": -77.00594266666667, "fusion_lat": 0.0}, {"name": "6fe4dc4d56143550c375781b7d8aa0d5", "fusion_lon": 0.0, "lat": 38.91685016666667, "is_reserved": 0, "type": "electric_scooter", "bike_id": "6fe4dc4d56143550c375781b7d8aa0d5", "is_disabled": 0, "rental_uris": {"android": "https://dc.lft.to/lastmile_qr_scan", "ios": "https://dc.lft.to/lastmile_qr_scan"}, "lon": -77.02943083333334, "fusion_lat": 0.0}, {"name": "e572e33b9ddcd05870549703ff399ea4", "fusion_lon": 0.0, "lat": 38.915502333333336, "is_reserved": 0, "type": "electric_scooter", "bike_id": "e572e33b9ddcd05870549703ff399ea4", "is_disabled": 0, "rental_uris": {"android": "https://dc.lft.to/lastmile_qr_scan", "ios": "https://dc.lft.to/lastmile_qr_scan"}, "lon": -77.038459, "fusion_lat": 0.0}, {"name": "97f16f07a034bdefee0ab2361d49be0b", "fusion_lon": 0.0, "lat": 38.893223, "is_reserved": 0, "type": "electric_scooter", "bike_id": "97f16f07a034bdefee0ab2361d49be0b", "is_disabled": 0, "rental_uris": {"android": "https://dc.lft.to/lastmile_qr_scan", "ios": "https://dc.lft.to/lastmile_qr_scan"}, "lon": -77.018031, "fusion_lat": 0.0}, {"name": "914e6174497901fc5c08b179f6fd72dd", "fusion_lon": 0.0, "lat": 38.884901666666664, "is_reserved": 0, "type": "electric_scooter", "bike_id": "914e6174497901fc5c08b179f6fd72dd", "is_disabled": 0, "rental_uris": {"android": "https://dc.lft.to/lastmile_qr_scan", "ios": "https://dc.lft.to/lastmile_qr_scan"}, "lon": -77.00916566666666, "fusion_lat": 0.0}, {"name": "a40c1372be0da0f8972422f53309d9f2", "fusion_lon": 0.0, "lat": 38.9171965, "is_reserved": 0, "type": "electric_scooter", "bike_id": "a40c1372be0da0f8972422f53309d9f2", "is_disabled": 0, "rental_uris": {"android": "https://dc.lft.to/lastmile_qr_scan", "ios": "https://dc.lft.to/lastmile_qr_scan"}, "lon": -77.038612, "fusion_lat": 0.0},