{"data": {"bikes": [{"lat": 38.900753, "type": "electric_scooter", "rental_uris": {"android": "https://dc.lft.to/lastmile_qr_scan", "ios": "https://dc.lft.to/lastmile_qr_scan"}, "fusion_lat": 0.0, "name": "4a56ff41f698f8313d3e2ec48751e556", "is_reserved": 0, "is_disabled": 0, "bike_id": "4a56ff41f698f8313d3e2ec48751e556", "fusion_lon": 0.0, "lon": -76.92962833333333}, {"lat": 38.92332716666667, "type": "electric_scooter", "rental_uris": {"android": "https://dc.lft.to/lastmile_qr_scan", "ios": "https://dc.lft.to/lastmile_qr_scan"}, "fusion_lat": 0.0, "name": "b9eebea10f76773fecff24f6a3c3630f", "is_reserved": 0, "is_disabled": 0, "bike_id": "b9eebea10f76773fecff24f6a3c3630f", "fusion_lon": 0.0, "lon": -77.05222016666667}, {"lat": 38.951965666666666, "type": "electric_scooter", "rental_uris": {"android": "https://dc.lft.to/lastmile_qr_scan", "ios": "https://dc.lft.to/lastmile_qr_scan"}, "fusion_lat": 0.0, "name": "26e7e77d904142fc00e50460caff6cfa", "is_reserved": 0, "is_disabled": 0, "bike_id": "26e7e77d904142fc00e50460caff6cfa", "fusion_lon": 0.0, "lon": -77.02741833333333}, {"lat": 38.90135216666667, "type": "electric_scooter", "rental_uris": {"android": "https://dc.lft.to/lastmile_qr_scan", "ios": "https://dc.lft.to/lastmile_qr_scan"}, "fusion_lat": 0.0, "name": "17da6929f5f8a1b53d30168d577b8d9d", "is_reserved": 0, "is_disabled": 0, "bike_id": "17da6929f5f8a1b53d30168d577b8d9d", "fusion_lon": 0.0, "lon": -77.04496816666666}, {"lat": 38.90869083333333, "type": "electric_scooter", "rental_uris": {"android": "https://dc.lft.to/lastmile_qr_scan", "ios": "https://dc.lft.to/lastmile_qr_scan"}, "fusion_lat": 0.0, "name": "bc59ba891697248ee1606f1a943ffb9e", "is_reserved": 0, "is_disabled": 0, "bike_id": "bc59ba891697248ee1606f1a943ffb9e", "fusion_lon": 0.0, "lon": -77.0036835}, {"lat": 38.8713075, "type": "electric_scooter", "rental_uris": {"android": "https://dc.lft.to/lastmile_qr_scan", "ios": "https://dc.lft.to/lastmile_qr_scan"}, "fusion_lat": 0.0, "name": "c5dd33d84a76b633d6b61d62ac9288a3", "is_reserved": 0, "is_disabled": 0, "bike_id": "c5dd33d84a76b633d6b61d62ac9288a3", "fusion_lon": 0.0, "lon": -77.0122635}, {"lat": 38.90022883333334, "type": "electric_scooter", "rental_uris": {"android": "https://dc.lft.to/lastmile_qr_scan", "ios": "https://dc.lft.to/lastmile_qr_scan"}, "fusion_lat": 0.0, "name": "c627e14d92da8b672d8eb949e4f089af", "is_reserved": 0, "is_disabled": 0, "bike_id": "c627e14d92da8b672d8eb949e4f089af", "fusion_lon": 0.0, "lon": -76.99141433333334}, {"lat": 38.92168066666667, "type": "electric_scooter", "rental_uris": {"android": "https://dc.lft.to/lastmile_qr_scan", "ios": "https://dc.lft.to/lastmile_qr_scan"}, "fusion_lat": 0.0, "name": "87167c24c10a8ba7938c7a0e5d9d7a57", "is_reserved": 0, "is_disabled": 0, "bike_id": "87167c24c10a8ba7938c7a0e5d9d7a57", "fusion_lon": 0.0, "lon": -77.03831183333334}, {"lat": 38.89606416666667, "type": "electric_scooter", "rental_uris": {"android": "https://dc.lft.to/lastmile_qr_scan", "ios": "https://dc.lft.to/lastmile_qr_scan"}, "fusion_lat": 0.0, "name": "32eb6b93a9da6837f7b62b74f4c28759", "is_reserved": 0, "is_disabled": 0, "bike_id": "32eb6b93a9da6837f7b62b74f4c28759", "fusion_lon": 0.0, "lon": -77.00929933333333}, {"lat": 38.82167533333333, "type": "electric_bike", "rental_uris": {"android": "https://dc.lft.to/lastmile_qr_scan", "ios": "https://dc.lft.to/lastmile_qr_scan"}, "fusion_lat": 0.0, "name": "8f7c542edbde74b099956514f434b214", "is_reserved": 0, "is_disabled": 0, "bike_id": "8f7c542edbde74b099956514f434b214", "fusion_lon": 0.0, "lon": -77.00153666666667}, {"lat": 38.91710916666667, "type": "electric_scooter", "rental_uris": {"android": "https://dc.lft.to/lastmile_qr_scan", "ios": "https://dc.lft.to/lastmile_qr_scan"}, "fusion_lat": 0.0, "name": "59a87d10ddba906b8e7f5231f33f9ebe", "is_reserved": 0, "is_disabled": 0, "bike_id": "59a87d10ddba906b8e7f5231f33f9ebe", "fusion_lon": 0.0, "lon": -77.03555833333333}, {"lat": 38.900918, "type": "electric_scooter", "rental_uris": {"android": "https://dc.lft.to/lastmile_qr_scan", "ios": "https://dc.lft.to/lastmile_qr_scan"}, "fusion_lat": 0.0, "name": "c1b1687720f0d18a709462f38ffd1cac", "is_reserved": 0, "is_disabled": 0, "bike_id": "c1b1687720f0d18a709462f38ffd1cac", "fusion_lon": 0.0, "lon": -77.05091166666666}, {"lat": 38.900808, "type": "electric_scooter", "rental_uris": {"android": "https://dc.lft.to/lastmile_qr_scan", "ios": "https://dc.lft.to/lastmile_qr_scan"}, "fusion_lat": 0.0, "name": "aa2ce70979feadeb531f733788b01ee9", "is_reserved": 0, "is_disabled": 0, "bike_id": "aa2ce70979feadeb531f733788b01ee9", "fusion_lon": 0.0, "lon": -77.051456}, {"lat": 38.89542816666667, "type": "electric_scooter", "rental_uris": {"android": "https://dc.lft.to/lastmile_qr_scan", "ios": "https://dc.lft.to/lastmile_qr_scan"}, "fusion_lat": 0.0, "name": "83abcce3e0f0c68681becc534f15a150", "is_reserved": 0, "is_disabled": 0, "bike_id": "83abcce3e0f0c68681becc534f15a150", "fusion_lon": 0.0, "lon": -76.98340583333334}, {"lat": 38.912963833333336, "type": "electric_scooter", "rental_uris": {"android": "https://dc.lft.to/lastmile_qr_scan", "ios": "https://dc.lft.to/lastmile_qr_scan"}, "fusion_lat": 0.0, "name": "1508440c8ea382b0feed55708885f187", "is_reserved": 0, "is_disabled": 0, "bike_id": "1508440c8ea382b0feed55708885f187", "fusion_lon": 0.0, "lon": -76.98476266666667}, {"lat": 38.930435333333335, "type": "electric_scooter", "rental_uris": {"android": "https://dc.lft.to/lastmile_qr_scan", "ios": "https://dc.lft.to/lastmile_qr_scan"}, "fusion_lat": 0.0, "name": "704bf8a62399aaa3d05b45e0872586fe", "is_reserved": 0, "is_disabled": 0, "bike_id": "704bf8a62399aaa3d05b45e0872586fe", "fusion_lon": 0.0, "lon": -77.0322835}, {"lat": 38.956442, "type": "electric_scooter", "rental_uris": {"android": "https://dc.lft.to/lastmile_qr_scan", "ios": "https://dc.lft.to/lastmile_qr_scan"}, "fusion_lat": 0.0, "name": "24870648d592f2f03006c8eef543c190", "is_reserved": 0, "is_disabled": 0, "bike_id": "24870648d592f2f03006c8eef543c190", "fusion_lon": 0.0, "lon": -77.00981916666667}, {"lat": 38.89616616666667, "type": "electric_scooter", "rental_uris": {"android": "https://dc.lft.to/lastmile_qr_scan", "ios": "https://dc.lft.to/lastmile_qr_scan"}, "fusion_lat": 0.0, "name": "5edb5340bec96f7c15fdc6be00b4bae2", "is_reserved": 0, "is_disabled": 0, "bike_id": "5edb5340bec96f7c15fdc6be00b4bae2", "fusion_lon": 0.0, "lon": -76.98567800000001}, {"lat": 38.9259825, "type": "electric_scooter", "rental_uris": {"android": "https://dc.lft.to/lastmile_qr_scan", "ios": "https://dc.lft.to/lastmile_qr_scan"}, "fusion_lat": 0.0, "name": "2272ec3d2709a7339147d03b626fa642", "is_reserved": 0, "is_disabled": 0, "bike_id": "2272ec3d2709a7339147d03b626fa642", "fusion_lon": 0.0, "lon": -77.02391466666667}, {"lat": 38.9209365, "type": "electric_scooter", "rental_uris": {"android": "https://dc.lft.to/lastmile_qr_scan", "ios": "https://dc.lft.to/lastmile_qr_scan"}, "fusion_lat": 0.0, "name": "a5c998861ad00c67f66610d963376164", "is_reserved": 0, "is_disabled": 0, "bike_id": "a5c998861ad00c67f66610d963376164", "fusion_lon": 0.0, "lon": -77.0252675}, {"lat": 38.870605166666664, "type": "electric_bike", "rental_uris": {"android": "https://dc.lft.to/lastmile_qr_scan", "ios": "https://dc.lft.to/lastmile_qr_scan"}, "fusion_lat": 0.0, "name": "ffb6c734ffd39193a18a0a42ff4eaaa3", "is_reserved": 0, "is_disabled": 0, "bike_id": "ffb6c734ffd39193a18a0a42ff4eaaa3", "fusion_lon": 0.0, "lon": -77.01361166666666}, {"lat": 38.921520666666666, "type": "electric_scooter", "rental_uris": {"android": "https://dc.lft.to/lastmile_qr_scan", "ios": "https://dc.lft.to/lastmile_qr_scan"}, "fusion_lat": 0.0, "name": "170e1b932e31813fdce98795f7d33e79", "is_reserved": 0, "is_disabled": 0, "bike_id": "170e1b932e31813fdce98795f7d33e79", "fusion_lon": 0.0, "lon": -77.03382}, {"lat": 38.905152333333334, "type": "electric_scooter", "rental_uris": {"android": "https://dc.lft.to/lastmile_qr_scan", "ios": "https://dc.lft.to/lastmile_qr_scan"}, "fusion_lat": 0.0, "name": "257d8a79806fc3023e447dd77d1c8441", "is_reserved": 0, "is_disabled": 0, "bike_id": "257d8a79806fc3023e447dd77d1c8441", "fusion_lon": 0.0, "lon": -77.04849016666667}, {"lat": 38.878259, "type": "electric_scooter", "rental_uris": {"android": "https://dc.lft.to/lastmile_qr_scan", "ios": "https://dc.lft.to/lastmile_qr_scan"}, "fusion_lat": 0.0, "name": "dc97f3b8dc8799da57391b82cb04c2ce", "is_reserved": 0, "is_disabled": 0, "bike_id": "dc97f3b8dc8799da57391b82cb04c2ce", "fusion_lon": 0.0, "lon": -77.00630183333334}, {"lat": 38.96177183333333, "type": "electric_scooter", "rental_uris": {"android": "https://dc.lft.to/lastmile_qr_scan", "ios": "https://dc.lft.to/lastmile_qr_scan"}, "fusion_lat": 0.0, "name": "5e82ef965a5e8467291dc2f57e2e798f", "is_reserved": 0, "is_disabled": 0, "bike_id": "5e82ef965a5e8467291dc2f57e2e798f", "fusion_lon": 0.0, "lon": -77.0143515}, {"lat": 38.8967215, "type": "electric_scooter", "rental_uris": {"android": "https://dc.lft.to/lastmile_qr_scan", "ios": "https://dc.lft.to/lastmile_qr_scan"}, "fusion_lat": 0.0, "name": "8b61f0f90eaf9f8e39a0e47b41c33a70", "is_reserved": 0, "is_disabled": 0, "bike_id": "8b61f0f90eaf9f8e39a0e47b41c33a70", "fusion_lon": 0.0, "lon": -77.01209533333333}, {"lat": 38.904287833333335, "type": "electric_scooter", "rental_uris": {"android": "https://dc.lft.to/lastmile_qr_scan", "ios": "https://dc.lft.to/lastmile_qr_scan"}, "fusion_lat": 0.0, "name": "12ed8ab40eaf074c4e2fb8c29588918e", "is_reserved": 0, "is_disabled": 0, "bike_id": "12ed8ab40eaf074c4e2fb8c29588918e", "fusion_lon": 0.0, "lon": -77.05030616666667}, {"lat": 38.90052883333333, "type": "electric_scooter", "rental_uris": {"android": "https://dc.lft.to/lastmile_qr_scan", "ios": "https://dc.lft.to/lastmile_qr_scan"}, "fusion_lat": 0.0, "name": "3324c53ac748dd8b5731256acc4a8e75", "is_reserved": 0, "is_disabled": 0, "bike_id": "3324c53ac748dd8b5731256acc4a8e75", "fusion_lon": 0.0, "lon": -77.000665}, {"lat": 38.90460983333333, "type": "electric_scooter", "rental_uris": {"android": "https://dc.lft.to/lastmile_qr_scan", "ios": "https://dc.lft.to/lastmile_qr_scan"}, "fusion_lat": 0.0, "name": "4cc7d8256c7d2aeec33c80e711dce45c", "is_reserved": 0, "is_disabled": 0, "bike_id": "4cc7d8256c7d2aeec33c80e711dce45c", "fusion_lon": 0.0, "lon": -77.02822716666667}, {"lat": 38.9496875, "type": "electric_scooter", "rental_uris": {"android": "https://dc.lft.to/lastmile_qr_scan", "ios": "https://dc.lft.to/lastmile_qr_scan"}, "fusion_lat": 0.0, "name": "a3a63b601650a16385dc4f217d6a6ce8", "is_reserved": 0, "is_disabled": 0, "bike_id": "a3a63b601650a16385dc4f217d6a6ce8", "fusion_lon": 0.0, "lon": -77.0665575}, {"lat": 38.9209265, "type": "electric_scooter", "rental_uris": {"android": "https://dc.lft.to/lastmile_qr_scan", "ios": "https://dc.lft.to/lastmile_qr_scan"}, "fusion_lat": 0.0, "name": "1cb9c56c74b8673b9536bfacad4e4edb", "is_reserved": 0, "is_disabled": 0, "bike_id": "1cb9c56c74b8673b9536bfacad4e4edb", "fusion_lon": 0.0, "lon": -77.02528083333333}, {"lat": 38.9165845, "type": "electric_scooter", "rental_uris": {"android": "https://dc.lft.to/lastmile_qr_scan", "ios": "https://dc.lft.to/lastmile_qr_scan"}, "fusion_lat": 0.0, "name": "07d68a1e29088c0dc0ed8877da60f962", "is_reserved": 0, "is_disabled": 0, "bike_id": "07d68a1e29088c0dc0ed8877da60f962", "fusion_lon": 0.0, "lon": -77.02477883333333}, {"lat": 38.895840166666666, "type": "electric_scooter", "rental_uris": {"android": "https://dc.lft.to/lastmile_qr_scan", "ios": "https://dc.lft.to/lastmile_qr_scan"}, "fusion_lat": 0.0, "name": "5e61a0641db95938b66c96a981552384", "is_reserved": 0, "is_disabled": 0, "bike_id": "5e61a0641db95938b66c96a981552384", "fusion_lon": 0.0, "lon": -76.98317583333333}, {"lat": 38.9108545, "type": "electric_bike", "rental_uris": {"android": "https://dc.lft.to/lastmile_qr_scan", "ios": "https://dc.lft.to/lastmile_qr_scan"}, "fusion_lat": 0.0, "name": "bc3becf733c4621a6ba08b92ac94318c", "is_reserved": 0, "is_disabled": 0, "bike_id": "bc3becf733c4621a6ba08b92ac94318c", "fusion_lon": 0.0, "lon": -76.98492883333333}, {"lat": 38.915282, "type": "electric_scooter", "rental_uris": {"android": "https://dc.lft.to/lastmile_qr_scan", "ios": "https://dc.lft.to/lastmile_qr_scan"}, "fusion_lat": 0.0, "name": "e4a9f23f0f46991b27e12ebb3866cb87", "is_reserved": 0, "is_disabled": 0, "bike_id": "e4a9f23f0f46991b27e12ebb3866cb87", "fusion_lon": 0.0, "lon": -77.04467516666666}, {"lat": 38.8757045, "type": "electric_scooter", "rental_uris": {"android": "https://dc.lft.to/lastmile_qr_scan", "ios": "https://dc.lft.to/lastmile_qr_scan"}, "fusion_lat": 0.0, "name": "3991314728de4b1d34565216573ed6c8", "is_reserved": 0, "is_disabled": 0, "bike_id": "3991314728de4b1d34565216573ed6c8", "fusion_lon": 0.0, "lon": -77.00545116666666}, {"lat": 38.906651, "type": "electric_scooter", "rental_uris": {"android": "https://dc.lft.to/lastmile_qr_scan", "ios": "https://dc.lft.to/lastmile_qr_scan"}, "fusion_lat": 0.0, "name": "030d8d9d67deb8eb157ecd7bdbc66364", "is_reserved": 0, "is_disabled": 0, "bike_id": "030d8d9d67deb8eb157ecd7bdbc66364", "fusion_lon": 0.0, "lon": -77.02710383333333}, {"lat": 38.90136966666667, "type": "electric_scooter", "rental_uris": {"android": "https://dc.lft.to/lastmile_qr_scan", "ios": "https://dc.lft.to/lastmile_qr_scan"}, "fusion_lat": 0.0, "name": "ad3a646261b00fa9212762b3b772c4c8", "is_reserved": 0, "is_disabled": 0, "bike_id": "ad3a646261b00fa9212762b3b772c4c8", "fusion_lon": 0.0, "lon": -77.0150265}, {"lat": 38.901471, "type": "electric_scooter", "rental_uris": {"android": "https://dc.lft.to/lastmile_qr_scan", "ios": "https://dc.lft.to/lastmile_qr_scan"}, "fusion_lat": 0.0, "name": "0153135cb0978b0ff99d26c31dd396a9", "is_reserved": 0, "is_disabled": 0, "bike_id": "0153135cb0978b0ff99d26c31dd396a9", "fusion_lon": 0.0, "lon": -77.061188}, {"lat": 38.8954575, "type": "electric_scooter", "rental_uris": {"android": "https://dc.lft.to/lastmile_qr_scan", "ios": "https://dc.lft.to/lastmile_qr_scan"}, "fusion_lat": 0.0, "name": "17e14db2ec6686ede9fd4df6fb77bf5d", "is_reserved": 0, "is_disabled": 0, "bike_id": "17e14db2ec6686ede9fd4df6fb77bf5d", "fusion_lon": 0.0, "lon": -77.01098216666666}, {"lat": 38.87477833333333, "type": "electric_scooter", "rental_uris": {"android": "https://dc.lft.to/lastmile_qr_scan", "ios": "https://dc.lft.to/lastmile_qr_scan"}, "fusion_lat": 0.0, "name": "f90401f74ce411c6c505ad5e015452c5", "is_reserved": 0, "is_disabled": 0, "bike_id": "f90401f74ce411c6c505ad5e015452c5", "fusion_lon": 0.0, "lon": -77.0060395}, {"lat": 38.907071, "type": "electric_scooter", "rental_uris": {"android": "https://dc.lft.to/lastmile_qr_scan", "ios": "https://dc.lft.to/lastmile_qr_scan"}, "fusion_lat": 0.0, "name": "4b79bea723eeab7307735d04f5debfaa", "is_reserved": 0, "is_disabled": 0, "bike_id": "4b79bea723eeab7307735d04f5debfaa", "fusion_lon": 0.0, "lon": -77.03188983333334}, {"lat": 38.89225166666667, "type": "electric_scooter", "rental_uris": {"android": "https://dc.lft.to/lastmile_qr_scan", "ios": "https://dc.lft.to/lastmile_qr_scan"}, "fusion_lat": 0.0, "name": "30d208885857f5fa435f457fb1f8ae0a", "is_reserved": 0, "is_disabled": 0, "bike_id": "30d208885857f5fa435f457fb1f8ae0a", "fusion_lon": 0.0, "lon": -77.045047}, {"lat": 38.89724433333333, "type": "electric_scooter", "rental_uris": {"android": "https://dc.lft.to/lastmile_qr_scan", "ios": "https://dc.lft.to/lastmile_qr_scan"}, "fusion_lat": 0.0, "name": "53eb7938d998ff1b4adcaa8d4afe0a21", "is_reserved": 0, "is_disabled": 0, "bike_id": "53eb7938d998ff1b4adcaa8d4afe0a21", "fusion_lon": 0.0, "lon": -77.01867383333334}, {"lat": 38.92849616666667, "type": "electric_scooter", "rental_uris": {"android": "https://dc.lft.to/lastmile_qr_scan", "ios": "https://dc.lft.to/lastmile_qr_scan"}, "fusion_lat": 0.0, "name": "dcb49de065541b96cb99a71107aa572c", "is_reserved": 0, "is_disabled": 0, "bike_id": "dcb49de065541b96cb99a71107aa572c", "fusion_lon": 0.0, "lon": -77.032852}, {"lat": 38.935133, "type": "electric_bike", "rental_uris": {"android": "https://dc.lft.to/lastmile_qr_scan", "ios": "https://dc.lft.to/lastmile_qr_scan"}, "fusion_lat": 0.0, "name": "79d90991defc30af0d86b7278da90eba", "is_reserved": 0, "is_disabled": 0, "bike_id": "79d90991defc30af0d86b7278da90eba", "fusion_lon": 0.0, "lon": -76.983474}, {"lat": 38.900217, "type": "electric_scooter", "rental_uris": {"android": "https://dc.lft.to/lastmile_qr_scan", "ios": "https://dc.lft.to/lastmile_qr_scan"}, "fusion_lat": 0.0, "name": "983bdbff437ca4159c51f1594f9e1af6", "is_reserved": 0, "is_disabled": 0, "bike_id": "983bdbff437ca4159c51f1594f9e1af6", "fusion_lon": 0.0, "lon": -76.99140516666667}, {"lat": 38.937094, "type": "electric_scooter", "rental_uris": {"android": "https://dc.lft.to/lastmile_qr_scan", "ios": "https://dc.lft.to/lastmile_qr_scan"}, "fusion_lat": 0.0, "name": "e02bf90fcabf9c2dafa15311e048299a", "is_reserved": 0, "is_disabled": 0, "bike_id": "e02bf90fcabf9c2dafa15311e048299a", "fusion_lon": 0.0, "lon": -77.03637983333333}, {"lat": 38.96233566666667, "type": "electric_bike", "rental_uris": {"android": "https://dc.lft.to/lastmile_qr_scan", "ios": "https://dc.lft.to/lastmile_qr_scan"}, "fusion_lat": 0.0, "name": "951946611519fd06830bc2368abd58da", "is_reserved": 0, "is_disabled": 0, "bike_id": "951946611519fd06830bc2368abd58da", "fusion_lon": 0.0, "lon": -76.92800466666667}, {"lat": 38.9159665, "type": "electric_scooter", "rental_uris": {"android": "https://dc.lft.to/lastmile_qr_scan", "ios": "https://dc.lft.to/lastmile_qr_scan"}, "fusion_lat": 0.0, "name": "748817a354245827cac9eb3444249272", "is_reserved": 0, "is_disabled": 0, "bike_id": "748817a354245827cac9eb3444249272", "fusion_lon": 0.0, "lon": -77.04904616666667}, {"lat": 38.946631333333336, "type": "electric_bike", "rental_uris": {"android": "https://dc.lft.to/lastmile_qr_scan", "ios": "https://dc.lft.to/lastmile_qr_scan"}, "fusion_lat": 0.0, "name": "3d47cadcdb6239ca85d258642d1c14ea", "is_reserved": 0, "is_disabled": 0, "bike_id": "3d47cadcdb6239ca85d258642d1c14ea", "fusion_lon": 0.0, "lon": -76.95672783333333}, {"lat": 38.94012266666667, "type": "electric_scooter", "rental_uris": {"android": "https://dc.lft.to/lastmile_qr_scan", "ios": "https://dc.lft.to/lastmile_qr_scan"}, "fusion_lat": 0.0, "name": "042eef85e4b083010c2838cdee7966bc", "is_reserved": 0, "is_disabled": 0, "bike_id": "042eef85e4b083010c2838cdee7966bc", "fusion_lon": 0.0, "lon": -77.02536283333333}, {"lat": 38.907249666666665, "type": "electric_scooter", "rental_uris": {"android": "https://dc.lft.to/lastmile_qr_scan", "ios": "https://dc.lft.to/lastmile_qr_scan"}, "fusion_lat": 0.0, "name": "b4f08481c0c5c7d16b01974ba36edc5a", "is_reserved": 0, "is_disabled": 0, "bike_id": "b4f08481c0c5c7d16b01974ba36edc5a", "fusion_lon": 0.0, "lon": -77.0113695}, {"lat": 38.94744033333333, "type": "electric_scooter", "rental_uris": {"android": "https://dc.lft.to/lastmile_qr_scan", "ios": "https://dc.lft.to/lastmile_qr_scan"}, "fusion_lat": 0.0, "name": "60cb9e6ac96449a3596659215641ea26", "is_reserved": 0, "is_disabled": 0, "bike_id": "60cb9e6ac96449a3596659215641ea26", "fusion_lon": 0.0, "lon": -77.03285666666666}, {"lat": 38.916964666666665, "type": "electric_scooter", "rental_uris": {"android": "https://dc.lft.to/lastmile_qr_scan", "ios": "https://dc.lft.to/lastmile_qr_scan"}, "fusion_lat": 0.0, "name": "a4ee2132c518b0f712917a5836bb4b1c", "is_reserved": 0, "is_disabled": 0, "bike_id": "a4ee2132c518b0f712917a5836bb4b1c", "fusion_lon": 0.0, "lon": -77.02737466666666}, {"lat": 38.887241333333336, "type": "electric_scooter", "rental_uris": {"android": "https://dc.lft.to/lastmile_qr_scan", "ios": "https://dc.lft.to/lastmile_qr_scan"}, "fusion_lat": 0.0, "name": "b3a07c993f2a4918289abe86681fe042", "is_reserved": 0, "is_disabled": 0, "bike_id": "b3a07c993f2a4918289abe86681fe042", "fusion_lon": 0.0, "lon": -77.0213745}, {"lat": 38.913971333333336, "type": "electric_scooter", "rental_uris": {"android": "https://dc.lft.to/lastmile_qr_scan", "ios": "https://dc.lft.to/lastmile_qr_scan"}, "fusion_lat": 0.0, "name": "df377fe2f1fff9c6d4a63d092db397d8", "is_reserved": 0, "is_disabled": 0, "bike_id": "df377fe2f1fff9c6d4a63d092db397d8", "fusion_lon": 0.0, "lon": -77.0248835}, {"lat": 38.91566483333333, "type": "electric_scooter", "rental_uris": {"android": "https://dc.lft.to/lastmile_qr_scan", "ios": "https://dc.lft.to/lastmile_qr_scan"}, "fusion_lat": 0.0, "name": "1fdc5ef506e19dbe8d31d9feb0b2cb96", "is_reserved": 0, "is_disabled": 0, "bike_id": "1fdc5ef506e19dbe8d31d9feb0b2cb96", "fusion_lon": 0.0, "lon": -77.036429}, {"lat": 38.91857533333334, "type": "electric_scooter", "rental_uris": {"android": "https://dc.lft.to/lastmile_qr_scan", "ios": "https://dc.lft.to/lastmile_qr_scan"}, "fusion_lat": 0.0, "name": "4cf5a3974f8b876232b6ded0b95e20dc", "is_reserved": 0, "is_disabled": 0, "bike_id": "4cf5a3974f8b876232b6ded0b95e20dc", "fusion_lon": 0.0, "lon": -77.04176816666667}, {"lat": 38.9210675, "type": "electric_scooter", "rental_uris": {"android": "https://dc.lft.to/lastmile_qr_scan", "ios": "https://dc.lft.to/lastmile_qr_scan"}, "fusion_lat": 0.0, "name": "f7ff938e99bdf5f8bc362fb1c824df0c", "is_reserved": 0, "is_disabled": 0, "bike_id": "f7ff938e99bdf5f8bc362fb1c824df0c", "fusion_lon": 0.0, "lon": -77.0437985}, {"lat": 38.876069333333334, "type": "electric_scooter", "rental_uris": {"android": "https://dc.lft.to/lastmile_qr_scan", "ios": "https://dc.lft.to/lastmile_qr_scan"}, "fusion_lat": 0.0, "name": "e6d8ef10367f8e987e7163377a70cd3b", "is_reserved": 0, "is_disabled": 0, "bike_id": "e6d8ef10367f8e987e7163377a70cd3b", "fusion_lon": 0.0, "lon": -77.00603483333333}, {"lat": 38.887434666666664, "type": "electric_scooter", "rental_uris": {"android": "https://dc.lft.to/lastmile_qr_scan", "ios": "https://dc.lft.to/lastmile_qr_scan"}, "fusion_lat": 0.0, "name": "49090d442d7ce541522fdb8dd86e6551", "is_reserved": 0, "is_disabled": 0, "bike_id": "49090d442d7ce541522fdb8dd86e6551", "fusion_lon": 0.0, "lon": -77.01408266666667}, {"lat": 38.92028583333333, "type": "electric_scooter", "rental_uris": {"android": "https://dc.lft.to/lastmile_qr_scan", "ios": "https://dc.lft.to/lastmile_qr_scan"}, "fusion_lat": 0.0, "name": "5ba759d70eae0afcaaa1a721c02ceb97", "is_reserved": 0, "is_disabled": 0, "bike_id": "5ba759d70eae0afcaaa1a721c02ceb97", "fusion_lon": 0.0, "lon": -76.98989583333334}, {"lat": 38.9079295, "type": "electric_scooter", "rental_uris": {"android": "https://dc.lft.to/lastmile_qr_scan", "ios": "https://dc.lft.to/lastmile_qr_scan"}, "fusion_lat": 0.0, "name": "fe60eeb80d1a39cf8cd0b5545898faa4", "is_reserved": 0, "is_disabled": 0, "bike_id": "fe60eeb80d1a39cf8cd0b5545898faa4", "fusion_lon": 0.0, "lon": -77.03200583333333}, {"lat": 38.8696305, "type": "electric_scooter", "rental_uris": {"android": "https://dc.lft.to/lastmile_qr_scan", "ios": "https://dc.lft.to/lastmile_qr_scan"}, "fusion_lat": 0.0, "name": "d27edb186c4f07ead092e6c59a3356e4", "is_reserved": 0, "is_disabled": 0, "bike_id": "d27edb186c4f07ead092e6c59a3356e4", "fusion_lon": 0.0, "lon": -77.0137765}, {"lat": 38.921746, "type": "electric_scooter", "rental_uris": {"android": "https://dc.lft.to/lastmile_qr_scan", "ios": "https://dc.lft.to/lastmile_qr_scan"}, "fusion_lat": 0.0, "name": "0509c609cff3dd1ec642679920884b0f", "is_reserved": 0, "is_disabled": 0, "bike_id": "0509c609cff3dd1ec642679920884b0f", "fusion_lon": 0.0, "lon": -77.03835116666667}, {"lat": 38.934468, "type": "electric_scooter", "rental_uris": {"android": "https://dc.lft.to/lastmile_qr_scan", "ios": "https://dc.lft.to/lastmile_qr_scan"}, "fusion_lat": 0.0, "name": "7545b7616dcc5d3c5f66853e6490c1f7", "is_reserved": 0, "is_disabled": 0, "bike_id": "7545b7616dcc5d3c5f66853e6490c1f7", "fusion_lon": 0.0, "lon": -77.03874833333333}, {"lat": 38.90533083333333, "type": "electric_scooter", "rental_uris": {"android": "https://dc.lft.to/lastmile_qr_scan", "ios": "https://dc.lft.to/lastmile_qr_scan"}, "fusion_lat": 0.0, "name": "5b6da2ca4b559c979bac13d12c14e7cc", "is_reserved": 0, "is_disabled": 0, "bike_id": "5b6da2ca4b559c979bac13d12c14e7cc", "fusion_lon": 0.0, "lon": -77.00590633333333}, {"lat": 38.895554833333335, "type": "electric_scooter", "rental_uris": {"android": "https://dc.lft.to/lastmile_qr_scan", "ios": "https://dc.lft.to/lastmile_qr_scan"}, "fusion_lat": 0.0, "name": "5b66de1e1e2c42f1f79db037dd43853b", "is_reserved": 0, "is_disabled": 0, "bike_id": "5b66de1e1e2c42f1f79db037dd43853b", "fusion_lon": 0.0, "lon": -76.94875783333333}, {"lat": 38.909046000000004, "type": "electric_scooter", "rental_uris": {"android": "https://dc.lft.to/lastmile_qr_scan", "ios": "https://dc.lft.to/lastmile_qr_scan"}, "fusion_lat": 0.0, "name": "870683fcb9cefeb676ad55cdfcb474d1", "is_reserved": 0, "is_disabled": 0, "bike_id": "870683fcb9cefeb676ad55cdfcb474d1", "fusion_lon": 0.0, "lon": -76.9996255}, {"lat": 38.90799066666666, "type": "electric_scooter", "rental_uris": {"android": "https://dc.lft.to/lastmile_qr_scan", "ios": "https://dc.lft.to/lastmile_qr_scan"}, "fusion_lat": 0.0, "name": "29af2e8100c08ec73815cfcdb065741a", "is_reserved": 0, "is_disabled": 0, "bike_id": "29af2e8100c08ec73815cfcdb065741a", "fusion_lon": 0.0, "lon": -77.02963116666666}, {"lat": 38.9734595, "type": "electric_scooter", "rental_uris": {"android": "https://dc.lft.to/lastmile_qr_scan", "ios": "https://dc.lft.to/lastmile_qr_scan"}, "fusion_lat": 0.0, "name": "d56baa943bfd91720802b33387747e70", "is_reserved": 0, "is_disabled": 0, "bike_id": "d56baa943bfd91720802b33387747e70", "fusion_lon": 0.0, "lon": -77.0278655}, {"lat": 38.910237333333335, "type": "electric_scooter", "rental_uris": {"android": "https://dc.lft.to/lastmile_qr_scan", "ios": "https://dc.lft.to/lastmile_qr_scan"}, "fusion_lat": 0.0, "name": "27f0869ac744f6636082970c9f448510", "is_reserved": 0, "is_disabled": 0, "bike_id": "27f0869ac744f6636082970c9f448510", "fusion_lon": 0.0, "lon": -77.03846733333333}, {"lat": 38.905349, "type": "electric_bike", "rental_uris": {"android": "https://dc.lft.to/lastmile_qr_scan", "ios": "https://dc.lft.to/lastmile_qr_scan"}, "fusion_lat": 0.0, "name": "9d9b3b42579604b570600c2926b1ca7d", "is_reserved": 0, "is_disabled": 0, "bike_id": "9d9b3b42579604b570600c2926b1ca7d", "fusion_lon": 0.0, "lon": -76.99804433333334}, {"lat": 38.901469, "type": "electric_scooter", "rental_uris": {"android": "https://dc.lft.to/lastmile_qr_scan", "ios": "https://dc.lft.to/lastmile_qr_scan"}, "fusion_lat": 0.0, "name": "7f20e489cb00ae5fd6a31809fc30d9c6", "is_reserved": 0, "is_disabled": 0, "bike_id": "7f20e489cb00ae5fd6a31809fc30d9c6", "fusion_lon": 0.0, "lon": -77.0228695}, {"lat": 38.900213666666666, "type": "electric_scooter", "rental_uris": {"android": "https://dc.lft.to/lastmile_qr_scan", "ios": "https://dc.lft.to/lastmile_qr_scan"}, "fusion_lat": 0.0, "name": "a7554977934f4a15f06e2a8b626a6d78", "is_reserved": 0, "is_disabled": 0, "bike_id": "a7554977934f4a15f06e2a8b626a6d78", "fusion_lon": 0.0, "lon": -76.998485}, {"lat": 38.898801, "type": "electric_scooter", "rental_uris": {"android": "https://dc.lft.to/lastmile_qr_scan", "ios": "https://dc.lft.to/lastmile_qr_scan"}, "fusion_lat": 0.0, "name": "8f74d8562206cda70019e1400210951a", "is_reserved": 0, "is_disabled": 0, "bike_id": "8f74d8562206cda70019e1400210951a", "fusion_lon": 0.0, "lon": -77.03955616666667}, {"lat": 38.90034433333334, "type": "electric_scooter", "rental_uris": {"android": "https://dc.lft.to/lastmile_qr_scan", "ios": "https://dc.lft.to/lastmile_qr_scan"}, "fusion_lat": 0.0, "name": "68687c55055ed5d7b8e8e91e0e5c8a94", "is_reserved": 0, "is_disabled": 0, "bike_id": "68687c55055ed5d7b8e8e91e0e5c8a94", "fusion_lon": 0.0, "lon": -76.99641516666667}, {"lat": 38.87187083333333, "type": "electric_scooter", "rental_uris": {"android": "https://dc.lft.to/lastmile_qr_scan", "ios": "https://dc.lft.to/lastmile_qr_scan"}, "fusion_lat": 0.0, "name": "201be9822cec0607fcb01c24ac3fbcf7", "is_reserved": 0, "is_disabled": 0, "bike_id": "201be9822cec0607fcb01c24ac3fbcf7", "fusion_lon": 0.0, "lon": -77.00583983333334}, {"lat": 38.89832233333333, "type": "electric_scooter", "rental_uris": {"android": "https://dc.lft.to/lastmile_qr_scan", "ios": "https://dc.lft.to/lastmile_qr_scan"}, "fusion_lat": 0.0, "name": "3e75805b9e8d9171032da8eab591b512", "is_reserved": 0, "is_disabled": 0, "bike_id": "3e75805b9e8d9171032da8eab591b512", "fusion_lon": 0.0, "lon": -77.02226716666667}, {"lat": 38.896128833333336, "type": "electric_scooter", "rental_uris": {"android": "https://dc.lft.to/lastmile_qr_scan", "ios": "https://dc.lft.to/lastmile_qr_scan"}, "fusion_lat": 0.0, "name": "bb3e688541849d7bcb231417e7199d25", "is_reserved": 0, "is_disabled": 0, "bike_id": "bb3e688541849d7bcb231417e7199d25", "fusion_lon": 0.0, "lon": -77.01332683333334}, {"lat": 38.897134, "type": "electric_scooter", "rental_uris": {"android": "https://dc.lft.to/lastmile_qr_scan", "ios": "https://dc.lft.to/lastmile_qr_scan"}, "fusion_lat": 0.0, "name": "199037e51f8a5feed58282bee5ee324b", "is_reserved": 0, "is_disabled": 0, "bike_id": "199037e51f8a5feed58282bee5ee324b", "fusion_lon": 0.0, "lon": -77.007983}, {"lat": 38.91189333333333, "type": "electric_scooter", "rental_uris": {"android": "https://dc.lft.to/lastmile_qr_scan", "ios": "https://dc.lft.to/lastmile_qr_scan"}, "fusion_lat": 0.0, "name": "02fdd9d81649abe2c1d1bfbf00cdab6b", "is_reserved": 0, "is_disabled": 0, "bike_id": "02fdd9d81649abe2c1d1bfbf00cdab6b", "fusion_lon": 0.0, "lon": -77.048223}, {"lat": 38.919574833333336, "type": "electric_scooter", "rental_uris": {"android": "https://dc.lft.to/lastmile_qr_scan", "ios": "https://dc.lft.to/lastmile_qr_scan"}, "fusion_lat": 0.0, "name": "7991cff3b2ca596aabf87edfea826c7e", "is_reserved": 0, "is_disabled": 0, "bike_id": "7991cff3b2ca596aabf87edfea826c7e", "fusion_lon": 0.0, "lon": -77.01210366666666}, {"lat": 38.876837333333334, "type": "electric_scooter", "rental_uris": {"android": "https://dc.lft.to/lastmile_qr_scan", "ios": "https://dc.lft.to/lastmile_qr_scan"}, "fusion_lat": 0.0, "name": "6bb762e26b15f55cb61c965e310ee74c", "is_reserved": 0, "is_disabled": 0, "bike_id": "6bb762e26b15f55cb61c965e310ee74c", "fusion_lon": 0.0, "lon": -77.00574683333333}, {"lat": 38.905652833333335, "type": "electric_scooter", "rental_uris": {"android": "https://dc.lft.to/lastmile_qr_scan", "ios": "https://dc.lft.to/lastmile_qr_scan"}, "fusion_lat": 0.0, "name": "17005719aeb0f0fc30c0bbf436e5de5e", "is_reserved": 0, "is_disabled": 0, "bike_id": "17005719aeb0f0fc30c0bbf436e5de5e", "fusion_lon": 0.0, "lon": -77.04430316666667}, {"lat": 38.90528666666667, "type": "electric_scooter", "rental_uris": {"android": "https://dc.lft.to/lastmile_qr_scan", "ios": "https://dc.lft.to/lastmile_qr_scan"}, "fusion_lat": 0.0, "name": "134db698fe4e1f2e8d8bfe3b3b6e2ae6", "is_reserved": 0, "is_disabled": 0, "bike_id": "134db698fe4e1f2e8d8bfe3b3b6e2ae6", "fusion_lon": 0.0, "lon": -77.05644983333333}, {"lat": 38.90153433333333, "type": "electric_scooter", "rental_uris": {"android": "https://dc.lft.to/lastmile_qr_scan", "ios": "https://dc.lft.to/lastmile_qr_scan"}, "fusion_lat": 0.0, "name": "58100af99ba7f2beaf8523ebfdd3cb44", "is_reserved": 0, "is_disabled": 0, "bike_id": "58100af99ba7f2beaf8523ebfdd3cb44", "fusion_lon": 0.0, "lon": -76.98078916666667}, {"lat": 38.899944833333336, "type": "electric_scooter", "rental_uris": {"android": "https://dc.lft.to/lastmile_qr_scan", "ios": "https://dc.lft.to/lastmile_qr_scan"}, "fusion_lat": 0.0, "name": "1efd044a52530776add322d61285fab3", "is_reserved": 0, "is_disabled": 0, "bike_id": "1efd044a52530776add322d61285fab3", "fusion_lon": 0.0, "lon": -77.02322916666667}, {"lat": 38.900572, "type": "electric_scooter", "rental_uris": {"android": "https://dc.lft.to/lastmile_qr_scan", "ios": "https://dc.lft.to/lastmile_qr_scan"}, "fusion_lat": 0.0, "name": "42c2e00e656313c2e9aee8e77395cf9a", "is_reserved": 0, "is_disabled": 0, "bike_id": "42c2e00e656313c2e9aee8e77395cf9a", "fusion_lon": 0.0, "lon": -77.048872}, {"lat": 38.917228, "type": "electric_scooter", "rental_uris": {"android": "https://dc.lft.to/lastmile_qr_scan", "ios": "https://dc.lft.to/lastmile_qr_scan"}, "fusion_lat": 0.0, "name": "e119ece745b765b81add13a12d0b870b", "is_reserved": 0, "is_disabled": 0, "bike_id": "e119ece745b765b81add13a12d0b870b", "fusion_lon": 0.0, "lon": -77.03621516666666}, {"lat": 38.918008, "type": "electric_scooter", "rental_uris": {"android": "https://dc.lft.to/lastmile_qr_scan", "ios": "https://dc.lft.to/lastmile_qr_scan"}, "fusion_lat": 0.0, "name": "e599ed64f92c944628ee160f31e54769", "is_reserved": 0, "is_disabled": 0, "bike_id": "e599ed64f92c944628ee160f31e54769", "fusion_lon": 0.0, "lon": -77.02683766666667}, {"lat": 38.9296965, "type": "electric_scooter", "rental_uris": {"android": "https://dc.lft.to/lastmile_qr_scan", "ios": "https://dc.lft.to/lastmile_qr_scan"}, "fusion_lat": 0.0, "name": "23e9e0c412bb9a952a8b0201a5057306", "is_reserved": 0, "is_disabled": 0, "bike_id": "23e9e0c412bb9a952a8b0201a5057306", "fusion_lon": 0.0, "lon": -77.02796533333333}, {"lat": 38.915804, "type": "electric_scooter", "rental_uris": {"android": "https://dc.lft.to/lastmile_qr_scan", "ios": "https://dc.lft.to/lastmile_qr_scan"}, "fusion_lat": 0.0, "name": "ff14a074e3622270dc9fd22a884e66c4", "is_reserved": 0, "is_disabled": 0, "bike_id": "ff14a074e3622270dc9fd22a884e66c4", "fusion_lon": 0.0, "lon": -77.012301}, {"lat": 38.876414, "type": "electric_scooter", "rental_uris": {"android": "https://dc.lft.to/lastmile_qr_scan", "ios": "https://dc.lft.to/lastmile_qr_scan"}, "fusion_lat": 0.0, "name": "fb24b80f0a5c111d5b1e30650aa3c716", "is_reserved": 0, "is_disabled": 0, "bike_id": "fb24b80f0a5c111d5b1e30650aa3c716", "fusion_lon": 0.0, "lon": -77.00115566666666}, {"lat": 38.9194215, "type": "electric_scooter", "rental_uris": {"android": "https://dc.lft.to/lastmile_qr_scan", "ios": "https://dc.lft.to/lastmile_qr_scan"}, "fusion_lat": 0.0, "name": "9dbc9f7a3b20369f82f0f9246ac95fa5", "is_reserved": 0, "is_disabled": 0, "bike_id": "9dbc9f7a3b20369f82f0f9246ac95fa5", "fusion_lon": 0.0, "lon": -77.02502266666667}, {"lat": 38.918400166666665, "type": "electric_scooter", "rental_uris": {"android": "https://dc.lft.to/lastmile_qr_scan", "ios": "https://dc.lft.to/lastmile_qr_scan"}, "fusion_lat": 0.0, "name": "b140ac77b50e1a6cdf981a2144d4e625", "is_reserved": 0, "is_disabled": 0, "bike_id": "b140ac77b50e1a6cdf981a2144d4e625", "fusion_lon": 0.0, "lon": -77.048287}, {"lat": 38.91979216666667, "type": "electric_scooter", "rental_uris": {"android": "https://dc.lft.to/lastmile_qr_scan", "ios": "https://dc.lft.to/lastmile_qr_scan"}, "fusion_lat": 0.0, "name": "1b63717055963a8cc6d5d8ab7204d367", "is_reserved": 0, "is_disabled": 0, "bike_id": "1b63717055963a8cc6d5d8ab7204d367", "fusion_lon": 0.0, "lon": -77.04170616666667}, {"lat": 38.92336933333333, "type": "electric_scooter", "rental_uris": {"android": "https://dc.lft.to/lastmile_qr_scan", "ios": "https://dc.lft.to/lastmile_qr_scan"}, "fusion_lat": 0.0, "name": "6711cb50a8843c08644848754e2e57bc", "is_reserved": 0, "is_disabled": 0, "bike_id": "6711cb50a8843c08644848754e2e57bc", "fusion_lon": 0.0, "lon": -77.00916}, {"lat": 38.9030365, "type": "electric_scooter", "rental_uris": {"android": "https://dc.lft.to/lastmile_qr_scan", "ios": "https://dc.lft.to/lastmile_qr_scan"}, "fusion_lat": 0.0, "name": "d234adb7d4e946907738444254e1117f", "is_reserved": 0, "is_disabled": 0, "bike_id": "d234adb7d4e946907738444254e1117f", "fusion_lon": 0.0, "lon": -77.06118616666667}, {"lat": 38.921214, "type": "electric_scooter", "rental_uris": {"android": "https://dc.lft.to/lastmile_qr_scan", "ios": "https://dc.lft.to/lastmile_qr_scan"}, "fusion_lat": 0.0, "name": "1cb054f57df9787e685e32816abf08c7", "is_reserved": 0, "is_disabled": 0, "bike_id": "1cb054f57df9787e685e32816abf08c7", "fusion_lon": 0.0, "lon": -77.02529133333333}, {"lat": 38.87836166666666, "type": "electric_scooter", "rental_uris": {"android": "https://dc.lft.to/lastmile_qr_scan", "ios": "https://dc.lft.to/lastmile_qr_scan"}, "fusion_lat": 0.0, "name": "be1a8953469af7b678fb7ce4581b1d91", "is_reserved": 0, "is_disabled": 0, "bike_id": "be1a8953469af7b678fb7ce4581b1d91", "fusion_lon": 0.0, "lon": -77.00586183333333}, {"lat": 38.90351, "type": "electric_scooter", "rental_uris": {"android": "https://dc.lft.to/lastmile_qr_scan", "ios": "https://dc.lft.to/lastmile_qr_scan"}, "fusion_lat": 0.0, "name": "617b366ac2758f14b8beb7c6d2af64e1", "is_reserved": 0, "is_disabled": 0, "bike_id": "617b366ac2758f14b8beb7c6d2af64e1", "fusion_lon": 0.0, "lon": -77.0173345}, {"lat": 38.961447, "type": "electric_scooter", "rental_uris": {"android": "https://dc.lft.to/lastmile_qr_scan", "ios": "https://dc.lft.to/lastmile_qr_scan"}, "fusion_lat": 0.0, "name": "71da5eb4c7c60a81f408d9826fa35b15", "is_reserved": 0, "is_disabled": 0, "bike_id": "71da5eb4c7c60a81f408d9826fa35b15", "fusion_lon": 0.0, "lon": -77.0281555}, {"lat": 38.994421833333334, "type": "electric_bike", "rental_uris": {"android": "https://dc.lft.to/lastmile_qr_scan", "ios": "https://dc.lft.to/lastmile_qr_scan"}, "fusion_lat": 0.0, "name": "c4cc87d0163a387f35c78cadeb394955", "is_reserved": 0, "is_disabled": 0, "bike_id": "c4cc87d0163a387f35c78cadeb394955", "fusion_lon": 0.0, "lon": -76.99589433333334}, {"lat": 38.89968566666667, "type": "electric_scooter", "rental_uris": {"android": "https://dc.lft.to/lastmile_qr_scan", "ios": "https://dc.lft.to/lastmile_qr_scan"}, "fusion_lat": 0.0, "name": "c2bac4984af9d95a68b3aab789f81ba1", "is_reserved": 0, "is_disabled": 0, "bike_id": "c2bac4984af9d95a68b3aab789f81ba1", "fusion_lon": 0.0, "lon": -77.027466}, {"lat": 38.90217, "type": "electric_scooter", "rental_uris": {"android": "https://dc.lft.to/lastmile_qr_scan", "ios": "https://dc.lft.to/lastmile_qr_scan"}, "fusion_lat": 0.0, "name": "4f7c228252e88c390b817fcd1ece9eed", "is_reserved": 0, "is_disabled": 0, "bike_id": "4f7c228252e88c390b817fcd1ece9eed", "fusion_lon": 0.0, "lon": -77.04570816666667}, {"lat": 38.917457166666665, "type": "electric_scooter", "rental_uris": {"android": "https://dc.lft.to/lastmile_qr_scan", "ios": "https://dc.lft.to/lastmile_qr_scan"}, "fusion_lat": 0.0, "name": "397c8fbdb93efb8f1d45a186e411bdfe", "is_reserved": 0, "is_disabled": 0, "bike_id": "397c8fbdb93efb8f1d45a186e411bdfe", "fusion_lon": 0.0, "lon": -77.06941583333334}, {"lat": 38.936962333333334, "type": "electric_scooter", "rental_uris": {"android": "https://dc.lft.to/lastmile_qr_scan", "ios": "https://dc.lft.to/lastmile_qr_scan"}, "fusion_lat": 0.0, "name": "669e12f51ace195ecebce682c752bdfe", "is_reserved": 0, "is_disabled": 0, "bike_id": "669e12f51ace195ecebce682c752bdfe", "fusion_lon": 0.0, "lon": -77.02411083333334}, {"lat": 38.92092366666667, "type": "electric_scooter", "rental_uris": {"android": "https://dc.lft.to/lastmile_qr_scan", "ios": "https://dc.lft.to/lastmile_qr_scan"}, "fusion_lat": 0.0, "name": "8fba076d4514bb8688928521a71700c1", "is_reserved": 0, "is_disabled": 0, "bike_id": "8fba076d4514bb8688928521a71700c1", "fusion_lon": 0.0, "lon": -77.02529116666666}, {"lat": 38.91773166666667, "type": "electric_scooter", "rental_uris": {"android": "https://dc.lft.to/lastmile_qr_scan", "ios": "https://dc.lft.to/lastmile_qr_scan"}, "fusion_lat": 0.0, "name": "1f170013e5e72b2ef7fdf348834cfc87", "is_reserved": 0, "is_disabled": 0, "bike_id": "1f170013e5e72b2ef7fdf348834cfc87", "fusion_lon": 0.0, "lon": -77.0318445}, {"lat": 38.87194133333333, "type": "electric_scooter", "rental_uris": {"android": "https://dc.lft.to/lastmile_qr_scan", "ios": "https://dc.lft.to/lastmile_qr_scan"}, "fusion_lat": 0.0, "name": "2489c9dfe96d257634cc25f51955fd1b", "is_reserved": 0, "is_disabled": 0, "bike_id": "2489c9dfe96d257634cc25f51955fd1b", "fusion_lon": 0.0, "lon": -77.009399}, {"lat": 38.87399883333333, "type": "electric_scooter", "rental_uris": {"android": "https://dc.lft.to/lastmile_qr_scan", "ios": "https://dc.lft.to/lastmile_qr_scan"}, "fusion_lat": 0.0, "name": "2fab091b5f776ca6c433320edc5ad7fb", "is_reserved": 0, "is_disabled": 0, "bike_id": "2fab091b5f776ca6c433320edc5ad7fb", "fusion_lon": 0.0, "lon": -77.0003235}, {"lat": 38.87453, "type": "electric_scooter", "rental_uris": {"android": "https://dc.lft.to/lastmile_qr_scan", "ios": "https://dc.lft.to/lastmile_qr_scan"}, "fusion_lat": 0.0, "name": "ad8c12e3fe3ea85a153fa297c6a3d334", "is_reserved": 0, "is_disabled": 0, "bike_id": "ad8c12e3fe3ea85a153fa297c6a3d334", "fusion_lon": 0.0, "lon": -77.00548083333334}, {"lat": 38.9275365, "type": "electric_scooter", "rental_uris": {"android": "https://dc.lft.to/lastmile_qr_scan", "ios": "https://dc.lft.to/lastmile_qr_scan"}, "fusion_lat": 0.0, "name": "86f0bc85aa131c6f60608444ec48c2cc", "is_reserved": 0, "is_disabled": 0, "bike_id": "86f0bc85aa131c6f60608444ec48c2cc", "fusion_lon": 0.0, "lon": -77.03690833333333}, {"lat": 38.89782533333333, "type": "electric_scooter", "rental_uris": {"android": "https://dc.lft.to/lastmile_qr_scan", "ios": "https://dc.lft.to/lastmile_qr_scan"}, "fusion_lat": 0.0, "name": "fe854c6375f04aecdd7926b01f13946c", "is_reserved": 0, "is_disabled": 0, "bike_id": "fe854c6375f04aecdd7926b01f13946c", "fusion_lon": 0.0, "lon": -77.03162416666666}, {"lat": 38.87489566666667, "type": "electric_scooter", "rental_uris": {"android": "https://dc.lft.to/lastmile_qr_scan", "ios": "https://dc.lft.to/lastmile_qr_scan"}, "fusion_lat": 0.0, "name": "d2229b8dac151f0070fdcffd8034c341", "is_reserved": 0, "is_disabled": 0, "bike_id": "d2229b8dac151f0070fdcffd8034c341", "fusion_lon": 0.0, "lon": -77.00280883333333}, {"lat": 38.9541145, "type": "electric_scooter", "rental_uris": {"android": "https://dc.lft.to/lastmile_qr_scan", "ios": "https://dc.lft.to/lastmile_qr_scan"}, "fusion_lat": 0.0, "name": "f37074646a74e7f50caefdff3eff1c46", "is_reserved": 0, "is_disabled": 0, "bike_id": "f37074646a74e7f50caefdff3eff1c46", "fusion_lon": 0.0, "lon": -77.02784233333334}, {"lat": 38.92883166666667, "type": "electric_scooter", "rental_uris": {"android": "https://dc.lft.to/lastmile_qr_scan", "ios": "https://dc.lft.to/lastmile_qr_scan"}, "fusion_lat": 0.0, "name": "5352a91be7336e004a50ed258fefa2fe", "is_reserved": 0, "is_disabled": 0, "bike_id": "5352a91be7336e004a50ed258fefa2fe", "fusion_lon": 0.0, "lon": -77.014085}, {"lat": 38.9092545, "type": "electric_scooter", "rental_uris": {"android": "https://dc.lft.to/lastmile_qr_scan", "ios": "https://dc.lft.to/lastmile_qr_scan"}, "fusion_lat": 0.0, "name": "c9ac32e55be39ea1b514b43aafd8f989", "is_reserved": 0, "is_disabled": 0, "bike_id": "c9ac32e55be39ea1b514b43aafd8f989", "fusion_lon": 0.0, "lon": -77.0308825}, {"lat": 38.91728883333333, "type": "electric_scooter", "rental_uris": {"android": "https://dc.lft.to/lastmile_qr_scan", "ios": "https://dc.lft.to/lastmile_qr_scan"}, "fusion_lat": 0.0, "name": "6a4c69675dbef0f839a78fc9ac54cc5d", "is_reserved": 0, "is_disabled": 0, "bike_id": "6a4c69675dbef0f839a78fc9ac54cc5d", "fusion_lon": 0.0, "lon": -77.01923816666667}, {"lat": 38.8872825, "type": "electric_scooter", "rental_uris": {"android": "https://dc.lft.to/lastmile_qr_scan", "ios": "https://dc.lft.to/lastmile_qr_scan"}, "fusion_lat": 0.0, "name": "ed4da8658f380cc8d1675bb34c15d498", "is_reserved": 0, "is_disabled": 0, "bike_id": "ed4da8658f380cc8d1675bb34c15d498", "fusion_lon": 0.0, "lon": -77.03182316666667}, {"lat": 38.86978833333333, "type": "electric_scooter", "rental_uris": {"android": "https://dc.lft.to/lastmile_qr_scan", "ios": "https://dc.lft.to/lastmile_qr_scan"}, "fusion_lat": 0.0, "name": "e4a7fcae17528b273ddfd5dc5f6d8cb2", "is_reserved": 0, "is_disabled": 0, "bike_id": "e4a7fcae17528b273ddfd5dc5f6d8cb2", "fusion_lon": 0.0, "lon": -77.013734}, {"lat": 38.922226333333334, "type": "electric_scooter", "rental_uris": {"android": "https://dc.lft.to/lastmile_qr_scan", "ios": "https://dc.lft.to/lastmile_qr_scan"}, "fusion_lat": 0.0, "name": "122daaa99be5ccb2ef9511a93b13a26a", "is_reserved": 0, "is_disabled": 0, "bike_id": "122daaa99be5ccb2ef9511a93b13a26a", "fusion_lon": 0.0, "lon": -77.04333966666667}, {"lat": 38.9104725, "type": "electric_scooter", "rental_uris": {"android": "https://dc.lft.to/lastmile_qr_scan", "ios": "https://dc.lft.to/lastmile_qr_scan"}, "fusion_lat": 0.0, "name": "7fa922895b5a1e7296ea7bca88fdc7e3", "is_reserved": 0, "is_disabled": 0, "bike_id": "7fa922895b5a1e7296ea7bca88fdc7e3", "fusion_lon": 0.0, "lon": -77.03844433333333}, {"lat": 38.8666925, "type": "electric_scooter", "rental_uris": {"android": "https://dc.lft.to/lastmile_qr_scan", "ios": "https://dc.lft.to/lastmile_qr_scan"}, "fusion_lat": 0.0, "name": "3c0746f794ffa3ecc4682eae575722ee", "is_reserved": 0, "is_disabled": 0, "bike_id": "3c0746f794ffa3ecc4682eae575722ee", "fusion_lon": 0.0, "lon": -76.988994}, {"lat": 38.92109966666666, "type": "electric_bike", "rental_uris": {"android": "https://dc.lft.to/lastmile_qr_scan", "ios": "https://dc.lft.to/lastmile_qr_scan"}, "fusion_lat": 0.0, "name": "2dba1dc872273f0225c341127211bcc2", "is_reserved": 0, "is_disabled": 0, "bike_id": "2dba1dc872273f0225c341127211bcc2", "fusion_lon": 0.0, "lon": -77.23676216666667}, {"lat": 38.939711, "type": "electric_scooter", "rental_uris": {"android": "https://dc.lft.to/lastmile_qr_scan", "ios": "https://dc.lft.to/lastmile_qr_scan"}, "fusion_lat": 0.0, "name": "400198e41351f945eb430ffba6abddb6", "is_reserved": 0, "is_disabled": 0, "bike_id": "400198e41351f945eb430ffba6abddb6", "fusion_lon": 0.0, "lon": -77.03681033333334}, {"lat": 38.87666133333333, "type": "electric_scooter", "rental_uris": {"android": "https://dc.lft.to/lastmile_qr_scan", "ios": "https://dc.lft.to/lastmile_qr_scan"}, "fusion_lat": 0.0, "name": "9c13257188d3eeecddd45056dde492c3", "is_reserved": 0, "is_disabled": 0, "bike_id": "9c13257188d3eeecddd45056dde492c3", "fusion_lon": 0.0, "lon": -77.0030915}, {"lat": 38.869820833333335, "type": "electric_bike", "rental_uris": {"android": "https://dc.lft.to/lastmile_qr_scan", "ios": "https://dc.lft.to/lastmile_qr_scan"}, "fusion_lat": 0.0, "name": "d6b7f1aae828e6f76690780253952a86", "is_reserved": 0, "is_disabled": 0, "bike_id": "d6b7f1aae828e6f76690780253952a86", "fusion_lon": 0.0, "lon": -77.013719}, {"lat": 38.897131333333334, "type": "electric_scooter", "rental_uris": {"android": "https://dc.lft.to/lastmile_qr_scan", "ios": "https://dc.lft.to/lastmile_qr_scan"}, "fusion_lat": 0.0, "name": "a88b94b6dc1c74ee3ca2a045ed85b856", "is_reserved": 0, "is_disabled": 0, "bike_id": "a88b94b6dc1c74ee3ca2a045ed85b856", "fusion_lon": 0.0, "lon": -77.0214885}, {"lat": 38.89223483333333, "type": "electric_scooter", "rental_uris": {"android": "https://dc.lft.to/lastmile_qr_scan", "ios": "https://dc.lft.to/lastmile_qr_scan"}, "fusion_lat": 0.0, "name": "0b6e72191c9293b8f4fff39f5709151b", "is_reserved": 0, "is_disabled": 0, "bike_id": "0b6e72191c9293b8f4fff39f5709151b", "fusion_lon": 0.0, "lon": -77.04894966666667}, {"lat": 38.8990095, "type": "electric_scooter", "rental_uris": {"android": "https://dc.lft.to/lastmile_qr_scan", "ios": "https://dc.lft.to/lastmile_qr_scan"}, "fusion_lat": 0.0, "name": "d0ec610bd413148a36773250c7ee637b", "is_reserved": 0, "is_disabled": 0, "bike_id": "d0ec610bd413148a36773250c7ee637b", "fusion_lon": 0.0, "lon": -77.02727733333333}, {"lat": 38.8876795, "type": "electric_scooter", "rental_uris": {"android": "https://dc.lft.to/lastmile_qr_scan", "ios": "https://dc.lft.to/lastmile_qr_scan"}, "fusion_lat": 0.0, "name": "9091c13bc3611e50c16105c31abd30d8", "is_reserved": 0, "is_disabled": 0, "bike_id": "9091c13bc3611e50c16105c31abd30d8", "fusion_lon": 0.0, "lon": -77.02369233333333}, {"lat": 38.9035715, "type": "electric_scooter", "rental_uris": {"android": "https://dc.lft.to/lastmile_qr_scan", "ios": "https://dc.lft.to/lastmile_qr_scan"}, "fusion_lat": 0.0, "name": "940ad702d5a26ed0ef0da6d2e0e0042b", "is_reserved": 0, "is_disabled": 0, "bike_id": "940ad702d5a26ed0ef0da6d2e0e0042b", "fusion_lon": 0.0, "lon": -77.02945966666667}, {"lat": 38.906447, "type": "electric_scooter", "rental_uris": {"android": "https://dc.lft.to/lastmile_qr_scan", "ios": "https://dc.lft.to/lastmile_qr_scan"}, "fusion_lat": 0.0, "name": "0545220c9fba0df2d725eee336b14d99", "is_reserved": 0, "is_disabled": 0, "bike_id": "0545220c9fba0df2d725eee336b14d99", "fusion_lon": 0.0, "lon": -77.0315865}, {"lat": 38.9218005, "type": "electric_scooter", "rental_uris": {"android": "https://dc.lft.to/lastmile_qr_scan", "ios": "https://dc.lft.to/lastmile_qr_scan"}, "fusion_lat": 0.0, "name": "c1a36cb8a133af5e995c37e09442a4a1", "is_reserved": 0, "is_disabled": 0, "bike_id": "c1a36cb8a133af5e995c37e09442a4a1", "fusion_lon": 0.0, "lon": -77.04348683333333}, {"lat": 38.954693, "type": "electric_scooter", "rental_uris": {"android": "https://dc.lft.to/lastmile_qr_scan", "ios": "https://dc.lft.to/lastmile_qr_scan"}, "fusion_lat": 0.0, "name": "9c1f246ba1224e5d7bd83a7a414b798f", "is_reserved": 0, "is_disabled": 0, "bike_id": "9c1f246ba1224e5d7bd83a7a414b798f", "fusion_lon": 0.0, "lon": -77.0091945}, {"lat": 38.92063783333333, "type": "electric_scooter", "rental_uris": {"android": "https://dc.lft.to/lastmile_qr_scan", "ios": "https://dc.lft.to/lastmile_qr_scan"}, "fusion_lat": 0.0, "name": "d0df1b4280c1a0513f7e46b71ebebf7e", "is_reserved": 0, "is_disabled": 0, "bike_id": "d0df1b4280c1a0513f7e46b71ebebf7e", "fusion_lon": 0.0, "lon": -77.03462233333333}, {"lat": 38.92882316666667, "type": "electric_scooter", "rental_uris": {"android": "https://dc.lft.to/lastmile_qr_scan", "ios": "https://dc.lft.to/lastmile_qr_scan"}, "fusion_lat": 0.0, "name": "e994ede2906378108864f11be64ca5a3", "is_reserved": 0, "is_disabled": 0, "bike_id": "e994ede2906378108864f11be64ca5a3", "fusion_lon": 0.0, "lon": -77.033179}, {"lat": 38.91802216666667, "type": "electric_scooter", "rental_uris": {"android": "https://dc.lft.to/lastmile_qr_scan", "ios": "https://dc.lft.to/lastmile_qr_scan"}, "fusion_lat": 0.0, "name": "383732ccd348d82b2612f0f8d573352c", "is_reserved": 0, "is_disabled": 0, "bike_id": "383732ccd348d82b2612f0f8d573352c", "fusion_lon": 0.0, "lon": -77.03626133333333}, {"lat": 38.99223166666667, "type": "electric_bike", "rental_uris": {"android": "https://dc.lft.to/lastmile_qr_scan", "ios": "https://dc.lft.to/lastmile_qr_scan"}, "fusion_lat": 0.0, "name": "1885e9a24930bcad01cfe1a27cf2ec4a", "is_reserved": 0, "is_disabled": 0, "bike_id": "1885e9a24930bcad01cfe1a27cf2ec4a", "fusion_lon": 0.0, "lon": -76.94419166666667}, {"lat": 38.92602466666666, "type": "electric_bike", "rental_uris": {"android": "https://dc.lft.to/lastmile_qr_scan", "ios": "https://dc.lft.to/lastmile_qr_scan"}, "fusion_lat": 0.0, "name": "715feb878e7a708f5e1494c53699406a", "is_reserved": 0, "is_disabled": 0, "bike_id": "715feb878e7a708f5e1494c53699406a", "fusion_lon": 0.0, "lon": -77.064317}, {"lat": 38.92693033333333, "type": "electric_scooter", "rental_uris": {"android": "https://dc.lft.to/lastmile_qr_scan", "ios": "https://dc.lft.to/lastmile_qr_scan"}, "fusion_lat": 0.0, "name": "db2bdbd63984c882fe8889f87cd9be7d", "is_reserved": 0, "is_disabled": 0, "bike_id": "db2bdbd63984c882fe8889f87cd9be7d", "fusion_lon": 0.0, "lon": -76.99765}, {"lat": 38.98938366666667, "type": "electric_bike", "rental_uris": {"android": "https://dc.lft.to/lastmile_qr_scan", "ios": "https://dc.lft.to/lastmile_qr_scan"}, "fusion_lat": 0.0, "name": "4ee5afc9abf932bd36f445c5bf831d49", "is_reserved": 0, "is_disabled": 0, "bike_id": "4ee5afc9abf932bd36f445c5bf831d49", "fusion_lon": 0.0, "lon": -77.1010875}, {"lat": 38.90530966666667, "type": "electric_scooter", "rental_uris": {"android": "https://dc.lft.to/lastmile_qr_scan", "ios": "https://dc.lft.to/lastmile_qr_scan"}, "fusion_lat": 0.0, "name": "e3a943210a9f4b727add03eeb2e0c0be", "is_reserved": 0, "is_disabled": 0, "bike_id": "e3a943210a9f4b727add03eeb2e0c0be", "fusion_lon": 0.0, "lon": -77.05639216666667}, {"lat": 38.9067795, "type": "electric_scooter", "rental_uris": {"android": "https://dc.lft.to/lastmile_qr_scan", "ios": "https://dc.lft.to/lastmile_qr_scan"}, "fusion_lat": 0.0, "name": "0699fdb9c785fcf67752a29017871715", "is_reserved": 0, "is_disabled": 0, "bike_id": "0699fdb9c785fcf67752a29017871715", "fusion_lon": 0.0, "lon": -77.03601866666666}, {"lat": 38.877406, "type": "electric_scooter", "rental_uris": {"android": "https://dc.lft.to/lastmile_qr_scan", "ios": "https://dc.lft.to/lastmile_qr_scan"}, "fusion_lat": 0.0, "name": "210d6fb659df64341397c319628e462c", "is_reserved": 0, "is_disabled": 0, "bike_id": "210d6fb659df64341397c319628e462c", "fusion_lon": 0.0, "lon": -76.97033583333334}, {"lat": 38.89229133333333, "type": "electric_scooter", "rental_uris": {"android": "https://dc.lft.to/lastmile_qr_scan", "ios": "https://dc.lft.to/lastmile_qr_scan"}, "fusion_lat": 0.0, "name": "649f3f53a719ab3f3b4478458b4c2ccd", "is_reserved": 0, "is_disabled": 0, "bike_id": "649f3f53a719ab3f3b4478458b4c2ccd", "fusion_lon": 0.0, "lon": -77.0487745}, {"lat": 38.923178, "type": "electric_scooter", "rental_uris": {"android": "https://dc.lft.to/lastmile_qr_scan", "ios": "https://dc.lft.to/lastmile_qr_scan"}, "fusion_lat": 0.0, "name": "e13081acd958312076b64e1396d271d8", "is_reserved": 0, "is_disabled": 0, "bike_id": "e13081acd958312076b64e1396d271d8", "fusion_lon": 0.0, "lon": -77.0289705}, {"lat": 38.93604366666667, "type": "electric_scooter", "rental_uris": {"android": "https://dc.lft.to/lastmile_qr_scan", "ios": "https://dc.lft.to/lastmile_qr_scan"}, "fusion_lat": 0.0, "name": "406f4841065a649f8311e0690c6991cc", "is_reserved": 0, "is_disabled": 0, "bike_id": "406f4841065a649f8311e0690c6991cc", "fusion_lon": 0.0, "lon": -77.05856833333333}, {"lat": 38.927498, "type": "electric_scooter", "rental_uris": {"android": "https://dc.lft.to/lastmile_qr_scan", "ios": "https://dc.lft.to/lastmile_qr_scan"}, "fusion_lat": 0.0, "name": "b17595f9d1c2567ae1f45ad523e78784", "is_reserved": 0, "is_disabled": 0, "bike_id": "b17595f9d1c2567ae1f45ad523e78784", "fusion_lon": 0.0, "lon": -77.033501}, {"lat": 38.919072166666666, "type": "electric_scooter", "rental_uris": {"android": "https://dc.lft.to/lastmile_qr_scan", "ios": "https://dc.lft.to/lastmile_qr_scan"}, "fusion_lat": 0.0, "name": "dbf6b5905e8e77d4efca0350e7422150", "is_reserved": 0, "is_disabled": 0, "bike_id": "dbf6b5905e8e77d4efca0350e7422150", "fusion_lon": 0.0, "lon": -77.03129583333333}, {"lat": 38.923613, "type": "electric_scooter", "rental_uris": {"android": "https://dc.lft.to/lastmile_qr_scan", "ios": "https://dc.lft.to/lastmile_qr_scan"}, "fusion_lat": 0.0, "name": "f11f95baa69978fd7feacc326c42b47e", "is_reserved": 0, "is_disabled": 0, "bike_id": "f11f95baa69978fd7feacc326c42b47e", "fusion_lon": 0.0, "lon": -77.02920383333333}, {"lat": 38.917070833333334, "type": "electric_scooter", "rental_uris": {"android": "https://dc.lft.to/lastmile_qr_scan", "ios": "https://dc.lft.to/lastmile_qr_scan"}, "fusion_lat": 0.0, "name": "b810ed02a69d6e9a2e6f1c86ade39019", "is_reserved": 0, "is_disabled": 0, "bike_id": "b810ed02a69d6e9a2e6f1c86ade39019", "fusion_lon": 0.0, "lon": -77.032485}, {"lat": 38.91026766666667, "type": "electric_scooter", "rental_uris": {"android": "https://dc.lft.to/lastmile_qr_scan", "ios": "https://dc.lft.to/lastmile_qr_scan"}, "fusion_lat": 0.0, "name": "c675c81e0bef15517cbd6f5b577204c1", "is_reserved": 0, "is_disabled": 0, "bike_id": "c675c81e0bef15517cbd6f5b577204c1", "fusion_lon": 0.0, "lon": -77.03449116666667}, {"lat": 38.89892583333334, "type": "electric_scooter", "rental_uris": {"android": "https://dc.lft.to/lastmile_qr_scan", "ios": "https://dc.lft.to/lastmile_qr_scan"}, "fusion_lat": 0.0, "name": "2bdaf5ac3980a5fe05601867b3f8460c", "is_reserved": 0, "is_disabled": 0, "bike_id": "2bdaf5ac3980a5fe05601867b3f8460c", "fusion_lon": 0.0, "lon": -76.98069266666667}, {"lat": 38.900042, "type": "electric_scooter", "rental_uris": {"android": "https://dc.lft.to/lastmile_qr_scan", "ios": "https://dc.lft.to/lastmile_qr_scan"}, "fusion_lat": 0.0, "name": "d1d6d251120653b3f47a217f74fa0c0f", "is_reserved": 0, "is_disabled": 0, "bike_id": "d1d6d251120653b3f47a217f74fa0c0f", "fusion_lon": 0.0, "lon": -77.00205633333333}, {"lat": 38.91745516666667, "type": "electric_scooter", "rental_uris": {"android": "https://dc.lft.to/lastmile_qr_scan", "ios": "https://dc.lft.to/lastmile_qr_scan"}, "fusion_lat": 0.0, "name": "b1b0c23198320076a8db720219d052e8", "is_reserved": 0, "is_disabled": 0, "bike_id": "b1b0c23198320076a8db720219d052e8", "fusion_lon": 0.0, "lon": -77.069385}, {"lat": 39.070413333333335, "type": "electric_bike", "rental_uris": {"android": "https://dc.lft.to/lastmile_qr_scan", "ios": "https://dc.lft.to/lastmile_qr_scan"}, "fusion_lat": 0.0, "name": "d4cfd949d977b48997e13f02ab055a05", "is_reserved": 0, "is_disabled": 0, "bike_id": "d4cfd949d977b48997e13f02ab055a05", "fusion_lon": 0.0, "lon": -77.11516516666667}, {"lat": 38.914852833333335, "type": "electric_scooter", "rental_uris": {"android": "https://dc.lft.to/lastmile_qr_scan", "ios": "https://dc.lft.to/lastmile_qr_scan"}, "fusion_lat": 0.0, "name": "ac1e80f742f366fdcc5b212ca69e7464", "is_reserved": 0, "is_disabled": 0, "bike_id": "ac1e80f742f366fdcc5b212ca69e7464", "fusion_lon": 0.0, "lon": -77.0423525}, {"lat": 38.924709666666665, "type": "electric_scooter", "rental_uris": {"android": "https://dc.lft.to/lastmile_qr_scan", "ios": "https://dc.lft.to/lastmile_qr_scan"}, "fusion_lat": 0.0, "name": "44c53d9f32a207d90723f73715be9155", "is_reserved": 0, "is_disabled": 0, "bike_id": "44c53d9f32a207d90723f73715be9155", "fusion_lon": 0.0, "lon": -77.02213816666666}, {"lat": 38.912302833333335, "type": "electric_scooter", "rental_uris": {"android": "https://dc.lft.to/lastmile_qr_scan", "ios": "https://dc.lft.to/lastmile_qr_scan"}, "fusion_lat": 0.0, "name": "a2a1a101016ac7087745a2ce9cc0e97c", "is_reserved": 0, "is_disabled": 0, "bike_id": "a2a1a101016ac7087745a2ce9cc0e97c", "fusion_lon": 0.0, "lon": -77.04886266666666}, {"lat": 38.91580316666666, "type": "electric_scooter", "rental_uris": {"android": "https://dc.lft.to/lastmile_qr_scan", "ios": "https://dc.lft.to/lastmile_qr_scan"}, "fusion_lat": 0.0, "name": "f3318007808e5f7def28fc698489cfe7", "is_reserved": 0, "is_disabled": 0, "bike_id": "f3318007808e5f7def28fc698489cfe7", "fusion_lon": 0.0, "lon": -77.0122595}, {"lat": 38.832467666666666, "type": "electric_bike", "rental_uris": {"android": "https://dc.lft.to/lastmile_qr_scan", "ios": "https://dc.lft.to/lastmile_qr_scan"}, "fusion_lat": 0.0, "name": "f59dec522afab8550bf20fde8d85fcc0", "is_reserved": 0, "is_disabled": 0, "bike_id": "f59dec522afab8550bf20fde8d85fcc0", "fusion_lon": 0.0, "lon": -77.00730733333333}, {"lat": 38.924424333333334, "type": "electric_scooter", "rental_uris": {"android": "https://dc.lft.to/lastmile_qr_scan", "ios": "https://dc.lft.to/lastmile_qr_scan"}, "fusion_lat": 0.0, "name": "5fc784360b36b78b82d29c80d0a79a18", "is_reserved": 0, "is_disabled": 0, "bike_id": "5fc784360b36b78b82d29c80d0a79a18", "fusion_lon": 0.0, "lon": -77.04020633333333}, {"lat": 38.923103, "type": "electric_scooter", "rental_uris": {"android": "https://dc.lft.to/lastmile_qr_scan", "ios": "https://dc.lft.to/lastmile_qr_scan"}, "fusion_lat": 0.0, "name": "713992c7f185c715205637af5c1f8d6f", "is_reserved": 0, "is_disabled": 0, "bike_id": "713992c7f185c715205637af5c1f8d6f", "fusion_lon": 0.0, "lon": -77.03405366666667}, {"lat": 38.89899916666667, "type": "electric_scooter", "rental_uris": {"android": "https://dc.lft.to/lastmile_qr_scan", "ios": "https://dc.lft.to/lastmile_qr_scan"}, "fusion_lat": 0.0, "name": "aeec0b7e25d593a188725a0caae981ef", "is_reserved": 0, "is_disabled": 0, "bike_id": "aeec0b7e25d593a188725a0caae981ef", "fusion_lon": 0.0, "lon": -76.94548983333334}, {"lat": 38.917549666666666, "type": "electric_scooter", "rental_uris": {"android": "https://dc.lft.to/lastmile_qr_scan", "ios": "https://dc.lft.to/lastmile_qr_scan"}, "fusion_lat": 0.0, "name": "aca99d6003bf81d90132d4cf71104901", "is_reserved": 0, "is_disabled": 0, "bike_id": "aca99d6003bf81d90132d4cf71104901", "fusion_lon": 0.0, "lon": -77.024032}, {"lat": 38.916562, "type": "electric_scooter", "rental_uris": {"android": "https://dc.lft.to/lastmile_qr_scan", "ios": "https://dc.lft.to/lastmile_qr_scan"}, "fusion_lat": 0.0, "name": "bf988fc6855c0949ccbfe711512232dc", "is_reserved": 0, "is_disabled": 0, "bike_id": "bf988fc6855c0949ccbfe711512232dc", "fusion_lon": 0.0, "lon": -77.04387033333333}, {"lat": 38.9144995, "type": "electric_scooter", "rental_uris": {"android": "https://dc.lft.to/lastmile_qr_scan", "ios": "https://dc.lft.to/lastmile_qr_scan"}, "fusion_lat": 0.0, "name": "27f1ed237e75de0ced89b747275ce59d", "is_reserved": 0, "is_disabled": 0, "bike_id": "27f1ed237e75de0ced89b747275ce59d", "fusion_lon": 0.0, "lon": -77.04172983333333}, {"lat": 38.94736366666667, "type": "electric_scooter", "rental_uris": {"android": "https://dc.lft.to/lastmile_qr_scan", "ios": "https://dc.lft.to/lastmile_qr_scan"}, "fusion_lat": 0.0, "name": "9ef3436cc5068a18a7ac8bdff953bb2f", "is_reserved": 0, "is_disabled": 0, "bike_id": "9ef3436cc5068a18a7ac8bdff953bb2f", "fusion_lon": 0.0, "lon": -77.01617183333333}, {"lat": 38.911507, "type": "electric_scooter", "rental_uris": {"android": "https://dc.lft.to/lastmile_qr_scan", "ios": "https://dc.lft.to/lastmile_qr_scan"}, "fusion_lat": 0.0, "name": "f5d825e0bc4da91bd5db3159ff8ca98e", "is_reserved": 0, "is_disabled": 0, "bike_id": "f5d825e0bc4da91bd5db3159ff8ca98e", "fusion_lon": 0.0, "lon": -77.03472233333333}, {"lat": 38.90494066666667, "type": "electric_scooter", "rental_uris": {"android": "https://dc.lft.to/lastmile_qr_scan", "ios": "https://dc.lft.to/lastmile_qr_scan"}, "fusion_lat": 0.0, "name": "ee8ef1fc8b3af633fe1a72cde79199fe", "is_reserved": 0, "is_disabled": 0, "bike_id": "ee8ef1fc8b3af633fe1a72cde79199fe", "fusion_lon": 0.0, "lon": -77.00716116666666}, {"lat": 38.91291666666667, "type": "electric_scooter", "rental_uris": {"android": "https://dc.lft.to/lastmile_qr_scan", "ios": "https://dc.lft.to/lastmile_qr_scan"}, "fusion_lat": 0.0, "name": "1c83e76971c156eb9753f0115e1a5851", "is_reserved": 0, "is_disabled": 0, "bike_id": "1c83e76971c156eb9753f0115e1a5851", "fusion_lon": 0.0, "lon": -77.02246683333334}, {"lat": 38.900743166666665, "type": "electric_scooter", "rental_uris": {"android": "https://dc.lft.to/lastmile_qr_scan", "ios": "https://dc.lft.to/lastmile_qr_scan"}, "fusion_lat": 0.0, "name": "ae7dd8d4e6c61e221d4b9cc0d8eecb66", "is_reserved": 0, "is_disabled": 0, "bike_id": "ae7dd8d4e6c61e221d4b9cc0d8eecb66", "fusion_lon": 0.0, "lon": -77.03377283333333}, {"lat": 38.90394916666666, "type": "electric_scooter", "rental_uris": {"android": "https://dc.lft.to/lastmile_qr_scan", "ios": "https://dc.lft.to/lastmile_qr_scan"}, "fusion_lat": 0.0, "name": "4efe5447f67338a3e9db73515e4c547c", "is_reserved": 0, "is_disabled": 0, "bike_id": "4efe5447f67338a3e9db73515e4c547c", "fusion_lon": 0.0, "lon": -77.01815483333333}, {"lat": 38.92092733333333, "type": "electric_scooter", "rental_uris": {"android": "https://dc.lft.to/lastmile_qr_scan", "ios": "https://dc.lft.to/lastmile_qr_scan"}, "fusion_lat": 0.0, "name": "354558affa46ebd2c2f6583e64f64e35", "is_reserved": 0, "is_disabled": 0, "bike_id": "354558affa46ebd2c2f6583e64f64e35", "fusion_lon": 0.0, "lon": -77.00428}, {"lat": 38.91348133333334, "type": "electric_scooter", "rental_uris": {"android": "https://dc.lft.to/lastmile_qr_scan", "ios": "https://dc.lft.to/lastmile_qr_scan"}, "fusion_lat": 0.0, "name": "180378848aff7f037002bfedb9d7d4f3", "is_reserved": 0, "is_disabled": 0, "bike_id": "180378848aff7f037002bfedb9d7d4f3", "fusion_lon": 0.0, "lon": -77.04681966666666}, {"lat": 38.87056166666667, "type": "electric_scooter", "rental_uris": {"android": "https://dc.lft.to/lastmile_qr_scan", "ios": "https://dc.lft.to/lastmile_qr_scan"}, "fusion_lat": 0.0, "name": "844375eb52b5dc13b25ff4fbd00ed089", "is_reserved": 0, "is_disabled": 0, "bike_id": "844375eb52b5dc13b25ff4fbd00ed089", "fusion_lon": 0.0, "lon": -77.00744666666667}, {"lat": 38.93362066666667, "type": "electric_scooter", "rental_uris": {"android": "https://dc.lft.to/lastmile_qr_scan", "ios": "https://dc.lft.to/lastmile_qr_scan"}, "fusion_lat": 0.0, "name": "e7ea3f1d73bbea0ab91b5e81a2eea520", "is_reserved": 0, "is_disabled": 0, "bike_id": "e7ea3f1d73bbea0ab91b5e81a2eea520", "fusion_lon": 0.0, "lon": -77.05732633333334}, {"lat": 38.9049495, "type": "electric_bike", "rental_uris": {"android": "https://dc.lft.to/lastmile_qr_scan", "ios": "https://dc.lft.to/lastmile_qr_scan"}, "fusion_lat": 0.0, "name": "3b8de245170d0f470bc0632c50f902fb", "is_reserved": 0, "is_disabled": 0, "bike_id": "3b8de245170d0f470bc0632c50f902fb", "fusion_lon": 0.0, "lon": -76.9744995}, {"lat": 38.90970933333333, "type": "electric_scooter", "rental_uris": {"android": "https://dc.lft.to/lastmile_qr_scan", "ios": "https://dc.lft.to/lastmile_qr_scan"}, "fusion_lat": 0.0, "name": "2d90dacfb55c0c8dfcef289fa6c469d9", "is_reserved": 0, "is_disabled": 0, "bike_id": "2d90dacfb55c0c8dfcef289fa6c469d9", "fusion_lon": 0.0, "lon": -77.03380416666667}, {"lat": 38.924736833333334, "type": "electric_scooter", "rental_uris": {"android": "https://dc.lft.to/lastmile_qr_scan", "ios": "https://dc.lft.to/lastmile_qr_scan"}, "fusion_lat": 0.0, "name": "3612657c39dac2c0c1005e2b80d8d2d2", "is_reserved": 0, "is_disabled": 0, "bike_id": "3612657c39dac2c0c1005e2b80d8d2d2", "fusion_lon": 0.0, "lon": -77.026547}, {"lat": 38.9563275, "type": "electric_scooter", "rental_uris": {"android": "https://dc.lft.to/lastmile_qr_scan", "ios": "https://dc.lft.to/lastmile_qr_scan"}, "fusion_lat": 0.0, "name": "46c7a9f2b22149d17713de3d9225cd02", "is_reserved": 0, "is_disabled": 0, "bike_id": "46c7a9f2b22149d17713de3d9225cd02", "fusion_lon": 0.0, "lon": -77.0283405}, {"lat": 38.93142683333333, "type": "electric_scooter", "rental_uris": {"android": "https://dc.lft.to/lastmile_qr_scan", "ios": "https://dc.lft.to/lastmile_qr_scan"}, "fusion_lat": 0.0, "name": "3e5ad200844f1e28697fa5298ec2a806", "is_reserved": 0, "is_disabled": 0, "bike_id": "3e5ad200844f1e28697fa5298ec2a806", "fusion_lon": 0.0, "lon": -77.03889133333334}, {"lat": 38.91044733333333, "type": "electric_scooter", "rental_uris": {"android": "https://dc.lft.to/lastmile_qr_scan", "ios": "https://dc.lft.to/lastmile_qr_scan"}, "fusion_lat": 0.0, "name": "0213051a76a445b76669f9e4fdfba90a", "is_reserved": 0, "is_disabled": 0, "bike_id": "0213051a76a445b76669f9e4fdfba90a", "fusion_lon": 0.0, "lon": -77.01669383333333}, {"lat": 38.923379833333335, "type": "electric_scooter", "rental_uris": {"android": "https://dc.lft.to/lastmile_qr_scan", "ios": "https://dc.lft.to/lastmile_qr_scan"}, "fusion_lat": 0.0, "name": "94b74ba9b716802f84ec94f2af4e96dc", "is_reserved": 0, "is_disabled": 0, "bike_id": "94b74ba9b716802f84ec94f2af4e96dc", "fusion_lon": 0.0, "lon": -77.0522365}, {"lat": 38.940205166666665, "type": "electric_bike", "rental_uris": {"android": "https://dc.lft.to/lastmile_qr_scan", "ios": "https://dc.lft.to/lastmile_qr_scan"}, "fusion_lat": 0.0, "name": "afc0bc3463e2371357557101a4b60d63", "is_reserved": 0, "is_disabled": 0, "bike_id": "afc0bc3463e2371357557101a4b60d63", "fusion_lon": 0.0, "lon": -76.97608566666666}, {"lat": 38.916458166666665, "type": "electric_scooter", "rental_uris": {"android": "https://dc.lft.to/lastmile_qr_scan", "ios": "https://dc.lft.to/lastmile_qr_scan"}, "fusion_lat": 0.0, "name": "13b3e71d4f880da3b176d19146e38328", "is_reserved": 0, "is_disabled": 0, "bike_id": "13b3e71d4f880da3b176d19146e38328", "fusion_lon": 0.0, "lon": -77.04163566666666}, {"lat": 38.896555, "type": "electric_scooter", "rental_uris": {"android": "https://dc.lft.to/lastmile_qr_scan", "ios": "https://dc.lft.to/lastmile_qr_scan"}, "fusion_lat": 0.0, "name": "d1fdfbb6988ce5666386a1a8fdf6a811", "is_reserved": 0, "is_disabled": 0, "bike_id": "d1fdfbb6988ce5666386a1a8fdf6a811", "fusion_lon": 0.0, "lon": -77.02467316666667}, {"lat": 38.898203333333335, "type": "electric_scooter", "rental_uris": {"android": "https://dc.lft.to/lastmile_qr_scan", "ios": "https://dc.lft.to/lastmile_qr_scan"}, "fusion_lat": 0.0, "name": "d62df010dc59cf0a778a955b47505183", "is_reserved": 0, "is_disabled": 0, "bike_id": "d62df010dc59cf0a778a955b47505183", "fusion_lon": 0.0, "lon": -77.03359816666666}, {"lat": 38.9082915, "type": "electric_scooter", "rental_uris": {"android": "https://dc.lft.to/lastmile_qr_scan", "ios": "https://dc.lft.to/lastmile_qr_scan"}, "fusion_lat": 0.0, "name": "459f8d8a5e48d090685e471207eaba31", "is_reserved": 0, "is_disabled": 0, "bike_id": "459f8d8a5e48d090685e471207eaba31", "fusion_lon": 0.0, "lon": -77.03945933333334}, {"lat": 38.94469733333333, "type": "electric_bike", "rental_uris": {"android": "https://dc.lft.to/lastmile_qr_scan", "ios": "https://dc.lft.to/lastmile_qr_scan"}, "fusion_lat": 0.0, "name": "7c59f701e9f8522389233b190a904c5f", "is_reserved": 0, "is_disabled": 0, "bike_id": "7c59f701e9f8522389233b190a904c5f", "fusion_lon": 0.0, "lon": -77.0224135}, {"lat": 38.87959216666667, "type": "electric_scooter", "rental_uris": {"android": "https://dc.lft.to/lastmile_qr_scan", "ios": "https://dc.lft.to/lastmile_qr_scan"}, "fusion_lat": 0.0, "name": "28eea7d9f4b4baf2440002327d106236", "is_reserved": 0, "is_disabled": 0, "bike_id": "28eea7d9f4b4baf2440002327d106236", "fusion_lon": 0.0, "lon": -77.005936}, {"lat": 38.93048233333333, "type": "electric_scooter", "rental_uris": {"android": "https://dc.lft.to/lastmile_qr_scan", "ios": "https://dc.lft.to/lastmile_qr_scan"}, "fusion_lat": 0.0, "name": "2c5d02dc7f57e783a94790e48050d17c", "is_reserved": 0, "is_disabled": 0, "bike_id": "2c5d02dc7f57e783a94790e48050d17c", "fusion_lon": 0.0, "lon": -77.023609}, {"lat": 38.88727933333333, "type": "electric_scooter", "rental_uris": {"android": "https://dc.lft.to/lastmile_qr_scan", "ios": "https://dc.lft.to/lastmile_qr_scan"}, "fusion_lat": 0.0, "name": "5efb69239eddf3df2e25a809ae86b08a", "is_reserved": 0, "is_disabled": 0, "bike_id": "5efb69239eddf3df2e25a809ae86b08a", "fusion_lon": 0.0, "lon": -77.0238295}, {"lat": 38.92835933333333, "type": "electric_scooter", "rental_uris": {"android": "https://dc.lft.to/lastmile_qr_scan", "ios": "https://dc.lft.to/lastmile_qr_scan"}, "fusion_lat": 0.0, "name": "652cb5ff57ccee29609153746c16d263", "is_reserved": 0, "is_disabled": 0, "bike_id": "652cb5ff57ccee29609153746c16d263", "fusion_lon": 0.0, "lon": -77.05425883333334}, {"lat": 38.90682566666667, "type": "electric_scooter", "rental_uris": {"android": "https://dc.lft.to/lastmile_qr_scan", "ios": "https://dc.lft.to/lastmile_qr_scan"}, "fusion_lat": 0.0, "name": "ea95c9214ee21048915315dad659bc8d", "is_reserved": 0, "is_disabled": 0, "bike_id": "ea95c9214ee21048915315dad659bc8d", "fusion_lon": 0.0, "lon": -77.006045}, {"lat": 38.911173833333336, "type": "electric_scooter", "rental_uris": {"android": "https://dc.lft.to/lastmile_qr_scan", "ios": "https://dc.lft.to/lastmile_qr_scan"}, "fusion_lat": 0.0, "name": "96b52d7481f1bfd2f59b66c6852dca31", "is_reserved": 0, "is_disabled": 0, "bike_id": "96b52d7481f1bfd2f59b66c6852dca31", "fusion_lon": 0.0, "lon": -77.03836366666667}, {"lat": 38.91841616666667, "type": "electric_scooter", "rental_uris": {"android": "https://dc.lft.to/lastmile_qr_scan", "ios": "https://dc.lft.to/lastmile_qr_scan"}, "fusion_lat": 0.0, "name": "7e7b33d0cf8ca8f6be70848c37134566", "is_reserved": 0, "is_disabled": 0, "bike_id": "7e7b33d0cf8ca8f6be70848c37134566", "fusion_lon": 0.0, "lon": -76.96541616666667}, {"lat": 38.90215533333333, "type": "electric_scooter", "rental_uris": {"android": "https://dc.lft.to/lastmile_qr_scan", "ios": "https://dc.lft.to/lastmile_qr_scan"}, "fusion_lat": 0.0, "name": "18a93dc8716c8123e1c906ddf95468fb", "is_reserved": 0, "is_disabled": 0, "bike_id": "18a93dc8716c8123e1c906ddf95468fb", "fusion_lon": 0.0, "lon": -76.98609233333333}, {"lat": 38.92024083333333, "type": "electric_scooter", "rental_uris": {"android": "https://dc.lft.to/lastmile_qr_scan", "ios": "https://dc.lft.to/lastmile_qr_scan"}, "fusion_lat": 0.0, "name": "88e4462161f61df1ccb39deca608b567", "is_reserved": 0, "is_disabled": 0, "bike_id": "88e4462161f61df1ccb39deca608b567", "fusion_lon": 0.0, "lon": -77.0716325}, {"lat": 38.92126366666667, "type": "electric_scooter", "rental_uris": {"android": "https://dc.lft.to/lastmile_qr_scan", "ios": "https://dc.lft.to/lastmile_qr_scan"}, "fusion_lat": 0.0, "name": "b313dce4dea374d5a7833a36bbd9901c", "is_reserved": 0, "is_disabled": 0, "bike_id": "b313dce4dea374d5a7833a36bbd9901c", "fusion_lon": 0.0, "lon": -77.04212266666667}, {"lat": 38.874014833333334, "type": "electric_scooter", "rental_uris": {"android": "https://dc.lft.to/lastmile_qr_scan", "ios": "https://dc.lft.to/lastmile_qr_scan"}, "fusion_lat": 0.0, "name": "a15628a1a3cc160212e8c328b99b4fd5", "is_reserved": 0, "is_disabled": 0, "bike_id": "a15628a1a3cc160212e8c328b99b4fd5", "fusion_lon": 0.0, "lon": -77.00198766666666}, {"lat": 38.957249166666664, "type": "electric_scooter", "rental_uris": {"android": "https://dc.lft.to/lastmile_qr_scan", "ios": "https://dc.lft.to/lastmile_qr_scan"}, "fusion_lat": 0.0, "name": "cb9ccae1d88d9976a107304d67fd7792", "is_reserved": 0, "is_disabled": 0, "bike_id": "cb9ccae1d88d9976a107304d67fd7792", "fusion_lon": 0.0, "lon": -77.02419333333333}, {"lat": 38.870401666666666, "type": "electric_scooter", "rental_uris": {"android": "https://dc.lft.to/lastmile_qr_scan", "ios": "https://dc.lft.to/lastmile_qr_scan"}, "fusion_lat": 0.0, "name": "54f6328fcf4ebd44b4b28843a5115d52", "is_reserved": 0, "is_disabled": 0, "bike_id": "54f6328fcf4ebd44b4b28843a5115d52", "fusion_lon": 0.0, "lon": -77.01010333333333}, {"lat": 38.923033333333336, "type": "electric_scooter", "rental_uris": {"android": "https://dc.lft.to/lastmile_qr_scan", "ios": "https://dc.lft.to/lastmile_qr_scan"}, "fusion_lat": 0.0, "name": "5d912ef56505faf58d470a2f869035e3", "is_reserved": 0, "is_disabled": 0, "bike_id": "5d912ef56505faf58d470a2f869035e3", "fusion_lon": 0.0, "lon": -77.036592}, {"lat": 38.920507, "type": "electric_scooter", "rental_uris": {"android": "https://dc.lft.to/lastmile_qr_scan", "ios": "https://dc.lft.to/lastmile_qr_scan"}, "fusion_lat": 0.0, "name": "f37b862b47e52d6c89b01c96d08fd001", "is_reserved": 0, "is_disabled": 0, "bike_id": "f37b862b47e52d6c89b01c96d08fd001", "fusion_lon": 0.0, "lon": -77.033768}, {"lat": 38.90971783333333, "type": "electric_scooter", "rental_uris": {"android": "https://dc.lft.to/lastmile_qr_scan", "ios": "https://dc.lft.to/lastmile_qr_scan"}, "fusion_lat": 0.0, "name": "75b885fcfbd920bd419843e1b9c0176e", "is_reserved": 0, "is_disabled": 0, "bike_id": "75b885fcfbd920bd419843e1b9c0176e", "fusion_lon": 0.0, "lon": -77.02182383333333}, {"lat": 38.91220833333333, "type": "electric_scooter", "rental_uris": {"android": "https://dc.lft.to/lastmile_qr_scan", "ios": "https://dc.lft.to/lastmile_qr_scan"}, "fusion_lat": 0.0, "name": "3f1722fffb03b527b10aec840c351512", "is_reserved": 0, "is_disabled": 0, "bike_id": "3f1722fffb03b527b10aec840c351512", "fusion_lon": 0.0, "lon": -77.03200266666667}, {"lat": 38.92335816666667, "type": "electric_scooter", "rental_uris": {"android": "https://dc.lft.to/lastmile_qr_scan", "ios": "https://dc.lft.to/lastmile_qr_scan"}, "fusion_lat": 0.0, "name": "a4cf3e2cef8e7b414857c81b124a56f7", "is_reserved": 0, "is_disabled": 0, "bike_id": "a4cf3e2cef8e7b414857c81b124a56f7", "fusion_lon": 0.0, "lon": -77.01905066666667}, {"lat": 38.932120166666664, "type": "electric_scooter", "rental_uris": {"android": "https://dc.lft.to/lastmile_qr_scan", "ios": "https://dc.lft.to/lastmile_qr_scan"}, "fusion_lat": 0.0, "name": "0726f21738ad11df2073baf097b6e67e", "is_reserved": 0, "is_disabled": 0, "bike_id": "0726f21738ad11df2073baf097b6e67e", "fusion_lon": 0.0, "lon": -77.03863166666666}, {"lat": 38.90798183333333, "type": "electric_scooter", "rental_uris": {"android": "https://dc.lft.to/lastmile_qr_scan", "ios": "https://dc.lft.to/lastmile_qr_scan"}, "fusion_lat": 0.0, "name": "68a86fd7bd9b22c7a21e64a41d5c7d43", "is_reserved": 0, "is_disabled": 0, "bike_id": "68a86fd7bd9b22c7a21e64a41d5c7d43", "fusion_lon": 0.0, "lon": -77.049916}, {"lat": 38.904614333333335, "type": "electric_scooter", "rental_uris": {"android": "https://dc.lft.to/lastmile_qr_scan", "ios": "https://dc.lft.to/lastmile_qr_scan"}, "fusion_lat": 0.0, "name": "a574ac8fd3d9d3953d3233f755a96a13", "is_reserved": 0, "is_disabled": 0, "bike_id": "a574ac8fd3d9d3953d3233f755a96a13", "fusion_lon": 0.0, "lon": -77.04873933333333}, {"lat": 38.88764316666666, "type": "electric_scooter", "rental_uris": {"android": "https://dc.lft.to/lastmile_qr_scan", "ios": "https://dc.lft.to/lastmile_qr_scan"}, "fusion_lat": 0.0, "name": "b4707f68bc5e07a50ee4339ed966c8d1", "is_reserved": 0, "is_disabled": 0, "bike_id": "b4707f68bc5e07a50ee4339ed966c8d1", "fusion_lon": 0.0, "lon": -77.000383}, {"lat": 38.90306866666667, "type": "electric_scooter", "rental_uris": {"android": "https://dc.lft.to/lastmile_qr_scan", "ios": "https://dc.lft.to/lastmile_qr_scan"}, "fusion_lat": 0.0, "name": "de16514ccf2cb5a945256867cc130911", "is_reserved": 0, "is_disabled": 0, "bike_id": "de16514ccf2cb5a945256867cc130911", "fusion_lon": 0.0, "lon": -76.978076}, {"lat": 38.88717233333333, "type": "electric_scooter", "rental_uris": {"android": "https://dc.lft.to/lastmile_qr_scan", "ios": "https://dc.lft.to/lastmile_qr_scan"}, "fusion_lat": 0.0, "name": "2ad3911cda33efbf0a2a275530674bf3", "is_reserved": 0, "is_disabled": 0, "bike_id": "2ad3911cda33efbf0a2a275530674bf3", "fusion_lon": 0.0, "lon": -77.02581433333333}, {"lat": 38.92576366666667, "type": "electric_scooter", "rental_uris": {"android": "https://dc.lft.to/lastmile_qr_scan", "ios": "https://dc.lft.to/lastmile_qr_scan"}, "fusion_lat": 0.0, "name": "02300c4295d0f26b240eff93aa60aa55", "is_reserved": 0, "is_disabled": 0, "bike_id": "02300c4295d0f26b240eff93aa60aa55", "fusion_lon": 0.0, "lon": -77.02817783333333}, {"lat": 38.928267166666664, "type": "electric_scooter", "rental_uris": {"android": "https://dc.lft.to/lastmile_qr_scan", "ios": "https://dc.lft.to/lastmile_qr_scan"}, "fusion_lat": 0.0, "name": "577bfd5fb05927a09ba456727c441ae4", "is_reserved": 0, "is_disabled": 0, "bike_id": "577bfd5fb05927a09ba456727c441ae4", "fusion_lon": 0.0, "lon": -77.05424333333333}, {"lat": 38.90261916666667, "type": "electric_scooter", "rental_uris": {"android": "https://dc.lft.to/lastmile_qr_scan", "ios": "https://dc.lft.to/lastmile_qr_scan"}, "fusion_lat": 0.0, "name": "2a93340f0020903a17152d508386ade1", "is_reserved": 0, "is_disabled": 0, "bike_id": "2a93340f0020903a17152d508386ade1", "fusion_lon": 0.0, "lon": -77.05312783333333}, {"lat": 38.924906666666665, "type": "electric_scooter", "rental_uris": {"android": "https://dc.lft.to/lastmile_qr_scan", "ios": "https://dc.lft.to/lastmile_qr_scan"}, "fusion_lat": 0.0, "name": "8be8331e1579f83f05e9d50e6f98f328", "is_reserved": 0, "is_disabled": 0, "bike_id": "8be8331e1579f83f05e9d50e6f98f328", "fusion_lon": 0.0, "lon": -77.02408316666667}, {"lat": 38.91597083333333, "type": "electric_scooter", "rental_uris": {"android": "https://dc.lft.to/lastmile_qr_scan", "ios": "https://dc.lft.to/lastmile_qr_scan"}, "fusion_lat": 0.0, "name": "e5d6061b2b2601ce0a826ec479f02e8c", "is_reserved": 0, "is_disabled": 0, "bike_id": "e5d6061b2b2601ce0a826ec479f02e8c", "fusion_lon": 0.0, "lon": -77.03180366666666}, {"lat": 38.9535335, "type": "electric_bike", "rental_uris": {"android": "https://dc.lft.to/lastmile_qr_scan", "ios": "https://dc.lft.to/lastmile_qr_scan"}, "fusion_lat": 0.0, "name": "4153a56f9146cf93a4aeed6592ea72bb", "is_reserved": 0, "is_disabled": 0, "bike_id": "4153a56f9146cf93a4aeed6592ea72bb", "fusion_lon": 0.0, "lon": -76.98092766666667}, {"lat": 38.91112116666667, "type": "electric_scooter", "rental_uris": {"android": "https://dc.lft.to/lastmile_qr_scan", "ios": "https://dc.lft.to/lastmile_qr_scan"}, "fusion_lat": 0.0, "name": "ca76dab247790f80537bd3dd108352bc", "is_reserved": 0, "is_disabled": 0, "bike_id": "ca76dab247790f80537bd3dd108352bc", "fusion_lon": 0.0, "lon": -77.03835666666667}, {"lat": 38.930276666666664, "type": "electric_scooter", "rental_uris": {"android": "https://dc.lft.to/lastmile_qr_scan", "ios": "https://dc.lft.to/lastmile_qr_scan"}, "fusion_lat": 0.0, "name": "6b2a7172c30d86a479b7f91408b189f6", "is_reserved": 0, "is_disabled": 0, "bike_id": "6b2a7172c30d86a479b7f91408b189f6", "fusion_lon": 0.0, "lon": -77.0573755}, {"lat": 38.909918166666664, "type": "electric_scooter", "rental_uris": {"android": "https://dc.lft.to/lastmile_qr_scan", "ios": "https://dc.lft.to/lastmile_qr_scan"}, "fusion_lat": 0.0, "name": "80d1b0095240458d2398c5d2ef4604ca", "is_reserved": 0, "is_disabled": 0, "bike_id": "80d1b0095240458d2398c5d2ef4604ca", "fusion_lon": 0.0, "lon": -77.040147}, {"lat": 38.980437, "type": "electric_bike", "rental_uris": {"android": "https://dc.lft.to/lastmile_qr_scan", "ios": "https://dc.lft.to/lastmile_qr_scan"}, "fusion_lat": 0.0, "name": "549203abfaef715cda8f014692575303", "is_reserved": 0, "is_disabled": 0, "bike_id": "549203abfaef715cda8f014692575303", "fusion_lon": 0.0, "lon": -76.957896}, {"lat": 38.91696483333333, "type": "electric_scooter", "rental_uris": {"android": "https://dc.lft.to/lastmile_qr_scan", "ios": "https://dc.lft.to/lastmile_qr_scan"}, "fusion_lat": 0.0, "name": "9b352cc33438d53c67040782067cbae6", "is_reserved": 0, "is_disabled": 0, "bike_id": "9b352cc33438d53c67040782067cbae6", "fusion_lon": 0.0, "lon": -77.030415}, {"lat": 38.9419535, "type": "electric_scooter", "rental_uris": {"android": "https://dc.lft.to/lastmile_qr_scan", "ios": "https://dc.lft.to/lastmile_qr_scan"}, "fusion_lat": 0.0, "name": "0327a2b6ab731eadfea838058645fc26", "is_reserved": 0, "is_disabled": 0, "bike_id": "0327a2b6ab731eadfea838058645fc26", "fusion_lon": 0.0, "lon": -77.0411245}, {"lat": 38.895503166666664, "type": "electric_scooter", "rental_uris": {"android": "https://dc.lft.to/lastmile_qr_scan", "ios": "https://dc.lft.to/lastmile_qr_scan"}, "fusion_lat": 0.0, "name": "bce45c830039060e69f7e077c4eea1c0", "is_reserved": 0, "is_disabled": 0, "bike_id": "bce45c830039060e69f7e077c4eea1c0", "fusion_lon": 0.0, "lon": -77.00921633333333}, {"lat": 38.9026835, "type": "electric_scooter", "rental_uris": {"android": "https://dc.lft.to/lastmile_qr_scan", "ios": "https://dc.lft.to/lastmile_qr_scan"}, "fusion_lat": 0.0, "name": "17abbf7dd1d8f4d1ab25a48b9f689684", "is_reserved": 0, "is_disabled": 0, "bike_id": "17abbf7dd1d8f4d1ab25a48b9f689684", "fusion_lon": 0.0, "lon": -77.03420916666667}, {"lat": 38.957294, "type": "electric_scooter", "rental_uris": {"android": "https://dc.lft.to/lastmile_qr_scan", "ios": "https://dc.lft.to/lastmile_qr_scan"}, "fusion_lat": 0.0, "name": "d5f52c477902c6c8fee412c159003630", "is_reserved": 0, "is_disabled": 0, "bike_id": "d5f52c477902c6c8fee412c159003630", "fusion_lon": 0.0, "lon": -77.0240635}, {"lat": 38.899252, "type": "electric_scooter", "rental_uris": {"android": "https://dc.lft.to/lastmile_qr_scan", "ios": "https://dc.lft.to/lastmile_qr_scan"}, "fusion_lat": 0.0, "name": "ce3a98131327af69f3d56e2387842bee", "is_reserved": 0, "is_disabled": 0, "bike_id": "ce3a98131327af69f3d56e2387842bee", "fusion_lon": 0.0, "lon": -77.012717}, {"lat": 38.9345215, "type": "electric_scooter", "rental_uris": {"android": "https://dc.lft.to/lastmile_qr_scan", "ios": "https://dc.lft.to/lastmile_qr_scan"}, "fusion_lat": 0.0, "name": "11633c1b900e8bbdb419a05841066756", "is_reserved": 0, "is_disabled": 0, "bike_id": "11633c1b900e8bbdb419a05841066756", "fusion_lon": 0.0, "lon": -77.02915533333334}, {"lat": 38.909507166666664, "type": "electric_scooter", "rental_uris": {"android": "https://dc.lft.to/lastmile_qr_scan", "ios": "https://dc.lft.to/lastmile_qr_scan"}, "fusion_lat": 0.0, "name": "661aef329bd69204f1c525bc6d3163d3", "is_reserved": 0, "is_disabled": 0, "bike_id": "661aef329bd69204f1c525bc6d3163d3", "fusion_lon": 0.0, "lon": -77.03469}, {"lat": 38.89926716666667, "type": "electric_scooter", "rental_uris": {"android": "https://dc.lft.to/lastmile_qr_scan", "ios": "https://dc.lft.to/lastmile_qr_scan"}, "fusion_lat": 0.0, "name": "334677274e242f64b119dedbc3b6a489", "is_reserved": 0, "is_disabled": 0, "bike_id": "334677274e242f64b119dedbc3b6a489", "fusion_lon": 0.0, "lon": -77.05004633333333}, {"lat": 38.901324, "type": "electric_scooter", "rental_uris": {"android": "https://dc.lft.to/lastmile_qr_scan", "ios": "https://dc.lft.to/lastmile_qr_scan"}, "fusion_lat": 0.0, "name": "fe116aecca376a8c6419e376763df35a", "is_reserved": 0, "is_disabled": 0, "bike_id": "fe116aecca376a8c6419e376763df35a", "fusion_lon": 0.0, "lon": -77.00284916666666}, {"lat": 38.88635633333333, "type": "electric_scooter", "rental_uris": {"android": "https://dc.lft.to/lastmile_qr_scan", "ios": "https://dc.lft.to/lastmile_qr_scan"}, "fusion_lat": 0.0, "name": "18197b321a02253e03088ece7999f40c", "is_reserved": 0, "is_disabled": 0, "bike_id": "18197b321a02253e03088ece7999f40c", "fusion_lon": 0.0, "lon": -76.925987}, {"lat": 38.88717916666667, "type": "electric_scooter", "rental_uris": {"android": "https://dc.lft.to/lastmile_qr_scan", "ios": "https://dc.lft.to/lastmile_qr_scan"}, "fusion_lat": 0.0, "name": "f171f35c13d94afb484a59d049f750ce", "is_reserved": 0, "is_disabled": 0, "bike_id": "f171f35c13d94afb484a59d049f750ce", "fusion_lon": 0.0, "lon": -77.02836516666666}, {"lat": 38.9036885, "type": "electric_scooter", "rental_uris": {"android": "https://dc.lft.to/lastmile_qr_scan", "ios": "https://dc.lft.to/lastmile_qr_scan"}, "fusion_lat": 0.0, "name": "5c4ac18420f953e6e1428b83733b4a35", "is_reserved": 0, "is_disabled": 0, "bike_id": "5c4ac18420f953e6e1428b83733b4a35", "fusion_lon": 0.0, "lon": -77.03333433333333}, {"lat": 38.87866233333333, "type": "electric_scooter", "rental_uris": {"android": "https://dc.lft.to/lastmile_qr_scan", "ios": "https://dc.lft.to/lastmile_qr_scan"}, "fusion_lat": 0.0, "name": "2c82bcb2717d6e805a82463bc757c377", "is_reserved": 0, "is_disabled": 0, "bike_id": "2c82bcb2717d6e805a82463bc757c377", "fusion_lon": 0.0, "lon": -76.96262483333334}, {"lat": 38.91687816666666, "type": "electric_scooter", "rental_uris": {"android": "https://dc.lft.to/lastmile_qr_scan", "ios": "https://dc.lft.to/lastmile_qr_scan"}, "fusion_lat": 0.0, "name": "07ef1dd50be977efabfce6b1af160b9d", "is_reserved": 0, "is_disabled": 0, "bike_id": "07ef1dd50be977efabfce6b1af160b9d", "fusion_lon": 0.0, "lon": -77.02743383333333}, {"lat": 38.899495, "type": "electric_scooter", "rental_uris": {"android": "https://dc.lft.to/lastmile_qr_scan", "ios": "https://dc.lft.to/lastmile_qr_scan"}, "fusion_lat": 0.0, "name": "d6bef15ab0ae1e71b5aa1ccdc6d0822f", "is_reserved": 0, "is_disabled": 0, "bike_id": "d6bef15ab0ae1e71b5aa1ccdc6d0822f", "fusion_lon": 0.0, "lon": -77.05706416666666}, {"lat": 38.9332295, "type": "electric_scooter", "rental_uris": {"android": "https://dc.lft.to/lastmile_qr_scan", "ios": "https://dc.lft.to/lastmile_qr_scan"}, "fusion_lat": 0.0, "name": "d33ed9de4e90e73a8239e95646241a62", "is_reserved": 0, "is_disabled": 0, "bike_id": "d33ed9de4e90e73a8239e95646241a62", "fusion_lon": 0.0, "lon": -77.03272483333333}, {"lat": 38.925998, "type": "electric_scooter", "rental_uris": {"android": "https://dc.lft.to/lastmile_qr_scan", "ios": "https://dc.lft.to/lastmile_qr_scan"}, "fusion_lat": 0.0, "name": "699e219891ad6a6cbaaea678de5fa864", "is_reserved": 0, "is_disabled": 0, "bike_id": "699e219891ad6a6cbaaea678de5fa864", "fusion_lon": 0.0, "lon": -77.02157466666667}, {"lat": 38.88725483333333, "type": "electric_scooter", "rental_uris": {"android": "https://dc.lft.to/lastmile_qr_scan", "ios": "https://dc.lft.to/lastmile_qr_scan"}, "fusion_lat": 0.0, "name": "8baf234771b0d099d0b168e987a42bd0", "is_reserved": 0, "is_disabled": 0, "bike_id": "8baf234771b0d099d0b168e987a42bd0", "fusion_lon": 0.0, "lon": -76.98359583333334}, {"lat": 38.902647, "type": "electric_scooter", "rental_uris": {"android": "https://dc.lft.to/lastmile_qr_scan", "ios": "https://dc.lft.to/lastmile_qr_scan"}, "fusion_lat": 0.0, "name": "a14f5ca716684b99f927bc257e67677d", "is_reserved": 0, "is_disabled": 0, "bike_id": "a14f5ca716684b99f927bc257e67677d", "fusion_lon": 0.0, "lon": -77.0299915}, {"lat": 38.8755795, "type": "electric_scooter", "rental_uris": {"android": "https://dc.lft.to/lastmile_qr_scan", "ios": "https://dc.lft.to/lastmile_qr_scan"}, "fusion_lat": 0.0, "name": "db22cf77caa9eb2a5d939707aef4968e", "is_reserved": 0, "is_disabled": 0, "bike_id": "db22cf77caa9eb2a5d939707aef4968e", "fusion_lon": 0.0, "lon": -77.00588633333334}, {"lat": 38.88414383333333, "type": "electric_scooter", "rental_uris": {"android": "https://dc.lft.to/lastmile_qr_scan", "ios": "https://dc.lft.to/lastmile_qr_scan"}, "fusion_lat": 0.0, "name": "5aa76894d39dce5aa0f1788812a38e49", "is_reserved": 0, "is_disabled": 0, "bike_id": "5aa76894d39dce5aa0f1788812a38e49", "fusion_lon": 0.0, "lon": -76.94207366666667}, {"lat": 38.923463, "type": "electric_scooter", "rental_uris": {"android": "https://dc.lft.to/lastmile_qr_scan", "ios": "https://dc.lft.to/lastmile_qr_scan"}, "fusion_lat": 0.0, "name": "8536c7bd26fa2e02a0101052f35c3a88", "is_reserved": 0, "is_disabled": 0, "bike_id": "8536c7bd26fa2e02a0101052f35c3a88", "fusion_lon": 0.0, "lon": -77.05164633333334}, {"lat": 38.8974075, "type": "electric_bike", "rental_uris": {"android": "https://dc.lft.to/lastmile_qr_scan", "ios": "https://dc.lft.to/lastmile_qr_scan"}, "fusion_lat": 0.0, "name": "ba40a1d98db3a389166724b8e60a44ce", "is_reserved": 0, "is_disabled": 0, "bike_id": "ba40a1d98db3a389166724b8e60a44ce", "fusion_lon": 0.0, "lon": -76.9922165}, {"lat": 38.895207, "type": "electric_scooter", "rental_uris": {"android": "https://dc.lft.to/lastmile_qr_scan", "ios": "https://dc.lft.to/lastmile_qr_scan"}, "fusion_lat": 0.0, "name": "6e7eefbe68cea48c11ec2ead411e4b15", "is_reserved": 0, "is_disabled": 0, "bike_id": "6e7eefbe68cea48c11ec2ead411e4b15", "fusion_lon": 0.0, "lon": -77.044848}, {"lat": 38.90851133333334, "type": "electric_scooter", "rental_uris": {"android": "https://dc.lft.to/lastmile_qr_scan", "ios": "https://dc.lft.to/lastmile_qr_scan"}, "fusion_lat": 0.0, "name": "0cda8ff4bacda5946977deead024d488", "is_reserved": 0, "is_disabled": 0, "bike_id": "0cda8ff4bacda5946977deead024d488", "fusion_lon": 0.0, "lon": -77.000039}, {"lat": 38.90090583333333, "type": "electric_scooter", "rental_uris": {"android": "https://dc.lft.to/lastmile_qr_scan", "ios": "https://dc.lft.to/lastmile_qr_scan"}, "fusion_lat": 0.0, "name": "81774d6911db5852910e1d567da38280", "is_reserved": 0, "is_disabled": 0, "bike_id": "81774d6911db5852910e1d567da38280", "fusion_lon": 0.0, "lon": -77.027105}, {"lat": 38.869732666666664, "type": "electric_bike", "rental_uris": {"android": "https://dc.lft.to/lastmile_qr_scan", "ios": "https://dc.lft.to/lastmile_qr_scan"}, "fusion_lat": 0.0, "name": "1001708988b761d430089c43b358a203", "is_reserved": 0, "is_disabled": 0, "bike_id": "1001708988b761d430089c43b358a203", "fusion_lon": 0.0, "lon": -77.01173216666666}, {"lat": 38.92731666666667, "type": "electric_scooter", "rental_uris": {"android": "https://dc.lft.to/lastmile_qr_scan", "ios": "https://dc.lft.to/lastmile_qr_scan"}, "fusion_lat": 0.0, "name": "e85a9accb4ec0ad2956dd7d678e9ffc0", "is_reserved": 0, "is_disabled": 0, "bike_id": "e85a9accb4ec0ad2956dd7d678e9ffc0", "fusion_lon": 0.0, "lon": -77.02251366666667}, {"lat": 38.905522, "type": "electric_scooter", "rental_uris": {"android": "https://dc.lft.to/lastmile_qr_scan", "ios": "https://dc.lft.to/lastmile_qr_scan"}, "fusion_lat": 0.0, "name": "c506d8459b071f5de733f07835746326", "is_reserved": 0, "is_disabled": 0, "bike_id": "c506d8459b071f5de733f07835746326", "fusion_lon": 0.0, "lon": -77.0019205}, {"lat": 38.920577, "type": "electric_scooter", "rental_uris": {"android": "https://dc.lft.to/lastmile_qr_scan", "ios": "https://dc.lft.to/lastmile_qr_scan"}, "fusion_lat": 0.0, "name": "3c939496318ddffbcaefadaa5e0a9569", "is_reserved": 0, "is_disabled": 0, "bike_id": "3c939496318ddffbcaefadaa5e0a9569", "fusion_lon": 0.0, "lon": -77.0339295}, {"lat": 38.924767833333334, "type": "electric_scooter", "rental_uris": {"android": "https://dc.lft.to/lastmile_qr_scan", "ios": "https://dc.lft.to/lastmile_qr_scan"}, "fusion_lat": 0.0, "name": "a0610c1afaa07a81e12e0578802cb5f7", "is_reserved": 0, "is_disabled": 0, "bike_id": "a0610c1afaa07a81e12e0578802cb5f7", "fusion_lon": 0.0, "lon": -77.02202033333333}, {"lat": 38.900567333333335, "type": "electric_scooter", "rental_uris": {"android": "https://dc.lft.to/lastmile_qr_scan", "ios": "https://dc.lft.to/lastmile_qr_scan"}, "fusion_lat": 0.0, "name": "6d35db0f2f3f12203518d80191a3f28f", "is_reserved": 0, "is_disabled": 0, "bike_id": "6d35db0f2f3f12203518d80191a3f28f", "fusion_lon": 0.0, "lon": -77.02634116666667}, {"lat": 38.839231833333336, "type": "electric_bike", "rental_uris": {"android": "https://dc.lft.to/lastmile_qr_scan", "ios": "https://dc.lft.to/lastmile_qr_scan"}, "fusion_lat": 0.0, "name": "ec04057b68e6d7950bb147a0e308a0a6", "is_reserved": 0, "is_disabled": 0, "bike_id": "ec04057b68e6d7950bb147a0e308a0a6", "fusion_lon": 0.0, "lon": -77.0790925}, {"lat": 38.913435666666665, "type": "electric_scooter", "rental_uris": {"android": "https://dc.lft.to/lastmile_qr_scan", "ios": "https://dc.lft.to/lastmile_qr_scan"}, "fusion_lat": 0.0, "name": "078cb751f6f26c6ab493664eaa4ef4b8", "is_reserved": 0, "is_disabled": 0, "bike_id": "078cb751f6f26c6ab493664eaa4ef4b8", "fusion_lon": 0.0, "lon": -77.02761783333334}, {"lat": 38.89057533333333, "type": "electric_scooter", "rental_uris": {"android": "https://dc.lft.to/lastmile_qr_scan", "ios": "https://dc.lft.to/lastmile_qr_scan"}, "fusion_lat": 0.0, "name": "195cf457f91f4d88e4b4a15424076a05", "is_reserved": 0, "is_disabled": 0, "bike_id": "195cf457f91f4d88e4b4a15424076a05", "fusion_lon": 0.0, "lon": -76.94463066666667}, {"lat": 38.870241, "type": "electric_scooter", "rental_uris": {"android": "https://dc.lft.to/lastmile_qr_scan", "ios": "https://dc.lft.to/lastmile_qr_scan"}, "fusion_lat": 0.0, "name": "f198488a92dd542e1fba8dec3fa39f70", "is_reserved": 0, "is_disabled": 0, "bike_id": "f198488a92dd542e1fba8dec3fa39f70", "fusion_lon": 0.0, "lon": -77.01046916666667}, {"lat": 38.9308935, "type": "electric_scooter", "rental_uris": {"android": "https://dc.lft.to/lastmile_qr_scan", "ios": "https://dc.lft.to/lastmile_qr_scan"}, "fusion_lat": 0.0, "name": "2ac2550fb1dd0964b8c13f476dd4811f", "is_reserved": 0, "is_disabled": 0, "bike_id": "2ac2550fb1dd0964b8c13f476dd4811f", "fusion_lon": 0.0, "lon": -77.02476133333333}, {"lat": 38.9153805, "type": "electric_scooter", "rental_uris": {"android": "https://dc.lft.to/lastmile_qr_scan", "ios": "https://dc.lft.to/lastmile_qr_scan"}, "fusion_lat": 0.0, "name": "d4bbd8b58f91c5860e657f9d61f6f880", "is_reserved": 0, "is_disabled": 0, "bike_id": "d4bbd8b58f91c5860e657f9d61f6f880", "fusion_lon": 0.0, "lon": -77.038017}, {"lat": 38.942910166666664, "type": "electric_scooter", "rental_uris": {"android": "https://dc.lft.to/lastmile_qr_scan", "ios": "https://dc.lft.to/lastmile_qr_scan"}, "fusion_lat": 0.0, "name": "96339fec44684fb673d8466a9040b36a", "is_reserved": 0, "is_disabled": 0, "bike_id": "96339fec44684fb673d8466a9040b36a", "fusion_lon": 0.0, "lon": -77.021743}, {"lat": 38.94081766666667, "type": "electric_scooter", "rental_uris": {"android": "https://dc.lft.to/lastmile_qr_scan", "ios": "https://dc.lft.to/lastmile_qr_scan"}, "fusion_lat": 0.0, "name": "33550b5ccbbdeaf7483cc5c0209896a5", "is_reserved": 0, "is_disabled": 0, "bike_id": "33550b5ccbbdeaf7483cc5c0209896a5", "fusion_lon": 0.0, "lon": -77.0263535}, {"lat": 38.86367416666667, "type": "electric_scooter", "rental_uris": {"android": "https://dc.lft.to/lastmile_qr_scan", "ios": "https://dc.lft.to/lastmile_qr_scan"}, "fusion_lat": 0.0, "name": "896361286ecb69763c1decf5ee0596cf", "is_reserved": 0, "is_disabled": 0, "bike_id": "896361286ecb69763c1decf5ee0596cf", "fusion_lon": 0.0, "lon": -77.013684}, {"lat": 38.90361683333333, "type": "electric_scooter", "rental_uris": {"android": "https://dc.lft.to/lastmile_qr_scan", "ios": "https://dc.lft.to/lastmile_qr_scan"}, "fusion_lat": 0.0, "name": "2c96e0cf919c3799bfbcc874a43f6c11", "is_reserved": 0, "is_disabled": 0, "bike_id": "2c96e0cf919c3799bfbcc874a43f6c11", "fusion_lon": 0.0, "lon": -77.01604983333333}, {"lat": 38.910187666666666, "type": "electric_scooter", "rental_uris": {"android": "https://dc.lft.to/lastmile_qr_scan", "ios": "https://dc.lft.to/lastmile_qr_scan"}, "fusion_lat": 0.0, "name": "8b6211724fdd19253186784cf9a164f3", "is_reserved": 0, "is_disabled": 0, "bike_id": "8b6211724fdd19253186784cf9a164f3", "fusion_lon": 0.0, "lon": -77.038418}, {"lat": 38.92328066666666, "type": "electric_scooter", "rental_uris": {"android": "https://dc.lft.to/lastmile_qr_scan", "ios": "https://dc.lft.to/lastmile_qr_scan"}, "fusion_lat": 0.0, "name": "c75fca477ddabfe0de26e5d240d84726", "is_reserved": 0, "is_disabled": 0, "bike_id": "c75fca477ddabfe0de26e5d240d84726", "fusion_lon": 0.0, "lon": -77.0461735}, {"lat": 38.91410883333333, "type": "electric_scooter", "rental_uris": {"android": "https://dc.lft.to/lastmile_qr_scan", "ios": "https://dc.lft.to/lastmile_qr_scan"}, "fusion_lat": 0.0, "name": "4ac217c895e6f7867cb07783f86f4623", "is_reserved": 0, "is_disabled": 0, "bike_id": "4ac217c895e6f7867cb07783f86f4623", "fusion_lon": 0.0, "lon": -77.0187805}, {"lat": 38.924163, "type": "electric_scooter", "rental_uris": {"android": "https://dc.lft.to/lastmile_qr_scan", "ios": "https://dc.lft.to/lastmile_qr_scan"}, "fusion_lat": 0.0, "name": "bd48d05669f44400e42e564340e323e4", "is_reserved": 0, "is_disabled": 0, "bike_id": "bd48d05669f44400e42e564340e323e4", "fusion_lon": 0.0, "lon": -77.0652475}, {"lat": 38.964419166666666, "type": "electric_bike", "rental_uris": {"android": "https://dc.lft.to/lastmile_qr_scan", "ios": "https://dc.lft.to/lastmile_qr_scan"}, "fusion_lat": 0.0, "name": "44690ece39614bf7599178c2e798e2c7", "is_reserved": 0, "is_disabled": 0, "bike_id": "44690ece39614bf7599178c2e798e2c7", "fusion_lon": 0.0, "lon": -77.02248483333334}, {"lat": 38.86667383333333, "type": "electric_scooter", "rental_uris": {"android": "https://dc.lft.to/lastmile_qr_scan", "ios": "https://dc.lft.to/lastmile_qr_scan"}, "fusion_lat": 0.0, "name": "b247bd69ba62719d14670b40ce8e3eac", "is_reserved": 0, "is_disabled": 0, "bike_id": "b247bd69ba62719d14670b40ce8e3eac", "fusion_lon": 0.0, "lon": -77.01123566666666}, {"lat": 38.884328833333335, "type": "electric_scooter", "rental_uris": {"android": "https://dc.lft.to/lastmile_qr_scan", "ios": "https://dc.lft.to/lastmile_qr_scan"}, "fusion_lat": 0.0, "name": "9812fc2bb2b293462ad79bb5c692f078", "is_reserved": 0, "is_disabled": 0, "bike_id": "9812fc2bb2b293462ad79bb5c692f078", "fusion_lon": 0.0, "lon": -77.02580566666667}, {"lat": 38.92223933333333, "type": "electric_scooter", "rental_uris": {"android": "https://dc.lft.to/lastmile_qr_scan", "ios": "https://dc.lft.to/lastmile_qr_scan"}, "fusion_lat": 0.0, "name": "347889ca21e8cafc16bd347fcce7078d", "is_reserved": 0, "is_disabled": 0, "bike_id": "347889ca21e8cafc16bd347fcce7078d", "fusion_lon": 0.0, "lon": -77.02121133333333}, {"lat": 38.92532883333333, "type": "electric_scooter", "rental_uris": {"android": "https://dc.lft.to/lastmile_qr_scan", "ios": "https://dc.lft.to/lastmile_qr_scan"}, "fusion_lat": 0.0, "name": "40b627dcd91fa015fdf35804602efdd5", "is_reserved": 0, "is_disabled": 0, "bike_id": "40b627dcd91fa015fdf35804602efdd5", "fusion_lon": 0.0, "lon": -77.03382533333334}, {"lat": 38.89863283333333, "type": "electric_scooter", "rental_uris": {"android": "https://dc.lft.to/lastmile_qr_scan", "ios": "https://dc.lft.to/lastmile_qr_scan"}, "fusion_lat": 0.0, "name": "c004805a37bcc3d7593e7f092572737f", "is_reserved": 0, "is_disabled": 0, "bike_id": "c004805a37bcc3d7593e7f092572737f", "fusion_lon": 0.0, "lon": -77.03970666666666}, {"lat": 38.921387, "type": "electric_scooter", "rental_uris": {"android": "https://dc.lft.to/lastmile_qr_scan", "ios": "https://dc.lft.to/lastmile_qr_scan"}, "fusion_lat": 0.0, "name": "78b880574c35b767801e5cee844b4f53", "is_reserved": 0, "is_disabled": 0, "bike_id": "78b880574c35b767801e5cee844b4f53", "fusion_lon": 0.0, "lon": -77.03524916666667}, {"lat": 38.900216666666665, "type": "electric_scooter", "rental_uris": {"android": "https://dc.lft.to/lastmile_qr_scan", "ios": "https://dc.lft.to/lastmile_qr_scan"},