{"data": {"bikes": [{"is_reserved": 0, "type": "electric_scooter", "bike_id": "f36806a17b5e17c5b72a121d0563fe26", "lat": 38.924807666666666, "lon": -77.02724283333333, "rental_uris": {"android": "https://dc.lft.to/lastmile_qr_scan", "ios": "https://dc.lft.to/lastmile_qr_scan"}, "is_disabled": 0, "fusion_lat": 0.0, "name": "f36806a17b5e17c5b72a121d0563fe26", "fusion_lon": 0.0}, {"is_reserved": 0, "type": "electric_scooter", "bike_id": "2550d0084610ffe02b8121cf2b5e71ce", "lat": 38.92149783333333, "lon": -77.03508466666666, "rental_uris": {"android": "https://dc.lft.to/lastmile_qr_scan", "ios": "https://dc.lft.to/lastmile_qr_scan"}, "is_disabled": 0, "fusion_lat": 0.0, "name": "2550d0084610ffe02b8121cf2b5e71ce", "fusion_lon": 0.0}, {"is_reserved": 0, "type": "electric_scooter", "bike_id": "ed8647af9393a0cbf37f8f69675b21fc", "lat": 38.93383816666667, "lon": -77.04551716666667, "rental_uris": {"android": "https://dc.lft.to/lastmile_qr_scan", "ios": "https://dc.lft.to/lastmile_qr_scan"}, "is_disabled": 0, "fusion_lat": 0.0, "name": "ed8647af9393a0cbf37f8f69675b21fc", "fusion_lon": 0.0}, {"is_reserved": 0, "type": "electric_scooter", "bike_id": "85fc79f517fc9d06adf14f0bce9fef0f", "lat": 38.940045833333336, "lon": -77.027351, "rental_uris": {"android": "https://dc.lft.to/lastmile_qr_scan", "ios": "https://dc.lft.to/lastmile_qr_scan"}, "is_disabled": 0, "fusion_lat": 0.0, "name": "85fc79f517fc9d06adf14f0bce9fef0f", "fusion_lon": 0.0}, {"is_reserved": 0, "type": "electric_scooter", "bike_id": "69a8070dba91403bb02b5e86ddd0dcba", "lat": 38.9335435, "lon": -77.03410616666666, "rental_uris": {"android": "https://dc.lft.to/lastmile_qr_scan", "ios": "https://dc.lft.to/lastmile_qr_scan"}, "is_disabled": 0, "fusion_lat": 0.0, "name": "69a8070dba91403bb02b5e86ddd0dcba", "fusion_lon": 0.0}, {"is_reserved": 0, "type": "electric_scooter", "bike_id": "8fb1ec23c266d020e1bc79879d36cd98", "lat": 38.88118983333333, "lon": -77.01975933333334, "rental_uris": {"android": "https://dc.lft.to/lastmile_qr_scan", "ios": "https://dc.lft.to/lastmile_qr_scan"}, "is_disabled": 0, "fusion_lat": 0.0, "name": "8fb1ec23c266d020e1bc79879d36cd98", "fusion_lon": 0.0}, {"is_reserved": 0, "type": "electric_scooter", "bike_id": "ae9633bb985dde3ce8de434a7c609607", "lat": 38.9191685, "lon": -77.033403, "rental_uris": {"android": "https://dc.lft.to/lastmile_qr_scan", "ios": "https://dc.lft.to/lastmile_qr_scan"}, "is_disabled": 0, "fusion_lat": 0.0, "name": "ae9633bb985dde3ce8de434a7c609607", "fusion_lon": 0.0}, {"is_reserved": 0, "type": "electric_scooter", "bike_id": "ff9306f956886e3f5f0e129ddaf8652b", "lat": 38.89718333333333, "lon": -77.0079735, "rental_uris": {"android": "https://dc.lft.to/lastmile_qr_scan", "ios": "https://dc.lft.to/lastmile_qr_scan"}, "is_disabled": 0, "fusion_lat": 0.0, "name": "ff9306f956886e3f5f0e129ddaf8652b", "fusion_lon": 0.0}, {"is_reserved": 0, "type": "electric_scooter", "bike_id": "29a52241a24b6e9c653275df7a36f3a5", "lat": 38.90455466666667, "lon": -77.04866566666666, "rental_uris": {"android": "https://dc.lft.to/lastmile_qr_scan", "ios": "https://dc.lft.to/lastmile_qr_scan"}, "is_disabled": 0, "fusion_lat": 0.0, "name": "29a52241a24b6e9c653275df7a36f3a5", "fusion_lon": 0.0}, {"is_reserved": 0, "type": "electric_bike", "bike_id": "780a546555bfea11784a2f7491d2485d", "lat": 38.89456333333333, "lon": -77.191326, "rental_uris": {"android": "https://dc.lft.to/lastmile_qr_scan", "ios": "https://dc.lft.to/lastmile_qr_scan"}, "is_disabled": 0, "fusion_lat": 0.0, "name": "780a546555bfea11784a2f7491d2485d", "fusion_lon": 0.0}, {"is_reserved": 0, "type": "electric_scooter", "bike_id": "a0f19e4abbcf6cf00665272ad255cb7e", "lat": 38.884768333333334, "lon": -77.03200783333334, "rental_uris": {"android": "https://dc.lft.to/lastmile_qr_scan", "ios": "https://dc.lft.to/lastmile_qr_scan"}, "is_disabled": 0, "fusion_lat": 0.0, "name": "a0f19e4abbcf6cf00665272ad255cb7e", "fusion_lon": 0.0}, {"is_reserved": 0, "type": "electric_scooter", "bike_id": "b74815e607a7bff6f2d358fe07b9cbae", "lat": 38.906754166666666, "lon": -77.076359, "rental_uris": {"android": "https://dc.lft.to/lastmile_qr_scan", "ios": "https://dc.lft.to/lastmile_qr_scan"}, "is_disabled": 0, "fusion_lat": 0.0, "name": "b74815e607a7bff6f2d358fe07b9cbae", "fusion_lon": 0.0}, {"is_reserved": 0, "type": "electric_scooter", "bike_id": "195fb7983f7f715bbcfbf380653d9493", "lat": 38.903637333333336, "lon": -77.02573533333333, "rental_uris": {"android": "https://dc.lft.to/lastmile_qr_scan", "ios": "https://dc.lft.to/lastmile_qr_scan"}, "is_disabled": 0, "fusion_lat": 0.0, "name": "195fb7983f7f715bbcfbf380653d9493", "fusion_lon": 0.0}, {"is_reserved": 0, "type": "electric_scooter", "bike_id": "26770af7403881061a6f3018d89a5acc", "lat": 38.90304883333334, "lon": -77.05311716666667, "rental_uris": {"android": "https://dc.lft.to/lastmile_qr_scan", "ios": "https://dc.lft.to/lastmile_qr_scan"}, "is_disabled": 0, "fusion_lat": 0.0, "name": "26770af7403881061a6f3018d89a5acc", "fusion_lon": 0.0}, {"is_reserved": 0, "type": "electric_scooter", "bike_id": "80af58a615e3a3e21f29f71bf8697882", "lat": 38.91492516666667, "lon": -77.01215483333333, "rental_uris": {"android": "https://dc.lft.to/lastmile_qr_scan", "ios": "https://dc.lft.to/lastmile_qr_scan"}, "is_disabled": 0, "fusion_lat": 0.0, "name": "80af58a615e3a3e21f29f71bf8697882", "fusion_lon": 0.0}, {"is_reserved": 0, "type": "electric_scooter", "bike_id": "d9b77ddb2529bbb929ae917ccd0b4fb9", "lat": 38.9241235, "lon": -77.02010833333334, "rental_uris": {"android": "https://dc.lft.to/lastmile_qr_scan", "ios": "https://dc.lft.to/lastmile_qr_scan"}, "is_disabled": 0, "fusion_lat": 0.0, "name": "d9b77ddb2529bbb929ae917ccd0b4fb9", "fusion_lon": 0.0}, {"is_reserved": 0, "type": "electric_scooter", "bike_id": "ef6627d00dff13fa903dcd665151dd7b", "lat": 38.87914, "lon": -76.9845815, "rental_uris": {"android": "https://dc.lft.to/lastmile_qr_scan", "ios": "https://dc.lft.to/lastmile_qr_scan"}, "is_disabled": 0, "fusion_lat": 0.0, "name": "ef6627d00dff13fa903dcd665151dd7b", "fusion_lon": 0.0}, {"is_reserved": 0, "type": "electric_scooter", "bike_id": "512a03e7249fed99cdcb0b038f6e4fba", "lat": 38.920568, "lon": -76.99215583333333, "rental_uris": {"android": "https://dc.lft.to/lastmile_qr_scan", "ios": "https://dc.lft.to/lastmile_qr_scan"}, "is_disabled": 0, "fusion_lat": 0.0, "name": "512a03e7249fed99cdcb0b038f6e4fba", "fusion_lon": 0.0}, {"is_reserved": 0, "type": "electric_bike", "bike_id": "e54c27c02ef87450ba0080eac2f0c7e1", "lat": 38.887853166666666, "lon": -76.92339233333334, "rental_uris": {"android": "https://dc.lft.to/lastmile_qr_scan", "ios": "https://dc.lft.to/lastmile_qr_scan"}, "is_disabled": 0, "fusion_lat": 0.0, "name": "e54c27c02ef87450ba0080eac2f0c7e1", "fusion_lon": 0.0}, {"is_reserved": 0, "type": "electric_bike", "bike_id": "835c07388e582c43dc3abd4dc42f98f3", "lat": 38.921465166666664, "lon": -77.03867816666667, "rental_uris": {"android": "https://dc.lft.to/lastmile_qr_scan", "ios": "https://dc.lft.to/lastmile_qr_scan"}, "is_disabled": 0, "fusion_lat": 0.0, "name": "835c07388e582c43dc3abd4dc42f98f3", "fusion_lon": 0.0}, {"is_reserved": 0, "type": "electric_scooter", "bike_id": "30c4be24c51be9d360ef766ef63ccaef", "lat": 38.899031666666666, "lon": -77.00358, "rental_uris": {"android": "https://dc.lft.to/lastmile_qr_scan", "ios": "https://dc.lft.to/lastmile_qr_scan"}, "is_disabled": 0, "fusion_lat": 0.0, "name": "30c4be24c51be9d360ef766ef63ccaef", "fusion_lon": 0.0}, {"is_reserved": 0, "type": "electric_scooter", "bike_id": "a714a83dd83623840c2340001e9ee9f7", "lat": 38.908615, "lon": -77.03276916666667, "rental_uris": {"android": "https://dc.lft.to/lastmile_qr_scan", "ios": "https://dc.lft.to/lastmile_qr_scan"}, "is_disabled": 0, "fusion_lat": 0.0, "name": "a714a83dd83623840c2340001e9ee9f7", "fusion_lon": 0.0}, {"is_reserved": 0, "type": "electric_scooter", "bike_id": "7b65733e414ef7ef467bdc6f5c5d3ecb", "lat": 38.91330383333333, "lon": -77.04801966666666, "rental_uris": {"android": "https://dc.lft.to/lastmile_qr_scan", "ios": "https://dc.lft.to/lastmile_qr_scan"}, "is_disabled": 0, "fusion_lat": 0.0, "name": "7b65733e414ef7ef467bdc6f5c5d3ecb", "fusion_lon": 0.0}, {"is_reserved": 0, "type": "electric_scooter", "bike_id": "8a4cc22e09e9f65f43219fc8a5a2369a", "lat": 38.89436083333333, "lon": -77.04319683333334, "rental_uris": {"android": "https://dc.lft.to/lastmile_qr_scan", "ios": "https://dc.lft.to/lastmile_qr_scan"}, "is_disabled": 0, "fusion_lat": 0.0, "name": "8a4cc22e09e9f65f43219fc8a5a2369a", "fusion_lon": 0.0}, {"is_reserved": 0, "type": "electric_scooter", "bike_id": "5e0ea2046bcd211a55308476602d28d5", "lat": 38.92352283333334, "lon": -76.99078583333333, "rental_uris": {"android": "https://dc.lft.to/lastmile_qr_scan", "ios": "https://dc.lft.to/lastmile_qr_scan"}, "is_disabled": 0, "fusion_lat": 0.0, "name": "5e0ea2046bcd211a55308476602d28d5", "fusion_lon": 0.0}, {"is_reserved": 0, "type": "electric_scooter", "bike_id": "9507c98cf42648a05bb6b60557d6545f", "lat": 38.90315966666667, "lon": -77.02415666666667, "rental_uris": {"android": "https://dc.lft.to/lastmile_qr_scan", "ios": "https://dc.lft.to/lastmile_qr_scan"}, "is_disabled": 0, "fusion_lat": 0.0, "name": "9507c98cf42648a05bb6b60557d6545f", "fusion_lon": 0.0}, {"is_reserved": 0, "type": "electric_scooter", "bike_id": "d70e1e945b6c58a5477a8ad6c7d1b36e", "lat": 38.906482833333335, "lon": -77.01429166666667, "rental_uris": {"android": "https://dc.lft.to/lastmile_qr_scan", "ios": "https://dc.lft.to/lastmile_qr_scan"}, "is_disabled": 0, "fusion_lat": 0.0, "name": "d70e1e945b6c58a5477a8ad6c7d1b36e", "fusion_lon": 0.0}, {"is_reserved": 0, "type": "electric_bike", "bike_id": "5656b35cd3858191a8ec0240a51a46d4", "lat": 38.95590883333333, "lon": -76.99531883333333, "rental_uris": {"android": "https://dc.lft.to/lastmile_qr_scan", "ios": "https://dc.lft.to/lastmile_qr_scan"}, "is_disabled": 0, "fusion_lat": 0.0, "name": "5656b35cd3858191a8ec0240a51a46d4", "fusion_lon": 0.0}, {"is_reserved": 0, "type": "electric_scooter", "bike_id": "b02eab358ab9641a6f11c229699304ff", "lat": 38.937811833333335, "lon": -77.0745245, "rental_uris": {"android": "https://dc.lft.to/lastmile_qr_scan", "ios": "https://dc.lft.to/lastmile_qr_scan"}, "is_disabled": 0, "fusion_lat": 0.0, "name": "b02eab358ab9641a6f11c229699304ff", "fusion_lon": 0.0}, {"is_reserved": 0, "type": "electric_scooter", "bike_id": "3a0c4acf7a0407afb50f866900aac855", "lat": 38.887458333333335, "lon": -77.01741366666667, "rental_uris": {"android": "https://dc.lft.to/lastmile_qr_scan", "ios": "https://dc.lft.to/lastmile_qr_scan"}, "is_disabled": 0, "fusion_lat": 0.0, "name": "3a0c4acf7a0407afb50f866900aac855", "fusion_lon": 0.0}, {"is_reserved": 0, "type": "electric_scooter", "bike_id": "8282658366600912172669784002f13d", "lat": 38.9011285, "lon": -77.05997833333333, "rental_uris": {"android": "https://dc.lft.to/lastmile_qr_scan", "ios": "https://dc.lft.to/lastmile_qr_scan"}, "is_disabled": 0, "fusion_lat": 0.0, "name": "8282658366600912172669784002f13d", "fusion_lon": 0.0}, {"is_reserved": 0, "type": "electric_scooter", "bike_id": "749a1bdbc9d2b8f5d14666c55b1dd927", "lat": 38.91242716666667, "lon": -77.0385315, "rental_uris": {"android": "https://dc.lft.to/lastmile_qr_scan", "ios": "https://dc.lft.to/lastmile_qr_scan"}, "is_disabled": 0, "fusion_lat": 0.0, "name": "749a1bdbc9d2b8f5d14666c55b1dd927", "fusion_lon": 0.0}, {"is_reserved": 0, "type": "electric_scooter", "bike_id": "b4bc1f42dade4f7b570d0fd884797488", "lat": 38.90564233333333, "lon": -76.9978065, "rental_uris": {"android": "https://dc.lft.to/lastmile_qr_scan", "ios": "https://dc.lft.to/lastmile_qr_scan"}, "is_disabled": 0, "fusion_lat": 0.0, "name": "b4bc1f42dade4f7b570d0fd884797488", "fusion_lon": 0.0}, {"is_reserved": 0, "type": "electric_scooter", "bike_id": "ce3c245f90cba842f8ea7ef1f7ae3865", "lat": 38.90466116666666, "lon": -77.003376, "rental_uris": {"android": "https://dc.lft.to/lastmile_qr_scan", "ios": "https://dc.lft.to/lastmile_qr_scan"}, "is_disabled": 0, "fusion_lat": 0.0, "name": "ce3c245f90cba842f8ea7ef1f7ae3865", "fusion_lon": 0.0}, {"is_reserved": 0, "type": "electric_scooter", "bike_id": "53f3c7ef1919f2fb2949d18dde71e0f5", "lat": 38.92448566666667, "lon": -77.02035633333334, "rental_uris": {"android": "https://dc.lft.to/lastmile_qr_scan", "ios": "https://dc.lft.to/lastmile_qr_scan"}, "is_disabled": 0, "fusion_lat": 0.0, "name": "53f3c7ef1919f2fb2949d18dde71e0f5", "fusion_lon": 0.0}, {"is_reserved": 0, "type": "electric_scooter", "bike_id": "a62be283ad86269fe5c36aca559c487e", "lat": 38.90074966666667, "lon": -77.016356, "rental_uris": {"android": "https://dc.lft.to/lastmile_qr_scan", "ios": "https://dc.lft.to/lastmile_qr_scan"}, "is_disabled": 0, "fusion_lat": 0.0, "name": "a62be283ad86269fe5c36aca559c487e", "fusion_lon": 0.0}, {"is_reserved": 0, "type": "electric_scooter", "bike_id": "877ddf5e351b39cc56d8426617dd0650", "lat": 38.900262166666664, "lon": -77.012256, "rental_uris": {"android": "https://dc.lft.to/lastmile_qr_scan", "ios": "https://dc.lft.to/lastmile_qr_scan"}, "is_disabled": 0, "fusion_lat": 0.0, "name": "877ddf5e351b39cc56d8426617dd0650", "fusion_lon": 0.0}, {"is_reserved": 0, "type": "electric_bike", "bike_id": "b409efd133674e85a0478530df5542b4", "lat": 38.83229983333333, "lon": -76.94618983333334, "rental_uris": {"android": "https://dc.lft.to/lastmile_qr_scan", "ios": "https://dc.lft.to/lastmile_qr_scan"}, "is_disabled": 0, "fusion_lat": 0.0, "name": "b409efd133674e85a0478530df5542b4", "fusion_lon": 0.0}, {"is_reserved": 0, "type": "electric_bike", "bike_id": "5f0017ee670670da238a22707fd877ae", "lat": 38.8839105, "lon": -76.95447816666666, "rental_uris": {"android": "https://dc.lft.to/lastmile_qr_scan", "ios": "https://dc.lft.to/lastmile_qr_scan"}, "is_disabled": 0, "fusion_lat": 0.0, "name": "5f0017ee670670da238a22707fd877ae", "fusion_lon": 0.0}, {"is_reserved": 0, "type": "electric_scooter", "bike_id": "e48ed602d9e8f79d7fd55f364c9e7695", "lat": 38.93206216666667, "lon": -77.02731683333333, "rental_uris": {"android": "https://dc.lft.to/lastmile_qr_scan", "ios": "https://dc.lft.to/lastmile_qr_scan"}, "is_disabled": 0, "fusion_lat": 0.0, "name": "e48ed602d9e8f79d7fd55f364c9e7695", "fusion_lon": 0.0}, {"is_reserved": 0, "type": "electric_scooter", "bike_id": "f7e95f639585aaeda4c8fe7e88831e53", "lat": 38.90732166666667, "lon": -77.004112, "rental_uris": {"android": "https://dc.lft.to/lastmile_qr_scan", "ios": "https://dc.lft.to/lastmile_qr_scan"}, "is_disabled": 0, "fusion_lat": 0.0, "name": "f7e95f639585aaeda4c8fe7e88831e53", "fusion_lon": 0.0}, {"is_reserved": 0, "type": "electric_scooter", "bike_id": "788550feab80d441a0598923aa2712ef", "lat": 38.91091133333333, "lon": -76.9971235, "rental_uris": {"android": "https://dc.lft.to/lastmile_qr_scan", "ios": "https://dc.lft.to/lastmile_qr_scan"}, "is_disabled": 0, "fusion_lat": 0.0, "name": "788550feab80d441a0598923aa2712ef", "fusion_lon": 0.0}, {"is_reserved": 0, "type": "electric_scooter", "bike_id": "284fbb6761146f61dcebcb5f754c3153", "lat": 38.910502666666666, "lon": -77.0344795, "rental_uris": {"android": "https://dc.lft.to/lastmile_qr_scan", "ios": "https://dc.lft.to/lastmile_qr_scan"}, "is_disabled": 0, "fusion_lat": 0.0, "name": "284fbb6761146f61dcebcb5f754c3153", "fusion_lon": 0.0}, {"is_reserved": 0, "type": "electric_scooter", "bike_id": "e2576e5a20429e09afca2286c67df316", "lat": 38.893267, "lon": -77.022311, "rental_uris": {"android": "https://dc.lft.to/lastmile_qr_scan", "ios": "https://dc.lft.to/lastmile_qr_scan"}, "is_disabled": 0, "fusion_lat": 0.0, "name": "e2576e5a20429e09afca2286c67df316", "fusion_lon": 0.0}, {"is_reserved": 0, "type": "electric_scooter", "bike_id": "461b152b8ac3abb04e0b6b2143f76f9e", "lat": 38.90521733333333, "lon": -77.05845533333333, "rental_uris": {"android": "https://dc.lft.to/lastmile_qr_scan", "ios": "https://dc.lft.to/lastmile_qr_scan"}, "is_disabled": 0, "fusion_lat": 0.0, "name": "461b152b8ac3abb04e0b6b2143f76f9e", "fusion_lon": 0.0}, {"is_reserved": 0, "type": "electric_bike", "bike_id": "31010f7bb4b02a71bc30b0e2049f3238", "lat": 38.9148425, "lon": -77.0415795, "rental_uris": {"android": "https://dc.lft.to/lastmile_qr_scan", "ios": "https://dc.lft.to/lastmile_qr_scan"}, "is_disabled": 0, "fusion_lat": 0.0, "name": "31010f7bb4b02a71bc30b0e2049f3238", "fusion_lon": 0.0}, {"is_reserved": 0, "type": "electric_scooter", "bike_id": "5b1cb1a42ddb2bfa6005a4e1c31b8b64", "lat": 38.928779166666665, "lon": -77.03339266666667, "rental_uris": {"android": "https://dc.lft.to/lastmile_qr_scan", "ios": "https://dc.lft.to/lastmile_qr_scan"}, "is_disabled": 0, "fusion_lat": 0.0, "name": "5b1cb1a42ddb2bfa6005a4e1c31b8b64", "fusion_lon": 0.0}, {"is_reserved": 0, "type": "electric_scooter", "bike_id": "c064b24c0dd58b11717979ee08023af4", "lat": 38.95962433333333, "lon": -77.072663, "rental_uris": {"android": "https://dc.lft.to/lastmile_qr_scan", "ios": "https://dc.lft.to/lastmile_qr_scan"}, "is_disabled": 0, "fusion_lat": 0.0, "name": "c064b24c0dd58b11717979ee08023af4", "fusion_lon": 0.0}, {"is_reserved": 0, "type": "electric_scooter", "bike_id": "44ce9ad992bb9941827644e47e5635cf", "lat": 38.920589666666665, "lon": -77.0294605, "rental_uris": {"android": "https://dc.lft.to/lastmile_qr_scan", "ios": "https://dc.lft.to/lastmile_qr_scan"}, "is_disabled": 0, "fusion_lat": 0.0, "name": "44ce9ad992bb9941827644e47e5635cf", "fusion_lon": 0.0}, {"is_reserved": 0, "type": "electric_scooter", "bike_id": "82e92c02a69c9d3089024f9c6b823bce", "lat": 38.881577166666666, "lon": -76.99498983333334, "rental_uris": {"android": "https://dc.lft.to/lastmile_qr_scan", "ios": "https://dc.lft.to/lastmile_qr_scan"}, "is_disabled": 0, "fusion_lat": 0.0, "name": "82e92c02a69c9d3089024f9c6b823bce", "fusion_lon": 0.0}, {"is_reserved": 0, "type": "electric_bike", "bike_id": "0a0f5f959a99d8552c05ab32bcd9266b", "lat": 38.932729, "lon": -77.0722535, "rental_uris": {"android": "https://dc.lft.to/lastmile_qr_scan", "ios": "https://dc.lft.to/lastmile_qr_scan"}, "is_disabled": 0, "fusion_lat": 0.0, "name": "0a0f5f959a99d8552c05ab32bcd9266b", "fusion_lon": 0.0}, {"is_reserved": 0, "type": "electric_scooter", "bike_id": "793d0e7c9a558d88d12271c8ed72910b", "lat": 38.89644666666667, "lon": -77.03306216666667, "rental_uris": {"android": "https://dc.lft.to/lastmile_qr_scan", "ios": "https://dc.lft.to/lastmile_qr_scan"}, "is_disabled": 0, "fusion_lat": 0.0, "name": "793d0e7c9a558d88d12271c8ed72910b", "fusion_lon": 0.0}, {"is_reserved": 0, "type": "electric_scooter", "bike_id": "caa3ed623dd5d9d4f6145ead998192b5", "lat": 38.906787333333334, "lon": -77.0420145, "rental_uris": {"android": "https://dc.lft.to/lastmile_qr_scan", "ios": "https://dc.lft.to/lastmile_qr_scan"}, "is_disabled": 0, "fusion_lat": 0.0, "name": "caa3ed623dd5d9d4f6145ead998192b5", "fusion_lon": 0.0}, {"is_reserved": 0, "type": "electric_scooter", "bike_id": "2b817f8debf58326baa8f265c0f84aa2", "lat": 38.899835833333334, "lon": -77.007669, "rental_uris": {"android": "https://dc.lft.to/lastmile_qr_scan", "ios": "https://dc.lft.to/lastmile_qr_scan"}, "is_disabled": 0, "fusion_lat": 0.0, "name": "2b817f8debf58326baa8f265c0f84aa2", "fusion_lon": 0.0}, {"is_reserved": 0, "type": "electric_scooter", "bike_id": "ff9b3b00942f098af4db1c9906c905e4", "lat": 38.902775, "lon": -77.01809516666667, "rental_uris": {"android": "https://dc.lft.to/lastmile_qr_scan", "ios": "https://dc.lft.to/lastmile_qr_scan"}, "is_disabled": 0, "fusion_lat": 0.0, "name": "ff9b3b00942f098af4db1c9906c905e4", "fusion_lon": 0.0}, {"is_reserved": 0, "type": "electric_scooter", "bike_id": "983b7ae0223036f1414ec5e03c765b52", "lat": 38.929711833333336, "lon": -77.0279085, "rental_uris": {"android": "https://dc.lft.to/lastmile_qr_scan", "ios": "https://dc.lft.to/lastmile_qr_scan"}, "is_disabled": 0, "fusion_lat": 0.0, "name": "983b7ae0223036f1414ec5e03c765b52", "fusion_lon": 0.0}, {"is_reserved": 0, "type": "electric_scooter", "bike_id": "9ef302d5754e6e2c7081448f5bd9f68b", "lat": 38.90261516666666, "lon": -77.027893, "rental_uris": {"android": "https://dc.lft.to/lastmile_qr_scan", "ios": "https://dc.lft.to/lastmile_qr_scan"}, "is_disabled": 0, "fusion_lat": 0.0, "name": "9ef302d5754e6e2c7081448f5bd9f68b", "fusion_lon": 0.0}, {"is_reserved": 0, "type": "electric_scooter", "bike_id": "8e3dfdb50841a1c9d81e90d3773ab750", "lat": 38.9098465, "lon": -77.03385766666666, "rental_uris": {"android": "https://dc.lft.to/lastmile_qr_scan", "ios": "https://dc.lft.to/lastmile_qr_scan"}, "is_disabled": 0, "fusion_lat": 0.0, "name": "8e3dfdb50841a1c9d81e90d3773ab750", "fusion_lon": 0.0}, {"is_reserved": 0, "type": "electric_bike", "bike_id": "30b4337385025866df481d8c328c8e5d", "lat": 38.86995816666666, "lon": -77.22978666666667, "rental_uris": {"android": "https://dc.lft.to/lastmile_qr_scan", "ios": "https://dc.lft.to/lastmile_qr_scan"}, "is_disabled": 0, "fusion_lat": 0.0, "name": "30b4337385025866df481d8c328c8e5d", "fusion_lon": 0.0}, {"is_reserved": 0, "type": "electric_bike", "bike_id": "8428e9daf1fcbab7eccad5b45ca6a9d4", "lat": 38.854167333333336, "lon": -77.08366583333333, "rental_uris": {"android": "https://dc.lft.to/lastmile_qr_scan", "ios": "https://dc.lft.to/lastmile_qr_scan"}, "is_disabled": 0, "fusion_lat": 0.0, "name": "8428e9daf1fcbab7eccad5b45ca6a9d4", "fusion_lon": 0.0}, {"is_reserved": 0, "type": "electric_scooter", "bike_id": "790ddb5252c34e453b9e81e3b81557e2", "lat": 38.9019525, "lon": -77.02189783333333, "rental_uris": {"android": "https://dc.lft.to/lastmile_qr_scan", "ios": "https://dc.lft.to/lastmile_qr_scan"}, "is_disabled": 0, "fusion_lat": 0.0, "name": "790ddb5252c34e453b9e81e3b81557e2", "fusion_lon": 0.0}, {"is_reserved": 0, "type": "electric_scooter", "bike_id": "067b2216af5d5c82814c2f1cb775be3f", "lat": 38.9251695, "lon": -77.05062533333333, "rental_uris": {"android": "https://dc.lft.to/lastmile_qr_scan", "ios": "https://dc.lft.to/lastmile_qr_scan"}, "is_disabled": 0, "fusion_lat": 0.0, "name": "067b2216af5d5c82814c2f1cb775be3f", "fusion_lon": 0.0}, {"is_reserved": 0, "type": "electric_bike", "bike_id": "17379f7b89d1229de10a28db950f850f", "lat": 38.86336516666667, "lon": -76.9871795, "rental_uris": {"android": "https://dc.lft.to/lastmile_qr_scan", "ios": "https://dc.lft.to/lastmile_qr_scan"}, "is_disabled": 0, "fusion_lat": 0.0, "name": "17379f7b89d1229de10a28db950f850f", "fusion_lon": 0.0}, {"is_reserved": 0, "type": "electric_scooter", "bike_id": "ecc34386c313124c29432e5ddd702c44", "lat": 38.92416766666667, "lon": -77.020135, "rental_uris": {"android": "https://dc.lft.to/lastmile_qr_scan", "ios": "https://dc.lft.to/lastmile_qr_scan"}, "is_disabled": 0, "fusion_lat": 0.0, "name": "ecc34386c313124c29432e5ddd702c44", "fusion_lon": 0.0}, {"is_reserved": 0, "type": "electric_scooter", "bike_id": "3766c4959a1dd40ebc43417c0dd76db2", "lat": 38.91106533333333, "lon": -77.04901583333333, "rental_uris": {"android": "https://dc.lft.to/lastmile_qr_scan", "ios": "https://dc.lft.to/lastmile_qr_scan"}, "is_disabled": 0, "fusion_lat": 0.0, "name": "3766c4959a1dd40ebc43417c0dd76db2", "fusion_lon": 0.0}, {"is_reserved": 0, "type": "electric_scooter", "bike_id": "91a9c67cfc37cc2174db4191f66363f2", "lat": 38.92156, "lon": -77.034039, "rental_uris": {"android": "https://dc.lft.to/lastmile_qr_scan", "ios": "https://dc.lft.to/lastmile_qr_scan"}, "is_disabled": 0, "fusion_lat": 0.0, "name": "91a9c67cfc37cc2174db4191f66363f2", "fusion_lon": 0.0}, {"is_reserved": 0, "type": "electric_bike", "bike_id": "8ebb42ce2be8e7e57ba67f1430a20061", "lat": 39.00030683333333, "lon": -77.04744433333333, "rental_uris": {"android": "https://dc.lft.to/lastmile_qr_scan", "ios": "https://dc.lft.to/lastmile_qr_scan"}, "is_disabled": 0, "fusion_lat": 0.0, "name": "8ebb42ce2be8e7e57ba67f1430a20061", "fusion_lon": 0.0}, {"is_reserved": 0, "type": "electric_scooter", "bike_id": "268648f6bab51329f700baae05c079fc", "lat": 38.9215635, "lon": -77.03517766666667, "rental_uris": {"android": "https://dc.lft.to/lastmile_qr_scan", "ios": "https://dc.lft.to/lastmile_qr_scan"}, "is_disabled": 0, "fusion_lat": 0.0, "name": "268648f6bab51329f700baae05c079fc", "fusion_lon": 0.0}, {"is_reserved": 0, "type": "electric_bike", "bike_id": "318c7d72d6c090e3bbce2311a6fd5c33", "lat": 38.90023083333333, "lon": -77.01227416666667, "rental_uris": {"android": "https://dc.lft.to/lastmile_qr_scan", "ios": "https://dc.lft.to/lastmile_qr_scan"}, "is_disabled": 0, "fusion_lat": 0.0, "name": "318c7d72d6c090e3bbce2311a6fd5c33", "fusion_lon": 0.0}, {"is_reserved": 0, "type": "electric_scooter", "bike_id": "23e2a2d18be5bd18e7788145d990b24b", "lat": 38.93246666666667, "lon": -76.99510316666667, "rental_uris": {"android": "https://dc.lft.to/lastmile_qr_scan", "ios": "https://dc.lft.to/lastmile_qr_scan"}, "is_disabled": 0, "fusion_lat": 0.0, "name": "23e2a2d18be5bd18e7788145d990b24b", "fusion_lon": 0.0}, {"is_reserved": 0, "type": "electric_scooter", "bike_id": "88016df793910e94f9b6bd0d8248f196", "lat": 38.882562166666666, "lon": -77.00628016666667, "rental_uris": {"android": "https://dc.lft.to/lastmile_qr_scan", "ios": "https://dc.lft.to/lastmile_qr_scan"}, "is_disabled": 0, "fusion_lat": 0.0, "name": "88016df793910e94f9b6bd0d8248f196", "fusion_lon": 0.0}, {"is_reserved": 0, "type": "electric_scooter", "bike_id": "58032e4835b2892fbac14c495e0f540f", "lat": 38.914138666666666, "lon": -77.03170233333333, "rental_uris": {"android": "https://dc.lft.to/lastmile_qr_scan", "ios": "https://dc.lft.to/lastmile_qr_scan"}, "is_disabled": 0, "fusion_lat": 0.0, "name": "58032e4835b2892fbac14c495e0f540f", "fusion_lon": 0.0}, {"is_reserved": 0, "type": "electric_scooter", "bike_id": "a035ddb71a3ba10d351f8d645e464b8b", "lat": 38.904207, "lon": -77.03076133333333, "rental_uris": {"android": "https://dc.lft.to/lastmile_qr_scan", "ios": "https://dc.lft.to/lastmile_qr_scan"}, "is_disabled": 0, "fusion_lat": 0.0, "name": "a035ddb71a3ba10d351f8d645e464b8b", "fusion_lon": 0.0}, {"is_reserved": 0, "type": "electric_scooter", "bike_id": "8611b8fd4344ee85cc269f3097938681", "lat": 38.908497833333335, "lon": -77.01019816666667, "rental_uris": {"android": "https://dc.lft.to/lastmile_qr_scan", "ios": "https://dc.lft.to/lastmile_qr_scan"}, "is_disabled": 0, "fusion_lat": 0.0, "name": "8611b8fd4344ee85cc269f3097938681", "fusion_lon": 0.0}, {"is_reserved": 0, "type": "electric_scooter", "bike_id": "4da1440f8c563c085430d2a4de7dbfe6", "lat": 38.924833666666665, "lon": -77.021409, "rental_uris": {"android": "https://dc.lft.to/lastmile_qr_scan", "ios": "https://dc.lft.to/lastmile_qr_scan"}, "is_disabled": 0, "fusion_lat": 0.0, "name": "4da1440f8c563c085430d2a4de7dbfe6", "fusion_lon": 0.0}, {"is_reserved": 0, "type": "electric_scooter", "bike_id": "dbb150fffc465b91bc63aaed7a93f329", "lat": 38.9340205, "lon": -77.04218816666666, "rental_uris": {"android": "https://dc.lft.to/lastmile_qr_scan", "ios": "https://dc.lft.to/lastmile_qr_scan"}, "is_disabled": 0, "fusion_lat": 0.0, "name": "dbb150fffc465b91bc63aaed7a93f329", "fusion_lon": 0.0}, {"is_reserved": 0, "type": "electric_scooter", "bike_id": "10dc2a43fd26f1c6bfb606caeb502558", "lat": 38.897348, "lon": -77.00325233333334, "rental_uris": {"android": "https://dc.lft.to/lastmile_qr_scan", "ios": "https://dc.lft.to/lastmile_qr_scan"}, "is_disabled": 0, "fusion_lat": 0.0, "name": "10dc2a43fd26f1c6bfb606caeb502558", "fusion_lon": 0.0}, {"is_reserved": 0, "type": "electric_scooter", "bike_id": "e1a43f352108f0ac98c49819afcba8b8", "lat": 38.92449466666667, "lon": -77.020387, "rental_uris": {"android": "https://dc.lft.to/lastmile_qr_scan", "ios": "https://dc.lft.to/lastmile_qr_scan"}, "is_disabled": 0, "fusion_lat": 0.0, "name": "e1a43f352108f0ac98c49819afcba8b8", "fusion_lon": 0.0}, {"is_reserved": 0, "type": "electric_scooter", "bike_id": "7da6b687b822f2b65b5d4cb0556e44d3", "lat": 38.930209, "lon": -77.02333483333334, "rental_uris": {"android": "https://dc.lft.to/lastmile_qr_scan", "ios": "https://dc.lft.to/lastmile_qr_scan"}, "is_disabled": 0, "fusion_lat": 0.0, "name": "7da6b687b822f2b65b5d4cb0556e44d3", "fusion_lon": 0.0}, {"is_reserved": 0, "type": "electric_scooter", "bike_id": "448f5875f41464958ec01210c876efe6", "lat": 38.908786166666665, "lon": -77.07636366666667, "rental_uris": {"android": "https://dc.lft.to/lastmile_qr_scan", "ios": "https://dc.lft.to/lastmile_qr_scan"}, "is_disabled": 0, "fusion_lat": 0.0, "name": "448f5875f41464958ec01210c876efe6", "fusion_lon": 0.0}, {"is_reserved": 0, "type": "electric_scooter", "bike_id": "ff2ddbfa48a5f833fdca8dd8cadd2a6b", "lat": 38.91637383333333, "lon": -77.00197633333333, "rental_uris": {"android": "https://dc.lft.to/lastmile_qr_scan", "ios": "https://dc.lft.to/lastmile_qr_scan"}, "is_disabled": 0, "fusion_lat": 0.0, "name": "ff2ddbfa48a5f833fdca8dd8cadd2a6b", "fusion_lon": 0.0}, {"is_reserved": 0, "type": "electric_scooter", "bike_id": "9df5a4c417bf30657988b4877df68cf1", "lat": 38.933274, "lon": -77.02912183333333, "rental_uris": {"android": "https://dc.lft.to/lastmile_qr_scan", "ios": "https://dc.lft.to/lastmile_qr_scan"}, "is_disabled": 0, "fusion_lat": 0.0, "name": "9df5a4c417bf30657988b4877df68cf1", "fusion_lon": 0.0}, {"is_reserved": 0, "type": "electric_scooter", "bike_id": "a1f49ffb00b94b10da9be6eadab3da4f", "lat": 38.90657216666666, "lon": -77.041717, "rental_uris": {"android": "https://dc.lft.to/lastmile_qr_scan", "ios": "https://dc.lft.to/lastmile_qr_scan"}, "is_disabled": 0, "fusion_lat": 0.0, "name": "a1f49ffb00b94b10da9be6eadab3da4f", "fusion_lon": 0.0}, {"is_reserved": 0, "type": "electric_scooter", "bike_id": "0ff4932d93f257af95413d326153272e", "lat": 38.919160833333336, "lon": -77.04810866666666, "rental_uris": {"android": "https://dc.lft.to/lastmile_qr_scan", "ios": "https://dc.lft.to/lastmile_qr_scan"}, "is_disabled": 0, "fusion_lat": 0.0, "name": "0ff4932d93f257af95413d326153272e", "fusion_lon": 0.0}, {"is_reserved": 0, "type": "electric_scooter", "bike_id": "97ebfac20e09d5f2c674915176cc87ac", "lat": 38.898420333333334, "lon": -77.02219466666666, "rental_uris": {"android": "https://dc.lft.to/lastmile_qr_scan", "ios": "https://dc.lft.to/lastmile_qr_scan"}, "is_disabled": 0, "fusion_lat": 0.0, "name": "97ebfac20e09d5f2c674915176cc87ac", "fusion_lon": 0.0}, {"is_reserved": 0, "type": "electric_scooter", "bike_id": "280823ea9a19b653e58f5abe4e44eeb1", "lat": 38.907248833333334, "lon": -77.04796683333333, "rental_uris": {"android": "https://dc.lft.to/lastmile_qr_scan", "ios": "https://dc.lft.to/lastmile_qr_scan"}, "is_disabled": 0, "fusion_lat": 0.0, "name": "280823ea9a19b653e58f5abe4e44eeb1", "fusion_lon": 0.0}, {"is_reserved": 0, "type": "electric_scooter", "bike_id": "5675dff2572d71831df7587da7bf15d9", "lat": 38.92363916666667, "lon": -77.05129983333333, "rental_uris": {"android": "https://dc.lft.to/lastmile_qr_scan", "ios": "https://dc.lft.to/lastmile_qr_scan"}, "is_disabled": 0, "fusion_lat": 0.0, "name": "5675dff2572d71831df7587da7bf15d9", "fusion_lon": 0.0}, {"is_reserved": 0, "type": "electric_scooter", "bike_id": "12da49eca3599edc3ccfa778bf4b1625", "lat": 38.897564, "lon": -77.0019655, "rental_uris": {"android": "https://dc.lft.to/lastmile_qr_scan", "ios": "https://dc.lft.to/lastmile_qr_scan"}, "is_disabled": 0, "fusion_lat": 0.0, "name": "12da49eca3599edc3ccfa778bf4b1625", "fusion_lon": 0.0}, {"is_reserved": 0, "type": "electric_scooter", "bike_id": "1f80f425b91a8ed0667730ab40281819", "lat": 38.946916333333334, "lon": -77.0745535, "rental_uris": {"android": "https://dc.lft.to/lastmile_qr_scan", "ios": "https://dc.lft.to/lastmile_qr_scan"}, "is_disabled": 0, "fusion_lat": 0.0, "name": "1f80f425b91a8ed0667730ab40281819", "fusion_lon": 0.0}, {"is_reserved": 0, "type": "electric_scooter", "bike_id": "275d592804648637c26536396e71445a", "lat": 38.90446983333333, "lon": -77.06289166666667, "rental_uris": {"android": "https://dc.lft.to/lastmile_qr_scan", "ios": "https://dc.lft.to/lastmile_qr_scan"}, "is_disabled": 0, "fusion_lat": 0.0, "name": "275d592804648637c26536396e71445a", "fusion_lon": 0.0}, {"is_reserved": 0, "type": "electric_scooter", "bike_id": "79dc3905303d55bfbc31e7393eb3b21f", "lat": 38.89831133333333, "lon": -77.049133, "rental_uris": {"android": "https://dc.lft.to/lastmile_qr_scan", "ios": "https://dc.lft.to/lastmile_qr_scan"}, "is_disabled": 0, "fusion_lat": 0.0, "name": "79dc3905303d55bfbc31e7393eb3b21f", "fusion_lon": 0.0}, {"is_reserved": 0, "type": "electric_scooter", "bike_id": "5cd98e845bed16d8b5499b6e9e21c358", "lat": 38.89920883333333, "lon": -76.97826216666667, "rental_uris": {"android": "https://dc.lft.to/lastmile_qr_scan", "ios": "https://dc.lft.to/lastmile_qr_scan"}, "is_disabled": 0, "fusion_lat": 0.0, "name": "5cd98e845bed16d8b5499b6e9e21c358", "fusion_lon": 0.0}, {"is_reserved": 0, "type": "electric_scooter", "bike_id": "c056e2222b5c6fdd2d9d400276faf305", "lat": 38.92565583333333, "lon": -77.0778205, "rental_uris": {"android": "https://dc.lft.to/lastmile_qr_scan", "ios": "https://dc.lft.to/lastmile_qr_scan"}, "is_disabled": 0, "fusion_lat": 0.0, "name": "c056e2222b5c6fdd2d9d400276faf305", "fusion_lon": 0.0}, {"is_reserved": 0, "type": "electric_scooter", "bike_id": "2418522853f41cbf4e347ec11095ebe5", "lat": 38.92056783333334, "lon": -77.021928, "rental_uris": {"android": "https://dc.lft.to/lastmile_qr_scan", "ios": "https://dc.lft.to/lastmile_qr_scan"}, "is_disabled": 0, "fusion_lat": 0.0, "name": "2418522853f41cbf4e347ec11095ebe5", "fusion_lon": 0.0}, {"is_reserved": 0, "type": "electric_scooter", "bike_id": "6bf767cec779fbd9d1d00eb0e008cf91", "lat": 38.89599666666667, "lon": -77.0467885, "rental_uris": {"android": "https://dc.lft.to/lastmile_qr_scan", "ios": "https://dc.lft.to/lastmile_qr_scan"}, "is_disabled": 0, "fusion_lat": 0.0, "name": "6bf767cec779fbd9d1d00eb0e008cf91", "fusion_lon": 0.0}, {"is_reserved": 0, "type": "electric_scooter", "bike_id": "30a7d7e37101479d07f6f7df7d787c41", "lat": 38.92577133333333, "lon": -76.99495616666667, "rental_uris": {"android": "https://dc.lft.to/lastmile_qr_scan", "ios": "https://dc.lft.to/lastmile_qr_scan"}, "is_disabled": 0, "fusion_lat": 0.0, "name": "30a7d7e37101479d07f6f7df7d787c41", "fusion_lon": 0.0}, {"is_reserved": 0, "type": "electric_scooter", "bike_id": "962a759b859fece91a175092e4a04c6a", "lat": 38.921458, "lon": -77.03870266666667, "rental_uris": {"android": "https://dc.lft.to/lastmile_qr_scan", "ios": "https://dc.lft.to/lastmile_qr_scan"}, "is_disabled": 0, "fusion_lat": 0.0, "name": "962a759b859fece91a175092e4a04c6a", "fusion_lon": 0.0}, {"is_reserved": 0, "type": "electric_scooter", "bike_id": "752960832d3d3d12a3cf8a9e2b7754da", "lat": 38.91412, "lon": -77.02214983333333, "rental_uris": {"android": "https://dc.lft.to/lastmile_qr_scan", "ios": "https://dc.lft.to/lastmile_qr_scan"}, "is_disabled": 0, "fusion_lat": 0.0, "name": "752960832d3d3d12a3cf8a9e2b7754da", "fusion_lon": 0.0}, {"is_reserved": 0, "type": "electric_scooter", "bike_id": "6902d3170e6fd2a82ce90109241aa636", "lat": 38.9317955, "lon": -77.03848716666667, "rental_uris": {"android": "https://dc.lft.to/lastmile_qr_scan", "ios": "https://dc.lft.to/lastmile_qr_scan"}, "is_disabled": 0, "fusion_lat": 0.0, "name": "6902d3170e6fd2a82ce90109241aa636", "fusion_lon": 0.0}, {"is_reserved": 0, "type": "electric_scooter", "bike_id": "dddc5cb45b2d8b9fade6dab3aeb2d680", "lat": 38.93197, "lon": -77.02352083333334, "rental_uris": {"android": "https://dc.lft.to/lastmile_qr_scan", "ios": "https://dc.lft.to/lastmile_qr_scan"}, "is_disabled": 0, "fusion_lat": 0.0, "name": "dddc5cb45b2d8b9fade6dab3aeb2d680", "fusion_lon": 0.0}, {"is_reserved": 0, "type": "electric_scooter", "bike_id": "ecd3ef50939347db509ed6ac2cda08ad", "lat": 38.9104595, "lon": -77.03690866666666, "rental_uris": {"android": "https://dc.lft.to/lastmile_qr_scan", "ios": "https://dc.lft.to/lastmile_qr_scan"}, "is_disabled": 0, "fusion_lat": 0.0, "name": "ecd3ef50939347db509ed6ac2cda08ad", "fusion_lon": 0.0}, {"is_reserved": 0, "type": "electric_scooter", "bike_id": "7738e5e87d967c93a687335f93146933", "lat": 38.90056, "lon": -76.99851616666666, "rental_uris": {"android": "https://dc.lft.to/lastmile_qr_scan", "ios": "https://dc.lft.to/lastmile_qr_scan"}, "is_disabled": 0, "fusion_lat": 0.0, "name": "7738e5e87d967c93a687335f93146933", "fusion_lon": 0.0}, {"is_reserved": 0, "type": "electric_scooter", "bike_id": "84d01c87c05b807f71fd5ed08964bc52", "lat": 38.9233965, "lon": -77.0349945, "rental_uris": {"android": "https://dc.lft.to/lastmile_qr_scan", "ios": "https://dc.lft.to/lastmile_qr_scan"}, "is_disabled": 0, "fusion_lat": 0.0, "name": "84d01c87c05b807f71fd5ed08964bc52", "fusion_lon": 0.0}, {"is_reserved": 0, "type": "electric_scooter", "bike_id": "9b7fb42e78d555b265b4038353535eea", "lat": 38.8873635, "lon": -77.01352966666667, "rental_uris": {"android": "https://dc.lft.to/lastmile_qr_scan", "ios": "https://dc.lft.to/lastmile_qr_scan"}, "is_disabled": 0, "fusion_lat": 0.0, "name": "9b7fb42e78d555b265b4038353535eea", "fusion_lon": 0.0}, {"is_reserved": 0, "type": "electric_bike", "bike_id": "c4f7de97601cbe7e8aaafc84796c8eb3", "lat": 38.923701, "lon": -77.04101416666667, "rental_uris": {"android": "https://dc.lft.to/lastmile_qr_scan", "ios": "https://dc.lft.to/lastmile_qr_scan"}, "is_disabled": 0, "fusion_lat": 0.0, "name": "c4f7de97601cbe7e8aaafc84796c8eb3", "fusion_lon": 0.0}, {"is_reserved": 0, "type": "electric_bike", "bike_id": "3fdc9229c4c7ab27e4548598080b767c", "lat": 38.949630666666664, "lon": -76.96099783333334, "rental_uris": {"android": "https://dc.lft.to/lastmile_qr_scan", "ios": "https://dc.lft.to/lastmile_qr_scan"}, "is_disabled": 0, "fusion_lat": 0.0, "name": "3fdc9229c4c7ab27e4548598080b767c", "fusion_lon": 0.0}, {"is_reserved": 0, "type": "electric_scooter", "bike_id": "ed4fb78db9eb006b23bf97c27164a2b0", "lat": 38.925621, "lon": -77.03099266666666, "rental_uris": {"android": "https://dc.lft.to/lastmile_qr_scan", "ios": "https://dc.lft.to/lastmile_qr_scan"}, "is_disabled": 0, "fusion_lat": 0.0, "name": "ed4fb78db9eb006b23bf97c27164a2b0", "fusion_lon": 0.0}, {"is_reserved": 0, "type": "electric_scooter", "bike_id": "f3b09c85e79ce3909f8f6528b541c29f", "lat": 38.90957783333333, "lon": -77.0363325, "rental_uris": {"android": "https://dc.lft.to/lastmile_qr_scan", "ios": "https://dc.lft.to/lastmile_qr_scan"}, "is_disabled": 0, "fusion_lat": 0.0, "name": "f3b09c85e79ce3909f8f6528b541c29f", "fusion_lon": 0.0}, {"is_reserved": 0, "type": "electric_scooter", "bike_id": "b9e771ca8cf451c4bb27a6e675741a6a", "lat": 38.906792333333335, "lon": -77.062623, "rental_uris": {"android": "https://dc.lft.to/lastmile_qr_scan", "ios": "https://dc.lft.to/lastmile_qr_scan"}, "is_disabled": 0, "fusion_lat": 0.0, "name": "b9e771ca8cf451c4bb27a6e675741a6a", "fusion_lon": 0.0}, {"is_reserved": 0, "type": "electric_scooter", "bike_id": "6e3d9bae7d354cc24f53f0fc59ed16cf", "lat": 38.893539, "lon": -77.02835366666666, "rental_uris": {"android": "https://dc.lft.to/lastmile_qr_scan", "ios": "https://dc.lft.to/lastmile_qr_scan"}, "is_disabled": 0, "fusion_lat": 0.0, "name": "6e3d9bae7d354cc24f53f0fc59ed16cf", "fusion_lon": 0.0}, {"is_reserved": 0, "type": "electric_scooter", "bike_id": "37b0cdb41cd05d357e53120f7587fd5a", "lat": 38.9159575, "lon": -77.01223466666667, "rental_uris": {"android": "https://dc.lft.to/lastmile_qr_scan", "ios": "https://dc.lft.to/lastmile_qr_scan"}, "is_disabled": 0, "fusion_lat": 0.0, "name": "37b0cdb41cd05d357e53120f7587fd5a", "fusion_lon": 0.0}, {"is_reserved": 0, "type": "electric_bike", "bike_id": "7ffeae94a26494ecbadb0783250652ad", "lat": 38.80865766666667, "lon": -77.11255316666667, "rental_uris": {"android": "https://dc.lft.to/lastmile_qr_scan", "ios": "https://dc.lft.to/lastmile_qr_scan"}, "is_disabled": 0, "fusion_lat": 0.0, "name": "7ffeae94a26494ecbadb0783250652ad", "fusion_lon": 0.0}, {"is_reserved": 0, "type": "electric_scooter", "bike_id": "9e4f85283a9506eeee7a32b8e851fd89", "lat": 38.907556166666666, "lon": -77.04162866666667, "rental_uris": {"android": "https://dc.lft.to/lastmile_qr_scan", "ios": "https://dc.lft.to/lastmile_qr_scan"}, "is_disabled": 0, "fusion_lat": 0.0, "name": "9e4f85283a9506eeee7a32b8e851fd89", "fusion_lon": 0.0}, {"is_reserved": 0, "type": "electric_scooter", "bike_id": "9d15e93971125486e431dea020c5f2a2", "lat": 38.900872166666666, "lon": -77.05738516666666, "rental_uris": {"android": "https://dc.lft.to/lastmile_qr_scan", "ios": "https://dc.lft.to/lastmile_qr_scan"}, "is_disabled": 0, "fusion_lat": 0.0, "name": "9d15e93971125486e431dea020c5f2a2", "fusion_lon": 0.0}, {"is_reserved": 0, "type": "electric_scooter", "bike_id": "088bcd09aae8f2aeaf69cfbe34417cb6", "lat": 38.872694333333335, "lon": -77.0162585, "rental_uris": {"android": "https://dc.lft.to/lastmile_qr_scan", "ios": "https://dc.lft.to/lastmile_qr_scan"}, "is_disabled": 0, "fusion_lat": 0.0, "name": "088bcd09aae8f2aeaf69cfbe34417cb6", "fusion_lon": 0.0}, {"is_reserved": 0, "type": "electric_scooter", "bike_id": "88add3e35272fc6e4b335db71b4f30b9", "lat": 38.900819, "lon": -77.03646933333333, "rental_uris": {"android": "https://dc.lft.to/lastmile_qr_scan", "ios": "https://dc.lft.to/lastmile_qr_scan"}, "is_disabled": 0, "fusion_lat": 0.0, "name": "88add3e35272fc6e4b335db71b4f30b9", "fusion_lon": 0.0}, {"is_reserved": 0, "type": "electric_scooter", "bike_id": "76de0f9cfb93047e936191710f19b84b", "lat": 38.900659, "lon": -77.0164015, "rental_uris": {"android": "https://dc.lft.to/lastmile_qr_scan", "ios": "https://dc.lft.to/lastmile_qr_scan"}, "is_disabled": 0, "fusion_lat": 0.0, "name": "76de0f9cfb93047e936191710f19b84b", "fusion_lon": 0.0}, {"is_reserved": 0, "type": "electric_scooter", "bike_id": "782da1e64b4128a8702b926cef5ec1d6", "lat": 38.914188833333334, "lon": -77.01417333333333, "rental_uris": {"android": "https://dc.lft.to/lastmile_qr_scan", "ios": "https://dc.lft.to/lastmile_qr_scan"}, "is_disabled": 0, "fusion_lat": 0.0, "name": "782da1e64b4128a8702b926cef5ec1d6", "fusion_lon": 0.0}, {"is_reserved": 0, "type": "electric_scooter", "bike_id": "89e25a2e1613e0bb0e45f0d1135d718d", "lat": 38.9352455, "lon": -77.01950733333334, "rental_uris": {"android": "https://dc.lft.to/lastmile_qr_scan", "ios": "https://dc.lft.to/lastmile_qr_scan"}, "is_disabled": 0, "fusion_lat": 0.0, "name": "89e25a2e1613e0bb0e45f0d1135d718d", "fusion_lon": 0.0}, {"is_reserved": 0, "type": "electric_scooter", "bike_id": "6ca8ed7b1647416a165cd9ed17f1f380", "lat": 38.900258, "lon": -77.00223816666667, "rental_uris": {"android": "https://dc.lft.to/lastmile_qr_scan", "ios": "https://dc.lft.to/lastmile_qr_scan"}, "is_disabled": 0, "fusion_lat": 0.0, "name": "6ca8ed7b1647416a165cd9ed17f1f380", "fusion_lon": 0.0}, {"is_reserved": 0, "type": "electric_scooter", "bike_id": "42660de55fc55369574d4f7cebc5e344", "lat": 38.9241325, "lon": -76.9514235, "rental_uris": {"android": "https://dc.lft.to/lastmile_qr_scan", "ios": "https://dc.lft.to/lastmile_qr_scan"}, "is_disabled": 0, "fusion_lat": 0.0, "name": "42660de55fc55369574d4f7cebc5e344", "fusion_lon": 0.0}, {"is_reserved": 0, "type": "electric_scooter", "bike_id": "06d675092a8f9be579f7ae3dcf207624", "lat": 38.89229066666667, "lon": -77.019773, "rental_uris": {"android": "https://dc.lft.to/lastmile_qr_scan", "ios": "https://dc.lft.to/lastmile_qr_scan"}, "is_disabled": 0, "fusion_lat": 0.0, "name": "06d675092a8f9be579f7ae3dcf207624", "fusion_lon": 0.0}, {"is_reserved": 0, "type": "electric_scooter", "bike_id": "e157cb818691e1411d972d93bed8b851", "lat": 38.91699583333333, "lon": -77.039753, "rental_uris": {"android": "https://dc.lft.to/lastmile_qr_scan", "ios": "https://dc.lft.to/lastmile_qr_scan"}, "is_disabled": 0, "fusion_lat": 0.0, "name": "e157cb818691e1411d972d93bed8b851", "fusion_lon": 0.0}, {"is_reserved": 0, "type": "electric_scooter", "bike_id": "db2eb8180bd74addbf546099cef3a7cb", "lat": 38.900166, "lon": -77.03231816666667, "rental_uris": {"android": "https://dc.lft.to/lastmile_qr_scan", "ios": "https://dc.lft.to/lastmile_qr_scan"}, "is_disabled": 0, "fusion_lat": 0.0, "name": "db2eb8180bd74addbf546099cef3a7cb", "fusion_lon": 0.0}, {"is_reserved": 0, "type": "electric_scooter", "bike_id": "dd05ab720b4689d70f404d0d0ba02fa4", "lat": 38.88737783333333, "lon": -77.01352983333334, "rental_uris": {"android": "https://dc.lft.to/lastmile_qr_scan", "ios": "https://dc.lft.to/lastmile_qr_scan"}, "is_disabled": 0, "fusion_lat": 0.0, "name": "dd05ab720b4689d70f404d0d0ba02fa4", "fusion_lon": 0.0}, {"is_reserved": 0, "type": "electric_bike", "bike_id": "20edae079a052948781fe96497d034f7", "lat": 38.912647166666666, "lon": -77.04757633333334, "rental_uris": {"android": "https://dc.lft.to/lastmile_qr_scan", "ios": "https://dc.lft.to/lastmile_qr_scan"}, "is_disabled": 0, "fusion_lat": 0.0, "name": "20edae079a052948781fe96497d034f7", "fusion_lon": 0.0}, {"is_reserved": 0, "type": "electric_scooter", "bike_id": "79931f6ae08c5d812af85932cafdfa4a", "lat": 38.8987055, "lon": -77.04875233333334, "rental_uris": {"android": "https://dc.lft.to/lastmile_qr_scan", "ios": "https://dc.lft.to/lastmile_qr_scan"}, "is_disabled": 0, "fusion_lat": 0.0, "name": "79931f6ae08c5d812af85932cafdfa4a", "fusion_lon": 0.0}, {"is_reserved": 0, "type": "electric_scooter", "bike_id": "f6fe929a732a64b31cde3c19839daa26", "lat": 38.903868, "lon": -77.028578, "rental_uris": {"android": "https://dc.lft.to/lastmile_qr_scan", "ios": "https://dc.lft.to/lastmile_qr_scan"}, "is_disabled": 0, "fusion_lat": 0.0, "name": "f6fe929a732a64b31cde3c19839daa26", "fusion_lon": 0.0}, {"is_reserved": 0, "type": "electric_scooter", "bike_id": "5963231399e5eebe010d5d4f1b58aa42", "lat": 38.8991755, "lon": -77.01876533333333, "rental_uris": {"android": "https://dc.lft.to/lastmile_qr_scan", "ios": "https://dc.lft.to/lastmile_qr_scan"}, "is_disabled": 0, "fusion_lat": 0.0, "name": "5963231399e5eebe010d5d4f1b58aa42", "fusion_lon": 0.0}, {"is_reserved": 0, "type": "electric_bike", "bike_id": "5e04676481095c73317122b97e2c4352", "lat": 38.917009666666665, "lon": -77.05721183333333, "rental_uris": {"android": "https://dc.lft.to/lastmile_qr_scan", "ios": "https://dc.lft.to/lastmile_qr_scan"}, "is_disabled": 0, "fusion_lat": 0.0, "name": "5e04676481095c73317122b97e2c4352", "fusion_lon": 0.0}, {"is_reserved": 0, "type": "electric_bike", "bike_id": "445213c6247512f5432b8a382d236758", "lat": 38.92068316666666, "lon": -76.9958045, "rental_uris": {"android": "https://dc.lft.to/lastmile_qr_scan", "ios": "https://dc.lft.to/lastmile_qr_scan"}, "is_disabled": 0, "fusion_lat": 0.0, "name": "445213c6247512f5432b8a382d236758", "fusion_lon": 0.0}, {"is_reserved": 0, "type": "electric_scooter", "bike_id": "372d847e948d9d18df1db05e10afa1ca", "lat": 38.883048, "lon": -77.0236955, "rental_uris": {"android": "https://dc.lft.to/lastmile_qr_scan", "ios": "https://dc.lft.to/lastmile_qr_scan"}, "is_disabled": 0, "fusion_lat": 0.0, "name": "372d847e948d9d18df1db05e10afa1ca", "fusion_lon": 0.0}, {"is_reserved": 0, "type": "electric_scooter", "bike_id": "afae7ce2e833cd79dd36b8ef1b3eaea1", "lat": 38.90905216666667, "lon": -77.04213016666667, "rental_uris": {"android": "https://dc.lft.to/lastmile_qr_scan", "ios": "https://dc.lft.to/lastmile_qr_scan"}, "is_disabled": 0, "fusion_lat": 0.0, "name": "afae7ce2e833cd79dd36b8ef1b3eaea1", "fusion_lon": 0.0}, {"is_reserved": 0, "type": "electric_scooter", "bike_id": "58c47223193fa68415a61db0334b1cee", "lat": 38.891938333333336, "lon": -77.02229883333334, "rental_uris": {"android": "https://dc.lft.to/lastmile_qr_scan", "ios": "https://dc.lft.to/lastmile_qr_scan"}, "is_disabled": 0, "fusion_lat": 0.0, "name": "58c47223193fa68415a61db0334b1cee", "fusion_lon": 0.0}, {"is_reserved": 0, "type": "electric_scooter", "bike_id": "6e91cb04ca98606ecd5025709a33f4a5", "lat": 38.91083033333334, "lon": -77.038513, "rental_uris": {"android": "https://dc.lft.to/lastmile_qr_scan", "ios": "https://dc.lft.to/lastmile_qr_scan"}, "is_disabled": 0, "fusion_lat": 0.0, "name": "6e91cb04ca98606ecd5025709a33f4a5", "fusion_lon": 0.0}, {"is_reserved": 0, "type": "electric_scooter", "bike_id": "3cc02022e1aa55ee02cdedb0ffb7a030", "lat": 38.90541433333333, "lon": -77.05692783333333, "rental_uris": {"android": "https://dc.lft.to/lastmile_qr_scan", "ios": "https://dc.lft.to/lastmile_qr_scan"}, "is_disabled": 0, "fusion_lat": 0.0, "name": "3cc02022e1aa55ee02cdedb0ffb7a030", "fusion_lon": 0.0}, {"is_reserved": 0, "type": "electric_bike", "bike_id": "4f566522623814f7dfb0417a187c8170", "lat": 38.92034783333333, "lon": -76.97957666666667, "rental_uris": {"android": "https://dc.lft.to/lastmile_qr_scan", "ios": "https://dc.lft.to/lastmile_qr_scan"}, "is_disabled": 0, "fusion_lat": 0.0, "name": "4f566522623814f7dfb0417a187c8170", "fusion_lon": 0.0}, {"is_reserved": 0, "type": "electric_scooter", "bike_id": "dc0e1da09c26e1e33bc6cfbc1b8b73fa", "lat": 38.896845, "lon": -77.04357383333334, "rental_uris": {"android": "https://dc.lft.to/lastmile_qr_scan", "ios": "https://dc.lft.to/lastmile_qr_scan"}, "is_disabled": 0, "fusion_lat": 0.0, "name": "dc0e1da09c26e1e33bc6cfbc1b8b73fa", "fusion_lon": 0.0}, {"is_reserved": 0, "type": "electric_scooter", "bike_id": "f1c4e1d9f27586193401d1423d042a83", "lat": 38.903205666666665, "lon": -77.01085, "rental_uris": {"android": "https://dc.lft.to/lastmile_qr_scan", "ios": "https://dc.lft.to/lastmile_qr_scan"}, "is_disabled": 0, "fusion_lat": 0.0, "name": "f1c4e1d9f27586193401d1423d042a83", "fusion_lon": 0.0}, {"is_reserved": 0, "type": "electric_scooter", "bike_id": "13505af19492a0ec44547482d6f54092", "lat": 38.917557333333335, "lon": -77.004554, "rental_uris": {"android": "https://dc.lft.to/lastmile_qr_scan", "ios": "https://dc.lft.to/lastmile_qr_scan"}, "is_disabled": 0, "fusion_lat": 0.0, "name": "13505af19492a0ec44547482d6f54092", "fusion_lon": 0.0}, {"is_reserved": 0, "type": "electric_scooter", "bike_id": "1ee5a2a12eed9d5b4b9132a8dab0b2bc", "lat": 38.87473383333333, "lon": -77.00338083333334, "rental_uris": {"android": "https://dc.lft.to/lastmile_qr_scan", "ios": "https://dc.lft.to/lastmile_qr_scan"}, "is_disabled": 0, "fusion_lat": 0.0, "name": "1ee5a2a12eed9d5b4b9132a8dab0b2bc", "fusion_lon": 0.0}, {"is_reserved": 0, "type": "electric_scooter", "bike_id": "4e1802735b555c95f40a6edc58464acf", "lat": 38.90012866666667, "lon": -77.00041816666666, "rental_uris": {"android": "https://dc.lft.to/lastmile_qr_scan", "ios": "https://dc.lft.to/lastmile_qr_scan"}, "is_disabled": 0, "fusion_lat": 0.0, "name": "4e1802735b555c95f40a6edc58464acf", "fusion_lon": 0.0}, {"is_reserved": 0, "type": "electric_scooter", "bike_id": "3e7b3895080763622a03380999582cf0", "lat": 38.91691133333333, "lon": -77.04145116666666, "rental_uris": {"android": "https://dc.lft.to/lastmile_qr_scan", "ios": "https://dc.lft.to/lastmile_qr_scan"}, "is_disabled": 0, "fusion_lat": 0.0, "name": "3e7b3895080763622a03380999582cf0", "fusion_lon": 0.0}, {"is_reserved": 0, "type": "electric_scooter", "bike_id": "75ef9391d2d6ecac46fab2a043d75a5c", "lat": 38.89794333333333, "lon": -77.04786416666667, "rental_uris": {"android": "https://dc.lft.to/lastmile_qr_scan", "ios": "https://dc.lft.to/lastmile_qr_scan"}, "is_disabled": 0, "fusion_lat": 0.0, "name": "75ef9391d2d6ecac46fab2a043d75a5c", "fusion_lon": 0.0}, {"is_reserved": 0, "type": "electric_scooter", "bike_id": "74791f8cfabc566293d9a73ac1f671b7", "lat": 38.922052666666666, "lon": -77.02031, "rental_uris": {"android": "https://dc.lft.to/lastmile_qr_scan", "ios": "https://dc.lft.to/lastmile_qr_scan"}, "is_disabled": 0, "fusion_lat": 0.0, "name": "74791f8cfabc566293d9a73ac1f671b7", "fusion_lon": 0.0}, {"is_reserved": 0, "type": "electric_scooter", "bike_id": "4f381ff969d61a399950bdec67e1d04d", "lat": 38.92186266666667, "lon": -77.04343533333333, "rental_uris": {"android": "https://dc.lft.to/lastmile_qr_scan", "ios": "https://dc.lft.to/lastmile_qr_scan"}, "is_disabled": 0, "fusion_lat": 0.0, "name": "4f381ff969d61a399950bdec67e1d04d", "fusion_lon": 0.0}, {"is_reserved": 0, "type": "electric_scooter", "bike_id": "64feca93821144dd20bd72a0e8233de4", "lat": 38.89218266666666, "lon": -77.02310883333334, "rental_uris": {"android": "https://dc.lft.to/lastmile_qr_scan", "ios": "https://dc.lft.to/lastmile_qr_scan"}, "is_disabled": 0, "fusion_lat": 0.0, "name": "64feca93821144dd20bd72a0e8233de4", "fusion_lon": 0.0}, {"is_reserved": 0, "type": "electric_scooter", "bike_id": "d40547086c35e524bad9565f64932a44", "lat": 38.903755833333335, "lon": -77.03672766666666, "rental_uris": {"android": "https://dc.lft.to/lastmile_qr_scan", "ios": "https://dc.lft.to/lastmile_qr_scan"}, "is_disabled": 0, "fusion_lat": 0.0, "name": "d40547086c35e524bad9565f64932a44", "fusion_lon": 0.0}, {"is_reserved": 0, "type": "electric_scooter", "bike_id": "1e9fde5f295cb7dca89318239ed45121", "lat": 38.91017816666667, "lon": -76.993734, "rental_uris": {"android": "https://dc.lft.to/lastmile_qr_scan", "ios": "https://dc.lft.to/lastmile_qr_scan"}, "is_disabled": 0, "fusion_lat": 0.0, "name": "1e9fde5f295cb7dca89318239ed45121", "fusion_lon": 0.0}, {"is_reserved": 0, "type": "electric_scooter", "bike_id": "2b666575edc29ef901236284bd2aa11f", "lat": 38.91011233333333, "lon": -77.0441685, "rental_uris": {"android": "https://dc.lft.to/lastmile_qr_scan", "ios": "https://dc.lft.to/lastmile_qr_scan"}, "is_disabled": 0, "fusion_lat": 0.0, "name": "2b666575edc29ef901236284bd2aa11f", "fusion_lon": 0.0}, {"is_reserved": 0, "type": "electric_scooter", "bike_id": "e3ff22d6acbbda219c7e2e50565a8765", "lat": 38.916964666666665, "lon": -77.0119635, "rental_uris": {"android": "https://dc.lft.to/lastmile_qr_scan", "ios": "https://dc.lft.to/lastmile_qr_scan"}, "is_disabled": 0, "fusion_lat": 0.0, "name": "e3ff22d6acbbda219c7e2e50565a8765", "fusion_lon": 0.0}, {"is_reserved": 0, "type": "electric_scooter", "bike_id": "696b5758cb16335abc1524c9c37e6eb1", "lat": 38.8940505, "lon": -77.0215095, "rental_uris": {"android": "https://dc.lft.to/lastmile_qr_scan", "ios": "https://dc.lft.to/lastmile_qr_scan"}, "is_disabled": 0, "fusion_lat": 0.0, "name": "696b5758cb16335abc1524c9c37e6eb1", "fusion_lon": 0.0}, {"is_reserved": 0, "type": "electric_scooter", "bike_id": "4b452c1e1f1343a682c37097d1f62c84", "lat": 38.92340333333333, "lon": -77.01899883333333, "rental_uris": {"android": "https://dc.lft.to/lastmile_qr_scan", "ios": "https://dc.lft.to/lastmile_qr_scan"}, "is_disabled": 0, "fusion_lat": 0.0, "name": "4b452c1e1f1343a682c37097d1f62c84", "fusion_lon": 0.0}, {"is_reserved": 0, "type": "electric_scooter", "bike_id": "7b143f87f217364cddd27824958e832f", "lat": 38.905532, "lon": -77.05698866666667, "rental_uris": {"android": "https://dc.lft.to/lastmile_qr_scan", "ios": "https://dc.lft.to/lastmile_qr_scan"}, "is_disabled": 0, "fusion_lat": 0.0, "name": "7b143f87f217364cddd27824958e832f", "fusion_lon": 0.0}, {"is_reserved": 0, "type": "electric_bike", "bike_id": "2cc306bf1b9598988005f68f57c0e2ba", "lat": 38.972595166666665, "lon": -77.14968633333334, "rental_uris": {"android": "https://dc.lft.to/lastmile_qr_scan", "ios": "https://dc.lft.to/lastmile_qr_scan"}, "is_disabled": 0, "fusion_lat": 0.0, "name": "2cc306bf1b9598988005f68f57c0e2ba", "fusion_lon": 0.0}, {"is_reserved": 0, "type": "electric_scooter", "bike_id": "0df767ee4ba16ff55830004eabad9efa", "lat": 38.89823883333333, "lon": -77.01294216666666, "rental_uris": {"android": "https://dc.lft.to/lastmile_qr_scan", "ios": "https://dc.lft.to/lastmile_qr_scan"}, "is_disabled": 0, "fusion_lat": 0.0, "name": "0df767ee4ba16ff55830004eabad9efa", "fusion_lon": 0.0}, {"is_reserved": 0, "type": "electric_scooter", "bike_id": "9126f59506df604f518e8791061eb03b", "lat": 38.899900333333335, "lon": -77.025901, "rental_uris": {"android": "https://dc.lft.to/lastmile_qr_scan", "ios": "https://dc.lft.to/lastmile_qr_scan"}, "is_disabled": 0, "fusion_lat": 0.0, "name": "9126f59506df604f518e8791061eb03b", "fusion_lon": 0.0}, {"is_reserved": 0, "type": "electric_scooter", "bike_id": "2f436f9c82e82ef49692463c87940129", "lat": 38.8994855, "lon": -77.026876, "rental_uris": {"android": "https://dc.lft.to/lastmile_qr_scan", "ios": "https://dc.lft.to/lastmile_qr_scan"}, "is_disabled": 0, "fusion_lat": 0.0, "name": "2f436f9c82e82ef49692463c87940129", "fusion_lon": 0.0}, {"is_reserved": 0, "type": "electric_scooter", "bike_id": "bc80a6ed91e23bb3d68d7fc1627fd599", "lat": 38.906582666666665, "lon": -77.0630765, "rental_uris": {"android": "https://dc.lft.to/lastmile_qr_scan", "ios": "https://dc.lft.to/lastmile_qr_scan"}, "is_disabled": 0, "fusion_lat": 0.0, "name": "bc80a6ed91e23bb3d68d7fc1627fd599", "fusion_lon": 0.0}, {"is_reserved": 0, "type": "electric_scooter", "bike_id": "a7cabb5fd61d9931ba4e1ed952e31df3", "lat": 38.904020833333334, "lon": -77.02103916666667, "rental_uris": {"android": "https://dc.lft.to/lastmile_qr_scan", "ios": "https://dc.lft.to/lastmile_qr_scan"}, "is_disabled": 0, "fusion_lat": 0.0, "name": "a7cabb5fd61d9931ba4e1ed952e31df3", "fusion_lon": 0.0}, {"is_reserved": 0, "type": "electric_scooter", "bike_id": "73e17c35209c4175c867d6763b3f3147", "lat": 38.887197666666665, "lon": -77.02177483333334, "rental_uris": {"android": "https://dc.lft.to/lastmile_qr_scan", "ios": "https://dc.lft.to/lastmile_qr_scan"}, "is_disabled": 0, "fusion_lat": 0.0, "name": "73e17c35209c4175c867d6763b3f3147", "fusion_lon": 0.0}, {"is_reserved": 0, "type": "electric_scooter", "bike_id": "56467931267d9e93f92f339511c9640d", "lat": 38.90030866666667, "lon": -76.9914575, "rental_uris": {"android": "https://dc.lft.to/lastmile_qr_scan", "ios": "https://dc.lft.to/lastmile_qr_scan"}, "is_disabled": 0, "fusion_lat": 0.0, "name": "56467931267d9e93f92f339511c9640d", "fusion_lon": 0.0}, {"is_reserved": 0, "type": "electric_scooter", "bike_id": "c0311e3c1d6273428683c0502a2a9c33", "lat": 38.8922125, "lon": -77.04374066666666, "rental_uris": {"android": "https://dc.lft.to/lastmile_qr_scan", "ios": "https://dc.lft.to/lastmile_qr_scan"}, "is_disabled": 0, "fusion_lat": 0.0, "name": "c0311e3c1d6273428683c0502a2a9c33", "fusion_lon": 0.0}, {"is_reserved": 0, "type": "electric_scooter", "bike_id": "a78542a585d2fa663f08c894b0aab726", "lat": 38.917975, "lon": -77.04025083333333, "rental_uris": {"android": "https://dc.lft.to/lastmile_qr_scan", "ios": "https://dc.lft.to/lastmile_qr_scan"}, "is_disabled": 0, "fusion_lat": 0.0, "name": "a78542a585d2fa663f08c894b0aab726", "fusion_lon": 0.0}, {"is_reserved": 0, "type": "electric_bike", "bike_id": "bfde7e4093c2b0f5fbd3e97cb6d7ef9d", "lat": 38.99933866666667, "lon": -77.05133483333333, "rental_uris": {"android": "https://dc.lft.to/lastmile_qr_scan", "ios": "https://dc.lft.to/lastmile_qr_scan"}, "is_disabled": 0, "fusion_lat": 0.0, "name": "bfde7e4093c2b0f5fbd3e97cb6d7ef9d", "fusion_lon": 0.0}, {"is_reserved": 0, "type": "electric_scooter", "bike_id": "2823447cff573a16182633acac14e8b3", "lat": 38.91911316666667, "lon": -77.03215033333333, "rental_uris": {"android": "https://dc.lft.to/lastmile_qr_scan", "ios": "https://dc.lft.to/lastmile_qr_scan"}, "is_disabled": 0, "fusion_lat": 0.0, "name": "2823447cff573a16182633acac14e8b3", "fusion_lon": 0.0}, {"is_reserved": 0, "type": "electric_scooter", "bike_id": "ed97f8c0d53995ad491d8d1763f3987f", "lat": 38.90724433333333, "lon": -77.03189966666666, "rental_uris": {"android": "https://dc.lft.to/lastmile_qr_scan", "ios": "https://dc.lft.to/lastmile_qr_scan"}, "is_disabled": 0, "fusion_lat": 0.0, "name": "ed97f8c0d53995ad491d8d1763f3987f", "fusion_lon": 0.0}, {"is_reserved": 0, "type": "electric_scooter", "bike_id": "23d080e0e93b88c75c5f10e25bfaf476", "lat": 38.918574166666666, "lon": -77.03470783333333, "rental_uris": {"android": "https://dc.lft.to/lastmile_qr_scan", "ios": "https://dc.lft.to/lastmile_qr_scan"}, "is_disabled": 0, "fusion_lat": 0.0, "name": "23d080e0e93b88c75c5f10e25bfaf476", "fusion_lon": 0.0}, {"is_reserved": 0, "type": "electric_scooter", "bike_id": "566dd836147b4c42aa6a47f530da980e", "lat": 38.91843516666667, "lon": -77.04509, "rental_uris": {"android": "https://dc.lft.to/lastmile_qr_scan", "ios": "https://dc.lft.to/lastmile_qr_scan"}, "is_disabled": 0, "fusion_lat": 0.0, "name": "566dd836147b4c42aa6a47f530da980e", "fusion_lon": 0.0}, {"is_reserved": 0, "type": "electric_scooter", "bike_id": "3a51be3aea3e5b26bd2dbf932d3a58e9", "lat": 38.924125833333335, "lon": -77.020112, "rental_uris": {"android": "https://dc.lft.to/lastmile_qr_scan", "ios": "https://dc.lft.to/lastmile_qr_scan"}, "is_disabled": 0, "fusion_lat": 0.0, "name": "3a51be3aea3e5b26bd2dbf932d3a58e9", "fusion_lon": 0.0}, {"is_reserved": 0, "type": "electric_scooter", "bike_id": "c13c5eef2555b672d90812c071d7307b", "lat": 38.92897966666666, "lon": -77.0327855, "rental_uris": {"android": "https://dc.lft.to/lastmile_qr_scan", "ios": "https://dc.lft.to/lastmile_qr_scan"}, "is_disabled": 0, "fusion_lat": 0.0, "name": "c13c5eef2555b672d90812c071d7307b", "fusion_lon": 0.0}, {"is_reserved": 0, "type": "electric_scooter", "bike_id": "35804af97f80348b4bacfef1dfb5a4ee", "lat": 38.878107166666666, "lon": -77.008616, "rental_uris": {"android": "https://dc.lft.to/lastmile_qr_scan", "ios": "https://dc.lft.to/lastmile_qr_scan"}, "is_disabled": 0, "fusion_lat": 0.0, "name": "35804af97f80348b4bacfef1dfb5a4ee", "fusion_lon": 0.0}, {"is_reserved": 0, "type": "electric_scooter", "bike_id": "43df2b45d0ae48cf7e063b32d78382f1", "lat": 38.89233083333333, "lon": -77.0487775, "rental_uris": {"android": "https://dc.lft.to/lastmile_qr_scan", "ios": "https://dc.lft.to/lastmile_qr_scan"}, "is_disabled": 0, "fusion_lat": 0.0, "name": "43df2b45d0ae48cf7e063b32d78382f1", "fusion_lon": 0.0}, {"is_reserved": 0, "type": "electric_scooter", "bike_id": "708ea2af9ab6e6ea492753f1c2a73f0a", "lat": 38.9003305, "lon": -76.98853683333333, "rental_uris": {"android": "https://dc.lft.to/lastmile_qr_scan", "ios": "https://dc.lft.to/lastmile_qr_scan"}, "is_disabled": 0, "fusion_lat": 0.0, "name": "708ea2af9ab6e6ea492753f1c2a73f0a", "fusion_lon": 0.0}, {"is_reserved": 0, "type": "electric_scooter", "bike_id": "14e12a6e8a7bc0ea9d7ed418be6a4db6", "lat": 38.89968433333333, "lon": -77.02628866666667, "rental_uris": {"android": "https://dc.lft.to/lastmile_qr_scan", "ios": "https://dc.lft.to/lastmile_qr_scan"}, "is_disabled": 0, "fusion_lat": 0.0, "name": "14e12a6e8a7bc0ea9d7ed418be6a4db6", "fusion_lon": 0.0}, {"is_reserved": 0, "type": "electric_scooter", "bike_id": "a21e3c2eb097df40c3ab892704fc094c", "lat": 38.9218455, "lon": -76.99627566666666, "rental_uris": {"android": "https://dc.lft.to/lastmile_qr_scan", "ios": "https://dc.lft.to/lastmile_qr_scan"}, "is_disabled": 0, "fusion_lat": 0.0, "name": "a21e3c2eb097df40c3ab892704fc094c", "fusion_lon": 0.0}, {"is_reserved": 0, "type": "electric_scooter", "bike_id": "59bddd4fe1dbaf63e22c52f1d3d81106", "lat": 38.90561483333333, "lon": -76.9814045, "rental_uris": {"android": "https://dc.lft.to/lastmile_qr_scan", "ios": "https://dc.lft.to/lastmile_qr_scan"}, "is_disabled": 0, "fusion_lat": 0.0, "name": "59bddd4fe1dbaf63e22c52f1d3d81106", "fusion_lon": 0.0}, {"is_reserved": 0, "type": "electric_bike", "bike_id": "f27715b51c01aa6587aa10276847bc37", "lat": 38.84939033333333, "lon": -77.11754516666667, "rental_uris": {"android": "https://dc.lft.to/lastmile_qr_scan", "ios": "https://dc.lft.to/lastmile_qr_scan"}, "is_disabled": 0, "fusion_lat": 0.0, "name": "f27715b51c01aa6587aa10276847bc37", "fusion_lon": 0.0}, {"is_reserved": 0, "type": "electric_scooter", "bike_id": "f7b0c6e454346f23b388debf43865ffe", "lat": 38.905639666666666, "lon": -77.0416155, "rental_uris": {"android": "https://dc.lft.to/lastmile_qr_scan", "ios": "https://dc.lft.to/lastmile_qr_scan"}, "is_disabled": 0, "fusion_lat": 0.0, "name": "f7b0c6e454346f23b388debf43865ffe", "fusion_lon": 0.0}, {"is_reserved": 0, "type": "electric_scooter", "bike_id": "01defd35caa16e9843b18434c454bf48", "lat": 38.922397333333336, "lon": -77.02333899999999, "rental_uris": {"android": "https://dc.lft.to/lastmile_qr_scan", "ios": "https://dc.lft.to/lastmile_qr_scan"}, "is_disabled": 0, "fusion_lat": 0.0, "name": "01defd35caa16e9843b18434c454bf48", "fusion_lon": 0.0}, {"is_reserved": 0, "type": "electric_scooter", "bike_id": "aad93952e4fa48dd7c721d334c4b567e", "lat": 38.91912283333333, "lon": -77.01343666666666, "rental_uris": {"android": "https://dc.lft.to/lastmile_qr_scan", "ios": "https://dc.lft.to/lastmile_qr_scan"}, "is_disabled": 0, "fusion_lat": 0.0, "name": "aad93952e4fa48dd7c721d334c4b567e", "fusion_lon": 0.0}, {"is_reserved": 0, "type": "electric_scooter", "bike_id": "b364a33c2fe343728901e7aa2739fef3", "lat": 38.911402333333335, "lon": -77.01895916666666, "rental_uris": {"android": "https://dc.lft.to/lastmile_qr_scan", "ios": "https://dc.lft.to/lastmile_qr_scan"}, "is_disabled": 0, "fusion_lat": 0.0, "name": "b364a33c2fe343728901e7aa2739fef3", "fusion_lon": 0.0}, {"is_reserved": 0, "type": "electric_scooter", "bike_id": "31b7d109c563c9f43421be1a7bb20cb6", "lat": 38.90028916666667, "lon": -76.98858766666666, "rental_uris": {"android": "https://dc.lft.to/lastmile_qr_scan", "ios": "https://dc.lft.to/lastmile_qr_scan"}, "is_disabled": 0, "fusion_lat": 0.0, "name": "31b7d109c563c9f43421be1a7bb20cb6", "fusion_lon": 0.0}, {"is_reserved": 0, "type": "electric_scooter", "bike_id": "cf83efee00d01059cf94fcd5d3dfeb01", "lat": 38.87651016666667, "lon": -77.00748616666667, "rental_uris": {"android": "https://dc.lft.to/lastmile_qr_scan", "ios": "https://dc.lft.to/lastmile_qr_scan"}, "is_disabled": 0, "fusion_lat": 0.0, "name": "cf83efee00d01059cf94fcd5d3dfeb01", "fusion_lon": 0.0}, {"is_reserved": 0, "type": "electric_scooter", "bike_id": "d0e237f0565fb19bcb0b1bff86479881", "lat": 38.87919333333333, "lon": -77.002428, "rental_uris": {"android": "https://dc.lft.to/lastmile_qr_scan", "ios": "https://dc.lft.to/lastmile_qr_scan"}, "is_disabled": 0, "fusion_lat": 0.0, "name": "d0e237f0565fb19bcb0b1bff86479881", "fusion_lon": 0.0}, {"is_reserved": 0, "type": "electric_scooter", "bike_id": "dcba16a69c7d81b037451ebe00a2ed13", "lat": 38.8972915, "lon": -77.02505433333333, "rental_uris": {"android": "https://dc.lft.to/lastmile_qr_scan", "ios": "https://dc.lft.to/lastmile_qr_scan"}, "is_disabled": 0, "fusion_lat": 0.0, "name": "dcba16a69c7d81b037451ebe00a2ed13", "fusion_lon": 0.0}, {"is_reserved": 0, "type": "electric_scooter", "bike_id": "c0e4180df301866fcb995d3dd567d6bf", "lat": 38.9168955, "lon": -77.00362316666667, "rental_uris": {"android": "https://dc.lft.to/lastmile_qr_scan", "ios": "https://dc.lft.to/lastmile_qr_scan"}, "is_disabled": 0, "fusion_lat": 0.0, "name": "c0e4180df301866fcb995d3dd567d6bf", "fusion_lon": 0.0}, {"is_reserved": 0, "type": "electric_scooter", "bike_id": "1e75eb56206ffa0e6de6df54ac364d3e", "lat": 38.8968405, "lon": -77.02666583333334, "rental_uris": {"android": "https://dc.lft.to/lastmile_qr_scan", "ios": "https://dc.lft.to/lastmile_qr_scan"}, "is_disabled": 0, "fusion_lat": 0.0, "name": "1e75eb56206ffa0e6de6df54ac364d3e", "fusion_lon": 0.0}, {"is_reserved": 0, "type": "electric_bike", "bike_id": "9dbe5cf02f36af19d1fce8d098440330", "lat": 39.038159666666665, "lon": -77.0425785, "rental_uris": {"android": "https://dc.lft.to/lastmile_qr_scan", "ios": "https://dc.lft.to/lastmile_qr_scan"}, "is_disabled": 0, "fusion_lat": 0.0, "name": "9dbe5cf02f36af19d1fce8d098440330", "fusion_lon": 0.0}, {"is_reserved": 0, "type": "electric_scooter", "bike_id": "77028889251164d132c83f8aa1b5420c", "lat": 38.906894333333334, "lon": -77.06260866666666, "rental_uris": {"android": "https://dc.lft.to/lastmile_qr_scan", "ios": "https://dc.lft.to/lastmile_qr_scan"}, "is_disabled": 0, "fusion_lat": 0.0, "name": "77028889251164d132c83f8aa1b5420c", "fusion_lon": 0.0}, {"is_reserved": 0, "type": "electric_scooter", "bike_id": "ba54f66b86bc202e35f02a0257f2546a", "lat": 38.91709616666667, "lon": -77.0314665, "rental_uris": {"android": "https://dc.lft.to/lastmile_qr_scan", "ios": "https://dc.lft.to/lastmile_qr_scan"}, "is_disabled": 0, "fusion_lat": 0.0, "name": "ba54f66b86bc202e35f02a0257f2546a", "fusion_lon": 0.0}, {"is_reserved": 0, "type": "electric_scooter", "bike_id": "691c2cdc22d0f3b67cad7f971dd6463f", "lat": 38.887724, "lon": -76.93258966666667, "rental_uris": {"android": "https://dc.lft.to/lastmile_qr_scan", "ios": "https://dc.lft.to/lastmile_qr_scan"}, "is_disabled": 0, "fusion_lat": 0.0, "name": "691c2cdc22d0f3b67cad7f971dd6463f", "fusion_lon": 0.0}, {"is_reserved": 0, "type": "electric_scooter", "bike_id": "4b55e791b7d51db225b1f3817fe8b389", "lat": 38.88125333333333, "lon": -77.01981266666667, "rental_uris": {"android": "https://dc.lft.to/lastmile_qr_scan", "ios": "https://dc.lft.to/lastmile_qr_scan"}, "is_disabled": 0, "fusion_lat": 0.0, "name": "4b55e791b7d51db225b1f3817fe8b389", "fusion_lon": 0.0}, {"is_reserved": 0, "type": "electric_bike", "bike_id": "0fdf6bafd9e307e795062c06244b91ec", "lat": 38.867551, "lon": -76.9453265, "rental_uris": {"android": "https://dc.lft.to/lastmile_qr_scan", "ios": "https://dc.lft.to/lastmile_qr_scan"}, "is_disabled": 0, "fusion_lat": 0.0, "name": "0fdf6bafd9e307e795062c06244b91ec", "fusion_lon": 0.0}, {"is_reserved": 0, "type": "electric_scooter", "bike_id": "2e48ee510c9aafa694dc74f5489301e5", "lat": 38.90576166666666, "lon": -77.0185035, "rental_uris": {"android": "https://dc.lft.to/lastmile_qr_scan", "ios": "https://dc.lft.to/lastmile_qr_scan"}, "is_disabled": 0, "fusion_lat": 0.0, "name": "2e48ee510c9aafa694dc74f5489301e5", "fusion_lon": 0.0}, {"is_reserved": 0, "type": "electric_scooter", "bike_id": "acbc7a9136288cf964791d38b9342c42", "lat": 38.89219116666666, "lon": -77.02420016666666, "rental_uris": {"android": "https://dc.lft.to/lastmile_qr_scan", "ios": "https://dc.lft.to/lastmile_qr_scan"}, "is_disabled": 0, "fusion_lat": 0.0, "name": "acbc7a9136288cf964791d38b9342c42", "fusion_lon": 0.0}, {"is_reserved": 0, "type": "electric_scooter", "bike_id": "17e87bd26eb909d16660d6c27b0b9d22", "lat": 38.9214845, "lon": -77.04488866666667, "rental_uris": {"android": "https://dc.lft.to/lastmile_qr_scan", "ios": "https://dc.lft.to/lastmile_qr_scan"}, "is_disabled": 0, "fusion_lat": 0.0, "name": "17e87bd26eb909d16660d6c27b0b9d22", "fusion_lon": 0.0}, {"is_reserved": 0, "type": "electric_scooter", "bike_id": "96e54a5b2feb4f4a60c185b92ae46741", "lat": 38.90022916666667, "lon": -77.01171933333333, "rental_uris": {"android": "https://dc.lft.to/lastmile_qr_scan", "ios": "https://dc.lft.to/lastmile_qr_scan"}, "is_disabled": 0, "fusion_lat": 0.0, "name": "96e54a5b2feb4f4a60c185b92ae46741", "fusion_lon": 0.0}, {"is_reserved": 0, "type": "electric_scooter", "bike_id": "60dc1e0ac55747c07d302f5b075ef529", "lat": 38.87677983333333, "lon": -76.996236, "rental_uris": {"android": "https://dc.lft.to/lastmile_qr_scan", "ios": "https://dc.lft.to/lastmile_qr_scan"}, "is_disabled": 0, "fusion_lat": 0.0, "name": "60dc1e0ac55747c07d302f5b075ef529", "fusion_lon": 0.0}, {"is_reserved": 0, "type": "electric_scooter", "bike_id": "db90b7ce3bf0422d1595460f63109fd9", "lat": 38.92485166666667, "lon": -77.03186416666667, "rental_uris": {"android": "https://dc.lft.to/lastmile_qr_scan", "ios": "https://dc.lft.to/lastmile_qr_scan"}, "is_disabled": 0, "fusion_lat": 0.0, "name": "db90b7ce3bf0422d1595460f63109fd9", "fusion_lon": 0.0}, {"is_reserved": 0, "type": "electric_scooter", "bike_id": "63bdf580e7f24043ca1355cc2bc32dec", "lat": 38.90477283333333, "lon": -77.06857, "rental_uris": {"android": "https://dc.lft.to/lastmile_qr_scan", "ios": "https://dc.lft.to/lastmile_qr_scan"}, "is_disabled": 0, "fusion_lat": 0.0, "name": "63bdf580e7f24043ca1355cc2bc32dec", "fusion_lon": 0.0}, {"is_reserved": 0, "type": "electric_scooter", "bike_id": "5eb3f878c40a10978bc5948bd603b14e", "lat": 38.92593766666667, "lon": -77.02150783333333, "rental_uris": {"android": "https://dc.lft.to/lastmile_qr_scan", "ios": "https://dc.lft.to/lastmile_qr_scan"}, "is_disabled": 0, "fusion_lat": 0.0, "name": "5eb3f878c40a10978bc5948bd603b14e", "fusion_lon": 0.0}, {"is_reserved": 0, "type": "electric_scooter", "bike_id": "5810c33f4e8955c402bda5dd50d7a9a2", "lat": 38.9053825, "lon": -77.057025, "rental_uris": {"android": "https://dc.lft.to/lastmile_qr_scan", "ios": "https://dc.lft.to/lastmile_qr_scan"}, "is_disabled": 0, "fusion_lat": 0.0, "name": "5810c33f4e8955c402bda5dd50d7a9a2", "fusion_lon": 0.0}, {"is_reserved": 0, "type": "electric_scooter", "bike_id": "5678247e4f1e1eecd3fb85b00aa22ca7", "lat": 38.9133235, "lon": -77.04187533333334, "rental_uris": {"android": "https://dc.lft.to/lastmile_qr_scan", "ios": "https://dc.lft.to/lastmile_qr_scan"}, "is_disabled": 0, "fusion_lat": 0.0, "name": "5678247e4f1e1eecd3fb85b00aa22ca7", "fusion_lon": 0.0}, {"is_reserved": 0, "type": "electric_scooter", "bike_id": "6945d73f6ee1e7779b5524ef079f4194", "lat": 38.888767666666666, "lon": -77.04886866666666, "rental_uris": {"android": "https://dc.lft.to/lastmile_qr_scan", "ios": "https://dc.lft.to/lastmile_qr_scan"}, "is_disabled": 0, "fusion_lat": 0.0, "name": "6945d73f6ee1e7779b5524ef079f4194", "fusion_lon": 0.0}, {"is_reserved": 0, "type": "electric_scooter", "bike_id": "21cd717c7c0b39e83c04b70073115a73", "lat": 38.91521616666667, "lon": -77.0133005, "rental_uris": {"android": "https://dc.lft.to/lastmile_qr_scan", "ios": "https://dc.lft.to/lastmile_qr_scan"}, "is_disabled": 0, "fusion_lat": 0.0, "name": "21cd717c7c0b39e83c04b70073115a73", "fusion_lon": 0.0}, {"is_reserved": 0, "type": "electric_scooter", "bike_id": "34549e36d69eb84789d94f74330dce79", "lat": 38.92669733333334, "lon": -77.01508816666667, "rental_uris": {"android": "https://dc.lft.to/lastmile_qr_scan", "ios": "https://dc.lft.to/lastmile_qr_scan"}, "is_disabled": 0, "fusion_lat": 0.0, "name": "34549e36d69eb84789d94f74330dce79", "fusion_lon": 0.0}, {"is_reserved": 0, "type": "electric_scooter", "bike_id": "70c3a042114c5848e8ee973396ef140d", "lat": 38.907387, "lon": -77.0303255, "rental_uris": {"android": "https://dc.lft.to/lastmile_qr_scan", "ios": "https://dc.lft.to/lastmile_qr_scan"}, "is_disabled": 0, "fusion_lat": 0.0, "name": "70c3a042114c5848e8ee973396ef140d", "fusion_lon": 0.0}, {"is_reserved": 0, "type": "electric_scooter", "bike_id": "fe11fcdd9aa2b66bd22e703514198f99", "lat": 38.92105633333333, "lon": -77.03167933333333, "rental_uris": {"android": "https://dc.lft.to/lastmile_qr_scan", "ios": "https://dc.lft.to/lastmile_qr_scan"}, "is_disabled": 0, "fusion_lat": 0.0, "name": "fe11fcdd9aa2b66bd22e703514198f99", "fusion_lon": 0.0}, {"is_reserved": 0, "type": "electric_scooter", "bike_id": "66ea292c8be675901abefee166a8fd94", "lat": 38.9293185, "lon": -77.03758116666667, "rental_uris": {"android": "https://dc.lft.to/lastmile_qr_scan", "ios": "https://dc.lft.to/lastmile_qr_scan"}, "is_disabled": 0, "fusion_lat": 0.0, "name": "66ea292c8be675901abefee166a8fd94", "fusion_lon": 0.0}, {"is_reserved": 0, "type": "electric_scooter", "bike_id": "454e05b38fbc3f137a6219995cbd6e15", "lat": 38.88776383333333, "lon": -77.00343666666667, "rental_uris": {"android": "https://dc.lft.to/lastmile_qr_scan", "ios": "https://dc.lft.to/lastmile_qr_scan"}, "is_disabled": 0, "fusion_lat": 0.0, "name": "454e05b38fbc3f137a6219995cbd6e15", "fusion_lon": 0.0}, {"is_reserved": 0, "type": "electric_scooter", "bike_id": "590f73cedef7d85184eb1f69a0bf902e", "lat": 38.916241166666666, "lon": -77.032089, "rental_uris": {"android": "https://dc.lft.to/lastmile_qr_scan", "ios": "https://dc.lft.to/lastmile_qr_scan"}, "is_disabled": 0, "fusion_lat": 0.0, "name": "590f73cedef7d85184eb1f69a0bf902e", "fusion_lon": 0.0}, {"is_reserved": 0, "type": "electric_scooter", "bike_id": "9243e8ddde0a39df6ea1f2601ed9c2f5", "lat": 38.924819, "lon": -77.0272285, "rental_uris": {"android": "https://dc.lft.to/lastmile_qr_scan", "ios": "https://dc.lft.to/lastmile_qr_scan"}, "is_disabled": 0, "fusion_lat": 0.0, "name": "9243e8ddde0a39df6ea1f2601ed9c2f5", "fusion_lon": 0.0}, {"is_reserved": 0, "type": "electric_scooter", "bike_id": "5c3512c36653c732a0bc6006967cff45", "lat": 38.899522, "lon": -77.02710633333334, "rental_uris": {"android": "https://dc.lft.to/lastmile_qr_scan", "ios": "https://dc.lft.to/lastmile_qr_scan"}, "is_disabled": 0, "fusion_lat": 0.0, "name": "5c3512c36653c732a0bc6006967cff45", "fusion_lon": 0.0}, {"is_reserved": 0, "type": "electric_bike", "bike_id": "4eb38be09a8a7b33b69b666b01fe93f6", "lat": 38.974420333333335, "lon": -77.09597183333334, "rental_uris": {"android": "https://dc.lft.to/lastmile_qr_scan", "ios": "https://dc.lft.to/lastmile_qr_scan"}, "is_disabled": 0, "fusion_lat": 0.0, "name": "4eb38be09a8a7b33b69b666b01fe93f6", "fusion_lon": 0.0}, {"is_reserved": 0, "type": "electric_scooter", "bike_id": "34cf577516b250dca6fe957c1cc48846", "lat": 38.92700516666667, "lon": -77.02070683333334, "rental_uris": {"android": "https://dc.lft.to/lastmile_qr_scan", "ios": "https://dc.lft.to/lastmile_qr_scan"}, "is_disabled": 0, "fusion_lat": 0.0, "name": "34cf577516b250dca6fe957c1cc48846", "fusion_lon": 0.0}, {"is_reserved": 0, "type": "electric_scooter", "bike_id": "ceb013bc7a0c203073ef38ca089058dd", "lat": 38.926790833333335, "lon": -77.00734733333333, "rental_uris": {"android": "https://dc.lft.to/lastmile_qr_scan", "ios": "https://dc.lft.to/lastmile_qr_scan"}, "is_disabled": 0, "fusion_lat": 0.0, "name": "ceb013bc7a0c203073ef38ca089058dd", "fusion_lon": 0.0}, {"is_reserved": 0, "type": "electric_scooter", "bike_id": "52d09b281fc3edf7e4d0c4bc26bced1f", "lat": 38.897325, "lon": -77.04993266666666, "rental_uris": {"android": "https://dc.lft.to/lastmile_qr_scan", "ios": "https://dc.lft.to/lastmile_qr_scan"}, "is_disabled": 0, "fusion_lat": 0.0, "name": "52d09b281fc3edf7e4d0c4bc26bced1f", "fusion_lon": 0.0}, {"is_reserved": 0, "type": "electric_scooter", "bike_id": "ef29c28b80c1bc7e9ccb0809277ef8d5", "lat": 38.89541933333334, "lon": -76.98335233333333, "rental_uris": {"android": "https://dc.lft.to/lastmile_qr_scan", "ios": "https://dc.lft.to/lastmile_qr_scan"}, "is_disabled": 0, "fusion_lat": 0.0, "name": "ef29c28b80c1bc7e9ccb0809277ef8d5", "fusion_lon": 0.0}, {"is_reserved": 0, "type": "electric_scooter", "bike_id": "31b889699b2467df3a448330fa2eec53", "lat": 38.94009916666667, "lon": -77.01910516666666, "rental_uris": {"android": "https://dc.lft.to/lastmile_qr_scan", "ios": "https://dc.lft.to/lastmile_qr_scan"}, "is_disabled": 0, "fusion_lat": 0.0, "name": "31b889699b2467df3a448330fa2eec53", "fusion_lon": 0.0}, {"is_reserved": 0, "type": "electric_scooter", "bike_id": "873b8e798c97c5e4b45e0356c47976ad", "lat": 38.92550983333334, "lon": -77.04332316666667, "rental_uris": {"android": "https://dc.lft.to/lastmile_qr_scan", "ios": "https://dc.lft.to/lastmile_qr_scan"}, "is_disabled": 0, "fusion_lat": 0.0, "name": "873b8e798c97c5e4b45e0356c47976ad", "fusion_lon": 0.0}, {"is_reserved": 0, "type": "electric_scooter", "bike_id": "086c3cbf1fe055ae5dfeb86f42d63776", "lat": 38.922405833333336, "lon": -77.03518883333334, "rental_uris": {"android": "https://dc.lft.to/lastmile_qr_scan", "ios": "https://dc.lft.to/lastmile_qr_scan"}, "is_disabled": 0, "fusion_lat": 0.0, "name": "086c3cbf1fe055ae5dfeb86f42d63776", "fusion_lon": 0.0}, {"is_reserved": 0, "type": "electric_scooter", "bike_id": "2932cc288640f590b565e8a848ce4192", "lat": 38.905560333333334, "lon": -77.0070285, "rental_uris": {"android": "https://dc.lft.to/lastmile_qr_scan", "ios": "https://dc.lft.to/lastmile_qr_scan"}, "is_disabled": 0, "fusion_lat": 0.0, "name": "2932cc288640f590b565e8a848ce4192", "fusion_lon": 0.0}, {"is_reserved": 0, "type": "electric_scooter", "bike_id": "f9091b7c8ca6ec7d36dded3ff8d4a0f9", "lat": 38.89955033333333, "lon": -77.03935216666666, "rental_uris": {"android": "https://dc.lft.to/lastmile_qr_scan", "ios": "https://dc.lft.to/lastmile_qr_scan"}, "is_disabled": 0, "fusion_lat": 0.0, "name": "f9091b7c8ca6ec7d36dded3ff8d4a0f9", "fusion_lon": 0.0}, {"is_reserved": 0, "type": "electric_scooter", "bike_id": "c30822deb0133805eb612df54b63108b", "lat": 38.899964833333335, "lon": -76.99849533333334, "rental_uris": {"android": "https://dc.lft.to/lastmile_qr_scan", "ios": "https://dc.lft.to/lastmile_qr_scan"}, "is_disabled": 0, "fusion_lat": 0.0, "name": "c30822deb0133805eb612df54b63108b", "fusion_lon": 0.0}, {"is_reserved": 0, "type": "electric_scooter", "bike_id": "a51919d59d5fbc44ca72b547906cb6c1", "lat": 38.889704, "lon": -76.99935983333333, "rental_uris": {"android": "https://dc.lft.to/lastmile_qr_scan", "ios": "https://dc.lft.to/lastmile_qr_scan"}, "is_disabled": 0, "fusion_lat": 0.0, "name": "a51919d59d5fbc44ca72b547906cb6c1", "fusion_lon": 0.0}, {"is_reserved": 0, "type": "electric_scooter", "bike_id": "66b9eae30639033b6c4239a761975f15", "lat": 38.892185166666664, "lon": -77.04373166666667, "rental_uris": {"android": "https://dc.lft.to/lastmile_qr_scan", "ios": "https://dc.lft.to/lastmile_qr_scan"}, "is_disabled": 0, "fusion_lat": 0.0, "name": "66b9eae30639033b6c4239a761975f15", "fusion_lon": 0.0}, {"is_reserved": 0, "type": "electric_scooter", "bike_id": "b8934dfa0706eea6896d3f18c4f9c367", "lat": 38.899304, "lon": -77.03189483333334, "rental_uris": {"android": "https://dc.lft.to/lastmile_qr_scan", "ios": "https://dc.lft.to/lastmile_qr_scan"}, "is_disabled": 0, "fusion_lat": 0.0, "name": "b8934dfa0706eea6896d3f18c4f9c367", "fusion_lon": 0.0}, {"is_reserved": 0, "type": "electric_scooter", "bike_id": "cda9ee91e3f7d83247ddb0664a0faef5", "lat": 38.87508183333333, "lon": -77.00343083333334, "rental_uris": {"android": "https://dc.lft.to/lastmile_qr_scan", "ios": "https://dc.lft.to/lastmile_qr_scan"}, "is_disabled": 0, "fusion_lat": 0.0, "name": "cda9ee91e3f7d83247ddb0664a0faef5", "fusion_lon": 0.0}, {"is_reserved": 0, "type": "electric_scooter", "bike_id": "e5ff18494e676482d3509d677a3ae8c3", "lat": 38.8773905, "lon": -77.0187785, "rental_uris": {"android": "https://dc.lft.to/lastmile_qr_scan", "ios": "https://dc.lft.to/lastmile_qr_scan"}, "is_disabled": 0, "fusion_lat": 0.0, "name": "e5ff18494e676482d3509d677a3ae8c3", "fusion_lon": 0.0}, {"is_reserved": 0, "type": "electric_scooter", "bike_id": "39100c50f592c4f4a96bab90f3cf8c8d", "lat": 38.90257733333333, "lon": -77.02068333333334, "rental_uris": {"android": "https://dc.lft.to/lastmile_qr_scan", "ios": "https://dc.lft.to/lastmile_qr_scan"}, "is_disabled": 0, "fusion_lat": 0.0, "name": "39100c50f592c4f4a96bab90f3cf8c8d", "fusion_lon": 0.0}, {"is_reserved": 0, "type": "electric_scooter", "bike_id": "77fb388bb29685d54840381f6dbc2328", "lat": 38.914065666666666, "lon": -77.04132766666666, "rental_uris": {"android": "https://dc.lft.to/lastmile_qr_scan", "ios": "https://dc.lft.to/lastmile_qr_scan"}, "is_disabled": 0, "fusion_lat": 0.0, "name": "77fb388bb29685d54840381f6dbc2328", "fusion_lon": 0.0}, {"is_reserved": 0, "type": "electric_scooter", "bike_id": "d9ccc369705b5524d6f84f8d24119c44", "lat": 38.892285666666666, "lon": -77.031832, "rental_uris": {"android": "https://dc.lft.to/lastmile_qr_scan", "ios": "https://dc.lft.to/lastmile_qr_scan"}, "is_disabled": 0, "fusion_lat": 0.0, "name": "d9ccc369705b5524d6f84f8d24119c44", "fusion_lon": 0.0}, {"is_reserved": 0, "type": "electric_scooter", "bike_id": "f9e9e6834b4d425488bffbb8b3e03dce", "lat": 38.92058816666667, "lon": -77.0245265, "rental_uris": {"android": "https://dc.lft.to/lastmile_qr_scan", "ios": "https://dc.lft.to/lastmile_qr_scan"}, "is_disabled": 0, "fusion_lat": 0.0, "name": "f9e9e6834b4d425488bffbb8b3e03dce", "fusion_lon": 0.0}, {"is_reserved": 0, "type": "electric_scooter", "bike_id": "98f3d2105019b4368a0e2edbf490e310", "lat": 38.91822233333333, "lon": -77.03195183333334, "rental_uris": {"android": "https://dc.lft.to/lastmile_qr_scan", "ios": "https://dc.lft.to/lastmile_qr_scan"}, "is_disabled": 0, "fusion_lat": 0.0, "name": "98f3d2105019b4368a0e2edbf490e310", "fusion_lon": 0.0}, {"is_reserved": 0, "type": "electric_bike", "bike_id": "c5e22df1fcb92dff5fc805b1ac8b371a", "lat": 39.09439883333334, "lon": -77.13464766666667, "rental_uris": {"android": "https://dc.lft.to/lastmile_qr_scan", "ios": "https://dc.lft.to/lastmile_qr_scan"}, "is_disabled": 0, "fusion_lat": 0.0, "name": "c5e22df1fcb92dff5fc805b1ac8b371a", "fusion_lon": 0.0}, {"is_reserved": 0, "type": "electric_scooter", "bike_id": "eccd5474b4f67c43cfd391d73288f2cb", "lat": 38.9279895, "lon": -77.036087, "rental_uris": {"android": "https://dc.lft.to/lastmile_qr_scan", "ios": "https://dc.lft.to/lastmile_qr_scan"}, "is_disabled": 0, "fusion_lat": 0.0, "name": "eccd5474b4f67c43cfd391d73288f2cb", "fusion_lon": 0.0}, {"is_reserved": 0, "type": "electric_scooter", "bike_id": "3994394d16f0aa8b59c2711dd3a69658", "lat": 38.930609833333335, "lon": -77.04219083333334, "rental_uris": {"android": "https://dc.lft.to/lastmile_qr_scan", "ios": "https://dc.lft.to/lastmile_qr_scan"}, "is_disabled": 0, "fusion_lat": 0.0, "name": "3994394d16f0aa8b59c2711dd3a69658", "fusion_lon": 0.0}, {"is_reserved": 0, "type": "electric_scooter", "bike_id": "76cfa7a516de37c88b5883b1e36555fd", "lat": 38.90905816666667, "lon": -77.04388433333334, "rental_uris": {"android": "https://dc.lft.to/lastmile_qr_scan", "ios": "https://dc.lft.to/lastmile_qr_scan"}, "is_disabled": 0, "fusion_lat": 0.0, "name": "76cfa7a516de37c88b5883b1e36555fd", "fusion_lon": 0.0}, {"is_reserved": 0, "type": "electric_scooter", "bike_id": "934cb77d0c2bd19dc6bcb1e993a25035", "lat": 38.900963833333336, "lon": -77.025399, "rental_uris": {"android": "https://dc.lft.to/lastmile_qr_scan", "ios": "https://dc.lft.to/lastmile_qr_scan"}, "is_disabled": 0, "fusion_lat": 0.0, "name": "934cb77d0c2bd19dc6bcb1e993a25035", "fusion_lon": 0.0}, {"is_reserved": 0, "type": "electric_scooter", "bike_id": "275b20fa89d1397561324fc30ccd204b", "lat": 38.92643066666667, "lon": -77.02145, "rental_uris": {"android": "https://dc.lft.to/lastmile_qr_scan", "ios": "https://dc.lft.to/lastmile_qr_scan"}, "is_disabled": 0, "fusion_lat": 0.0, "name": "275b20fa89d1397561324fc30ccd204b", "fusion_lon": 0.0}, {"is_reserved": 0, "type": "electric_scooter", "bike_id": "7b84e824b544c26d395b7795e3308187", "lat": 38.883295, "lon": -76.99329866666666, "rental_uris": {"android": "https://dc.lft.to/lastmile_qr_scan", "ios": "https://dc.lft.to/lastmile_qr_scan"}, "is_disabled": 0, "fusion_lat": 0.0, "name": "7b84e824b544c26d395b7795e3308187", "fusion_lon": 0.0}, {"is_reserved": 0, "type": "electric_scooter", "bike_id": "a7f7864543bcc93494f43ae6ad71632d", "lat": 38.88405616666667, "lon": -76.995291, "rental_uris": {"android": "https://dc.lft.to/lastmile_qr_scan", "ios": "https://dc.lft.to/lastmile_qr_scan"}, "is_disabled": 0, "fusion_lat": 0.0, "name": "a7f7864543bcc93494f43ae6ad71632d", "fusion_lon": 0.0}, {"is_reserved": 0, "type": "electric_scooter", "bike_id": "3e6ef493b722c45d518510ce62539e08", "lat": 38.9157235, "lon": -77.0364365, "rental_uris": {"android": "https://dc.lft.to/lastmile_qr_scan", "ios": "https://dc.lft.to/lastmile_qr_scan"}, "is_disabled": 0, "fusion_lat": 0.0, "name": "3e6ef493b722c45d518510ce62539e08", "fusion_lon": 0.0}, {"is_reserved": 0, "type": "electric_scooter", "bike_id": "fc3481792d3445fbda4b730d6f6c738f", "lat": 38.8845375, "lon": -76.92620966666667, "rental_uris": {"android": "https://dc.lft.to/lastmile_qr_scan", "ios": "https://dc.lft.to/lastmile_qr_scan"}, "is_disabled": 0, "fusion_lat": 0.0, "name": "fc3481792d3445fbda4b730d6f6c738f", "fusion_lon": 0.0}, {"is_reserved": 0, "type": "electric_scooter", "bike_id": "a4daa0d2350e44b4e63144ba56b59492", "lat": 38.926035666666664, "lon": -77.02157666666666, "rental_uris": {"android": "https://dc.lft.to/lastmile_qr_scan", "ios": "https://dc.lft.to/lastmile_qr_scan"}, "is_disabled": 0, "fusion_lat": 0.0, "name": "a4daa0d2350e44b4e63144ba56b59492", "fusion_lon": 0.0}, {"is_reserved": 0, "type": "electric_scooter", "bike_id": "114dc41997680eae12d674ceefaccae9", "lat": 38.9729695, "lon": -77.03622683333333, "rental_uris": {"android": "https://dc.lft.to/lastmile_qr_scan", "ios": "https://dc.lft.to/lastmile_qr_scan"}, "is_disabled": 0, "fusion_lat": 0.0, "name": "114dc41997680eae12d674ceefaccae9", "fusion_lon": 0.0}, {"is_reserved": 0, "type": "electric_scooter", "bike_id": "4e5768dcb6839f61a06ea5b09f28558e", "lat": 38.9192965, "lon": -77.01976916666666, "rental_uris": {"android": "https://dc.lft.to/lastmile_qr_scan", "ios": "https://dc.lft.to/lastmile_qr_scan"}, "is_disabled": 0, "fusion_lat": 0.0, "name": "4e5768dcb6839f61a06ea5b09f28558e", "fusion_lon": 0.0}, {"is_reserved": 0, "type": "electric_scooter", "bike_id": "d041cef386dcd7af54d600f183e51122", "lat": 38.91060816666667, "lon": -77.05517316666666, "rental_uris": {"android": "https://dc.lft.to/lastmile_qr_scan", "ios": "https://dc.lft.to/lastmile_qr_scan"}, "is_disabled": 0, "fusion_lat": 0.0, "name": "d041cef386dcd7af54d600f183e51122", "fusion_lon": 0.0}, {"is_reserved": 0, "type": "electric_scooter", "bike_id": "a914dc8517a19f13e1baec0816e8c8ba", "lat": 38.920287333333334, "lon": -77.037358, "rental_uris": {"android": "https://dc.lft.to/lastmile_qr_scan", "ios": "https://dc.lft.to/lastmile_qr_scan"}, "is_disabled": 0, "fusion_lat": 0.0, "name": "a914dc8517a19f13e1baec0816e8c8ba", "fusion_lon": 0.0}, {"is_reserved": 0, "type": "electric_scooter", "bike_id": "f5e90778a894a39f30f7e1b3e48ce767", "lat": 38.92005566666667, "lon": -76.98503433333333, "rental_uris": {"android": "https://dc.lft.to/lastmile_qr_scan", "ios": "https://dc.lft.to/lastmile_qr_scan"}, "is_disabled": 0, "fusion_lat": 0.0, "name": "f5e90778a894a39f30f7e1b3e48ce767", "fusion_lon": 0.0}, {"is_reserved": 0, "type": "electric_bike", "bike_id": "3b6300d340fa6af5a0c884190436e654", "lat": 38.84322316666667, "lon": -76.99735083333333, "rental_uris": {"android": "https://dc.lft.to/lastmile_qr_scan", "ios": "https://dc.lft.to/lastmile_qr_scan"}, "is_disabled": 0, "fusion_lat": 0.0, "name": "3b6300d340fa6af5a0c884190436e654", "fusion_lon": 0.0}, {"is_reserved": 0, "type": "electric_scooter", "bike_id": "215cf2e94307a8df2717e99ddccb450e", "lat": 38.94202216666667, "lon": -77.02517716666667, "rental_uris": {"android": "https://dc.lft.to/lastmile_qr_scan", "ios": "https://dc.lft.to/lastmile_qr_scan"}, "is_disabled": 0, "fusion_lat": 0.0, "name": "215cf2e94307a8df2717e99ddccb450e", "fusion_lon": 0.0}, {"is_reserved": 0, "type": "electric_bike", "bike_id": "3add5c08e9de77894c11b4761b398c1f", "lat": 38.991015166666664, "lon": -76.88152366666667, "rental_uris": {"android": "https://dc.lft.to/lastmile_qr_scan", "ios": "https://dc.lft.to/lastmile_qr_scan"}, "is_disabled": 0, "fusion_lat": 0.0, "name": "3add5c08e9de77894c11b4761b398c1f", "fusion_lon": 0.0}, {"is_reserved": 0, "type": "electric_scooter", "bike_id": "f86525c6a0a7e3c903b2a73e0fa38613", "lat": 38.9241595, "lon": -77.03541766666666, "rental_uris": {"android": "https://dc.lft.to/lastmile_qr_scan", "ios": "https://dc.lft.to/lastmile_qr_scan"}, "is_disabled": 0, "fusion_lat": 0.0, "name": "f86525c6a0a7e3c903b2a73e0fa38613", "fusion_lon": 0.0}, {"is_reserved": 0, "type": "electric_bike", "bike_id": "04f1238008fd2d9cd7b6675191a0cfe1", "lat": 38.8708535, "lon": -77.0119305, "rental_uris": {"android": "https://dc.lft.to/lastmile_qr_scan", "ios": "https://dc.lft.to/lastmile_qr_scan"}, "is_disabled": 0, "fusion_lat": 0.0, "name": "04f1238008fd2d9cd7b6675191a0cfe1", "fusion_lon": 0.0}, {"is_reserved": 0, "type": "electric_scooter", "bike_id": "3d3cdfe5cb6a47e39bcd906ce70a7df5", "lat": 38.926004666666664, "lon": -77.05176866666666, "rental_uris": {"android": "https://dc.lft.to/lastmile_qr_scan", "ios": "https://dc.lft.to/lastmile_qr_scan"}, "is_disabled": 0, "fusion_lat": 0.0, "name": "3d3cdfe5cb6a47e39bcd906ce70a7df5", "fusion_lon": 0.0}, {"is_reserved": 0, "type": "electric_scooter", "bike_id": "52ea29e7c1fe57f96a7ce0b1f10314a1", "lat": 38.916850333333336, "lon": -77.03238833333333, "rental_uris": {"android": "https://dc.lft.to/lastmile_qr_scan", "ios": "https://dc.lft.to/lastmile_qr_scan"}, "is_disabled": 0, "fusion_lat": 0.0, "name": "52ea29e7c1fe57f96a7ce0b1f10314a1", "fusion_lon": 0.0}, {"is_reserved": 0, "type": "electric_scooter", "bike_id": "df576a667251fd087e30f240d8f158d0", "lat": 38.90825516666666, "lon": -76.98716116666667, "rental_uris": {"android": "https://dc.lft.to/lastmile_qr_scan", "ios": "https://dc.lft.to/lastmile_qr_scan"}, "is_disabled": 0, "fusion_lat": 0.0, "name": "df576a667251fd087e30f240d8f158d0", "fusion_lon": 0.0}, {"is_reserved": 0, "type": "electric_scooter", "bike_id": "5a3a3577f382db7dda004f941b5096a9", "lat": 38.8933115, "lon": -77.03189583333334, "rental_uris": {"android": "https://dc.lft.to/lastmile_qr_scan", "ios": "https://dc.lft.to/lastmile_qr_scan"}, "is_disabled": 0, "fusion_lat": 0.0, "name": "5a3a3577f382db7dda004f941b5096a9", "fusion_lon": 0.0}, {"is_reserved": 0, "type": "electric_scooter", "bike_id": "3121a3bd03e1da6c253b39ee14815bac", "lat": 38.8861465, "lon": -77.0040635, "rental_uris": {"android": "https://dc.lft.to/lastmile_qr_scan", "ios": "https://dc.lft.to/lastmile_qr_scan"}, "is_disabled": 0, "fusion_lat": 0.0, "name": "3121a3bd03e1da6c253b39ee14815bac", "fusion_lon": 0.0}, {"is_reserved": 0, "type": "electric_scooter", "bike_id": "2418f8db47815b60c594d553f6056f67", "lat": 38.88627116666667, "lon": -77.01533416666666, "rental_uris": {"android": "https://dc.lft.to/lastmile_qr_scan", "ios": "https://dc.lft.to/lastmile_qr_scan"}, "is_disabled": 0, "fusion_lat": 0.0, "name": "2418f8db47815b60c594d553f6056f67", "fusion_lon": 0.0}, {"is_reserved": 0, "type": "electric_scooter", "bike_id": "eb26b0857f94e37b8349dd9577387f8d", "lat": 38.921576333333334, "lon": -77.03493833333333, "rental_uris": {"android": "https://dc.lft.to/lastmile_qr_scan", "ios": "https://dc.lft.to/lastmile_qr_scan"}, "is_disabled": 0, "fusion_lat": 0.0, "name": "eb26b0857f94e37b8349dd9577387f8d", "fusion_lon": 0.0}, {"is_reserved": 0, "type": "electric_scooter", "bike_id": "763272d57278b531d3effbcb9d9d2846", "lat": 38.9109815, "lon": -77.01687933333334, "rental_uris": {"android": "https://dc.lft.to/lastmile_qr_scan", "ios": "https://dc.lft.to/lastmile_qr_scan"}, "is_disabled": 0, "fusion_lat": 0.0, "name": "763272d57278b531d3effbcb9d9d2846", "fusion_lon": 0.0}, {"is_reserved": 0, "type": "electric_bike", "bike_id": "c9ef402bdfed923a2f8f9a9583548a91", "lat": 38.802468, "lon": -77.11440716666667, "rental_uris": {"android": "https://dc.lft.to/lastmile_qr_scan", "ios": "https://dc.lft.to/lastmile_qr_scan"}, "is_disabled": 0, "fusion_lat": 0.0, "name": "c9ef402bdfed923a2f8f9a9583548a91", "fusion_lon": 0.0}, {"is_reserved": 0, "type": "electric_scooter", "bike_id": "2ebbd3c072be2161b1c5808b37d7acc2", "lat": 38.916329, "lon": -77.039627, "rental_uris": {"android": "https://dc.lft.to/lastmile_qr_scan", "ios": "https://dc.lft.to/lastmile_qr_scan"}, "is_disabled": 0, "fusion_lat": 0.0, "name": "2ebbd3c072be2161b1c5808b37d7acc2", "fusion_lon": 0.0}, {"is_reserved": 0, "type": "electric_scooter", "bike_id": "f788a70ac4f90a9cac7f9a6d2bb000f8", "lat": 38.902874833333335, "lon": -77.01375733333333, "rental_uris": {"android": "https://dc.lft.to/lastmile_qr_scan", "ios": "https://dc.lft.to/lastmile_qr_scan"}, "is_disabled": 0, "fusion_lat": 0.0, "name": "f788a70ac4f90a9cac7f9a6d2bb000f8", "fusion_lon": 0.0}, {"is_reserved": 0, "type": "electric_scooter", "bike_id": "6f619755a6938db056ff7c52843583a5", "lat": 38.918119833333336, "lon": -77.03439716666666, "rental_uris": {"android": "https://dc.lft.to/lastmile_qr_scan", "ios": "https://dc.lft.to/lastmile_qr_scan"}, "is_disabled": 0, "fusion_lat": 0.0, "name": "6f619755a6938db056ff7c52843583a5", "fusion_lon": 0.0}, {"is_reserved": 0, "type": "electric_scooter", "bike_id": "5dd8a07cb221f79554a74977ac1804b7", "lat": 38.9119485, "lon": -77.01997183333333, "rental_uris": {"android": "https://dc.lft.to/lastmile_qr_scan", "ios": "https://dc.lft.to/lastmile_qr_scan"}, "is_disabled": 0, "fusion_lat": 0.0, "name": "5dd8a07cb221f79554a74977ac1804b7", "fusion_lon": 0.0}, {"is_reserved": 0, "type": "electric_scooter", "bike_id": "2de501f9356066ceeef274297b5ff9cf", "lat": 38.9285235, "lon": -77.027406, "rental_uris": {"android": "https://dc.lft.to/lastmile_qr_scan", "ios": "https://dc.lft.to/lastmile_qr_scan"}, "is_disabled": 0, "fusion_lat": 0.0, "name": "2de501f9356066ceeef274297b5ff9cf", "fusion_lon": 0.0}, {"is_reserved": 0, "type": "electric_scooter", "bike_id": "75af7459b0ff690708d820061ada8b8a", "lat": 38.9131985, "lon": -77.0454505, "rental_uris": {"android": "https://dc.lft.to/lastmile_qr_scan", "ios": "https://dc.lft.to/lastmile_qr_scan"}, "is_disabled": 0, "fusion_lat": 0.0, "name": "75af7459b0ff690708d820061ada8b8a", "fusion_lon": 0.0}, {"is_reserved": 0, "type": "electric_scooter", "bike_id": "2b61f2a1e19644022c9a624725e715ff", "lat": 38.92721433333333, "lon": -77.03554166666666, "rental_uris": {"android": "https://dc.lft.to/lastmile_qr_scan", "ios": "https://dc.lft.to/lastmile_qr_scan"}, "is_disabled": 0, "fusion_lat": 0.0, "name": "2b61f2a1e19644022c9a624725e715ff", "fusion_lon": 0.0}, {"is_reserved": 0, "type": "electric_scooter", "bike_id": "350e4e0f6839313e1727cb8c6e9e49c6", "lat": 38.90060316666667, "lon": -76.99845166666667, "rental_uris": {"android": "https://dc.lft.to/lastmile_qr_scan", "ios": "https://dc.lft.to/lastmile_qr_scan"}, "is_disabled": 0, "fusion_lat": 0.0, "name": "350e4e0f6839313e1727cb8c6e9e49c6", "fusion_lon": 0.0}, {"is_reserved": 0, "type": "electric_scooter", "bike_id": "c0e7fc4e5f7bf8babed374a28de9cac8", "lat": 38.911941, "lon": -77.002116, "rental_uris": {"android": "https://dc.lft.to/lastmile_qr_scan", "ios": "https://dc.lft.to/lastmile_qr_scan"}, "is_disabled": 0, "fusion_lat": 0.0, "name": "c0e7fc4e5f7bf8babed374a28de9cac8", "fusion_lon": 0.0}, {"is_reserved": 0, "type": "electric_scooter", "bike_id": "0fd88e8f0d7af741a6398524a0281041", "lat": 38.90929583333333, "lon": -77.04473266666666, "rental_uris": {"android": "https://dc.lft.to/lastmile_qr_scan", "ios": "https://dc.lft.to/lastmile_qr_scan"}, "is_disabled": 0, "fusion_lat": 0.0, "name": "0fd88e8f0d7af741a6398524a0281041", "fusion_lon": 0.0}, {"is_reserved": 0, "type": "electric_scooter", "bike_id": "7f172e24e87c0280612fd1d9fb016cb7", "lat": 38.89219533333333, "lon": -77.04371483333334, "rental_uris": {"android": "https://dc.lft.to/lastmile_qr_scan", "ios": "https://dc.lft.to/lastmile_qr_scan"}, "is_disabled": 0, "fusion_lat": 0.0, "name": "7f172e24e87c0280612fd1d9fb016cb7", "fusion_lon": 0.0}, {"is_reserved": 0, "type": "electric_scooter", "bike_id": "b37efbcb357dbd07b5bf75421c183f2d", "lat": 38.91404283333333, "lon": -77.02727316666666, "rental_uris": {"android": "https://dc.lft.to/lastmile_qr_scan", "ios": "https://dc.lft.to/lastmile_qr_scan"}, "is_disabled": 0, "fusion_lat": 0.0, "name": "b37efbcb357dbd07b5bf75421c183f2d", "fusion_lon": 0.0}, {"is_reserved": 0, "type": "electric_scooter", "bike_id": "ed052e7bf01bf8583bfa8395ffcba9d1", "lat": 38.950891, "lon": -77.02533633333333, "rental_uris": {"android": "https://dc.lft.to/lastmile_qr_scan", "ios": "https://dc.lft.to/lastmile_qr_scan"}, "is_disabled": 0, "fusion_lat": 0.0, "name": "ed052e7bf01bf8583bfa8395ffcba9d1", "fusion_lon": 0.0}, {"is_reserved": 0, "type": "electric_scooter", "bike_id": "2e088d281214931249c943b7f61b68d1", "lat": 38.916586333333335, "lon": -77.02403583333333, "rental_uris": {"android": "https://dc.lft.to/lastmile_qr_scan", "ios": "https://dc.lft.to/lastmile_qr_scan"}, "is_disabled": 0, "fusion_lat": 0.0, "name": "2e088d281214931249c943b7f61b68d1", "fusion_lon": 0.0}, {"is_reserved": 0, "type": "electric_scooter", "bike_id": "458c2a6800b7d48e3004b222d97de4e5", "lat": 38.89756216666667, "lon": -77.02692566666667, "rental_uris": {"android": "https://dc.lft.to/lastmile_qr_scan", "ios": "https://dc.lft.to/lastmile_qr_scan"}, "is_disabled": 0, "fusion_lat": 0.0, "name": "458c2a6800b7d48e3004b222d97de4e5", "fusion_lon": 0.0}, {"is_reserved": 0, "type": "electric_scooter", "bike_id": "5bac57f8f521de7b3086f01ce981766e", "lat": 38.91975683333333, "lon": -77.02520366666667, "rental_uris": {"android": "https://dc.lft.to/lastmile_qr_scan", "ios": "https://dc.lft.to/lastmile_qr_scan"}, "is_disabled": 0, "fusion_lat": 0.0, "name": "5bac57f8f521de7b3086f01ce981766e", "fusion_lon": 0.0}, {"is_reserved": 0, "type": "electric_scooter", "bike_id": "d4829f52ff5436339a9aad5b3e564092", "lat": 38.900262166666664, "lon": -77.02410433333333, "rental_uris": {"android": "https://dc.lft.to/lastmile_qr_scan", "ios": "https://dc.lft.to/lastmile_qr_scan"}, "is_disabled": 0, "fusion_lat": 0.0, "name": "d4829f52ff5436339a9aad5b3e564092", "fusion_lon": 0.0},