{"data": {"bikes": [{"bike_id": "bab55029250fec5b2236712481ab510a", "type": "electric_scooter", "is_disabled": 0, "lat": 38.90123633333333, "rental_uris": {"ios": "https://dc.lft.to/lastmile_qr_scan", "android": "https://dc.lft.to/lastmile_qr_scan"}, "is_reserved": 0, "fusion_lon": 0.0, "fusion_lat": 0.0, "lon": -77.04338183333333, "name": "bab55029250fec5b2236712481ab510a"}, {"bike_id": "da0eedb9a842588dfa27d5e0e0565825", "type": "electric_scooter", "is_disabled": 0, "lat": 38.9096835, "rental_uris": {"ios": "https://dc.lft.to/lastmile_qr_scan", "android": "https://dc.lft.to/lastmile_qr_scan"}, "is_reserved": 0, "fusion_lon": 0.0, "fusion_lat": 0.0, "lon": -77.011096, "name": "da0eedb9a842588dfa27d5e0e0565825"}, {"bike_id": "54f018ca5e468961814ff9d1dc875cb2", "type": "electric_bike", "is_disabled": 0, "lat": 38.9787645, "rental_uris": {"ios": "https://dc.lft.to/lastmile_qr_scan", "android": "https://dc.lft.to/lastmile_qr_scan"}, "is_reserved": 0, "fusion_lon": 0.0, "fusion_lat": 0.0, "lon": -77.06024583333334, "name": "54f018ca5e468961814ff9d1dc875cb2"}, {"bike_id": "7276f97f895dbadb5c0e503f1c13e63d", "type": "electric_scooter", "is_disabled": 0, "lat": 38.912444, "rental_uris": {"ios": "https://dc.lft.to/lastmile_qr_scan", "android": "https://dc.lft.to/lastmile_qr_scan"}, "is_reserved": 0, "fusion_lon": 0.0, "fusion_lat": 0.0, "lon": -77.03420916666667, "name": "7276f97f895dbadb5c0e503f1c13e63d"}, {"bike_id": "b79ea958c4f2c6a90cdd50e52903f509", "type": "electric_scooter", "is_disabled": 0, "lat": 38.904963333333335, "rental_uris": {"ios": "https://dc.lft.to/lastmile_qr_scan", "android": "https://dc.lft.to/lastmile_qr_scan"}, "is_reserved": 0, "fusion_lon": 0.0, "fusion_lat": 0.0, "lon": -77.06124216666667, "name": "b79ea958c4f2c6a90cdd50e52903f509"}, {"bike_id": "c9d2520b83acbe99a8fcb437faa4a235", "type": "electric_scooter", "is_disabled": 0, "lat": 38.904633833333335, "rental_uris": {"ios": "https://dc.lft.to/lastmile_qr_scan", "android": "https://dc.lft.to/lastmile_qr_scan"}, "is_reserved": 0, "fusion_lon": 0.0, "fusion_lat": 0.0, "lon": -77.016842, "name": "c9d2520b83acbe99a8fcb437faa4a235"}, {"bike_id": "8e4036cc9053aff398d6a2e65fb4439c", "type": "electric_scooter", "is_disabled": 0, "lat": 38.944920833333335, "rental_uris": {"ios": "https://dc.lft.to/lastmile_qr_scan", "android": "https://dc.lft.to/lastmile_qr_scan"}, "is_reserved": 0, "fusion_lon": 0.0, "fusion_lat": 0.0, "lon": -77.02619133333333, "name": "8e4036cc9053aff398d6a2e65fb4439c"}, {"bike_id": "85bcde98d2dec4f116b516026b997a0a", "type": "electric_scooter", "is_disabled": 0, "lat": 38.916535333333336, "rental_uris": {"ios": "https://dc.lft.to/lastmile_qr_scan", "android": "https://dc.lft.to/lastmile_qr_scan"}, "is_reserved": 0, "fusion_lon": 0.0, "fusion_lat": 0.0, "lon": -77.03443166666666, "name": "85bcde98d2dec4f116b516026b997a0a"}, {"bike_id": "048ac9a199634ae1a28fdbe21dd9bd94", "type": "electric_scooter", "is_disabled": 0, "lat": 38.9238075, "rental_uris": {"ios": "https://dc.lft.to/lastmile_qr_scan", "android": "https://dc.lft.to/lastmile_qr_scan"}, "is_reserved": 0, "fusion_lon": 0.0, "fusion_lat": 0.0, "lon": -77.02687966666667, "name": "048ac9a199634ae1a28fdbe21dd9bd94"}, {"bike_id": "473d64786e49e4061f2862c52dabb629", "type": "electric_scooter", "is_disabled": 0, "lat": 38.89578183333333, "rental_uris": {"ios": "https://dc.lft.to/lastmile_qr_scan", "android": "https://dc.lft.to/lastmile_qr_scan"}, "is_reserved": 0, "fusion_lon": 0.0, "fusion_lat": 0.0, "lon": -77.022019, "name": "473d64786e49e4061f2862c52dabb629"}, {"bike_id": "3b8c8f28c2a12d958febf50d5c0e0f5f", "type": "electric_scooter", "is_disabled": 0, "lat": 38.920519, "rental_uris": {"ios": "https://dc.lft.to/lastmile_qr_scan", "android": "https://dc.lft.to/lastmile_qr_scan"}, "is_reserved": 0, "fusion_lon": 0.0, "fusion_lat": 0.0, "lon": -77.0419625, "name": "3b8c8f28c2a12d958febf50d5c0e0f5f"}, {"bike_id": "df55786ff19b891ac94125a280954d27", "type": "electric_bike", "is_disabled": 0, "lat": 38.99326716666667, "rental_uris": {"ios": "https://dc.lft.to/lastmile_qr_scan", "android": "https://dc.lft.to/lastmile_qr_scan"}, "is_reserved": 0, "fusion_lon": 0.0, "fusion_lat": 0.0, "lon": -76.94615333333333, "name": "df55786ff19b891ac94125a280954d27"}, {"bike_id": "3ddc3a7926e266c3a1cf43c72e1779dc", "type": "electric_scooter", "is_disabled": 0, "lat": 38.913924, "rental_uris": {"ios": "https://dc.lft.to/lastmile_qr_scan", "android": "https://dc.lft.to/lastmile_qr_scan"}, "is_reserved": 0, "fusion_lon": 0.0, "fusion_lat": 0.0, "lon": -76.9819285, "name": "3ddc3a7926e266c3a1cf43c72e1779dc"}, {"bike_id": "ea1c62be7ff0d0c14ba3e5fc62e26bdb", "type": "electric_scooter", "is_disabled": 0, "lat": 38.9004625, "rental_uris": {"ios": "https://dc.lft.to/lastmile_qr_scan", "android": "https://dc.lft.to/lastmile_qr_scan"}, "is_reserved": 0, "fusion_lon": 0.0, "fusion_lat": 0.0, "lon": -77.03414516666666, "name": "ea1c62be7ff0d0c14ba3e5fc62e26bdb"}, {"bike_id": "6331a374eaf65f3d7f90e48d9867cb33", "type": "electric_scooter", "is_disabled": 0, "lat": 38.883612166666666, "rental_uris": {"ios": "https://dc.lft.to/lastmile_qr_scan", "android": "https://dc.lft.to/lastmile_qr_scan"}, "is_reserved": 0, "fusion_lon": 0.0, "fusion_lat": 0.0, "lon": -76.99485066666666, "name": "6331a374eaf65f3d7f90e48d9867cb33"}, {"bike_id": "f84fd09db1f282e5e55d388e59b3eca0", "type": "electric_bike", "is_disabled": 0, "lat": 38.85495866666667, "rental_uris": {"ios": "https://dc.lft.to/lastmile_qr_scan", "android": "https://dc.lft.to/lastmile_qr_scan"}, "is_reserved": 0, "fusion_lon": 0.0, "fusion_lat": 0.0, "lon": -77.119958, "name": "f84fd09db1f282e5e55d388e59b3eca0"}, {"bike_id": "f001406f25d81ada392c64590a81d22a", "type": "electric_scooter", "is_disabled": 0, "lat": 38.932139166666666, "rental_uris": {"ios": "https://dc.lft.to/lastmile_qr_scan", "android": "https://dc.lft.to/lastmile_qr_scan"}, "is_reserved": 0, "fusion_lon": 0.0, "fusion_lat": 0.0, "lon": -77.0440925, "name": "f001406f25d81ada392c64590a81d22a"}, {"bike_id": "c68488e5714e554b8a25df3d146eba4b", "type": "electric_bike", "is_disabled": 0, "lat": 38.873506666666664, "rental_uris": {"ios": "https://dc.lft.to/lastmile_qr_scan", "android": "https://dc.lft.to/lastmile_qr_scan"}, "is_reserved": 0, "fusion_lon": 0.0, "fusion_lat": 0.0, "lon": -77.10649683333334, "name": "c68488e5714e554b8a25df3d146eba4b"}, {"bike_id": "861a65c8a9c5171b16e1bd868eace22c", "type": "electric_scooter", "is_disabled": 0, "lat": 38.915798333333335, "rental_uris": {"ios": "https://dc.lft.to/lastmile_qr_scan", "android": "https://dc.lft.to/lastmile_qr_scan"}, "is_reserved": 0, "fusion_lon": 0.0, "fusion_lat": 0.0, "lon": -77.067709, "name": "861a65c8a9c5171b16e1bd868eace22c"}, {"bike_id": "5853a020bc9dad3985fef67cead2ce0b", "type": "electric_scooter", "is_disabled": 0, "lat": 38.908832833333335, "rental_uris": {"ios": "https://dc.lft.to/lastmile_qr_scan", "android": "https://dc.lft.to/lastmile_qr_scan"}, "is_reserved": 0, "fusion_lon": 0.0, "fusion_lat": 0.0, "lon": -76.99850266666667, "name": "5853a020bc9dad3985fef67cead2ce0b"}, {"bike_id": "b482e363dcc218ea47fd4d69760d2064", "type": "electric_scooter", "is_disabled": 0, "lat": 38.8996185, "rental_uris": {"ios": "https://dc.lft.to/lastmile_qr_scan", "android": "https://dc.lft.to/lastmile_qr_scan"}, "is_reserved": 0, "fusion_lon": 0.0, "fusion_lat": 0.0, "lon": -77.0262975, "name": "b482e363dcc218ea47fd4d69760d2064"}, {"bike_id": "11f97a074b30dbffe66f1bff7a46ae02", "type": "electric_scooter", "is_disabled": 0, "lat": 38.90558816666667, "rental_uris": {"ios": "https://dc.lft.to/lastmile_qr_scan", "android": "https://dc.lft.to/lastmile_qr_scan"}, "is_reserved": 0, "fusion_lon": 0.0, "fusion_lat": 0.0, "lon": -77.02837283333334, "name": "11f97a074b30dbffe66f1bff7a46ae02"}, {"bike_id": "fcd2702389874ba2fc05d0d07010bb4a", "type": "electric_scooter", "is_disabled": 0, "lat": 38.947446, "rental_uris": {"ios": "https://dc.lft.to/lastmile_qr_scan", "android": "https://dc.lft.to/lastmile_qr_scan"}, "is_reserved": 0, "fusion_lon": 0.0, "fusion_lat": 0.0, "lon": -77.01934983333334, "name": "fcd2702389874ba2fc05d0d07010bb4a"}, {"bike_id": "ab628fb422ee8bd73da995a52bfba9e9", "type": "electric_scooter", "is_disabled": 0, "lat": 38.908246166666665, "rental_uris": {"ios": "https://dc.lft.to/lastmile_qr_scan", "android": "https://dc.lft.to/lastmile_qr_scan"}, "is_reserved": 0, "fusion_lon": 0.0, "fusion_lat": 0.0, "lon": -77.03855383333334, "name": "ab628fb422ee8bd73da995a52bfba9e9"}, {"bike_id": "fa3bac6c7028bfbc7369729685e4c9fd", "type": "electric_scooter", "is_disabled": 0, "lat": 38.910581, "rental_uris": {"ios": "https://dc.lft.to/lastmile_qr_scan", "android": "https://dc.lft.to/lastmile_qr_scan"}, "is_reserved": 0, "fusion_lon": 0.0, "fusion_lat": 0.0, "lon": -77.0309345, "name": "fa3bac6c7028bfbc7369729685e4c9fd"}, {"bike_id": "c794025cf76f3b12c9d8f695fbcb389f", "type": "electric_scooter", "is_disabled": 0, "lat": 38.91702266666667, "rental_uris": {"ios": "https://dc.lft.to/lastmile_qr_scan", "android": "https://dc.lft.to/lastmile_qr_scan"}, "is_reserved": 0, "fusion_lon": 0.0, "fusion_lat": 0.0, "lon": -77.00796766666667, "name": "c794025cf76f3b12c9d8f695fbcb389f"}, {"bike_id": "dacaff5c42c2037fa46c4df5d6d43fba", "type": "electric_scooter", "is_disabled": 0, "lat": 38.90099816666667, "rental_uris": {"ios": "https://dc.lft.to/lastmile_qr_scan", "android": "https://dc.lft.to/lastmile_qr_scan"}, "is_reserved": 0, "fusion_lon": 0.0, "fusion_lat": 0.0, "lon": -77.01997916666667, "name": "dacaff5c42c2037fa46c4df5d6d43fba"}, {"bike_id": "e2c83ba9950ab205b927593891567c5d", "type": "electric_scooter", "is_disabled": 0, "lat": 38.90733066666667, "rental_uris": {"ios": "https://dc.lft.to/lastmile_qr_scan", "android": "https://dc.lft.to/lastmile_qr_scan"}, "is_reserved": 0, "fusion_lon": 0.0, "fusion_lat": 0.0, "lon": -77.02395783333333, "name": "e2c83ba9950ab205b927593891567c5d"}, {"bike_id": "277a303124702c789ee2e275819a4a99", "type": "electric_scooter", "is_disabled": 0, "lat": 38.90226716666667, "rental_uris": {"ios": "https://dc.lft.to/lastmile_qr_scan", "android": "https://dc.lft.to/lastmile_qr_scan"}, "is_reserved": 0, "fusion_lon": 0.0, "fusion_lat": 0.0, "lon": -77.04811816666667, "name": "277a303124702c789ee2e275819a4a99"}, {"bike_id": "7d816019cb55cd8493bbf9153e2c1f2d", "type": "electric_scooter", "is_disabled": 0, "lat": 38.923386, "rental_uris": {"ios": "https://dc.lft.to/lastmile_qr_scan", "android": "https://dc.lft.to/lastmile_qr_scan"}, "is_reserved": 0, "fusion_lon": 0.0, "fusion_lat": 0.0, "lon": -77.050753, "name": "7d816019cb55cd8493bbf9153e2c1f2d"}, {"bike_id": "a397be03dc28f73128a613f4a0186ab2", "type": "electric_scooter", "is_disabled": 0, "lat": 38.919149166666664, "rental_uris": {"ios": "https://dc.lft.to/lastmile_qr_scan", "android": "https://dc.lft.to/lastmile_qr_scan"}, "is_reserved": 0, "fusion_lon": 0.0, "fusion_lat": 0.0, "lon": -77.03214416666667, "name": "a397be03dc28f73128a613f4a0186ab2"}, {"bike_id": "1249769298349fbf25d74949ce5d666c", "type": "electric_scooter", "is_disabled": 0, "lat": 38.95726583333333, "rental_uris": {"ios": "https://dc.lft.to/lastmile_qr_scan", "android": "https://dc.lft.to/lastmile_qr_scan"}, "is_reserved": 0, "fusion_lon": 0.0, "fusion_lat": 0.0, "lon": -77.0240065, "name": "1249769298349fbf25d74949ce5d666c"}, {"bike_id": "fb39ee363d117564e95de07badbfafb4", "type": "electric_scooter", "is_disabled": 0, "lat": 38.90720833333334, "rental_uris": {"ios": "https://dc.lft.to/lastmile_qr_scan", "android": "https://dc.lft.to/lastmile_qr_scan"}, "is_reserved": 0, "fusion_lon": 0.0, "fusion_lat": 0.0, "lon": -77.02889266666666, "name": "fb39ee363d117564e95de07badbfafb4"}, {"bike_id": "36e4543d1a1976cae8040ecb582f4d2a", "type": "electric_scooter", "is_disabled": 0, "lat": 38.882388666666664, "rental_uris": {"ios": "https://dc.lft.to/lastmile_qr_scan", "android": "https://dc.lft.to/lastmile_qr_scan"}, "is_reserved": 0, "fusion_lon": 0.0, "fusion_lat": 0.0, "lon": -76.9912495, "name": "36e4543d1a1976cae8040ecb582f4d2a"}, {"bike_id": "48d9b43784128c3c8ec1b4ff93b8e2d7", "type": "electric_scooter", "is_disabled": 0, "lat": 38.902637666666664, "rental_uris": {"ios": "https://dc.lft.to/lastmile_qr_scan", "android": "https://dc.lft.to/lastmile_qr_scan"}, "is_reserved": 0, "fusion_lon": 0.0, "fusion_lat": 0.0, "lon": -77.0398125, "name": "48d9b43784128c3c8ec1b4ff93b8e2d7"}, {"bike_id": "96b8fb127c646160eff4d374b9fa5336", "type": "electric_scooter", "is_disabled": 0, "lat": 38.91263266666667, "rental_uris": {"ios": "https://dc.lft.to/lastmile_qr_scan", "android": "https://dc.lft.to/lastmile_qr_scan"}, "is_reserved": 0, "fusion_lon": 0.0, "fusion_lat": 0.0, "lon": -77.07342383333334, "name": "96b8fb127c646160eff4d374b9fa5336"}, {"bike_id": "792eeed0450ed03caffd79e47ba8ba9f", "type": "electric_scooter", "is_disabled": 0, "lat": 38.91619416666666, "rental_uris": {"ios": "https://dc.lft.to/lastmile_qr_scan", "android": "https://dc.lft.to/lastmile_qr_scan"}, "is_reserved": 0, "fusion_lon": 0.0, "fusion_lat": 0.0, "lon": -77.0461035, "name": "792eeed0450ed03caffd79e47ba8ba9f"}, {"bike_id": "328ecbcca774a28fce3892b3738f348d", "type": "electric_scooter", "is_disabled": 0, "lat": 38.91708, "rental_uris": {"ios": "https://dc.lft.to/lastmile_qr_scan", "android": "https://dc.lft.to/lastmile_qr_scan"}, "is_reserved": 0, "fusion_lon": 0.0, "fusion_lat": 0.0, "lon": -77.0297175, "name": "328ecbcca774a28fce3892b3738f348d"}, {"bike_id": "bf39fd12e45b76857c18355b61a0628d", "type": "electric_bike", "is_disabled": 0, "lat": 38.87134066666667, "rental_uris": {"ios": "https://dc.lft.to/lastmile_qr_scan", "android": "https://dc.lft.to/lastmile_qr_scan"}, "is_reserved": 0, "fusion_lon": 0.0, "fusion_lat": 0.0, "lon": -77.1002425, "name": "bf39fd12e45b76857c18355b61a0628d"}, {"bike_id": "2ba7c5f1cc7a6169fffd403407e1746c", "type": "electric_scooter", "is_disabled": 0, "lat": 38.91273733333333, "rental_uris": {"ios": "https://dc.lft.to/lastmile_qr_scan", "android": "https://dc.lft.to/lastmile_qr_scan"}, "is_reserved": 0, "fusion_lon": 0.0, "fusion_lat": 0.0, "lon": -77.03199266666667, "name": "2ba7c5f1cc7a6169fffd403407e1746c"}, {"bike_id": "c068c38ce0f10eaff6b9c0df86d0e34d", "type": "electric_scooter", "is_disabled": 0, "lat": 38.897297, "rental_uris": {"ios": "https://dc.lft.to/lastmile_qr_scan", "android": "https://dc.lft.to/lastmile_qr_scan"}, "is_reserved": 0, "fusion_lon": 0.0, "fusion_lat": 0.0, "lon": -77.02493383333334, "name": "c068c38ce0f10eaff6b9c0df86d0e34d"}, {"bike_id": "e2c3dbf378a7047c3c52c39fb95ce8cd", "type": "electric_scooter", "is_disabled": 0, "lat": 38.912191166666666, "rental_uris": {"ios": "https://dc.lft.to/lastmile_qr_scan", "android": "https://dc.lft.to/lastmile_qr_scan"}, "is_reserved": 0, "fusion_lon": 0.0, "fusion_lat": 0.0, "lon": -77.04499033333333, "name": "e2c3dbf378a7047c3c52c39fb95ce8cd"}, {"bike_id": "9ab7bccde6cc82da06446628021c3153", "type": "electric_scooter", "is_disabled": 0, "lat": 38.93682666666667, "rental_uris": {"ios": "https://dc.lft.to/lastmile_qr_scan", "android": "https://dc.lft.to/lastmile_qr_scan"}, "is_reserved": 0, "fusion_lon": 0.0, "fusion_lat": 0.0, "lon": -77.03281366666667, "name": "9ab7bccde6cc82da06446628021c3153"}, {"bike_id": "fe0727a90fe94ddd99699603a1afa67b", "type": "electric_bike", "is_disabled": 0, "lat": 38.9264985, "rental_uris": {"ios": "https://dc.lft.to/lastmile_qr_scan", "android": "https://dc.lft.to/lastmile_qr_scan"}, "is_reserved": 0, "fusion_lon": 0.0, "fusion_lat": 0.0, "lon": -77.0241415, "name": "fe0727a90fe94ddd99699603a1afa67b"}, {"bike_id": "d676acc6b38f555720e40ab557e5a07b", "type": "electric_bike", "is_disabled": 0, "lat": 38.836086333333334, "rental_uris": {"ios": "https://dc.lft.to/lastmile_qr_scan", "android": "https://dc.lft.to/lastmile_qr_scan"}, "is_reserved": 0, "fusion_lon": 0.0, "fusion_lat": 0.0, "lon": -77.00382433333333, "name": "d676acc6b38f555720e40ab557e5a07b"}, {"bike_id": "16640c5154ee4c9b9378bc5119ca5495", "type": "electric_scooter", "is_disabled": 0, "lat": 38.89617116666667, "rental_uris": {"ios": "https://dc.lft.to/lastmile_qr_scan", "android": "https://dc.lft.to/lastmile_qr_scan"}, "is_reserved": 0, "fusion_lon": 0.0, "fusion_lat": 0.0, "lon": -77.0002515, "name": "16640c5154ee4c9b9378bc5119ca5495"}, {"bike_id": "ed00eb2b8d8f3cb71e1f325bde0ca4b8", "type": "electric_bike", "is_disabled": 0, "lat": 38.95500533333333, "rental_uris": {"ios": "https://dc.lft.to/lastmile_qr_scan", "android": "https://dc.lft.to/lastmile_qr_scan"}, "is_reserved": 0, "fusion_lon": 0.0, "fusion_lat": 0.0, "lon": -76.99354566666666, "name": "ed00eb2b8d8f3cb71e1f325bde0ca4b8"}, {"bike_id": "b107aa13f8db7865f8977c992649f450", "type": "electric_scooter", "is_disabled": 0, "lat": 38.87652666666666, "rental_uris": {"ios": "https://dc.lft.to/lastmile_qr_scan", "android": "https://dc.lft.to/lastmile_qr_scan"}, "is_reserved": 0, "fusion_lon": 0.0, "fusion_lat": 0.0, "lon": -76.96509316666666, "name": "b107aa13f8db7865f8977c992649f450"}, {"bike_id": "5bada7b94f281c506c326d40f6fbb227", "type": "electric_scooter", "is_disabled": 0, "lat": 38.91556966666667, "rental_uris": {"ios": "https://dc.lft.to/lastmile_qr_scan", "android": "https://dc.lft.to/lastmile_qr_scan"}, "is_reserved": 0, "fusion_lon": 0.0, "fusion_lat": 0.0, "lon": -77.02040816666667, "name": "5bada7b94f281c506c326d40f6fbb227"}, {"bike_id": "1a549bad6d08e1d2adc5227139fd94f8", "type": "electric_scooter", "is_disabled": 0, "lat": 38.90341633333333, "rental_uris": {"ios": "https://dc.lft.to/lastmile_qr_scan", "android": "https://dc.lft.to/lastmile_qr_scan"}, "is_reserved": 0, "fusion_lon": 0.0, "fusion_lat": 0.0, "lon": -76.98510516666667, "name": "1a549bad6d08e1d2adc5227139fd94f8"}, {"bike_id": "67389e36b5d2b6e8e8371554dc72d074", "type": "electric_scooter", "is_disabled": 0, "lat": 38.91979166666667, "rental_uris": {"ios": "https://dc.lft.to/lastmile_qr_scan", "android": "https://dc.lft.to/lastmile_qr_scan"}, "is_reserved": 0, "fusion_lon": 0.0, "fusion_lat": 0.0, "lon": -76.97310166666666, "name": "67389e36b5d2b6e8e8371554dc72d074"}, {"bike_id": "db610a46b06199b2a26d06272dc6c349", "type": "electric_scooter", "is_disabled": 0, "lat": 38.9192075, "rental_uris": {"ios": "https://dc.lft.to/lastmile_qr_scan", "android": "https://dc.lft.to/lastmile_qr_scan"}, "is_reserved": 0, "fusion_lon": 0.0, "fusion_lat": 0.0, "lon": -77.0294335, "name": "db610a46b06199b2a26d06272dc6c349"}, {"bike_id": "30a83369a871fc015192768c1837689c", "type": "electric_scooter", "is_disabled": 0, "lat": 38.959339166666666, "rental_uris": {"ios": "https://dc.lft.to/lastmile_qr_scan", "android": "https://dc.lft.to/lastmile_qr_scan"}, "is_reserved": 0, "fusion_lon": 0.0, "fusion_lat": 0.0, "lon": -77.031227, "name": "30a83369a871fc015192768c1837689c"}, {"bike_id": "f5d7892b83e2a63a3698944ec963d2d5", "type": "electric_scooter", "is_disabled": 0, "lat": 38.9013015, "rental_uris": {"ios": "https://dc.lft.to/lastmile_qr_scan", "android": "https://dc.lft.to/lastmile_qr_scan"}, "is_reserved": 0, "fusion_lon": 0.0, "fusion_lat": 0.0, "lon": -77.01783583333334, "name": "f5d7892b83e2a63a3698944ec963d2d5"}, {"bike_id": "e8f75bb50031f7563c59b294c5f202d3", "type": "electric_scooter", "is_disabled": 0, "lat": 38.9419825, "rental_uris": {"ios": "https://dc.lft.to/lastmile_qr_scan", "android": "https://dc.lft.to/lastmile_qr_scan"}, "is_reserved": 0, "fusion_lon": 0.0, "fusion_lat": 0.0, "lon": -77.02350633333333, "name": "e8f75bb50031f7563c59b294c5f202d3"}, {"bike_id": "a3f3d200f7fe0e3b19ebc13d6f6a88d4", "type": "electric_scooter", "is_disabled": 0, "lat": 38.95132233333333, "rental_uris": {"ios": "https://dc.lft.to/lastmile_qr_scan", "android": "https://dc.lft.to/lastmile_qr_scan"}, "is_reserved": 0, "fusion_lon": 0.0, "fusion_lat": 0.0, "lon": -77.02719816666666, "name": "a3f3d200f7fe0e3b19ebc13d6f6a88d4"}, {"bike_id": "042e6d1216e3923c4fa6d08cfbb91b71", "type": "electric_scooter", "is_disabled": 0, "lat": 38.958338166666664, "rental_uris": {"ios": "https://dc.lft.to/lastmile_qr_scan", "android": "https://dc.lft.to/lastmile_qr_scan"}, "is_reserved": 0, "fusion_lon": 0.0, "fusion_lat": 0.0, "lon": -77.01507566666666, "name": "042e6d1216e3923c4fa6d08cfbb91b71"}, {"bike_id": "83f237e545be00a0ce2a11eacd07b88f", "type": "electric_bike", "is_disabled": 0, "lat": 39.03693666666667, "rental_uris": {"ios": "https://dc.lft.to/lastmile_qr_scan", "android": "https://dc.lft.to/lastmile_qr_scan"}, "is_reserved": 0, "fusion_lon": 0.0, "fusion_lat": 0.0, "lon": -77.0286025, "name": "83f237e545be00a0ce2a11eacd07b88f"}, {"bike_id": "15c66b22da0ea87e9294e4f04d623f6e", "type": "electric_scooter", "is_disabled": 0, "lat": 38.892220333333334, "rental_uris": {"ios": "https://dc.lft.to/lastmile_qr_scan", "android": "https://dc.lft.to/lastmile_qr_scan"}, "is_reserved": 0, "fusion_lon": 0.0, "fusion_lat": 0.0, "lon": -77.04308233333333, "name": "15c66b22da0ea87e9294e4f04d623f6e"}, {"bike_id": "b950a166850682c6c24614beea3e828f", "type": "electric_scooter", "is_disabled": 0, "lat": 38.885899333333334, "rental_uris": {"ios": "https://dc.lft.to/lastmile_qr_scan", "android": "https://dc.lft.to/lastmile_qr_scan"}, "is_reserved": 0, "fusion_lon": 0.0, "fusion_lat": 0.0, "lon": -76.99627933333333, "name": "b950a166850682c6c24614beea3e828f"}, {"bike_id": "50dbc580448469f0482c751d984037fe", "type": "electric_scooter", "is_disabled": 0, "lat": 38.916824, "rental_uris": {"ios": "https://dc.lft.to/lastmile_qr_scan", "android": "https://dc.lft.to/lastmile_qr_scan"}, "is_reserved": 0, "fusion_lon": 0.0, "fusion_lat": 0.0, "lon": -77.02713666666666, "name": "50dbc580448469f0482c751d984037fe"}, {"bike_id": "f318c7e5e9ef8e8462c3f28da22edec6", "type": "electric_scooter", "is_disabled": 0, "lat": 38.90001133333333, "rental_uris": {"ios": "https://dc.lft.to/lastmile_qr_scan", "android": "https://dc.lft.to/lastmile_qr_scan"}, "is_reserved": 0, "fusion_lon": 0.0, "fusion_lat": 0.0, "lon": -77.0450065, "name": "f318c7e5e9ef8e8462c3f28da22edec6"}, {"bike_id": "88add1e89681500efd93e5bd244b465d", "type": "electric_bike", "is_disabled": 0, "lat": 38.804261, "rental_uris": {"ios": "https://dc.lft.to/lastmile_qr_scan", "android": "https://dc.lft.to/lastmile_qr_scan"}, "is_reserved": 0, "fusion_lon": 0.0, "fusion_lat": 0.0, "lon": -77.055747, "name": "88add1e89681500efd93e5bd244b465d"}, {"bike_id": "2b362c3b4131e01205f3214fa9d93495", "type": "electric_scooter", "is_disabled": 0, "lat": 38.863853166666665, "rental_uris": {"ios": "https://dc.lft.to/lastmile_qr_scan", "android": "https://dc.lft.to/lastmile_qr_scan"}, "is_reserved": 0, "fusion_lon": 0.0, "fusion_lat": 0.0, "lon": -76.9904195, "name": "2b362c3b4131e01205f3214fa9d93495"}, {"bike_id": "85fb81d012c5ce4959080d8d74d0d5ae", "type": "electric_scooter", "is_disabled": 0, "lat": 38.876138166666664, "rental_uris": {"ios": "https://dc.lft.to/lastmile_qr_scan", "android": "https://dc.lft.to/lastmile_qr_scan"}, "is_reserved": 0, "fusion_lon": 0.0, "fusion_lat": 0.0, "lon": -77.00623133333333, "name": "85fb81d012c5ce4959080d8d74d0d5ae"}, {"bike_id": "bedfd3238ae50c47a5afbe50aea12fd3", "type": "electric_scooter", "is_disabled": 0, "lat": 38.91117116666667, "rental_uris": {"ios": "https://dc.lft.to/lastmile_qr_scan", "android": "https://dc.lft.to/lastmile_qr_scan"}, "is_reserved": 0, "fusion_lon": 0.0, "fusion_lat": 0.0, "lon": -77.04177983333334, "name": "bedfd3238ae50c47a5afbe50aea12fd3"}, {"bike_id": "2a3811a9f00ca16baa7fd9174a5a99e6", "type": "electric_scooter", "is_disabled": 0, "lat": 38.886185, "rental_uris": {"ios": "https://dc.lft.to/lastmile_qr_scan", "android": "https://dc.lft.to/lastmile_qr_scan"}, "is_reserved": 0, "fusion_lon": 0.0, "fusion_lat": 0.0, "lon": -76.95577466666667, "name": "2a3811a9f00ca16baa7fd9174a5a99e6"}, {"bike_id": "9a77de79b366f1b2afbd08a736c804cc", "type": "electric_scooter", "is_disabled": 0, "lat": 38.929756833333336, "rental_uris": {"ios": "https://dc.lft.to/lastmile_qr_scan", "android": "https://dc.lft.to/lastmile_qr_scan"}, "is_reserved": 0, "fusion_lon": 0.0, "fusion_lat": 0.0, "lon": -77.02819833333334, "name": "9a77de79b366f1b2afbd08a736c804cc"}, {"bike_id": "98c4a9e3c7a010f34f677536c6f4a59c", "type": "electric_scooter", "is_disabled": 0, "lat": 38.91188016666667, "rental_uris": {"ios": "https://dc.lft.to/lastmile_qr_scan", "android": "https://dc.lft.to/lastmile_qr_scan"}, "is_reserved": 0, "fusion_lon": 0.0, "fusion_lat": 0.0, "lon": -77.03858866666667, "name": "98c4a9e3c7a010f34f677536c6f4a59c"}, {"bike_id": "e24326657483e0bc0fd17e9b1180c102", "type": "electric_scooter", "is_disabled": 0, "lat": 38.934269666666665, "rental_uris": {"ios": "https://dc.lft.to/lastmile_qr_scan", "android": "https://dc.lft.to/lastmile_qr_scan"}, "is_reserved": 0, "fusion_lon": 0.0, "fusion_lat": 0.0, "lon": -77.04001666666667, "name": "e24326657483e0bc0fd17e9b1180c102"}, {"bike_id": "cb37e47b6c595913407f1e6e85fc4aab", "type": "electric_scooter", "is_disabled": 0, "lat": 38.94182633333333, "rental_uris": {"ios": "https://dc.lft.to/lastmile_qr_scan", "android": "https://dc.lft.to/lastmile_qr_scan"}, "is_reserved": 0, "fusion_lon": 0.0, "fusion_lat": 0.0, "lon": -77.024882, "name": "cb37e47b6c595913407f1e6e85fc4aab"}, {"bike_id": "acc3149a505a96a09cfee0ba61881dc5", "type": "electric_bike", "is_disabled": 0, "lat": 38.808942333333334, "rental_uris": {"ios": "https://dc.lft.to/lastmile_qr_scan", "android": "https://dc.lft.to/lastmile_qr_scan"}, "is_reserved": 0, "fusion_lon": 0.0, "fusion_lat": 0.0, "lon": -77.086676, "name": "acc3149a505a96a09cfee0ba61881dc5"}, {"bike_id": "49d5c722dcdf95c3569bb6a393d2eb8f", "type": "electric_scooter", "is_disabled": 0, "lat": 38.922161, "rental_uris": {"ios": "https://dc.lft.to/lastmile_qr_scan", "android": "https://dc.lft.to/lastmile_qr_scan"}, "is_reserved": 0, "fusion_lon": 0.0, "fusion_lat": 0.0, "lon": -77.03460733333333, "name": "49d5c722dcdf95c3569bb6a393d2eb8f"}, {"bike_id": "bb11d1537b62b906b8534b352ffa23f2", "type": "electric_scooter", "is_disabled": 0, "lat": 38.90319916666667, "rental_uris": {"ios": "https://dc.lft.to/lastmile_qr_scan", "android": "https://dc.lft.to/lastmile_qr_scan"}, "is_reserved": 0, "fusion_lon": 0.0, "fusion_lat": 0.0, "lon": -76.975515, "name": "bb11d1537b62b906b8534b352ffa23f2"}, {"bike_id": "f34b04c0479cfa2280d6c4bd4bc37f3d", "type": "electric_scooter", "is_disabled": 0, "lat": 38.927991666666664, "rental_uris": {"ios": "https://dc.lft.to/lastmile_qr_scan", "android": "https://dc.lft.to/lastmile_qr_scan"}, "is_reserved": 0, "fusion_lon": 0.0, "fusion_lat": 0.0, "lon": -77.0141945, "name": "f34b04c0479cfa2280d6c4bd4bc37f3d"}, {"bike_id": "2cfa1c83583275192e4cc82d29be3c5e", "type": "electric_scooter", "is_disabled": 0, "lat": 38.90259066666667, "rental_uris": {"ios": "https://dc.lft.to/lastmile_qr_scan", "android": "https://dc.lft.to/lastmile_qr_scan"}, "is_reserved": 0, "fusion_lon": 0.0, "fusion_lat": 0.0, "lon": -77.01855616666667, "name": "2cfa1c83583275192e4cc82d29be3c5e"}, {"bike_id": "4b7fa30a6f2611df40837f269a219cd7", "type": "electric_scooter", "is_disabled": 0, "lat": 38.89849316666667, "rental_uris": {"ios": "https://dc.lft.to/lastmile_qr_scan", "android": "https://dc.lft.to/lastmile_qr_scan"}, "is_reserved": 0, "fusion_lon": 0.0, "fusion_lat": 0.0, "lon": -76.98172366666667, "name": "4b7fa30a6f2611df40837f269a219cd7"}, {"bike_id": "dcecd3d79feed4adcdcd7058a8f6ce99", "type": "electric_scooter", "is_disabled": 0, "lat": 38.93474966666667, "rental_uris": {"ios": "https://dc.lft.to/lastmile_qr_scan", "android": "https://dc.lft.to/lastmile_qr_scan"}, "is_reserved": 0, "fusion_lon": 0.0, "fusion_lat": 0.0, "lon": -77.07275483333333, "name": "dcecd3d79feed4adcdcd7058a8f6ce99"}, {"bike_id": "9439f0db089660424fe993dd02e413b1", "type": "electric_scooter", "is_disabled": 0, "lat": 38.8873985, "rental_uris": {"ios": "https://dc.lft.to/lastmile_qr_scan", "android": "https://dc.lft.to/lastmile_qr_scan"}, "is_reserved": 0, "fusion_lon": 0.0, "fusion_lat": 0.0, "lon": -77.0272715, "name": "9439f0db089660424fe993dd02e413b1"}, {"bike_id": "84f0ee0afab82ed0182ec1a1da3374c8", "type": "electric_scooter", "is_disabled": 0, "lat": 38.896094166666664, "rental_uris": {"ios": "https://dc.lft.to/lastmile_qr_scan", "android": "https://dc.lft.to/lastmile_qr_scan"}, "is_reserved": 0, "fusion_lon": 0.0, "fusion_lat": 0.0, "lon": -77.03128083333333, "name": "84f0ee0afab82ed0182ec1a1da3374c8"}, {"bike_id": "d1ff2db84b0c0cc2e9e92c6a25e8df21", "type": "electric_scooter", "is_disabled": 0, "lat": 38.89481416666667, "rental_uris": {"ios": "https://dc.lft.to/lastmile_qr_scan", "android": "https://dc.lft.to/lastmile_qr_scan"}, "is_reserved": 0, "fusion_lon": 0.0, "fusion_lat": 0.0, "lon": -77.02798116666666, "name": "d1ff2db84b0c0cc2e9e92c6a25e8df21"}, {"bike_id": "3528dd2190b15d53ae5bdbe68ffcc65b", "type": "electric_scooter", "is_disabled": 0, "lat": 38.88619683333334, "rental_uris": {"ios": "https://dc.lft.to/lastmile_qr_scan", "android": "https://dc.lft.to/lastmile_qr_scan"}, "is_reserved": 0, "fusion_lon": 0.0, "fusion_lat": 0.0, "lon": -76.9960765, "name": "3528dd2190b15d53ae5bdbe68ffcc65b"}, {"bike_id": "ef1f8d82d5874a571c3fc940b77c0f37", "type": "electric_bike", "is_disabled": 0, "lat": 38.98788, "rental_uris": {"ios": "https://dc.lft.to/lastmile_qr_scan", "android": "https://dc.lft.to/lastmile_qr_scan"}, "is_reserved": 0, "fusion_lon": 0.0, "fusion_lat": 0.0, "lon": -77.02603083333334, "name": "ef1f8d82d5874a571c3fc940b77c0f37"}, {"bike_id": "f5370768cf1e7a355e1e6e2042b44e82", "type": "electric_scooter", "is_disabled": 0, "lat": 38.91517483333333, "rental_uris": {"ios": "https://dc.lft.to/lastmile_qr_scan", "android": "https://dc.lft.to/lastmile_qr_scan"}, "is_reserved": 0, "fusion_lon": 0.0, "fusion_lat": 0.0, "lon": -77.03207066666667, "name": "f5370768cf1e7a355e1e6e2042b44e82"}, {"bike_id": "18971c5d70ff6d0e5de3a1ce90925cdc", "type": "electric_bike", "is_disabled": 0, "lat": 38.903785, "rental_uris": {"ios": "https://dc.lft.to/lastmile_qr_scan", "android": "https://dc.lft.to/lastmile_qr_scan"}, "is_reserved": 0, "fusion_lon": 0.0, "fusion_lat": 0.0, "lon": -77.05348316666667, "name": "18971c5d70ff6d0e5de3a1ce90925cdc"}, {"bike_id": "27c9583f9c9696f3abd6eb8b498970e6", "type": "electric_scooter", "is_disabled": 0, "lat": 38.83206966666667, "rental_uris": {"ios": "https://dc.lft.to/lastmile_qr_scan", "android": "https://dc.lft.to/lastmile_qr_scan"}, "is_reserved": 0, "fusion_lon": 0.0, "fusion_lat": 0.0, "lon": -77.0079335, "name": "27c9583f9c9696f3abd6eb8b498970e6"}, {"bike_id": "0699aaaf915a8c4dce6d35f254fe7019", "type": "electric_scooter", "is_disabled": 0, "lat": 38.93633766666667, "rental_uris": {"ios": "https://dc.lft.to/lastmile_qr_scan", "android": "https://dc.lft.to/lastmile_qr_scan"}, "is_reserved": 0, "fusion_lon": 0.0, "fusion_lat": 0.0, "lon": -77.03269833333333, "name": "0699aaaf915a8c4dce6d35f254fe7019"}, {"bike_id": "399f3b7372da60cc25f2dae0a031609a", "type": "electric_scooter", "is_disabled": 0, "lat": 38.8762805, "rental_uris": {"ios": "https://dc.lft.to/lastmile_qr_scan", "android": "https://dc.lft.to/lastmile_qr_scan"}, "is_reserved": 0, "fusion_lon": 0.0, "fusion_lat": 0.0, "lon": -77.0045955, "name": "399f3b7372da60cc25f2dae0a031609a"}, {"bike_id": "1265edba83f5f13226841f8ad9933079", "type": "electric_scooter", "is_disabled": 0, "lat": 38.86055783333333, "rental_uris": {"ios": "https://dc.lft.to/lastmile_qr_scan", "android": "https://dc.lft.to/lastmile_qr_scan"}, "is_reserved": 0, "fusion_lon": 0.0, "fusion_lat": 0.0, "lon": -76.9842515, "name": "1265edba83f5f13226841f8ad9933079"}, {"bike_id": "25681fa533d869f906270d1b28b964ff", "type": "electric_scooter", "is_disabled": 0, "lat": 38.905291166666665, "rental_uris": {"ios": "https://dc.lft.to/lastmile_qr_scan", "android": "https://dc.lft.to/lastmile_qr_scan"}, "is_reserved": 0, "fusion_lon": 0.0, "fusion_lat": 0.0, "lon": -76.98109383333333, "name": "25681fa533d869f906270d1b28b964ff"}, {"bike_id": "f0f55a5aa19f31170e517d4d9f2a1806", "type": "electric_scooter", "is_disabled": 0, "lat": 38.90124183333333, "rental_uris": {"ios": "https://dc.lft.to/lastmile_qr_scan", "android": "https://dc.lft.to/lastmile_qr_scan"}, "is_reserved": 0, "fusion_lon": 0.0, "fusion_lat": 0.0, "lon": -77.018298, "name": "f0f55a5aa19f31170e517d4d9f2a1806"}, {"bike_id": "f3194cda9bd8dabf218958c325c92f24", "type": "electric_scooter", "is_disabled": 0, "lat": 38.887106333333335, "rental_uris": {"ios": "https://dc.lft.to/lastmile_qr_scan", "android": "https://dc.lft.to/lastmile_qr_scan"}, "is_reserved": 0, "fusion_lon": 0.0, "fusion_lat": 0.0, "lon": -77.0221, "name": "f3194cda9bd8dabf218958c325c92f24"}, {"bike_id": "c34b81954906d263373d20b002c3cc26", "type": "electric_scooter", "is_disabled": 0, "lat": 38.904363000000004, "rental_uris": {"ios": "https://dc.lft.to/lastmile_qr_scan", "android": "https://dc.lft.to/lastmile_qr_scan"}, "is_reserved": 0, "fusion_lon": 0.0, "fusion_lat": 0.0, "lon": -77.0345665, "name": "c34b81954906d263373d20b002c3cc26"}, {"bike_id": "d417efe0952eeaa6f6f8fe2ef7cf3dc8", "type": "electric_scooter", "is_disabled": 0, "lat": 38.862404833333336, "rental_uris": {"ios": "https://dc.lft.to/lastmile_qr_scan", "android": "https://dc.lft.to/lastmile_qr_scan"}, "is_reserved": 0, "fusion_lon": 0.0, "fusion_lat": 0.0, "lon": -76.9949285, "name": "d417efe0952eeaa6f6f8fe2ef7cf3dc8"}, {"bike_id": "9c885d9fd39e7d06a663678068b00e7a", "type": "electric_scooter", "is_disabled": 0, "lat": 38.89258533333334, "rental_uris": {"ios": "https://dc.lft.to/lastmile_qr_scan", "android": "https://dc.lft.to/lastmile_qr_scan"}, "is_reserved": 0, "fusion_lon": 0.0, "fusion_lat": 0.0, "lon": -77.00349866666667, "name": "9c885d9fd39e7d06a663678068b00e7a"}, {"bike_id": "688cf82d9adaad206bb96f5fa22ca2a7", "type": "electric_scooter", "is_disabled": 0, "lat": 38.894234166666664, "rental_uris": {"ios": "https://dc.lft.to/lastmile_qr_scan", "android": "https://dc.lft.to/lastmile_qr_scan"}, "is_reserved": 0, "fusion_lon": 0.0, "fusion_lat": 0.0, "lon": -77.00049, "name": "688cf82d9adaad206bb96f5fa22ca2a7"}, {"bike_id": "6bc66a8492115618025ab17cd2e31fe9", "type": "electric_scooter", "is_disabled": 0, "lat": 38.9244825, "rental_uris": {"ios": "https://dc.lft.to/lastmile_qr_scan", "android": "https://dc.lft.to/lastmile_qr_scan"}, "is_reserved": 0, "fusion_lon": 0.0, "fusion_lat": 0.0, "lon": -77.0411245, "name": "6bc66a8492115618025ab17cd2e31fe9"}, {"bike_id": "b00f613ccf7d30981e14a8a0909e5429", "type": "electric_scooter", "is_disabled": 0, "lat": 38.917999333333334, "rental_uris": {"ios": "https://dc.lft.to/lastmile_qr_scan", "android": "https://dc.lft.to/lastmile_qr_scan"}, "is_reserved": 0, "fusion_lon": 0.0, "fusion_lat": 0.0, "lon": -77.045673, "name": "b00f613ccf7d30981e14a8a0909e5429"}, {"bike_id": "dd7f33f7584d73f1222b8a738fb05066", "type": "electric_scooter", "is_disabled": 0, "lat": 38.89760366666667, "rental_uris": {"ios": "https://dc.lft.to/lastmile_qr_scan", "android": "https://dc.lft.to/lastmile_qr_scan"}, "is_reserved": 0, "fusion_lon": 0.0, "fusion_lat": 0.0, "lon": -76.92591783333333, "name": "dd7f33f7584d73f1222b8a738fb05066"}, {"bike_id": "94954afaca954f1e7422fe558c7365bf", "type": "electric_scooter", "is_disabled": 0, "lat": 38.88702816666667, "rental_uris": {"ios": "https://dc.lft.to/lastmile_qr_scan", "android": "https://dc.lft.to/lastmile_qr_scan"}, "is_reserved": 0, "fusion_lon": 0.0, "fusion_lat": 0.0, "lon": -77.00349316666667, "name": "94954afaca954f1e7422fe558c7365bf"}, {"bike_id": "44644c0eacdd66c2ed65c173347fac3a", "type": "electric_scooter", "is_disabled": 0, "lat": 38.908084, "rental_uris": {"ios": "https://dc.lft.to/lastmile_qr_scan", "android": "https://dc.lft.to/lastmile_qr_scan"}, "is_reserved": 0, "fusion_lon": 0.0, "fusion_lat": 0.0, "lon": -77.039459, "name": "44644c0eacdd66c2ed65c173347fac3a"}, {"bike_id": "60dae384f0dd22494b848d60c2a76a4c", "type": "electric_scooter", "is_disabled": 0, "lat": 38.91403583333334, "rental_uris": {"ios": "https://dc.lft.to/lastmile_qr_scan", "android": "https://dc.lft.to/lastmile_qr_scan"}, "is_reserved": 0, "fusion_lon": 0.0, "fusion_lat": 0.0, "lon": -77.02660883333333, "name": "60dae384f0dd22494b848d60c2a76a4c"}, {"bike_id": "dc2066f51270aed7c51e4dcc02546cc5", "type": "electric_scooter", "is_disabled": 0, "lat": 38.911510666666665, "rental_uris": {"ios": "https://dc.lft.to/lastmile_qr_scan", "android": "https://dc.lft.to/lastmile_qr_scan"}, "is_reserved": 0, "fusion_lon": 0.0, "fusion_lat": 0.0, "lon": -77.02286683333334, "name": "dc2066f51270aed7c51e4dcc02546cc5"}, {"bike_id": "7a78f8aa23567b44bef81f994fb01d49", "type": "electric_scooter", "is_disabled": 0, "lat": 38.90062483333333, "rental_uris": {"ios": "https://dc.lft.to/lastmile_qr_scan", "android": "https://dc.lft.to/lastmile_qr_scan"}, "is_reserved": 0, "fusion_lon": 0.0, "fusion_lat": 0.0, "lon": -76.927468, "name": "7a78f8aa23567b44bef81f994fb01d49"}, {"bike_id": "31d93b49c5621776472fb361cd660e59", "type": "electric_bike", "is_disabled": 0, "lat": 38.96620083333333, "rental_uris": {"ios": "https://dc.lft.to/lastmile_qr_scan", "android": "https://dc.lft.to/lastmile_qr_scan"}, "is_reserved": 0, "fusion_lon": 0.0, "fusion_lat": 0.0, "lon": -77.03433866666667, "name": "31d93b49c5621776472fb361cd660e59"}, {"bike_id": "d85a193e81b01bdbcfcc308a046b4584", "type": "electric_scooter", "is_disabled": 0, "lat": 38.913652166666665, "rental_uris": {"ios": "https://dc.lft.to/lastmile_qr_scan", "android": "https://dc.lft.to/lastmile_qr_scan"}, "is_reserved": 0, "fusion_lon": 0.0, "fusion_lat": 0.0, "lon": -77.066194, "name": "d85a193e81b01bdbcfcc308a046b4584"}, {"bike_id": "7c0879af543ee1512efa60fe15640eed", "type": "electric_scooter", "is_disabled": 0, "lat": 38.91765733333333, "rental_uris": {"ios": "https://dc.lft.to/lastmile_qr_scan", "android": "https://dc.lft.to/lastmile_qr_scan"}, "is_reserved": 0, "fusion_lon": 0.0, "fusion_lat": 0.0, "lon": -77.0405905, "name": "7c0879af543ee1512efa60fe15640eed"}, {"bike_id": "22688aae9ae8b86cf00d83d926d8d619", "type": "electric_scooter", "is_disabled": 0, "lat": 38.92760616666666, "rental_uris": {"ios": "https://dc.lft.to/lastmile_qr_scan", "android": "https://dc.lft.to/lastmile_qr_scan"}, "is_reserved": 0, "fusion_lon": 0.0, "fusion_lat": 0.0, "lon": -77.03244766666667, "name": "22688aae9ae8b86cf00d83d926d8d619"}, {"bike_id": "27386700da4260040e6222bf02fdaa59", "type": "electric_scooter", "is_disabled": 0, "lat": 38.913849666666664, "rental_uris": {"ios": "https://dc.lft.to/lastmile_qr_scan", "android": "https://dc.lft.to/lastmile_qr_scan"}, "is_reserved": 0, "fusion_lon": 0.0, "fusion_lat": 0.0, "lon": -77.03210433333334, "name": "27386700da4260040e6222bf02fdaa59"}, {"bike_id": "ae0fa945d5eff31ec64bbade772dba39", "type": "electric_scooter", "is_disabled": 0, "lat": 38.876349, "rental_uris": {"ios": "https://dc.lft.to/lastmile_qr_scan", "android": "https://dc.lft.to/lastmile_qr_scan"}, "is_reserved": 0, "fusion_lon": 0.0, "fusion_lat": 0.0, "lon": -77.00452766666666, "name": "ae0fa945d5eff31ec64bbade772dba39"}, {"bike_id": "d58df50935d19d6de407393d56bcb28c", "type": "electric_scooter", "is_disabled": 0, "lat": 38.91362816666667, "rental_uris": {"ios": "https://dc.lft.to/lastmile_qr_scan", "android": "https://dc.lft.to/lastmile_qr_scan"}, "is_reserved": 0, "fusion_lon": 0.0, "fusion_lat": 0.0, "lon": -77.070333, "name": "d58df50935d19d6de407393d56bcb28c"}, {"bike_id": "1a449cc3b6f01d5a60b1574356ba65c2", "type": "electric_scooter", "is_disabled": 0, "lat": 38.909499833333335, "rental_uris": {"ios": "https://dc.lft.to/lastmile_qr_scan", "android": "https://dc.lft.to/lastmile_qr_scan"}, "is_reserved": 0, "fusion_lon": 0.0, "fusion_lat": 0.0, "lon": -77.0344675, "name": "1a449cc3b6f01d5a60b1574356ba65c2"}, {"bike_id": "6cec38ad660defe5c1a2ddb9c3de215b", "type": "electric_scooter", "is_disabled": 0, "lat": 38.94183683333333, "rental_uris": {"ios": "https://dc.lft.to/lastmile_qr_scan", "android": "https://dc.lft.to/lastmile_qr_scan"}, "is_reserved": 0, "fusion_lon": 0.0, "fusion_lat": 0.0, "lon": -77.0248925, "name": "6cec38ad660defe5c1a2ddb9c3de215b"}, {"bike_id": "df3a777d2d26c948d164a9b98cfb7344", "type": "electric_bike", "is_disabled": 0, "lat": 38.93225233333333, "rental_uris": {"ios": "https://dc.lft.to/lastmile_qr_scan", "android": "https://dc.lft.to/lastmile_qr_scan"}, "is_reserved": 0, "fusion_lon": 0.0, "fusion_lat": 0.0, "lon": -77.18122716666667, "name": "df3a777d2d26c948d164a9b98cfb7344"}, {"bike_id": "98f242d20d897e681f57334f21148131", "type": "electric_scooter", "is_disabled": 0, "lat": 38.913298, "rental_uris": {"ios": "https://dc.lft.to/lastmile_qr_scan", "android": "https://dc.lft.to/lastmile_qr_scan"}, "is_reserved": 0, "fusion_lon": 0.0, "fusion_lat": 0.0, "lon": -77.0327145, "name": "98f242d20d897e681f57334f21148131"}, {"bike_id": "765f19c290f541d92ce8991f73f9196e", "type": "electric_scooter", "is_disabled": 0, "lat": 38.866178166666664, "rental_uris": {"ios": "https://dc.lft.to/lastmile_qr_scan", "android": "https://dc.lft.to/lastmile_qr_scan"}, "is_reserved": 0, "fusion_lon": 0.0, "fusion_lat": 0.0, "lon": -77.087885, "name": "765f19c290f541d92ce8991f73f9196e"}, {"bike_id": "c086b72a43f6a6185605be50441acf8a", "type": "electric_scooter", "is_disabled": 0, "lat": 38.934148666666665, "rental_uris": {"ios": "https://dc.lft.to/lastmile_qr_scan", "android": "https://dc.lft.to/lastmile_qr_scan"}, "is_reserved": 0, "fusion_lon": 0.0, "fusion_lat": 0.0, "lon": -77.04146233333333, "name": "c086b72a43f6a6185605be50441acf8a"}, {"bike_id": "d290fc8ee4aabd636621c564f4537755", "type": "electric_scooter", "is_disabled": 0, "lat": 38.922455166666666, "rental_uris": {"ios": "https://dc.lft.to/lastmile_qr_scan", "android": "https://dc.lft.to/lastmile_qr_scan"}, "is_reserved": 0, "fusion_lon": 0.0, "fusion_lat": 0.0, "lon": -77.0421635, "name": "d290fc8ee4aabd636621c564f4537755"}, {"bike_id": "791a1198bc5541d559a8e91d83907807", "type": "electric_bike", "is_disabled": 0, "lat": 38.86937366666667, "rental_uris": {"ios": "https://dc.lft.to/lastmile_qr_scan", "android": "https://dc.lft.to/lastmile_qr_scan"}, "is_reserved": 0, "fusion_lon": 0.0, "fusion_lat": 0.0, "lon": -77.09469, "name": "791a1198bc5541d559a8e91d83907807"}, {"bike_id": "579cfe1d806e41baed17dc4d60abeca5", "type": "electric_bike", "is_disabled": 0, "lat": 38.95918733333333, "rental_uris": {"ios": "https://dc.lft.to/lastmile_qr_scan", "android": "https://dc.lft.to/lastmile_qr_scan"}, "is_reserved": 0, "fusion_lon": 0.0, "fusion_lat": 0.0, "lon": -77.0846945, "name": "579cfe1d806e41baed17dc4d60abeca5"}, {"bike_id": "50017af0d7c275916f352c61358deecf", "type": "electric_scooter", "is_disabled": 0, "lat": 38.8885025, "rental_uris": {"ios": "https://dc.lft.to/lastmile_qr_scan", "android": "https://dc.lft.to/lastmile_qr_scan"}, "is_reserved": 0, "fusion_lon": 0.0, "fusion_lat": 0.0, "lon": -76.92678883333333, "name": "50017af0d7c275916f352c61358deecf"}, {"bike_id": "3d6f65b80e0aba4da43ec06fb1c4a0f2", "type": "electric_scooter", "is_disabled": 0, "lat": 38.912577666666664, "rental_uris": {"ios": "https://dc.lft.to/lastmile_qr_scan", "android": "https://dc.lft.to/lastmile_qr_scan"}, "is_reserved": 0, "fusion_lon": 0.0, "fusion_lat": 0.0, "lon": -77.04476016666666, "name": "3d6f65b80e0aba4da43ec06fb1c4a0f2"}, {"bike_id": "9a27f573f9127e46728b74b19a4f32de", "type": "electric_scooter", "is_disabled": 0, "lat": 38.908194, "rental_uris": {"ios": "https://dc.lft.to/lastmile_qr_scan", "android": "https://dc.lft.to/lastmile_qr_scan"}, "is_reserved": 0, "fusion_lon": 0.0, "fusion_lat": 0.0, "lon": -77.03446666666666, "name": "9a27f573f9127e46728b74b19a4f32de"}, {"bike_id": "f0037b5f3d6ac2d8396d3585c33a27e0", "type": "electric_scooter", "is_disabled": 0, "lat": 38.91691383333333, "rental_uris": {"ios": "https://dc.lft.to/lastmile_qr_scan", "android": "https://dc.lft.to/lastmile_qr_scan"}, "is_reserved": 0, "fusion_lon": 0.0, "fusion_lat": 0.0, "lon": -77.033949, "name": "f0037b5f3d6ac2d8396d3585c33a27e0"}, {"bike_id": "358cfb5b1dec7945caa124d2b1be5c5e", "type": "electric_scooter", "is_disabled": 0, "lat": 38.88429166666667, "rental_uris": {"ios": "https://dc.lft.to/lastmile_qr_scan", "android": "https://dc.lft.to/lastmile_qr_scan"}, "is_reserved": 0, "fusion_lon": 0.0, "fusion_lat": 0.0, "lon": -76.95745333333333, "name": "358cfb5b1dec7945caa124d2b1be5c5e"}, {"bike_id": "9fb47695249e0c4d0b01082704c8ba3e", "type": "electric_scooter", "is_disabled": 0, "lat": 38.8874515, "rental_uris": {"ios": "https://dc.lft.to/lastmile_qr_scan", "android": "https://dc.lft.to/lastmile_qr_scan"}, "is_reserved": 0, "fusion_lon": 0.0, "fusion_lat": 0.0, "lon": -77.0284155, "name": "9fb47695249e0c4d0b01082704c8ba3e"}, {"bike_id": "f4c5059e21fde22d95c68e273c82d78f", "type": "electric_scooter", "is_disabled": 0, "lat": 38.930648, "rental_uris": {"ios": "https://dc.lft.to/lastmile_qr_scan", "android": "https://dc.lft.to/lastmile_qr_scan"}, "is_reserved": 0, "fusion_lon": 0.0, "fusion_lat": 0.0, "lon": -77.02978316666666, "name": "f4c5059e21fde22d95c68e273c82d78f"}, {"bike_id": "6e9f28b992ca8ec7c036259aa3ddbdb3", "type": "electric_scooter", "is_disabled": 0, "lat": 38.88618816666666, "rental_uris": {"ios": "https://dc.lft.to/lastmile_qr_scan", "android": "https://dc.lft.to/lastmile_qr_scan"}, "is_reserved": 0, "fusion_lon": 0.0, "fusion_lat": 0.0, "lon": -77.0191015, "name": "6e9f28b992ca8ec7c036259aa3ddbdb3"}, {"bike_id": "26bd72dd239788d872b70d8eeff72e4f", "type": "electric_scooter", "is_disabled": 0, "lat": 38.91856083333333, "rental_uris": {"ios": "https://dc.lft.to/lastmile_qr_scan", "android": "https://dc.lft.to/lastmile_qr_scan"}, "is_reserved": 0, "fusion_lon": 0.0, "fusion_lat": 0.0, "lon": -77.04104866666667, "name": "26bd72dd239788d872b70d8eeff72e4f"}, {"bike_id": "4e3a302646c43396cd640726664ec8ee", "type": "electric_scooter", "is_disabled": 0, "lat": 38.89306283333333, "rental_uris": {"ios": "https://dc.lft.to/lastmile_qr_scan", "android": "https://dc.lft.to/lastmile_qr_scan"}, "is_reserved": 0, "fusion_lon": 0.0, "fusion_lat": 0.0, "lon": -77.05007166666667, "name": "4e3a302646c43396cd640726664ec8ee"}, {"bike_id": "a08f81eced9bff55ea598be69d146ac4", "type": "electric_scooter", "is_disabled": 0, "lat": 38.870986333333335, "rental_uris": {"ios": "https://dc.lft.to/lastmile_qr_scan", "android": "https://dc.lft.to/lastmile_qr_scan"}, "is_reserved": 0, "fusion_lon": 0.0, "fusion_lat": 0.0, "lon": -77.00760283333334, "name": "a08f81eced9bff55ea598be69d146ac4"}, {"bike_id": "6c35d12e3dddec5c441d6d6680df4913", "type": "electric_scooter", "is_disabled": 0, "lat": 38.90739383333333, "rental_uris": {"ios": "https://dc.lft.to/lastmile_qr_scan", "android": "https://dc.lft.to/lastmile_qr_scan"}, "is_reserved": 0, "fusion_lon": 0.0, "fusion_lat": 0.0, "lon": -77.00931633333333, "name": "6c35d12e3dddec5c441d6d6680df4913"}, {"bike_id": "137eb404057a6b29d9a5a61db7c6e484", "type": "electric_scooter", "is_disabled": 0, "lat": 38.919736666666665, "rental_uris": {"ios": "https://dc.lft.to/lastmile_qr_scan", "android": "https://dc.lft.to/lastmile_qr_scan"}, "is_reserved": 0, "fusion_lon": 0.0, "fusion_lat": 0.0, "lon": -77.01907383333334, "name": "137eb404057a6b29d9a5a61db7c6e484"}, {"bike_id": "9d6ce5b0fcdb45f1c790976ca383a878", "type": "electric_scooter", "is_disabled": 0, "lat": 38.936532, "rental_uris": {"ios": "https://dc.lft.to/lastmile_qr_scan", "android": "https://dc.lft.to/lastmile_qr_scan"}, "is_reserved": 0, "fusion_lon": 0.0, "fusion_lat": 0.0, "lon": -77.02637766666666, "name": "9d6ce5b0fcdb45f1c790976ca383a878"}, {"bike_id": "622f0d20e4b4da4908f4297a28684295", "type": "electric_scooter", "is_disabled": 0, "lat": 38.9151325, "rental_uris": {"ios": "https://dc.lft.to/lastmile_qr_scan", "android": "https://dc.lft.to/lastmile_qr_scan"}, "is_reserved": 0, "fusion_lon": 0.0, "fusion_lat": 0.0, "lon": -77.0685485, "name": "622f0d20e4b4da4908f4297a28684295"}, {"bike_id": "936d075335c713ca87ee15c771e43ff4", "type": "electric_scooter", "is_disabled": 0, "lat": 38.88369266666667, "rental_uris": {"ios": "https://dc.lft.to/lastmile_qr_scan", "android": "https://dc.lft.to/lastmile_qr_scan"}, "is_reserved": 0, "fusion_lon": 0.0, "fusion_lat": 0.0, "lon": -76.99522733333333, "name": "936d075335c713ca87ee15c771e43ff4"}, {"bike_id": "a82682d158bde30a55fcdb9c2ad8510a", "type": "electric_scooter", "is_disabled": 0, "lat": 38.9141, "rental_uris": {"ios": "https://dc.lft.to/lastmile_qr_scan", "android": "https://dc.lft.to/lastmile_qr_scan"}, "is_reserved": 0, "fusion_lon": 0.0, "fusion_lat": 0.0, "lon": -77.04468266666667, "name": "a82682d158bde30a55fcdb9c2ad8510a"}, {"bike_id": "6574b81066d88abe33f532df7d1cd86f", "type": "electric_bike", "is_disabled": 0, "lat": 38.8703175, "rental_uris": {"ios": "https://dc.lft.to/lastmile_qr_scan", "android": "https://dc.lft.to/lastmile_qr_scan"}, "is_reserved": 0, "fusion_lon": 0.0, "fusion_lat": 0.0, "lon": -77.13217166666666, "name": "6574b81066d88abe33f532df7d1cd86f"}, {"bike_id": "973c6b43845a4b619262b56c07842b30", "type": "electric_scooter", "is_disabled": 0, "lat": 38.9106845, "rental_uris": {"ios": "https://dc.lft.to/lastmile_qr_scan", "android": "https://dc.lft.to/lastmile_qr_scan"}, "is_reserved": 0, "fusion_lon": 0.0, "fusion_lat": 0.0, "lon": -77.00914283333333, "name": "973c6b43845a4b619262b56c07842b30"}, {"bike_id": "ec362951ef8799ad41d7d26562f04e25", "type": "electric_scooter", "is_disabled": 0, "lat": 38.91634216666667, "rental_uris": {"ios": "https://dc.lft.to/lastmile_qr_scan", "android": "https://dc.lft.to/lastmile_qr_scan"}, "is_reserved": 0, "fusion_lon": 0.0, "fusion_lat": 0.0, "lon": -77.039924, "name": "ec362951ef8799ad41d7d26562f04e25"}, {"bike_id": "29f7889fe3c16e082660cf125dff2587", "type": "electric_scooter", "is_disabled": 0, "lat": 38.9257245, "rental_uris": {"ios": "https://dc.lft.to/lastmile_qr_scan", "android": "https://dc.lft.to/lastmile_qr_scan"}, "is_reserved": 0, "fusion_lon": 0.0, "fusion_lat": 0.0, "lon": -77.052627, "name": "29f7889fe3c16e082660cf125dff2587"}, {"bike_id": "fdfc8a7c0879d47315e677de22a93de6", "type": "electric_scooter", "is_disabled": 0, "lat": 38.951575166666665, "rental_uris": {"ios": "https://dc.lft.to/lastmile_qr_scan", "android": "https://dc.lft.to/lastmile_qr_scan"}, "is_reserved": 0, "fusion_lon": 0.0, "fusion_lat": 0.0, "lon": -77.025352, "name": "fdfc8a7c0879d47315e677de22a93de6"}, {"bike_id": "67dd48df4c7b368c292e485bc30ce4cc", "type": "electric_scooter", "is_disabled": 0, "lat": 38.88263533333333, "rental_uris": {"ios": "https://dc.lft.to/lastmile_qr_scan", "android": "https://dc.lft.to/lastmile_qr_scan"}, "is_reserved": 0, "fusion_lon": 0.0, "fusion_lat": 0.0, "lon": -76.9925805, "name": "67dd48df4c7b368c292e485bc30ce4cc"}, {"bike_id": "17e2d84d3b8807bcccc75932d39de36e", "type": "electric_scooter", "is_disabled": 0, "lat": 38.9300895, "rental_uris": {"ios": "https://dc.lft.to/lastmile_qr_scan", "android": "https://dc.lft.to/lastmile_qr_scan"}, "is_reserved": 0, "fusion_lon": 0.0, "fusion_lat": 0.0, "lon": -77.0235805, "name": "17e2d84d3b8807bcccc75932d39de36e"}, {"bike_id": "e425c100b442f3bf7f600943b2163464", "type": "electric_scooter", "is_disabled": 0, "lat": 38.90823066666667, "rental_uris": {"ios": "https://dc.lft.to/lastmile_qr_scan", "android": "https://dc.lft.to/lastmile_qr_scan"}, "is_reserved": 0, "fusion_lon": 0.0, "fusion_lat": 0.0, "lon": -77.0238785, "name": "e425c100b442f3bf7f600943b2163464"}, {"bike_id": "3258e5e15d54390a877a0fc30e8b2e49", "type": "electric_scooter", "is_disabled": 0, "lat": 38.906805, "rental_uris": {"ios": "https://dc.lft.to/lastmile_qr_scan", "android": "https://dc.lft.to/lastmile_qr_scan"}, "is_reserved": 0, "fusion_lon": 0.0, "fusion_lat": 0.0, "lon": -77.0634295, "name": "3258e5e15d54390a877a0fc30e8b2e49"}, {"bike_id": "bf702e90d418b705b03b88ac17a9ee8b", "type": "electric_scooter", "is_disabled": 0, "lat": 38.9138465, "rental_uris": {"ios": "https://dc.lft.to/lastmile_qr_scan", "android": "https://dc.lft.to/lastmile_qr_scan"}, "is_reserved": 0, "fusion_lon": 0.0, "fusion_lat": 0.0, "lon": -77.0321275, "name": "bf702e90d418b705b03b88ac17a9ee8b"}, {"bike_id": "cbbc183767399e3315d9ee4c1ecfebb1", "type": "electric_scooter", "is_disabled": 0, "lat": 38.92663183333333, "rental_uris": {"ios": "https://dc.lft.to/lastmile_qr_scan", "android": "https://dc.lft.to/lastmile_qr_scan"}, "is_reserved": 0, "fusion_lon": 0.0, "fusion_lat": 0.0, "lon": -76.99538133333333, "name": "cbbc183767399e3315d9ee4c1ecfebb1"}, {"bike_id": "b361d6089a8e5e932cab432c788b482e", "type": "electric_scooter", "is_disabled": 0, "lat": 38.89862933333333, "rental_uris": {"ios": "https://dc.lft.to/lastmile_qr_scan", "android": "https://dc.lft.to/lastmile_qr_scan"}, "is_reserved": 0, "fusion_lon": 0.0, "fusion_lat": 0.0, "lon": -76.9275915, "name": "b361d6089a8e5e932cab432c788b482e"}, {"bike_id": "a9bc130388e8657e140c7d6a228168ab", "type": "electric_scooter", "is_disabled": 0, "lat": 38.92971283333333, "rental_uris": {"ios": "https://dc.lft.to/lastmile_qr_scan", "android": "https://dc.lft.to/lastmile_qr_scan"}, "is_reserved": 0, "fusion_lon": 0.0, "fusion_lat": 0.0, "lon": -77.01689066666667, "name": "a9bc130388e8657e140c7d6a228168ab"}, {"bike_id": "ce60c5c4183a43cd79b40a4bd03c3406", "type": "electric_scooter", "is_disabled": 0, "lat": 38.9051895, "rental_uris": {"ios": "https://dc.lft.to/lastmile_qr_scan", "android": "https://dc.lft.to/lastmile_qr_scan"}, "is_reserved": 0, "fusion_lon": 0.0, "fusion_lat": 0.0, "lon": -77.03184033333334, "name": "ce60c5c4183a43cd79b40a4bd03c3406"}, {"bike_id": "b1aa70e94c42768f3bf5825c41011bc7", "type": "electric_scooter", "is_disabled": 0, "lat": 38.929636333333335, "rental_uris": {"ios": "https://dc.lft.to/lastmile_qr_scan", "android": "https://dc.lft.to/lastmile_qr_scan"}, "is_reserved": 0, "fusion_lon": 0.0, "fusion_lat": 0.0, "lon": -77.02936066666666, "name": "b1aa70e94c42768f3bf5825c41011bc7"}, {"bike_id": "eb9221a1f55ad4d6662d73719b20bd4a", "type": "electric_scooter", "is_disabled": 0, "lat": 38.959375, "rental_uris": {"ios": "https://dc.lft.to/lastmile_qr_scan", "android": "https://dc.lft.to/lastmile_qr_scan"}, "is_reserved": 0, "fusion_lon": 0.0, "fusion_lat": 0.0, "lon": -77.03045166666666, "name": "eb9221a1f55ad4d6662d73719b20bd4a"}, {"bike_id": "b86bc82f95b588256a0028830e79349b", "type": "electric_scooter", "is_disabled": 0, "lat": 38.900328, "rental_uris": {"ios": "https://dc.lft.to/lastmile_qr_scan", "android": "https://dc.lft.to/lastmile_qr_scan"}, "is_reserved": 0, "fusion_lon": 0.0, "fusion_lat": 0.0, "lon": -76.99924083333333, "name": "b86bc82f95b588256a0028830e79349b"}, {"bike_id": "e27609b34d4779ca17629c3d45e6ffdb", "type": "electric_scooter", "is_disabled": 0, "lat": 38.902658, "rental_uris": {"ios": "https://dc.lft.to/lastmile_qr_scan", "android": "https://dc.lft.to/lastmile_qr_scan"}, "is_reserved": 0, "fusion_lon": 0.0, "fusion_lat": 0.0, "lon": -77.038422, "name": "e27609b34d4779ca17629c3d45e6ffdb"}, {"bike_id": "3dfa359df97aa10c46679734c394da17", "type": "electric_scooter", "is_disabled": 0, "lat": 38.923236833333334, "rental_uris": {"ios": "https://dc.lft.to/lastmile_qr_scan", "android": "https://dc.lft.to/lastmile_qr_scan"}, "is_reserved": 0, "fusion_lon": 0.0, "fusion_lat": 0.0, "lon": -77.021347, "name": "3dfa359df97aa10c46679734c394da17"}, {"bike_id": "e3733a739f3be0de081a9900d8672725", "type": "electric_scooter", "is_disabled": 0, "lat": 38.90721283333333, "rental_uris": {"ios": "https://dc.lft.to/lastmile_qr_scan", "android": "https://dc.lft.to/lastmile_qr_scan"}, "is_reserved": 0, "fusion_lon": 0.0, "fusion_lat": 0.0, "lon": -77.01465183333333, "name": "e3733a739f3be0de081a9900d8672725"}, {"bike_id": "8807d0f80d3ba9f7ae19e4947a2fbd24", "type": "electric_scooter", "is_disabled": 0, "lat": 38.891801, "rental_uris": {"ios": "https://dc.lft.to/lastmile_qr_scan", "android": "https://dc.lft.to/lastmile_qr_scan"}, "is_reserved": 0, "fusion_lon": 0.0, "fusion_lat": 0.0, "lon": -77.02206633333333, "name": "8807d0f80d3ba9f7ae19e4947a2fbd24"}, {"bike_id": "5eee827196c5fee55e1857b4006bb549", "type": "electric_scooter", "is_disabled": 0, "lat": 38.941942, "rental_uris": {"ios": "https://dc.lft.to/lastmile_qr_scan", "android": "https://dc.lft.to/lastmile_qr_scan"}, "is_reserved": 0, "fusion_lon": 0.0, "fusion_lat": 0.0, "lon": -77.02345083333333, "name": "5eee827196c5fee55e1857b4006bb549"}, {"bike_id": "64ba521087750f7da958ad36b7ff4857", "type": "electric_scooter", "is_disabled": 0, "lat": 38.87603683333333, "rental_uris": {"ios": "https://dc.lft.to/lastmile_qr_scan", "android": "https://dc.lft.to/lastmile_qr_scan"}, "is_reserved": 0, "fusion_lon": 0.0, "fusion_lat": 0.0, "lon": -77.00602966666666, "name": "64ba521087750f7da958ad36b7ff4857"}, {"bike_id": "68042047ba2457313437ff3fc69cf7c1", "type": "electric_scooter", "is_disabled": 0, "lat": 38.89221766666667, "rental_uris": {"ios": "https://dc.lft.to/lastmile_qr_scan", "android": "https://dc.lft.to/lastmile_qr_scan"}, "is_reserved": 0, "fusion_lon": 0.0, "fusion_lat": 0.0, "lon": -77.04858183333333, "name": "68042047ba2457313437ff3fc69cf7c1"}, {"bike_id": "5a3add2ffaaa8735d54a212007de01ce", "type": "electric_scooter", "is_disabled": 0, "lat": 38.89960116666666, "rental_uris": {"ios": "https://dc.lft.to/lastmile_qr_scan", "android": "https://dc.lft.to/lastmile_qr_scan"}, "is_reserved": 0, "fusion_lon": 0.0, "fusion_lat": 0.0, "lon": -77.023867, "name": "5a3add2ffaaa8735d54a212007de01ce"}, {"bike_id": "47a0c23f0eca7135a1165f379a79a9e2", "type": "electric_scooter", "is_disabled": 0, "lat": 38.92353083333333, "rental_uris": {"ios": "https://dc.lft.to/lastmile_qr_scan", "android": "https://dc.lft.to/lastmile_qr_scan"}, "is_reserved": 0, "fusion_lon": 0.0, "fusion_lat": 0.0, "lon": -77.05106583333334, "name": "47a0c23f0eca7135a1165f379a79a9e2"}, {"bike_id": "f5749e3b8092203a506e73b42f9c6fe4", "type": "electric_scooter", "is_disabled": 0, "lat": 38.870166833333336, "rental_uris": {"ios": "https://dc.lft.to/lastmile_qr_scan", "android": "https://dc.lft.to/lastmile_qr_scan"}, "is_reserved": 0, "fusion_lon": 0.0, "fusion_lat": 0.0, "lon": -76.9808265, "name": "f5749e3b8092203a506e73b42f9c6fe4"}, {"bike_id": "27373fc4b1ad9e1b08bcb15eda7e7954", "type": "electric_scooter", "is_disabled": 0, "lat": 38.9096685, "rental_uris": {"ios": "https://dc.lft.to/lastmile_qr_scan", "android": "https://dc.lft.to/lastmile_qr_scan"}, "is_reserved": 0, "fusion_lon": 0.0, "fusion_lat": 0.0, "lon": -77.03810283333334, "name": "27373fc4b1ad9e1b08bcb15eda7e7954"}, {"bike_id": "d088338745bfe414dd7b6de2fe4a667b", "type": "electric_scooter", "is_disabled": 0, "lat": 38.913767666666665, "rental_uris": {"ios": "https://dc.lft.to/lastmile_qr_scan", "android": "https://dc.lft.to/lastmile_qr_scan"}, "is_reserved": 0, "fusion_lon": 0.0, "fusion_lat": 0.0, "lon": -77.0413585, "name": "d088338745bfe414dd7b6de2fe4a667b"}, {"bike_id": "f82ff6145b3cc8c352e52565787ca879", "type": "electric_scooter", "is_disabled": 0, "lat": 38.92897716666667, "rental_uris": {"ios": "https://dc.lft.to/lastmile_qr_scan", "android": "https://dc.lft.to/lastmile_qr_scan"}, "is_reserved": 0, "fusion_lon": 0.0, "fusion_lat": 0.0, "lon": -77.01660983333333, "name": "f82ff6145b3cc8c352e52565787ca879"}, {"bike_id": "d415e46c75cc0525e8cca37e3647ba39", "type": "electric_scooter", "is_disabled": 0, "lat": 38.90098883333334, "rental_uris": {"ios": "https://dc.lft.to/lastmile_qr_scan", "android": "https://dc.lft.to/lastmile_qr_scan"}, "is_reserved": 0, "fusion_lon": 0.0, "fusion_lat": 0.0, "lon": -77.04749083333333, "name": "d415e46c75cc0525e8cca37e3647ba39"}, {"bike_id": "1132f0a8935ffa52be8ef8f52700e584", "type": "electric_scooter", "is_disabled": 0, "lat": 38.91091933333333, "rental_uris": {"ios": "https://dc.lft.to/lastmile_qr_scan", "android": "https://dc.lft.to/lastmile_qr_scan"}, "is_reserved": 0, "fusion_lon": 0.0, "fusion_lat": 0.0, "lon": -77.03841116666666, "name": "1132f0a8935ffa52be8ef8f52700e584"}, {"bike_id": "54cad57d2f5ed374cb3f78414e34a251", "type": "electric_scooter", "is_disabled": 0, "lat": 38.900025166666666, "rental_uris": {"ios": "https://dc.lft.to/lastmile_qr_scan", "android": "https://dc.lft.to/lastmile_qr_scan"}, "is_reserved": 0, "fusion_lon": 0.0, "fusion_lat": 0.0, "lon": -77.00672583333333, "name": "54cad57d2f5ed374cb3f78414e34a251"}, {"bike_id": "9aecb57c6b11a6cbbf0981923ff84384", "type": "electric_scooter", "is_disabled": 0, "lat": 38.906653, "rental_uris": {"ios": "https://dc.lft.to/lastmile_qr_scan", "android": "https://dc.lft.to/lastmile_qr_scan"}, "is_reserved": 0, "fusion_lon": 0.0, "fusion_lat": 0.0, "lon": -77.0270035, "name": "9aecb57c6b11a6cbbf0981923ff84384"}, {"bike_id": "9664243d3342d2b395d12ce60103c4e3", "type": "electric_scooter", "is_disabled": 0, "lat": 38.90823616666667, "rental_uris": {"ios": "https://dc.lft.to/lastmile_qr_scan", "android": "https://dc.lft.to/lastmile_qr_scan"}, "is_reserved": 0, "fusion_lon": 0.0, "fusion_lat": 0.0, "lon": -76.94157383333334, "name": "9664243d3342d2b395d12ce60103c4e3"}, {"bike_id": "9049a387a7b8b1ac1fba69b4ef3d977c", "type": "electric_scooter", "is_disabled": 0, "lat": 38.91668216666667, "rental_uris": {"ios": "https://dc.lft.to/lastmile_qr_scan", "android": "https://dc.lft.to/lastmile_qr_scan"}, "is_reserved": 0, "fusion_lon": 0.0, "fusion_lat": 0.0, "lon": -77.03210016666667, "name": "9049a387a7b8b1ac1fba69b4ef3d977c"}, {"bike_id": "3a1d3492594dbb2a3116d1ca5a5bc4c3", "type": "electric_bike", "is_disabled": 0, "lat": 38.8727365, "rental_uris": {"ios": "https://dc.lft.to/lastmile_qr_scan", "android": "https://dc.lft.to/lastmile_qr_scan"}, "is_reserved": 0, "fusion_lon": 0.0, "fusion_lat": 0.0, "lon": -77.23333, "name": "3a1d3492594dbb2a3116d1ca5a5bc4c3"}, {"bike_id": "a9c1d198704a9b641b0e90088ec47731", "type": "electric_scooter", "is_disabled": 0, "lat": 38.92717433333333, "rental_uris": {"ios": "https://dc.lft.to/lastmile_qr_scan", "android": "https://dc.lft.to/lastmile_qr_scan"}, "is_reserved": 0, "fusion_lon": 0.0, "fusion_lat": 0.0, "lon": -77.0399645, "name": "a9c1d198704a9b641b0e90088ec47731"}, {"bike_id": "602832943e3126a660e1fcaa3dfdbf1b", "type": "electric_scooter", "is_disabled": 0, "lat": 38.94287933333333, "rental_uris": {"ios": "https://dc.lft.to/lastmile_qr_scan", "android": "https://dc.lft.to/lastmile_qr_scan"}, "is_reserved": 0, "fusion_lon": 0.0, "fusion_lat": 0.0, "lon": -77.0217105, "name": "602832943e3126a660e1fcaa3dfdbf1b"}, {"bike_id": "d81daf0286077c66212ead0d42b20e26", "type": "electric_scooter", "is_disabled": 0, "lat": 38.89957116666667, "rental_uris": {"ios": "https://dc.lft.to/lastmile_qr_scan", "android": "https://dc.lft.to/lastmile_qr_scan"}, "is_reserved": 0, "fusion_lon": 0.0, "fusion_lat": 0.0, "lon": -77.0216845, "name": "d81daf0286077c66212ead0d42b20e26"}, {"bike_id": "2b9ddad620360d1aa2bc94d32b979af6", "type": "electric_scooter", "is_disabled": 0, "lat": 38.937019166666666, "rental_uris": {"ios": "https://dc.lft.to/lastmile_qr_scan", "android": "https://dc.lft.to/lastmile_qr_scan"}, "is_reserved": 0, "fusion_lon": 0.0, "fusion_lat": 0.0, "lon": -77.06103133333333, "name": "2b9ddad620360d1aa2bc94d32b979af6"}, {"bike_id": "099ff69060d448e4024c25887c4fbab8", "type": "electric_scooter", "is_disabled": 0, "lat": 38.9003045, "rental_uris": {"ios": "https://dc.lft.to/lastmile_qr_scan", "android": "https://dc.lft.to/lastmile_qr_scan"}, "is_reserved": 0, "fusion_lon": 0.0, "fusion_lat": 0.0, "lon": -76.9881175, "name": "099ff69060d448e4024c25887c4fbab8"}, {"bike_id": "eef85cd920f8cb3a998c04ebfb4decd6", "type": "electric_scooter", "is_disabled": 0, "lat": 38.915702, "rental_uris": {"ios": "https://dc.lft.to/lastmile_qr_scan", "android": "https://dc.lft.to/lastmile_qr_scan"}, "is_reserved": 0, "fusion_lon": 0.0, "fusion_lat": 0.0, "lon": -77.01247083333334, "name": "eef85cd920f8cb3a998c04ebfb4decd6"}, {"bike_id": "90a0f808cdbce4fb97466a636565df0b", "type": "electric_scooter", "is_disabled": 0, "lat": 38.906780499999996, "rental_uris": {"ios": "https://dc.lft.to/lastmile_qr_scan", "android": "https://dc.lft.to/lastmile_qr_scan"}, "is_reserved": 0, "fusion_lon": 0.0, "fusion_lat": 0.0, "lon": -77.06337683333334, "name": "90a0f808cdbce4fb97466a636565df0b"}, {"bike_id": "f417a199a096d75394e71bb5fae8c04f", "type": "electric_scooter", "is_disabled": 0, "lat": 38.92984916666666, "rental_uris": {"ios": "https://dc.lft.to/lastmile_qr_scan", "android": "https://dc.lft.to/lastmile_qr_scan"}, "is_reserved": 0, "fusion_lon": 0.0, "fusion_lat": 0.0, "lon": -77.03473633333333, "name": "f417a199a096d75394e71bb5fae8c04f"}, {"bike_id": "910c275a1c57be649ef67bc9f9389ce4", "type": "electric_scooter", "is_disabled": 0, "lat": 38.90984733333333, "rental_uris": {"ios": "https://dc.lft.to/lastmile_qr_scan", "android": "https://dc.lft.to/lastmile_qr_scan"}, "is_reserved": 0, "fusion_lon": 0.0, "fusion_lat": 0.0, "lon": -77.0385725, "name": "910c275a1c57be649ef67bc9f9389ce4"}, {"bike_id": "180e8f7577e002c7ee3f09c06d3e355b", "type": "electric_scooter", "is_disabled": 0, "lat": 38.89876983333333, "rental_uris": {"ios": "https://dc.lft.to/lastmile_qr_scan", "android": "https://dc.lft.to/lastmile_qr_scan"}, "is_reserved": 0, "fusion_lon": 0.0, "fusion_lat": 0.0, "lon": -77.02004316666667, "name": "180e8f7577e002c7ee3f09c06d3e355b"}, {"bike_id": "1e4e58d63a08ec3e73fce0e457a643cf", "type": "electric_scooter", "is_disabled": 0, "lat": 38.907297166666666, "rental_uris": {"ios": "https://dc.lft.to/lastmile_qr_scan", "android": "https://dc.lft.to/lastmile_qr_scan"}, "is_reserved": 0, "fusion_lon": 0.0, "fusion_lat": 0.0, "lon": -77.01491133333333, "name": "1e4e58d63a08ec3e73fce0e457a643cf"}, {"bike_id": "99dc9a3646468da538377fc5d6d0ae9b", "type": "electric_scooter", "is_disabled": 0, "lat": 38.96624883333333, "rental_uris": {"ios": "https://dc.lft.to/lastmile_qr_scan", "android": "https://dc.lft.to/lastmile_qr_scan"}, "is_reserved": 0, "fusion_lon": 0.0, "fusion_lat": 0.0, "lon": -77.0224825, "name": "99dc9a3646468da538377fc5d6d0ae9b"}, {"bike_id": "8a050f824b27cc233b4f4e729b24fd05", "type": "electric_scooter", "is_disabled": 0, "lat": 38.9081675, "rental_uris": {"ios": "https://dc.lft.to/lastmile_qr_scan", "android": "https://dc.lft.to/lastmile_qr_scan"}, "is_reserved": 0, "fusion_lon": 0.0, "fusion_lat": 0.0, "lon": -77.0344655, "name": "8a050f824b27cc233b4f4e729b24fd05"}, {"bike_id": "687d57f0c8e17e2888e3e8dd2e7b4247", "type": "electric_bike", "is_disabled": 0, "lat": 39.0563305, "rental_uris": {"ios": "https://dc.lft.to/lastmile_qr_scan", "android": "https://dc.lft.to/lastmile_qr_scan"}, "is_reserved": 0, "fusion_lon": 0.0, "fusion_lat": 0.0, "lon": -77.12525083333334, "name": "687d57f0c8e17e2888e3e8dd2e7b4247"}, {"bike_id": "ea0b037683cd4fecb35b8f26cd2d6209", "type": "electric_scooter", "is_disabled": 0, "lat": 38.9010185, "rental_uris": {"ios": "https://dc.lft.to/lastmile_qr_scan", "android": "https://dc.lft.to/lastmile_qr_scan"}, "is_reserved": 0, "fusion_lon": 0.0, "fusion_lat": 0.0, "lon": -77.0279605, "name": "ea0b037683cd4fecb35b8f26cd2d6209"}, {"bike_id": "d41fa67f9d633ea58004852316376da2", "type": "electric_scooter", "is_disabled": 0, "lat": 38.90679166666666, "rental_uris": {"ios": "https://dc.lft.to/lastmile_qr_scan", "android": "https://dc.lft.to/lastmile_qr_scan"}, "is_reserved": 0, "fusion_lon": 0.0, "fusion_lat": 0.0, "lon": -77.07189683333333, "name": "d41fa67f9d633ea58004852316376da2"}, {"bike_id": "e5624a6b751648f65457c365c30f2b82", "type": "electric_scooter", "is_disabled": 0, "lat": 38.89730133333333, "rental_uris": {"ios": "https://dc.lft.to/lastmile_qr_scan", "android": "https://dc.lft.to/lastmile_qr_scan"}, "is_reserved": 0, "fusion_lon": 0.0, "fusion_lat": 0.0, "lon": -77.033414, "name": "e5624a6b751648f65457c365c30f2b82"}, {"bike_id": "16a106c189f9d6c18bddc729d360cd8e", "type": "electric_scooter", "is_disabled": 0, "lat": 38.92057616666666, "rental_uris": {"ios": "https://dc.lft.to/lastmile_qr_scan", "android": "https://dc.lft.to/lastmile_qr_scan"}, "is_reserved": 0, "fusion_lon": 0.0, "fusion_lat": 0.0, "lon": -77.03346083333334, "name": "16a106c189f9d6c18bddc729d360cd8e"}, {"bike_id": "a85569854db811cc4cb9894564d03ee0", "type": "electric_scooter", "is_disabled": 0, "lat": 38.89177633333333, "rental_uris": {"ios": "https://dc.lft.to/lastmile_qr_scan", "android": "https://dc.lft.to/lastmile_qr_scan"}, "is_reserved": 0, "fusion_lon": 0.0, "fusion_lat": 0.0, "lon": -76.911901, "name": "a85569854db811cc4cb9894564d03ee0"}, {"bike_id": "03bd19f41dd0771c8a51d5d3e99c2864", "type": "electric_scooter", "is_disabled": 0, "lat": 38.937275, "rental_uris": {"ios": "https://dc.lft.to/lastmile_qr_scan", "android": "https://dc.lft.to/lastmile_qr_scan"}, "is_reserved": 0, "fusion_lon": 0.0, "fusion_lat": 0.0, "lon": -77.03349783333333, "name": "03bd19f41dd0771c8a51d5d3e99c2864"}, {"bike_id": "ecfc04126c05adb9f7be3bc216559729", "type": "electric_scooter", "is_disabled": 0, "lat": 38.9233755, "rental_uris": {"ios": "https://dc.lft.to/lastmile_qr_scan", "android": "https://dc.lft.to/lastmile_qr_scan"}, "is_reserved": 0, "fusion_lon": 0.0, "fusion_lat": 0.0, "lon": -77.05246416666667, "name": "ecfc04126c05adb9f7be3bc216559729"}, {"bike_id": "b45f4e6075acd561b8e29eb6105dba37", "type": "electric_scooter", "is_disabled": 0, "lat": 38.94115466666667, "rental_uris": {"ios": "https://dc.lft.to/lastmile_qr_scan", "android": "https://dc.lft.to/lastmile_qr_scan"}, "is_reserved": 0, "fusion_lon": 0.0, "fusion_lat": 0.0, "lon": -77.07721666666667, "name": "b45f4e6075acd561b8e29eb6105dba37"}, {"bike_id": "e561ef11cec88b31ab58feae9230bdc0", "type": "electric_scooter", "is_disabled": 0, "lat": 38.9060545, "rental_uris": {"ios": "https://dc.lft.to/lastmile_qr_scan", "android": "https://dc.lft.to/lastmile_qr_scan"}, "is_reserved": 0, "fusion_lon": 0.0, "fusion_lat": 0.0, "lon": -77.01212383333333, "name": "e561ef11cec88b31ab58feae9230bdc0"}, {"bike_id": "64fc91d69da67d38f807a04b3c86e33c", "type": "electric_scooter", "is_disabled": 0, "lat": 38.89830033333333, "rental_uris": {"ios": "https://dc.lft.to/lastmile_qr_scan", "android": "https://dc.lft.to/lastmile_qr_scan"}, "is_reserved": 0, "fusion_lon": 0.0, "fusion_lat": 0.0, "lon": -77.043598, "name": "64fc91d69da67d38f807a04b3c86e33c"}, {"bike_id": "16438e5c17f4472d4800f53e93f006db", "type": "electric_scooter", "is_disabled": 0, "lat": 38.930838, "rental_uris": {"ios": "https://dc.lft.to/lastmile_qr_scan", "android": "https://dc.lft.to/lastmile_qr_scan"}, "is_reserved": 0, "fusion_lon": 0.0, "fusion_lat": 0.0, "lon": -77.02809233333333, "name": "16438e5c17f4472d4800f53e93f006db"}, {"bike_id": "f888b8158a0d38a7ccbdcea5117789d0", "type": "electric_scooter", "is_disabled": 0, "lat": 38.910233, "rental_uris": {"ios": "https://dc.lft.to/lastmile_qr_scan", "android": "https://dc.lft.to/lastmile_qr_scan"}, "is_reserved": 0, "fusion_lon": 0.0, "fusion_lat": 0.0, "lon": -77.03453516666667, "name": "f888b8158a0d38a7ccbdcea5117789d0"}, {"bike_id": "d19f72344027b7b6ce44ab76e8f63212", "type": "electric_scooter", "is_disabled": 0, "lat": 38.938782, "rental_uris": {"ios": "https://dc.lft.to/lastmile_qr_scan", "android": "https://dc.lft.to/lastmile_qr_scan"}, "is_reserved": 0, "fusion_lon": 0.0, "fusion_lat": 0.0, "lon": -77.02481566666667, "name": "d19f72344027b7b6ce44ab76e8f63212"}, {"bike_id": "d9e3ce7f869da29e68cbe7ea37d1477d", "type": "electric_scooter", "is_disabled": 0, "lat": 38.952395, "rental_uris": {"ios": "https://dc.lft.to/lastmile_qr_scan", "android": "https://dc.lft.to/lastmile_qr_scan"}, "is_reserved": 0, "fusion_lon": 0.0, "fusion_lat": 0.0, "lon": -77.006962, "name": "d9e3ce7f869da29e68cbe7ea37d1477d"}, {"bike_id": "26f0790324dae8ca8ad3ef51cb46ecb7", "type": "electric_scooter", "is_disabled": 0, "lat": 38.911257, "rental_uris": {"ios": "https://dc.lft.to/lastmile_qr_scan", "android": "https://dc.lft.to/lastmile_qr_scan"}, "is_reserved": 0, "fusion_lon": 0.0, "fusion_lat": 0.0, "lon": -77.03838783333333, "name": "26f0790324dae8ca8ad3ef51cb46ecb7"}, {"bike_id": "866da5ae8a5c6f1a146fb1b0458fe1fd", "type": "electric_scooter", "is_disabled": 0, "lat": 38.928711666666665, "rental_uris": {"ios": "https://dc.lft.to/lastmile_qr_scan", "android": "https://dc.lft.to/lastmile_qr_scan"}, "is_reserved": 0, "fusion_lon": 0.0, "fusion_lat": 0.0, "lon": -77.03409433333333, "name": "866da5ae8a5c6f1a146fb1b0458fe1fd"}, {"bike_id": "0fc9f97513cd0df37fee52858b49a937", "type": "electric_scooter", "is_disabled": 0, "lat": 38.909499333333336, "rental_uris": {"ios": "https://dc.lft.to/lastmile_qr_scan", "android": "https://dc.lft.to/lastmile_qr_scan"}, "is_reserved": 0, "fusion_lon": 0.0, "fusion_lat": 0.0, "lon": -77.03444766666667, "name": "0fc9f97513cd0df37fee52858b49a937"}, {"bike_id": "7b7fcb36c1892f2fc09a94f67e70c369", "type": "electric_scooter", "is_disabled": 0, "lat": 38.892318, "rental_uris": {"ios": "https://dc.lft.to/lastmile_qr_scan", "android": "https://dc.lft.to/lastmile_qr_scan"}, "is_reserved": 0, "fusion_lon": 0.0, "fusion_lat": 0.0, "lon": -77.04876683333333, "name": "7b7fcb36c1892f2fc09a94f67e70c369"}, {"bike_id": "f1997e4111b483b54f8727d8b3aa48f1", "type": "electric_scooter", "is_disabled": 0, "lat": 38.90943816666667, "rental_uris": {"ios": "https://dc.lft.to/lastmile_qr_scan", "android": "https://dc.lft.to/lastmile_qr_scan"}, "is_reserved": 0, "fusion_lon": 0.0, "fusion_lat": 0.0, "lon": -77.049408, "name": "f1997e4111b483b54f8727d8b3aa48f1"}, {"bike_id": "29e222a5d7980de9e9b8b4090be142c4", "type": "electric_scooter", "is_disabled": 0, "lat": 38.92302566666667, "rental_uris": {"ios": "https://dc.lft.to/lastmile_qr_scan", "android": "https://dc.lft.to/lastmile_qr_scan"}, "is_reserved": 0, "fusion_lon": 0.0, "fusion_lat": 0.0, "lon": -77.0412205, "name": "29e222a5d7980de9e9b8b4090be142c4"}, {"bike_id": "2763e486929df058646c30880d78953c", "type": "electric_scooter", "is_disabled": 0, "lat": 38.88100466666667, "rental_uris": {"ios": "https://dc.lft.to/lastmile_qr_scan", "android": "https://dc.lft.to/lastmile_qr_scan"}, "is_reserved": 0, "fusion_lon": 0.0, "fusion_lat": 0.0, "lon": -76.995052, "name": "2763e486929df058646c30880d78953c"}, {"bike_id": "748cf08dc4096e9ee222a6b45e48b97d", "type": "electric_scooter", "is_disabled": 0, "lat": 38.9155975, "rental_uris": {"ios": "https://dc.lft.to/lastmile_qr_scan", "android": "https://dc.lft.to/lastmile_qr_scan"}, "is_reserved": 0, "fusion_lon": 0.0, "fusion_lat": 0.0, "lon": -77.04279716666667, "name": "748cf08dc4096e9ee222a6b45e48b97d"}, {"bike_id": "f9b3fd6b8e74260034aed5a7fa531ac1", "type": "electric_scooter", "is_disabled": 0, "lat": 38.89392683333333, "rental_uris": {"ios": "https://dc.lft.to/lastmile_qr_scan", "android": "https://dc.lft.to/lastmile_qr_scan"}, "is_reserved": 0, "fusion_lon": 0.0, "fusion_lat": 0.0, "lon": -77.02266283333333, "name": "f9b3fd6b8e74260034aed5a7fa531ac1"}, {"bike_id": "735776b935f487be37378b2ee0a94c90", "type": "electric_scooter", "is_disabled": 0, "lat": 38.917647, "rental_uris": {"ios": "https://dc.lft.to/lastmile_qr_scan", "android": "https://dc.lft.to/lastmile_qr_scan"}, "is_reserved": 0, "fusion_lon": 0.0, "fusion_lat": 0.0, "lon": -77.00712333333334, "name": "735776b935f487be37378b2ee0a94c90"}, {"bike_id": "643dd98aec1aaee9949108a24e610e14", "type": "electric_scooter", "is_disabled": 0, "lat": 38.902801, "rental_uris": {"ios": "https://dc.lft.to/lastmile_qr_scan", "android": "https://dc.lft.to/lastmile_qr_scan"}, "is_reserved": 0, "fusion_lon": 0.0, "fusion_lat": 0.0, "lon": -77.022757, "name": "643dd98aec1aaee9949108a24e610e14"}, {"bike_id": "d7152a1f061558a0aa86e412ff5ef3d4", "type": "electric_scooter", "is_disabled": 0, "lat": 38.91664166666666, "rental_uris": {"ios": "https://dc.lft.to/lastmile_qr_scan", "android": "https://dc.lft.to/lastmile_qr_scan"}, "is_reserved": 0, "fusion_lon": 0.0, "fusion_lat": 0.0, "lon": -77.02892233333333, "name": "d7152a1f061558a0aa86e412ff5ef3d4"}, {"bike_id": "56a9a4064ac506dbf2db9b023969dd96", "type": "electric_scooter", "is_disabled": 0, "lat": 38.91123866666667, "rental_uris": {"ios": "https://dc.lft.to/lastmile_qr_scan", "android": "https://dc.lft.to/lastmile_qr_scan"}, "is_reserved": 0, "fusion_lon": 0.0, "fusion_lat": 0.0, "lon": -77.04360433333333, "name": "56a9a4064ac506dbf2db9b023969dd96"}, {"bike_id": "31bbb0cbed31876ad3e71bf59c7d0015", "type": "electric_scooter", "is_disabled": 0, "lat": 38.9232015, "rental_uris": {"ios": "https://dc.lft.to/lastmile_qr_scan", "android": "https://dc.lft.to/lastmile_qr_scan"}, "is_reserved": 0, "fusion_lon": 0.0, "fusion_lat": 0.0, "lon": -77.03914283333333, "name": "31bbb0cbed31876ad3e71bf59c7d0015"}, {"bike_id": "db39a42c4c0a4b8d00bdba529b044924", "type": "electric_scooter", "is_disabled": 0, "lat": 38.899981, "rental_uris": {"ios": "https://dc.lft.to/lastmile_qr_scan", "android": "https://dc.lft.to/lastmile_qr_scan"}, "is_reserved": 0, "fusion_lon": 0.0, "fusion_lat": 0.0, "lon": -77.05339983333333, "name": "db39a42c4c0a4b8d00bdba529b044924"}, {"bike_id": "84aa5d7673e25513602ef17999e7c3ae", "type": "electric_scooter", "is_disabled": 0, "lat": 38.897060833333335, "rental_uris": {"ios": "https://dc.lft.to/lastmile_qr_scan", "android": "https://dc.lft.to/lastmile_qr_scan"}, "is_reserved": 0, "fusion_lon": 0.0, "fusion_lat": 0.0, "lon": -77.00828233333333, "name": "84aa5d7673e25513602ef17999e7c3ae"}, {"bike_id": "ceaa7399b96a63c51b8eec2a5bf7ae28", "type": "electric_scooter", "is_disabled": 0, "lat": 38.9107625, "rental_uris": {"ios": "https://dc.lft.to/lastmile_qr_scan", "android": "https://dc.lft.to/lastmile_qr_scan"}, "is_reserved": 0, "fusion_lon": 0.0, "fusion_lat": 0.0, "lon": -77.03731466666666, "name": "ceaa7399b96a63c51b8eec2a5bf7ae28"}, {"bike_id": "de7cee087fe7fade025223326d03dc4f", "type": "electric_scooter", "is_disabled": 0, "lat": 38.9049215, "rental_uris": {"ios": "https://dc.lft.to/lastmile_qr_scan", "android": "https://dc.lft.to/lastmile_qr_scan"}, "is_reserved": 0, "fusion_lon": 0.0, "fusion_lat": 0.0, "lon": -77.03856133333333, "name": "de7cee087fe7fade025223326d03dc4f"}, {"bike_id": "84d8dc60f2f484b4701ec0b249715bd7", "type": "electric_scooter", "is_disabled": 0, "lat": 38.9363535, "rental_uris": {"ios": "https://dc.lft.to/lastmile_qr_scan", "android": "https://dc.lft.to/lastmile_qr_scan"}, "is_reserved": 0, "fusion_lon": 0.0, "fusion_lat": 0.0, "lon": -77.05882916666667, "name": "84d8dc60f2f484b4701ec0b249715bd7"}, {"bike_id": "0c4208f205ccba562b2057d436a06cfe", "type": "electric_scooter", "is_disabled": 0, "lat": 38.90975683333333, "rental_uris": {"ios": "https://dc.lft.to/lastmile_qr_scan", "android": "https://dc.lft.to/lastmile_qr_scan"}, "is_reserved": 0, "fusion_lon": 0.0, "fusion_lat": 0.0, "lon": -77.02176133333333, "name": "0c4208f205ccba562b2057d436a06cfe"}, {"bike_id": "d8cdac2a8276d7acd683e03283f68c2a", "type": "electric_scooter", "is_disabled": 0, "lat": 38.90969183333333, "rental_uris": {"ios": "https://dc.lft.to/lastmile_qr_scan", "android": "https://dc.lft.to/lastmile_qr_scan"}, "is_reserved": 0, "fusion_lon": 0.0, "fusion_lat": 0.0, "lon": -77.03944016666667, "name": "d8cdac2a8276d7acd683e03283f68c2a"}, {"bike_id": "1579462958f677448db7f4f0b9fe212e", "type": "electric_scooter", "is_disabled": 0, "lat": 38.871773, "rental_uris": {"ios": "https://dc.lft.to/lastmile_qr_scan", "android": "https://dc.lft.to/lastmile_qr_scan"}, "is_reserved": 0, "fusion_lon": 0.0, "fusion_lat": 0.0, "lon": -77.0122355, "name": "1579462958f677448db7f4f0b9fe212e"}, {"bike_id": "bc6ee17bd1adae57b7c27883132905e5", "type": "electric_scooter", "is_disabled": 0, "lat": 38.932528166666664, "rental_uris": {"ios": "https://dc.lft.to/lastmile_qr_scan", "android": "https://dc.lft.to/lastmile_qr_scan"}, "is_reserved": 0, "fusion_lon": 0.0, "fusion_lat": 0.0, "lon": -77.03269633333333, "name": "bc6ee17bd1adae57b7c27883132905e5"}, {"bike_id": "4d5767fc79bf63a0b90e67b517f09dce", "type": "electric_scooter", "is_disabled": 0, "lat": 38.93270033333334, "rental_uris": {"ios": "https://dc.lft.to/lastmile_qr_scan", "android": "https://dc.lft.to/lastmile_qr_scan"}, "is_reserved": 0, "fusion_lon": 0.0, "fusion_lat": 0.0, "lon": -77.04537483333333, "name": "4d5767fc79bf63a0b90e67b517f09dce"}, {"bike_id": "616f5da72799bd8ecddedfeb42b1dafa", "type": "electric_scooter", "is_disabled": 0, "lat": 38.930855666666666, "rental_uris": {"ios": "https://dc.lft.to/lastmile_qr_scan", "android": "https://dc.lft.to/lastmile_qr_scan"}, "is_reserved": 0, "fusion_lon": 0.0, "fusion_lat": 0.0, "lon": -77.02809583333334, "name": "616f5da72799bd8ecddedfeb42b1dafa"}, {"bike_id": "32f9b2b517661254b134af7710819576", "type": "electric_scooter", "is_disabled": 0, "lat": 38.90070633333333, "rental_uris": {"ios": "https://dc.lft.to/lastmile_qr_scan", "android": "https://dc.lft.to/lastmile_qr_scan"}, "is_reserved": 0, "fusion_lon": 0.0, "fusion_lat": 0.0, "lon": -77.00924766666667, "name": "32f9b2b517661254b134af7710819576"}, {"bike_id": "a3810ca9de437c47aa2a99d1e6deb68b", "type": "electric_scooter", "is_disabled": 0, "lat": 38.908288, "rental_uris": {"ios": "https://dc.lft.to/lastmile_qr_scan", "android": "https://dc.lft.to/lastmile_qr_scan"}, "is_reserved": 0, "fusion_lon": 0.0, "fusion_lat": 0.0, "lon": -77.04340766666667, "name": "a3810ca9de437c47aa2a99d1e6deb68b"}, {"bike_id": "d06fbb10c34ef5db0e92c12eebc45863", "type": "electric_scooter", "is_disabled": 0, "lat": 38.90894466666666, "rental_uris": {"ios": "https://dc.lft.to/lastmile_qr_scan", "android": "https://dc.lft.to/lastmile_qr_scan"}, "is_reserved": 0, "fusion_lon": 0.0, "fusion_lat": 0.0, "lon": -77.032086, "name": "d06fbb10c34ef5db0e92c12eebc45863"}, {"bike_id": "c664face84ddf7f27e63d5dde1a9ceec", "type": "electric_scooter", "is_disabled": 0, "lat": 38.91628033333333, "rental_uris": {"ios": "https://dc.lft.to/lastmile_qr_scan", "android": "https://dc.lft.to/lastmile_qr_scan"}, "is_reserved": 0, "fusion_lon": 0.0, "fusion_lat": 0.0, "lon": -77.02539966666667, "name": "c664face84ddf7f27e63d5dde1a9ceec"}, {"bike_id": "89005ce0b5acc3c8d79ac0fd1a597935", "type": "electric_scooter", "is_disabled": 0, "lat": 38.913984, "rental_uris": {"ios": "https://dc.lft.to/lastmile_qr_scan", "android": "https://dc.lft.to/lastmile_qr_scan"}, "is_reserved": 0, "fusion_lon": 0.0, "fusion_lat": 0.0, "lon": -77.03182216666667, "name": "89005ce0b5acc3c8d79ac0fd1a597935"}, {"bike_id": "bcfe194839e77fc307b268f54c84c8d4", "type": "electric_scooter", "is_disabled": 0, "lat": 38.891783, "rental_uris": {"ios": "https://dc.lft.to/lastmile_qr_scan", "android": "https://dc.lft.to/lastmile_qr_scan"}, "is_reserved": 0, "fusion_lon": 0.0, "fusion_lat": 0.0, "lon": -77.02205616666667, "name": "bcfe194839e77fc307b268f54c84c8d4"}, {"bike_id": "44741c79f9754966e7db2b64ced771f6", "type": "electric_scooter", "is_disabled": 0, "lat": 38.91019266666667, "rental_uris": {"ios": "https://dc.lft.to/lastmile_qr_scan", "android": "https://dc.lft.to/lastmile_qr_scan"}, "is_reserved": 0, "fusion_lon": 0.0, "fusion_lat": 0.0, "lon": -77.036621, "name": "44741c79f9754966e7db2b64ced771f6"}, {"bike_id": "7f39097cba78c01fc87e3d7f4de9b71f", "type": "electric_scooter", "is_disabled": 0, "lat": 38.906486666666666, "rental_uris": {"ios": "https://dc.lft.to/lastmile_qr_scan", "android": "https://dc.lft.to/lastmile_qr_scan"}, "is_reserved": 0, "fusion_lon": 0.0, "fusion_lat": 0.0, "lon": -77.00180433333334, "name": "7f39097cba78c01fc87e3d7f4de9b71f"}, {"bike_id": "e8b4c1f96a11218140035435e7ec4871", "type": "electric_scooter", "is_disabled": 0, "lat": 38.90385766666667, "rental_uris": {"ios": "https://dc.lft.to/lastmile_qr_scan", "android": "https://dc.lft.to/lastmile_qr_scan"}, "is_reserved": 0, "fusion_lon": 0.0, "fusion_lat": 0.0, "lon": -76.982033, "name": "e8b4c1f96a11218140035435e7ec4871"}, {"bike_id": "d7f0a94279d18f1b2f34a966ce73396d", "type": "electric_scooter", "is_disabled": 0, "lat": 38.9031365, "rental_uris": {"ios": "https://dc.lft.to/lastmile_qr_scan", "android": "https://dc.lft.to/lastmile_qr_scan"}, "is_reserved": 0, "fusion_lon": 0.0, "fusion_lat": 0.0, "lon": -76.9779965, "name": "d7f0a94279d18f1b2f34a966ce73396d"}, {"bike_id": "bcbc00d78133cfba2c48e2bc1e3e9989", "type": "electric_scooter", "is_disabled": 0, "lat": 38.913372333333335, "rental_uris": {"ios": "https://dc.lft.to/lastmile_qr_scan", "android": "https://dc.lft.to/lastmile_qr_scan"}, "is_reserved": 0, "fusion_lon": 0.0, "fusion_lat": 0.0, "lon": -77.04229716666667, "name": "bcbc00d78133cfba2c48e2bc1e3e9989"}, {"bike_id": "38116b6cb5df7b39ba49aa3a8ebaadcb", "type": "electric_scooter", "is_disabled": 0, "lat": 38.94504633333333, "rental_uris": {"ios": "https://dc.lft.to/lastmile_qr_scan", "android": "https://dc.lft.to/lastmile_qr_scan"}, "is_reserved": 0, "fusion_lon": 0.0, "fusion_lat": 0.0, "lon": -77.03368983333333, "name": "38116b6cb5df7b39ba49aa3a8ebaadcb"}, {"bike_id": "cdf93a69c09d37082910020f01e4fb9c", "type": "electric_scooter", "is_disabled": 0, "lat": 38.922289666666664, "rental_uris": {"ios": "https://dc.lft.to/lastmile_qr_scan", "android": "https://dc.lft.to/lastmile_qr_scan"}, "is_reserved": 0, "fusion_lon": 0.0, "fusion_lat": 0.0, "lon": -77.02974316666666, "name": "cdf93a69c09d37082910020f01e4fb9c"}, {"bike_id": "919d56420fc76ba3b83922b0b70bdbaa", "type": "electric_scooter", "is_disabled": 0, "lat": 38.908537, "rental_uris": {"ios": "https://dc.lft.to/lastmile_qr_scan", "android": "https://dc.lft.to/lastmile_qr_scan"}, "is_reserved": 0, "fusion_lon": 0.0, "fusion_lat": 0.0, "lon": -77.04763566666666, "name": "919d56420fc76ba3b83922b0b70bdbaa"}, {"bike_id": "3f876f833c34112d573dd4ec07e7928b", "type": "electric_scooter", "is_disabled": 0, "lat": 38.907186333333335, "rental_uris": {"ios": "https://dc.lft.to/lastmile_qr_scan", "android": "https://dc.lft.to/lastmile_qr_scan"}, "is_reserved": 0, "fusion_lon": 0.0, "fusion_lat": 0.0, "lon": -77.02375616666667, "name": "3f876f833c34112d573dd4ec07e7928b"}, {"bike_id": "1b7cb965663ede3e9789a2bb087ec7b3", "type": "electric_scooter", "is_disabled": 0, "lat": 38.929337, "rental_uris": {"ios": "https://dc.lft.to/lastmile_qr_scan", "android": "https://dc.lft.to/lastmile_qr_scan"}, "is_reserved": 0, "fusion_lon": 0.0, "fusion_lat": 0.0, "lon": -77.03772783333334, "name": "1b7cb965663ede3e9789a2bb087ec7b3"}, {"bike_id": "896aae00ec4081a9fe3836390feedda9", "type": "electric_scooter", "is_disabled": 0, "lat": 38.908516166666665, "rental_uris": {"ios": "https://dc.lft.to/lastmile_qr_scan", "android": "https://dc.lft.to/lastmile_qr_scan"}, "is_reserved": 0, "fusion_lon": 0.0, "fusion_lat": 0.0, "lon": -77.02412833333334, "name": "896aae00ec4081a9fe3836390feedda9"}, {"bike_id": "48801dc18f7cf9be75ea4a17845fbc45", "type": "electric_scooter", "is_disabled": 0, "lat": 38.906014166666665, "rental_uris": {"ios": "https://dc.lft.to/lastmile_qr_scan", "android": "https://dc.lft.to/lastmile_qr_scan"}, "is_reserved": 0, "fusion_lon": 0.0, "fusion_lat": 0.0, "lon": -76.992723, "name": "48801dc18f7cf9be75ea4a17845fbc45"}, {"bike_id": "5944807bd03031ee52d39034734720b0", "type": "electric_scooter", "is_disabled": 0, "lat": 38.88455716666667, "rental_uris": {"ios": "https://dc.lft.to/lastmile_qr_scan", "android": "https://dc.lft.to/lastmile_qr_scan"}, "is_reserved": 0, "fusion_lon": 0.0, "fusion_lat": 0.0, "lon": -76.957482, "name": "5944807bd03031ee52d39034734720b0"}, {"bike_id": "0d0e36a86770d6173417ca46a3cdaf85", "type": "electric_scooter", "is_disabled": 0, "lat": 38.89857383333333, "rental_uris": {"ios": "https://dc.lft.to/lastmile_qr_scan", "android": "https://dc.lft.to/lastmile_qr_scan"}, "is_reserved": 0, "fusion_lon": 0.0, "fusion_lat": 0.0, "lon": -77.0396805, "name": "0d0e36a86770d6173417ca46a3cdaf85"}, {"bike_id": "9f71d2811896b921d37de708543d6bbb", "type": "electric_scooter", "is_disabled": 0, "lat": 38.919508666666665, "rental_uris": {"ios": "https://dc.lft.to/lastmile_qr_scan", "android": "https://dc.lft.to/lastmile_qr_scan"}, "is_reserved": 0, "fusion_lon": 0.0, "fusion_lat": 0.0, "lon": -77.04488816666667, "name": "9f71d2811896b921d37de708543d6bbb"}, {"bike_id": "9bd77e2cc1b94f5b17bd465be007da3d", "type": "electric_scooter", "is_disabled": 0, "lat": 38.9061885, "rental_uris": {"ios": "https://dc.lft.to/lastmile_qr_scan", "android": "https://dc.lft.to/lastmile_qr_scan"}, "is_reserved": 0, "fusion_lon": 0.0, "fusion_lat": 0.0, "lon": -77.02463883333333, "name": "9bd77e2cc1b94f5b17bd465be007da3d"}, {"bike_id": "cf8f4f9aa027e2cf642a697bed871429", "type": "electric_bike", "is_disabled": 0, "lat": 38.85889, "rental_uris": {"ios": "https://dc.lft.to/lastmile_qr_scan", "android": "https://dc.lft.to/lastmile_qr_scan"}, "is_reserved": 0, "fusion_lon": 0.0, "fusion_lat": 0.0, "lon": -77.11862733333334, "name": "cf8f4f9aa027e2cf642a697bed871429"}, {"bike_id": "23a34f52de1bcda6d522b612a7010e53", "type": "electric_scooter", "is_disabled": 0, "lat": 38.9227555, "rental_uris": {"ios": "https://dc.lft.to/lastmile_qr_scan", "android": "https://dc.lft.to/lastmile_qr_scan"}, "is_reserved": 0, "fusion_lon": 0.0, "fusion_lat": 0.0, "lon": -77.0446175, "name": "23a34f52de1bcda6d522b612a7010e53"}, {"bike_id": "5dddfce81d19204283243d68ec1bfced", "type": "electric_scooter", "is_disabled": 0, "lat": 38.892314, "rental_uris": {"ios": "https://dc.lft.to/lastmile_qr_scan", "android": "https://dc.lft.to/lastmile_qr_scan"}, "is_reserved": 0, "fusion_lon": 0.0, "fusion_lat": 0.0, "lon": -77.05003366666666, "name": "5dddfce81d19204283243d68ec1bfced"}, {"bike_id": "d6b5d39e909ae671b1174c4592ff1e5d", "type": "electric_scooter", "is_disabled": 0, "lat": 38.887134, "rental_uris": {"ios": "https://dc.lft.to/lastmile_qr_scan", "android": "https://dc.lft.to/lastmile_qr_scan"}, "is_reserved": 0, "fusion_lon": 0.0, "fusion_lat": 0.0, "lon": -77.02208883333333, "name": "d6b5d39e909ae671b1174c4592ff1e5d"}, {"bike_id": "a02ed0beec6e9d4376b0c65f3ea5d1bf", "type": "electric_bike", "is_disabled": 0, "lat": 38.92258316666667, "rental_uris": {"ios": "https://dc.lft.to/lastmile_qr_scan", "android": "https://dc.lft.to/lastmile_qr_scan"}, "is_reserved": 0, "fusion_lon": 0.0, "fusion_lat": 0.0, "lon": -77.01945816666667, "name": "a02ed0beec6e9d4376b0c65f3ea5d1bf"}, {"bike_id": "cd24f6bd53c68e1ca5e464d1603c670b", "type": "electric_scooter", "is_disabled": 0, "lat": 38.891148, "rental_uris": {"ios": "https://dc.lft.to/lastmile_qr_scan", "android": "https://dc.lft.to/lastmile_qr_scan"}, "is_reserved": 0, "fusion_lon": 0.0, "fusion_lat": 0.0, "lon": -76.99157783333334, "name": "cd24f6bd53c68e1ca5e464d1603c670b"}, {"bike_id": "b442abb9c5c3613c68c1f2c23a9fcfe0", "type": "electric_scooter", "is_disabled": 0, "lat": 38.907407666666664, "rental_uris": {"ios": "https://dc.lft.to/lastmile_qr_scan", "android": "https://dc.lft.to/lastmile_qr_scan"}, "is_reserved": 0, "fusion_lon": 0.0, "fusion_lat": 0.0, "lon": -76.99914316666667, "name": "b442abb9c5c3613c68c1f2c23a9fcfe0"}, {"bike_id": "c9efc39e3c7cc038a87a8ff7d3ade67d", "type": "electric_scooter", "is_disabled": 0, "lat": 38.91890983333333, "rental_uris": {"ios": "https://dc.lft.to/lastmile_qr_scan", "android": "https://dc.lft.to/lastmile_qr_scan"}, "is_reserved": 0, "fusion_lon": 0.0, "fusion_lat": 0.0, "lon": -77.046198, "name": "c9efc39e3c7cc038a87a8ff7d3ade67d"}, {"bike_id": "d14e05e56aecea6c1ca3ee284f9d8ca8", "type": "electric_scooter", "is_disabled": 0, "lat": 38.939511833333334, "rental_uris": {"ios": "https://dc.lft.to/lastmile_qr_scan", "android": "https://dc.lft.to/lastmile_qr_scan"}, "is_reserved": 0, "fusion_lon": 0.0, "fusion_lat": 0.0, "lon": -77.07246733333334, "name": "d14e05e56aecea6c1ca3ee284f9d8ca8"}, {"bike_id": "a9c4c22db7e84b1e4f253e860194c5e8", "type": "electric_bike", "is_disabled": 0, "lat": 38.923544666666665, "rental_uris": {"ios": "https://dc.lft.to/lastmile_qr_scan", "android": "https://dc.lft.to/lastmile_qr_scan"}, "is_reserved": 0, "fusion_lon": 0.0, "fusion_lat": 0.0, "lon": -76.97139516666667, "name": "a9c4c22db7e84b1e4f253e860194c5e8"}, {"bike_id": "65ce54fff9c88109b45591bb786a1a29", "type": "electric_scooter", "is_disabled": 0, "lat": 38.9290015, "rental_uris": {"ios": "https://dc.lft.to/lastmile_qr_scan", "android": "https://dc.lft.to/lastmile_qr_scan"}, "is_reserved": 0, "fusion_lon": 0.0, "fusion_lat": 0.0, "lon": -77.02241716666667, "name": "65ce54fff9c88109b45591bb786a1a29"}, {"bike_id": "f697d561dec71d8959195d5e052b70fa", "type": "electric_scooter", "is_disabled": 0, "lat": 38.90100316666667, "rental_uris": {"ios": "https://dc.lft.to/lastmile_qr_scan", "android": "https://dc.lft.to/lastmile_qr_scan"}, "is_reserved": 0, "fusion_lon": 0.0, "fusion_lat": 0.0, "lon": -77.03842233333333, "name": "f697d561dec71d8959195d5e052b70fa"}, {"bike_id": "52e8b85929ec85997861285275cb11a3", "type": "electric_scooter", "is_disabled": 0, "lat": 38.90267716666666, "rental_uris": {"ios": "https://dc.lft.to/lastmile_qr_scan", "android": "https://dc.lft.to/lastmile_qr_scan"}, "is_reserved": 0, "fusion_lon": 0.0, "fusion_lat": 0.0, "lon": -77.039758, "name": "52e8b85929ec85997861285275cb11a3"}, {"bike_id": "bc46e7d67771bbc97190dfe1f2fee1e1", "type": "electric_scooter", "is_disabled": 0, "lat": 38.9047455, "rental_uris": {"ios": "https://dc.lft.to/lastmile_qr_scan", "android": "https://dc.lft.to/lastmile_qr_scan"}, "is_reserved": 0, "fusion_lon": 0.0, "fusion_lat": 0.0, "lon": -77.05353616666666, "name": "bc46e7d67771bbc97190dfe1f2fee1e1"}, {"bike_id": "5f01c1222152431a352d72f7f6139f48", "type": "electric_scooter", "is_disabled": 0, "lat": 38.88703016666667, "rental_uris": {"ios": "https://dc.lft.to/lastmile_qr_scan", "android": "https://dc.lft.to/lastmile_qr_scan"}, "is_reserved": 0, "fusion_lon": 0.0, "fusion_lat": 0.0, "lon": -77.02206016666666, "name": "5f01c1222152431a352d72f7f6139f48"}, {"bike_id": "810ede8df603c17095be290ceb72ddad", "type": "electric_scooter", "is_disabled": 0, "lat": 38.863659166666665, "rental_uris": {"ios": "https://dc.lft.to/lastmile_qr_scan", "android": "https://dc.lft.to/lastmile_qr_scan"}, "is_reserved": 0, "fusion_lon": 0.0, "fusion_lat": 0.0, "lon": -76.99061566666667, "name": "810ede8df603c17095be290ceb72ddad"}, {"bike_id": "02b5273bba03d4040139480c384d5493", "type": "electric_scooter", "is_disabled": 0, "lat": 38.91287633333334, "rental_uris": {"ios": "https://dc.lft.to/lastmile_qr_scan", "android": "https://dc.lft.to/lastmile_qr_scan"}, "is_reserved": 0, "fusion_lon": 0.0, "fusion_lat": 0.0, "lon": -77.01977066666667, "name": "02b5273bba03d4040139480c384d5493"}, {"bike_id": "e76a7b5d3f9ae88fae2976226fb27fba", "type": "electric_bike", "is_disabled": 0, "lat": 38.913155, "rental_uris": {"ios": "https://dc.lft.to/lastmile_qr_scan", "android": "https://dc.lft.to/lastmile_qr_scan"}, "is_reserved": 0, "fusion_lon": 0.0, "fusion_lat": 0.0, "lon": -77.22313983333333, "name": "e76a7b5d3f9ae88fae2976226fb27fba"}, {"bike_id": "3b318ecf05084f3c01704b48b2bdfc6c", "type": "electric_scooter", "is_disabled": 0, "lat": 38.903644666666665, "rental_uris": {"ios": "https://dc.lft.to/lastmile_qr_scan", "android": "https://dc.lft.to/lastmile_qr_scan"}, "is_reserved": 0, "fusion_lon": 0.0, "fusion_lat": 0.0, "lon": -77.01610616666666, "name": "3b318ecf05084f3c01704b48b2bdfc6c"}, {"bike_id": "84f59d7de0dc8291543ec2d44f52d2d4", "type": "electric_scooter", "is_disabled": 0, "lat": 38.90847983333333, "rental_uris": {"ios": "https://dc.lft.to/lastmile_qr_scan", "android": "https://dc.lft.to/lastmile_qr_scan"}, "is_reserved": 0, "fusion_lon": 0.0, "fusion_lat": 0.0, "lon": -76.99800966666666, "name": "84f59d7de0dc8291543ec2d44f52d2d4"}, {"bike_id": "2ac695d9d5bbd4df155ac7c4074d5da9", "type": "electric_scooter", "is_disabled": 0, "lat": 38.920103, "rental_uris": {"ios": "https://dc.lft.to/lastmile_qr_scan", "android": "https://dc.lft.to/lastmile_qr_scan"}, "is_reserved": 0, "fusion_lon": 0.0, "fusion_lat": 0.0, "lon": -77.031253, "name": "2ac695d9d5bbd4df155ac7c4074d5da9"}, {"bike_id": "09acf3b2c4c8d4a60f29bc6e63960a41", "type": "electric_scooter", "is_disabled": 0, "lat": 38.883701333333335, "rental_uris": {"ios": "https://dc.lft.to/lastmile_qr_scan", "android": "https://dc.lft.to/lastmile_qr_scan"}, "is_reserved": 0, "fusion_lon": 0.0, "fusion_lat": 0.0, "lon": -76.99519966666666, "name": "09acf3b2c4c8d4a60f29bc6e63960a41"}, {"bike_id": "f06aabfee9d2c72f9ed1fab1dcef0504", "type": "electric_scooter", "is_disabled": 0, "lat": 38.866854333333336, "rental_uris": {"ios": "https://dc.lft.to/lastmile_qr_scan", "android": "https://dc.lft.to/lastmile_qr_scan"}, "is_reserved": 0, "fusion_lon": 0.0, "fusion_lat": 0.0, "lon": -76.98562233333334, "name": "f06aabfee9d2c72f9ed1fab1dcef0504"}, {"bike_id": "13729b78e3ef919f83ac30ff61d87c5c", "type": "electric_scooter", "is_disabled": 0, "lat": 38.915355, "rental_uris": {"ios": "https://dc.lft.to/lastmile_qr_scan", "android": "https://dc.lft.to/lastmile_qr_scan"}, "is_reserved": 0, "fusion_lon": 0.0, "fusion_lat": 0.0, "lon": -77.03192533333333, "name": "13729b78e3ef919f83ac30ff61d87c5c"}, {"bike_id": "85e84c4ec99e13d65f1af53897d0841d", "type": "electric_scooter", "is_disabled": 0, "lat": 38.92198583333333, "rental_uris": {"ios": "https://dc.lft.to/lastmile_qr_scan", "android": "https://dc.lft.to/lastmile_qr_scan"}, "is_reserved": 0, "fusion_lon": 0.0, "fusion_lat": 0.0, "lon": -77.03897666666667, "name": "85e84c4ec99e13d65f1af53897d0841d"}, {"bike_id": "d9a1f11260e8544bad64675c69bff871", "type": "electric_scooter", "is_disabled": 0, "lat": 38.918591166666666, "rental_uris": {"ios": "https://dc.lft.to/lastmile_qr_scan", "android": "https://dc.lft.to/lastmile_qr_scan"}, "is_reserved": 0, "fusion_lon": 0.0, "fusion_lat": 0.0, "lon": -77.04040083333334, "name": "d9a1f11260e8544bad64675c69bff871"}, {"bike_id": "0d405581febfefa1e4c3dff4b3645455", "type": "electric_bike", "is_disabled": 0, "lat": 38.85435616666667, "rental_uris": {"ios": "https://dc.lft.to/lastmile_qr_scan", "android": "https://dc.lft.to/lastmile_qr_scan"}, "is_reserved": 0, "fusion_lon": 0.0, "fusion_lat": 0.0, "lon": -77.08307533333333, "name": "0d405581febfefa1e4c3dff4b3645455"}, {"bike_id": "f79307119a8d14140eed4e64cea74b3d", "type": "electric_scooter", "is_disabled": 0, "lat": 38.913241166666666, "rental_uris": {"ios": "https://dc.lft.to/lastmile_qr_scan", "android": "https://dc.lft.to/lastmile_qr_scan"}, "is_reserved": 0, "fusion_lon": 0.0, "fusion_lat": 0.0, "lon": -77.0453575, "name": "f79307119a8d14140eed4e64cea74b3d"}, {"bike_id": "bdaf4062e68eac1adfd49c79accd019e", "type": "electric_scooter", "is_disabled": 0, "lat": 38.874507, "rental_uris": {"ios": "https://dc.lft.to/lastmile_qr_scan", "android": "https://dc.lft.to/lastmile_qr_scan"}, "is_reserved": 0, "fusion_lon": 0.0, "fusion_lat": 0.0, "lon": -77.0052035, "name": "bdaf4062e68eac1adfd49c79accd019e"}, {"bike_id": "98536fe53b5695040c6167de8c130388", "type": "electric_scooter", "is_disabled": 0, "lat": 38.905000333333334, "rental_uris": {"ios": "https://dc.lft.to/lastmile_qr_scan", "android": "https://dc.lft.to/lastmile_qr_scan"}, "is_reserved": 0, "fusion_lon": 0.0, "fusion_lat": 0.0, "lon": -77.06020633333333, "name": "98536fe53b5695040c6167de8c130388"}, {"bike_id": "edbf3b3a67a95cd8e32fb00825a3f636", "type": "electric_scooter", "is_disabled": 0, "lat": 38.92857266666667, "rental_uris": {"ios": "https://dc.lft.to/lastmile_qr_scan", "android": "https://dc.lft.to/lastmile_qr_scan"}, "is_reserved": 0, "fusion_lon": 0.0, "fusion_lat": 0.0, "lon": -77.021759, "name": "edbf3b3a67a95cd8e32fb00825a3f636"}, {"bike_id": "57db032a0c0f373c2bcb180e8e35d179", "type": "electric_scooter", "is_disabled": 0, "lat": 38.93682733333333, "rental_uris": {"ios": "https://dc.lft.to/lastmile_qr_scan", "android": "https://dc.lft.to/lastmile_qr_scan"}, "is_reserved": 0, "fusion_lon": 0.0, "fusion_lat": 0.0, "lon": -77.0328115, "name": "57db032a0c0f373c2bcb180e8e35d179"}, {"bike_id": "9df6391f038a24cbe93fda8e4211ea9a", "type": "electric_scooter", "is_disabled": 0, "lat": 38.92787233333333, "rental_uris": {"ios": "https://dc.lft.to/lastmile_qr_scan", "android": "https://dc.lft.to/lastmile_qr_scan"}, "is_reserved": 0, "fusion_lon": 0.0, "fusion_lat": 0.0, "lon": -77.02207566666667, "name": "9df6391f038a24cbe93fda8e4211ea9a"}, {"bike_id": "344450d959f581ba1d3e409e8ab004e1", "type": "electric_bike", "is_disabled": 0, "lat": 38.87881183333333, "rental_uris": {"ios": "https://dc.lft.to/lastmile_qr_scan", "android": "https://dc.lft.to/lastmile_qr_scan"},