{"data": {"bikes": [{"bike_id": "4cbfba871d1513d0b6063b40a53976a3", "is_reserved": 0, "name": "4cbfba871d1513d0b6063b40a53976a3", "lat": 38.9155565, "fusion_lat": 0.0, "lon": -77.02048216666667, "is_disabled": 0, "fusion_lon": 0.0, "rental_uris": {"android": "https://dc.lft.to/lastmile_qr_scan", "ios": "https://dc.lft.to/lastmile_qr_scan"}, "type": "electric_scooter"}, {"bike_id": "007e61a9b9526082218b0584efa0c279", "is_reserved": 0, "name": "007e61a9b9526082218b0584efa0c279", "lat": 38.91706683333334, "fusion_lat": 0.0, "lon": -77.02582, "is_disabled": 0, "fusion_lon": 0.0, "rental_uris": {"android": "https://dc.lft.to/lastmile_qr_scan", "ios": "https://dc.lft.to/lastmile_qr_scan"}, "type": "electric_scooter"}, {"bike_id": "d488275862deedf03608f8e0e93d3b2b", "is_reserved": 0, "name": "d488275862deedf03608f8e0e93d3b2b", "lat": 38.91420083333333, "fusion_lat": 0.0, "lon": -77.02098266666667, "is_disabled": 0, "fusion_lon": 0.0, "rental_uris": {"android": "https://dc.lft.to/lastmile_qr_scan", "ios": "https://dc.lft.to/lastmile_qr_scan"}, "type": "electric_scooter"}, {"bike_id": "ae7996e731f861a37c289657fd86be97", "is_reserved": 0, "name": "ae7996e731f861a37c289657fd86be97", "lat": 38.874222333333336, "fusion_lat": 0.0, "lon": -76.97178983333333, "is_disabled": 0, "fusion_lon": 0.0, "rental_uris": {"android": "https://dc.lft.to/lastmile_qr_scan", "ios": "https://dc.lft.to/lastmile_qr_scan"}, "type": "electric_scooter"}, {"bike_id": "210b6ced1c432147af05a36273df0cf4", "is_reserved": 0, "name": "210b6ced1c432147af05a36273df0cf4", "lat": 38.90405883333333, "fusion_lat": 0.0, "lon": -77.03651566666667, "is_disabled": 0, "fusion_lon": 0.0, "rental_uris": {"android": "https://dc.lft.to/lastmile_qr_scan", "ios": "https://dc.lft.to/lastmile_qr_scan"}, "type": "electric_scooter"}, {"bike_id": "f3df06514b61fa25a9561c705f790ccc", "is_reserved": 0, "name": "f3df06514b61fa25a9561c705f790ccc", "lat": 38.89851016666667, "fusion_lat": 0.0, "lon": -77.0221425, "is_disabled": 0, "fusion_lon": 0.0, "rental_uris": {"android": "https://dc.lft.to/lastmile_qr_scan", "ios": "https://dc.lft.to/lastmile_qr_scan"}, "type": "electric_scooter"}, {"bike_id": "c60f464ab99951629535ecdb340a8915", "is_reserved": 0, "name": "c60f464ab99951629535ecdb340a8915", "lat": 38.87263316666667, "fusion_lat": 0.0, "lon": -77.00569, "is_disabled": 0, "fusion_lon": 0.0, "rental_uris": {"android": "https://dc.lft.to/lastmile_qr_scan", "ios": "https://dc.lft.to/lastmile_qr_scan"}, "type": "electric_scooter"}, {"bike_id": "6e504f391c0bf4ba7d925f915c7cc12c", "is_reserved": 0, "name": "6e504f391c0bf4ba7d925f915c7cc12c", "lat": 38.90281483333333, "fusion_lat": 0.0, "lon": -77.02385216666667, "is_disabled": 0, "fusion_lon": 0.0, "rental_uris": {"android": "https://dc.lft.to/lastmile_qr_scan", "ios": "https://dc.lft.to/lastmile_qr_scan"}, "type": "electric_scooter"}, {"bike_id": "8d603d9a77b768fad7ceb9add6ee4bdf", "is_reserved": 0, "name": "8d603d9a77b768fad7ceb9add6ee4bdf", "lat": 38.91555783333333, "fusion_lat": 0.0, "lon": -77.00582283333334, "is_disabled": 0, "fusion_lon": 0.0, "rental_uris": {"android": "https://dc.lft.to/lastmile_qr_scan", "ios": "https://dc.lft.to/lastmile_qr_scan"}, "type": "electric_scooter"}, {"bike_id": "d741f6c4bc228e85a4af906b272621d7", "is_reserved": 0, "name": "d741f6c4bc228e85a4af906b272621d7", "lat": 38.909656, "fusion_lat": 0.0, "lon": -77.04846016666667, "is_disabled": 0, "fusion_lon": 0.0, "rental_uris": {"android": "https://dc.lft.to/lastmile_qr_scan", "ios": "https://dc.lft.to/lastmile_qr_scan"}, "type": "electric_scooter"}, {"bike_id": "3b0476756f2be96bdbeafaa7dad93c2a", "is_reserved": 0, "name": "3b0476756f2be96bdbeafaa7dad93c2a", "lat": 38.919548166666665, "fusion_lat": 0.0, "lon": -77.04536433333334, "is_disabled": 0, "fusion_lon": 0.0, "rental_uris": {"android": "https://dc.lft.to/lastmile_qr_scan", "ios": "https://dc.lft.to/lastmile_qr_scan"}, "type": "electric_scooter"}, {"bike_id": "27b10bceab135bf2e9caa3d3a460d358", "is_reserved": 0, "name": "27b10bceab135bf2e9caa3d3a460d358", "lat": 38.9097615, "fusion_lat": 0.0, "lon": -77.02175616666666, "is_disabled": 0, "fusion_lon": 0.0, "rental_uris": {"android": "https://dc.lft.to/lastmile_qr_scan", "ios": "https://dc.lft.to/lastmile_qr_scan"}, "type": "electric_scooter"}, {"bike_id": "8e0f59853d9718c181d0950ca8861037", "is_reserved": 0, "name": "8e0f59853d9718c181d0950ca8861037", "lat": 38.9073825, "fusion_lat": 0.0, "lon": -77.0280235, "is_disabled": 0, "fusion_lon": 0.0, "rental_uris": {"android": "https://dc.lft.to/lastmile_qr_scan", "ios": "https://dc.lft.to/lastmile_qr_scan"}, "type": "electric_scooter"}, {"bike_id": "8ac0916bea48dca3795cdeb854a23697", "is_reserved": 0, "name": "8ac0916bea48dca3795cdeb854a23697", "lat": 38.914036, "fusion_lat": 0.0, "lon": -77.03161316666667, "is_disabled": 0, "fusion_lon": 0.0, "rental_uris": {"android": "https://dc.lft.to/lastmile_qr_scan", "ios": "https://dc.lft.to/lastmile_qr_scan"}, "type": "electric_scooter"}, {"bike_id": "1da0a6f9986b8590ee047c9df4467201", "is_reserved": 0, "name": "1da0a6f9986b8590ee047c9df4467201", "lat": 38.92336383333333, "fusion_lat": 0.0, "lon": -77.04153766666667, "is_disabled": 0, "fusion_lon": 0.0, "rental_uris": {"android": "https://dc.lft.to/lastmile_qr_scan", "ios": "https://dc.lft.to/lastmile_qr_scan"}, "type": "electric_scooter"}, {"bike_id": "28c3d54c6e3d8f669386afc29b9392f7", "is_reserved": 0, "name": "28c3d54c6e3d8f669386afc29b9392f7", "lat": 38.917107, "fusion_lat": 0.0, "lon": -77.02438983333333, "is_disabled": 0, "fusion_lon": 0.0, "rental_uris": {"android": "https://dc.lft.to/lastmile_qr_scan", "ios": "https://dc.lft.to/lastmile_qr_scan"}, "type": "electric_scooter"}, {"bike_id": "89b1f33a9b253e0065863dc5e3607db4", "is_reserved": 0, "name": "89b1f33a9b253e0065863dc5e3607db4", "lat": 38.904013, "fusion_lat": 0.0, "lon": -77.00193516666667, "is_disabled": 0, "fusion_lon": 0.0, "rental_uris": {"android": "https://dc.lft.to/lastmile_qr_scan", "ios": "https://dc.lft.to/lastmile_qr_scan"}, "type": "electric_scooter"}, {"bike_id": "9eff54ebdea7b90713c8151b1e9aeb91", "is_reserved": 0, "name": "9eff54ebdea7b90713c8151b1e9aeb91", "lat": 38.941175333333334, "fusion_lat": 0.0, "lon": -77.0003955, "is_disabled": 0, "fusion_lon": 0.0, "rental_uris": {"android": "https://dc.lft.to/lastmile_qr_scan", "ios": "https://dc.lft.to/lastmile_qr_scan"}, "type": "electric_scooter"}, {"bike_id": "bafc621f8b12ed9d8ece5886ded1254b", "is_reserved": 0, "name": "bafc621f8b12ed9d8ece5886ded1254b", "lat": 38.94497583333333, "fusion_lat": 0.0, "lon": -77.00679266666667, "is_disabled": 0, "fusion_lon": 0.0, "rental_uris": {"android": "https://dc.lft.to/lastmile_qr_scan", "ios": "https://dc.lft.to/lastmile_qr_scan"}, "type": "electric_bike"}, {"bike_id": "a72cffea55db201d6836f2c6c58b56f2", "is_reserved": 0, "name": "a72cffea55db201d6836f2c6c58b56f2", "lat": 38.881373833333335, "fusion_lat": 0.0, "lon": -76.996206, "is_disabled": 0, "fusion_lon": 0.0, "rental_uris": {"android": "https://dc.lft.to/lastmile_qr_scan", "ios": "https://dc.lft.to/lastmile_qr_scan"}, "type": "electric_scooter"}, {"bike_id": "e4b27fe4e826058ba0e38bad910ec496", "is_reserved": 0, "name": "e4b27fe4e826058ba0e38bad910ec496", "lat": 38.91799183333333, "fusion_lat": 0.0, "lon": -77.041667, "is_disabled": 0, "fusion_lon": 0.0, "rental_uris": {"android": "https://dc.lft.to/lastmile_qr_scan", "ios": "https://dc.lft.to/lastmile_qr_scan"}, "type": "electric_scooter"}, {"bike_id": "95c08330fdd594b3bb36810fc80c92dc", "is_reserved": 0, "name": "95c08330fdd594b3bb36810fc80c92dc", "lat": 38.862491166666665, "fusion_lat": 0.0, "lon": -76.99487533333334, "is_disabled": 0, "fusion_lon": 0.0, "rental_uris": {"android": "https://dc.lft.to/lastmile_qr_scan", "ios": "https://dc.lft.to/lastmile_qr_scan"}, "type": "electric_scooter"}, {"bike_id": "3c6ae63f905df98dc06f74f9a3efd91d", "is_reserved": 0, "name": "3c6ae63f905df98dc06f74f9a3efd91d", "lat": 38.90775466666667, "fusion_lat": 0.0, "lon": -76.99709216666666, "is_disabled": 0, "fusion_lon": 0.0, "rental_uris": {"android": "https://dc.lft.to/lastmile_qr_scan", "ios": "https://dc.lft.to/lastmile_qr_scan"}, "type": "electric_scooter"}, {"bike_id": "7fe1f6064d541081a93b38c32f550ee5", "is_reserved": 0, "name": "7fe1f6064d541081a93b38c32f550ee5", "lat": 38.883361666666666, "fusion_lat": 0.0, "lon": -76.925282, "is_disabled": 0, "fusion_lon": 0.0, "rental_uris": {"android": "https://dc.lft.to/lastmile_qr_scan", "ios": "https://dc.lft.to/lastmile_qr_scan"}, "type": "electric_scooter"}, {"bike_id": "6d03fdd218d67afe5f0c8e7da34728e0", "is_reserved": 0, "name": "6d03fdd218d67afe5f0c8e7da34728e0", "lat": 38.90509083333333, "fusion_lat": 0.0, "lon": -77.06546866666666, "is_disabled": 0, "fusion_lon": 0.0, "rental_uris": {"android": "https://dc.lft.to/lastmile_qr_scan", "ios": "https://dc.lft.to/lastmile_qr_scan"}, "type": "electric_scooter"}, {"bike_id": "9b8b3c216c404f6cbaff185ffe878c7a", "is_reserved": 0, "name": "9b8b3c216c404f6cbaff185ffe878c7a", "lat": 38.919956166666665, "fusion_lat": 0.0, "lon": -77.04753316666667, "is_disabled": 0, "fusion_lon": 0.0, "rental_uris": {"android": "https://dc.lft.to/lastmile_qr_scan", "ios": "https://dc.lft.to/lastmile_qr_scan"}, "type": "electric_scooter"}, {"bike_id": "7ef2b7c9ed8062bf6049c6ea7b546638", "is_reserved": 0, "name": "7ef2b7c9ed8062bf6049c6ea7b546638", "lat": 38.91978833333334, "fusion_lat": 0.0, "lon": -77.02585633333334, "is_disabled": 0, "fusion_lon": 0.0, "rental_uris": {"android": "https://dc.lft.to/lastmile_qr_scan", "ios": "https://dc.lft.to/lastmile_qr_scan"}, "type": "electric_scooter"}, {"bike_id": "6217f6a8104ed65fd14a43642d055653", "is_reserved": 0, "name": "6217f6a8104ed65fd14a43642d055653", "lat": 38.95628466666667, "fusion_lat": 0.0, "lon": -76.93894966666667, "is_disabled": 0, "fusion_lon": 0.0, "rental_uris": {"android": "https://dc.lft.to/lastmile_qr_scan", "ios": "https://dc.lft.to/lastmile_qr_scan"}, "type": "electric_bike"}, {"bike_id": "ce3d68c4cf6fcd6dad2da31953acde41", "is_reserved": 0, "name": "ce3d68c4cf6fcd6dad2da31953acde41", "lat": 38.9111495, "fusion_lat": 0.0, "lon": -76.99762, "is_disabled": 0, "fusion_lon": 0.0, "rental_uris": {"android": "https://dc.lft.to/lastmile_qr_scan", "ios": "https://dc.lft.to/lastmile_qr_scan"}, "type": "electric_scooter"}, {"bike_id": "66669eebbb3215f827f35aa2a737dd7a", "is_reserved": 0, "name": "66669eebbb3215f827f35aa2a737dd7a", "lat": 38.8982905, "fusion_lat": 0.0, "lon": -77.025767, "is_disabled": 0, "fusion_lon": 0.0, "rental_uris": {"android": "https://dc.lft.to/lastmile_qr_scan", "ios": "https://dc.lft.to/lastmile_qr_scan"}, "type": "electric_scooter"}, {"bike_id": "483fa261f291a42fbdfadb1f2734aa38", "is_reserved": 0, "name": "483fa261f291a42fbdfadb1f2734aa38", "lat": 38.91108416666667, "fusion_lat": 0.0, "lon": -76.99748683333334, "is_disabled": 0, "fusion_lon": 0.0, "rental_uris": {"android": "https://dc.lft.to/lastmile_qr_scan", "ios": "https://dc.lft.to/lastmile_qr_scan"}, "type": "electric_scooter"}, {"bike_id": "856d0796a8abfd6e6bbe5837097c5196", "is_reserved": 0, "name": "856d0796a8abfd6e6bbe5837097c5196", "lat": 38.884988, "fusion_lat": 0.0, "lon": -77.0297035, "is_disabled": 0, "fusion_lon": 0.0, "rental_uris": {"android": "https://dc.lft.to/lastmile_qr_scan", "ios": "https://dc.lft.to/lastmile_qr_scan"}, "type": "electric_scooter"}, {"bike_id": "7abf20f5ac9585ebad24b4078f1ea4a0", "is_reserved": 0, "name": "7abf20f5ac9585ebad24b4078f1ea4a0", "lat": 38.908539, "fusion_lat": 0.0, "lon": -77.043622, "is_disabled": 0, "fusion_lon": 0.0, "rental_uris": {"android": "https://dc.lft.to/lastmile_qr_scan", "ios": "https://dc.lft.to/lastmile_qr_scan"}, "type": "electric_scooter"}, {"bike_id": "c783ca587d5715abd9ad55e728fb02b7", "is_reserved": 0, "name": "c783ca587d5715abd9ad55e728fb02b7", "lat": 38.87180866666667, "fusion_lat": 0.0, "lon": -77.00570316666666, "is_disabled": 0, "fusion_lon": 0.0, "rental_uris": {"android": "https://dc.lft.to/lastmile_qr_scan", "ios": "https://dc.lft.to/lastmile_qr_scan"}, "type": "electric_scooter"}, {"bike_id": "48b60629795ba56b3a23daa0286d4ad8", "is_reserved": 0, "name": "48b60629795ba56b3a23daa0286d4ad8", "lat": 38.872093666666665, "fusion_lat": 0.0, "lon": -77.0133495, "is_disabled": 0, "fusion_lon": 0.0, "rental_uris": {"android": "https://dc.lft.to/lastmile_qr_scan", "ios": "https://dc.lft.to/lastmile_qr_scan"}, "type": "electric_bike"}, {"bike_id": "609c7840ef124fa6509f2fbd4ec96df0", "is_reserved": 0, "name": "609c7840ef124fa6509f2fbd4ec96df0", "lat": 38.901805, "fusion_lat": 0.0, "lon": -76.93471433333333, "is_disabled": 0, "fusion_lon": 0.0, "rental_uris": {"android": "https://dc.lft.to/lastmile_qr_scan", "ios": "https://dc.lft.to/lastmile_qr_scan"}, "type": "electric_scooter"}, {"bike_id": "7c70747e84c3d582377323362abe30bc", "is_reserved": 0, "name": "7c70747e84c3d582377323362abe30bc", "lat": 38.90242883333333, "fusion_lat": 0.0, "lon": -77.03418366666666, "is_disabled": 0, "fusion_lon": 0.0, "rental_uris": {"android": "https://dc.lft.to/lastmile_qr_scan", "ios": "https://dc.lft.to/lastmile_qr_scan"}, "type": "electric_scooter"}, {"bike_id": "72573baa992036658ac5c148b72a9fda", "is_reserved": 0, "name": "72573baa992036658ac5c148b72a9fda", "lat": 38.9432935, "fusion_lat": 0.0, "lon": -77.01474633333333, "is_disabled": 0, "fusion_lon": 0.0, "rental_uris": {"android": "https://dc.lft.to/lastmile_qr_scan", "ios": "https://dc.lft.to/lastmile_qr_scan"}, "type": "electric_scooter"}, {"bike_id": "43b31cfb0a13632c7352eefe1990d9fe", "is_reserved": 0, "name": "43b31cfb0a13632c7352eefe1990d9fe", "lat": 38.9279145, "fusion_lat": 0.0, "lon": -77.015568, "is_disabled": 0, "fusion_lon": 0.0, "rental_uris": {"android": "https://dc.lft.to/lastmile_qr_scan", "ios": "https://dc.lft.to/lastmile_qr_scan"}, "type": "electric_scooter"}, {"bike_id": "2d74eb682ddae043ad24c064bd5f4d6a", "is_reserved": 0, "name": "2d74eb682ddae043ad24c064bd5f4d6a", "lat": 38.914837, "fusion_lat": 0.0, "lon": -77.04604116666667, "is_disabled": 0, "fusion_lon": 0.0, "rental_uris": {"android": "https://dc.lft.to/lastmile_qr_scan", "ios": "https://dc.lft.to/lastmile_qr_scan"}, "type": "electric_scooter"}, {"bike_id": "444c7aa3218dd77398962d2efb9a49a0", "is_reserved": 0, "name": "444c7aa3218dd77398962d2efb9a49a0", "lat": 38.905187833333336, "fusion_lat": 0.0, "lon": -77.06462633333334, "is_disabled": 0, "fusion_lon": 0.0, "rental_uris": {"android": "https://dc.lft.to/lastmile_qr_scan", "ios": "https://dc.lft.to/lastmile_qr_scan"}, "type": "electric_scooter"}, {"bike_id": "6bc96e6b5ffb75b7c331c2afe7bd051c", "is_reserved": 0, "name": "6bc96e6b5ffb75b7c331c2afe7bd051c", "lat": 38.911998833333335, "fusion_lat": 0.0, "lon": -77.0117955, "is_disabled": 0, "fusion_lon": 0.0, "rental_uris": {"android": "https://dc.lft.to/lastmile_qr_scan", "ios": "https://dc.lft.to/lastmile_qr_scan"}, "type": "electric_scooter"}, {"bike_id": "857794abd261b4be530ca1c264f4f62e", "is_reserved": 0, "name": "857794abd261b4be530ca1c264f4f62e", "lat": 38.90791883333333, "fusion_lat": 0.0, "lon": -77.04232183333333, "is_disabled": 0, "fusion_lon": 0.0, "rental_uris": {"android": "https://dc.lft.to/lastmile_qr_scan", "ios": "https://dc.lft.to/lastmile_qr_scan"}, "type": "electric_scooter"}, {"bike_id": "427ffaecfcb993a86bad3c2ae052dbe8", "is_reserved": 0, "name": "427ffaecfcb993a86bad3c2ae052dbe8", "lat": 38.860149166666666, "fusion_lat": 0.0, "lon": -76.967031, "is_disabled": 0, "fusion_lon": 0.0, "rental_uris": {"android": "https://dc.lft.to/lastmile_qr_scan", "ios": "https://dc.lft.to/lastmile_qr_scan"}, "type": "electric_scooter"}, {"bike_id": "241fade78d598a92251a69612f83e189", "is_reserved": 0, "name": "241fade78d598a92251a69612f83e189", "lat": 38.9258555, "fusion_lat": 0.0, "lon": -77.0323165, "is_disabled": 0, "fusion_lon": 0.0, "rental_uris": {"android": "https://dc.lft.to/lastmile_qr_scan", "ios": "https://dc.lft.to/lastmile_qr_scan"}, "type": "electric_scooter"}, {"bike_id": "fb971daac4d4ddafb26b817eca3b2d92", "is_reserved": 0, "name": "fb971daac4d4ddafb26b817eca3b2d92", "lat": 38.911071, "fusion_lat": 0.0, "lon": -77.02101416666666, "is_disabled": 0, "fusion_lon": 0.0, "rental_uris": {"android": "https://dc.lft.to/lastmile_qr_scan", "ios": "https://dc.lft.to/lastmile_qr_scan"}, "type": "electric_scooter"}, {"bike_id": "1e364e106036957a6877419f820b891d", "is_reserved": 0, "name": "1e364e106036957a6877419f820b891d", "lat": 38.923417, "fusion_lat": 0.0, "lon": -77.05212116666667, "is_disabled": 0, "fusion_lon": 0.0, "rental_uris": {"android": "https://dc.lft.to/lastmile_qr_scan", "ios": "https://dc.lft.to/lastmile_qr_scan"}, "type": "electric_scooter"}, {"bike_id": "829b483ec38d11b8025f34ec869cb966", "is_reserved": 0, "name": "829b483ec38d11b8025f34ec869cb966", "lat": 38.89220383333333, "fusion_lat": 0.0, "lon": -77.04322783333333, "is_disabled": 0, "fusion_lon": 0.0, "rental_uris": {"android": "https://dc.lft.to/lastmile_qr_scan", "ios": "https://dc.lft.to/lastmile_qr_scan"}, "type": "electric_scooter"}, {"bike_id": "074701d37c180bb310b862335c2c81e3", "is_reserved": 0, "name": "074701d37c180bb310b862335c2c81e3", "lat": 38.916527333333335, "fusion_lat": 0.0, "lon": -77.04175783333334, "is_disabled": 0, "fusion_lon": 0.0, "rental_uris": {"android": "https://dc.lft.to/lastmile_qr_scan", "ios": "https://dc.lft.to/lastmile_qr_scan"}, "type": "electric_scooter"}, {"bike_id": "3bd328ab9a8d9c6f8c424b48f94c5699", "is_reserved": 0, "name": "3bd328ab9a8d9c6f8c424b48f94c5699", "lat": 38.92641233333333, "fusion_lat": 0.0, "lon": -77.0370235, "is_disabled": 0, "fusion_lon": 0.0, "rental_uris": {"android": "https://dc.lft.to/lastmile_qr_scan", "ios": "https://dc.lft.to/lastmile_qr_scan"}, "type": "electric_scooter"}, {"bike_id": "2c463132eeec17cafa7d44dd8e4869ba", "is_reserved": 0, "name": "2c463132eeec17cafa7d44dd8e4869ba", "lat": 38.91798716666667, "fusion_lat": 0.0, "lon": -77.03180183333333, "is_disabled": 0, "fusion_lon": 0.0, "rental_uris": {"android": "https://dc.lft.to/lastmile_qr_scan", "ios": "https://dc.lft.to/lastmile_qr_scan"}, "type": "electric_scooter"}, {"bike_id": "aa1821192a7a31323624b6e0ec587dbe", "is_reserved": 0, "name": "aa1821192a7a31323624b6e0ec587dbe", "lat": 38.92315416666667, "fusion_lat": 0.0, "lon": -77.04046733333334, "is_disabled": 0, "fusion_lon": 0.0, "rental_uris": {"android": "https://dc.lft.to/lastmile_qr_scan", "ios": "https://dc.lft.to/lastmile_qr_scan"}, "type": "electric_scooter"}, {"bike_id": "0a6519fb7e5b64dc41e5a9d18de4d731", "is_reserved": 0, "name": "0a6519fb7e5b64dc41e5a9d18de4d731", "lat": 38.89424116666667, "fusion_lat": 0.0, "lon": -77.02160433333333, "is_disabled": 0, "fusion_lon": 0.0, "rental_uris": {"android": "https://dc.lft.to/lastmile_qr_scan", "ios": "https://dc.lft.to/lastmile_qr_scan"}, "type": "electric_scooter"}, {"bike_id": "ca23b8235ffd655e7bf096f1ce2b2088", "is_reserved": 0, "name": "ca23b8235ffd655e7bf096f1ce2b2088", "lat": 38.927268, "fusion_lat": 0.0, "lon": -77.0226885, "is_disabled": 0, "fusion_lon": 0.0, "rental_uris": {"android": "https://dc.lft.to/lastmile_qr_scan", "ios": "https://dc.lft.to/lastmile_qr_scan"}, "type": "electric_scooter"}, {"bike_id": "ed130561b6b9d8ee9d08e0ce15a11d8b", "is_reserved": 0, "name": "ed130561b6b9d8ee9d08e0ce15a11d8b", "lat": 38.901029666666666, "fusion_lat": 0.0, "lon": -76.93050766666667, "is_disabled": 0, "fusion_lon": 0.0, "rental_uris": {"android": "https://dc.lft.to/lastmile_qr_scan", "ios": "https://dc.lft.to/lastmile_qr_scan"}, "type": "electric_scooter"}, {"bike_id": "be5a643474a295b956f5e2333de9ae5e", "is_reserved": 0, "name": "be5a643474a295b956f5e2333de9ae5e", "lat": 38.862649166666664, "fusion_lat": 0.0, "lon": -76.98349016666667, "is_disabled": 0, "fusion_lon": 0.0, "rental_uris": {"android": "https://dc.lft.to/lastmile_qr_scan", "ios": "https://dc.lft.to/lastmile_qr_scan"}, "type": "electric_bike"}, {"bike_id": "2b8314bc7b500ff6f1e8839ac5af0724", "is_reserved": 0, "name": "2b8314bc7b500ff6f1e8839ac5af0724", "lat": 38.900972333333335, "fusion_lat": 0.0, "lon": -77.05690166666666, "is_disabled": 0, "fusion_lon": 0.0, "rental_uris": {"android": "https://dc.lft.to/lastmile_qr_scan", "ios": "https://dc.lft.to/lastmile_qr_scan"}, "type": "electric_scooter"}, {"bike_id": "11b639f42dc7630a3e8475450b3691c5", "is_reserved": 0, "name": "11b639f42dc7630a3e8475450b3691c5", "lat": 38.907385833333336, "fusion_lat": 0.0, "lon": -77.0294505, "is_disabled": 0, "fusion_lon": 0.0, "rental_uris": {"android": "https://dc.lft.to/lastmile_qr_scan", "ios": "https://dc.lft.to/lastmile_qr_scan"}, "type": "electric_scooter"}, {"bike_id": "0a4a0b60250bfaa80f44f890a52fc57d", "is_reserved": 0, "name": "0a4a0b60250bfaa80f44f890a52fc57d", "lat": 38.910521833333334, "fusion_lat": 0.0, "lon": -77.04292233333334, "is_disabled": 0, "fusion_lon": 0.0, "rental_uris": {"android": "https://dc.lft.to/lastmile_qr_scan", "ios": "https://dc.lft.to/lastmile_qr_scan"}, "type": "electric_scooter"}, {"bike_id": "5716380d1507f854b8bdc2a692eb3b00", "is_reserved": 0, "name": "5716380d1507f854b8bdc2a692eb3b00", "lat": 38.905652833333335, "fusion_lat": 0.0, "lon": -76.981422, "is_disabled": 0, "fusion_lon": 0.0, "rental_uris": {"android": "https://dc.lft.to/lastmile_qr_scan", "ios": "https://dc.lft.to/lastmile_qr_scan"}, "type": "electric_scooter"}, {"bike_id": "ecf8be01d1a4c631fefdd199f25428a5", "is_reserved": 0, "name": "ecf8be01d1a4c631fefdd199f25428a5", "lat": 38.902021833333336, "fusion_lat": 0.0, "lon": -77.02370833333333, "is_disabled": 0, "fusion_lon": 0.0, "rental_uris": {"android": "https://dc.lft.to/lastmile_qr_scan", "ios": "https://dc.lft.to/lastmile_qr_scan"}, "type": "electric_scooter"}, {"bike_id": "e991620e7ae61c6141596d2e6a5850a5", "is_reserved": 0, "name": "e991620e7ae61c6141596d2e6a5850a5", "lat": 38.90975666666667, "fusion_lat": 0.0, "lon": -77.03431166666667, "is_disabled": 0, "fusion_lon": 0.0, "rental_uris": {"android": "https://dc.lft.to/lastmile_qr_scan", "ios": "https://dc.lft.to/lastmile_qr_scan"}, "type": "electric_scooter"}, {"bike_id": "97cd91361508d34bfac4240b81c8674c", "is_reserved": 0, "name": "97cd91361508d34bfac4240b81c8674c", "lat": 38.87836, "fusion_lat": 0.0, "lon": -76.98350416666666, "is_disabled": 0, "fusion_lon": 0.0, "rental_uris": {"android": "https://dc.lft.to/lastmile_qr_scan", "ios": "https://dc.lft.to/lastmile_qr_scan"}, "type": "electric_bike"}, {"bike_id": "66c11e96971662c58307d32d4c38152a", "is_reserved": 0, "name": "66c11e96971662c58307d32d4c38152a", "lat": 38.92479133333333, "fusion_lat": 0.0, "lon": -77.23353916666667, "is_disabled": 0, "fusion_lon": 0.0, "rental_uris": {"android": "https://dc.lft.to/lastmile_qr_scan", "ios": "https://dc.lft.to/lastmile_qr_scan"}, "type": "electric_bike"}, {"bike_id": "044d680b1a7988469e2e80dff1c12711", "is_reserved": 0, "name": "044d680b1a7988469e2e80dff1c12711", "lat": 38.9305905, "fusion_lat": 0.0, "lon": -77.0232105, "is_disabled": 0, "fusion_lon": 0.0, "rental_uris": {"android": "https://dc.lft.to/lastmile_qr_scan", "ios": "https://dc.lft.to/lastmile_qr_scan"}, "type": "electric_scooter"}, {"bike_id": "0156423be3645deab4e1baf035bbed97", "is_reserved": 0, "name": "0156423be3645deab4e1baf035bbed97", "lat": 38.9276455, "fusion_lat": 0.0, "lon": -76.97343833333333, "is_disabled": 0, "fusion_lon": 0.0, "rental_uris": {"android": "https://dc.lft.to/lastmile_qr_scan", "ios": "https://dc.lft.to/lastmile_qr_scan"}, "type": "electric_scooter"}, {"bike_id": "45854df8f137167eab55dd673de50f2e", "is_reserved": 0, "name": "45854df8f137167eab55dd673de50f2e", "lat": 38.906683, "fusion_lat": 0.0, "lon": -77.027115, "is_disabled": 0, "fusion_lon": 0.0, "rental_uris": {"android": "https://dc.lft.to/lastmile_qr_scan", "ios": "https://dc.lft.to/lastmile_qr_scan"}, "type": "electric_scooter"}, {"bike_id": "85bfea26f767c6d1f32d466beffb5de0", "is_reserved": 0, "name": "85bfea26f767c6d1f32d466beffb5de0", "lat": 38.9272595, "fusion_lat": 0.0, "lon": -77.02780283333334, "is_disabled": 0, "fusion_lon": 0.0, "rental_uris": {"android": "https://dc.lft.to/lastmile_qr_scan", "ios": "https://dc.lft.to/lastmile_qr_scan"}, "type": "electric_scooter"}, {"bike_id": "7c77f8fd816e2fe7fb57be7b0f21deee", "is_reserved": 0, "name": "7c77f8fd816e2fe7fb57be7b0f21deee", "lat": 38.901337166666664, "fusion_lat": 0.0, "lon": -77.05468683333334, "is_disabled": 0, "fusion_lon": 0.0, "rental_uris": {"android": "https://dc.lft.to/lastmile_qr_scan", "ios": "https://dc.lft.to/lastmile_qr_scan"}, "type": "electric_scooter"}, {"bike_id": "0d39e4a62111f6cd501d43565eca947d", "is_reserved": 0, "name": "0d39e4a62111f6cd501d43565eca947d", "lat": 38.92335333333333, "fusion_lat": 0.0, "lon": -77.047032, "is_disabled": 0, "fusion_lon": 0.0, "rental_uris": {"android": "https://dc.lft.to/lastmile_qr_scan", "ios": "https://dc.lft.to/lastmile_qr_scan"}, "type": "electric_scooter"}, {"bike_id": "f0fc49df0ac416a357789b9998fb5a37", "is_reserved": 0, "name": "f0fc49df0ac416a357789b9998fb5a37", "lat": 38.90260633333333, "fusion_lat": 0.0, "lon": -77.05311033333334, "is_disabled": 0, "fusion_lon": 0.0, "rental_uris": {"android": "https://dc.lft.to/lastmile_qr_scan", "ios": "https://dc.lft.to/lastmile_qr_scan"}, "type": "electric_scooter"}, {"bike_id": "5e658191b3756cfb632e3239066eca19", "is_reserved": 0, "name": "5e658191b3756cfb632e3239066eca19", "lat": 38.915851333333336, "fusion_lat": 0.0, "lon": -77.03169766666667, "is_disabled": 0, "fusion_lon": 0.0, "rental_uris": {"android": "https://dc.lft.to/lastmile_qr_scan", "ios": "https://dc.lft.to/lastmile_qr_scan"}, "type": "electric_scooter"}, {"bike_id": "c804cf367ff84ff0e0d9d58358f593a6", "is_reserved": 0, "name": "c804cf367ff84ff0e0d9d58358f593a6", "lat": 38.91701533333333, "fusion_lat": 0.0, "lon": -77.030321, "is_disabled": 0, "fusion_lon": 0.0, "rental_uris": {"android": "https://dc.lft.to/lastmile_qr_scan", "ios": "https://dc.lft.to/lastmile_qr_scan"}, "type": "electric_scooter"}, {"bike_id": "7ff4d083c73c6177d856ad1bcd664f78", "is_reserved": 0, "name": "7ff4d083c73c6177d856ad1bcd664f78", "lat": 38.9057345, "fusion_lat": 0.0, "lon": -77.022063, "is_disabled": 0, "fusion_lon": 0.0, "rental_uris": {"android": "https://dc.lft.to/lastmile_qr_scan", "ios": "https://dc.lft.to/lastmile_qr_scan"}, "type": "electric_scooter"}, {"bike_id": "76dfcb1693bf28aa8a0982963184b729", "is_reserved": 0, "name": "76dfcb1693bf28aa8a0982963184b729", "lat": 38.9804585, "fusion_lat": 0.0, "lon": -76.95787783333333, "is_disabled": 0, "fusion_lon": 0.0, "rental_uris": {"android": "https://dc.lft.to/lastmile_qr_scan", "ios": "https://dc.lft.to/lastmile_qr_scan"}, "type": "electric_bike"}, {"bike_id": "a11b930a1e418ad7fae55c26d0fc7ced", "is_reserved": 0, "name": "a11b930a1e418ad7fae55c26d0fc7ced", "lat": 38.895500166666665, "fusion_lat": 0.0, "lon": -77.0091755, "is_disabled": 0, "fusion_lon": 0.0, "rental_uris": {"android": "https://dc.lft.to/lastmile_qr_scan", "ios": "https://dc.lft.to/lastmile_qr_scan"}, "type": "electric_scooter"}, {"bike_id": "9a962eeb9d05f3ac860a17f182fc86b2", "is_reserved": 0, "name": "9a962eeb9d05f3ac860a17f182fc86b2", "lat": 38.95732783333333, "fusion_lat": 0.0, "lon": -77.02403583333333, "is_disabled": 0, "fusion_lon": 0.0, "rental_uris": {"android": "https://dc.lft.to/lastmile_qr_scan", "ios": "https://dc.lft.to/lastmile_qr_scan"}, "type": "electric_scooter"}, {"bike_id": "ba7f4a989468d63e5634cac3215e5815", "is_reserved": 0, "name": "ba7f4a989468d63e5634cac3215e5815", "lat": 38.902475833333334, "fusion_lat": 0.0, "lon": -77.034159, "is_disabled": 0, "fusion_lon": 0.0, "rental_uris": {"android": "https://dc.lft.to/lastmile_qr_scan", "ios": "https://dc.lft.to/lastmile_qr_scan"}, "type": "electric_scooter"}, {"bike_id": "dbc3989f6dbd9b5617d5404c561ab5e3", "is_reserved": 0, "name": "dbc3989f6dbd9b5617d5404c561ab5e3", "lat": 38.941925166666664, "fusion_lat": 0.0, "lon": -77.04110633333333, "is_disabled": 0, "fusion_lon": 0.0, "rental_uris": {"android": "https://dc.lft.to/lastmile_qr_scan", "ios": "https://dc.lft.to/lastmile_qr_scan"}, "type": "electric_scooter"}, {"bike_id": "4fb0d3deb5e56feb9b95185d6b94415d", "is_reserved": 0, "name": "4fb0d3deb5e56feb9b95185d6b94415d", "lat": 38.899327166666666, "fusion_lat": 0.0, "lon": -77.01272416666667, "is_disabled": 0, "fusion_lon": 0.0, "rental_uris": {"android": "https://dc.lft.to/lastmile_qr_scan", "ios": "https://dc.lft.to/lastmile_qr_scan"}, "type": "electric_scooter"}, {"bike_id": "50aa742e6b88f48f45e2ee3bbeafdd25", "is_reserved": 0, "name": "50aa742e6b88f48f45e2ee3bbeafdd25", "lat": 38.925033666666664, "fusion_lat": 0.0, "lon": -77.02403033333333, "is_disabled": 0, "fusion_lon": 0.0, "rental_uris": {"android": "https://dc.lft.to/lastmile_qr_scan", "ios": "https://dc.lft.to/lastmile_qr_scan"}, "type": "electric_scooter"}, {"bike_id": "eff8de86fefad7c95031211ae0277b35", "is_reserved": 0, "name": "eff8de86fefad7c95031211ae0277b35", "lat": 38.92828816666667, "fusion_lat": 0.0, "lon": -77.05418483333334, "is_disabled": 0, "fusion_lon": 0.0, "rental_uris": {"android": "https://dc.lft.to/lastmile_qr_scan", "ios": "https://dc.lft.to/lastmile_qr_scan"}, "type": "electric_scooter"}, {"bike_id": "26cf5d6b2974ad1ec4e2361264312fb2", "is_reserved": 0, "name": "26cf5d6b2974ad1ec4e2361264312fb2", "lat": 38.8984475, "fusion_lat": 0.0, "lon": -77.02181116666667, "is_disabled": 0, "fusion_lon": 0.0, "rental_uris": {"android": "https://dc.lft.to/lastmile_qr_scan", "ios": "https://dc.lft.to/lastmile_qr_scan"}, "type": "electric_scooter"}, {"bike_id": "465e6da1671deff8cdad54dd0bb99637", "is_reserved": 0, "name": "465e6da1671deff8cdad54dd0bb99637", "lat": 38.90413866666667, "fusion_lat": 0.0, "lon": -77.019813, "is_disabled": 0, "fusion_lon": 0.0, "rental_uris": {"android": "https://dc.lft.to/lastmile_qr_scan", "ios": "https://dc.lft.to/lastmile_qr_scan"}, "type": "electric_scooter"}, {"bike_id": "1bf8ca1ebdd316dc126aa8f688127969", "is_reserved": 0, "name": "1bf8ca1ebdd316dc126aa8f688127969", "lat": 38.918339333333336, "fusion_lat": 0.0, "lon": -77.02298316666666, "is_disabled": 0, "fusion_lon": 0.0, "rental_uris": {"android": "https://dc.lft.to/lastmile_qr_scan", "ios": "https://dc.lft.to/lastmile_qr_scan"}, "type": "electric_scooter"}, {"bike_id": "1836838c2b67d4470e9f85d409158162", "is_reserved": 0, "name": "1836838c2b67d4470e9f85d409158162", "lat": 38.87187333333333, "fusion_lat": 0.0, "lon": -77.00582933333334, "is_disabled": 0, "fusion_lon": 0.0, "rental_uris": {"android": "https://dc.lft.to/lastmile_qr_scan", "ios": "https://dc.lft.to/lastmile_qr_scan"}, "type": "electric_scooter"}, {"bike_id": "9139c5c36ac4d2ea27ce0c0204067e5b", "is_reserved": 0, "name": "9139c5c36ac4d2ea27ce0c0204067e5b", "lat": 38.9050235, "fusion_lat": 0.0, "lon": -77.00728816666667, "is_disabled": 0, "fusion_lon": 0.0, "rental_uris": {"android": "https://dc.lft.to/lastmile_qr_scan", "ios": "https://dc.lft.to/lastmile_qr_scan"}, "type": "electric_scooter"}, {"bike_id": "41aca9d6674a75077ea35b85e1fcab0c", "is_reserved": 0, "name": "41aca9d6674a75077ea35b85e1fcab0c", "lat": 38.9171355, "fusion_lat": 0.0, "lon": -77.03854683333333, "is_disabled": 0, "fusion_lon": 0.0, "rental_uris": {"android": "https://dc.lft.to/lastmile_qr_scan", "ios": "https://dc.lft.to/lastmile_qr_scan"}, "type": "electric_scooter"}, {"bike_id": "bb7870d09ac5c89bd0fb260ab77fbcc0", "is_reserved": 0, "name": "bb7870d09ac5c89bd0fb260ab77fbcc0", "lat": 38.90144166666666, "fusion_lat": 0.0, "lon": -77.019041, "is_disabled": 0, "fusion_lon": 0.0, "rental_uris": {"android": "https://dc.lft.to/lastmile_qr_scan", "ios": "https://dc.lft.to/lastmile_qr_scan"}, "type": "electric_scooter"}, {"bike_id": "f0719d4f79770dd6a3685196ae864031", "is_reserved": 0, "name": "f0719d4f79770dd6a3685196ae864031", "lat": 38.8753175, "fusion_lat": 0.0, "lon": -77.00504966666666, "is_disabled": 0, "fusion_lon": 0.0, "rental_uris": {"android": "https://dc.lft.to/lastmile_qr_scan", "ios": "https://dc.lft.to/lastmile_qr_scan"}, "type": "electric_scooter"}, {"bike_id": "9b4a5cc0ed238e0faded8dd80899d2ce", "is_reserved": 0, "name": "9b4a5cc0ed238e0faded8dd80899d2ce", "lat": 38.900659833333336, "fusion_lat": 0.0, "lon": -76.92744733333333, "is_disabled": 0, "fusion_lon": 0.0, "rental_uris": {"android": "https://dc.lft.to/lastmile_qr_scan", "ios": "https://dc.lft.to/lastmile_qr_scan"}, "type": "electric_scooter"}, {"bike_id": "7ea3243f93568a13a2e1e1c72a382372", "is_reserved": 0, "name": "7ea3243f93568a13a2e1e1c72a382372", "lat": 38.869622166666666, "fusion_lat": 0.0, "lon": -77.013746, "is_disabled": 0, "fusion_lon": 0.0, "rental_uris": {"android": "https://dc.lft.to/lastmile_qr_scan", "ios": "https://dc.lft.to/lastmile_qr_scan"}, "type": "electric_scooter"}, {"bike_id": "fe3aa88f5a7cef687205339eddb45aa5", "is_reserved": 0, "name": "fe3aa88f5a7cef687205339eddb45aa5", "lat": 38.902672, "fusion_lat": 0.0, "lon": -77.020079, "is_disabled": 0, "fusion_lon": 0.0, "rental_uris": {"android": "https://dc.lft.to/lastmile_qr_scan", "ios": "https://dc.lft.to/lastmile_qr_scan"}, "type": "electric_scooter"}, {"bike_id": "24977c5778f7f57c5503128046d26b41", "is_reserved": 0, "name": "24977c5778f7f57c5503128046d26b41", "lat": 38.89554483333333, "fusion_lat": 0.0, "lon": -76.94871433333333, "is_disabled": 0, "fusion_lon": 0.0, "rental_uris": {"android": "https://dc.lft.to/lastmile_qr_scan", "ios": "https://dc.lft.to/lastmile_qr_scan"}, "type": "electric_scooter"}, {"bike_id": "a80cc63358f7b8eb140dc094829e7f62", "is_reserved": 0, "name": "a80cc63358f7b8eb140dc094829e7f62", "lat": 38.89543366666667, "fusion_lat": 0.0, "lon": -76.94945316666667, "is_disabled": 0, "fusion_lon": 0.0, "rental_uris": {"android": "https://dc.lft.to/lastmile_qr_scan", "ios": "https://dc.lft.to/lastmile_qr_scan"}, "type": "electric_scooter"}, {"bike_id": "0f01f8440c4795a6710edace00a39acc", "is_reserved": 0, "name": "0f01f8440c4795a6710edace00a39acc", "lat": 38.89195633333333, "fusion_lat": 0.0, "lon": -77.02219983333333, "is_disabled": 0, "fusion_lon": 0.0, "rental_uris": {"android": "https://dc.lft.to/lastmile_qr_scan", "ios": "https://dc.lft.to/lastmile_qr_scan"}, "type": "electric_scooter"}, {"bike_id": "5d2599f6f3bc1c4158d08e1161cef0ae", "is_reserved": 0, "name": "5d2599f6f3bc1c4158d08e1161cef0ae", "lat": 38.9111145, "fusion_lat": 0.0, "lon": -77.0453805, "is_disabled": 0, "fusion_lon": 0.0, "rental_uris": {"android": "https://dc.lft.to/lastmile_qr_scan", "ios": "https://dc.lft.to/lastmile_qr_scan"}, "type": "electric_scooter"}, {"bike_id": "6483f80031d59575bdc6bd4e791fa0e2", "is_reserved": 0, "name": "6483f80031d59575bdc6bd4e791fa0e2", "lat": 38.91699416666667, "fusion_lat": 0.0, "lon": -77.03770283333333, "is_disabled": 0, "fusion_lon": 0.0, "rental_uris": {"android": "https://dc.lft.to/lastmile_qr_scan", "ios": "https://dc.lft.to/lastmile_qr_scan"}, "type": "electric_scooter"}, {"bike_id": "53c42d0c4b4cd2028e1c96112ee31035", "is_reserved": 0, "name": "53c42d0c4b4cd2028e1c96112ee31035", "lat": 38.94884883333334, "fusion_lat": 0.0, "lon": -77.038661, "is_disabled": 0, "fusion_lon": 0.0, "rental_uris": {"android": "https://dc.lft.to/lastmile_qr_scan", "ios": "https://dc.lft.to/lastmile_qr_scan"}, "type": "electric_bike"}, {"bike_id": "7a21b2abd39850ebdf88e900433d5926", "is_reserved": 0, "name": "7a21b2abd39850ebdf88e900433d5926", "lat": 38.80763, "fusion_lat": 0.0, "lon": -77.12983516666667, "is_disabled": 0, "fusion_lon": 0.0, "rental_uris": {"android": "https://dc.lft.to/lastmile_qr_scan", "ios": "https://dc.lft.to/lastmile_qr_scan"}, "type": "electric_bike"}, {"bike_id": "e1e8b31fbc27feb7fda4134a4ac0cc52", "is_reserved": 0, "name": "e1e8b31fbc27feb7fda4134a4ac0cc52", "lat": 38.909628, "fusion_lat": 0.0, "lon": -77.02411116666667, "is_disabled": 0, "fusion_lon": 0.0, "rental_uris": {"android": "https://dc.lft.to/lastmile_qr_scan", "ios": "https://dc.lft.to/lastmile_qr_scan"}, "type": "electric_scooter"}, {"bike_id": "53b7e2ebbd2344ca19593a0eedcde4d8", "is_reserved": 0, "name": "53b7e2ebbd2344ca19593a0eedcde4d8", "lat": 38.897270666666664, "fusion_lat": 0.0, "lon": -77.02328616666667, "is_disabled": 0, "fusion_lon": 0.0, "rental_uris": {"android": "https://dc.lft.to/lastmile_qr_scan", "ios": "https://dc.lft.to/lastmile_qr_scan"}, "type": "electric_scooter"}, {"bike_id": "d7a700f13e5e25143e0dc6c90f96441b", "is_reserved": 0, "name": "d7a700f13e5e25143e0dc6c90f96441b", "lat": 38.92748733333333, "fusion_lat": 0.0, "lon": -77.02427033333333, "is_disabled": 0, "fusion_lon": 0.0, "rental_uris": {"android": "https://dc.lft.to/lastmile_qr_scan", "ios": "https://dc.lft.to/lastmile_qr_scan"}, "type": "electric_scooter"}, {"bike_id": "2991347d3fb6062194c61556459ae776", "is_reserved": 0, "name": "2991347d3fb6062194c61556459ae776", "lat": 38.9369015, "fusion_lat": 0.0, "lon": -76.99058183333334, "is_disabled": 0, "fusion_lon": 0.0, "rental_uris": {"android": "https://dc.lft.to/lastmile_qr_scan", "ios": "https://dc.lft.to/lastmile_qr_scan"}, "type": "electric_bike"}, {"bike_id": "618d997e2237c28dc482cfeef2a27c91", "is_reserved": 0, "name": "618d997e2237c28dc482cfeef2a27c91", "lat": 38.9053135, "fusion_lat": 0.0, "lon": -76.9980095, "is_disabled": 0, "fusion_lon": 0.0, "rental_uris": {"android": "https://dc.lft.to/lastmile_qr_scan", "ios": "https://dc.lft.to/lastmile_qr_scan"}, "type": "electric_bike"}, {"bike_id": "5bb3083fd90a86ba18a1a6f48df27d9b", "is_reserved": 0, "name": "5bb3083fd90a86ba18a1a6f48df27d9b", "lat": 38.901492166666664, "fusion_lat": 0.0, "lon": -77.02289633333334, "is_disabled": 0, "fusion_lon": 0.0, "rental_uris": {"android": "https://dc.lft.to/lastmile_qr_scan", "ios": "https://dc.lft.to/lastmile_qr_scan"}, "type": "electric_scooter"}, {"bike_id": "69f338e8bc0ed17d990df3598c8e1565", "is_reserved": 0, "name": "69f338e8bc0ed17d990df3598c8e1565", "lat": 38.871869333333336, "fusion_lat": 0.0, "lon": -77.0058285, "is_disabled": 0, "fusion_lon": 0.0, "rental_uris": {"android": "https://dc.lft.to/lastmile_qr_scan", "ios": "https://dc.lft.to/lastmile_qr_scan"}, "type": "electric_scooter"}, {"bike_id": "0a433d39ab20778ae874bcbaa2374039", "is_reserved": 0, "name": "0a433d39ab20778ae874bcbaa2374039", "lat": 38.90028066666667, "fusion_lat": 0.0, "lon": -76.99850233333333, "is_disabled": 0, "fusion_lon": 0.0, "rental_uris": {"android": "https://dc.lft.to/lastmile_qr_scan", "ios": "https://dc.lft.to/lastmile_qr_scan"}, "type": "electric_scooter"}, {"bike_id": "643fa5c4ce0deda2dd2fb0e41ce383d6", "is_reserved": 0, "name": "643fa5c4ce0deda2dd2fb0e41ce383d6", "lat": 38.8990325, "fusion_lat": 0.0, "lon": -77.03911033333333, "is_disabled": 0, "fusion_lon": 0.0, "rental_uris": {"android": "https://dc.lft.to/lastmile_qr_scan", "ios": "https://dc.lft.to/lastmile_qr_scan"}, "type": "electric_scooter"}, {"bike_id": "4393175ea9685fe0683abcec63175883", "is_reserved": 0, "name": "4393175ea9685fe0683abcec63175883", "lat": 38.900314, "fusion_lat": 0.0, "lon": -76.996312, "is_disabled": 0, "fusion_lon": 0.0, "rental_uris": {"android": "https://dc.lft.to/lastmile_qr_scan", "ios": "https://dc.lft.to/lastmile_qr_scan"}, "type": "electric_scooter"}, {"bike_id": "ffcd954aabf5d3f317b75897030ae421", "is_reserved": 0, "name": "ffcd954aabf5d3f317b75897030ae421", "lat": 38.896035833333336, "fusion_lat": 0.0, "lon": -77.01331416666666, "is_disabled": 0, "fusion_lon": 0.0, "rental_uris": {"android": "https://dc.lft.to/lastmile_qr_scan", "ios": "https://dc.lft.to/lastmile_qr_scan"}, "type": "electric_scooter"}, {"bike_id": "90c8178b2e04878c94d7fd0ace362f53", "is_reserved": 0, "name": "90c8178b2e04878c94d7fd0ace362f53", "lat": 38.92320866666667, "fusion_lat": 0.0, "lon": -77.04023033333333, "is_disabled": 0, "fusion_lon": 0.0, "rental_uris": {"android": "https://dc.lft.to/lastmile_qr_scan", "ios": "https://dc.lft.to/lastmile_qr_scan"}, "type": "electric_scooter"}, {"bike_id": "d168c6ed3a51ac14478f782ff2a9b661", "is_reserved": 0, "name": "d168c6ed3a51ac14478f782ff2a9b661", "lat": 38.902537833333334, "fusion_lat": 0.0, "lon": -77.02829316666667, "is_disabled": 0, "fusion_lon": 0.0, "rental_uris": {"android": "https://dc.lft.to/lastmile_qr_scan", "ios": "https://dc.lft.to/lastmile_qr_scan"}, "type": "electric_scooter"}, {"bike_id": "6622305cc9d781a1eccc7050f889cbee", "is_reserved": 0, "name": "6622305cc9d781a1eccc7050f889cbee", "lat": 38.909354, "fusion_lat": 0.0, "lon": -76.99967683333334, "is_disabled": 0, "fusion_lon": 0.0, "rental_uris": {"android": "https://dc.lft.to/lastmile_qr_scan", "ios": "https://dc.lft.to/lastmile_qr_scan"}, "type": "electric_scooter"}, {"bike_id": "651640a0e585ae3c4cad2633a5b02cbb", "is_reserved": 0, "name": "651640a0e585ae3c4cad2633a5b02cbb", "lat": 38.895548, "fusion_lat": 0.0, "lon": -76.94870866666666, "is_disabled": 0, "fusion_lon": 0.0, "rental_uris": {"android": "https://dc.lft.to/lastmile_qr_scan", "ios": "https://dc.lft.to/lastmile_qr_scan"}, "type": "electric_scooter"}, {"bike_id": "ccdcb5ae65a80721ab8c8bdd224d4226", "is_reserved": 0, "name": "ccdcb5ae65a80721ab8c8bdd224d4226", "lat": 38.9080195, "fusion_lat": 0.0, "lon": -77.02962216666667, "is_disabled": 0, "fusion_lon": 0.0, "rental_uris": {"android": "https://dc.lft.to/lastmile_qr_scan", "ios": "https://dc.lft.to/lastmile_qr_scan"}, "type": "electric_scooter"}, {"bike_id": "f068364b16d47461343ec42a36ca304f", "is_reserved": 0, "name": "f068364b16d47461343ec42a36ca304f", "lat": 38.949662833333335, "fusion_lat": 0.0, "lon": -77.066591, "is_disabled": 0, "fusion_lon": 0.0, "rental_uris": {"android": "https://dc.lft.to/lastmile_qr_scan", "ios": "https://dc.lft.to/lastmile_qr_scan"}, "type": "electric_scooter"}, {"bike_id": "21a471ecebc41086f2abd9e9da363a3e", "is_reserved": 0, "name": "21a471ecebc41086f2abd9e9da363a3e", "lat": 38.89587916666667, "fusion_lat": 0.0, "lon": -76.98317566666667, "is_disabled": 0, "fusion_lon": 0.0, "rental_uris": {"android": "https://dc.lft.to/lastmile_qr_scan", "ios": "https://dc.lft.to/lastmile_qr_scan"}, "type": "electric_scooter"}, {"bike_id": "000438dc293c726c943ac1bd5160da92", "is_reserved": 0, "name": "000438dc293c726c943ac1bd5160da92", "lat": 38.910831333333334, "fusion_lat": 0.0, "lon": -76.98471516666666, "is_disabled": 0, "fusion_lon": 0.0, "rental_uris": {"android": "https://dc.lft.to/lastmile_qr_scan", "ios": "https://dc.lft.to/lastmile_qr_scan"}, "type": "electric_bike"}, {"bike_id": "ab5877be038b113f1b7c1c938b8a6445", "is_reserved": 0, "name": "ab5877be038b113f1b7c1c938b8a6445", "lat": 38.87273016666666, "fusion_lat": 0.0, "lon": -77.142337, "is_disabled": 0, "fusion_lon": 0.0, "rental_uris": {"android": "https://dc.lft.to/lastmile_qr_scan", "ios": "https://dc.lft.to/lastmile_qr_scan"}, "type": "electric_bike"}, {"bike_id": "39ca51bd516e42360f35539cd4b83711", "is_reserved": 0, "name": "39ca51bd516e42360f35539cd4b83711", "lat": 38.92336066666667, "fusion_lat": 0.0, "lon": -77.052969, "is_disabled": 0, "fusion_lon": 0.0, "rental_uris": {"android": "https://dc.lft.to/lastmile_qr_scan", "ios": "https://dc.lft.to/lastmile_qr_scan"}, "type": "electric_scooter"}, {"bike_id": "b47b75b9e91dee842ad3298d304b2154", "is_reserved": 0, "name": "b47b75b9e91dee842ad3298d304b2154", "lat": 38.892261, "fusion_lat": 0.0, "lon": -77.04894216666666, "is_disabled": 0, "fusion_lon": 0.0, "rental_uris": {"android": "https://dc.lft.to/lastmile_qr_scan", "ios": "https://dc.lft.to/lastmile_qr_scan"}, "type": "electric_scooter"}, {"bike_id": "2cbcb8d64fe61f0ebc466d92e091c7b1", "is_reserved": 0, "name": "2cbcb8d64fe61f0ebc466d92e091c7b1", "lat": 38.896139, "fusion_lat": 0.0, "lon": -77.02348966666666, "is_disabled": 0, "fusion_lon": 0.0, "rental_uris": {"android": "https://dc.lft.to/lastmile_qr_scan", "ios": "https://dc.lft.to/lastmile_qr_scan"}, "type": "electric_scooter"}, {"bike_id": "db64921bdfcbd323fe446a543551acdd", "is_reserved": 0, "name": "db64921bdfcbd323fe446a543551acdd", "lat": 38.89269066666667, "fusion_lat": 0.0, "lon": -77.046579, "is_disabled": 0, "fusion_lon": 0.0, "rental_uris": {"android": "https://dc.lft.to/lastmile_qr_scan", "ios": "https://dc.lft.to/lastmile_qr_scan"}, "type": "electric_scooter"}, {"bike_id": "c59fb959f595cadbff9fab6b9a269abd", "is_reserved": 0, "name": "c59fb959f595cadbff9fab6b9a269abd", "lat": 38.90671316666667, "fusion_lat": 0.0, "lon": -77.02698066666666, "is_disabled": 0, "fusion_lon": 0.0, "rental_uris": {"android": "https://dc.lft.to/lastmile_qr_scan", "ios": "https://dc.lft.to/lastmile_qr_scan"}, "type": "electric_scooter"}, {"bike_id": "5e206eb14748848a7108b7a7ddc4f823", "is_reserved": 0, "name": "5e206eb14748848a7108b7a7ddc4f823", "lat": 38.8757465, "fusion_lat": 0.0, "lon": -77.00542083333333, "is_disabled": 0, "fusion_lon": 0.0, "rental_uris": {"android": "https://dc.lft.to/lastmile_qr_scan", "ios": "https://dc.lft.to/lastmile_qr_scan"}, "type": "electric_scooter"}, {"bike_id": "860d55acc991f4ccf20000e2b9e30237", "is_reserved": 0, "name": "860d55acc991f4ccf20000e2b9e30237", "lat": 38.92094266666667, "fusion_lat": 0.0, "lon": -77.025226, "is_disabled": 0, "fusion_lon": 0.0, "rental_uris": {"android": "https://dc.lft.to/lastmile_qr_scan", "ios": "https://dc.lft.to/lastmile_qr_scan"}, "type": "electric_scooter"}, {"bike_id": "0e2e4dc9d73dbaf4499e6990676daaa0", "is_reserved": 0, "name": "0e2e4dc9d73dbaf4499e6990676daaa0", "lat": 38.901524, "fusion_lat": 0.0, "lon": -77.01494833333334, "is_disabled": 0, "fusion_lon": 0.0, "rental_uris": {"android": "https://dc.lft.to/lastmile_qr_scan", "ios": "https://dc.lft.to/lastmile_qr_scan"}, "type": "electric_scooter"}, {"bike_id": "5a1fa4e9bc0e1da443c7010e051b9bbe", "is_reserved": 0, "name": "5a1fa4e9bc0e1da443c7010e051b9bbe", "lat": 38.92966666666667, "fusion_lat": 0.0, "lon": -77.02823933333333, "is_disabled": 0, "fusion_lon": 0.0, "rental_uris": {"android": "https://dc.lft.to/lastmile_qr_scan", "ios": "https://dc.lft.to/lastmile_qr_scan"}, "type": "electric_scooter"}, {"bike_id": "2232190969a3d6a612db4cbf6386b3cb", "is_reserved": 0, "name": "2232190969a3d6a612db4cbf6386b3cb", "lat": 38.87483566666667, "fusion_lat": 0.0, "lon": -77.0057665, "is_disabled": 0, "fusion_lon": 0.0, "rental_uris": {"android": "https://dc.lft.to/lastmile_qr_scan", "ios": "https://dc.lft.to/lastmile_qr_scan"}, "type": "electric_scooter"}, {"bike_id": "8ebe7a9edd3118e4b77a63ef601b5ece", "is_reserved": 0, "name": "8ebe7a9edd3118e4b77a63ef601b5ece", "lat": 38.8967945, "fusion_lat": 0.0, "lon": -77.01189583333333, "is_disabled": 0, "fusion_lon": 0.0, "rental_uris": {"android": "https://dc.lft.to/lastmile_qr_scan", "ios": "https://dc.lft.to/lastmile_qr_scan"}, "type": "electric_scooter"}, {"bike_id": "8ee5b5d7eceb4ebeda1434b825f45f6a", "is_reserved": 0, "name": "8ee5b5d7eceb4ebeda1434b825f45f6a", "lat": 38.904121333333336, "fusion_lat": 0.0, "lon": -77.05002183333333, "is_disabled": 0, "fusion_lon": 0.0, "rental_uris": {"android": "https://dc.lft.to/lastmile_qr_scan", "ios": "https://dc.lft.to/lastmile_qr_scan"}, "type": "electric_scooter"}, {"bike_id": "97413064e20fa8cccd3e818d59f56f5e", "is_reserved": 0, "name": "97413064e20fa8cccd3e818d59f56f5e", "lat": 38.96179083333333, "fusion_lat": 0.0, "lon": -77.014339, "is_disabled": 0, "fusion_lon": 0.0, "rental_uris": {"android": "https://dc.lft.to/lastmile_qr_scan", "ios": "https://dc.lft.to/lastmile_qr_scan"}, "type": "electric_scooter"}, {"bike_id": "e67dacf371009305b1b2ebc34d44aa92", "is_reserved": 0, "name": "e67dacf371009305b1b2ebc34d44aa92", "lat": 38.900475, "fusion_lat": 0.0, "lon": -77.00067066666666, "is_disabled": 0, "fusion_lon": 0.0, "rental_uris": {"android": "https://dc.lft.to/lastmile_qr_scan", "ios": "https://dc.lft.to/lastmile_qr_scan"}, "type": "electric_scooter"}, {"bike_id": "e33772cc25ede0e542c17bf482948941", "is_reserved": 0, "name": "e33772cc25ede0e542c17bf482948941", "lat": 38.90460233333334, "fusion_lat": 0.0, "lon": -77.02815016666666, "is_disabled": 0, "fusion_lon": 0.0, "rental_uris": {"android": "https://dc.lft.to/lastmile_qr_scan", "ios": "https://dc.lft.to/lastmile_qr_scan"}, "type": "electric_scooter"}, {"bike_id": "127966dcb69e747d735560f638b227a0", "is_reserved": 0, "name": "127966dcb69e747d735560f638b227a0", "lat": 38.9165785, "fusion_lat": 0.0, "lon": -77.024698, "is_disabled": 0, "fusion_lon": 0.0, "rental_uris": {"android": "https://dc.lft.to/lastmile_qr_scan", "ios": "https://dc.lft.to/lastmile_qr_scan"}, "type": "electric_scooter"}, {"bike_id": "ebdfee50dea5bc5acd57287b1b60a19b", "is_reserved": 0, "name": "ebdfee50dea5bc5acd57287b1b60a19b", "lat": 38.922847166666664, "fusion_lat": 0.0, "lon": -77.03656316666667, "is_disabled": 0, "fusion_lon": 0.0, "rental_uris": {"android": "https://dc.lft.to/lastmile_qr_scan", "ios": "https://dc.lft.to/lastmile_qr_scan"}, "type": "electric_scooter"}, {"bike_id": "8b639124a5832db62f3dd4cc51190f27", "is_reserved": 0, "name": "8b639124a5832db62f3dd4cc51190f27", "lat": 38.8971555, "fusion_lat": 0.0, "lon": -77.02695533333333, "is_disabled": 0, "fusion_lon": 0.0, "rental_uris": {"android": "https://dc.lft.to/lastmile_qr_scan", "ios": "https://dc.lft.to/lastmile_qr_scan"}, "type": "electric_scooter"}, {"bike_id": "ecb2ebe0cea9bd248b440574225b6c3c", "is_reserved": 0, "name": "ecb2ebe0cea9bd248b440574225b6c3c", "lat": 38.948203166666666, "fusion_lat": 0.0, "lon": -77.1000655, "is_disabled": 0, "fusion_lon": 0.0, "rental_uris": {"android": "https://dc.lft.to/lastmile_qr_scan", "ios": "https://dc.lft.to/lastmile_qr_scan"}, "type": "electric_bike"}, {"bike_id": "dd14463916254139efbd1f1439463f20", "is_reserved": 0, "name": "dd14463916254139efbd1f1439463f20", "lat": 38.897288, "fusion_lat": 0.0, "lon": -77.0552175, "is_disabled": 0, "fusion_lon": 0.0, "rental_uris": {"android": "https://dc.lft.to/lastmile_qr_scan", "ios": "https://dc.lft.to/lastmile_qr_scan"}, "type": "electric_scooter"}, {"bike_id": "d3612375cfa8abcda6e3a4062ac3b2ce", "is_reserved": 0, "name": "d3612375cfa8abcda6e3a4062ac3b2ce", "lat": 38.899396833333334, "fusion_lat": 0.0, "lon": -77.05411583333333, "is_disabled": 0, "fusion_lon": 0.0, "rental_uris": {"android": "https://dc.lft.to/lastmile_qr_scan", "ios": "https://dc.lft.to/lastmile_qr_scan"}, "type": "electric_scooter"}, {"bike_id": "5dd36ecfa040f3864ad02b77653c6c2d", "is_reserved": 0, "name": "5dd36ecfa040f3864ad02b77653c6c2d", "lat": 38.9159565, "fusion_lat": 0.0, "lon": -76.99361466666667, "is_disabled": 0, "fusion_lon": 0.0, "rental_uris": {"android": "https://dc.lft.to/lastmile_qr_scan", "ios": "https://dc.lft.to/lastmile_qr_scan"}, "type": "electric_scooter"}, {"bike_id": "26fb27ce1350800c2a02b7d5e025e819", "is_reserved": 0, "name": "26fb27ce1350800c2a02b7d5e025e819", "lat": 38.912889, "fusion_lat": 0.0, "lon": -77.02382933333334, "is_disabled": 0, "fusion_lon": 0.0, "rental_uris": {"android": "https://dc.lft.to/lastmile_qr_scan", "ios": "https://dc.lft.to/lastmile_qr_scan"}, "type": "electric_scooter"}, {"bike_id": "befa2eaac5ee02cc7674ffa32a8c0533", "is_reserved": 0, "name": "befa2eaac5ee02cc7674ffa32a8c0533", "lat": 38.9181535, "fusion_lat": 0.0, "lon": -77.0313645, "is_disabled": 0, "fusion_lon": 0.0, "rental_uris": {"android": "https://dc.lft.to/lastmile_qr_scan", "ios": "https://dc.lft.to/lastmile_qr_scan"}, "type": "electric_scooter"}, {"bike_id": "e1e499d1de7e0788b583af990c2f2d11", "is_reserved": 0, "name": "e1e499d1de7e0788b583af990c2f2d11", "lat": 38.926680166666664, "fusion_lat": 0.0, "lon": -77.04301783333334, "is_disabled": 0, "fusion_lon": 0.0, "rental_uris": {"android": "https://dc.lft.to/lastmile_qr_scan", "ios": "https://dc.lft.to/lastmile_qr_scan"}, "type": "electric_scooter"}, {"bike_id": "f5570158c96ef688218408d6b44c6ad3", "is_reserved": 0, "name": "f5570158c96ef688218408d6b44c6ad3", "lat": 38.84755233333333, "fusion_lat": 0.0, "lon": -76.99501583333333, "is_disabled": 0, "fusion_lon": 0.0, "rental_uris": {"android": "https://dc.lft.to/lastmile_qr_scan", "ios": "https://dc.lft.to/lastmile_qr_scan"}, "type": "electric_scooter"}, {"bike_id": "b564d6c86f007a59c48396aef6acc006", "is_reserved": 0, "name": "b564d6c86f007a59c48396aef6acc006", "lat": 38.85979583333334, "fusion_lat": 0.0, "lon": -76.99645516666666, "is_disabled": 0, "fusion_lon": 0.0, "rental_uris": {"android": "https://dc.lft.to/lastmile_qr_scan", "ios": "https://dc.lft.to/lastmile_qr_scan"}, "type": "electric_scooter"}, {"bike_id": "2550a8ccc87fa1415726202afd96992e", "is_reserved": 0, "name": "2550a8ccc87fa1415726202afd96992e", "lat": 38.91642433333333, "fusion_lat": 0.0, "lon": -77.030199, "is_disabled": 0, "fusion_lon": 0.0, "rental_uris": {"android": "https://dc.lft.to/lastmile_qr_scan", "ios": "https://dc.lft.to/lastmile_qr_scan"}, "type": "electric_scooter"}, {"bike_id": "5e78509c325a69d63d8b2d78f8fc3d71", "is_reserved": 0, "name": "5e78509c325a69d63d8b2d78f8fc3d71", "lat": 38.898526333333336, "fusion_lat": 0.0, "lon": -76.93187383333333, "is_disabled": 0, "fusion_lon": 0.0, "rental_uris": {"android": "https://dc.lft.to/lastmile_qr_scan", "ios": "https://dc.lft.to/lastmile_qr_scan"}, "type": "electric_bike"}, {"bike_id": "4c14d1de481bae8fd998015547d80fd1", "is_reserved": 0, "name": "4c14d1de481bae8fd998015547d80fd1", "lat": 38.893864666666666, "fusion_lat": 0.0, "lon": -76.92306066666667, "is_disabled": 0, "fusion_lon": 0.0, "rental_uris": {"android": "https://dc.lft.to/lastmile_qr_scan", "ios": "https://dc.lft.to/lastmile_qr_scan"}, "type": "electric_scooter"}, {"bike_id": "aaa0ca2fdad6141f9690b90af9f22e99", "is_reserved": 0, "name": "aaa0ca2fdad6141f9690b90af9f22e99", "lat": 38.94334833333333, "fusion_lat": 0.0, "lon": -76.98315483333333, "is_disabled": 0, "fusion_lon": 0.0, "rental_uris": {"android": "https://dc.lft.to/lastmile_qr_scan", "ios": "https://dc.lft.to/lastmile_qr_scan"}, "type": "electric_scooter"}, {"bike_id": "722e969adabcb351b43ccffef726a6b8", "is_reserved": 0, "name": "722e969adabcb351b43ccffef726a6b8", "lat": 38.90580466666667, "fusion_lat": 0.0, "lon": -77.00591766666666, "is_disabled": 0, "fusion_lon": 0.0, "rental_uris": {"android": "https://dc.lft.to/lastmile_qr_scan", "ios": "https://dc.lft.to/lastmile_qr_scan"}, "type": "electric_scooter"}, {"bike_id": "ae73947609209ee7e103b56459bd00f6", "is_reserved": 0, "name": "ae73947609209ee7e103b56459bd00f6", "lat": 38.95356066666667, "fusion_lat": 0.0, "lon": -76.98090466666666, "is_disabled": 0, "fusion_lon": 0.0, "rental_uris": {"android": "https://dc.lft.to/lastmile_qr_scan", "ios": "https://dc.lft.to/lastmile_qr_scan"}, "type": "electric_bike"}, {"bike_id": "ba0ec5680d5467c47f84bad8c8f30166", "is_reserved": 0, "name": "ba0ec5680d5467c47f84bad8c8f30166", "lat": 38.875468166666664, "fusion_lat": 0.0, "lon": -77.005384, "is_disabled": 0, "fusion_lon": 0.0, "rental_uris": {"android": "https://dc.lft.to/lastmile_qr_scan", "ios": "https://dc.lft.to/lastmile_qr_scan"}, "type": "electric_scooter"}, {"bike_id": "c6a115107abb45240df6f7e8e3dff345", "is_reserved": 0, "name": "c6a115107abb45240df6f7e8e3dff345", "lat": 38.933276666666664, "fusion_lat": 0.0, "lon": -77.03264366666667, "is_disabled": 0, "fusion_lon": 0.0, "rental_uris": {"android": "https://dc.lft.to/lastmile_qr_scan", "ios": "https://dc.lft.to/lastmile_qr_scan"}, "type": "electric_scooter"}, {"bike_id": "15d49bf09130099ab89b63f0640526dc", "is_reserved": 0, "name": "15d49bf09130099ab89b63f0640526dc", "lat": 38.90206233333333, "fusion_lat": 0.0, "lon": -77.02342433333334, "is_disabled": 0, "fusion_lon": 0.0, "rental_uris": {"android": "https://dc.lft.to/lastmile_qr_scan", "ios": "https://dc.lft.to/lastmile_qr_scan"}, "type": "electric_scooter"}, {"bike_id": "81f4ddd91fc8e9a1925e5a38df50a9f2", "is_reserved": 0, "name": "81f4ddd91fc8e9a1925e5a38df50a9f2", "lat": 38.9154725, "fusion_lat": 0.0, "lon": -77.04613816666667, "is_disabled": 0, "fusion_lon": 0.0, "rental_uris": {"android": "https://dc.lft.to/lastmile_qr_scan", "ios": "https://dc.lft.to/lastmile_qr_scan"}, "type": "electric_scooter"}, {"bike_id": "9ea3df1c97ed4afd0435c6100ca51027", "is_reserved": 0, "name": "9ea3df1c97ed4afd0435c6100ca51027", "lat": 38.8767115, "fusion_lat": 0.0, "lon": -76.99270683333333, "is_disabled": 0, "fusion_lon": 0.0, "rental_uris": {"android": "https://dc.lft.to/lastmile_qr_scan", "ios": "https://dc.lft.to/lastmile_qr_scan"}, "type": "electric_scooter"}, {"bike_id": "c0f72a62d0cc685efb976e179516548e", "is_reserved": 0, "name": "c0f72a62d0cc685efb976e179516548e", "lat": 38.86518916666667, "fusion_lat": 0.0, "lon": -76.97338633333334, "is_disabled": 0, "fusion_lon": 0.0, "rental_uris": {"android": "https://dc.lft.to/lastmile_qr_scan", "ios": "https://dc.lft.to/lastmile_qr_scan"}, "type": "electric_bike"}, {"bike_id": "b4599b3d38c5866e20ef7185c0a274c4", "is_reserved": 0, "name": "b4599b3d38c5866e20ef7185c0a274c4", "lat": 38.923416333333336, "fusion_lat": 0.0, "lon": -77.05176433333334, "is_disabled": 0, "fusion_lon": 0.0, "rental_uris": {"android": "https://dc.lft.to/lastmile_qr_scan", "ios": "https://dc.lft.to/lastmile_qr_scan"}, "type": "electric_scooter"}, {"bike_id": "a69f6917036fcfc872a0d4d58df84a42", "is_reserved": 0, "name": "a69f6917036fcfc872a0d4d58df84a42", "lat": 38.919302, "fusion_lat": 0.0, "lon": -77.031948, "is_disabled": 0, "fusion_lon": 0.0, "rental_uris": {"android": "https://dc.lft.to/lastmile_qr_scan", "ios": "https://dc.lft.to/lastmile_qr_scan"}, "type": "electric_scooter"}, {"bike_id": "0db05123dd4356b6e8ce425823bd3766", "is_reserved": 0, "name": "0db05123dd4356b6e8ce425823bd3766", "lat": 38.9025475, "fusion_lat": 0.0, "lon": -77.04435683333334, "is_disabled": 0, "fusion_lon": 0.0, "rental_uris": {"android": "https://dc.lft.to/lastmile_qr_scan", "ios": "https://dc.lft.to/lastmile_qr_scan"}, "type": "electric_scooter"}, {"bike_id": "0579e092cf40759ea5db317d4a691384", "is_reserved": 0, "name": "0579e092cf40759ea5db317d4a691384", "lat": 38.901364, "fusion_lat": 0.0, "lon": -77.04633266666667, "is_disabled": 0, "fusion_lon": 0.0, "rental_uris": {"android": "https://dc.lft.to/lastmile_qr_scan", "ios": "https://dc.lft.to/lastmile_qr_scan"}, "type": "electric_scooter"}, {"bike_id": "e38034f9417472bbd95b7b7e6b45ede9", "is_reserved": 0, "name": "e38034f9417472bbd95b7b7e6b45ede9", "lat": 38.926462, "fusion_lat": 0.0, "lon": -76.9931865, "is_disabled": 0, "fusion_lon": 0.0, "rental_uris": {"android": "https://dc.lft.to/lastmile_qr_scan", "ios": "https://dc.lft.to/lastmile_qr_scan"}, "type": "electric_scooter"}, {"bike_id": "961e96a886679a88dabd5abcc4855a49", "is_reserved": 0, "name": "961e96a886679a88dabd5abcc4855a49", "lat": 38.91527383333333, "fusion_lat": 0.0, "lon": -77.0218005, "is_disabled": 0, "fusion_lon": 0.0, "rental_uris": {"android": "https://dc.lft.to/lastmile_qr_scan", "ios": "https://dc.lft.to/lastmile_qr_scan"}, "type": "electric_scooter"}, {"bike_id": "7e213eda3a217d3ea816702baf62b56d", "is_reserved": 0, "name": "7e213eda3a217d3ea816702baf62b56d", "lat": 39.09965566666666, "fusion_lat": 0.0, "lon": -77.183044, "is_disabled": 0, "fusion_lon": 0.0, "rental_uris": {"android": "https://dc.lft.to/lastmile_qr_scan", "ios": "https://dc.lft.to/lastmile_qr_scan"}, "type": "electric_bike"}, {"bike_id": "ba77d1b0194188ed31f03d9a0ecb36b6", "is_reserved": 0, "name": "ba77d1b0194188ed31f03d9a0ecb36b6", "lat": 38.901719, "fusion_lat": 0.0, "lon": -77.02686616666666, "is_disabled": 0, "fusion_lon": 0.0, "rental_uris": {"android": "https://dc.lft.to/lastmile_qr_scan", "ios": "https://dc.lft.to/lastmile_qr_scan"}, "type": "electric_scooter"}, {"bike_id": "c1b4f751a52f7c920216c61057a72047", "is_reserved": 0, "name": "c1b4f751a52f7c920216c61057a72047", "lat": 38.926509833333334, "fusion_lat": 0.0, "lon": -77.0383745, "is_disabled": 0, "fusion_lon": 0.0, "rental_uris": {"android": "https://dc.lft.to/lastmile_qr_scan", "ios": "https://dc.lft.to/lastmile_qr_scan"}, "type": "electric_scooter"}, {"bike_id": "7ac43348733d2563c484efe82ab016da", "is_reserved": 0, "name": "7ac43348733d2563c484efe82ab016da", "lat": 38.87080383333333, "fusion_lat": 0.0, "lon": -77.00837283333334, "is_disabled": 0, "fusion_lon": 0.0, "rental_uris": {"android": "https://dc.lft.to/lastmile_qr_scan", "ios": "https://dc.lft.to/lastmile_qr_scan"}, "type": "electric_scooter"}, {"bike_id": "5151780fa3d340cb1d4b21136df870cf", "is_reserved": 0, "name": "5151780fa3d340cb1d4b21136df870cf", "lat": 38.925151, "fusion_lat": 0.0, "lon": -77.03790433333333, "is_disabled": 0, "fusion_lon": 0.0, "rental_uris": {"android": "https://dc.lft.to/lastmile_qr_scan", "ios": "https://dc.lft.to/lastmile_qr_scan"}, "type": "electric_scooter"}, {"bike_id": "dee159b1b237380bd03e316c6a8ec422", "is_reserved": 0, "name": "dee159b1b237380bd03e316c6a8ec422", "lat": 38.90861533333333, "fusion_lat": 0.0, "lon": -77.0037725, "is_disabled": 0, "fusion_lon": 0.0, "rental_uris": {"android": "https://dc.lft.to/lastmile_qr_scan", "ios": "https://dc.lft.to/lastmile_qr_scan"}, "type": "electric_scooter"}, {"bike_id": "7e9b1e9969591c581825641e7b5bdc60", "is_reserved": 0, "name": "7e9b1e9969591c581825641e7b5bdc60", "lat": 38.900267166666666, "fusion_lat": 0.0, "lon": -76.99135433333333, "is_disabled": 0, "fusion_lon": 0.0, "rental_uris": {"android": "https://dc.lft.to/lastmile_qr_scan", "ios": "https://dc.lft.to/lastmile_qr_scan"}, "type": "electric_scooter"}, {"bike_id": "ce95e50746db72bb3f97f960366135e8", "is_reserved": 0, "name": "ce95e50746db72bb3f97f960366135e8", "lat": 38.90103033333333, "fusion_lat": 0.0, "lon": -77.05067166666667, "is_disabled": 0, "fusion_lon": 0.0, "rental_uris": {"android": "https://dc.lft.to/lastmile_qr_scan", "ios": "https://dc.lft.to/lastmile_qr_scan"}, "type": "electric_scooter"}, {"bike_id": "ef93d376b44c99951130fa3409d2f14e", "is_reserved": 0, "name": "ef93d376b44c99951130fa3409d2f14e", "lat": 38.8217185, "fusion_lat": 0.0, "lon": -77.00144233333333, "is_disabled": 0, "fusion_lon": 0.0, "rental_uris": {"android": "https://dc.lft.to/lastmile_qr_scan", "ios": "https://dc.lft.to/lastmile_qr_scan"}, "type": "electric_bike"}, {"bike_id": "a534b6a230528384057cfb64478df5d3", "is_reserved": 0, "name": "a534b6a230528384057cfb64478df5d3", "lat": 38.89603433333333, "fusion_lat": 0.0, "lon": -77.00930616666666, "is_disabled": 0, "fusion_lon": 0.0, "rental_uris": {"android": "https://dc.lft.to/lastmile_qr_scan", "ios": "https://dc.lft.to/lastmile_qr_scan"}, "type": "electric_scooter"}, {"bike_id": "eec2730249902a5b3d7c0f8de603909d", "is_reserved": 0, "name": "eec2730249902a5b3d7c0f8de603909d", "lat": 38.88965666666667, "fusion_lat": 0.0, "lon": -76.92734733333333, "is_disabled": 0, "fusion_lon": 0.0, "rental_uris": {"android": "https://dc.lft.to/lastmile_qr_scan", "ios": "https://dc.lft.to/lastmile_qr_scan"}, "type": "electric_scooter"}, {"bike_id": "4c50feb3ee10b6a80d877ba6a1a19d48", "is_reserved": 0, "name": "4c50feb3ee10b6a80d877ba6a1a19d48", "lat": 38.9170895, "fusion_lat": 0.0, "lon": -77.03549066666666, "is_disabled": 0, "fusion_lon": 0.0, "rental_uris": {"android": "https://dc.lft.to/lastmile_qr_scan", "ios": "https://dc.lft.to/lastmile_qr_scan"}, "type": "electric_scooter"}, {"bike_id": "5a10fbf3b0711d6adab4c8e371d434e3", "is_reserved": 0, "name": "5a10fbf3b0711d6adab4c8e371d434e3", "lat": 38.90089283333333, "fusion_lat": 0.0, "lon": -77.05143216666667, "is_disabled": 0, "fusion_lon": 0.0, "rental_uris": {"android": "https://dc.lft.to/lastmile_qr_scan", "ios": "https://dc.lft.to/lastmile_qr_scan"}, "type": "electric_scooter"}, {"bike_id": "fcc6448ac4cadcc168826003facf6cfb", "is_reserved": 0, "name": "fcc6448ac4cadcc168826003facf6cfb", "lat": 38.8427745, "fusion_lat": 0.0, "lon": -76.98842116666667, "is_disabled": 0, "fusion_lon": 0.0, "rental_uris": {"android": "https://dc.lft.to/lastmile_qr_scan", "ios": "https://dc.lft.to/lastmile_qr_scan"}, "type": "electric_bike"}, {"bike_id": "8a4cfa7797e97d7db6c07ef2d13be431", "is_reserved": 0, "name": "8a4cfa7797e97d7db6c07ef2d13be431", "lat": 38.91299166666667, "fusion_lat": 0.0, "lon": -76.98468233333334, "is_disabled": 0, "fusion_lon": 0.0, "rental_uris": {"android": "https://dc.lft.to/lastmile_qr_scan", "ios": "https://dc.lft.to/lastmile_qr_scan"}, "type": "electric_scooter"}, {"bike_id": "c23ba62a76df380c5d8bed67168bc21d", "is_reserved": 0, "name": "c23ba62a76df380c5d8bed67168bc21d", "lat": 38.895457, "fusion_lat": 0.0, "lon": -76.9833765, "is_disabled": 0, "fusion_lon": 0.0, "rental_uris": {"android": "https://dc.lft.to/lastmile_qr_scan", "ios": "https://dc.lft.to/lastmile_qr_scan"}, "type": "electric_scooter"}, {"bike_id": "12d4c268f22df38c7b2f040945ab2215", "is_reserved": 0, "name": "12d4c268f22df38c7b2f040945ab2215", "lat": 38.9234495, "fusion_lat": 0.0, "lon": -77.052156, "is_disabled": 0, "fusion_lon": 0.0, "rental_uris": {"android": "https://dc.lft.to/lastmile_qr_scan", "ios": "https://dc.lft.to/lastmile_qr_scan"}, "type": "electric_scooter"}, {"bike_id": "e64c6be5007086ecb2b689f293159d8f", "is_reserved": 0, "name": "e64c6be5007086ecb2b689f293159d8f", "lat": 38.89624533333333, "fusion_lat": 0.0, "lon": -76.998503, "is_disabled": 0, "fusion_lon": 0.0, "rental_uris": {"android": "https://dc.lft.to/lastmile_qr_scan", "ios": "https://dc.lft.to/lastmile_qr_scan"}, "type": "electric_scooter"}, {"bike_id": "2d14df220dabca2bc43769c114e3a93c", "is_reserved": 0, "name": "2d14df220dabca2bc43769c114e3a93c", "lat": 38.901337, "fusion_lat": 0.0, "lon": -77.04491583333333, "is_disabled": 0, "fusion_lon": 0.0, "rental_uris": {"android": "https://dc.lft.to/lastmile_qr_scan", "ios": "https://dc.lft.to/lastmile_qr_scan"}, "type": "electric_scooter"}, {"bike_id": "2c33132e7e0b77edb003174f35773a43", "is_reserved": 0, "name": "2c33132e7e0b77edb003174f35773a43", "lat": 38.921799166666666, "fusion_lat": 0.0, "lon": -77.0382605, "is_disabled": 0, "fusion_lon": 0.0, "rental_uris": {"android": "https://dc.lft.to/lastmile_qr_scan", "ios": "https://dc.lft.to/lastmile_qr_scan"}, "type": "electric_scooter"}, {"bike_id": "7cce521d53b227945138001817429533", "is_reserved": 0, "name": "7cce521d53b227945138001817429533", "lat": 38.87136116666667, "fusion_lat": 0.0, "lon": -77.01223433333334, "is_disabled": 0, "fusion_lon": 0.0, "rental_uris": {"android": "https://dc.lft.to/lastmile_qr_scan", "ios": "https://dc.lft.to/lastmile_qr_scan"}, "type": "electric_scooter"}, {"bike_id": "6a3f5c00056fd8c5dc71cc8e712158a5", "is_reserved": 0, "name": "6a3f5c00056fd8c5dc71cc8e712158a5", "lat": 38.930989833333335, "fusion_lat": 0.0, "lon": -77.03080733333333, "is_disabled": 0, "fusion_lon": 0.0, "rental_uris": {"android": "https://dc.lft.to/lastmile_qr_scan", "ios": "https://dc.lft.to/lastmile_qr_scan"}, "type": "electric_scooter"}, {"bike_id": "182be7e7e3d1a797699b518758151bb7", "is_reserved": 0, "name": "182be7e7e3d1a797699b518758151bb7", "lat": 38.910143166666664, "fusion_lat": 0.0, "lon": -77.03440833333333, "is_disabled": 0, "fusion_lon": 0.0, "rental_uris": {"android": "https://dc.lft.to/lastmile_qr_scan", "ios": "https://dc.lft.to/lastmile_qr_scan"}, "type": "electric_scooter"}, {"bike_id": "001d9b5f7af5451b210f310b96386ee7", "is_reserved": 0, "name": "001d9b5f7af5451b210f310b96386ee7", "lat": 38.965750166666666, "fusion_lat": 0.0, "lon": -77.00264666666666, "is_disabled": 0, "fusion_lon": 0.0, "rental_uris": {"android": "https://dc.lft.to/lastmile_qr_scan", "ios": "https://dc.lft.to/lastmile_qr_scan"}, "type": "electric_scooter"}, {"bike_id": "2c7f452c0719d46a26f9abe6daf22aae", "is_reserved": 0, "name": "2c7f452c0719d46a26f9abe6daf22aae", "lat": 38.89558683333333, "fusion_lat": 0.0, "lon": -76.94862683333334, "is_disabled": 0, "fusion_lon": 0.0, "rental_uris": {"android": "https://dc.lft.to/lastmile_qr_scan", "ios": "https://dc.lft.to/lastmile_qr_scan"}, "type": "electric_scooter"}, {"bike_id": "0c966b382c59859f310d42c957046add", "is_reserved": 0, "name": "0c966b382c59859f310d42c957046add", "lat": 38.89816866666666, "fusion_lat": 0.0, "lon": -77.030291, "is_disabled": 0, "fusion_lon": 0.0, "rental_uris": {"android": "https://dc.lft.to/lastmile_qr_scan", "ios": "https://dc.lft.to/lastmile_qr_scan"}, "type": "electric_scooter"}, {"bike_id": "d34a2349b92b516cc4d4685d534bd992", "is_reserved": 0, "name": "d34a2349b92b516cc4d4685d534bd992", "lat": 38.908591, "fusion_lat": 0.0, "lon": -77.02349466666666, "is_disabled": 0, "fusion_lon": 0.0, "rental_uris": {"android": "https://dc.lft.to/lastmile_qr_scan", "ios": "https://dc.lft.to/lastmile_qr_scan"}, "type": "electric_scooter"}, {"bike_id": "e390922f8bebc7cffcdcdf787b00d1e5", "is_reserved": 0, "name": "e390922f8bebc7cffcdcdf787b00d1e5", "lat": 38.86738316666667, "fusion_lat": 0.0, "lon": -76.98786116666666, "is_disabled": 0, "fusion_lon": 0.0, "rental_uris": {"android": "https://dc.lft.to/lastmile_qr_scan", "ios": "https://dc.lft.to/lastmile_qr_scan"}, "type": "electric_scooter"}, {"bike_id": "3945091adfc1428e8d42500b3c5d8d08", "is_reserved": 0, "name": "3945091adfc1428e8d42500b3c5d8d08", "lat": 38.9618075, "fusion_lat": 0.0, "lon": -77.0526555, "is_disabled": 0, "fusion_lon": 0.0, "rental_uris": {"android": "https://dc.lft.to/lastmile_qr_scan", "ios": "https://dc.lft.to/lastmile_qr_scan"}, "type": "electric_bike"}, {"bike_id": "e141c28b678bd7a8a1aa7df0e4a61776", "is_reserved": 0, "name": "e141c28b678bd7a8a1aa7df0e4a61776", "lat": 38.9048505, "fusion_lat": 0.0, "lon": -77.02115283333333, "is_disabled": 0, "fusion_lon": 0.0, "rental_uris": {"android": "https://dc.lft.to/lastmile_qr_scan", "ios": "https://dc.lft.to/lastmile_qr_scan"}, "type": "electric_scooter"}, {"bike_id": "eea90a894e3f2a0df8e021a1485cfd30", "is_reserved": 0, "name": "eea90a894e3f2a0df8e021a1485cfd30", "lat": 38.924208166666666, "fusion_lat": 0.0, "lon": -77.057465, "is_disabled": 0, "fusion_lon": 0.0, "rental_uris": {"android": "https://dc.lft.to/lastmile_qr_scan", "ios": "https://dc.lft.to/lastmile_qr_scan"}, "type": "electric_scooter"}, {"bike_id": "0d99cb6f6a6f957048c958fae367d94e", "is_reserved": 0, "name": "0d99cb6f6a6f957048c958fae367d94e", "lat": 38.91721116666667, "fusion_lat": 0.0, "lon": -77.02699166666666, "is_disabled": 0, "fusion_lon": 0.0, "rental_uris": {"android": "https://dc.lft.to/lastmile_qr_scan", "ios": "https://dc.lft.to/lastmile_qr_scan"}, "type": "electric_scooter"}, {"bike_id": "79d7718896eba51a5789aba06da871d2", "is_reserved": 0, "name": "79d7718896eba51a5789aba06da871d2", "lat": 38.87372366666666, "fusion_lat": 0.0, "lon": -77.0012405, "is_disabled": 0, "fusion_lon": 0.0, "rental_uris": {"android": "https://dc.lft.to/lastmile_qr_scan", "ios": "https://dc.lft.to/lastmile_qr_scan"}, "type": "electric_scooter"}, {"bike_id": "a5acae99aecd4c89a92ef29892d183f4", "is_reserved": 0, "name": "a5acae99aecd4c89a92ef29892d183f4", "lat": 38.923658833333334, "fusion_lat": 0.0, "lon": -77.0507025, "is_disabled": 0, "fusion_lon": 0.0, "rental_uris": {"android": "https://dc.lft.to/lastmile_qr_scan", "ios": "https://dc.lft.to/lastmile_qr_scan"}, "type": "electric_scooter"}, {"bike_id": "0c9074fa0667d4f740f350803a820053", "is_reserved": 0, "name": "0c9074fa0667d4f740f350803a820053", "lat": 38.9223195, "fusion_lat": 0.0, "lon": -77.023329, "is_disabled": 0, "fusion_lon": 0.0, "rental_uris": {"android": "https://dc.lft.to/lastmile_qr_scan", "ios": "https://dc.lft.to/lastmile_qr_scan"}, "type": "electric_scooter"}, {"bike_id": "e0a48df60af53058d8e1921e95573048", "is_reserved": 0, "name": "e0a48df60af53058d8e1921e95573048", "lat": 38.892223, "fusion_lat": 0.0, "lon": -77.02629983333334, "is_disabled": 0, "fusion_lon": 0.0, "rental_uris": {"android": "https://dc.lft.to/lastmile_qr_scan", "ios": "https://dc.lft.to/lastmile_qr_scan"}, "type": "electric_scooter"}, {"bike_id": "5af0992a3244c31242373a1f78598199", "is_reserved": 0, "name": "5af0992a3244c31242373a1f78598199", "lat": 38.93967683333333, "fusion_lat": 0.0, "lon": -77.03252966666666, "is_disabled": 0, "fusion_lon": 0.0, "rental_uris": {"android": "https://dc.lft.to/lastmile_qr_scan", "ios": "https://dc.lft.to/lastmile_qr_scan"}, "type": "electric_scooter"}, {"bike_id": "396a5feefdaaf678ffdb90d56b7c25f1", "is_reserved": 0, "name": "396a5feefdaaf678ffdb90d56b7c25f1", "lat": 38.9125355, "fusion_lat": 0.0, "lon": -77.05883716666666, "is_disabled": 0, "fusion_lon": 0.0, "rental_uris": {"android": "https://dc.lft.to/lastmile_qr_scan", "ios": "https://dc.lft.to/lastmile_qr_scan"}, "type": "electric_scooter"}, {"bike_id": "71dc358ecefe9340745747770395192c", "is_reserved": 0, "name": "71dc358ecefe9340745747770395192c", "lat": 38.884922333333336, "fusion_lat": 0.0, "lon": -76.9806075, "is_disabled": 0, "fusion_lon": 0.0, "rental_uris": {"android": "https://dc.lft.to/lastmile_qr_scan", "ios": "https://dc.lft.to/lastmile_qr_scan"}, "type": "electric_scooter"}, {"bike_id": "849a27068544a15046da8c9485828c61", "is_reserved": 0, "name": "849a27068544a15046da8c9485828c61", "lat": 38.90126016666667, "fusion_lat": 0.0, "lon": -77.04336383333333, "is_disabled": 0, "fusion_lon": 0.0, "rental_uris": {"android": "https://dc.lft.to/lastmile_qr_scan", "ios": "https://dc.lft.to/lastmile_qr_scan"}, "type": "electric_scooter"}, {"bike_id": "6ebb77937ac6bc5b3c0646ab0ab105b0", "is_reserved": 0, "name": "6ebb77937ac6bc5b3c0646ab0ab105b0", "lat": 38.94180466666667, "fusion_lat": 0.0, "lon": -77.0253155, "is_disabled": 0, "fusion_lon": 0.0, "rental_uris": {"android": "https://dc.lft.to/lastmile_qr_scan", "ios": "https://dc.lft.to/lastmile_qr_scan"}, "type": "electric_scooter"}, {"bike_id": "20d6d84bef49202e82db06c0375754c5", "is_reserved": 0, "name": "20d6d84bef49202e82db06c0375754c5", "lat": 38.90562116666667, "fusion_lat": 0.0, "lon": -77.00805716666666, "is_disabled": 0, "fusion_lon": 0.0, "rental_uris": {"android": "https://dc.lft.to/lastmile_qr_scan", "ios": "https://dc.lft.to/lastmile_qr_scan"}, "type": "electric_scooter"}, {"bike_id": "e036f1382d98499b498f55e144af7a00", "is_reserved": 0, "name": "e036f1382d98499b498f55e144af7a00", "lat": 38.9243245, "fusion_lat": 0.0, "lon": -77.02707366666667, "is_disabled": 0, "fusion_lon": 0.0, "rental_uris": {"android": "https://dc.lft.to/lastmile_qr_scan", "ios": "https://dc.lft.to/lastmile_qr_scan"}, "type": "electric_scooter"}, {"bike_id": "159202e141a0cad90b5637234d0be735", "is_reserved": 0, "name": "159202e141a0cad90b5637234d0be735", "lat": 38.99682966666667, "fusion_lat": 0.0, "lon": -77.02545166666667, "is_disabled": 0, "fusion_lon": 0.0, "rental_uris": {"android": "https://dc.lft.to/lastmile_qr_scan", "ios": "https://dc.lft.to/lastmile_qr_scan"}, "type": "electric_bike"}, {"bike_id": "089b56911450c42aa1b53b0669d66770", "is_reserved": 0, "name": "089b56911450c42aa1b53b0669d66770", "lat": 38.8766025, "fusion_lat": 0.0, "lon": -77.00305916666667, "is_disabled": 0, "fusion_lon": 0.0, "rental_uris": {"android": "https://dc.lft.to/lastmile_qr_scan", "ios": "https://dc.lft.to/lastmile_qr_scan"}, "type": "electric_scooter"}, {"bike_id": "716341d47d84efb4b94594a222b64a64", "is_reserved": 0, "name": "716341d47d84efb4b94594a222b64a64", "lat": 38.91998133333333, "fusion_lat": 0.0, "lon": -77.04156433333333, "is_disabled": 0, "fusion_lon": 0.0, "rental_uris": {"android": "https://dc.lft.to/lastmile_qr_scan", "ios": "https://dc.lft.to/lastmile_qr_scan"}, "type": "electric_scooter"}, {"bike_id": "1010ba2323f9c2af27c85980acbc37fe", "is_reserved": 0, "name": "1010ba2323f9c2af27c85980acbc37fe", "lat": 38.914850333333334, "fusion_lat": 0.0, "lon": -77.04247133333334, "is_disabled": 0, "fusion_lon": 0.0, "rental_uris": {"android": "https://dc.lft.to/lastmile_qr_scan", "ios": "https://dc.lft.to/lastmile_qr_scan"}, "type": "electric_scooter"}, {"bike_id": "26b944316a9e6c4d3f1115780561f1a2", "is_reserved": 0, "name": "26b944316a9e6c4d3f1115780561f1a2", "lat": 38.921498, "fusion_lat": 0.0, "lon": -77.04355733333334, "is_disabled": 0, "fusion_lon": 0.0, "rental_uris": {"android": "https://dc.lft.to/lastmile_qr_scan", "ios": "https://dc.lft.to/lastmile_qr_scan"}, "type": "electric_scooter"}, {"bike_id": "289af723ac56efad55c6ecafa5b1826e", "is_reserved": 0, "name": "289af723ac56efad55c6ecafa5b1826e", "lat": 38.91607966666667, "fusion_lat": 0.0, "lon": -77.0372405, "is_disabled": 0, "fusion_lon": 0.0, "rental_uris": {"android": "https://dc.lft.to/lastmile_qr_scan", "ios": "https://dc.lft.to/lastmile_qr_scan"}, "type": "electric_scooter"}, {"bike_id": "e97717e1598b3175e14eefc05ed1b2f5", "is_reserved": 0, "name": "e97717e1598b3175e14eefc05ed1b2f5", "lat": 38.9188005, "fusion_lat": 0.0, "lon": -77.03490983333333, "is_disabled": 0, "fusion_lon": 0.0, "rental_uris": {"android": "https://dc.lft.to/lastmile_qr_scan", "ios": "https://dc.lft.to/lastmile_qr_scan"}, "type": "electric_scooter"}, {"bike_id": "5d95d67c6ff06d0d356dc896ac70363c", "is_reserved": 0, "name": "5d95d67c6ff06d0d356dc896ac70363c", "lat": 38.90760516666667, "fusion_lat": 0.0, "lon": -77.0358215, "is_disabled": 0, "fusion_lon": 0.0, "rental_uris": {"android": "https://dc.lft.to/lastmile_qr_scan", "ios": "https://dc.lft.to/lastmile_qr_scan"}, "type": "electric_scooter"}, {"bike_id": "13a2ea3291bc3949d4f4e91eb6221f0d", "is_reserved": 0, "name": "13a2ea3291bc3949d4f4e91eb6221f0d", "lat": 38.912930333333335, "fusion_lat": 0.0, "lon": -77.03658616666667, "is_disabled": 0, "fusion_lon": 0.0, "rental_uris": {"android": "https://dc.lft.to/lastmile_qr_scan", "ios": "https://dc.lft.to/lastmile_qr_scan"}, "type": "electric_scooter"}, {"bike_id": "e53a9f288ac5245b95b8cf4f3dd2227c", "is_reserved": 0, "name": "e53a9f288ac5245b95b8cf4f3dd2227c", "lat": 38.897287166666665, "fusion_lat": 0.0, "lon": -77.03299083333333, "is_disabled": 0, "fusion_lon": 0.0, "rental_uris": {"android": "https://dc.lft.to/lastmile_qr_scan", "ios": "https://dc.lft.to/lastmile_qr_scan"}, "type": "electric_scooter"}, {"bike_id": "74983e61051f5920002714536c152bb6", "is_reserved": 0, "name": "74983e61051f5920002714536c152bb6", "lat": 38.92844083333333, "fusion_lat": 0.0, "lon": -77.02061116666667, "is_disabled": 0, "fusion_lon": 0.0, "rental_uris": {"android": "https://dc.lft.to/lastmile_qr_scan", "ios": "https://dc.lft.to/lastmile_qr_scan"}, "type": "electric_bike"}, {"bike_id": "59636aa3dfcdfde22061360cda619437", "is_reserved": 0, "name": "59636aa3dfcdfde22061360cda619437", "lat": 38.90883566666667, "fusion_lat": 0.0, "lon": -77.04163866666667, "is_disabled": 0, "fusion_lon": 0.0, "rental_uris": {"android": "https://dc.lft.to/lastmile_qr_scan", "ios": "https://dc.lft.to/lastmile_qr_scan"}, "type": "electric_scooter"}, {"bike_id": "65b4a78c152a02227f1f438b98ccd1b9", "is_reserved": 0, "name": "65b4a78c152a02227f1f438b98ccd1b9", "lat": 38.900208166666665, "fusion_lat": 0.0, "lon": -77.005362, "is_disabled": 0, "fusion_lon": 0.0, "rental_uris": {"android": "https://dc.lft.to/lastmile_qr_scan", "ios": "https://dc.lft.to/lastmile_qr_scan"}, "type": "electric_scooter"}, {"bike_id": "bdcc176246f7ed5006f2438a053bb7bc", "is_reserved": 0, "name": "bdcc176246f7ed5006f2438a053bb7bc", "lat": 38.90888916666667, "fusion_lat": 0.0, "lon": -77.038475, "is_disabled": 0, "fusion_lon": 0.0, "rental_uris": {"android": "https://dc.lft.to/lastmile_qr_scan", "ios": "https://dc.lft.to/lastmile_qr_scan"}, "type": "electric_scooter"}, {"bike_id": "17ec52cf7bc39c126bd0fc532ca7f718", "is_reserved": 0, "name": "17ec52cf7bc39c126bd0fc532ca7f718", "lat": 38.8996485, "fusion_lat": 0.0, "lon": -77.01608183333333, "is_disabled": 0, "fusion_lon": 0.0, "rental_uris": {"android": "https://dc.lft.to/lastmile_qr_scan", "ios": "https://dc.lft.to/lastmile_qr_scan"}, "type": "electric_scooter"}, {"bike_id": "f7e50f135db678d1d89843a9ae5f8eed", "is_reserved": 0, "name": "f7e50f135db678d1d89843a9ae5f8eed", "lat": 38.87968583333333, "fusion_lat": 0.0, "lon": -76.91614016666666, "is_disabled": 0, "fusion_lon": 0.0, "rental_uris": {"android": "https://dc.lft.to/lastmile_qr_scan", "ios": "https://dc.lft.to/lastmile_qr_scan"}, "type": "electric_bike"}, {"bike_id": "5745b731f4d000fca9728a5df64a6e64", "is_reserved": 0, "name": "5745b731f4d000fca9728a5df64a6e64", "lat": 38.94493133333334, "fusion_lat": 0.0, "lon": -77.03627216666666, "is_disabled": 0, "fusion_lon": 0.0, "rental_uris": {"android": "https://dc.lft.to/lastmile_qr_scan", "ios": "https://dc.lft.to/lastmile_qr_scan"}, "type": "electric_scooter"}, {"bike_id": "73720412f376a31ff05ae3b70bf3179b", "is_reserved": 0, "name": "73720412f376a31ff05ae3b70bf3179b", "lat": 38.88745516666667, "fusion_lat": 0.0, "lon": -77.03072883333333, "is_disabled": 0, "fusion_lon": 0.0, "rental_uris": {"android": "https://dc.lft.to/lastmile_qr_scan", "ios": "https://dc.lft.to/lastmile_qr_scan"}, "type": "electric_scooter"}, {"bike_id": "69afb9c79319508cc88fffbfde9cc5ff", "is_reserved": 0, "name": "69afb9c79319508cc88fffbfde9cc5ff", "lat": 38.899007, "fusion_lat": 0.0, "lon": -76.99158383333334, "is_disabled": 0, "fusion_lon": 0.0, "rental_uris": {"android": "https://dc.lft.to/lastmile_qr_scan", "ios": "https://dc.lft.to/lastmile_qr_scan"}, "type": "electric_scooter"}, {"bike_id": "0520ce55b7f5b3b033e39d1ffb33af12", "is_reserved": 0, "name": "0520ce55b7f5b3b033e39d1ffb33af12", "lat": 38.9279055, "fusion_lat": 0.0, "lon": -77.0245605, "is_disabled": 0, "fusion_lon": 0.0, "rental_uris": {"android": "https://dc.lft.to/lastmile_qr_scan", "ios": "https://dc.lft.to/lastmile_qr_scan"}, "type": "electric_scooter"}, {"bike_id": "bdc9e9b8122f491844f0eb33ed732210", "is_reserved": 0, "name": "bdc9e9b8122f491844f0eb33ed732210", "lat": 38.90040616666667, "fusion_lat": 0.0, "lon": -77.01635083333333, "is_disabled": 0, "fusion_lon": 0.0, "rental_uris": {"android": "https://dc.lft.to/lastmile_qr_scan", "ios": "https://dc.lft.to/lastmile_qr_scan"}, "type": "electric_scooter"}, {"bike_id": "02fd81845166268200ecf90d8d210a98", "is_reserved": 0, "name": "02fd81845166268200ecf90d8d210a98", "lat": 38.8773405, "fusion_lat": 0.0, "lon": -77.11847416666667, "is_disabled": 0, "fusion_lon": 0.0, "rental_uris": {"android": "https://dc.lft.to/lastmile_qr_scan", "ios": "https://dc.lft.to/lastmile_qr_scan"}, "type": "electric_bike"}, {"bike_id": "13f34a546f76b734b98b5cc3b2c73086", "is_reserved": 0, "name": "13f34a546f76b734b98b5cc3b2c73086", "lat": 38.92171666666667, "fusion_lat": 0.0, "lon": -77.03835366666667, "is_disabled": 0, "fusion_lon": 0.0, "rental_uris": {"android": "https://dc.lft.to/lastmile_qr_scan", "ios": "https://dc.lft.to/lastmile_qr_scan"}, "type": "electric_scooter"}, {"bike_id": "e6cfe1bdf9f9d915fc1f5af9e53f08b4", "is_reserved": 0, "name": "e6cfe1bdf9f9d915fc1f5af9e53f08b4", "lat": 38.898387166666666, "fusion_lat": 0.0, "lon": -77.02779866666667, "is_disabled": 0, "fusion_lon": 0.0, "rental_uris": {"android": "https://dc.lft.to/lastmile_qr_scan", "ios": "https://dc.lft.to/lastmile_qr_scan"}, "type": "electric_scooter"}, {"bike_id": "2e516494b3f7d8332323b5ff09a64397", "is_reserved": 0, "name": "2e516494b3f7d8332323b5ff09a64397", "lat": 38.928339666666666, "fusion_lat": 0.0, "lon": -76.99583966666667, "is_disabled": 0, "fusion_lon": 0.0, "rental_uris": {"android": "https://dc.lft.to/lastmile_qr_scan", "ios": "https://dc.lft.to/lastmile_qr_scan"}, "type": "electric_scooter"}, {"bike_id": "fd107c95104393f4e410ddfde550aa8b", "is_reserved": 0, "name": "fd107c95104393f4e410ddfde550aa8b", "lat": 38.902043166666665, "fusion_lat": 0.0, "lon": -77.0234435, "is_disabled": 0, "fusion_lon": 0.0, "rental_uris": {"android": "https://dc.lft.to/lastmile_qr_scan", "ios": "https://dc.lft.to/lastmile_qr_scan"}, "type": "electric_scooter"}, {"bike_id": "96876b4ef7e11f3db22a7834a9098144", "is_reserved": 0, "name": "96876b4ef7e11f3db22a7834a9098144", "lat": 38.917267333333335, "fusion_lat": 0.0, "lon": -77.03618383333334, "is_disabled": 0, "fusion_lon": 0.0, "rental_uris": {"android": "https://dc.lft.to/lastmile_qr_scan", "ios": "https://dc.lft.to/lastmile_qr_scan"}, "type": "electric_scooter"}, {"bike_id": "f7ca6fc61cdffa40ab852a20434c4bab", "is_reserved": 0, "name": "f7ca6fc61cdffa40ab852a20434c4bab", "lat": 38.934240333333335, "fusion_lat": 0.0, "lon": -77.03284316666667, "is_disabled": 0, "fusion_lon": 0.0, "rental_uris": {"android": "https://dc.lft.to/lastmile_qr_scan", "ios": "https://dc.lft.to/lastmile_qr_scan"}, "type": "electric_scooter"}, {"bike_id": "533e8de067e3878d5210fa03ca0f93fd", "is_reserved": 0, "name": "533e8de067e3878d5210fa03ca0f93fd", "lat": 38.90271833333333, "fusion_lat": 0.0, "lon": -76.92899833333334, "is_disabled": 0, "fusion_lon": 0.0, "rental_uris": {"android": "https://dc.lft.to/lastmile_qr_scan", "ios": "https://dc.lft.to/lastmile_qr_scan"}, "type": "electric_scooter"}, {"bike_id": "fcda1f9c42bedd7e79efd8767070c5ba", "is_reserved": 0, "name": "fcda1f9c42bedd7e79efd8767070c5ba", "lat": 38.903925666666666, "fusion_lat": 0.0, "lon": -77.0601295, "is_disabled": 0, "fusion_lon": 0.0, "rental_uris": {"android": "https://dc.lft.to/lastmile_qr_scan", "ios": "https://dc.lft.to/lastmile_qr_scan"}, "type": "electric_scooter"}, {"bike_id": "2e989efbdfefd744abe8fcbeca0395fc", "is_reserved": 0, "name": "2e989efbdfefd744abe8fcbeca0395fc", "lat": 38.887445666666665, "fusion_lat": 0.0, "lon": -77.02125416666667, "is_disabled": 0, "fusion_lon": 0.0, "rental_uris": {"android": "https://dc.lft.to/lastmile_qr_scan", "ios": "https://dc.lft.to/lastmile_qr_scan"}, "type": "electric_scooter"}, {"bike_id": "eb6bbeafae8b2b3596b17ce5207c37ad", "is_reserved": 0, "name": "eb6bbeafae8b2b3596b17ce5207c37ad", "lat": 38.91713, "fusion_lat": 0.0, "lon": -76.97646183333333, "is_disabled": 0, "fusion_lon": 0.0, "rental_uris": {"android": "https://dc.lft.to/lastmile_qr_scan", "ios": "https://dc.lft.to/lastmile_qr_scan"}, "type": "electric_scooter"}, {"bike_id": "80e48b9828a1128ac81dd0a20e5dfb7d", "is_reserved": 0, "name": "80e48b9828a1128ac81dd0a20e5dfb7d", "lat": 38.912547833333335, "fusion_lat": 0.0, "lon": -77.04438, "is_disabled": 0, "fusion_lon": 0.0, "rental_uris": {"android": "https://dc.lft.to/lastmile_qr_scan", "ios": "https://dc.lft.to/lastmile_qr_scan"}, "type": "electric_scooter"}, {"bike_id": "7844dab4194d937b793a26892ce47c4f", "is_reserved": 0, "name": "7844dab4194d937b793a26892ce47c4f", "lat": 38.901883833333336, "fusion_lat": 0.0, "lon": -77.01626733333333, "is_disabled": 0, "fusion_lon": 0.0, "rental_uris": {"android": "https://dc.lft.to/lastmile_qr_scan", "ios": "https://dc.lft.to/lastmile_qr_scan"}, "type": "electric_scooter"}, {"bike_id": "8e31dd6d79a04745a8d0e4afdb839967", "is_reserved": 0, "name": "8e31dd6d79a04745a8d0e4afdb839967", "lat": 38.90956666666666, "fusion_lat": 0.0, "lon": -77.046499, "is_disabled": 0, "fusion_lon": 0.0, "rental_uris": {"android": "https://dc.lft.to/lastmile_qr_scan", "ios": "https://dc.lft.to/lastmile_qr_scan"}, "type": "electric_scooter"}, {"bike_id": "a11033291c0614ff265e393082d98847", "is_reserved": 0, "name": "a11033291c0614ff265e393082d98847", "lat": 38.907399166666664, "fusion_lat": 0.0, "lon": -77.02945516666666, "is_disabled": 0, "fusion_lon": 0.0, "rental_uris": {"android": "https://dc.lft.to/lastmile_qr_scan", "ios": "https://dc.lft.to/lastmile_qr_scan"}, "type": "electric_scooter"}, {"bike_id": "ccc39912681ae9c31d9d8562837bd42f", "is_reserved": 0, "name": "ccc39912681ae9c31d9d8562837bd42f", "lat": 38.93054766666667, "fusion_lat": 0.0, "lon": -77.018627, "is_disabled": 0, "fusion_lon": 0.0, "rental_uris": {"android": "https://dc.lft.to/lastmile_qr_scan", "ios": "https://dc.lft.to/lastmile_qr_scan"}, "type": "electric_scooter"}, {"bike_id": "fb071747b44833464345cf66990d430e", "is_reserved": 0, "name": "fb071747b44833464345cf66990d430e", "lat": 38.91036666666667, "fusion_lat": 0.0, "lon": -77.034077, "is_disabled": 0, "fusion_lon": 0.0, "rental_uris": {"android": "https://dc.lft.to/lastmile_qr_scan", "ios": "https://dc.lft.to/lastmile_qr_scan"}, "type": "electric_scooter"}, {"bike_id": "ed9ad108e0a60e907cdf2222ba2e1cd7", "is_reserved": 0, "name": "ed9ad108e0a60e907cdf2222ba2e1cd7", "lat": 38.92390433333333, "fusion_lat": 0.0, "lon": -77.02170983333333, "is_disabled": 0, "fusion_lon": 0.0, "rental_uris": {"android": "https://dc.lft.to/lastmile_qr_scan", "ios": "https://dc.lft.to/lastmile_qr_scan"}, "type": "electric_scooter"}, {"bike_id": "dd9bf0c7738de48c87cbf81964bc757f", "is_reserved": 0, "name": "dd9bf0c7738de48c87cbf81964bc757f", "lat": 38.873111333333334, "fusion_lat": 0.0, "lon": -77.0106895, "is_disabled": 0, "fusion_lon": 0.0, "rental_uris": {"android": "https://dc.lft.to/lastmile_qr_scan", "ios": "https://dc.lft.to/lastmile_qr_scan"}, "type": "electric_scooter"}, {"bike_id": "cb186ed9eab23b90cb3b5a7c97f05ce4", "is_reserved": 0, "name": "cb186ed9eab23b90cb3b5a7c97f05ce4", "lat": 38.9098, "fusion_lat": 0.0, "lon": -77.02181666666667, "is_disabled": 0, "fusion_lon": 0.0, "rental_uris": {"android": "https://dc.lft.to/lastmile_qr_scan", "ios": "https://dc.lft.to/lastmile_qr_scan"}, "type": "electric_scooter"}, {"bike_id": "4f7bc642976a50957d3dc75a7f37816d", "is_reserved": 0, "name": "4f7bc642976a50957d3dc75a7f37816d", "lat": 38.923327, "fusion_lat": 0.0, "lon": -77.01897683333334, "is_disabled": 0, "fusion_lon": 0.0, "rental_uris": {"android": "https://dc.lft.to/lastmile_qr_scan", "ios": "https://dc.lft.to/lastmile_qr_scan"}, "type": "electric_scooter"}, {"bike_id": "0c8e3c5f163ff207534a9e443e4d0790", "is_reserved": 0, "name": "0c8e3c5f163ff207534a9e443e4d0790", "lat": 38.877536166666665, "fusion_lat": 0.0, "lon": -77.00579716666667, "is_disabled": 0, "fusion_lon": 0.0, "rental_uris": {"android": "https://dc.lft.to/lastmile_qr_scan", "ios": "https://dc.lft.to/lastmile_qr_scan"}, "type": "electric_scooter"}, {"bike_id": "1293b4dc4efa801fe330eda171575c68", "is_reserved": 0, "name": "1293b4dc4efa801fe330eda171575c68", "lat": 38.904629166666666, "fusion_lat": 0.0, "lon": -77.04882416666666, "is_disabled": 0, "fusion_lon": 0.0, "rental_uris": {"android": "https://dc.lft.to/lastmile_qr_scan", "ios": "https://dc.lft.to/lastmile_qr_scan"}, "type": "electric_scooter"}, {"bike_id": "4dab5a2b77bc33c1b558f729a2b382f6", "is_reserved": 0, "name": "4dab5a2b77bc33c1b558f729a2b382f6", "lat": 38.907947166666666, "fusion_lat": 0.0, "lon": -77.04986633333333, "is_disabled": 0, "fusion_lon": 0.0, "rental_uris": {"android": "https://dc.lft.to/lastmile_qr_scan", "ios": "https://dc.lft.to/lastmile_qr_scan"}, "type": "electric_scooter"}, {"bike_id": "fafcbf15051b1df192e2f1234025544b", "is_reserved": 0, "name": "fafcbf15051b1df192e2f1234025544b", "lat": 38.903107, "fusion_lat": 0.0, "lon": -76.977984, "is_disabled": 0, "fusion_lon": 0.0, "rental_uris": {"android": "https://dc.lft.to/lastmile_qr_scan", "ios": "https://dc.lft.to/lastmile_qr_scan"}, "type": "electric_scooter"}, {"bike_id": "0ccc4fd66cbe2ccba785dcd7e39a5a9d", "is_reserved": 0, "name": "0ccc4fd66cbe2ccba785dcd7e39a5a9d", "lat": 38.898376999999996, "fusion_lat": 0.0, "lon": -77.04282633333334, "is_disabled": 0, "fusion_lon": 0.0, "rental_uris": {"android": "https://dc.lft.to/lastmile_qr_scan", "ios": "https://dc.lft.to/lastmile_qr_scan"}, "type": "electric_scooter"}, {"bike_id": "faed5a824f42ae301ae7241fbd6ef5d0", "is_reserved": 0, "name": "faed5a824f42ae301ae7241fbd6ef5d0", "lat": 38.88725933333333, "fusion_lat": 0.0, "lon": -77.02572816666667, "is_disabled": 0, "fusion_lon": 0.0, "rental_uris": {"android": "https://dc.lft.to/lastmile_qr_scan", "ios": "https://dc.lft.to/lastmile_qr_scan"}, "type": "electric_scooter"}, {"bike_id": "653934d513b9e5a39d180341fe5f088d", "is_reserved": 0, "name": "653934d513b9e5a39d180341fe5f088d", "lat": 38.9258205, "fusion_lat": 0.0, "lon": -77.02812933333334, "is_disabled": 0, "fusion_lon": 0.0, "rental_uris": {"android": "https://dc.lft.to/lastmile_qr_scan", "ios": "https://dc.lft.to/lastmile_qr_scan"}, "type": "electric_scooter"}, {"bike_id": "4c61736923beb592139dafa54c80516b", "is_reserved": 0, "name": "4c61736923beb592139dafa54c80516b", "lat": 38.91220466666667, "fusion_lat": 0.0, "lon": -77.0319775, "is_disabled": 0, "fusion_lon": 0.0, "rental_uris": {"android": "https://dc.lft.to/lastmile_qr_scan", "ios": "https://dc.lft.to/lastmile_qr_scan"}, "type": "electric_scooter"}, {"bike_id": "4a43ab5f5d157a0a27a1a8151545ed29", "is_reserved": 0, "name": "4a43ab5f5d157a0a27a1a8151545ed29", "lat": 38.9204635, "fusion_lat": 0.0, "lon": -77.03388033333333, "is_disabled": 0, "fusion_lon": 0.0, "rental_uris": {"android": "https://dc.lft.to/lastmile_qr_scan", "ios": "https://dc.lft.to/lastmile_qr_scan"}, "type": "electric_scooter"}, {"bike_id": "caf6f215db25bc63552654e69267bc12", "is_reserved": 0, "name": "caf6f215db25bc63552654e69267bc12", "lat": 38.956498833333335, "fusion_lat": 0.0, "lon": -77.00978916666666, "is_disabled": 0, "fusion_lon": 0.0, "rental_uris": {"android": "https://dc.lft.to/lastmile_qr_scan", "ios": "https://dc.lft.to/lastmile_qr_scan"}, "type": "electric_scooter"}, {"bike_id": "38ec16b989f7e53f0124e5644cecc8b8", "is_reserved": 0, "name": "38ec16b989f7e53f0124e5644cecc8b8", "lat": 38.8705905, "fusion_lat": 0.0, "lon": -77.01347533333333, "is_disabled": 0, "fusion_lon": 0.0, "rental_uris": {"android": "https://dc.lft.to/lastmile_qr_scan", "ios": "https://dc.lft.to/lastmile_qr_scan"}, "type": "electric_bike"}, {"bike_id": "97e2d3835b6ffe8f2cf74fd5c5c6145a", "is_reserved": 0, "name": "97e2d3835b6ffe8f2cf74fd5c5c6145a", "lat": 38.926038, "fusion_lat": 0.0, "lon": -77.02386483333333, "is_disabled": 0, "fusion_lon": 0.0, "rental_uris": {"android": "https://dc.lft.to/lastmile_qr_scan", "ios": "https://dc.lft.to/lastmile_qr_scan"}, "type": "electric_scooter"}, {"bike_id": "40019377879faff666c5fddc722df2ea", "is_reserved": 0, "name": "40019377879faff666c5fddc722df2ea", "lat": 38.878347166666664, "fusion_lat": 0.0, "lon": -77.00610283333333, "is_disabled": 0, "fusion_lon": 0.0, "rental_uris": {"android": "https://dc.lft.to/lastmile_qr_scan", "ios": "https://dc.lft.to/lastmile_qr_scan"}, "type": "electric_scooter"}, {"bike_id": "5a76110c4f2be176f693555da2680184", "is_reserved": 0, "name": "5a76110c4f2be176f693555da2680184", "lat": 38.91802833333333, "fusion_lat": 0.0, "lon": -77.02489966666667, "is_disabled": 0, "fusion_lon": 0.0, "rental_uris": {"android": "https://dc.lft.to/lastmile_qr_scan", "ios": "https://dc.lft.to/lastmile_qr_scan"}, "type": "electric_scooter"}, {"bike_id": "4ebff6c39b0efa510ec571f1e7951e0d", "is_reserved": 0, "name": "4ebff6c39b0efa510ec571f1e7951e0d", "lat": 38.907747666666666, "fusion_lat": 0.0, "lon": -77.071646, "is_disabled": 0, "fusion_lon": 0.0, "rental_uris": {"android": "https://dc.lft.to/lastmile_qr_scan", "ios": "https://dc.lft.to/lastmile_qr_scan"}, "type": "electric_scooter"}, {"bike_id": "d939fe127628ced1875d7dfccf5204a0", "is_reserved": 0, "name": "d939fe127628ced1875d7dfccf5204a0", "lat": 38.93048483333333, "fusion_lat": 0.0, "lon": -77.0322015, "is_disabled": 0, "fusion_lon": 0.0, "rental_uris": {"android": "https://dc.lft.to/lastmile_qr_scan", "ios": "https://dc.lft.to/lastmile_qr_scan"}, "type": "electric_scooter"}, {"bike_id": "c789b882cd0c98824f1c463be30f766f", "is_reserved": 0, "name": "c789b882cd0c98824f1c463be30f766f", "lat": 38.926217666666666, "fusion_lat": 0.0, "lon": -77.04190933333334, "is_disabled": 0, "fusion_lon": 0.0, "rental_uris": {"android": "https://dc.lft.to/lastmile_qr_scan", "ios": "https://dc.lft.to/lastmile_qr_scan"}, "type": "electric_scooter"}, {"bike_id": "a929c61dac6586743ebb0223f0633d81", "is_reserved": 0, "name": "a929c61dac6586743ebb0223f0633d81", "lat": 38.8962015, "fusion_lat": 0.0, "lon": -76.98563983333334, "is_disabled": 0, "fusion_lon": 0.0, "rental_uris": {"android": "https://dc.lft.to/lastmile_qr_scan", "ios": "https://dc.lft.to/lastmile_qr_scan"}, "type": "electric_scooter"}, {"bike_id": "3f3d242517154e42fa32e259ab81d24f", "is_reserved": 0, "name": "3f3d242517154e42fa32e259ab81d24f", "lat": 38.89790216666667, "fusion_lat": 0.0, "lon": -76.9472845, "is_disabled": 0, "fusion_lon": 0.0, "rental_uris": {"android": "https://dc.lft.to/lastmile_qr_scan", "ios": "https://dc.lft.to/lastmile_qr_scan"}, "type": "electric_scooter"}, {"bike_id": "b6960f73707e2874c5ad357fb2c41fdb", "is_reserved": 0, "name": "b6960f73707e2874c5ad357fb2c41fdb", "lat": 38.87083166666667, "fusion_lat": 0.0, "lon": -77.01208433333333, "is_disabled": 0, "fusion_lon": 0.0, "rental_uris": {"android": "https://dc.lft.to/lastmile_qr_scan", "ios": "https://dc.lft.to/lastmile_qr_scan"}, "type": "electric_bike"}, {"bike_id": "32940ca17c55d82793062b6004f0a50f", "is_reserved": 0, "name": "32940ca17c55d82793062b6004f0a50f", "lat": 38.91712166666667, "fusion_lat": 0.0, "lon": -77.03242833333333, "is_disabled": 0, "fusion_lon": 0.0, "rental_uris": {"android": "https://dc.lft.to/lastmile_qr_scan", "ios": "https://dc.lft.to/lastmile_qr_scan"}, "type": "electric_scooter"}, {"bike_id": "72d57d9e52e39d903414edd698962492", "is_reserved": 0, "name": "72d57d9e52e39d903414edd698962492", "lat": 38.903915833333336, "fusion_lat": 0.0, "lon": -77.02983083333334, "is_disabled": 0, "fusion_lon": 0.0, "rental_uris": {"android": "https://dc.lft.to/lastmile_qr_scan", "ios": "https://dc.lft.to/lastmile_qr_scan"}, "type": "electric_scooter"}, {"bike_id": "1168eb8cf031f086a8b22aaa520b2dc5", "is_reserved": 0, "name": "1168eb8cf031f086a8b22aaa520b2dc5", "lat": 38.9427125, "fusion_lat": 0.0, "lon": -77.03258683333334, "is_disabled": 0, "fusion_lon": 0.0, "rental_uris": {"android": "https://dc.lft.to/lastmile_qr_scan", "ios": "https://dc.lft.to/lastmile_qr_scan"}, "type": "electric_scooter"}, {"bike_id": "903aaa2dc95a4ae16fcaf798d5b1365b", "is_reserved": 0, "name": "903aaa2dc95a4ae16fcaf798d5b1365b", "lat": 38.90711233333333, "fusion_lat": 0.0, "lon": -77.02519066666666, "is_disabled": 0, "fusion_lon": 0.0, "rental_uris": {"android": "https://dc.lft.to/lastmile_qr_scan", "ios": "https://dc.lft.to/lastmile_qr_scan"}, "type": "electric_scooter"}, {"bike_id": "7e0a20baffeaef9f426c61514f82d2ad", "is_reserved": 0, "name": "7e0a20baffeaef9f426c61514f82d2ad", "lat": 38.8703085, "fusion_lat": 0.0, "lon": -77.22903166666667, "is_disabled": 0, "fusion_lon": 0.0, "rental_uris": {"android": "https://dc.lft.to/lastmile_qr_scan", "ios": "https://dc.lft.to/lastmile_qr_scan"}, "type": "electric_bike"}, {"bike_id": "0929f8589e28b504d227b1304f19f67f", "is_reserved": 0, "name": "0929f8589e28b504d227b1304f19f67f", "lat": 38.892335333333335, "fusion_lat": 0.0, "lon": -77.04362116666667, "is_disabled": 0, "fusion_lon": 0.0, "rental_uris": {"android": "https://dc.lft.to/lastmile_qr_scan", "ios": "https://dc.lft.to/lastmile_qr_scan"}, "type": "electric_scooter"}, {"bike_id": "9759fc701b17adbeae9ac0f3fb6da63f", "is_reserved": 0, "name": "9759fc701b17adbeae9ac0f3fb6da63f", "lat": 38.917097166666665, "fusion_lat": 0.0, "lon": -77.03339233333334, "is_disabled": 0, "fusion_lon": 0.0, "rental_uris": {"android": "https://dc.lft.to/lastmile_qr_scan", "ios": "https://dc.lft.to/lastmile_qr_scan"}, "type": "electric_scooter"}, {"bike_id": "669a3417b4b13bd630f83cd78a62162a", "is_reserved": 0, "name": "669a3417b4b13bd630f83cd78a62162a", "lat": 38.91923583333333, "fusion_lat": 0.0, "lon": -77.03256033333334, "is_disabled": 0, "fusion_lon": 0.0, "rental_uris": {"android": "https://dc.lft.to/lastmile_qr_scan", "ios": "https://dc.lft.to/lastmile_qr_scan"}, "type": "electric_scooter"}, {"bike_id": "d53c1def538032b2fe781d9e4388cdd1", "is_reserved": 0, "name": "d53c1def538032b2fe781d9e4388cdd1", "lat": 38.92722716666667, "fusion_lat": 0.0, "lon": -77.02092783333333, "is_disabled": 0, "fusion_lon": 0.0, "rental_uris": {"android": "https://dc.lft.to/lastmile_qr_scan", "ios": "https://dc.lft.to/lastmile_qr_scan"}, "type": "electric_bike"}, {"bike_id": "92e89af0e1249c0d00a00d4fb3d487df", "is_reserved": 0, "name": "92e89af0e1249c0d00a00d4fb3d487df", "lat": 38.934887, "fusion_lat": 0.0, "lon": -77.07277116666667, "is_disabled": 0, "fusion_lon": 0.0, "rental_uris": {"android": "https://dc.lft.to/lastmile_qr_scan", "ios": "https://dc.lft.to/lastmile_qr_scan"}, "type": "electric_scooter"}, {"bike_id": "0101791c01fba53ebdde90cf5afc9666", "is_reserved": 0, "name": "0101791c01fba53ebdde90cf5afc9666", "lat": 38.89561716666667, "fusion_lat": 0.0, "lon": -77.07831366666667, "is_disabled": 0, "fusion_lon": 0.0, "rental_uris": {"android": "https://dc.lft.to/lastmile_qr_scan", "ios": "https://dc.lft.to/lastmile_qr_scan"}, "type": "electric_bike"}, {"bike_id": "ed80b23094d051068064d4df3d20c620", "is_reserved": 0, "name": "ed80b23094d051068064d4df3d20c620", "lat": 38.905097166666664, "fusion_lat": 0.0, "lon": -77.02944566666666, "is_disabled": 0, "fusion_lon": 0.0, "rental_uris": {"android": "https://dc.lft.to/lastmile_qr_scan", "ios": "https://dc.lft.to/lastmile_qr_scan"}, "type": "electric_scooter"},