{"data": {"bikes": [{"name": "da6a138a8dbea6b4961c847b500a2542", "fusion_lat": 0.0, "type": "electric_scooter", "lat": 38.892306833333336, "is_reserved": 0, "is_disabled": 0, "fusion_lon": 0.0, "bike_id": "da6a138a8dbea6b4961c847b500a2542", "lon": -77.03194016666667, "rental_uris": {"ios": "https://dc.lft.to/lastmile_qr_scan", "android": "https://dc.lft.to/lastmile_qr_scan"}}, {"name": "6b8a39ecdc4e134d7eb371bf91990533", "fusion_lat": 0.0, "type": "electric_scooter", "lat": 38.89382116666667, "is_reserved": 0, "is_disabled": 0, "fusion_lon": 0.0, "bike_id": "6b8a39ecdc4e134d7eb371bf91990533", "lon": -77.029823, "rental_uris": {"ios": "https://dc.lft.to/lastmile_qr_scan", "android": "https://dc.lft.to/lastmile_qr_scan"}}, {"name": "f44a2e6f75257c8481c9d223e4797a10", "fusion_lat": 0.0, "type": "electric_scooter", "lat": 38.912562333333334, "is_reserved": 0, "is_disabled": 0, "fusion_lon": 0.0, "bike_id": "f44a2e6f75257c8481c9d223e4797a10", "lon": -77.03865683333333, "rental_uris": {"ios": "https://dc.lft.to/lastmile_qr_scan", "android": "https://dc.lft.to/lastmile_qr_scan"}}, {"name": "106dcdc4f0f63c18b665cf3cefd223fc", "fusion_lat": 0.0, "type": "electric_scooter", "lat": 38.8979955, "is_reserved": 0, "is_disabled": 0, "fusion_lon": 0.0, "bike_id": "106dcdc4f0f63c18b665cf3cefd223fc", "lon": -77.0461245, "rental_uris": {"ios": "https://dc.lft.to/lastmile_qr_scan", "android": "https://dc.lft.to/lastmile_qr_scan"}}, {"name": "031334a33a14cfab643ae289ed57be4e", "fusion_lat": 0.0, "type": "electric_scooter", "lat": 38.92586133333333, "is_reserved": 0, "is_disabled": 0, "fusion_lon": 0.0, "bike_id": "031334a33a14cfab643ae289ed57be4e", "lon": -77.02602666666667, "rental_uris": {"ios": "https://dc.lft.to/lastmile_qr_scan", "android": "https://dc.lft.to/lastmile_qr_scan"}}, {"name": "4c6171d00a6a807ab358850f982fcef4", "fusion_lat": 0.0, "type": "electric_scooter", "lat": 38.86660966666667, "is_reserved": 0, "is_disabled": 0, "fusion_lon": 0.0, "bike_id": "4c6171d00a6a807ab358850f982fcef4", "lon": -76.98883616666667, "rental_uris": {"ios": "https://dc.lft.to/lastmile_qr_scan", "android": "https://dc.lft.to/lastmile_qr_scan"}}, {"name": "687b26e2f888e93ec8fc93a729107023", "fusion_lat": 0.0, "type": "electric_scooter", "lat": 38.931248333333336, "is_reserved": 0, "is_disabled": 0, "fusion_lon": 0.0, "bike_id": "687b26e2f888e93ec8fc93a729107023", "lon": -77.03604766666666, "rental_uris": {"ios": "https://dc.lft.to/lastmile_qr_scan", "android": "https://dc.lft.to/lastmile_qr_scan"}}, {"name": "dbd51d10d6bc1aadf33d4cb2a7c64c30", "fusion_lat": 0.0, "type": "electric_bike", "lat": 38.85852366666667, "is_reserved": 0, "is_disabled": 0, "fusion_lon": 0.0, "bike_id": "dbd51d10d6bc1aadf33d4cb2a7c64c30", "lon": -77.09750033333333, "rental_uris": {"ios": "https://dc.lft.to/lastmile_qr_scan", "android": "https://dc.lft.to/lastmile_qr_scan"}}, {"name": "f771d3517755d3b3efecfde4167900c8", "fusion_lat": 0.0, "type": "electric_scooter", "lat": 38.8637345, "is_reserved": 0, "is_disabled": 0, "fusion_lon": 0.0, "bike_id": "f771d3517755d3b3efecfde4167900c8", "lon": -76.99058883333333, "rental_uris": {"ios": "https://dc.lft.to/lastmile_qr_scan", "android": "https://dc.lft.to/lastmile_qr_scan"}}, {"name": "c6b0de8d8a029e8df345549a4926ccf0", "fusion_lat": 0.0, "type": "electric_scooter", "lat": 38.920902, "is_reserved": 0, "is_disabled": 0, "fusion_lon": 0.0, "bike_id": "c6b0de8d8a029e8df345549a4926ccf0", "lon": -77.0317755, "rental_uris": {"ios": "https://dc.lft.to/lastmile_qr_scan", "android": "https://dc.lft.to/lastmile_qr_scan"}}, {"name": "989f0291cac7866b7e7b95407fac1985", "fusion_lat": 0.0, "type": "electric_scooter", "lat": 38.90556566666667, "is_reserved": 0, "is_disabled": 0, "fusion_lon": 0.0, "bike_id": "989f0291cac7866b7e7b95407fac1985", "lon": -77.0223085, "rental_uris": {"ios": "https://dc.lft.to/lastmile_qr_scan", "android": "https://dc.lft.to/lastmile_qr_scan"}}, {"name": "eebadf1326e54041ab46c607c1dcf133", "fusion_lat": 0.0, "type": "electric_scooter", "lat": 38.901236833333336, "is_reserved": 0, "is_disabled": 0, "fusion_lon": 0.0, "bike_id": "eebadf1326e54041ab46c607c1dcf133", "lon": -77.04229633333334, "rental_uris": {"ios": "https://dc.lft.to/lastmile_qr_scan", "android": "https://dc.lft.to/lastmile_qr_scan"}}, {"name": "773bc346e2b3d9c4e936e44854187f1e", "fusion_lat": 0.0, "type": "electric_scooter", "lat": 38.907214, "is_reserved": 0, "is_disabled": 0, "fusion_lon": 0.0, "bike_id": "773bc346e2b3d9c4e936e44854187f1e", "lon": -77.03264266666666, "rental_uris": {"ios": "https://dc.lft.to/lastmile_qr_scan", "android": "https://dc.lft.to/lastmile_qr_scan"}}, {"name": "7aab60985ded75e75e84a8cf5f448695", "fusion_lat": 0.0, "type": "electric_bike", "lat": 39.08850916666667, "is_reserved": 0, "is_disabled": 0, "fusion_lon": 0.0, "bike_id": "7aab60985ded75e75e84a8cf5f448695", "lon": -77.17838033333334, "rental_uris": {"ios": "https://dc.lft.to/lastmile_qr_scan", "android": "https://dc.lft.to/lastmile_qr_scan"}}, {"name": "d34bb125691f0ebaf553e98b8c78753f", "fusion_lat": 0.0, "type": "electric_bike", "lat": 38.914275333333336, "is_reserved": 0, "is_disabled": 0, "fusion_lon": 0.0, "bike_id": "d34bb125691f0ebaf553e98b8c78753f", "lon": -77.016577, "rental_uris": {"ios": "https://dc.lft.to/lastmile_qr_scan", "android": "https://dc.lft.to/lastmile_qr_scan"}}, {"name": "38a93d4ff206f7f1837406f6042d4190", "fusion_lat": 0.0, "type": "electric_scooter", "lat": 38.9564635, "is_reserved": 0, "is_disabled": 0, "fusion_lon": 0.0, "bike_id": "38a93d4ff206f7f1837406f6042d4190", "lon": -77.03288183333333, "rental_uris": {"ios": "https://dc.lft.to/lastmile_qr_scan", "android": "https://dc.lft.to/lastmile_qr_scan"}}, {"name": "5a22663220c28fab2525e43029fa377e", "fusion_lat": 0.0, "type": "electric_bike", "lat": 39.05357633333333, "is_reserved": 0, "is_disabled": 0, "fusion_lon": 0.0, "bike_id": "5a22663220c28fab2525e43029fa377e", "lon": -77.04728483333334, "rental_uris": {"ios": "https://dc.lft.to/lastmile_qr_scan", "android": "https://dc.lft.to/lastmile_qr_scan"}}, {"name": "28758a5700fd07856825cbf2fef74409", "fusion_lat": 0.0, "type": "electric_scooter", "lat": 38.897919, "is_reserved": 0, "is_disabled": 0, "fusion_lon": 0.0, "bike_id": "28758a5700fd07856825cbf2fef74409", "lon": -77.0280745, "rental_uris": {"ios": "https://dc.lft.to/lastmile_qr_scan", "android": "https://dc.lft.to/lastmile_qr_scan"}}, {"name": "3bd0b40fba27fc4e75b6474ef19b959f", "fusion_lat": 0.0, "type": "electric_bike", "lat": 38.92854883333333, "is_reserved": 0, "is_disabled": 0, "fusion_lon": 0.0, "bike_id": "3bd0b40fba27fc4e75b6474ef19b959f", "lon": -77.22220483333334, "rental_uris": {"ios": "https://dc.lft.to/lastmile_qr_scan", "android": "https://dc.lft.to/lastmile_qr_scan"}}, {"name": "6d88117ccdc66fe4b6258c1bf3cdc92a", "fusion_lat": 0.0, "type": "electric_scooter", "lat": 38.92739133333333, "is_reserved": 0, "is_disabled": 0, "fusion_lon": 0.0, "bike_id": "6d88117ccdc66fe4b6258c1bf3cdc92a", "lon": -77.0119895, "rental_uris": {"ios": "https://dc.lft.to/lastmile_qr_scan", "android": "https://dc.lft.to/lastmile_qr_scan"}}, {"name": "a032747408b737dee88e8c5b6ab55353", "fusion_lat": 0.0, "type": "electric_scooter", "lat": 38.865317, "is_reserved": 0, "is_disabled": 0, "fusion_lon": 0.0, "bike_id": "a032747408b737dee88e8c5b6ab55353", "lon": -76.98703216666667, "rental_uris": {"ios": "https://dc.lft.to/lastmile_qr_scan", "android": "https://dc.lft.to/lastmile_qr_scan"}}, {"name": "5f41026a4a9d4ef99069d0d2b8a856e1", "fusion_lat": 0.0, "type": "electric_scooter", "lat": 38.8984455, "is_reserved": 0, "is_disabled": 0, "fusion_lon": 0.0, "bike_id": "5f41026a4a9d4ef99069d0d2b8a856e1", "lon": -77.03179733333333, "rental_uris": {"ios": "https://dc.lft.to/lastmile_qr_scan", "android": "https://dc.lft.to/lastmile_qr_scan"}}, {"name": "2706f8308d6ec8c7e47691d9747e7e6a", "fusion_lat": 0.0, "type": "electric_scooter", "lat": 38.90273116666667, "is_reserved": 0, "is_disabled": 0, "fusion_lon": 0.0, "bike_id": "2706f8308d6ec8c7e47691d9747e7e6a", "lon": -77.0364295, "rental_uris": {"ios": "https://dc.lft.to/lastmile_qr_scan", "android": "https://dc.lft.to/lastmile_qr_scan"}}, {"name": "8001bedce7d9f10751d96e59fc2c6557", "fusion_lat": 0.0, "type": "electric_scooter", "lat": 38.91186033333334, "is_reserved": 0, "is_disabled": 0, "fusion_lon": 0.0, "bike_id": "8001bedce7d9f10751d96e59fc2c6557", "lon": -77.04539033333333, "rental_uris": {"ios": "https://dc.lft.to/lastmile_qr_scan", "android": "https://dc.lft.to/lastmile_qr_scan"}}, {"name": "dd23f5640d0438d252a374b5844c00f5", "fusion_lat": 0.0, "type": "electric_scooter", "lat": 38.92638783333334, "is_reserved": 0, "is_disabled": 0, "fusion_lon": 0.0, "bike_id": "dd23f5640d0438d252a374b5844c00f5", "lon": -77.0369465, "rental_uris": {"ios": "https://dc.lft.to/lastmile_qr_scan", "android": "https://dc.lft.to/lastmile_qr_scan"}}, {"name": "1650e6dc9a6ac390dde1d46377a1b021", "fusion_lat": 0.0, "type": "electric_scooter", "lat": 38.92886266666667, "is_reserved": 0, "is_disabled": 0, "fusion_lon": 0.0, "bike_id": "1650e6dc9a6ac390dde1d46377a1b021", "lon": -77.0231265, "rental_uris": {"ios": "https://dc.lft.to/lastmile_qr_scan", "android": "https://dc.lft.to/lastmile_qr_scan"}}, {"name": "0f529a7460ed4692aad0715ad9fa4095", "fusion_lat": 0.0, "type": "electric_scooter", "lat": 38.93761966666667, "is_reserved": 0, "is_disabled": 0, "fusion_lon": 0.0, "bike_id": "0f529a7460ed4692aad0715ad9fa4095", "lon": -77.03280966666667, "rental_uris": {"ios": "https://dc.lft.to/lastmile_qr_scan", "android": "https://dc.lft.to/lastmile_qr_scan"}}, {"name": "a8e3671f5984939c81150be602972164", "fusion_lat": 0.0, "type": "electric_scooter", "lat": 38.8996695, "is_reserved": 0, "is_disabled": 0, "fusion_lon": 0.0, "bike_id": "a8e3671f5984939c81150be602972164", "lon": -77.01505416666667, "rental_uris": {"ios": "https://dc.lft.to/lastmile_qr_scan", "android": "https://dc.lft.to/lastmile_qr_scan"}}, {"name": "2ad322037ebe5406ed4a6d8cf004ad33", "fusion_lat": 0.0, "type": "electric_scooter", "lat": 38.912577, "is_reserved": 0, "is_disabled": 0, "fusion_lon": 0.0, "bike_id": "2ad322037ebe5406ed4a6d8cf004ad33", "lon": -77.03388083333333, "rental_uris": {"ios": "https://dc.lft.to/lastmile_qr_scan", "android": "https://dc.lft.to/lastmile_qr_scan"}}, {"name": "7b26a2894a384c70e9f721c7940bfd69", "fusion_lat": 0.0, "type": "electric_scooter", "lat": 38.902569666666665, "is_reserved": 0, "is_disabled": 0, "fusion_lon": 0.0, "bike_id": "7b26a2894a384c70e9f721c7940bfd69", "lon": -76.99596983333333, "rental_uris": {"ios": "https://dc.lft.to/lastmile_qr_scan", "android": "https://dc.lft.to/lastmile_qr_scan"}}, {"name": "844cf6c70a821ed8e7d99b7432757737", "fusion_lat": 0.0, "type": "electric_scooter", "lat": 38.88914, "is_reserved": 0, "is_disabled": 0, "fusion_lon": 0.0, "bike_id": "844cf6c70a821ed8e7d99b7432757737", "lon": -76.95370233333334, "rental_uris": {"ios": "https://dc.lft.to/lastmile_qr_scan", "android": "https://dc.lft.to/lastmile_qr_scan"}}, {"name": "6e1438a4a46e819219b76cd5c78ab0ad", "fusion_lat": 0.0, "type": "electric_scooter", "lat": 38.934720666666664, "is_reserved": 0, "is_disabled": 0, "fusion_lon": 0.0, "bike_id": "6e1438a4a46e819219b76cd5c78ab0ad", "lon": -77.02854583333334, "rental_uris": {"ios": "https://dc.lft.to/lastmile_qr_scan", "android": "https://dc.lft.to/lastmile_qr_scan"}}, {"name": "547e9b99c1354675f693126fef385b9b", "fusion_lat": 0.0, "type": "electric_scooter", "lat": 38.8919675, "is_reserved": 0, "is_disabled": 0, "fusion_lon": 0.0, "bike_id": "547e9b99c1354675f693126fef385b9b", "lon": -77.0023955, "rental_uris": {"ios": "https://dc.lft.to/lastmile_qr_scan", "android": "https://dc.lft.to/lastmile_qr_scan"}}, {"name": "3cc559edb86d46a81523223747c4fdaa", "fusion_lat": 0.0, "type": "electric_scooter", "lat": 38.902571333333334, "is_reserved": 0, "is_disabled": 0, "fusion_lon": 0.0, "bike_id": "3cc559edb86d46a81523223747c4fdaa", "lon": -77.03835883333333, "rental_uris": {"ios": "https://dc.lft.to/lastmile_qr_scan", "android": "https://dc.lft.to/lastmile_qr_scan"}}, {"name": "b3e4ff6da9b5a525b4f6dad27583a67c", "fusion_lat": 0.0, "type": "electric_scooter", "lat": 38.934107, "is_reserved": 0, "is_disabled": 0, "fusion_lon": 0.0, "bike_id": "b3e4ff6da9b5a525b4f6dad27583a67c", "lon": -77.0723735, "rental_uris": {"ios": "https://dc.lft.to/lastmile_qr_scan", "android": "https://dc.lft.to/lastmile_qr_scan"}}, {"name": "a07724686f1de6e53b12127d4539eeed", "fusion_lat": 0.0, "type": "electric_scooter", "lat": 38.90333116666667, "is_reserved": 0, "is_disabled": 0, "fusion_lon": 0.0, "bike_id": "a07724686f1de6e53b12127d4539eeed", "lon": -76.98969666666666, "rental_uris": {"ios": "https://dc.lft.to/lastmile_qr_scan", "android": "https://dc.lft.to/lastmile_qr_scan"}}, {"name": "d0f0025d67a6182e00c21cd3fa82c845", "fusion_lat": 0.0, "type": "electric_scooter", "lat": 38.9112685, "is_reserved": 0, "is_disabled": 0, "fusion_lon": 0.0, "bike_id": "d0f0025d67a6182e00c21cd3fa82c845", "lon": -77.03181416666666, "rental_uris": {"ios": "https://dc.lft.to/lastmile_qr_scan", "android": "https://dc.lft.to/lastmile_qr_scan"}}, {"name": "b8e7f3c7b0b3e645cab3559e3c8ff416", "fusion_lat": 0.0, "type": "electric_scooter", "lat": 38.905178, "is_reserved": 0, "is_disabled": 0, "fusion_lon": 0.0, "bike_id": "b8e7f3c7b0b3e645cab3559e3c8ff416", "lon": -77.04994416666666, "rental_uris": {"ios": "https://dc.lft.to/lastmile_qr_scan", "android": "https://dc.lft.to/lastmile_qr_scan"}}, {"name": "3bcaddc231d7cb4eadffd4fd9e5fc929", "fusion_lat": 0.0, "type": "electric_scooter", "lat": 38.914166333333334, "is_reserved": 0, "is_disabled": 0, "fusion_lon": 0.0, "bike_id": "3bcaddc231d7cb4eadffd4fd9e5fc929", "lon": -77.027992, "rental_uris": {"ios": "https://dc.lft.to/lastmile_qr_scan", "android": "https://dc.lft.to/lastmile_qr_scan"}}, {"name": "edda98b903289ba47388b7836023ed2b", "fusion_lat": 0.0, "type": "electric_scooter", "lat": 38.926011833333334, "is_reserved": 0, "is_disabled": 0, "fusion_lon": 0.0, "bike_id": "edda98b903289ba47388b7836023ed2b", "lon": -77.02154483333334, "rental_uris": {"ios": "https://dc.lft.to/lastmile_qr_scan", "android": "https://dc.lft.to/lastmile_qr_scan"}}, {"name": "0692e96c304d8ebf2cd2a804d14a927c", "fusion_lat": 0.0, "type": "electric_scooter", "lat": 38.90362316666667, "is_reserved": 0, "is_disabled": 0, "fusion_lon": 0.0, "bike_id": "0692e96c304d8ebf2cd2a804d14a927c", "lon": -77.04506616666667, "rental_uris": {"ios": "https://dc.lft.to/lastmile_qr_scan", "android": "https://dc.lft.to/lastmile_qr_scan"}}, {"name": "7993927e61f542d2602c75c63c560744", "fusion_lat": 0.0, "type": "electric_scooter", "lat": 38.92927683333333, "is_reserved": 0, "is_disabled": 0, "fusion_lon": 0.0, "bike_id": "7993927e61f542d2602c75c63c560744", "lon": -77.02338316666666, "rental_uris": {"ios": "https://dc.lft.to/lastmile_qr_scan", "android": "https://dc.lft.to/lastmile_qr_scan"}}, {"name": "03d34917829eadbf3a1c7871b9057d81", "fusion_lat": 0.0, "type": "electric_scooter", "lat": 38.92464483333333, "is_reserved": 0, "is_disabled": 0, "fusion_lon": 0.0, "bike_id": "03d34917829eadbf3a1c7871b9057d81", "lon": -77.0305105, "rental_uris": {"ios": "https://dc.lft.to/lastmile_qr_scan", "android": "https://dc.lft.to/lastmile_qr_scan"}}, {"name": "44b1967371048034cc1c80fb5697e717", "fusion_lat": 0.0, "type": "electric_scooter", "lat": 38.947470333333335, "is_reserved": 0, "is_disabled": 0, "fusion_lon": 0.0, "bike_id": "44b1967371048034cc1c80fb5697e717", "lon": -77.00023333333333, "rental_uris": {"ios": "https://dc.lft.to/lastmile_qr_scan", "android": "https://dc.lft.to/lastmile_qr_scan"}}, {"name": "3cf3ff4e14befd3d9544b6b42e987058", "fusion_lat": 0.0, "type": "electric_scooter", "lat": 38.91632966666667, "is_reserved": 0, "is_disabled": 0, "fusion_lon": 0.0, "bike_id": "3cf3ff4e14befd3d9544b6b42e987058", "lon": -77.03598933333333, "rental_uris": {"ios": "https://dc.lft.to/lastmile_qr_scan", "android": "https://dc.lft.to/lastmile_qr_scan"}}, {"name": "bc4d9bf498f98d902fc1d91e3f16012d", "fusion_lat": 0.0, "type": "electric_scooter", "lat": 38.89564883333333, "is_reserved": 0, "is_disabled": 0, "fusion_lon": 0.0, "bike_id": "bc4d9bf498f98d902fc1d91e3f16012d", "lon": -77.0217285, "rental_uris": {"ios": "https://dc.lft.to/lastmile_qr_scan", "android": "https://dc.lft.to/lastmile_qr_scan"}}, {"name": "2f994ed806842f50040ef3735e7ac927", "fusion_lat": 0.0, "type": "electric_scooter", "lat": 38.908892333333334, "is_reserved": 0, "is_disabled": 0, "fusion_lon": 0.0, "bike_id": "2f994ed806842f50040ef3735e7ac927", "lon": -77.0230995, "rental_uris": {"ios": "https://dc.lft.to/lastmile_qr_scan", "android": "https://dc.lft.to/lastmile_qr_scan"}}, {"name": "cec95e86964c46f8c15d943287c957cf", "fusion_lat": 0.0, "type": "electric_scooter", "lat": 38.898770166666665, "is_reserved": 0, "is_disabled": 0, "fusion_lon": 0.0, "bike_id": "cec95e86964c46f8c15d943287c957cf", "lon": -77.00909933333334, "rental_uris": {"ios": "https://dc.lft.to/lastmile_qr_scan", "android": "https://dc.lft.to/lastmile_qr_scan"}}, {"name": "b0a51af079f08c6db484cb281c43e6ef", "fusion_lat": 0.0, "type": "electric_scooter", "lat": 38.8821675, "is_reserved": 0, "is_disabled": 0, "fusion_lon": 0.0, "bike_id": "b0a51af079f08c6db484cb281c43e6ef", "lon": -76.9417685, "rental_uris": {"ios": "https://dc.lft.to/lastmile_qr_scan", "android": "https://dc.lft.to/lastmile_qr_scan"}}, {"name": "dc7f41295c4d850b72c51fe2433ba1a3", "fusion_lat": 0.0, "type": "electric_scooter", "lat": 38.9168135, "is_reserved": 0, "is_disabled": 0, "fusion_lon": 0.0, "bike_id": "dc7f41295c4d850b72c51fe2433ba1a3", "lon": -77.03189316666666, "rental_uris": {"ios": "https://dc.lft.to/lastmile_qr_scan", "android": "https://dc.lft.to/lastmile_qr_scan"}}, {"name": "a19e4a8c10c7cd9c3b1dfa8089145e50", "fusion_lat": 0.0, "type": "electric_scooter", "lat": 38.866622666666665, "is_reserved": 0, "is_disabled": 0, "fusion_lon": 0.0, "bike_id": "a19e4a8c10c7cd9c3b1dfa8089145e50", "lon": -76.98879966666667, "rental_uris": {"ios": "https://dc.lft.to/lastmile_qr_scan", "android": "https://dc.lft.to/lastmile_qr_scan"}}, {"name": "9d3fcac66fe6e98711fc84e05649fb35", "fusion_lat": 0.0, "type": "electric_scooter", "lat": 38.900034833333336, "is_reserved": 0, "is_disabled": 0, "fusion_lon": 0.0, "bike_id": "9d3fcac66fe6e98711fc84e05649fb35", "lon": -77.01117916666666, "rental_uris": {"ios": "https://dc.lft.to/lastmile_qr_scan", "android": "https://dc.lft.to/lastmile_qr_scan"}}, {"name": "860d80b97a80c0b5703d303a5ce2c730", "fusion_lat": 0.0, "type": "electric_scooter", "lat": 38.92478716666667, "is_reserved": 0, "is_disabled": 0, "fusion_lon": 0.0, "bike_id": "860d80b97a80c0b5703d303a5ce2c730", "lon": -77.02895316666667, "rental_uris": {"ios": "https://dc.lft.to/lastmile_qr_scan", "android": "https://dc.lft.to/lastmile_qr_scan"}}, {"name": "a92f5951b7372484e6dfc2bcfd1788ee", "fusion_lat": 0.0, "type": "electric_scooter", "lat": 38.9169075, "is_reserved": 0, "is_disabled": 0, "fusion_lon": 0.0, "bike_id": "a92f5951b7372484e6dfc2bcfd1788ee", "lon": -77.02439383333333, "rental_uris": {"ios": "https://dc.lft.to/lastmile_qr_scan", "android": "https://dc.lft.to/lastmile_qr_scan"}}, {"name": "932405eaac69d5fdf5a60abb5f94be51", "fusion_lat": 0.0, "type": "electric_scooter", "lat": 38.90367116666667, "is_reserved": 0, "is_disabled": 0, "fusion_lon": 0.0, "bike_id": "932405eaac69d5fdf5a60abb5f94be51", "lon": -77.04501716666667, "rental_uris": {"ios": "https://dc.lft.to/lastmile_qr_scan", "android": "https://dc.lft.to/lastmile_qr_scan"}}, {"name": "09e8526ef3911515381f7f74fe44a09c", "fusion_lat": 0.0, "type": "electric_scooter", "lat": 38.90231883333333, "is_reserved": 0, "is_disabled": 0, "fusion_lon": 0.0, "bike_id": "09e8526ef3911515381f7f74fe44a09c", "lon": -77.04596016666666, "rental_uris": {"ios": "https://dc.lft.to/lastmile_qr_scan", "android": "https://dc.lft.to/lastmile_qr_scan"}}, {"name": "de50ef3e0bb5c4561ff41d50648a0992", "fusion_lat": 0.0, "type": "electric_scooter", "lat": 38.896280833333336, "is_reserved": 0, "is_disabled": 0, "fusion_lon": 0.0, "bike_id": "de50ef3e0bb5c4561ff41d50648a0992", "lon": -77.01021316666667, "rental_uris": {"ios": "https://dc.lft.to/lastmile_qr_scan", "android": "https://dc.lft.to/lastmile_qr_scan"}}, {"name": "10ded30a85162e63dc9b7adcb6b0620e", "fusion_lat": 0.0, "type": "electric_scooter", "lat": 38.920644833333334, "is_reserved": 0, "is_disabled": 0, "fusion_lon": 0.0, "bike_id": "10ded30a85162e63dc9b7adcb6b0620e", "lon": -77.04252066666666, "rental_uris": {"ios": "https://dc.lft.to/lastmile_qr_scan", "android": "https://dc.lft.to/lastmile_qr_scan"}}, {"name": "8f1b9d2ab87e9effd0dc6ccbf19a82d4", "fusion_lat": 0.0, "type": "electric_scooter", "lat": 38.910089166666666, "is_reserved": 0, "is_disabled": 0, "fusion_lon": 0.0, "bike_id": "8f1b9d2ab87e9effd0dc6ccbf19a82d4", "lon": -76.99387483333334, "rental_uris": {"ios": "https://dc.lft.to/lastmile_qr_scan", "android": "https://dc.lft.to/lastmile_qr_scan"}}, {"name": "7ab5ade4fe4b6ea70d6c2b0aeb071d83", "fusion_lat": 0.0, "type": "electric_scooter", "lat": 38.905137833333335, "is_reserved": 0, "is_disabled": 0, "fusion_lon": 0.0, "bike_id": "7ab5ade4fe4b6ea70d6c2b0aeb071d83", "lon": -77.06625316666667, "rental_uris": {"ios": "https://dc.lft.to/lastmile_qr_scan", "android": "https://dc.lft.to/lastmile_qr_scan"}}, {"name": "7625040218298bca266992a79570f591", "fusion_lat": 0.0, "type": "electric_scooter", "lat": 38.911062666666666, "is_reserved": 0, "is_disabled": 0, "fusion_lon": 0.0, "bike_id": "7625040218298bca266992a79570f591", "lon": -77.04227233333333, "rental_uris": {"ios": "https://dc.lft.to/lastmile_qr_scan", "android": "https://dc.lft.to/lastmile_qr_scan"}}, {"name": "44ab0769038ffe1f2a2b69a6e7c57f97", "fusion_lat": 0.0, "type": "electric_scooter", "lat": 38.9113285, "is_reserved": 0, "is_disabled": 0, "fusion_lon": 0.0, "bike_id": "44ab0769038ffe1f2a2b69a6e7c57f97", "lon": -77.02195366666666, "rental_uris": {"ios": "https://dc.lft.to/lastmile_qr_scan", "android": "https://dc.lft.to/lastmile_qr_scan"}}, {"name": "f989fc6955e565c1d813aece8d104621", "fusion_lat": 0.0, "type": "electric_bike", "lat": 38.942715, "is_reserved": 0, "is_disabled": 0, "fusion_lon": 0.0, "bike_id": "f989fc6955e565c1d813aece8d104621", "lon": -76.98072216666667, "rental_uris": {"ios": "https://dc.lft.to/lastmile_qr_scan", "android": "https://dc.lft.to/lastmile_qr_scan"}}, {"name": "aa7535f0fc94ef56b481f955bfd66533", "fusion_lat": 0.0, "type": "electric_scooter", "lat": 38.8988175, "is_reserved": 0, "is_disabled": 0, "fusion_lon": 0.0, "bike_id": "aa7535f0fc94ef56b481f955bfd66533", "lon": -76.9317335, "rental_uris": {"ios": "https://dc.lft.to/lastmile_qr_scan", "android": "https://dc.lft.to/lastmile_qr_scan"}}, {"name": "f4a49f60c76303a8a4900de53ac4d920", "fusion_lat": 0.0, "type": "electric_scooter", "lat": 38.90043083333333, "is_reserved": 0, "is_disabled": 0, "fusion_lon": 0.0, "bike_id": "f4a49f60c76303a8a4900de53ac4d920", "lon": -76.98833433333333, "rental_uris": {"ios": "https://dc.lft.to/lastmile_qr_scan", "android": "https://dc.lft.to/lastmile_qr_scan"}}, {"name": "3775590ab4a6b7cac52277a96a2ed293", "fusion_lat": 0.0, "type": "electric_scooter", "lat": 38.91656833333333, "is_reserved": 0, "is_disabled": 0, "fusion_lon": 0.0, "bike_id": "3775590ab4a6b7cac52277a96a2ed293", "lon": -77.0256975, "rental_uris": {"ios": "https://dc.lft.to/lastmile_qr_scan", "android": "https://dc.lft.to/lastmile_qr_scan"}}, {"name": "0d0f4c630e6faf7a7e1bea3b700ca9d8", "fusion_lat": 0.0, "type": "electric_scooter", "lat": 38.90014933333333, "is_reserved": 0, "is_disabled": 0, "fusion_lon": 0.0, "bike_id": "0d0f4c630e6faf7a7e1bea3b700ca9d8", "lon": -77.0332315, "rental_uris": {"ios": "https://dc.lft.to/lastmile_qr_scan", "android": "https://dc.lft.to/lastmile_qr_scan"}}, {"name": "ad4a9e9c51c80c8a337cc2f55b7013e3", "fusion_lat": 0.0, "type": "electric_scooter", "lat": 38.93249633333333, "is_reserved": 0, "is_disabled": 0, "fusion_lon": 0.0, "bike_id": "ad4a9e9c51c80c8a337cc2f55b7013e3", "lon": -77.040102, "rental_uris": {"ios": "https://dc.lft.to/lastmile_qr_scan", "android": "https://dc.lft.to/lastmile_qr_scan"}}, {"name": "289cbf42a10a938cbef2eb0b60d53311", "fusion_lat": 0.0, "type": "electric_scooter", "lat": 38.88613616666667, "is_reserved": 0, "is_disabled": 0, "fusion_lon": 0.0, "bike_id": "289cbf42a10a938cbef2eb0b60d53311", "lon": -77.01984433333334, "rental_uris": {"ios": "https://dc.lft.to/lastmile_qr_scan", "android": "https://dc.lft.to/lastmile_qr_scan"}}, {"name": "e316576b1b55fcc46ce8d148bc6e52dd", "fusion_lat": 0.0, "type": "electric_scooter", "lat": 38.911087, "is_reserved": 0, "is_disabled": 0, "fusion_lon": 0.0, "bike_id": "e316576b1b55fcc46ce8d148bc6e52dd", "lon": -77.03295533333333, "rental_uris": {"ios": "https://dc.lft.to/lastmile_qr_scan", "android": "https://dc.lft.to/lastmile_qr_scan"}}, {"name": "e71cb62b7e760fdd86d2450dcae14d9e", "fusion_lat": 0.0, "type": "electric_scooter", "lat": 38.90594466666667, "is_reserved": 0, "is_disabled": 0, "fusion_lon": 0.0, "bike_id": "e71cb62b7e760fdd86d2450dcae14d9e", "lon": -77.04657116666667, "rental_uris": {"ios": "https://dc.lft.to/lastmile_qr_scan", "android": "https://dc.lft.to/lastmile_qr_scan"}}, {"name": "edfd29965ef9ed8f2382c619b809b9a6", "fusion_lat": 0.0, "type": "electric_scooter", "lat": 38.8886885, "is_reserved": 0, "is_disabled": 0, "fusion_lon": 0.0, "bike_id": "edfd29965ef9ed8f2382c619b809b9a6", "lon": -77.03029233333334, "rental_uris": {"ios": "https://dc.lft.to/lastmile_qr_scan", "android": "https://dc.lft.to/lastmile_qr_scan"}}, {"name": "7376d9a8542750813d61a0b7d6e87646", "fusion_lat": 0.0, "type": "electric_bike", "lat": 38.87476816666667, "is_reserved": 0, "is_disabled": 0, "fusion_lon": 0.0, "bike_id": "7376d9a8542750813d61a0b7d6e87646", "lon": -76.965241, "rental_uris": {"ios": "https://dc.lft.to/lastmile_qr_scan", "android": "https://dc.lft.to/lastmile_qr_scan"}}, {"name": "f4a09211d33af0b7af8991eebe640e23", "fusion_lat": 0.0, "type": "electric_scooter", "lat": 38.90290533333334, "is_reserved": 0, "is_disabled": 0, "fusion_lon": 0.0, "bike_id": "f4a09211d33af0b7af8991eebe640e23", "lon": -77.04268183333333, "rental_uris": {"ios": "https://dc.lft.to/lastmile_qr_scan", "android": "https://dc.lft.to/lastmile_qr_scan"}}, {"name": "14043d0b3fec0bbb272d04f87c70db55", "fusion_lat": 0.0, "type": "electric_scooter", "lat": 38.9256115, "is_reserved": 0, "is_disabled": 0, "fusion_lon": 0.0, "bike_id": "14043d0b3fec0bbb272d04f87c70db55", "lon": -77.06286233333333, "rental_uris": {"ios": "https://dc.lft.to/lastmile_qr_scan", "android": "https://dc.lft.to/lastmile_qr_scan"}}, {"name": "cd2f5670c5b209302e91da09c25d92b1", "fusion_lat": 0.0, "type": "electric_scooter", "lat": 38.93152083333333, "is_reserved": 0, "is_disabled": 0, "fusion_lon": 0.0, "bike_id": "cd2f5670c5b209302e91da09c25d92b1", "lon": -77.03887666666667, "rental_uris": {"ios": "https://dc.lft.to/lastmile_qr_scan", "android": "https://dc.lft.to/lastmile_qr_scan"}}, {"name": "517e1d6001d15c20b0780bb28da833a6", "fusion_lat": 0.0, "type": "electric_scooter", "lat": 38.894815666666666, "is_reserved": 0, "is_disabled": 0, "fusion_lon": 0.0, "bike_id": "517e1d6001d15c20b0780bb28da833a6", "lon": -77.01084333333333, "rental_uris": {"ios": "https://dc.lft.to/lastmile_qr_scan", "android": "https://dc.lft.to/lastmile_qr_scan"}}, {"name": "73dad40e8936e82e7c45b4c7271bc4c7", "fusion_lat": 0.0, "type": "electric_scooter", "lat": 38.897274833333334, "is_reserved": 0, "is_disabled": 0, "fusion_lon": 0.0, "bike_id": "73dad40e8936e82e7c45b4c7271bc4c7", "lon": -77.04337216666667, "rental_uris": {"ios": "https://dc.lft.to/lastmile_qr_scan", "android": "https://dc.lft.to/lastmile_qr_scan"}}, {"name": "2f8a3f2b8afc0012eb2f38c2e2a9ca98", "fusion_lat": 0.0, "type": "electric_scooter", "lat": 38.901245833333334, "is_reserved": 0, "is_disabled": 0, "fusion_lon": 0.0, "bike_id": "2f8a3f2b8afc0012eb2f38c2e2a9ca98", "lon": -77.044864, "rental_uris": {"ios": "https://dc.lft.to/lastmile_qr_scan", "android": "https://dc.lft.to/lastmile_qr_scan"}}, {"name": "9fbe42e9ec965b0963ba2cbe8cc7e767", "fusion_lat": 0.0, "type": "electric_scooter", "lat": 38.8636895, "is_reserved": 0, "is_disabled": 0, "fusion_lon": 0.0, "bike_id": "9fbe42e9ec965b0963ba2cbe8cc7e767", "lon": -77.01361566666667, "rental_uris": {"ios": "https://dc.lft.to/lastmile_qr_scan", "android": "https://dc.lft.to/lastmile_qr_scan"}}, {"name": "fdf49af7cb628d87001af202518fbaba", "fusion_lat": 0.0, "type": "electric_bike", "lat": 38.928475, "is_reserved": 0, "is_disabled": 0, "fusion_lon": 0.0, "bike_id": "fdf49af7cb628d87001af202518fbaba", "lon": -77.10677266666667, "rental_uris": {"ios": "https://dc.lft.to/lastmile_qr_scan", "android": "https://dc.lft.to/lastmile_qr_scan"}}, {"name": "d0ac9470e611316ed7eec6746799a0cb", "fusion_lat": 0.0, "type": "electric_scooter", "lat": 38.924418, "is_reserved": 0, "is_disabled": 0, "fusion_lon": 0.0, "bike_id": "d0ac9470e611316ed7eec6746799a0cb", "lon": -77.02973733333333, "rental_uris": {"ios": "https://dc.lft.to/lastmile_qr_scan", "android": "https://dc.lft.to/lastmile_qr_scan"}}, {"name": "382e86c67be16cd0a6597a60974eab06", "fusion_lat": 0.0, "type": "electric_scooter", "lat": 38.93057833333334, "is_reserved": 0, "is_disabled": 0, "fusion_lon": 0.0, "bike_id": "382e86c67be16cd0a6597a60974eab06", "lon": -77.0232205, "rental_uris": {"ios": "https://dc.lft.to/lastmile_qr_scan", "android": "https://dc.lft.to/lastmile_qr_scan"}}, {"name": "dbcca4703c5d739f1bbe53330168510b", "fusion_lat": 0.0, "type": "electric_scooter", "lat": 38.912507, "is_reserved": 0, "is_disabled": 0, "fusion_lon": 0.0, "bike_id": "dbcca4703c5d739f1bbe53330168510b", "lon": -77.0076355, "rental_uris": {"ios": "https://dc.lft.to/lastmile_qr_scan", "android": "https://dc.lft.to/lastmile_qr_scan"}}, {"name": "02d379d08f7da0c9700198e0569b0536", "fusion_lat": 0.0, "type": "electric_scooter", "lat": 38.93485366666667, "is_reserved": 0, "is_disabled": 0, "fusion_lon": 0.0, "bike_id": "02d379d08f7da0c9700198e0569b0536", "lon": -77.03273383333334, "rental_uris": {"ios": "https://dc.lft.to/lastmile_qr_scan", "android": "https://dc.lft.to/lastmile_qr_scan"}}, {"name": "de1a9dc7f684a9b89b9dad86d14ec192", "fusion_lat": 0.0, "type": "electric_scooter", "lat": 38.8848875, "is_reserved": 0, "is_disabled": 0, "fusion_lon": 0.0, "bike_id": "de1a9dc7f684a9b89b9dad86d14ec192", "lon": -77.02196716666667, "rental_uris": {"ios": "https://dc.lft.to/lastmile_qr_scan", "android": "https://dc.lft.to/lastmile_qr_scan"}}, {"name": "08a7d537f59a48b7d47e646dc41b777b", "fusion_lat": 0.0, "type": "electric_scooter", "lat": 38.9044425, "is_reserved": 0, "is_disabled": 0, "fusion_lon": 0.0, "bike_id": "08a7d537f59a48b7d47e646dc41b777b", "lon": -76.99618016666666, "rental_uris": {"ios": "https://dc.lft.to/lastmile_qr_scan", "android": "https://dc.lft.to/lastmile_qr_scan"}}, {"name": "5f3d810a1cda2b216d81decfeeaaacd4", "fusion_lat": 0.0, "type": "electric_scooter", "lat": 38.880664833333334, "is_reserved": 0, "is_disabled": 0, "fusion_lon": 0.0, "bike_id": "5f3d810a1cda2b216d81decfeeaaacd4", "lon": -76.935331, "rental_uris": {"ios": "https://dc.lft.to/lastmile_qr_scan", "android": "https://dc.lft.to/lastmile_qr_scan"}}, {"name": "0abb884a9f5207b99feb3204cbd09dd3", "fusion_lat": 0.0, "type": "electric_scooter", "lat": 38.895846, "is_reserved": 0, "is_disabled": 0, "fusion_lon": 0.0, "bike_id": "0abb884a9f5207b99feb3204cbd09dd3", "lon": -76.93721083333334, "rental_uris": {"ios": "https://dc.lft.to/lastmile_qr_scan", "android": "https://dc.lft.to/lastmile_qr_scan"}}, {"name": "93a89d3d52bcb421014a5fd04a46efbd", "fusion_lat": 0.0, "type": "electric_scooter", "lat": 38.877544666666665, "is_reserved": 0, "is_disabled": 0, "fusion_lon": 0.0, "bike_id": "93a89d3d52bcb421014a5fd04a46efbd", "lon": -76.9942295, "rental_uris": {"ios": "https://dc.lft.to/lastmile_qr_scan", "android": "https://dc.lft.to/lastmile_qr_scan"}}, {"name": "19b0e7b4ecfbbf9628c38b9eaee37905", "fusion_lat": 0.0, "type": "electric_scooter", "lat": 38.909768, "is_reserved": 0, "is_disabled": 0, "fusion_lon": 0.0, "bike_id": "19b0e7b4ecfbbf9628c38b9eaee37905", "lon": -77.045513, "rental_uris": {"ios": "https://dc.lft.to/lastmile_qr_scan", "android": "https://dc.lft.to/lastmile_qr_scan"}}, {"name": "2559bf3e28f37267e6148d06259dbbea", "fusion_lat": 0.0, "type": "electric_scooter", "lat": 38.903178, "is_reserved": 0, "is_disabled": 0, "fusion_lon": 0.0, "bike_id": "2559bf3e28f37267e6148d06259dbbea", "lon": -77.03478533333333, "rental_uris": {"ios": "https://dc.lft.to/lastmile_qr_scan", "android": "https://dc.lft.to/lastmile_qr_scan"}}, {"name": "c059ceccc7cc98c9a4fc2902be041b1e", "fusion_lat": 0.0, "type": "electric_scooter", "lat": 38.856119, "is_reserved": 0, "is_disabled": 0, "fusion_lon": 0.0, "bike_id": "c059ceccc7cc98c9a4fc2902be041b1e", "lon": -76.9801565, "rental_uris": {"ios": "https://dc.lft.to/lastmile_qr_scan", "android": "https://dc.lft.to/lastmile_qr_scan"}}, {"name": "55aad6f94f5feeef320223ca6ceef8f4", "fusion_lat": 0.0, "type": "electric_scooter", "lat": 38.90661033333333, "is_reserved": 0, "is_disabled": 0, "fusion_lon": 0.0, "bike_id": "55aad6f94f5feeef320223ca6ceef8f4", "lon": -77.00593083333334, "rental_uris": {"ios": "https://dc.lft.to/lastmile_qr_scan", "android": "https://dc.lft.to/lastmile_qr_scan"}}, {"name": "436018eaa58c64fd259462b003153a4c", "fusion_lat": 0.0, "type": "electric_scooter", "lat": 38.9099935, "is_reserved": 0, "is_disabled": 0, "fusion_lon": 0.0, "bike_id": "436018eaa58c64fd259462b003153a4c", "lon": -76.994077, "rental_uris": {"ios": "https://dc.lft.to/lastmile_qr_scan", "android": "https://dc.lft.to/lastmile_qr_scan"}}, {"name": "f5ac0abf8286d010a8f1ea657b979f95", "fusion_lat": 0.0, "type": "electric_scooter", "lat": 38.842923166666665, "is_reserved": 0, "is_disabled": 0, "fusion_lon": 0.0, "bike_id": "f5ac0abf8286d010a8f1ea657b979f95", "lon": -76.99946333333334, "rental_uris": {"ios": "https://dc.lft.to/lastmile_qr_scan", "android": "https://dc.lft.to/lastmile_qr_scan"}}, {"name": "fd4fa490e1ac0b26d984d0773963191d", "fusion_lat": 0.0, "type": "electric_scooter", "lat": 38.912629, "is_reserved": 0, "is_disabled": 0, "fusion_lon": 0.0, "bike_id": "fd4fa490e1ac0b26d984d0773963191d", "lon": -77.06085266666666, "rental_uris": {"ios": "https://dc.lft.to/lastmile_qr_scan", "android": "https://dc.lft.to/lastmile_qr_scan"}}, {"name": "9965a92c1a7e60d851cec29e2f177027", "fusion_lat": 0.0, "type": "electric_scooter", "lat": 38.912172, "is_reserved": 0, "is_disabled": 0, "fusion_lon": 0.0, "bike_id": "9965a92c1a7e60d851cec29e2f177027", "lon": -77.07604366666666, "rental_uris": {"ios": "https://dc.lft.to/lastmile_qr_scan", "android": "https://dc.lft.to/lastmile_qr_scan"}}, {"name": "da54d285c533af15ddd92e95912ded71", "fusion_lat": 0.0, "type": "electric_bike", "lat": 38.92001333333333, "is_reserved": 0, "is_disabled": 0, "fusion_lon": 0.0, "bike_id": "da54d285c533af15ddd92e95912ded71", "lon": -76.97494433333334, "rental_uris": {"ios": "https://dc.lft.to/lastmile_qr_scan", "android": "https://dc.lft.to/lastmile_qr_scan"}}, {"name": "881af922344648c3094530e39ff900bf", "fusion_lat": 0.0, "type": "electric_scooter", "lat": 38.918232333333336, "is_reserved": 0, "is_disabled": 0, "fusion_lon": 0.0, "bike_id": "881af922344648c3094530e39ff900bf", "lon": -77.01208183333334, "rental_uris": {"ios": "https://dc.lft.to/lastmile_qr_scan", "android": "https://dc.lft.to/lastmile_qr_scan"}}, {"name": "e6476d480771a8617444380384fb841d", "fusion_lat": 0.0, "type": "electric_scooter", "lat": 38.898379, "is_reserved": 0, "is_disabled": 0, "fusion_lon": 0.0, "bike_id": "e6476d480771a8617444380384fb841d", "lon": -77.03172266666667, "rental_uris": {"ios": "https://dc.lft.to/lastmile_qr_scan", "android": "https://dc.lft.to/lastmile_qr_scan"}}, {"name": "b8bb49b995717c058c65360f33d42f00", "fusion_lat": 0.0, "type": "electric_scooter", "lat": 38.92365816666667, "is_reserved": 0, "is_disabled": 0, "fusion_lon": 0.0, "bike_id": "b8bb49b995717c058c65360f33d42f00", "lon": -77.0502455, "rental_uris": {"ios": "https://dc.lft.to/lastmile_qr_scan", "android": "https://dc.lft.to/lastmile_qr_scan"}}, {"name": "7d21d2290b7ae53b1cacfd2d8abe959d", "fusion_lat": 0.0, "type": "electric_scooter", "lat": 38.906681, "is_reserved": 0, "is_disabled": 0, "fusion_lon": 0.0, "bike_id": "7d21d2290b7ae53b1cacfd2d8abe959d", "lon": -77.027025, "rental_uris": {"ios": "https://dc.lft.to/lastmile_qr_scan", "android": "https://dc.lft.to/lastmile_qr_scan"}}, {"name": "d8d1eb383d35e3494f6d9d7183385f53", "fusion_lat": 0.0, "type": "electric_scooter", "lat": 38.88527216666667, "is_reserved": 0, "is_disabled": 0, "fusion_lon": 0.0, "bike_id": "d8d1eb383d35e3494f6d9d7183385f53", "lon": -77.0057915, "rental_uris": {"ios": "https://dc.lft.to/lastmile_qr_scan", "android": "https://dc.lft.to/lastmile_qr_scan"}}, {"name": "67e247989d0941d8041a87db54f60ed7", "fusion_lat": 0.0, "type": "electric_scooter", "lat": 38.906320666666666, "is_reserved": 0, "is_disabled": 0, "fusion_lon": 0.0, "bike_id": "67e247989d0941d8041a87db54f60ed7", "lon": -77.03871866666667, "rental_uris": {"ios": "https://dc.lft.to/lastmile_qr_scan", "android": "https://dc.lft.to/lastmile_qr_scan"}}, {"name": "b54d54e4b19a21af524f0964f920e407", "fusion_lat": 0.0, "type": "electric_scooter", "lat": 38.9056705, "is_reserved": 0, "is_disabled": 0, "fusion_lon": 0.0, "bike_id": "b54d54e4b19a21af524f0964f920e407", "lon": -77.0221195, "rental_uris": {"ios": "https://dc.lft.to/lastmile_qr_scan", "android": "https://dc.lft.to/lastmile_qr_scan"}}, {"name": "60234b192095bcc6c61abb4e3fc3f761", "fusion_lat": 0.0, "type": "electric_scooter", "lat": 38.9050345, "is_reserved": 0, "is_disabled": 0, "fusion_lon": 0.0, "bike_id": "60234b192095bcc6c61abb4e3fc3f761", "lon": -76.99448133333334, "rental_uris": {"ios": "https://dc.lft.to/lastmile_qr_scan", "android": "https://dc.lft.to/lastmile_qr_scan"}}, {"name": "868e71ac3d2ba421df2443a1ab495193", "fusion_lat": 0.0, "type": "electric_scooter", "lat": 38.8665705, "is_reserved": 0, "is_disabled": 0, "fusion_lon": 0.0, "bike_id": "868e71ac3d2ba421df2443a1ab495193", "lon": -76.98884433333333, "rental_uris": {"ios": "https://dc.lft.to/lastmile_qr_scan", "android": "https://dc.lft.to/lastmile_qr_scan"}}, {"name": "26acf2e24a4f2f686c661288d11de14a", "fusion_lat": 0.0, "type": "electric_scooter", "lat": 38.926129833333334, "is_reserved": 0, "is_disabled": 0, "fusion_lon": 0.0, "bike_id": "26acf2e24a4f2f686c661288d11de14a", "lon": -77.03691666666667, "rental_uris": {"ios": "https://dc.lft.to/lastmile_qr_scan", "android": "https://dc.lft.to/lastmile_qr_scan"}}, {"name": "c7a60184a0b9d1d273deb6984de96835", "fusion_lat": 0.0, "type": "electric_scooter", "lat": 38.90363283333333, "is_reserved": 0, "is_disabled": 0, "fusion_lon": 0.0, "bike_id": "c7a60184a0b9d1d273deb6984de96835", "lon": -77.0355615, "rental_uris": {"ios": "https://dc.lft.to/lastmile_qr_scan", "android": "https://dc.lft.to/lastmile_qr_scan"}}, {"name": "fa4fcad6b90c80e3db221440fb61e837", "fusion_lat": 0.0, "type": "electric_scooter", "lat": 38.9011715, "is_reserved": 0, "is_disabled": 0, "fusion_lon": 0.0, "bike_id": "fa4fcad6b90c80e3db221440fb61e837", "lon": -77.04993683333333, "rental_uris": {"ios": "https://dc.lft.to/lastmile_qr_scan", "android": "https://dc.lft.to/lastmile_qr_scan"}}, {"name": "9617f6f455f3b72b2dd2e8a3642ce959", "fusion_lat": 0.0, "type": "electric_scooter", "lat": 38.9065215, "is_reserved": 0, "is_disabled": 0, "fusion_lon": 0.0, "bike_id": "9617f6f455f3b72b2dd2e8a3642ce959", "lon": -77.05324333333333, "rental_uris": {"ios": "https://dc.lft.to/lastmile_qr_scan", "android": "https://dc.lft.to/lastmile_qr_scan"}}, {"name": "63c07b04e5e7dd7888e59bd47c34b1e4", "fusion_lat": 0.0, "type": "electric_scooter", "lat": 38.89852066666667, "is_reserved": 0, "is_disabled": 0, "fusion_lon": 0.0, "bike_id": "63c07b04e5e7dd7888e59bd47c34b1e4", "lon": -77.01606616666666, "rental_uris": {"ios": "https://dc.lft.to/lastmile_qr_scan", "android": "https://dc.lft.to/lastmile_qr_scan"}}, {"name": "d545ffed007635660da6414d1eb74b58", "fusion_lat": 0.0, "type": "electric_scooter", "lat": 38.90250483333333, "is_reserved": 0, "is_disabled": 0, "fusion_lon": 0.0, "bike_id": "d545ffed007635660da6414d1eb74b58", "lon": -77.02152666666667, "rental_uris": {"ios": "https://dc.lft.to/lastmile_qr_scan", "android": "https://dc.lft.to/lastmile_qr_scan"}}, {"name": "2f9c408fbb6d9fa27355c7b0841bd3ae", "fusion_lat": 0.0, "type": "electric_scooter", "lat": 38.903794833333336, "is_reserved": 0, "is_disabled": 0, "fusion_lon": 0.0, "bike_id": "2f9c408fbb6d9fa27355c7b0841bd3ae", "lon": -77.03629033333333, "rental_uris": {"ios": "https://dc.lft.to/lastmile_qr_scan", "android": "https://dc.lft.to/lastmile_qr_scan"}}, {"name": "f8f625ca160cb5bc2b7b16699e0e73f6", "fusion_lat": 0.0, "type": "electric_scooter", "lat": 38.9075315, "is_reserved": 0, "is_disabled": 0, "fusion_lon": 0.0, "bike_id": "f8f625ca160cb5bc2b7b16699e0e73f6", "lon": -77.0360225, "rental_uris": {"ios": "https://dc.lft.to/lastmile_qr_scan", "android": "https://dc.lft.to/lastmile_qr_scan"}}, {"name": "1b2f4d81e67dcc93355b6866690634fb", "fusion_lat": 0.0, "type": "electric_scooter", "lat": 38.89888416666667, "is_reserved": 0, "is_disabled": 0, "fusion_lon": 0.0, "bike_id": "1b2f4d81e67dcc93355b6866690634fb", "lon": -77.03924366666666, "rental_uris": {"ios": "https://dc.lft.to/lastmile_qr_scan", "android": "https://dc.lft.to/lastmile_qr_scan"}}, {"name": "037154f50854b3b56be46eb9eb6bb896", "fusion_lat": 0.0, "type": "electric_scooter", "lat": 38.9031575, "is_reserved": 0, "is_disabled": 0, "fusion_lon": 0.0, "bike_id": "037154f50854b3b56be46eb9eb6bb896", "lon": -77.03194316666666, "rental_uris": {"ios": "https://dc.lft.to/lastmile_qr_scan", "android": "https://dc.lft.to/lastmile_qr_scan"}}, {"name": "8eec402b61beb4fd472b342b25f17603", "fusion_lat": 0.0, "type": "electric_scooter", "lat": 38.8987975, "is_reserved": 0, "is_disabled": 0, "fusion_lon": 0.0, "bike_id": "8eec402b61beb4fd472b342b25f17603", "lon": -76.93173566666667, "rental_uris": {"ios": "https://dc.lft.to/lastmile_qr_scan", "android": "https://dc.lft.to/lastmile_qr_scan"}}, {"name": "55577c75571fca985f8524dd5457ccfe", "fusion_lat": 0.0, "type": "electric_scooter", "lat": 38.8635445, "is_reserved": 0, "is_disabled": 0, "fusion_lon": 0.0, "bike_id": "55577c75571fca985f8524dd5457ccfe", "lon": -76.99066533333334, "rental_uris": {"ios": "https://dc.lft.to/lastmile_qr_scan", "android": "https://dc.lft.to/lastmile_qr_scan"}}, {"name": "b8b406dd6642c9969aaa1236367f4958", "fusion_lat": 0.0, "type": "electric_scooter", "lat": 38.8997035, "is_reserved": 0, "is_disabled": 0, "fusion_lon": 0.0, "bike_id": "b8b406dd6642c9969aaa1236367f4958", "lon": -77.055246, "rental_uris": {"ios": "https://dc.lft.to/lastmile_qr_scan", "android": "https://dc.lft.to/lastmile_qr_scan"}}, {"name": "b47171e47dcb177fed4c5c8bc5c19f8a", "fusion_lat": 0.0, "type": "electric_scooter", "lat": 38.913317166666666, "is_reserved": 0, "is_disabled": 0, "fusion_lon": 0.0, "bike_id": "b47171e47dcb177fed4c5c8bc5c19f8a", "lon": -77.04834116666666, "rental_uris": {"ios": "https://dc.lft.to/lastmile_qr_scan", "android": "https://dc.lft.to/lastmile_qr_scan"}}, {"name": "1b94c1a1e461a1cc3b7c152a66f7dc5b", "fusion_lat": 0.0, "type": "electric_scooter", "lat": 38.880466, "is_reserved": 0, "is_disabled": 0, "fusion_lon": 0.0, "bike_id": "1b94c1a1e461a1cc3b7c152a66f7dc5b", "lon": -77.0132555, "rental_uris": {"ios": "https://dc.lft.to/lastmile_qr_scan", "android": "https://dc.lft.to/lastmile_qr_scan"}}, {"name": "8c57edfb5e1b165cb6eed4e98ca91838", "fusion_lat": 0.0, "type": "electric_scooter", "lat": 38.92291566666667, "is_reserved": 0, "is_disabled": 0, "fusion_lon": 0.0, "bike_id": "8c57edfb5e1b165cb6eed4e98ca91838", "lon": -77.04204383333334, "rental_uris": {"ios": "https://dc.lft.to/lastmile_qr_scan", "android": "https://dc.lft.to/lastmile_qr_scan"}}, {"name": "c2f4ba40a4d05248602f7e9db0fb345f", "fusion_lat": 0.0, "type": "electric_scooter", "lat": 38.9052485, "is_reserved": 0, "is_disabled": 0, "fusion_lon": 0.0, "bike_id": "c2f4ba40a4d05248602f7e9db0fb345f", "lon": -77.05326866666667, "rental_uris": {"ios": "https://dc.lft.to/lastmile_qr_scan", "android": "https://dc.lft.to/lastmile_qr_scan"}}, {"name": "e82264749869c5c340cb89584ff6eb1c", "fusion_lat": 0.0, "type": "electric_scooter", "lat": 38.89822483333333, "is_reserved": 0, "is_disabled": 0, "fusion_lon": 0.0, "bike_id": "e82264749869c5c340cb89584ff6eb1c", "lon": -76.98780816666667, "rental_uris": {"ios": "https://dc.lft.to/lastmile_qr_scan", "android": "https://dc.lft.to/lastmile_qr_scan"}}, {"name": "42fbb21a980c0459c8e6225d8d9eea2f", "fusion_lat": 0.0, "type": "electric_scooter", "lat": 38.9420655, "is_reserved": 0, "is_disabled": 0, "fusion_lon": 0.0, "bike_id": "42fbb21a980c0459c8e6225d8d9eea2f", "lon": -77.035838, "rental_uris": {"ios": "https://dc.lft.to/lastmile_qr_scan", "android": "https://dc.lft.to/lastmile_qr_scan"}}, {"name": "3f0dc2990dd6102b9319c16d19128a4b", "fusion_lat": 0.0, "type": "electric_scooter", "lat": 38.896042, "is_reserved": 0, "is_disabled": 0, "fusion_lon": 0.0, "bike_id": "3f0dc2990dd6102b9319c16d19128a4b", "lon": -77.02679333333333, "rental_uris": {"ios": "https://dc.lft.to/lastmile_qr_scan", "android": "https://dc.lft.to/lastmile_qr_scan"}}, {"name": "ab3e17b2459e26ab3f825143b01db9d8", "fusion_lat": 0.0, "type": "electric_scooter", "lat": 38.92364416666667, "is_reserved": 0, "is_disabled": 0, "fusion_lon": 0.0, "bike_id": "ab3e17b2459e26ab3f825143b01db9d8", "lon": -77.01913183333333, "rental_uris": {"ios": "https://dc.lft.to/lastmile_qr_scan", "android": "https://dc.lft.to/lastmile_qr_scan"}}, {"name": "96ff2c48253f5e469f4777b766499547", "fusion_lat": 0.0, "type": "electric_scooter", "lat": 38.9243045, "is_reserved": 0, "is_disabled": 0, "fusion_lon": 0.0, "bike_id": "96ff2c48253f5e469f4777b766499547", "lon": -77.0521385, "rental_uris": {"ios": "https://dc.lft.to/lastmile_qr_scan", "android": "https://dc.lft.to/lastmile_qr_scan"}}, {"name": "4f9a505e58ef42bf941aaaf5717e04f9", "fusion_lat": 0.0, "type": "electric_bike", "lat": 38.8456985, "is_reserved": 0, "is_disabled": 0, "fusion_lon": 0.0, "bike_id": "4f9a505e58ef42bf941aaaf5717e04f9", "lon": -77.09622783333333, "rental_uris": {"ios": "https://dc.lft.to/lastmile_qr_scan", "android": "https://dc.lft.to/lastmile_qr_scan"}}, {"name": "3e811e02c784bafe3378880c7ac9a348", "fusion_lat": 0.0, "type": "electric_scooter", "lat": 38.899609166666664, "is_reserved": 0, "is_disabled": 0, "fusion_lon": 0.0, "bike_id": "3e811e02c784bafe3378880c7ac9a348", "lon": -77.03186716666667, "rental_uris": {"ios": "https://dc.lft.to/lastmile_qr_scan", "android": "https://dc.lft.to/lastmile_qr_scan"}}, {"name": "eb8a09f8bacb7a082121a68bd14bcade", "fusion_lat": 0.0, "type": "electric_scooter", "lat": 38.898461833333336, "is_reserved": 0, "is_disabled": 0, "fusion_lon": 0.0, "bike_id": "eb8a09f8bacb7a082121a68bd14bcade", "lon": -76.99031783333334, "rental_uris": {"ios": "https://dc.lft.to/lastmile_qr_scan", "android": "https://dc.lft.to/lastmile_qr_scan"}}, {"name": "b6a955aa65647dcbce18a4e8839cb075", "fusion_lat": 0.0, "type": "electric_scooter", "lat": 38.9610985, "is_reserved": 0, "is_disabled": 0, "fusion_lon": 0.0, "bike_id": "b6a955aa65647dcbce18a4e8839cb075", "lon": -77.028144, "rental_uris": {"ios": "https://dc.lft.to/lastmile_qr_scan", "android": "https://dc.lft.to/lastmile_qr_scan"}}, {"name": "ab5a0226f21110314d072b0695bcf14a", "fusion_lat": 0.0, "type": "electric_scooter", "lat": 38.930186, "is_reserved": 0, "is_disabled": 0, "fusion_lon": 0.0, "bike_id": "ab5a0226f21110314d072b0695bcf14a", "lon": -77.02323266666667, "rental_uris": {"ios": "https://dc.lft.to/lastmile_qr_scan", "android": "https://dc.lft.to/lastmile_qr_scan"}}, {"name": "1c126fa515ab6646d3804a8e54d2e94c", "fusion_lat": 0.0, "type": "electric_scooter", "lat": 38.9110795, "is_reserved": 0, "is_disabled": 0, "fusion_lon": 0.0, "bike_id": "1c126fa515ab6646d3804a8e54d2e94c", "lon": -77.04229016666666, "rental_uris": {"ios": "https://dc.lft.to/lastmile_qr_scan", "android": "https://dc.lft.to/lastmile_qr_scan"}}, {"name": "a30837c711d873c3b524f32f58ce906b", "fusion_lat": 0.0, "type": "electric_scooter", "lat": 38.8983925, "is_reserved": 0, "is_disabled": 0, "fusion_lon": 0.0, "bike_id": "a30837c711d873c3b524f32f58ce906b", "lon": -76.99266216666666, "rental_uris": {"ios": "https://dc.lft.to/lastmile_qr_scan", "android": "https://dc.lft.to/lastmile_qr_scan"}}, {"name": "75dc573ca458f5a946f10a3a273eb1dd", "fusion_lat": 0.0, "type": "electric_scooter", "lat": 38.93704416666667, "is_reserved": 0, "is_disabled": 0, "fusion_lon": 0.0, "bike_id": "75dc573ca458f5a946f10a3a273eb1dd", "lon": -77.06097333333334, "rental_uris": {"ios": "https://dc.lft.to/lastmile_qr_scan", "android": "https://dc.lft.to/lastmile_qr_scan"}}, {"name": "3bedd6619e19441918159a9cea77275f", "fusion_lat": 0.0, "type": "electric_scooter", "lat": 38.892967, "is_reserved": 0, "is_disabled": 0, "fusion_lon": 0.0, "bike_id": "3bedd6619e19441918159a9cea77275f", "lon": -77.0201615, "rental_uris": {"ios": "https://dc.lft.to/lastmile_qr_scan", "android": "https://dc.lft.to/lastmile_qr_scan"}}, {"name": "39d666b94b2eed34db65b2b721ff13c7", "fusion_lat": 0.0, "type": "electric_scooter", "lat": 38.911069833333336, "is_reserved": 0, "is_disabled": 0, "fusion_lon": 0.0, "bike_id": "39d666b94b2eed34db65b2b721ff13c7", "lon": -77.044798, "rental_uris": {"ios": "https://dc.lft.to/lastmile_qr_scan", "android": "https://dc.lft.to/lastmile_qr_scan"}}, {"name": "ba2d5aff29d7a741fb9e19dd17a994d6", "fusion_lat": 0.0, "type": "electric_bike", "lat": 38.99910916666666, "is_reserved": 0, "is_disabled": 0, "fusion_lon": 0.0, "bike_id": "ba2d5aff29d7a741fb9e19dd17a994d6", "lon": -77.04622183333333, "rental_uris": {"ios": "https://dc.lft.to/lastmile_qr_scan", "android": "https://dc.lft.to/lastmile_qr_scan"}}, {"name": "8b8c12578945a3fddc9dbf20484e3323", "fusion_lat": 0.0, "type": "electric_scooter", "lat": 38.8637395, "is_reserved": 0, "is_disabled": 0, "fusion_lon": 0.0, "bike_id": "8b8c12578945a3fddc9dbf20484e3323", "lon": -76.99061866666666, "rental_uris": {"ios": "https://dc.lft.to/lastmile_qr_scan", "android": "https://dc.lft.to/lastmile_qr_scan"}}, {"name": "8c740f2fa24d5a2536eab72a4ba397ce", "fusion_lat": 0.0, "type": "electric_scooter", "lat": 38.897642833333336, "is_reserved": 0, "is_disabled": 0, "fusion_lon": 0.0, "bike_id": "8c740f2fa24d5a2536eab72a4ba397ce", "lon": -76.97722383333333, "rental_uris": {"ios": "https://dc.lft.to/lastmile_qr_scan", "android": "https://dc.lft.to/lastmile_qr_scan"}}, {"name": "bd6aaec9ab8680cbc0efa13586d3da6c", "fusion_lat": 0.0, "type": "electric_bike", "lat": 38.853982, "is_reserved": 0, "is_disabled": 0, "fusion_lon": 0.0, "bike_id": "bd6aaec9ab8680cbc0efa13586d3da6c", "lon": -77.11816183333333, "rental_uris": {"ios": "https://dc.lft.to/lastmile_qr_scan", "android": "https://dc.lft.to/lastmile_qr_scan"}}, {"name": "c2873bac843d3cd8b5d720d18116f2a6", "fusion_lat": 0.0, "type": "electric_scooter", "lat": 38.93732683333333, "is_reserved": 0, "is_disabled": 0, "fusion_lon": 0.0, "bike_id": "c2873bac843d3cd8b5d720d18116f2a6", "lon": -77.032566, "rental_uris": {"ios": "https://dc.lft.to/lastmile_qr_scan", "android": "https://dc.lft.to/lastmile_qr_scan"}}, {"name": "04aad5d3dc2cab571673dfb6414434a2", "fusion_lat": 0.0, "type": "electric_scooter", "lat": 38.926107333333334, "is_reserved": 0, "is_disabled": 0, "fusion_lon": 0.0, "bike_id": "04aad5d3dc2cab571673dfb6414434a2", "lon": -77.02159233333333, "rental_uris": {"ios": "https://dc.lft.to/lastmile_qr_scan", "android": "https://dc.lft.to/lastmile_qr_scan"}}, {"name": "abd7e0b4101bdbc61fd02c82e0124f8b", "fusion_lat": 0.0, "type": "electric_scooter", "lat": 38.916561333333334, "is_reserved": 0, "is_disabled": 0, "fusion_lon": 0.0, "bike_id": "abd7e0b4101bdbc61fd02c82e0124f8b", "lon": -77.02294883333333, "rental_uris": {"ios": "https://dc.lft.to/lastmile_qr_scan", "android": "https://dc.lft.to/lastmile_qr_scan"}}, {"name": "2a6f59eaa6b18aab73b89658bf3b3d61", "fusion_lat": 0.0, "type": "electric_scooter", "lat": 38.903745, "is_reserved": 0, "is_disabled": 0, "fusion_lon": 0.0, "bike_id": "2a6f59eaa6b18aab73b89658bf3b3d61", "lon": -77.05039983333333, "rental_uris": {"ios": "https://dc.lft.to/lastmile_qr_scan", "android": "https://dc.lft.to/lastmile_qr_scan"}}, {"name": "a6f81baf5cd4155bb37f8f92ff120a4c", "fusion_lat": 0.0, "type": "electric_scooter", "lat": 38.909701166666665, "is_reserved": 0, "is_disabled": 0, "fusion_lon": 0.0, "bike_id": "a6f81baf5cd4155bb37f8f92ff120a4c", "lon": -77.017199, "rental_uris": {"ios": "https://dc.lft.to/lastmile_qr_scan", "android": "https://dc.lft.to/lastmile_qr_scan"}}, {"name": "4160d76fb922395896159556c6c187db", "fusion_lat": 0.0, "type": "electric_scooter", "lat": 38.9098055, "is_reserved": 0, "is_disabled": 0, "fusion_lon": 0.0, "bike_id": "4160d76fb922395896159556c6c187db", "lon": -77.0425945, "rental_uris": {"ios": "https://dc.lft.to/lastmile_qr_scan", "android": "https://dc.lft.to/lastmile_qr_scan"}}, {"name": "63c05bb1c0b69cde60f39b4e332b8acc", "fusion_lat": 0.0, "type": "electric_scooter", "lat": 38.96106133333333, "is_reserved": 0, "is_disabled": 0, "fusion_lon": 0.0, "bike_id": "63c05bb1c0b69cde60f39b4e332b8acc", "lon": -77.02815383333333, "rental_uris": {"ios": "https://dc.lft.to/lastmile_qr_scan", "android": "https://dc.lft.to/lastmile_qr_scan"}}, {"name": "2092f386e493f6a3c346ad7df05d0df6", "fusion_lat": 0.0, "type": "electric_scooter", "lat": 38.911767833333336, "is_reserved": 0, "is_disabled": 0, "fusion_lon": 0.0, "bike_id": "2092f386e493f6a3c346ad7df05d0df6", "lon": -76.99625616666667, "rental_uris": {"ios": "https://dc.lft.to/lastmile_qr_scan", "android": "https://dc.lft.to/lastmile_qr_scan"}}, {"name": "6c1f06c201762490c016a5562c0d6773", "fusion_lat": 0.0, "type": "electric_scooter", "lat": 38.88490483333333, "is_reserved": 0, "is_disabled": 0, "fusion_lon": 0.0, "bike_id": "6c1f06c201762490c016a5562c0d6773", "lon": -77.00724916666667, "rental_uris": {"ios": "https://dc.lft.to/lastmile_qr_scan", "android": "https://dc.lft.to/lastmile_qr_scan"}}, {"name": "d5948f5aa52daf0d0fce614dd4986af5", "fusion_lat": 0.0, "type": "electric_scooter", "lat": 38.89830533333333, "is_reserved": 0, "is_disabled": 0, "fusion_lon": 0.0, "bike_id": "d5948f5aa52daf0d0fce614dd4986af5", "lon": -76.94640516666666, "rental_uris": {"ios": "https://dc.lft.to/lastmile_qr_scan", "android": "https://dc.lft.to/lastmile_qr_scan"}}, {"name": "ec264b47a0c6c7ed2bebca2dd3668fef", "fusion_lat": 0.0, "type": "electric_scooter", "lat": 38.916122333333334, "is_reserved": 0, "is_disabled": 0, "fusion_lon": 0.0, "bike_id": "ec264b47a0c6c7ed2bebca2dd3668fef", "lon": -77.023027, "rental_uris": {"ios": "https://dc.lft.to/lastmile_qr_scan", "android": "https://dc.lft.to/lastmile_qr_scan"}}, {"name": "e06c9ecab4a02f66b40fb8e80c8ab0eb", "fusion_lat": 0.0, "type": "electric_scooter", "lat": 38.88744066666667, "is_reserved": 0, "is_disabled": 0, "fusion_lon": 0.0, "bike_id": "e06c9ecab4a02f66b40fb8e80c8ab0eb", "lon": -77.02571883333333, "rental_uris": {"ios": "https://dc.lft.to/lastmile_qr_scan", "android": "https://dc.lft.to/lastmile_qr_scan"}}, {"name": "38c7eeb2aecbfeea90ed25b4ddbfeca9", "fusion_lat": 0.0, "type": "electric_scooter", "lat": 38.91777283333333, "is_reserved": 0, "is_disabled": 0, "fusion_lon": 0.0, "bike_id": "38c7eeb2aecbfeea90ed25b4ddbfeca9", "lon": -77.023588, "rental_uris": {"ios": "https://dc.lft.to/lastmile_qr_scan", "android": "https://dc.lft.to/lastmile_qr_scan"}}, {"name": "c362d6d0f50fdc13ea6689ffd92d3815", "fusion_lat": 0.0, "type": "electric_scooter", "lat": 38.9232155, "is_reserved": 0, "is_disabled": 0, "fusion_lon": 0.0, "bike_id": "c362d6d0f50fdc13ea6689ffd92d3815", "lon": -77.04519566666667, "rental_uris": {"ios": "https://dc.lft.to/lastmile_qr_scan", "android": "https://dc.lft.to/lastmile_qr_scan"}}, {"name": "6206df54dd657492b29135a336141bc9", "fusion_lat": 0.0, "type": "electric_scooter", "lat": 38.917103166666664, "is_reserved": 0, "is_disabled": 0, "fusion_lon": 0.0, "bike_id": "6206df54dd657492b29135a336141bc9", "lon": -77.043906, "rental_uris": {"ios": "https://dc.lft.to/lastmile_qr_scan", "android": "https://dc.lft.to/lastmile_qr_scan"}}, {"name": "2056602cdf61767896072af704287f33", "fusion_lat": 0.0, "type": "electric_scooter", "lat": 38.90675533333334, "is_reserved": 0, "is_disabled": 0, "fusion_lon": 0.0, "bike_id": "2056602cdf61767896072af704287f33", "lon": -77.03644983333334, "rental_uris": {"ios": "https://dc.lft.to/lastmile_qr_scan", "android": "https://dc.lft.to/lastmile_qr_scan"}}, {"name": "7bb3e21ce57d7a10f3a3f36f98f08e08", "fusion_lat": 0.0, "type": "electric_scooter", "lat": 38.91829166666667, "is_reserved": 0, "is_disabled": 0, "fusion_lon": 0.0, "bike_id": "7bb3e21ce57d7a10f3a3f36f98f08e08", "lon": -77.02305216666667, "rental_uris": {"ios": "https://dc.lft.to/lastmile_qr_scan", "android": "https://dc.lft.to/lastmile_qr_scan"}}, {"name": "7b9b3366182558468c4c425f6bb2c470", "fusion_lat": 0.0, "type": "electric_scooter", "lat": 38.896518666666665, "is_reserved": 0, "is_disabled": 0, "fusion_lon": 0.0, "bike_id": "7b9b3366182558468c4c425f6bb2c470", "lon": -76.94853233333333, "rental_uris": {"ios": "https://dc.lft.to/lastmile_qr_scan", "android": "https://dc.lft.to/lastmile_qr_scan"}}, {"name": "4c7411588e7023d7f4847cd67906fc7e", "fusion_lat": 0.0, "type": "electric_scooter", "lat": 38.942855, "is_reserved": 0, "is_disabled": 0, "fusion_lon": 0.0, "bike_id": "4c7411588e7023d7f4847cd67906fc7e", "lon": -77.02171216666666, "rental_uris": {"ios": "https://dc.lft.to/lastmile_qr_scan", "android": "https://dc.lft.to/lastmile_qr_scan"}}, {"name": "46a05aa3e5d46b5d9e3fdd24b0823e60", "fusion_lat": 0.0, "type": "electric_scooter", "lat": 38.874142666666664, "is_reserved": 0, "is_disabled": 0, "fusion_lon": 0.0, "bike_id": "46a05aa3e5d46b5d9e3fdd24b0823e60", "lon": -76.96087933333334, "rental_uris": {"ios": "https://dc.lft.to/lastmile_qr_scan", "android": "https://dc.lft.to/lastmile_qr_scan"}}, {"name": "e5b9b1e1e7505619a7c0023a35f321aa", "fusion_lat": 0.0, "type": "electric_scooter", "lat": 38.90368133333333, "is_reserved": 0, "is_disabled": 0, "fusion_lon": 0.0, "bike_id": "e5b9b1e1e7505619a7c0023a35f321aa", "lon": -77.0319275, "rental_uris": {"ios": "https://dc.lft.to/lastmile_qr_scan", "android": "https://dc.lft.to/lastmile_qr_scan"}}, {"name": "734285cb52ac44df7dd377f5b0e555c6", "fusion_lat": 0.0, "type": "electric_scooter", "lat": 38.88893133333333, "is_reserved": 0, "is_disabled": 0, "fusion_lon": 0.0, "bike_id": "734285cb52ac44df7dd377f5b0e555c6", "lon": -77.0328105, "rental_uris": {"ios": "https://dc.lft.to/lastmile_qr_scan", "android": "https://dc.lft.to/lastmile_qr_scan"}}, {"name": "a4b1ddeb326918547ea6f3b386f0d896", "fusion_lat": 0.0, "type": "electric_scooter", "lat": 38.91870333333333, "is_reserved": 0, "is_disabled": 0, "fusion_lon": 0.0, "bike_id": "a4b1ddeb326918547ea6f3b386f0d896", "lon": -77.023082, "rental_uris": {"ios": "https://dc.lft.to/lastmile_qr_scan", "android": "https://dc.lft.to/lastmile_qr_scan"}}, {"name": "89288ed4ab99c7e50b30d382d1739fec", "fusion_lat": 0.0, "type": "electric_scooter", "lat": 38.90978533333333, "is_reserved": 0, "is_disabled": 0, "fusion_lon": 0.0, "bike_id": "89288ed4ab99c7e50b30d382d1739fec", "lon": -77.06709866666667, "rental_uris": {"ios": "https://dc.lft.to/lastmile_qr_scan", "android": "https://dc.lft.to/lastmile_qr_scan"}}, {"name": "d9ba26492a450a527b0eaf2f97bd8921", "fusion_lat": 0.0, "type": "electric_scooter", "lat": 38.9081635, "is_reserved": 0, "is_disabled": 0, "fusion_lon": 0.0, "bike_id": "d9ba26492a450a527b0eaf2f97bd8921", "lon": -77.000282, "rental_uris": {"ios": "https://dc.lft.to/lastmile_qr_scan", "android": "https://dc.lft.to/lastmile_qr_scan"}}, {"name": "054fb4f2c1d5c6377938a2000632fb27", "fusion_lat": 0.0, "type": "electric_scooter", "lat": 38.88739783333333, "is_reserved": 0, "is_disabled": 0, "fusion_lon": 0.0, "bike_id": "054fb4f2c1d5c6377938a2000632fb27", "lon": -77.02842166666667, "rental_uris": {"ios": "https://dc.lft.to/lastmile_qr_scan", "android": "https://dc.lft.to/lastmile_qr_scan"}}, {"name": "8f66aeae772353a09b52eac0e18b99cd", "fusion_lat": 0.0, "type": "electric_bike", "lat": 38.8244375, "is_reserved": 0, "is_disabled": 0, "fusion_lon": 0.0, "bike_id": "8f66aeae772353a09b52eac0e18b99cd", "lon": -77.070429, "rental_uris": {"ios": "https://dc.lft.to/lastmile_qr_scan", "android": "https://dc.lft.to/lastmile_qr_scan"}}, {"name": "ece1a2690797ab9dcfdaa11c69c1c028", "fusion_lat": 0.0, "type": "electric_scooter", "lat": 38.92044883333333, "is_reserved": 0, "is_disabled": 0, "fusion_lon": 0.0, "bike_id": "ece1a2690797ab9dcfdaa11c69c1c028", "lon": -77.03471233333333, "rental_uris": {"ios": "https://dc.lft.to/lastmile_qr_scan", "android": "https://dc.lft.to/lastmile_qr_scan"}}, {"name": "b08d376e9828ed391522a3186b552d4d", "fusion_lat": 0.0, "type": "electric_bike", "lat": 38.926396, "is_reserved": 0, "is_disabled": 0, "fusion_lon": 0.0, "bike_id": "b08d376e9828ed391522a3186b552d4d", "lon": -77.02839033333333, "rental_uris": {"ios": "https://dc.lft.to/lastmile_qr_scan", "android": "https://dc.lft.to/lastmile_qr_scan"}}, {"name": "4a8831906cce75997306b983b8e1eca0", "fusion_lat": 0.0, "type": "electric_scooter", "lat": 38.9025935, "is_reserved": 0, "is_disabled": 0, "fusion_lon": 0.0, "bike_id": "4a8831906cce75997306b983b8e1eca0", "lon": -77.03036216666666, "rental_uris": {"ios": "https://dc.lft.to/lastmile_qr_scan", "android": "https://dc.lft.to/lastmile_qr_scan"}}, {"name": "7d5d061b5c4eb4e80c43f1efc2b4c398", "fusion_lat": 0.0, "type": "electric_scooter", "lat": 38.903389, "is_reserved": 0, "is_disabled": 0, "fusion_lon": 0.0, "bike_id": "7d5d061b5c4eb4e80c43f1efc2b4c398", "lon": -77.04333583333333, "rental_uris": {"ios": "https://dc.lft.to/lastmile_qr_scan", "android": "https://dc.lft.to/lastmile_qr_scan"}}, {"name": "296a3f7453de3434200f2b87654bf1fd", "fusion_lat": 0.0, "type": "electric_scooter", "lat": 38.90265816666667, "is_reserved": 0, "is_disabled": 0, "fusion_lon": 0.0, "bike_id": "296a3f7453de3434200f2b87654bf1fd", "lon": -77.060086, "rental_uris": {"ios": "https://dc.lft.to/lastmile_qr_scan", "android": "https://dc.lft.to/lastmile_qr_scan"}}, {"name": "d8f000548dd424d0d973d836c4a0935b", "fusion_lat": 0.0, "type": "electric_scooter", "lat": 38.92086616666667, "is_reserved": 0, "is_disabled": 0, "fusion_lon": 0.0, "bike_id": "d8f000548dd424d0d973d836c4a0935b", "lon": -77.02235466666667, "rental_uris": {"ios": "https://dc.lft.to/lastmile_qr_scan", "android": "https://dc.lft.to/lastmile_qr_scan"}}, {"name": "2077e011725f90df8facc5fc31cc89a7", "fusion_lat": 0.0, "type": "electric_bike", "lat": 38.918514, "is_reserved": 0, "is_disabled": 0, "fusion_lon": 0.0, "bike_id": "2077e011725f90df8facc5fc31cc89a7", "lon": -76.96092266666666, "rental_uris": {"ios": "https://dc.lft.to/lastmile_qr_scan", "android": "https://dc.lft.to/lastmile_qr_scan"}}, {"name": "c03da7fb21d734fdaffffcdaebceaadc", "fusion_lat": 0.0, "type": "electric_scooter", "lat": 38.896209999999996, "is_reserved": 0, "is_disabled": 0, "fusion_lon": 0.0, "bike_id": "c03da7fb21d734fdaffffcdaebceaadc", "lon": -77.02942783333333, "rental_uris": {"ios": "https://dc.lft.to/lastmile_qr_scan", "android": "https://dc.lft.to/lastmile_qr_scan"}}, {"name": "f6f09e174d19b0d495b8a5972d744aec", "fusion_lat": 0.0, "type": "electric_scooter", "lat": 38.92307383333333, "is_reserved": 0, "is_disabled": 0, "fusion_lon": 0.0, "bike_id": "f6f09e174d19b0d495b8a5972d744aec", "lon": -77.02976033333333, "rental_uris": {"ios": "https://dc.lft.to/lastmile_qr_scan", "android": "https://dc.lft.to/lastmile_qr_scan"}}, {"name": "d0e3140683530669c5d9555b1a65bf47", "fusion_lat": 0.0, "type": "electric_scooter", "lat": 38.91717933333334, "is_reserved": 0, "is_disabled": 0, "fusion_lon": 0.0, "bike_id": "d0e3140683530669c5d9555b1a65bf47", "lon": -77.0383085, "rental_uris": {"ios": "https://dc.lft.to/lastmile_qr_scan", "android": "https://dc.lft.to/lastmile_qr_scan"}}, {"name": "3111c830ff494f892c2e9d0b31278268", "fusion_lat": 0.0, "type": "electric_scooter", "lat": 38.89912983333333, "is_reserved": 0, "is_disabled": 0, "fusion_lon": 0.0, "bike_id": "3111c830ff494f892c2e9d0b31278268", "lon": -76.9338725, "rental_uris": {"ios": "https://dc.lft.to/lastmile_qr_scan", "android": "https://dc.lft.to/lastmile_qr_scan"}}, {"name": "326e03233cb3f438678b95592c41bb8d", "fusion_lat": 0.0, "type": "electric_scooter", "lat": 38.900310166666664, "is_reserved": 0, "is_disabled": 0, "fusion_lon": 0.0, "bike_id": "326e03233cb3f438678b95592c41bb8d", "lon": -77.04335116666667, "rental_uris": {"ios": "https://dc.lft.to/lastmile_qr_scan", "android": "https://dc.lft.to/lastmile_qr_scan"}}, {"name": "3ffaf2d4915aa88d3fd78749013ba407", "fusion_lat": 0.0, "type": "electric_scooter", "lat": 38.892763, "is_reserved": 0, "is_disabled": 0, "fusion_lon": 0.0, "bike_id": "3ffaf2d4915aa88d3fd78749013ba407", "lon": -77.032261, "rental_uris": {"ios": "https://dc.lft.to/lastmile_qr_scan", "android": "https://dc.lft.to/lastmile_qr_scan"}}, {"name": "d2c3bb21251537486109bfc954185de5", "fusion_lat": 0.0, "type": "electric_bike", "lat": 38.97326433333333, "is_reserved": 0, "is_disabled": 0, "fusion_lon": 0.0, "bike_id": "d2c3bb21251537486109bfc954185de5", "lon": -77.02148, "rental_uris": {"ios": "https://dc.lft.to/lastmile_qr_scan", "android": "https://dc.lft.to/lastmile_qr_scan"}}, {"name": "bd07b33c5024153325ea7e031b61ac55", "fusion_lat": 0.0, "type": "electric_scooter", "lat": 38.916077333333334, "is_reserved": 0, "is_disabled": 0, "fusion_lon": 0.0, "bike_id": "bd07b33c5024153325ea7e031b61ac55", "lon": -77.038539, "rental_uris": {"ios": "https://dc.lft.to/lastmile_qr_scan", "android": "https://dc.lft.to/lastmile_qr_scan"}}, {"name": "ac1b6d4bbf884fea0c2db67b69fdfbbe", "fusion_lat": 0.0, "type": "electric_bike", "lat": 38.945505833333335, "is_reserved": 0, "is_disabled": 0, "fusion_lon": 0.0, "bike_id": "ac1b6d4bbf884fea0c2db67b69fdfbbe", "lon": -76.89539016666667, "rental_uris": {"ios": "https://dc.lft.to/lastmile_qr_scan", "android": "https://dc.lft.to/lastmile_qr_scan"}}, {"name": "6ecfd3fa8d8a718322b35769b4bf8d6c", "fusion_lat": 0.0, "type": "electric_scooter", "lat": 38.86693433333333, "is_reserved": 0, "is_disabled": 0, "fusion_lon": 0.0, "bike_id": "6ecfd3fa8d8a718322b35769b4bf8d6c", "lon": -76.9871065, "rental_uris": {"ios": "https://dc.lft.to/lastmile_qr_scan", "android": "https://dc.lft.to/lastmile_qr_scan"}}, {"name": "72ea7732380784576a2fc0779cdab361", "fusion_lat": 0.0, "type": "electric_scooter", "lat": 38.8985025, "is_reserved": 0, "is_disabled": 0, "fusion_lon": 0.0, "bike_id": "72ea7732380784576a2fc0779cdab361", "lon": -76.99031733333334, "rental_uris": {"ios": "https://dc.lft.to/lastmile_qr_scan", "android": "https://dc.lft.to/lastmile_qr_scan"}}, {"name": "a755aa89337152f76e726ca01f235149", "fusion_lat": 0.0, "type": "electric_scooter", "lat": 38.89480066666667, "is_reserved": 0, "is_disabled": 0, "fusion_lon": 0.0, "bike_id": "a755aa89337152f76e726ca01f235149", "lon": -76.948724, "rental_uris": {"ios": "https://dc.lft.to/lastmile_qr_scan", "android": "https://dc.lft.to/lastmile_qr_scan"}}, {"name": "e8473c072937e594b862b8a0f50f51db", "fusion_lat": 0.0, "type": "electric_scooter", "lat": 38.932464833333334, "is_reserved": 0, "is_disabled": 0, "fusion_lon": 0.0, "bike_id": "e8473c072937e594b862b8a0f50f51db", "lon": -77.04001983333333, "rental_uris": {"ios": "https://dc.lft.to/lastmile_qr_scan", "android": "https://dc.lft.to/lastmile_qr_scan"}}, {"name": "c5e8324e6855a08a9a1db835b52a7533", "fusion_lat": 0.0, "type": "electric_scooter", "lat": 38.901407166666665, "is_reserved": 0, "is_disabled": 0, "fusion_lon": 0.0, "bike_id": "c5e8324e6855a08a9a1db835b52a7533", "lon": -77.043016, "rental_uris": {"ios": "https://dc.lft.to/lastmile_qr_scan", "android": "https://dc.lft.to/lastmile_qr_scan"}}, {"name": "30c2c7e15cfca9dc96c021665dca3a7f", "fusion_lat": 0.0, "type": "electric_scooter", "lat": 38.9082085, "is_reserved": 0, "is_disabled": 0, "fusion_lon": 0.0, "bike_id": "30c2c7e15cfca9dc96c021665dca3a7f", "lon": -76.99968116666666, "rental_uris": {"ios": "https://dc.lft.to/lastmile_qr_scan", "android": "https://dc.lft.to/lastmile_qr_scan"}}, {"name": "4e6ea877d8d4d4d5f0bcc7c1a3377d82", "fusion_lat": 0.0, "type": "electric_scooter", "lat": 38.9311995, "is_reserved": 0, "is_disabled": 0, "fusion_lon": 0.0, "bike_id": "4e6ea877d8d4d4d5f0bcc7c1a3377d82", "lon": -77.03599933333334, "rental_uris": {"ios": "https://dc.lft.to/lastmile_qr_scan", "android": "https://dc.lft.to/lastmile_qr_scan"}}, {"name": "4aa8b3bd8d912f778385dc82832cf50b", "fusion_lat": 0.0, "type": "electric_scooter", "lat": 38.93151533333333, "is_reserved": 0, "is_disabled": 0, "fusion_lon": 0.0, "bike_id": "4aa8b3bd8d912f778385dc82832cf50b", "lon": -77.03882933333334, "rental_uris": {"ios": "https://dc.lft.to/lastmile_qr_scan", "android": "https://dc.lft.to/lastmile_qr_scan"}}, {"name": "5cda5e376a27307c702d5b59c2d47fc1", "fusion_lat": 0.0, "type": "electric_scooter", "lat": 38.90092, "is_reserved": 0, "is_disabled": 0, "fusion_lon": 0.0, "bike_id": "5cda5e376a27307c702d5b59c2d47fc1", "lon": -77.01355333333333, "rental_uris": {"ios": "https://dc.lft.to/lastmile_qr_scan", "android": "https://dc.lft.to/lastmile_qr_scan"}}, {"name": "3172d020ab5533e23bc747d54bb67a1b", "fusion_lat": 0.0, "type": "electric_scooter", "lat": 38.91406466666667, "is_reserved": 0, "is_disabled": 0, "fusion_lon": 0.0, "bike_id": "3172d020ab5533e23bc747d54bb67a1b", "lon": -77.039132, "rental_uris": {"ios": "https://dc.lft.to/lastmile_qr_scan", "android": "https://dc.lft.to/lastmile_qr_scan"}}, {"name": "ec93d8ecbaf34a4d3fb9fa847b7022ab", "fusion_lat": 0.0, "type": "electric_scooter", "lat": 38.88394866666667, "is_reserved": 0, "is_disabled": 0, "fusion_lon": 0.0, "bike_id": "ec93d8ecbaf34a4d3fb9fa847b7022ab", "lon": -76.9304375, "rental_uris": {"ios": "https://dc.lft.to/lastmile_qr_scan", "android": "https://dc.lft.to/lastmile_qr_scan"}}, {"name": "4f0d963fa19bcc97f56da274702b1a51", "fusion_lat": 0.0, "type": "electric_scooter", "lat": 38.918002666666666, "is_reserved": 0, "is_disabled": 0, "fusion_lon": 0.0, "bike_id": "4f0d963fa19bcc97f56da274702b1a51", "lon": -77.031709, "rental_uris": {"ios": "https://dc.lft.to/lastmile_qr_scan", "android": "https://dc.lft.to/lastmile_qr_scan"}}, {"name": "fa963657d879b3f5cafefb7fab2b8606", "fusion_lat": 0.0, "type": "electric_scooter", "lat": 38.93992183333334, "is_reserved": 0, "is_disabled": 0, "fusion_lon": 0.0, "bike_id": "fa963657d879b3f5cafefb7fab2b8606", "lon": -77.02959566666667, "rental_uris": {"ios": "https://dc.lft.to/lastmile_qr_scan", "android": "https://dc.lft.to/lastmile_qr_scan"}}, {"name": "456751b7c5e3076dc0dbec43004a27d0", "fusion_lat": 0.0, "type": "electric_scooter", "lat": 38.928683, "is_reserved": 0, "is_disabled": 0, "fusion_lon": 0.0, "bike_id": "456751b7c5e3076dc0dbec43004a27d0", "lon": -77.0136215, "rental_uris": {"ios": "https://dc.lft.to/lastmile_qr_scan", "android": "https://dc.lft.to/lastmile_qr_scan"}}, {"name": "467988dcd1f6fd6d3e527f54b12c5d33", "fusion_lat": 0.0, "type": "electric_scooter", "lat": 38.907614, "is_reserved": 0, "is_disabled": 0, "fusion_lon": 0.0, "bike_id": "467988dcd1f6fd6d3e527f54b12c5d33", "lon": -77.000358, "rental_uris": {"ios": "https://dc.lft.to/lastmile_qr_scan", "android": "https://dc.lft.to/lastmile_qr_scan"}}, {"name": "0e8ec1074a828eddbfabe430d3efd2e4", "fusion_lat": 0.0, "type": "electric_scooter", "lat": 38.893438, "is_reserved": 0, "is_disabled": 0, "fusion_lon": 0.0, "bike_id": "0e8ec1074a828eddbfabe430d3efd2e4", "lon": -77.04643883333334, "rental_uris": {"ios": "https://dc.lft.to/lastmile_qr_scan", "android": "https://dc.lft.to/lastmile_qr_scan"}}, {"name": "03aebcf16f02732b65d0e45921e38b45", "fusion_lat": 0.0, "type": "electric_scooter", "lat": 38.94182683333333, "is_reserved": 0, "is_disabled": 0, "fusion_lon": 0.0, "bike_id": "03aebcf16f02732b65d0e45921e38b45", "lon": -77.024884, "rental_uris": {"ios": "https://dc.lft.to/lastmile_qr_scan", "android": "https://dc.lft.to/lastmile_qr_scan"}}, {"name": "721bf1b9fc83690a52a8603282a2417c", "fusion_lat": 0.0, "type": "electric_scooter", "lat": 38.90850183333333, "is_reserved": 0, "is_disabled": 0, "fusion_lon": 0.0, "bike_id": "721bf1b9fc83690a52a8603282a2417c", "lon": -77.03274166666667, "rental_uris": {"ios": "https://dc.lft.to/lastmile_qr_scan", "android": "https://dc.lft.to/lastmile_qr_scan"}}, {"name": "2a142bce3de88861c574ac3d1b9d486f", "fusion_lat": 0.0, "type": "electric_scooter", "lat": 38.93207783333333, "is_reserved": 0, "is_disabled": 0, "fusion_lon": 0.0, "bike_id": "2a142bce3de88861c574ac3d1b9d486f", "lon": -77.03633033333334, "rental_uris": {"ios": "https://dc.lft.to/lastmile_qr_scan", "android": "https://dc.lft.to/lastmile_qr_scan"}}, {"name": "0feff2e53172c0c0a1f33ee10ef3bc6b", "fusion_lat": 0.0, "type": "electric_scooter", "lat": 38.9171445, "is_reserved": 0, "is_disabled": 0, "fusion_lon": 0.0, "bike_id": "0feff2e53172c0c0a1f33ee10ef3bc6b", "lon": -77.03555283333333, "rental_uris": {"ios": "https://dc.lft.to/lastmile_qr_scan", "android": "https://dc.lft.to/lastmile_qr_scan"}}, {"name": "561a9e0f7fd84bf24b551be2753ad8a2", "fusion_lat": 0.0, "type": "electric_bike", "lat": 38.8587165, "is_reserved": 0, "is_disabled": 0, "fusion_lon": 0.0, "bike_id": "561a9e0f7fd84bf24b551be2753ad8a2", "lon": -77.095532, "rental_uris": {"ios": "https://dc.lft.to/lastmile_qr_scan", "android": "https://dc.lft.to/lastmile_qr_scan"}}, {"name": "e6b82825b2d3fbfd8f8b00f4095e43bd", "fusion_lat": 0.0, "type": "electric_scooter", "lat": 38.910543, "is_reserved": 0, "is_disabled": 0, "fusion_lon": 0.0, "bike_id": "e6b82825b2d3fbfd8f8b00f4095e43bd", "lon": -77.03025, "rental_uris": {"ios": "https://dc.lft.to/lastmile_qr_scan", "android": "https://dc.lft.to/lastmile_qr_scan"}}, {"name": "371099a6fe5dfd8c387f28a0db883159", "fusion_lat": 0.0, "type": "electric_bike", "lat": 38.85035383333334, "is_reserved": 0, "is_disabled": 0, "fusion_lon": 0.0, "bike_id": "371099a6fe5dfd8c387f28a0db883159", "lon": -77.10098866666667, "rental_uris": {"ios": "https://dc.lft.to/lastmile_qr_scan", "android": "https://dc.lft.to/lastmile_qr_scan"}}, {"name": "31ec9158e6ebbd07a1f4f64bd6a7f435", "fusion_lat": 0.0, "type": "electric_scooter", "lat": 38.92908416666667, "is_reserved": 0, "is_disabled": 0, "fusion_lon": 0.0, "bike_id": "31ec9158e6ebbd07a1f4f64bd6a7f435", "lon": -77.019521, "rental_uris": {"ios": "https://dc.lft.to/lastmile_qr_scan", "android": "https://dc.lft.to/lastmile_qr_scan"}}, {"name": "9567bb90c54cf3aa7c1fff8c97a94b34", "fusion_lat": 0.0, "type": "electric_scooter", "lat": 38.90255783333333, "is_reserved": 0, "is_disabled": 0, "fusion_lon": 0.0, "bike_id": "9567bb90c54cf3aa7c1fff8c97a94b34", "lon": -77.033404, "rental_uris": {"ios": "https://dc.lft.to/lastmile_qr_scan", "android": "https://dc.lft.to/lastmile_qr_scan"}}, {"name": "5a9f0c955c23eb49ae15f1fcd5f7625d", "fusion_lat": 0.0, "type": "electric_scooter", "lat": 38.92342216666667, "is_reserved": 0, "is_disabled": 0, "fusion_lon": 0.0, "bike_id": "5a9f0c955c23eb49ae15f1fcd5f7625d", "lon": -77.0509625, "rental_uris": {"ios": "https://dc.lft.to/lastmile_qr_scan", "android": "https://dc.lft.to/lastmile_qr_scan"}}, {"name": "21f1b12700bf2d8d1507c56c87cc9713", "fusion_lat": 0.0, "type": "electric_scooter", "lat": 38.903823, "is_reserved": 0, "is_disabled": 0, "fusion_lon": 0.0, "bike_id": "21f1b12700bf2d8d1507c56c87cc9713", "lon": -77.041921, "rental_uris": {"ios": "https://dc.lft.to/lastmile_qr_scan", "android": "https://dc.lft.to/lastmile_qr_scan"}}, {"name": "bd8cf768bb64a70f4d27afb7ba2ade90", "fusion_lat": 0.0, "type": "electric_scooter", "lat": 38.932402833333335, "is_reserved": 0, "is_disabled": 0, "fusion_lon": 0.0, "bike_id": "bd8cf768bb64a70f4d27afb7ba2ade90", "lon": -77.03247983333333, "rental_uris": {"ios": "https://dc.lft.to/lastmile_qr_scan", "android": "https://dc.lft.to/lastmile_qr_scan"}}, {"name": "52c7a62717344f5ebf577980e0cd8302", "fusion_lat": 0.0, "type": "electric_scooter", "lat": 38.89524883333333, "is_reserved": 0, "is_disabled": 0, "fusion_lon": 0.0, "bike_id": "52c7a62717344f5ebf577980e0cd8302", "lon": -77.01621133333333, "rental_uris": {"ios": "https://dc.lft.to/lastmile_qr_scan", "android": "https://dc.lft.to/lastmile_qr_scan"}}, {"name": "9da726465b709ff13632109a18a223a4", "fusion_lat": 0.0, "type": "electric_scooter", "lat": 38.89211316666667, "is_reserved": 0, "is_disabled": 0, "fusion_lon": 0.0, "bike_id": "9da726465b709ff13632109a18a223a4", "lon": -76.995683, "rental_uris": {"ios": "https://dc.lft.to/lastmile_qr_scan", "android": "https://dc.lft.to/lastmile_qr_scan"}}, {"name": "4af86e76ddc7ab1a31669ccd39f20fc4", "fusion_lat": 0.0, "type": "electric_scooter", "lat": 38.90639933333333, "is_reserved": 0, "is_disabled": 0, "fusion_lon": 0.0, "bike_id": "4af86e76ddc7ab1a31669ccd39f20fc4", "lon": -77.00593066666667, "rental_uris": {"ios": "https://dc.lft.to/lastmile_qr_scan", "android": "https://dc.lft.to/lastmile_qr_scan"}}, {"name": "7c6463070b2740eaaaa1a50d5e6e0cac", "fusion_lat": 0.0, "type": "electric_bike", "lat": 38.90082266666667, "is_reserved": 0, "is_disabled": 0, "fusion_lon": 0.0, "bike_id": "7c6463070b2740eaaaa1a50d5e6e0cac", "lon": -77.05903516666666, "rental_uris": {"ios": "https://dc.lft.to/lastmile_qr_scan", "android": "https://dc.lft.to/lastmile_qr_scan"}}, {"name": "77c9d3a622dcd819b080b4e70ef772e4", "fusion_lat": 0.0, "type": "electric_scooter", "lat": 38.90659133333333, "is_reserved": 0, "is_disabled": 0, "fusion_lon": 0.0, "bike_id": "77c9d3a622dcd819b080b4e70ef772e4", "lon": -77.03852183333333, "rental_uris": {"ios": "https://dc.lft.to/lastmile_qr_scan", "android": "https://dc.lft.to/lastmile_qr_scan"}}, {"name": "1b5f3055dbcea4cd5b8f7fd0e025cf4f", "fusion_lat": 0.0, "type": "electric_scooter", "lat": 38.908699666666664, "is_reserved": 0, "is_disabled": 0, "fusion_lon": 0.0, "bike_id": "1b5f3055dbcea4cd5b8f7fd0e025cf4f", "lon": -77.08594416666666, "rental_uris": {"ios": "https://dc.lft.to/lastmile_qr_scan", "android": "https://dc.lft.to/lastmile_qr_scan"}}, {"name": "683d714e3b27e28172bf3bcb73640f43", "fusion_lat": 0.0, "type": "electric_scooter", "lat": 38.938843166666665, "is_reserved": 0, "is_disabled": 0, "fusion_lon": 0.0, "bike_id": "683d714e3b27e28172bf3bcb73640f43", "lon": -77.02460233333333, "rental_uris": {"ios": "https://dc.lft.to/lastmile_qr_scan", "android": "https://dc.lft.to/lastmile_qr_scan"}}, {"name": "1ab5f2d2d69191ffe718eea600f511a2", "fusion_lat": 0.0, "type": "electric_scooter", "lat": 38.9360185, "is_reserved": 0, "is_disabled": 0, "fusion_lon": 0.0, "bike_id": "1ab5f2d2d69191ffe718eea600f511a2", "lon": -77.055924, "rental_uris": {"ios": "https://dc.lft.to/lastmile_qr_scan", "android": "https://dc.lft.to/lastmile_qr_scan"}}, {"name": "5454c9db51b3b4b97dfddb343abae37f", "fusion_lat": 0.0, "type": "electric_scooter", "lat": 38.90018516666667, "is_reserved": 0, "is_disabled": 0, "fusion_lon": 0.0, "bike_id": "5454c9db51b3b4b97dfddb343abae37f", "lon": -76.99866333333334, "rental_uris": {"ios": "https://dc.lft.to/lastmile_qr_scan", "android": "https://dc.lft.to/lastmile_qr_scan"}}, {"name": "cd85b8e569dba52dddd538fda9479a45", "fusion_lat": 0.0, "type": "electric_bike", "lat": 38.945853666666665, "is_reserved": 0, "is_disabled": 0, "fusion_lon": 0.0, "bike_id": "cd85b8e569dba52dddd538fda9479a45", "lon": -77.00272183333334, "rental_uris": {"ios": "https://dc.lft.to/lastmile_qr_scan", "android": "https://dc.lft.to/lastmile_qr_scan"}}, {"name": "7e4eb4c180564b78f4feaf8a777538de", "fusion_lat": 0.0, "type": "electric_scooter", "lat": 38.913369833333334, "is_reserved": 0, "is_disabled": 0, "fusion_lon": 0.0, "bike_id": "7e4eb4c180564b78f4feaf8a777538de", "lon": -77.00344283333334, "rental_uris": {"ios": "https://dc.lft.to/lastmile_qr_scan", "android": "https://dc.lft.to/lastmile_qr_scan"}}, {"name": "acd8efdc2d32db2dd1353ae2559a42ad", "fusion_lat": 0.0, "type": "electric_scooter", "lat": 38.93549616666667, "is_reserved": 0, "is_disabled": 0, "fusion_lon": 0.0, "bike_id": "acd8efdc2d32db2dd1353ae2559a42ad", "lon": -77.023592, "rental_uris": {"ios": "https://dc.lft.to/lastmile_qr_scan", "android": "https://dc.lft.to/lastmile_qr_scan"}}, {"name": "45571b1e4777f8b07f654baa2f3c11b2", "fusion_lat": 0.0, "type": "electric_scooter", "lat": 38.92452183333333, "is_reserved": 0, "is_disabled": 0, "fusion_lon": 0.0, "bike_id": "45571b1e4777f8b07f654baa2f3c11b2", "lon": -77.03275583333334, "rental_uris": {"ios": "https://dc.lft.to/lastmile_qr_scan", "android": "https://dc.lft.to/lastmile_qr_scan"}}, {"name": "94edc1eceee87950e6188c69332e7d75", "fusion_lat": 0.0, "type": "electric_scooter", "lat": 38.89351466666667, "is_reserved": 0, "is_disabled": 0, "fusion_lon": 0.0, "bike_id": "94edc1eceee87950e6188c69332e7d75", "lon": -77.00334283333333, "rental_uris": {"ios": "https://dc.lft.to/lastmile_qr_scan", "android": "https://dc.lft.to/lastmile_qr_scan"}}, {"name": "47d7bd8a39dee2b44c4b29a095289f22", "fusion_lat": 0.0, "type": "electric_scooter", "lat": 38.90652633333333, "is_reserved": 0, "is_disabled": 0, "fusion_lon": 0.0, "bike_id": "47d7bd8a39dee2b44c4b29a095289f22", "lon": -77.05131383333334, "rental_uris": {"ios": "https://dc.lft.to/lastmile_qr_scan", "android": "https://dc.lft.to/lastmile_qr_scan"}}, {"name": "c2f598baf437f10dd790bbe50c1544b6", "fusion_lat": 0.0, "type": "electric_scooter", "lat": 38.924796666666666, "is_reserved": 0, "is_disabled": 0, "fusion_lon": 0.0, "bike_id": "c2f598baf437f10dd790bbe50c1544b6", "lon": -77.027122, "rental_uris": {"ios": "https://dc.lft.to/lastmile_qr_scan", "android": "https://dc.lft.to/lastmile_qr_scan"}}, {"name": "ca1c5b51cbaeca933bbf3794a785bf71", "fusion_lat": 0.0, "type": "electric_scooter", "lat": 38.892289833333336, "is_reserved": 0, "is_disabled": 0, "fusion_lon": 0.0, "bike_id": "ca1c5b51cbaeca933bbf3794a785bf71", "lon": -77.0318935, "rental_uris": {"ios": "https://dc.lft.to/lastmile_qr_scan", "android": "https://dc.lft.to/lastmile_qr_scan"}}, {"name": "5e4ed3349364ab18789275b956763487", "fusion_lat": 0.0, "type": "electric_scooter", "lat": 38.897384833333334, "is_reserved": 0, "is_disabled": 0, "fusion_lon": 0.0, "bike_id": "5e4ed3349364ab18789275b956763487", "lon": -77.0433775, "rental_uris": {"ios": "https://dc.lft.to/lastmile_qr_scan", "android": "https://dc.lft.to/lastmile_qr_scan"}}, {"name": "713879d1f31b6723d3ecc08b988dd004", "fusion_lat": 0.0, "type": "electric_scooter", "lat": 38.90726766666667, "is_reserved": 0, "is_disabled": 0, "fusion_lon": 0.0, "bike_id": "713879d1f31b6723d3ecc08b988dd004", "lon": -77.03354033333333, "rental_uris": {"ios": "https://dc.lft.to/lastmile_qr_scan", "android": "https://dc.lft.to/lastmile_qr_scan"}}, {"name": "156d4ccef1e68c6f867af89be4c10a40", "fusion_lat": 0.0, "type": "electric_scooter", "lat": 38.9301425, "is_reserved": 0, "is_disabled": 0, "fusion_lon": 0.0, "bike_id": "156d4ccef1e68c6f867af89be4c10a40", "lon": -77.02319183333333, "rental_uris": {"ios": "https://dc.lft.to/lastmile_qr_scan", "android": "https://dc.lft.to/lastmile_qr_scan"}}, {"name": "160a60a1fa9730ce92d8e62e49112ce5", "fusion_lat": 0.0, "type": "electric_scooter", "lat": 38.922149833333336, "is_reserved": 0, "is_disabled": 0, "fusion_lon": 0.0, "bike_id": "160a60a1fa9730ce92d8e62e49112ce5", "lon": -77.02419966666666, "rental_uris": {"ios": "https://dc.lft.to/lastmile_qr_scan", "android": "https://dc.lft.to/lastmile_qr_scan"}}, {"name": "605c3a5661c060337a0b3443fdd63726", "fusion_lat": 0.0, "type": "electric_scooter", "lat": 38.92895466666667, "is_reserved": 0, "is_disabled": 0, "fusion_lon": 0.0, "bike_id": "605c3a5661c060337a0b3443fdd63726", "lon": -77.054501, "rental_uris": {"ios": "https://dc.lft.to/lastmile_qr_scan", "android": "https://dc.lft.to/lastmile_qr_scan"}}, {"name": "9228b0f70f2ed136c2ac65720570ee20", "fusion_lat": 0.0, "type": "electric_scooter", "lat": 38.9009525, "is_reserved": 0, "is_disabled": 0, "fusion_lon": 0.0, "bike_id": "9228b0f70f2ed136c2ac65720570ee20", "lon": -77.03188366666667, "rental_uris": {"ios": "https://dc.lft.to/lastmile_qr_scan", "android": "https://dc.lft.to/lastmile_qr_scan"}}, {"name": "cd654166adbf604faf132a5164388272", "fusion_lat": 0.0, "type": "electric_scooter", "lat": 38.897378833333335, "is_reserved": 0, "is_disabled": 0, "fusion_lon": 0.0, "bike_id": "cd654166adbf604faf132a5164388272", "lon": -76.9424925, "rental_uris": {"ios": "https://dc.lft.to/lastmile_qr_scan", "android": "https://dc.lft.to/lastmile_qr_scan"}}, {"name": "f6d878d2c3c69a8f56be0c0d4da45cc5", "fusion_lat": 0.0, "type": "electric_scooter", "lat": 38.90018216666667, "is_reserved": 0, "is_disabled": 0, "fusion_lon": 0.0, "bike_id": "f6d878d2c3c69a8f56be0c0d4da45cc5", "lon": -77.033062, "rental_uris": {"ios": "https://dc.lft.to/lastmile_qr_scan", "android": "https://dc.lft.to/lastmile_qr_scan"}}, {"name": "48e576485257b75a0ab62928896678c5", "fusion_lat": 0.0, "type": "electric_scooter", "lat": 38.90794666666667, "is_reserved": 0, "is_disabled": 0, "fusion_lon": 0.0, "bike_id": "48e576485257b75a0ab62928896678c5", "lon": -77.04821916666667, "rental_uris": {"ios": "https://dc.lft.to/lastmile_qr_scan", "android": "https://dc.lft.to/lastmile_qr_scan"}}, {"name": "b50898ecae675a79f45d6aa1f47b8a78", "fusion_lat": 0.0, "type": "electric_scooter", "lat": 38.909566, "is_reserved": 0, "is_disabled": 0, "fusion_lon": 0.0, "bike_id": "b50898ecae675a79f45d6aa1f47b8a78", "lon": -77.03819316666667, "rental_uris": {"ios": "https://dc.lft.to/lastmile_qr_scan", "android": "https://dc.lft.to/lastmile_qr_scan"}}, {"name": "65d622ac1c7f2a60586636a0cfa5a3a7", "fusion_lat": 0.0, "type": "electric_scooter", "lat": 38.9009565, "is_reserved": 0, "is_disabled": 0, "fusion_lon": 0.0, "bike_id": "65d622ac1c7f2a60586636a0cfa5a3a7", "lon": -77.01994016666667, "rental_uris": {"ios": "https://dc.lft.to/lastmile_qr_scan", "android": "https://dc.lft.to/lastmile_qr_scan"}}, {"name": "1f7d614525b305a42a59c2e16fb7e25d", "fusion_lat": 0.0, "type": "electric_scooter", "lat": 38.933805166666666, "is_reserved": 0, "is_disabled": 0, "fusion_lon": 0.0, "bike_id": "1f7d614525b305a42a59c2e16fb7e25d", "lon": -77.05763383333333, "rental_uris": {"ios": "https://dc.lft.to/lastmile_qr_scan", "android": "https://dc.lft.to/lastmile_qr_scan"}}, {"name": "2444b3de740294bcef545b63573cb66e", "fusion_lat": 0.0, "type": "electric_bike", "lat": 38.96502866666667, "is_reserved": 0, "is_disabled": 0, "fusion_lon": 0.0, "bike_id": "2444b3de740294bcef545b63573cb66e", "lon": -77.10333716666666, "rental_uris": {"ios": "https://dc.lft.to/lastmile_qr_scan", "android": "https://dc.lft.to/lastmile_qr_scan"}}, {"name": "27ee29ee1a68472e02634007e9883c18", "fusion_lat": 0.0, "type": "electric_scooter", "lat": 38.904265, "is_reserved": 0, "is_disabled": 0, "fusion_lon": 0.0, "bike_id": "27ee29ee1a68472e02634007e9883c18", "lon": -77.04660333333334, "rental_uris": {"ios": "https://dc.lft.to/lastmile_qr_scan", "android": "https://dc.lft.to/lastmile_qr_scan"}}, {"name": "a12b7d0c9fa033a0f9d575ec37e37fc1", "fusion_lat": 0.0, "type": "electric_scooter", "lat": 38.89831066666667, "is_reserved": 0, "is_disabled": 0, "fusion_lon": 0.0, "bike_id": "a12b7d0c9fa033a0f9d575ec37e37fc1", "lon": -77.02781216666666, "rental_uris": {"ios": "https://dc.lft.to/lastmile_qr_scan", "android": "https://dc.lft.to/lastmile_qr_scan"}}, {"name": "1525632783539b6a5bd40572c801b141", "fusion_lat": 0.0, "type": "electric_scooter", "lat": 38.90996916666667, "is_reserved": 0, "is_disabled": 0, "fusion_lon": 0.0, "bike_id": "1525632783539b6a5bd40572c801b141", "lon": -77.04006266666667, "rental_uris": {"ios": "https://dc.lft.to/lastmile_qr_scan", "android": "https://dc.lft.to/lastmile_qr_scan"}}, {"name": "f49654ed20ef58a3ca9cedbb83571c03", "fusion_lat": 0.0, "type": "electric_scooter", "lat": 38.91253116666667, "is_reserved": 0, "is_disabled": 0, "fusion_lon": 0.0, "bike_id": "f49654ed20ef58a3ca9cedbb83571c03", "lon": -77.007755, "rental_uris": {"ios": "https://dc.lft.to/lastmile_qr_scan", "android": "https://dc.lft.to/lastmile_qr_scan"}}, {"name": "16fdc513f2cf6282ae8a8cfbe28b106c", "fusion_lat": 0.0, "type": "electric_scooter", "lat": 38.933634166666664, "is_reserved": 0, "is_disabled": 0, "fusion_lon": 0.0, "bike_id": "16fdc513f2cf6282ae8a8cfbe28b106c", "lon": -77.05725183333334, "rental_uris": {"ios": "https://dc.lft.to/lastmile_qr_scan", "android": "https://dc.lft.to/lastmile_qr_scan"}}, {"name": "78a4c366e3b04f7f26ba05f586cf8d38", "fusion_lat": 0.0, "type": "electric_scooter", "lat": 38.921313166666664, "is_reserved": 0, "is_disabled": 0, "fusion_lon": 0.0, "bike_id": "78a4c366e3b04f7f26ba05f586cf8d38", "lon": -77.045796, "rental_uris": {"ios": "https://dc.lft.to/lastmile_qr_scan", "android": "https://dc.lft.to/lastmile_qr_scan"}}, {"name": "76e283428f0b676474944cc78280cc20", "fusion_lat": 0.0, "type": "electric_scooter", "lat": 38.866944833333335, "is_reserved": 0, "is_disabled": 0, "fusion_lon": 0.0, "bike_id": "76e283428f0b676474944cc78280cc20", "lon": -76.98710516666667, "rental_uris": {"ios": "https://dc.lft.to/lastmile_qr_scan", "android": "https://dc.lft.to/lastmile_qr_scan"}}, {"name": "735c30b389b3ab3ac396d31c2bdded11", "fusion_lat": 0.0, "type": "electric_scooter", "lat": 38.90020883333333, "is_reserved": 0, "is_disabled": 0, "fusion_lon": 0.0, "bike_id": "735c30b389b3ab3ac396d31c2bdded11", "lon": -76.998688, "rental_uris": {"ios": "https://dc.lft.to/lastmile_qr_scan", "android": "https://dc.lft.to/lastmile_qr_scan"}}, {"name": "08940de7b8c0007ab4848db87a96a943", "fusion_lat": 0.0, "type": "electric_bike", "lat": 38.8863215, "is_reserved": 0, "is_disabled": 0, "fusion_lon": 0.0, "bike_id": "08940de7b8c0007ab4848db87a96a943", "lon": -76.95460566666667, "rental_uris": {"ios": "https://dc.lft.to/lastmile_qr_scan", "android": "https://dc.lft.to/lastmile_qr_scan"}}, {"name": "084f2ade8f3cbb3a0f4626c27939bb19", "fusion_lat": 0.0, "type": "electric_scooter", "lat": 38.9095855, "is_reserved": 0, "is_disabled": 0, "fusion_lon": 0.0, "bike_id": "084f2ade8f3cbb3a0f4626c27939bb19", "lon": -77.0386445, "rental_uris": {"ios": "https://dc.lft.to/lastmile_qr_scan", "android": "https://dc.lft.to/lastmile_qr_scan"}}, {"name": "336baee1f847f31d3d050828dafdc0a1", "fusion_lat": 0.0, "type": "electric_scooter", "lat": 38.9036075, "is_reserved": 0, "is_disabled": 0, "fusion_lon": 0.0, "bike_id": "336baee1f847f31d3d050828dafdc0a1", "lon": -77.045069, "rental_uris": {"ios": "https://dc.lft.to/lastmile_qr_scan", "android": "https://dc.lft.to/lastmile_qr_scan"}}, {"name": "3ff290863328413436110fa3e5be2c00", "fusion_lat": 0.0, "type": "electric_scooter", "lat": 38.91420216666667, "is_reserved": 0, "is_disabled": 0, "fusion_lon": 0.0, "bike_id": "3ff290863328413436110fa3e5be2c00", "lon": -77.041569, "rental_uris": {"ios": "https://dc.lft.to/lastmile_qr_scan", "android": "https://dc.lft.to/lastmile_qr_scan"}}, {"name": "520cc7ab1492b31bb01da29259be18bb", "fusion_lat": 0.0, "type": "electric_bike", "lat": 38.898345166666665, "is_reserved": 0, "is_disabled": 0, "fusion_lon": 0.0, "bike_id": "520cc7ab1492b31bb01da29259be18bb", "lon": -77.11799683333334, "rental_uris": {"ios": "https://dc.lft.to/lastmile_qr_scan", "android": "https://dc.lft.to/lastmile_qr_scan"}}, {"name": "b4d75a4583df2d009a15177e24b32a47", "fusion_lat": 0.0, "type": "electric_scooter", "lat": 38.92379483333333, "is_reserved": 0, "is_disabled": 0, "fusion_lon": 0.0, "bike_id": "b4d75a4583df2d009a15177e24b32a47", "lon": -77.02951733333333, "rental_uris": {"ios": "https://dc.lft.to/lastmile_qr_scan", "android": "https://dc.lft.to/lastmile_qr_scan"}}, {"name": "a53278f23e41cb563eb517d4fb20f0ab", "fusion_lat": 0.0, "type": "electric_bike", "lat": 38.89685633333333, "is_reserved": 0, "is_disabled": 0, "fusion_lon": 0.0, "bike_id": "a53278f23e41cb563eb517d4fb20f0ab", "lon": -76.940614, "rental_uris": {"ios": "https://dc.lft.to/lastmile_qr_scan", "android": "https://dc.lft.to/lastmile_qr_scan"}}, {"name": "de9103645d4b44f2d664ec4425d313cf", "fusion_lat": 0.0, "type": "electric_scooter", "lat": 38.90496983333333, "is_reserved": 0, "is_disabled": 0, "fusion_lon": 0.0, "bike_id": "de9103645d4b44f2d664ec4425d313cf", "lon": -77.04652516666667, "rental_uris": {"ios": "https://dc.lft.to/lastmile_qr_scan", "android": "https://dc.lft.to/lastmile_qr_scan"}}, {"name": "bcc5b6ebf0465debae78a7f6caab0eff", "fusion_lat": 0.0, "type": "electric_bike", "lat": 38.90461916666667, "is_reserved": 0, "is_disabled": 0, "fusion_lon": 0.0, "bike_id": "bcc5b6ebf0465debae78a7f6caab0eff", "lon": -77.0343205, "rental_uris": {"ios": "https://dc.lft.to/lastmile_qr_scan", "android": "https://dc.lft.to/lastmile_qr_scan"}}, {"name": "5b3c618c9f6c5d428246b05642c37aca", "fusion_lat": 0.0, "type": "electric_scooter", "lat": 38.9169355, "is_reserved": 0, "is_disabled": 0, "fusion_lon": 0.0, "bike_id": "5b3c618c9f6c5d428246b05642c37aca", "lon": -77.03822933333333, "rental_uris": {"ios": "https://dc.lft.to/lastmile_qr_scan", "android": "https://dc.lft.to/lastmile_qr_scan"}}, {"name": "044981b51f1a9e147bbfc5205af4e2c8", "fusion_lat": 0.0, "type": "electric_scooter", "lat": 38.899733833333336, "is_reserved": 0, "is_disabled": 0, "fusion_lon": 0.0, "bike_id": "044981b51f1a9e147bbfc5205af4e2c8", "lon": -77.02939033333334, "rental_uris": {"ios": "https://dc.lft.to/lastmile_qr_scan", "android": "https://dc.lft.to/lastmile_qr_scan"}}, {"name": "1a95307050f8f6f1637656adf2a7d965", "fusion_lat": 0.0, "type": "electric_scooter", "lat": 38.86072266666667, "is_reserved": 0, "is_disabled": 0, "fusion_lon": 0.0, "bike_id": "1a95307050f8f6f1637656adf2a7d965", "lon": -76.96734383333333, "rental_uris": {"ios": "https://dc.lft.to/lastmile_qr_scan", "android": "https://dc.lft.to/lastmile_qr_scan"}}, {"name": "0fc93ba6a517ac58060691429b2ab3c3", "fusion_lat": 0.0, "type": "electric_bike", "lat": 38.909085166666664, "is_reserved": 0, "is_disabled": 0, "fusion_lon": 0.0, "bike_id": "0fc93ba6a517ac58060691429b2ab3c3", "lon": -77.072698, "rental_uris": {"ios": "https://dc.lft.to/lastmile_qr_scan", "android": "https://dc.lft.to/lastmile_qr_scan"}}, {"name": "54753f3507e7e6e710a07d991ba01ae7", "fusion_lat": 0.0, "type": "electric_scooter", "lat": 38.94802333333333, "is_reserved": 0, "is_disabled": 0, "fusion_lon": 0.0, "bike_id": "54753f3507e7e6e710a07d991ba01ae7", "lon": -77.07909333333333, "rental_uris": {"ios": "https://dc.lft.to/lastmile_qr_scan", "android": "https://dc.lft.to/lastmile_qr_scan"}}, {"name": "4b9dc1b20bf97bfd70494c1925c1518c", "fusion_lat": 0.0, "type": "electric_scooter", "lat": 38.9194175, "is_reserved": 0, "is_disabled": 0, "fusion_lon": 0.0, "bike_id": "4b9dc1b20bf97bfd70494c1925c1518c", "lon": -77.045407, "rental_uris": {"ios": "https://dc.lft.to/lastmile_qr_scan", "android": "https://dc.lft.to/lastmile_qr_scan"}}, {"name": "da4078ac0a1b201a3ff58508c6cc87d8", "fusion_lat": 0.0, "type": "electric_scooter", "lat": 38.933648, "is_reserved": 0, "is_disabled": 0, "fusion_lon": 0.0, "bike_id": "da4078ac0a1b201a3ff58508c6cc87d8", "lon": -77.03449316666666, "rental_uris": {"ios": "https://dc.lft.to/lastmile_qr_scan", "android": "https://dc.lft.to/lastmile_qr_scan"}}, {"name": "a886750279fd779b52963cafef484122", "fusion_lat": 0.0, "type": "electric_scooter", "lat": 38.9158805, "is_reserved": 0, "is_disabled": 0, "fusion_lon": 0.0, "bike_id": "a886750279fd779b52963cafef484122", "lon": -77.04256333333333, "rental_uris": {"ios": "https://dc.lft.to/lastmile_qr_scan", "android": "https://dc.lft.to/lastmile_qr_scan"}}, {"name": "f3613e9969117b42c4ed735955c2b617", "fusion_lat": 0.0, "type": "electric_scooter", "lat": 38.90647116666667, "is_reserved": 0, "is_disabled": 0, "fusion_lon": 0.0, "bike_id": "f3613e9969117b42c4ed735955c2b617", "lon": -77.048792, "rental_uris": {"ios": "https://dc.lft.to/lastmile_qr_scan", "android": "https://dc.lft.to/lastmile_qr_scan"}}, {"name": "9834ebe32cda2b80d3098d5983a5df83", "fusion_lat": 0.0, "type": "electric_scooter", "lat": 38.927735, "is_reserved": 0, "is_disabled": 0, "fusion_lon": 0.0, "bike_id": "9834ebe32cda2b80d3098d5983a5df83", "lon": -77.0141185, "rental_uris": {"ios": "https://dc.lft.to/lastmile_qr_scan", "android": "https://dc.lft.to/lastmile_qr_scan"}}, {"name": "020ef2df1810454d05d57f327e9fe543", "fusion_lat": 0.0, "type": "electric_scooter", "lat": 38.924778, "is_reserved": 0, "is_disabled": 0, "fusion_lon": 0.0, "bike_id": "020ef2df1810454d05d57f327e9fe543", "lon": -77.029958, "rental_uris": {"ios": "https://dc.lft.to/lastmile_qr_scan", "android": "https://dc.lft.to/lastmile_qr_scan"}}, {"name": "80d957682f3229b1214753c42e32bb3c", "fusion_lat": 0.0, "type": "electric_scooter", "lat": 38.868227, "is_reserved": 0, "is_disabled": 0, "fusion_lon": 0.0, "bike_id": "80d957682f3229b1214753c42e32bb3c", "lon": -76.98610683333334, "rental_uris": {"ios": "https://dc.lft.to/lastmile_qr_scan", "android": "https://dc.lft.to/lastmile_qr_scan"}}, {"name": "a0dce8e8117c680a0f904b8e08fa1c78", "fusion_lat": 0.0, "type": "electric_scooter", "lat": 38.927512, "is_reserved": 0, "is_disabled": 0, "fusion_lon": 0.0, "bike_id": "a0dce8e8117c680a0f904b8e08fa1c78", "lon": -77.0230495, "rental_uris": {"ios": "https://dc.lft.to/lastmile_qr_scan", "android": "https://dc.lft.to/lastmile_qr_scan"}}, {"name": "0688351c9311e419ccdeaa4d9b585b1c", "fusion_lat": 0.0, "type": "electric_scooter", "lat": 38.885775, "is_reserved": 0, "is_disabled": 0, "fusion_lon": 0.0, "bike_id": "0688351c9311e419ccdeaa4d9b585b1c", "lon": -76.9950125, "rental_uris": {"ios": "https://dc.lft.to/lastmile_qr_scan", "android": "https://dc.lft.to/lastmile_qr_scan"}}, {"name": "3a84fcfc3b49fbd024d96af74fdd14d4", "fusion_lat": 0.0, "type": "electric_scooter", "lat": 38.91408933333334, "is_reserved": 0, "is_disabled": 0, "fusion_lon": 0.0, "bike_id": "3a84fcfc3b49fbd024d96af74fdd14d4", "lon": -77.04504216666666, "rental_uris": {"ios": "https://dc.lft.to/lastmile_qr_scan", "android": "https://dc.lft.to/lastmile_qr_scan"}}, {"name": "27590d1a10ca2299aa752fa4f898ff64", "fusion_lat": 0.0, "type": "electric_scooter", "lat": 38.91721016666666, "is_reserved": 0, "is_disabled": 0, "fusion_lon": 0.0, "bike_id": "27590d1a10ca2299aa752fa4f898ff64", "lon": -77.018681, "rental_uris": {"ios": "https://dc.lft.to/lastmile_qr_scan", "android": "https://dc.lft.to/lastmile_qr_scan"}}, {"name": "97ea6cab253cd07b81d4a6aa0d97403d", "fusion_lat": 0.0, "type": "electric_scooter", "lat": 38.89761133333333, "is_reserved": 0, "is_disabled": 0, "fusion_lon": 0.0, "bike_id": "97ea6cab253cd07b81d4a6aa0d97403d", "lon": -77.0515655, "rental_uris": {"ios": "https://dc.lft.to/lastmile_qr_scan", "android": "https://dc.lft.to/lastmile_qr_scan"}}, {"name": "0fc6fe2b8751c4baabc3e446af371563", "fusion_lat": 0.0, "type": "electric_scooter", "lat": 38.9267725, "is_reserved": 0, "is_disabled": 0, "fusion_lon": 0.0, "bike_id": "0fc6fe2b8751c4baabc3e446af371563", "lon": -77.0366895, "rental_uris": {"ios": "https://dc.lft.to/lastmile_qr_scan", "android": "https://dc.lft.to/lastmile_qr_scan"}}, {"name": "e87a19694b08cd0c379d52925a060523", "fusion_lat": 0.0, "type": "electric_scooter", "lat": 38.903653166666665, "is_reserved": 0, "is_disabled": 0, "fusion_lon": 0.0, "bike_id": "e87a19694b08cd0c379d52925a060523", "lon": -77.0515855, "rental_uris": {"ios": "https://dc.lft.to/lastmile_qr_scan", "android": "https://dc.lft.to/lastmile_qr_scan"}}, {"name": "1f5f1d6289677f1e19c7187433d6bf42", "fusion_lat": 0.0, "type": "electric_scooter", "lat": 38.917553166666664, "is_reserved": 0, "is_disabled": 0, "fusion_lon": 0.0, "bike_id": "1f5f1d6289677f1e19c7187433d6bf42", "lon": -77.0250895, "rental_uris": {"ios": "https://dc.lft.to/lastmile_qr_scan", "android": "https://dc.lft.to/lastmile_qr_scan"}},