{"data": {"bikes": [{"name": "76dcb9b2bb4d4b3d88ea633e8eae7544", "type": "electric_scooter", "lat": 38.900073166666665, "is_reserved": 0, "lon": -77.04001083333333, "fusion_lon": 0.0, "is_disabled": 0, "fusion_lat": 0.0, "bike_id": "76dcb9b2bb4d4b3d88ea633e8eae7544", "rental_uris": {"ios": "https://dc.lft.to/lastmile_qr_scan", "android": "https://dc.lft.to/lastmile_qr_scan"}}, {"name": "f57ce7596936a4a370256c71acc12f72", "type": "electric_scooter", "lat": 38.8784285, "is_reserved": 0, "lon": -77.02283366666667, "fusion_lon": 0.0, "is_disabled": 0, "fusion_lat": 0.0, "bike_id": "f57ce7596936a4a370256c71acc12f72", "rental_uris": {"ios": "https://dc.lft.to/lastmile_qr_scan", "android": "https://dc.lft.to/lastmile_qr_scan"}}, {"name": "1907e3e3ec5f5225db43bcc5e825d8f3", "type": "electric_bike", "lat": 38.82874266666666, "is_reserved": 0, "lon": -77.11220766666666, "fusion_lon": 0.0, "is_disabled": 0, "fusion_lat": 0.0, "bike_id": "1907e3e3ec5f5225db43bcc5e825d8f3", "rental_uris": {"ios": "https://dc.lft.to/lastmile_qr_scan", "android": "https://dc.lft.to/lastmile_qr_scan"}}, {"name": "d940f2ab287040cdc08b427d9122035c", "type": "electric_scooter", "lat": 38.905222, "is_reserved": 0, "lon": -77.0616285, "fusion_lon": 0.0, "is_disabled": 0, "fusion_lat": 0.0, "bike_id": "d940f2ab287040cdc08b427d9122035c", "rental_uris": {"ios": "https://dc.lft.to/lastmile_qr_scan", "android": "https://dc.lft.to/lastmile_qr_scan"}}, {"name": "8e505b9b84238db2d2e6812c0ecd78b1", "type": "electric_scooter", "lat": 38.907616833333336, "is_reserved": 0, "lon": -77.0433485, "fusion_lon": 0.0, "is_disabled": 0, "fusion_lat": 0.0, "bike_id": "8e505b9b84238db2d2e6812c0ecd78b1", "rental_uris": {"ios": "https://dc.lft.to/lastmile_qr_scan", "android": "https://dc.lft.to/lastmile_qr_scan"}}, {"name": "9023743d551297f7c2419747cb7ccf3f", "type": "electric_scooter", "lat": 38.91676666666667, "is_reserved": 0, "lon": -77.03636216666666, "fusion_lon": 0.0, "is_disabled": 0, "fusion_lat": 0.0, "bike_id": "9023743d551297f7c2419747cb7ccf3f", "rental_uris": {"ios": "https://dc.lft.to/lastmile_qr_scan", "android": "https://dc.lft.to/lastmile_qr_scan"}}, {"name": "59006ab6bb5917f9a7e550463dcdaa58", "type": "electric_scooter", "lat": 38.93604966666667, "is_reserved": 0, "lon": -77.05867033333334, "fusion_lon": 0.0, "is_disabled": 0, "fusion_lat": 0.0, "bike_id": "59006ab6bb5917f9a7e550463dcdaa58", "rental_uris": {"ios": "https://dc.lft.to/lastmile_qr_scan", "android": "https://dc.lft.to/lastmile_qr_scan"}}, {"name": "e04c86e2ee8193e2452cd8257d062623", "type": "electric_scooter", "lat": 38.884044833333334, "is_reserved": 0, "lon": -77.01523133333333, "fusion_lon": 0.0, "is_disabled": 0, "fusion_lat": 0.0, "bike_id": "e04c86e2ee8193e2452cd8257d062623", "rental_uris": {"ios": "https://dc.lft.to/lastmile_qr_scan", "android": "https://dc.lft.to/lastmile_qr_scan"}}, {"name": "759cfcf6a69b55ac0e35183d27b1a4e7", "type": "electric_scooter", "lat": 38.88741616666667, "is_reserved": 0, "lon": -77.0153445, "fusion_lon": 0.0, "is_disabled": 0, "fusion_lat": 0.0, "bike_id": "759cfcf6a69b55ac0e35183d27b1a4e7", "rental_uris": {"ios": "https://dc.lft.to/lastmile_qr_scan", "android": "https://dc.lft.to/lastmile_qr_scan"}}, {"name": "a6a406316775d6f357615b9ab3663851", "type": "electric_scooter", "lat": 38.9014135, "is_reserved": 0, "lon": -77.0439025, "fusion_lon": 0.0, "is_disabled": 0, "fusion_lat": 0.0, "bike_id": "a6a406316775d6f357615b9ab3663851", "rental_uris": {"ios": "https://dc.lft.to/lastmile_qr_scan", "android": "https://dc.lft.to/lastmile_qr_scan"}}, {"name": "9fc562ef0ddf843dc459229c2e8069f3", "type": "electric_bike", "lat": 38.990899666666664, "is_reserved": 0, "lon": -76.874948, "fusion_lon": 0.0, "is_disabled": 0, "fusion_lat": 0.0, "bike_id": "9fc562ef0ddf843dc459229c2e8069f3", "rental_uris": {"ios": "https://dc.lft.to/lastmile_qr_scan", "android": "https://dc.lft.to/lastmile_qr_scan"}}, {"name": "dcae4d92caa8d73460741f082445e40a", "type": "electric_scooter", "lat": 38.91800633333333, "is_reserved": 0, "lon": -77.03462333333333, "fusion_lon": 0.0, "is_disabled": 0, "fusion_lat": 0.0, "bike_id": "dcae4d92caa8d73460741f082445e40a", "rental_uris": {"ios": "https://dc.lft.to/lastmile_qr_scan", "android": "https://dc.lft.to/lastmile_qr_scan"}}, {"name": "43c4ed4fdced2e40710e84c7dcd4b594", "type": "electric_scooter", "lat": 38.904717, "is_reserved": 0, "lon": -77.06015133333334, "fusion_lon": 0.0, "is_disabled": 0, "fusion_lat": 0.0, "bike_id": "43c4ed4fdced2e40710e84c7dcd4b594", "rental_uris": {"ios": "https://dc.lft.to/lastmile_qr_scan", "android": "https://dc.lft.to/lastmile_qr_scan"}}, {"name": "bfc8684e51d5b6680f134d20ad3d04b9", "type": "electric_scooter", "lat": 38.902118333333334, "is_reserved": 0, "lon": -77.05032833333334, "fusion_lon": 0.0, "is_disabled": 0, "fusion_lat": 0.0, "bike_id": "bfc8684e51d5b6680f134d20ad3d04b9", "rental_uris": {"ios": "https://dc.lft.to/lastmile_qr_scan", "android": "https://dc.lft.to/lastmile_qr_scan"}}, {"name": "ebecdf77d4b5d28243baec6c230f14d3", "type": "electric_bike", "lat": 39.030428, "is_reserved": 0, "lon": -77.094853, "fusion_lon": 0.0, "is_disabled": 0, "fusion_lat": 0.0, "bike_id": "ebecdf77d4b5d28243baec6c230f14d3", "rental_uris": {"ios": "https://dc.lft.to/lastmile_qr_scan", "android": "https://dc.lft.to/lastmile_qr_scan"}}, {"name": "01b5ef6e5516c52bc8356ac5f49f340e", "type": "electric_scooter", "lat": 38.901360833333335, "is_reserved": 0, "lon": -76.9980055, "fusion_lon": 0.0, "is_disabled": 0, "fusion_lat": 0.0, "bike_id": "01b5ef6e5516c52bc8356ac5f49f340e", "rental_uris": {"ios": "https://dc.lft.to/lastmile_qr_scan", "android": "https://dc.lft.to/lastmile_qr_scan"}}, {"name": "c14f8f26eadd8705bb2e89106f8fc057", "type": "electric_scooter", "lat": 38.9076585, "is_reserved": 0, "lon": -77.06918716666667, "fusion_lon": 0.0, "is_disabled": 0, "fusion_lat": 0.0, "bike_id": "c14f8f26eadd8705bb2e89106f8fc057", "rental_uris": {"ios": "https://dc.lft.to/lastmile_qr_scan", "android": "https://dc.lft.to/lastmile_qr_scan"}}, {"name": "ea193349078f1fbd16c487899d7927b4", "type": "electric_scooter", "lat": 38.921072, "is_reserved": 0, "lon": -77.04225683333334, "fusion_lon": 0.0, "is_disabled": 0, "fusion_lat": 0.0, "bike_id": "ea193349078f1fbd16c487899d7927b4", "rental_uris": {"ios": "https://dc.lft.to/lastmile_qr_scan", "android": "https://dc.lft.to/lastmile_qr_scan"}}, {"name": "f2065e3d71751f75c271f05422db5638", "type": "electric_scooter", "lat": 38.93108633333333, "is_reserved": 0, "lon": -77.038449, "fusion_lon": 0.0, "is_disabled": 0, "fusion_lat": 0.0, "bike_id": "f2065e3d71751f75c271f05422db5638", "rental_uris": {"ios": "https://dc.lft.to/lastmile_qr_scan", "android": "https://dc.lft.to/lastmile_qr_scan"}}, {"name": "262487cd2bbb0926aa22cfbf96deda85", "type": "electric_bike", "lat": 38.903086, "is_reserved": 0, "lon": -77.02222916666666, "fusion_lon": 0.0, "is_disabled": 0, "fusion_lat": 0.0, "bike_id": "262487cd2bbb0926aa22cfbf96deda85", "rental_uris": {"ios": "https://dc.lft.to/lastmile_qr_scan", "android": "https://dc.lft.to/lastmile_qr_scan"}}, {"name": "dd2bd0a5d8642343299ac5affff20487", "type": "electric_bike", "lat": 38.970598, "is_reserved": 0, "lon": -76.936196, "fusion_lon": 0.0, "is_disabled": 0, "fusion_lat": 0.0, "bike_id": "dd2bd0a5d8642343299ac5affff20487", "rental_uris": {"ios": "https://dc.lft.to/lastmile_qr_scan", "android": "https://dc.lft.to/lastmile_qr_scan"}}, {"name": "7e51bba47c3e7c8edc45182d6bcca561", "type": "electric_scooter", "lat": 38.91818766666667, "is_reserved": 0, "lon": -77.01016266666667, "fusion_lon": 0.0, "is_disabled": 0, "fusion_lat": 0.0, "bike_id": "7e51bba47c3e7c8edc45182d6bcca561", "rental_uris": {"ios": "https://dc.lft.to/lastmile_qr_scan", "android": "https://dc.lft.to/lastmile_qr_scan"}}, {"name": "5e58507fd7076831e586cb8ee8427931", "type": "electric_bike", "lat": 38.9576935, "is_reserved": 0, "lon": -77.01156483333334, "fusion_lon": 0.0, "is_disabled": 0, "fusion_lat": 0.0, "bike_id": "5e58507fd7076831e586cb8ee8427931", "rental_uris": {"ios": "https://dc.lft.to/lastmile_qr_scan", "android": "https://dc.lft.to/lastmile_qr_scan"}}, {"name": "b852a468f6b7675adbfaf5041023222d", "type": "electric_scooter", "lat": 38.9393835, "is_reserved": 0, "lon": -77.017083, "fusion_lon": 0.0, "is_disabled": 0, "fusion_lat": 0.0, "bike_id": "b852a468f6b7675adbfaf5041023222d", "rental_uris": {"ios": "https://dc.lft.to/lastmile_qr_scan", "android": "https://dc.lft.to/lastmile_qr_scan"}}, {"name": "f5146d59cfd8c3f207325c5c8f8a85dd", "type": "electric_bike", "lat": 38.874791333333334, "is_reserved": 0, "lon": -76.9653415, "fusion_lon": 0.0, "is_disabled": 0, "fusion_lat": 0.0, "bike_id": "f5146d59cfd8c3f207325c5c8f8a85dd", "rental_uris": {"ios": "https://dc.lft.to/lastmile_qr_scan", "android": "https://dc.lft.to/lastmile_qr_scan"}}, {"name": "d2dc377ac7536fb8352ddf779711d5ab", "type": "electric_scooter", "lat": 38.93451533333333, "is_reserved": 0, "lon": -77.0724085, "fusion_lon": 0.0, "is_disabled": 0, "fusion_lat": 0.0, "bike_id": "d2dc377ac7536fb8352ddf779711d5ab", "rental_uris": {"ios": "https://dc.lft.to/lastmile_qr_scan", "android": "https://dc.lft.to/lastmile_qr_scan"}}, {"name": "30886bcce677f0bd8bbd45d2d3b23daa", "type": "electric_bike", "lat": 38.911905, "is_reserved": 0, "lon": -77.01810333333333, "fusion_lon": 0.0, "is_disabled": 0, "fusion_lat": 0.0, "bike_id": "30886bcce677f0bd8bbd45d2d3b23daa", "rental_uris": {"ios": "https://dc.lft.to/lastmile_qr_scan", "android": "https://dc.lft.to/lastmile_qr_scan"}}, {"name": "e818b3fa25277771ed1c2e38d1dbd86a", "type": "electric_scooter", "lat": 38.90522, "is_reserved": 0, "lon": -77.05972483333333, "fusion_lon": 0.0, "is_disabled": 0, "fusion_lat": 0.0, "bike_id": "e818b3fa25277771ed1c2e38d1dbd86a", "rental_uris": {"ios": "https://dc.lft.to/lastmile_qr_scan", "android": "https://dc.lft.to/lastmile_qr_scan"}}, {"name": "731cdadff333c8c2c1212d174b4baa83", "type": "electric_scooter", "lat": 38.883156166666666, "is_reserved": 0, "lon": -77.00938616666667, "fusion_lon": 0.0, "is_disabled": 0, "fusion_lat": 0.0, "bike_id": "731cdadff333c8c2c1212d174b4baa83", "rental_uris": {"ios": "https://dc.lft.to/lastmile_qr_scan", "android": "https://dc.lft.to/lastmile_qr_scan"}}, {"name": "ef6d1959010e4222e655fd5e97e45427", "type": "electric_bike", "lat": 38.95482783333333, "is_reserved": 0, "lon": -77.0266665, "fusion_lon": 0.0, "is_disabled": 0, "fusion_lat": 0.0, "bike_id": "ef6d1959010e4222e655fd5e97e45427", "rental_uris": {"ios": "https://dc.lft.to/lastmile_qr_scan", "android": "https://dc.lft.to/lastmile_qr_scan"}}, {"name": "e09681b4fab1705e41b5dcee7060ee8d", "type": "electric_scooter", "lat": 38.908005333333335, "is_reserved": 0, "lon": -77.04337533333333, "fusion_lon": 0.0, "is_disabled": 0, "fusion_lat": 0.0, "bike_id": "e09681b4fab1705e41b5dcee7060ee8d", "rental_uris": {"ios": "https://dc.lft.to/lastmile_qr_scan", "android": "https://dc.lft.to/lastmile_qr_scan"}}, {"name": "70ecf1cc4c166583517879bef3c5da81", "type": "electric_scooter", "lat": 38.905146, "is_reserved": 0, "lon": -77.05292566666667, "fusion_lon": 0.0, "is_disabled": 0, "fusion_lat": 0.0, "bike_id": "70ecf1cc4c166583517879bef3c5da81", "rental_uris": {"ios": "https://dc.lft.to/lastmile_qr_scan", "android": "https://dc.lft.to/lastmile_qr_scan"}}, {"name": "9e1e7912b5cbb8d6e706afe8f2d136e3", "type": "electric_bike", "lat": 38.94273116666667, "is_reserved": 0, "lon": -76.980792, "fusion_lon": 0.0, "is_disabled": 0, "fusion_lat": 0.0, "bike_id": "9e1e7912b5cbb8d6e706afe8f2d136e3", "rental_uris": {"ios": "https://dc.lft.to/lastmile_qr_scan", "android": "https://dc.lft.to/lastmile_qr_scan"}}, {"name": "96c324d6104d53bcaae64d864e9bcc04", "type": "electric_scooter", "lat": 38.9221845, "is_reserved": 0, "lon": -77.0423785, "fusion_lon": 0.0, "is_disabled": 0, "fusion_lat": 0.0, "bike_id": "96c324d6104d53bcaae64d864e9bcc04", "rental_uris": {"ios": "https://dc.lft.to/lastmile_qr_scan", "android": "https://dc.lft.to/lastmile_qr_scan"}}, {"name": "62cad1ac689a40abc4c6ccb4cea177f5", "type": "electric_scooter", "lat": 38.903160166666666, "is_reserved": 0, "lon": -77.04028033333333, "fusion_lon": 0.0, "is_disabled": 0, "fusion_lat": 0.0, "bike_id": "62cad1ac689a40abc4c6ccb4cea177f5", "rental_uris": {"ios": "https://dc.lft.to/lastmile_qr_scan", "android": "https://dc.lft.to/lastmile_qr_scan"}}, {"name": "3530eeac7263c38027c8723a04c578fc", "type": "electric_scooter", "lat": 38.92757116666667, "is_reserved": 0, "lon": -77.02426133333333, "fusion_lon": 0.0, "is_disabled": 0, "fusion_lat": 0.0, "bike_id": "3530eeac7263c38027c8723a04c578fc", "rental_uris": {"ios": "https://dc.lft.to/lastmile_qr_scan", "android": "https://dc.lft.to/lastmile_qr_scan"}}, {"name": "6745f1719ad762b1e1bce015d6beec89", "type": "electric_scooter", "lat": 38.884639666666665, "is_reserved": 0, "lon": -77.0057805, "fusion_lon": 0.0, "is_disabled": 0, "fusion_lat": 0.0, "bike_id": "6745f1719ad762b1e1bce015d6beec89", "rental_uris": {"ios": "https://dc.lft.to/lastmile_qr_scan", "android": "https://dc.lft.to/lastmile_qr_scan"}}, {"name": "af92235bc8d3dd0db85a1b5a6ffb9b85", "type": "electric_scooter", "lat": 38.918004833333335, "is_reserved": 0, "lon": -77.03444216666666, "fusion_lon": 0.0, "is_disabled": 0, "fusion_lat": 0.0, "bike_id": "af92235bc8d3dd0db85a1b5a6ffb9b85", "rental_uris": {"ios": "https://dc.lft.to/lastmile_qr_scan", "android": "https://dc.lft.to/lastmile_qr_scan"}}, {"name": "9d6fa1132028a85f257ebe87339119b7", "type": "electric_scooter", "lat": 38.946391, "is_reserved": 0, "lon": -77.01925966666667, "fusion_lon": 0.0, "is_disabled": 0, "fusion_lat": 0.0, "bike_id": "9d6fa1132028a85f257ebe87339119b7", "rental_uris": {"ios": "https://dc.lft.to/lastmile_qr_scan", "android": "https://dc.lft.to/lastmile_qr_scan"}}, {"name": "224ad5729a0f6877562e95aff9c43535", "type": "electric_scooter", "lat": 38.898852, "is_reserved": 0, "lon": -76.9317355, "fusion_lon": 0.0, "is_disabled": 0, "fusion_lat": 0.0, "bike_id": "224ad5729a0f6877562e95aff9c43535", "rental_uris": {"ios": "https://dc.lft.to/lastmile_qr_scan", "android": "https://dc.lft.to/lastmile_qr_scan"}}, {"name": "d278ea8188faa0994c2aee39366cc439", "type": "electric_scooter", "lat": 38.8960155, "is_reserved": 0, "lon": -77.045028, "fusion_lon": 0.0, "is_disabled": 0, "fusion_lat": 0.0, "bike_id": "d278ea8188faa0994c2aee39366cc439", "rental_uris": {"ios": "https://dc.lft.to/lastmile_qr_scan", "android": "https://dc.lft.to/lastmile_qr_scan"}}, {"name": "d272dfbb8e65682d116444a0108da751", "type": "electric_scooter", "lat": 38.893987, "is_reserved": 0, "lon": -76.993673, "fusion_lon": 0.0, "is_disabled": 0, "fusion_lat": 0.0, "bike_id": "d272dfbb8e65682d116444a0108da751", "rental_uris": {"ios": "https://dc.lft.to/lastmile_qr_scan", "android": "https://dc.lft.to/lastmile_qr_scan"}}, {"name": "5778bef781822f0092da0f6a6d65b9e2", "type": "electric_bike", "lat": 38.924634166666664, "is_reserved": 0, "lon": -77.20842066666667, "fusion_lon": 0.0, "is_disabled": 0, "fusion_lat": 0.0, "bike_id": "5778bef781822f0092da0f6a6d65b9e2", "rental_uris": {"ios": "https://dc.lft.to/lastmile_qr_scan", "android": "https://dc.lft.to/lastmile_qr_scan"}}, {"name": "3f42b65a5572531adacb4d4dde54d896", "type": "electric_scooter", "lat": 38.911051666666665, "is_reserved": 0, "lon": -77.04930633333333, "fusion_lon": 0.0, "is_disabled": 0, "fusion_lat": 0.0, "bike_id": "3f42b65a5572531adacb4d4dde54d896", "rental_uris": {"ios": "https://dc.lft.to/lastmile_qr_scan", "android": "https://dc.lft.to/lastmile_qr_scan"}}, {"name": "265f318c01d8d23b621fcdcd8b07df11", "type": "electric_bike", "lat": 38.81929933333333, "is_reserved": 0, "lon": -77.00227433333333, "fusion_lon": 0.0, "is_disabled": 0, "fusion_lat": 0.0, "bike_id": "265f318c01d8d23b621fcdcd8b07df11", "rental_uris": {"ios": "https://dc.lft.to/lastmile_qr_scan", "android": "https://dc.lft.to/lastmile_qr_scan"}}, {"name": "3b9afcc2728f20485b7ea148a58f6caf", "type": "electric_scooter", "lat": 38.9109845, "is_reserved": 0, "lon": -77.0467185, "fusion_lon": 0.0, "is_disabled": 0, "fusion_lat": 0.0, "bike_id": "3b9afcc2728f20485b7ea148a58f6caf", "rental_uris": {"ios": "https://dc.lft.to/lastmile_qr_scan", "android": "https://dc.lft.to/lastmile_qr_scan"}}, {"name": "64cdcf1908f58ef938c2388a90895eeb", "type": "electric_bike", "lat": 38.891893833333334, "is_reserved": 0, "lon": -77.12260266666667, "fusion_lon": 0.0, "is_disabled": 0, "fusion_lat": 0.0, "bike_id": "64cdcf1908f58ef938c2388a90895eeb", "rental_uris": {"ios": "https://dc.lft.to/lastmile_qr_scan", "android": "https://dc.lft.to/lastmile_qr_scan"}}, {"name": "8cb5623aa8c46b588698dd3a9fed6a66", "type": "electric_scooter", "lat": 38.93424433333333, "is_reserved": 0, "lon": -77.0341335, "fusion_lon": 0.0, "is_disabled": 0, "fusion_lat": 0.0, "bike_id": "8cb5623aa8c46b588698dd3a9fed6a66", "rental_uris": {"ios": "https://dc.lft.to/lastmile_qr_scan", "android": "https://dc.lft.to/lastmile_qr_scan"}}, {"name": "4dd0d192303a2038a7b0e0f44b795902", "type": "electric_scooter", "lat": 38.908322, "is_reserved": 0, "lon": -76.99699766666667, "fusion_lon": 0.0, "is_disabled": 0, "fusion_lat": 0.0, "bike_id": "4dd0d192303a2038a7b0e0f44b795902", "rental_uris": {"ios": "https://dc.lft.to/lastmile_qr_scan", "android": "https://dc.lft.to/lastmile_qr_scan"}}, {"name": "5ac40ba29c45ad2007f2e549b5428377", "type": "electric_bike", "lat": 38.95555233333333, "is_reserved": 0, "lon": -76.935394, "fusion_lon": 0.0, "is_disabled": 0, "fusion_lat": 0.0, "bike_id": "5ac40ba29c45ad2007f2e549b5428377", "rental_uris": {"ios": "https://dc.lft.to/lastmile_qr_scan", "android": "https://dc.lft.to/lastmile_qr_scan"}}, {"name": "10e0c9b0d2e12dcbb0bf95ea48585962", "type": "electric_scooter", "lat": 38.89848216666667, "is_reserved": 0, "lon": -77.033532, "fusion_lon": 0.0, "is_disabled": 0, "fusion_lat": 0.0, "bike_id": "10e0c9b0d2e12dcbb0bf95ea48585962", "rental_uris": {"ios": "https://dc.lft.to/lastmile_qr_scan", "android": "https://dc.lft.to/lastmile_qr_scan"}}, {"name": "c16d90ef6b85bc7274330fa349740bb5", "type": "electric_scooter", "lat": 38.9427245, "is_reserved": 0, "lon": -77.02507433333334, "fusion_lon": 0.0, "is_disabled": 0, "fusion_lat": 0.0, "bike_id": "c16d90ef6b85bc7274330fa349740bb5", "rental_uris": {"ios": "https://dc.lft.to/lastmile_qr_scan", "android": "https://dc.lft.to/lastmile_qr_scan"}}, {"name": "2aae8bc078bd764a0d21368dbff56911", "type": "electric_scooter", "lat": 38.92438116666667, "is_reserved": 0, "lon": -77.03401866666667, "fusion_lon": 0.0, "is_disabled": 0, "fusion_lat": 0.0, "bike_id": "2aae8bc078bd764a0d21368dbff56911", "rental_uris": {"ios": "https://dc.lft.to/lastmile_qr_scan", "android": "https://dc.lft.to/lastmile_qr_scan"}}, {"name": "abcd3175a060b42f182a1d2e79934580", "type": "electric_scooter", "lat": 38.915738833333336, "is_reserved": 0, "lon": -77.03183866666667, "fusion_lon": 0.0, "is_disabled": 0, "fusion_lat": 0.0, "bike_id": "abcd3175a060b42f182a1d2e79934580", "rental_uris": {"ios": "https://dc.lft.to/lastmile_qr_scan", "android": "https://dc.lft.to/lastmile_qr_scan"}}, {"name": "08c777020011c8edfc77d57dfcd945bd", "type": "electric_scooter", "lat": 38.880396166666664, "is_reserved": 0, "lon": -76.92728783333334, "fusion_lon": 0.0, "is_disabled": 0, "fusion_lat": 0.0, "bike_id": "08c777020011c8edfc77d57dfcd945bd", "rental_uris": {"ios": "https://dc.lft.to/lastmile_qr_scan", "android": "https://dc.lft.to/lastmile_qr_scan"}}, {"name": "b7f94ab85c41c0eecd9aaa54ef4cf1c2", "type": "electric_scooter", "lat": 38.906780166666664, "is_reserved": 0, "lon": -76.9780355, "fusion_lon": 0.0, "is_disabled": 0, "fusion_lat": 0.0, "bike_id": "b7f94ab85c41c0eecd9aaa54ef4cf1c2", "rental_uris": {"ios": "https://dc.lft.to/lastmile_qr_scan", "android": "https://dc.lft.to/lastmile_qr_scan"}}, {"name": "027c6e351fd24cc7f3ecc054c11066f5", "type": "electric_bike", "lat": 38.93676966666666, "is_reserved": 0, "lon": -76.95202366666666, "fusion_lon": 0.0, "is_disabled": 0, "fusion_lat": 0.0, "bike_id": "027c6e351fd24cc7f3ecc054c11066f5", "rental_uris": {"ios": "https://dc.lft.to/lastmile_qr_scan", "android": "https://dc.lft.to/lastmile_qr_scan"}}, {"name": "f139b76f1520db9ce56b9b9d302ec0d4", "type": "electric_scooter", "lat": 38.88500483333333, "is_reserved": 0, "lon": -77.01721633333334, "fusion_lon": 0.0, "is_disabled": 0, "fusion_lat": 0.0, "bike_id": "f139b76f1520db9ce56b9b9d302ec0d4", "rental_uris": {"ios": "https://dc.lft.to/lastmile_qr_scan", "android": "https://dc.lft.to/lastmile_qr_scan"}}, {"name": "afba736de00a8696c55fbf2ce975026b", "type": "electric_scooter", "lat": 38.88499266666667, "is_reserved": 0, "lon": -77.020789, "fusion_lon": 0.0, "is_disabled": 0, "fusion_lat": 0.0, "bike_id": "afba736de00a8696c55fbf2ce975026b", "rental_uris": {"ios": "https://dc.lft.to/lastmile_qr_scan", "android": "https://dc.lft.to/lastmile_qr_scan"}}, {"name": "9a351a077403f478e00ecb94046b95e4", "type": "electric_bike", "lat": 38.884038333333336, "is_reserved": 0, "lon": -76.96060016666667, "fusion_lon": 0.0, "is_disabled": 0, "fusion_lat": 0.0, "bike_id": "9a351a077403f478e00ecb94046b95e4", "rental_uris": {"ios": "https://dc.lft.to/lastmile_qr_scan", "android": "https://dc.lft.to/lastmile_qr_scan"}}, {"name": "a40401d06ab7aaf4213417962819c4bb", "type": "electric_scooter", "lat": 38.92877383333333, "is_reserved": 0, "lon": -77.04052483333334, "fusion_lon": 0.0, "is_disabled": 0, "fusion_lat": 0.0, "bike_id": "a40401d06ab7aaf4213417962819c4bb", "rental_uris": {"ios": "https://dc.lft.to/lastmile_qr_scan", "android": "https://dc.lft.to/lastmile_qr_scan"}}, {"name": "a2f0a2b9428596c15e98309b5e56364b", "type": "electric_scooter", "lat": 38.90761533333333, "is_reserved": 0, "lon": -77.00044066666666, "fusion_lon": 0.0, "is_disabled": 0, "fusion_lat": 0.0, "bike_id": "a2f0a2b9428596c15e98309b5e56364b", "rental_uris": {"ios": "https://dc.lft.to/lastmile_qr_scan", "android": "https://dc.lft.to/lastmile_qr_scan"}}, {"name": "a3d8d699d76768fd7f490d6fdfbe1dee", "type": "electric_bike", "lat": 38.94154433333333, "is_reserved": 0, "lon": -77.00192016666666, "fusion_lon": 0.0, "is_disabled": 0, "fusion_lat": 0.0, "bike_id": "a3d8d699d76768fd7f490d6fdfbe1dee", "rental_uris": {"ios": "https://dc.lft.to/lastmile_qr_scan", "android": "https://dc.lft.to/lastmile_qr_scan"}}, {"name": "351ce596c45cb1a49edc1cbd084c646a", "type": "electric_scooter", "lat": 38.920649, "is_reserved": 0, "lon": -76.978074, "fusion_lon": 0.0, "is_disabled": 0, "fusion_lat": 0.0, "bike_id": "351ce596c45cb1a49edc1cbd084c646a", "rental_uris": {"ios": "https://dc.lft.to/lastmile_qr_scan", "android": "https://dc.lft.to/lastmile_qr_scan"}}, {"name": "71a839e9449e0d13e9b19c7deee365e7", "type": "electric_scooter", "lat": 38.919706833333336, "is_reserved": 0, "lon": -77.00107, "fusion_lon": 0.0, "is_disabled": 0, "fusion_lat": 0.0, "bike_id": "71a839e9449e0d13e9b19c7deee365e7", "rental_uris": {"ios": "https://dc.lft.to/lastmile_qr_scan", "android": "https://dc.lft.to/lastmile_qr_scan"}}, {"name": "b892ea6bb6efed06cde56ea416276219", "type": "electric_scooter", "lat": 38.905077, "is_reserved": 0, "lon": -77.0638625, "fusion_lon": 0.0, "is_disabled": 0, "fusion_lat": 0.0, "bike_id": "b892ea6bb6efed06cde56ea416276219", "rental_uris": {"ios": "https://dc.lft.to/lastmile_qr_scan", "android": "https://dc.lft.to/lastmile_qr_scan"}}, {"name": "a33882cf81e67cc1f8d4d09f12d6e6bc", "type": "electric_scooter", "lat": 38.8967415, "is_reserved": 0, "lon": -77.02951883333333, "fusion_lon": 0.0, "is_disabled": 0, "fusion_lat": 0.0, "bike_id": "a33882cf81e67cc1f8d4d09f12d6e6bc", "rental_uris": {"ios": "https://dc.lft.to/lastmile_qr_scan", "android": "https://dc.lft.to/lastmile_qr_scan"}}, {"name": "01ba60ce837de75db6819a858b161413", "type": "electric_scooter", "lat": 38.91687566666667, "is_reserved": 0, "lon": -77.02963466666667, "fusion_lon": 0.0, "is_disabled": 0, "fusion_lat": 0.0, "bike_id": "01ba60ce837de75db6819a858b161413", "rental_uris": {"ios": "https://dc.lft.to/lastmile_qr_scan", "android": "https://dc.lft.to/lastmile_qr_scan"}}, {"name": "c523d3ecc162ae5e7120bc68900115ef", "type": "electric_scooter", "lat": 38.905883833333334, "is_reserved": 0, "lon": -77.06524516666667, "fusion_lon": 0.0, "is_disabled": 0, "fusion_lat": 0.0, "bike_id": "c523d3ecc162ae5e7120bc68900115ef", "rental_uris": {"ios": "https://dc.lft.to/lastmile_qr_scan", "android": "https://dc.lft.to/lastmile_qr_scan"}}, {"name": "90de6f2d49f15f9453bbc615f813a1fb", "type": "electric_scooter", "lat": 38.9274895, "is_reserved": 0, "lon": -77.0327065, "fusion_lon": 0.0, "is_disabled": 0, "fusion_lat": 0.0, "bike_id": "90de6f2d49f15f9453bbc615f813a1fb", "rental_uris": {"ios": "https://dc.lft.to/lastmile_qr_scan", "android": "https://dc.lft.to/lastmile_qr_scan"}}, {"name": "97320530f8d4d7f192f7652fadde5150", "type": "electric_scooter", "lat": 38.9263305, "is_reserved": 0, "lon": -77.03516116666667, "fusion_lon": 0.0, "is_disabled": 0, "fusion_lat": 0.0, "bike_id": "97320530f8d4d7f192f7652fadde5150", "rental_uris": {"ios": "https://dc.lft.to/lastmile_qr_scan", "android": "https://dc.lft.to/lastmile_qr_scan"}}, {"name": "465fb31101f6c3e14258b0496eea5957", "type": "electric_scooter", "lat": 38.923293, "is_reserved": 0, "lon": -77.04395333333333, "fusion_lon": 0.0, "is_disabled": 0, "fusion_lat": 0.0, "bike_id": "465fb31101f6c3e14258b0496eea5957", "rental_uris": {"ios": "https://dc.lft.to/lastmile_qr_scan", "android": "https://dc.lft.to/lastmile_qr_scan"}}, {"name": "bfa3c7b23abde5a40f9466376ca03976", "type": "electric_scooter", "lat": 38.90238866666667, "is_reserved": 0, "lon": -77.01754533333333, "fusion_lon": 0.0, "is_disabled": 0, "fusion_lat": 0.0, "bike_id": "bfa3c7b23abde5a40f9466376ca03976", "rental_uris": {"ios": "https://dc.lft.to/lastmile_qr_scan", "android": "https://dc.lft.to/lastmile_qr_scan"}}, {"name": "23e2383522b3b801c7a0e46b41100a7e", "type": "electric_scooter", "lat": 38.923509833333334, "is_reserved": 0, "lon": -77.01907866666667, "fusion_lon": 0.0, "is_disabled": 0, "fusion_lat": 0.0, "bike_id": "23e2383522b3b801c7a0e46b41100a7e", "rental_uris": {"ios": "https://dc.lft.to/lastmile_qr_scan", "android": "https://dc.lft.to/lastmile_qr_scan"}}, {"name": "d4d44351731a570e052dbf5db05cc6f8", "type": "electric_bike", "lat": 38.95782483333333, "is_reserved": 0, "lon": -77.02751816666667, "fusion_lon": 0.0, "is_disabled": 0, "fusion_lat": 0.0, "bike_id": "d4d44351731a570e052dbf5db05cc6f8", "rental_uris": {"ios": "https://dc.lft.to/lastmile_qr_scan", "android": "https://dc.lft.to/lastmile_qr_scan"}}, {"name": "47a13264a0070a040834277d9448ebe4", "type": "electric_scooter", "lat": 38.9205455, "is_reserved": 0, "lon": -77.02974366666666, "fusion_lon": 0.0, "is_disabled": 0, "fusion_lat": 0.0, "bike_id": "47a13264a0070a040834277d9448ebe4", "rental_uris": {"ios": "https://dc.lft.to/lastmile_qr_scan", "android": "https://dc.lft.to/lastmile_qr_scan"}}, {"name": "226ccba9379f57074390fecfd3f77eb3", "type": "electric_scooter", "lat": 38.9075975, "is_reserved": 0, "lon": -77.071494, "fusion_lon": 0.0, "is_disabled": 0, "fusion_lat": 0.0, "bike_id": "226ccba9379f57074390fecfd3f77eb3", "rental_uris": {"ios": "https://dc.lft.to/lastmile_qr_scan", "android": "https://dc.lft.to/lastmile_qr_scan"}}, {"name": "d9bb8cc83231894c91c3abcf86d22f58", "type": "electric_scooter", "lat": 38.903857, "is_reserved": 0, "lon": -77.04345183333334, "fusion_lon": 0.0, "is_disabled": 0, "fusion_lat": 0.0, "bike_id": "d9bb8cc83231894c91c3abcf86d22f58", "rental_uris": {"ios": "https://dc.lft.to/lastmile_qr_scan", "android": "https://dc.lft.to/lastmile_qr_scan"}}, {"name": "5aeb0a5f8b7fafa4cbcf43ca20fbcb0b", "type": "electric_bike", "lat": 38.912916833333334, "is_reserved": 0, "lon": -77.04482133333333, "fusion_lon": 0.0, "is_disabled": 0, "fusion_lat": 0.0, "bike_id": "5aeb0a5f8b7fafa4cbcf43ca20fbcb0b", "rental_uris": {"ios": "https://dc.lft.to/lastmile_qr_scan", "android": "https://dc.lft.to/lastmile_qr_scan"}}, {"name": "f9fff1f5e8ed4785be99698ad5f154e0", "type": "electric_scooter", "lat": 38.914282166666666, "is_reserved": 0, "lon": -77.02819366666667, "fusion_lon": 0.0, "is_disabled": 0, "fusion_lat": 0.0, "bike_id": "f9fff1f5e8ed4785be99698ad5f154e0", "rental_uris": {"ios": "https://dc.lft.to/lastmile_qr_scan", "android": "https://dc.lft.to/lastmile_qr_scan"}}, {"name": "2e1aea9ccba68ada15b7594f69148a49", "type": "electric_scooter", "lat": 38.8983445, "is_reserved": 0, "lon": -77.033457, "fusion_lon": 0.0, "is_disabled": 0, "fusion_lat": 0.0, "bike_id": "2e1aea9ccba68ada15b7594f69148a49", "rental_uris": {"ios": "https://dc.lft.to/lastmile_qr_scan", "android": "https://dc.lft.to/lastmile_qr_scan"}}, {"name": "12a88fc91f62663ea01df0a6b82387dc", "type": "electric_scooter", "lat": 38.89166633333333, "is_reserved": 0, "lon": -77.0154455, "fusion_lon": 0.0, "is_disabled": 0, "fusion_lat": 0.0, "bike_id": "12a88fc91f62663ea01df0a6b82387dc", "rental_uris": {"ios": "https://dc.lft.to/lastmile_qr_scan", "android": "https://dc.lft.to/lastmile_qr_scan"}}, {"name": "22f462c42d7c4da77fb9bc9c79238102", "type": "electric_scooter", "lat": 38.91844016666667, "is_reserved": 0, "lon": -77.03894, "fusion_lon": 0.0, "is_disabled": 0, "fusion_lat": 0.0, "bike_id": "22f462c42d7c4da77fb9bc9c79238102", "rental_uris": {"ios": "https://dc.lft.to/lastmile_qr_scan", "android": "https://dc.lft.to/lastmile_qr_scan"}}, {"name": "47062cb294d2b02224933d6c71d4efff", "type": "electric_scooter", "lat": 38.918973333333334, "is_reserved": 0, "lon": -77.0196795, "fusion_lon": 0.0, "is_disabled": 0, "fusion_lat": 0.0, "bike_id": "47062cb294d2b02224933d6c71d4efff", "rental_uris": {"ios": "https://dc.lft.to/lastmile_qr_scan", "android": "https://dc.lft.to/lastmile_qr_scan"}}, {"name": "5a1f5b29636534efc07ef767e27b9b2f", "type": "electric_scooter", "lat": 38.8804665, "is_reserved": 0, "lon": -77.00424716666667, "fusion_lon": 0.0, "is_disabled": 0, "fusion_lat": 0.0, "bike_id": "5a1f5b29636534efc07ef767e27b9b2f", "rental_uris": {"ios": "https://dc.lft.to/lastmile_qr_scan", "android": "https://dc.lft.to/lastmile_qr_scan"}}, {"name": "05eca0c681218857e05373bc6c0c98c7", "type": "electric_scooter", "lat": 38.87639883333333, "is_reserved": 0, "lon": -76.9958845, "fusion_lon": 0.0, "is_disabled": 0, "fusion_lat": 0.0, "bike_id": "05eca0c681218857e05373bc6c0c98c7", "rental_uris": {"ios": "https://dc.lft.to/lastmile_qr_scan", "android": "https://dc.lft.to/lastmile_qr_scan"}}, {"name": "cf0e645b03ce83111e43063f7b4639ce", "type": "electric_scooter", "lat": 38.900024333333334, "is_reserved": 0, "lon": -77.011395, "fusion_lon": 0.0, "is_disabled": 0, "fusion_lat": 0.0, "bike_id": "cf0e645b03ce83111e43063f7b4639ce", "rental_uris": {"ios": "https://dc.lft.to/lastmile_qr_scan", "android": "https://dc.lft.to/lastmile_qr_scan"}}, {"name": "cd72dcddb8694480886db671a0f9cbc6", "type": "electric_scooter", "lat": 38.90282233333333, "is_reserved": 0, "lon": -77.03844133333334, "fusion_lon": 0.0, "is_disabled": 0, "fusion_lat": 0.0, "bike_id": "cd72dcddb8694480886db671a0f9cbc6", "rental_uris": {"ios": "https://dc.lft.to/lastmile_qr_scan", "android": "https://dc.lft.to/lastmile_qr_scan"}}, {"name": "6df8eae2e90c922c0edc2b3e757d4ed0", "type": "electric_scooter", "lat": 38.88428616666667, "is_reserved": 0, "lon": -76.99701833333333, "fusion_lon": 0.0, "is_disabled": 0, "fusion_lat": 0.0, "bike_id": "6df8eae2e90c922c0edc2b3e757d4ed0", "rental_uris": {"ios": "https://dc.lft.to/lastmile_qr_scan", "android": "https://dc.lft.to/lastmile_qr_scan"}}, {"name": "1b765e9b1b3969fcaae55ec57e8a9e64", "type": "electric_scooter", "lat": 38.927462, "is_reserved": 0, "lon": -77.0335585, "fusion_lon": 0.0, "is_disabled": 0, "fusion_lat": 0.0, "bike_id": "1b765e9b1b3969fcaae55ec57e8a9e64", "rental_uris": {"ios": "https://dc.lft.to/lastmile_qr_scan", "android": "https://dc.lft.to/lastmile_qr_scan"}}, {"name": "e88856d24ca0e922f76773a375b7f7ee", "type": "electric_bike", "lat": 38.969002, "is_reserved": 0, "lon": -76.9566525, "fusion_lon": 0.0, "is_disabled": 0, "fusion_lat": 0.0, "bike_id": "e88856d24ca0e922f76773a375b7f7ee", "rental_uris": {"ios": "https://dc.lft.to/lastmile_qr_scan", "android": "https://dc.lft.to/lastmile_qr_scan"}}, {"name": "1024222cfe34fc5dc5c87cfdbd7132f4", "type": "electric_scooter", "lat": 38.898315833333335, "is_reserved": 0, "lon": -77.00752683333333, "fusion_lon": 0.0, "is_disabled": 0, "fusion_lat": 0.0, "bike_id": "1024222cfe34fc5dc5c87cfdbd7132f4", "rental_uris": {"ios": "https://dc.lft.to/lastmile_qr_scan", "android": "https://dc.lft.to/lastmile_qr_scan"}}, {"name": "f156c8ec0e160a2972fae412c80d1cb0", "type": "electric_bike", "lat": 38.922118166666664, "is_reserved": 0, "lon": -76.9883605, "fusion_lon": 0.0, "is_disabled": 0, "fusion_lat": 0.0, "bike_id": "f156c8ec0e160a2972fae412c80d1cb0", "rental_uris": {"ios": "https://dc.lft.to/lastmile_qr_scan", "android": "https://dc.lft.to/lastmile_qr_scan"}}, {"name": "8fae78e2757bd08974ee59e0dc04be82", "type": "electric_bike", "lat": 38.912649333333334, "is_reserved": 0, "lon": -77.0222945, "fusion_lon": 0.0, "is_disabled": 0, "fusion_lat": 0.0, "bike_id": "8fae78e2757bd08974ee59e0dc04be82", "rental_uris": {"ios": "https://dc.lft.to/lastmile_qr_scan", "android": "https://dc.lft.to/lastmile_qr_scan"}}, {"name": "1ff737c4e8355d1fe23565b4a208bf21", "type": "electric_scooter", "lat": 38.9180605, "is_reserved": 0, "lon": -77.03438116666666, "fusion_lon": 0.0, "is_disabled": 0, "fusion_lat": 0.0, "bike_id": "1ff737c4e8355d1fe23565b4a208bf21", "rental_uris": {"ios": "https://dc.lft.to/lastmile_qr_scan", "android": "https://dc.lft.to/lastmile_qr_scan"}}, {"name": "46d85c6c1e3fe9eb73be34233df475af", "type": "electric_scooter", "lat": 38.903611166666664, "is_reserved": 0, "lon": -77.04195316666667, "fusion_lon": 0.0, "is_disabled": 0, "fusion_lat": 0.0, "bike_id": "46d85c6c1e3fe9eb73be34233df475af", "rental_uris": {"ios": "https://dc.lft.to/lastmile_qr_scan", "android": "https://dc.lft.to/lastmile_qr_scan"}}, {"name": "c187c86aa826eedfa01157273e63363b", "type": "electric_scooter", "lat": 38.84292333333333, "is_reserved": 0, "lon": -76.9995285, "fusion_lon": 0.0, "is_disabled": 0, "fusion_lat": 0.0, "bike_id": "c187c86aa826eedfa01157273e63363b", "rental_uris": {"ios": "https://dc.lft.to/lastmile_qr_scan", "android": "https://dc.lft.to/lastmile_qr_scan"}}, {"name": "906ea6c6c34a3973c0ef31755ff34bc6", "type": "electric_scooter", "lat": 38.91384816666667, "is_reserved": 0, "lon": -77.01796066666667, "fusion_lon": 0.0, "is_disabled": 0, "fusion_lat": 0.0, "bike_id": "906ea6c6c34a3973c0ef31755ff34bc6", "rental_uris": {"ios": "https://dc.lft.to/lastmile_qr_scan", "android": "https://dc.lft.to/lastmile_qr_scan"}}, {"name": "482faa3391d255b03e09c58be1ab262e", "type": "electric_scooter", "lat": 38.90265733333333, "is_reserved": 0, "lon": -77.06108733333333, "fusion_lon": 0.0, "is_disabled": 0, "fusion_lat": 0.0, "bike_id": "482faa3391d255b03e09c58be1ab262e", "rental_uris": {"ios": "https://dc.lft.to/lastmile_qr_scan", "android": "https://dc.lft.to/lastmile_qr_scan"}}, {"name": "091a2d1e9245f6f8142f453959cbc418", "type": "electric_bike", "lat": 38.964944, "is_reserved": 0, "lon": -77.06491733333333, "fusion_lon": 0.0, "is_disabled": 0, "fusion_lat": 0.0, "bike_id": "091a2d1e9245f6f8142f453959cbc418", "rental_uris": {"ios": "https://dc.lft.to/lastmile_qr_scan", "android": "https://dc.lft.to/lastmile_qr_scan"}}, {"name": "16fea8ad4301c933adad64de5be13fe4", "type": "electric_scooter", "lat": 38.88431, "is_reserved": 0, "lon": -76.9575575, "fusion_lon": 0.0, "is_disabled": 0, "fusion_lat": 0.0, "bike_id": "16fea8ad4301c933adad64de5be13fe4", "rental_uris": {"ios": "https://dc.lft.to/lastmile_qr_scan", "android": "https://dc.lft.to/lastmile_qr_scan"}}, {"name": "43ac21b935be7d23c1e5cc543c8a7398", "type": "electric_scooter", "lat": 38.9183865, "is_reserved": 0, "lon": -77.038892, "fusion_lon": 0.0, "is_disabled": 0, "fusion_lat": 0.0, "bike_id": "43ac21b935be7d23c1e5cc543c8a7398", "rental_uris": {"ios": "https://dc.lft.to/lastmile_qr_scan", "android": "https://dc.lft.to/lastmile_qr_scan"}}, {"name": "78f7dd724e8aa3fe9fa711f9f2b3c2c6", "type": "electric_scooter", "lat": 38.89537983333334, "is_reserved": 0, "lon": -77.03353716666666, "fusion_lon": 0.0, "is_disabled": 0, "fusion_lat": 0.0, "bike_id": "78f7dd724e8aa3fe9fa711f9f2b3c2c6", "rental_uris": {"ios": "https://dc.lft.to/lastmile_qr_scan", "android": "https://dc.lft.to/lastmile_qr_scan"}}, {"name": "55e39c4b6f4049ca46e97fd38323c957", "type": "electric_scooter", "lat": 38.8903825, "is_reserved": 0, "lon": -77.029753, "fusion_lon": 0.0, "is_disabled": 0, "fusion_lat": 0.0, "bike_id": "55e39c4b6f4049ca46e97fd38323c957", "rental_uris": {"ios": "https://dc.lft.to/lastmile_qr_scan", "android": "https://dc.lft.to/lastmile_qr_scan"}}, {"name": "097262bd789537e88a8c75e89aa4a427", "type": "electric_scooter", "lat": 38.91479983333333, "is_reserved": 0, "lon": -77.02194883333334, "fusion_lon": 0.0, "is_disabled": 0, "fusion_lat": 0.0, "bike_id": "097262bd789537e88a8c75e89aa4a427", "rental_uris": {"ios": "https://dc.lft.to/lastmile_qr_scan", "android": "https://dc.lft.to/lastmile_qr_scan"}}, {"name": "a9f02bbaaf2e6262ecc23653f413d308", "type": "electric_scooter", "lat": 38.93148983333333, "is_reserved": 0, "lon": -77.05706583333334, "fusion_lon": 0.0, "is_disabled": 0, "fusion_lat": 0.0, "bike_id": "a9f02bbaaf2e6262ecc23653f413d308", "rental_uris": {"ios": "https://dc.lft.to/lastmile_qr_scan", "android": "https://dc.lft.to/lastmile_qr_scan"}}, {"name": "c0608c18b93f5f96cc88dcf4d588a78f", "type": "electric_scooter", "lat": 38.899033333333335, "is_reserved": 0, "lon": -77.03927733333333, "fusion_lon": 0.0, "is_disabled": 0, "fusion_lat": 0.0, "bike_id": "c0608c18b93f5f96cc88dcf4d588a78f", "rental_uris": {"ios": "https://dc.lft.to/lastmile_qr_scan", "android": "https://dc.lft.to/lastmile_qr_scan"}}, {"name": "88d4c663cc0b06694e5a5f6d880cbcf6", "type": "electric_scooter", "lat": 38.912136333333336, "is_reserved": 0, "lon": -77.028008, "fusion_lon": 0.0, "is_disabled": 0, "fusion_lat": 0.0, "bike_id": "88d4c663cc0b06694e5a5f6d880cbcf6", "rental_uris": {"ios": "https://dc.lft.to/lastmile_qr_scan", "android": "https://dc.lft.to/lastmile_qr_scan"}}, {"name": "0e3a25ea0b0b0dc5876907b1a6ee9b0e", "type": "electric_bike", "lat": 38.852228333333336, "is_reserved": 0, "lon": -77.129604, "fusion_lon": 0.0, "is_disabled": 0, "fusion_lat": 0.0, "bike_id": "0e3a25ea0b0b0dc5876907b1a6ee9b0e", "rental_uris": {"ios": "https://dc.lft.to/lastmile_qr_scan", "android": "https://dc.lft.to/lastmile_qr_scan"}}, {"name": "844095f87fa8b2670f92aaec071d9514", "type": "electric_scooter", "lat": 38.89718933333333, "is_reserved": 0, "lon": -77.02719016666667, "fusion_lon": 0.0, "is_disabled": 0, "fusion_lat": 0.0, "bike_id": "844095f87fa8b2670f92aaec071d9514", "rental_uris": {"ios": "https://dc.lft.to/lastmile_qr_scan", "android": "https://dc.lft.to/lastmile_qr_scan"}}, {"name": "bb267a42b985d3ff613579bbf7090d72", "type": "electric_scooter", "lat": 38.93953166666667, "is_reserved": 0, "lon": -77.0327265, "fusion_lon": 0.0, "is_disabled": 0, "fusion_lat": 0.0, "bike_id": "bb267a42b985d3ff613579bbf7090d72", "rental_uris": {"ios": "https://dc.lft.to/lastmile_qr_scan", "android": "https://dc.lft.to/lastmile_qr_scan"}}, {"name": "38aad85f92cd4d9dd407eacf7b3b22dc", "type": "electric_scooter", "lat": 38.927514, "is_reserved": 0, "lon": -77.05395116666666, "fusion_lon": 0.0, "is_disabled": 0, "fusion_lat": 0.0, "bike_id": "38aad85f92cd4d9dd407eacf7b3b22dc", "rental_uris": {"ios": "https://dc.lft.to/lastmile_qr_scan", "android": "https://dc.lft.to/lastmile_qr_scan"}}, {"name": "c628a08d5d193db9d536066e967fa621", "type": "electric_scooter", "lat": 38.92488766666666, "is_reserved": 0, "lon": -77.02716333333333, "fusion_lon": 0.0, "is_disabled": 0, "fusion_lat": 0.0, "bike_id": "c628a08d5d193db9d536066e967fa621", "rental_uris": {"ios": "https://dc.lft.to/lastmile_qr_scan", "android": "https://dc.lft.to/lastmile_qr_scan"}}, {"name": "11a8efbd39d0fc29da0de7f37b87393b", "type": "electric_scooter", "lat": 38.9006225, "is_reserved": 0, "lon": -77.00721783333333, "fusion_lon": 0.0, "is_disabled": 0, "fusion_lat": 0.0, "bike_id": "11a8efbd39d0fc29da0de7f37b87393b", "rental_uris": {"ios": "https://dc.lft.to/lastmile_qr_scan", "android": "https://dc.lft.to/lastmile_qr_scan"}}, {"name": "e503d72c748548896b3d421b8b6c1c9c", "type": "electric_scooter", "lat": 38.88320566666667, "is_reserved": 0, "lon": -77.01753216666667, "fusion_lon": 0.0, "is_disabled": 0, "fusion_lat": 0.0, "bike_id": "e503d72c748548896b3d421b8b6c1c9c", "rental_uris": {"ios": "https://dc.lft.to/lastmile_qr_scan", "android": "https://dc.lft.to/lastmile_qr_scan"}}, {"name": "da58240ee9085702f8bceca78a93de95", "type": "electric_scooter", "lat": 38.939494, "is_reserved": 0, "lon": -77.03261133333334, "fusion_lon": 0.0, "is_disabled": 0, "fusion_lat": 0.0, "bike_id": "da58240ee9085702f8bceca78a93de95", "rental_uris": {"ios": "https://dc.lft.to/lastmile_qr_scan", "android": "https://dc.lft.to/lastmile_qr_scan"}}, {"name": "3d3650e479b8b8bb1f5656dcf0617f4f", "type": "electric_scooter", "lat": 38.92237883333333, "is_reserved": 0, "lon": -77.03516383333333, "fusion_lon": 0.0, "is_disabled": 0, "fusion_lat": 0.0, "bike_id": "3d3650e479b8b8bb1f5656dcf0617f4f", "rental_uris": {"ios": "https://dc.lft.to/lastmile_qr_scan", "android": "https://dc.lft.to/lastmile_qr_scan"}}, {"name": "8ef3e930536918d1f62ce9627c819dce", "type": "electric_bike", "lat": 38.984603666666665, "is_reserved": 0, "lon": -76.955338, "fusion_lon": 0.0, "is_disabled": 0, "fusion_lat": 0.0, "bike_id": "8ef3e930536918d1f62ce9627c819dce", "rental_uris": {"ios": "https://dc.lft.to/lastmile_qr_scan", "android": "https://dc.lft.to/lastmile_qr_scan"}}, {"name": "5cdf2104bfa5a86da478c39bb55beae8", "type": "electric_scooter", "lat": 38.9064505, "is_reserved": 0, "lon": -77.02499083333333, "fusion_lon": 0.0, "is_disabled": 0, "fusion_lat": 0.0, "bike_id": "5cdf2104bfa5a86da478c39bb55beae8", "rental_uris": {"ios": "https://dc.lft.to/lastmile_qr_scan", "android": "https://dc.lft.to/lastmile_qr_scan"}}, {"name": "2c7a1d77c970a793b92819057f5028bc", "type": "electric_scooter", "lat": 38.896329333333334, "is_reserved": 0, "lon": -77.02955366666667, "fusion_lon": 0.0, "is_disabled": 0, "fusion_lat": 0.0, "bike_id": "2c7a1d77c970a793b92819057f5028bc", "rental_uris": {"ios": "https://dc.lft.to/lastmile_qr_scan", "android": "https://dc.lft.to/lastmile_qr_scan"}}, {"name": "cedefe170c201e36d8db20f4edb7a0da", "type": "electric_scooter", "lat": 38.901398, "is_reserved": 0, "lon": -77.0334245, "fusion_lon": 0.0, "is_disabled": 0, "fusion_lat": 0.0, "bike_id": "cedefe170c201e36d8db20f4edb7a0da", "rental_uris": {"ios": "https://dc.lft.to/lastmile_qr_scan", "android": "https://dc.lft.to/lastmile_qr_scan"}}, {"name": "9e2a5d6c75fa44ef23385cae397bb1e6", "type": "electric_scooter", "lat": 38.903456, "is_reserved": 0, "lon": -77.02903366666666, "fusion_lon": 0.0, "is_disabled": 0, "fusion_lat": 0.0, "bike_id": "9e2a5d6c75fa44ef23385cae397bb1e6", "rental_uris": {"ios": "https://dc.lft.to/lastmile_qr_scan", "android": "https://dc.lft.to/lastmile_qr_scan"}}, {"name": "6ac03ed6bc270f702ab10a3af952cdf2", "type": "electric_scooter", "lat": 38.892312, "is_reserved": 0, "lon": -77.02587766666667, "fusion_lon": 0.0, "is_disabled": 0, "fusion_lat": 0.0, "bike_id": "6ac03ed6bc270f702ab10a3af952cdf2", "rental_uris": {"ios": "https://dc.lft.to/lastmile_qr_scan", "android": "https://dc.lft.to/lastmile_qr_scan"}}, {"name": "34135b518d323a1563a6c1ee379ba47c", "type": "electric_scooter", "lat": 38.902811666666665, "is_reserved": 0, "lon": -77.0406585, "fusion_lon": 0.0, "is_disabled": 0, "fusion_lat": 0.0, "bike_id": "34135b518d323a1563a6c1ee379ba47c", "rental_uris": {"ios": "https://dc.lft.to/lastmile_qr_scan", "android": "https://dc.lft.to/lastmile_qr_scan"}}, {"name": "bc750d3de77cf63412ff50a45f54fc53", "type": "electric_bike", "lat": 38.865937833333334, "is_reserved": 0, "lon": -76.93228333333333, "fusion_lon": 0.0, "is_disabled": 0, "fusion_lat": 0.0, "bike_id": "bc750d3de77cf63412ff50a45f54fc53", "rental_uris": {"ios": "https://dc.lft.to/lastmile_qr_scan", "android": "https://dc.lft.to/lastmile_qr_scan"}}, {"name": "97e1385764a6cccd3ca08a76dcf87239", "type": "electric_bike", "lat": 38.806945999999996, "is_reserved": 0, "lon": -77.05964433333334, "fusion_lon": 0.0, "is_disabled": 0, "fusion_lat": 0.0, "bike_id": "97e1385764a6cccd3ca08a76dcf87239", "rental_uris": {"ios": "https://dc.lft.to/lastmile_qr_scan", "android": "https://dc.lft.to/lastmile_qr_scan"}}, {"name": "ecc9a59038e6921c532b5c6f92b49f40", "type": "electric_scooter", "lat": 38.90187133333333, "is_reserved": 0, "lon": -77.0479005, "fusion_lon": 0.0, "is_disabled": 0, "fusion_lat": 0.0, "bike_id": "ecc9a59038e6921c532b5c6f92b49f40", "rental_uris": {"ios": "https://dc.lft.to/lastmile_qr_scan", "android": "https://dc.lft.to/lastmile_qr_scan"}}, {"name": "abfbede652b02b739d2a07747de92e28", "type": "electric_bike", "lat": 38.898923333333336, "is_reserved": 0, "lon": -77.02171166666666, "fusion_lon": 0.0, "is_disabled": 0, "fusion_lat": 0.0, "bike_id": "abfbede652b02b739d2a07747de92e28", "rental_uris": {"ios": "https://dc.lft.to/lastmile_qr_scan", "android": "https://dc.lft.to/lastmile_qr_scan"}}, {"name": "b15db64b135ab8c91bce1a9f169b84e4", "type": "electric_scooter", "lat": 38.88595983333333, "is_reserved": 0, "lon": -76.95263383333334, "fusion_lon": 0.0, "is_disabled": 0, "fusion_lat": 0.0, "bike_id": "b15db64b135ab8c91bce1a9f169b84e4", "rental_uris": {"ios": "https://dc.lft.to/lastmile_qr_scan", "android": "https://dc.lft.to/lastmile_qr_scan"}}, {"name": "0c83a55d4e1b5ef5275aa5c8eb131e84", "type": "electric_scooter", "lat": 38.8970415, "is_reserved": 0, "lon": -77.027154, "fusion_lon": 0.0, "is_disabled": 0, "fusion_lat": 0.0, "bike_id": "0c83a55d4e1b5ef5275aa5c8eb131e84", "rental_uris": {"ios": "https://dc.lft.to/lastmile_qr_scan", "android": "https://dc.lft.to/lastmile_qr_scan"}}, {"name": "254cd1dc65777b063ee7647b84adac9c", "type": "electric_scooter", "lat": 38.903758833333335, "is_reserved": 0, "lon": -77.04354916666666, "fusion_lon": 0.0, "is_disabled": 0, "fusion_lat": 0.0, "bike_id": "254cd1dc65777b063ee7647b84adac9c", "rental_uris": {"ios": "https://dc.lft.to/lastmile_qr_scan", "android": "https://dc.lft.to/lastmile_qr_scan"}}, {"name": "7eb4ba4a36500f3dfbeba684bec9342e", "type": "electric_bike", "lat": 38.86703416666667, "is_reserved": 0, "lon": -76.9896355, "fusion_lon": 0.0, "is_disabled": 0, "fusion_lat": 0.0, "bike_id": "7eb4ba4a36500f3dfbeba684bec9342e", "rental_uris": {"ios": "https://dc.lft.to/lastmile_qr_scan", "android": "https://dc.lft.to/lastmile_qr_scan"}}, {"name": "3f9955384efd5e4e06e9a8328e8f8c19", "type": "electric_scooter", "lat": 38.92991933333333, "is_reserved": 0, "lon": -77.02489616666666, "fusion_lon": 0.0, "is_disabled": 0, "fusion_lat": 0.0, "bike_id": "3f9955384efd5e4e06e9a8328e8f8c19", "rental_uris": {"ios": "https://dc.lft.to/lastmile_qr_scan", "android": "https://dc.lft.to/lastmile_qr_scan"}}, {"name": "74e04e895aa57f971ec35b44fe54bc01", "type": "electric_scooter", "lat": 38.895110833333334, "is_reserved": 0, "lon": -77.00341166666666, "fusion_lon": 0.0, "is_disabled": 0, "fusion_lat": 0.0, "bike_id": "74e04e895aa57f971ec35b44fe54bc01", "rental_uris": {"ios": "https://dc.lft.to/lastmile_qr_scan", "android": "https://dc.lft.to/lastmile_qr_scan"}}, {"name": "3314bac34ba4f6f0b3cf8358acd1214e", "type": "electric_scooter", "lat": 38.9038825, "is_reserved": 0, "lon": -77.04207833333334, "fusion_lon": 0.0, "is_disabled": 0, "fusion_lat": 0.0, "bike_id": "3314bac34ba4f6f0b3cf8358acd1214e", "rental_uris": {"ios": "https://dc.lft.to/lastmile_qr_scan", "android": "https://dc.lft.to/lastmile_qr_scan"}}, {"name": "e7146e94512b739dc35f7fbb2b4a999f", "type": "electric_scooter", "lat": 38.921519, "is_reserved": 0, "lon": -77.03532966666667, "fusion_lon": 0.0, "is_disabled": 0, "fusion_lat": 0.0, "bike_id": "e7146e94512b739dc35f7fbb2b4a999f", "rental_uris": {"ios": "https://dc.lft.to/lastmile_qr_scan", "android": "https://dc.lft.to/lastmile_qr_scan"}}, {"name": "34b79a9ea3bbdac96117190f01433836", "type": "electric_scooter", "lat": 38.91333266666667, "is_reserved": 0, "lon": -77.04355766666667, "fusion_lon": 0.0, "is_disabled": 0, "fusion_lat": 0.0, "bike_id": "34b79a9ea3bbdac96117190f01433836", "rental_uris": {"ios": "https://dc.lft.to/lastmile_qr_scan", "android": "https://dc.lft.to/lastmile_qr_scan"}}, {"name": "4890e7fc2c2e22bc4f9563087666b5b8", "type": "electric_scooter", "lat": 38.913901, "is_reserved": 0, "lon": -77.04572533333334, "fusion_lon": 0.0, "is_disabled": 0, "fusion_lat": 0.0, "bike_id": "4890e7fc2c2e22bc4f9563087666b5b8", "rental_uris": {"ios": "https://dc.lft.to/lastmile_qr_scan", "android": "https://dc.lft.to/lastmile_qr_scan"}}, {"name": "978a4d039a9ae697ca353b10c6b22240", "type": "electric_scooter", "lat": 38.91196883333333, "is_reserved": 0, "lon": -77.060908, "fusion_lon": 0.0, "is_disabled": 0, "fusion_lat": 0.0, "bike_id": "978a4d039a9ae697ca353b10c6b22240", "rental_uris": {"ios": "https://dc.lft.to/lastmile_qr_scan", "android": "https://dc.lft.to/lastmile_qr_scan"}}, {"name": "a03f5794a3bcf79a6a188073ab99b6c9", "type": "electric_scooter", "lat": 38.8849765, "is_reserved": 0, "lon": -77.007244, "fusion_lon": 0.0, "is_disabled": 0, "fusion_lat": 0.0, "bike_id": "a03f5794a3bcf79a6a188073ab99b6c9", "rental_uris": {"ios": "https://dc.lft.to/lastmile_qr_scan", "android": "https://dc.lft.to/lastmile_qr_scan"}}, {"name": "57f2a0d83c24226cde80cfad8fb8229f", "type": "electric_bike", "lat": 38.959571333333336, "is_reserved": 0, "lon": -77.10091983333334, "fusion_lon": 0.0, "is_disabled": 0, "fusion_lat": 0.0, "bike_id": "57f2a0d83c24226cde80cfad8fb8229f", "rental_uris": {"ios": "https://dc.lft.to/lastmile_qr_scan", "android": "https://dc.lft.to/lastmile_qr_scan"}}, {"name": "deca214bff209612772be4189a819a7c", "type": "electric_bike", "lat": 38.935843, "is_reserved": 0, "lon": -77.05845383333333, "fusion_lon": 0.0, "is_disabled": 0, "fusion_lat": 0.0, "bike_id": "deca214bff209612772be4189a819a7c", "rental_uris": {"ios": "https://dc.lft.to/lastmile_qr_scan", "android": "https://dc.lft.to/lastmile_qr_scan"}}, {"name": "6a7672eee4bb7397a0cce407d13970f2", "type": "electric_scooter", "lat": 38.9026165, "is_reserved": 0, "lon": -77.02986083333333, "fusion_lon": 0.0, "is_disabled": 0, "fusion_lat": 0.0, "bike_id": "6a7672eee4bb7397a0cce407d13970f2", "rental_uris": {"ios": "https://dc.lft.to/lastmile_qr_scan", "android": "https://dc.lft.to/lastmile_qr_scan"}}, {"name": "1194e16a3c331a46ea9184b8f9b99184", "type": "electric_scooter", "lat": 38.93201466666667, "is_reserved": 0, "lon": -77.0273685, "fusion_lon": 0.0, "is_disabled": 0, "fusion_lat": 0.0, "bike_id": "1194e16a3c331a46ea9184b8f9b99184", "rental_uris": {"ios": "https://dc.lft.to/lastmile_qr_scan", "android": "https://dc.lft.to/lastmile_qr_scan"}}, {"name": "ba3c5f2247e30b2a0aea4e50b1418603", "type": "electric_scooter", "lat": 38.90654033333333, "is_reserved": 0, "lon": -77.00919566666667, "fusion_lon": 0.0, "is_disabled": 0, "fusion_lat": 0.0, "bike_id": "ba3c5f2247e30b2a0aea4e50b1418603", "rental_uris": {"ios": "https://dc.lft.to/lastmile_qr_scan", "android": "https://dc.lft.to/lastmile_qr_scan"}}, {"name": "8452c547e5d02bfcda68404ac62604ed", "type": "electric_scooter", "lat": 38.9087265, "is_reserved": 0, "lon": -77.022911, "fusion_lon": 0.0, "is_disabled": 0, "fusion_lat": 0.0, "bike_id": "8452c547e5d02bfcda68404ac62604ed", "rental_uris": {"ios": "https://dc.lft.to/lastmile_qr_scan", "android": "https://dc.lft.to/lastmile_qr_scan"}}, {"name": "8b26a93b1745a576eb362e190354c5ba", "type": "electric_scooter", "lat": 38.9027215, "is_reserved": 0, "lon": -77.0595515, "fusion_lon": 0.0, "is_disabled": 0, "fusion_lat": 0.0, "bike_id": "8b26a93b1745a576eb362e190354c5ba", "rental_uris": {"ios": "https://dc.lft.to/lastmile_qr_scan", "android": "https://dc.lft.to/lastmile_qr_scan"}}, {"name": "e8fc8c69f8ae22bd8a5365a1770b8030", "type": "electric_scooter", "lat": 38.911975, "is_reserved": 0, "lon": -77.073176, "fusion_lon": 0.0, "is_disabled": 0, "fusion_lat": 0.0, "bike_id": "e8fc8c69f8ae22bd8a5365a1770b8030", "rental_uris": {"ios": "https://dc.lft.to/lastmile_qr_scan", "android": "https://dc.lft.to/lastmile_qr_scan"}}, {"name": "2c5c2eaf7b5e46bfa2f5b38584359e99", "type": "electric_scooter", "lat": 38.95273983333333, "is_reserved": 0, "lon": -77.0079295, "fusion_lon": 0.0, "is_disabled": 0, "fusion_lat": 0.0, "bike_id": "2c5c2eaf7b5e46bfa2f5b38584359e99", "rental_uris": {"ios": "https://dc.lft.to/lastmile_qr_scan", "android": "https://dc.lft.to/lastmile_qr_scan"}}, {"name": "ccc4b2322769b1a69b2782ee949fa6ba", "type": "electric_scooter", "lat": 38.9404635, "is_reserved": 0, "lon": -77.0298155, "fusion_lon": 0.0, "is_disabled": 0, "fusion_lat": 0.0, "bike_id": "ccc4b2322769b1a69b2782ee949fa6ba", "rental_uris": {"ios": "https://dc.lft.to/lastmile_qr_scan", "android": "https://dc.lft.to/lastmile_qr_scan"}}, {"name": "9abf056bd9e61270876225a5670f4694", "type": "electric_scooter", "lat": 38.89553516666667, "is_reserved": 0, "lon": -77.04160483333334, "fusion_lon": 0.0, "is_disabled": 0, "fusion_lat": 0.0, "bike_id": "9abf056bd9e61270876225a5670f4694", "rental_uris": {"ios": "https://dc.lft.to/lastmile_qr_scan", "android": "https://dc.lft.to/lastmile_qr_scan"}}, {"name": "69c77809aed05ebc18d6b4e281063ae8", "type": "electric_scooter", "lat": 38.92264683333333, "is_reserved": 0, "lon": -77.04131883333334, "fusion_lon": 0.0, "is_disabled": 0, "fusion_lat": 0.0, "bike_id": "69c77809aed05ebc18d6b4e281063ae8", "rental_uris": {"ios": "https://dc.lft.to/lastmile_qr_scan", "android": "https://dc.lft.to/lastmile_qr_scan"}}, {"name": "e86c6b6827508c526f34ab289845148d", "type": "electric_scooter", "lat": 38.939508000000004, "is_reserved": 0, "lon": -77.03263866666667, "fusion_lon": 0.0, "is_disabled": 0, "fusion_lat": 0.0, "bike_id": "e86c6b6827508c526f34ab289845148d", "rental_uris": {"ios": "https://dc.lft.to/lastmile_qr_scan", "android": "https://dc.lft.to/lastmile_qr_scan"}}, {"name": "3207c8654c8c01cad1960e02ad0e1a5b", "type": "electric_bike", "lat": 38.872373333333336, "is_reserved": 0, "lon": -77.011709, "fusion_lon": 0.0, "is_disabled": 0, "fusion_lat": 0.0, "bike_id": "3207c8654c8c01cad1960e02ad0e1a5b", "rental_uris": {"ios": "https://dc.lft.to/lastmile_qr_scan", "android": "https://dc.lft.to/lastmile_qr_scan"}}, {"name": "575f1af32895b195beaf9d986f892006", "type": "electric_scooter", "lat": 38.88987016666667, "is_reserved": 0, "lon": -77.00337183333333, "fusion_lon": 0.0, "is_disabled": 0, "fusion_lat": 0.0, "bike_id": "575f1af32895b195beaf9d986f892006", "rental_uris": {"ios": "https://dc.lft.to/lastmile_qr_scan", "android": "https://dc.lft.to/lastmile_qr_scan"}}, {"name": "ef513863e4fac72cb5c4294976f21f92", "type": "electric_scooter", "lat": 38.91805566666667, "is_reserved": 0, "lon": -77.034378, "fusion_lon": 0.0, "is_disabled": 0, "fusion_lat": 0.0, "bike_id": "ef513863e4fac72cb5c4294976f21f92", "rental_uris": {"ios": "https://dc.lft.to/lastmile_qr_scan", "android": "https://dc.lft.to/lastmile_qr_scan"}}, {"name": "28c90cddae7b08685dceabbec2a9e067", "type": "electric_scooter", "lat": 38.92047766666666, "is_reserved": 0, "lon": -76.99818666666667, "fusion_lon": 0.0, "is_disabled": 0, "fusion_lat": 0.0, "bike_id": "28c90cddae7b08685dceabbec2a9e067", "rental_uris": {"ios": "https://dc.lft.to/lastmile_qr_scan", "android": "https://dc.lft.to/lastmile_qr_scan"}}, {"name": "e04baf5964c681c9fbd347ccdeb2a193", "type": "electric_bike", "lat": 38.8730305, "is_reserved": 0, "lon": -77.01098116666667, "fusion_lon": 0.0, "is_disabled": 0, "fusion_lat": 0.0, "bike_id": "e04baf5964c681c9fbd347ccdeb2a193", "rental_uris": {"ios": "https://dc.lft.to/lastmile_qr_scan", "android": "https://dc.lft.to/lastmile_qr_scan"}}, {"name": "fa0aaf86d52a3deccc5eedfba109e933", "type": "electric_bike", "lat": 38.99062, "is_reserved": 0, "lon": -77.10030233333333, "fusion_lon": 0.0, "is_disabled": 0, "fusion_lat": 0.0, "bike_id": "fa0aaf86d52a3deccc5eedfba109e933", "rental_uris": {"ios": "https://dc.lft.to/lastmile_qr_scan", "android": "https://dc.lft.to/lastmile_qr_scan"}}, {"name": "17d1c878fcd087538aca04d8caee2e51", "type": "electric_scooter", "lat": 38.929482, "is_reserved": 0, "lon": -77.034661, "fusion_lon": 0.0, "is_disabled": 0, "fusion_lat": 0.0, "bike_id": "17d1c878fcd087538aca04d8caee2e51", "rental_uris": {"ios": "https://dc.lft.to/lastmile_qr_scan", "android": "https://dc.lft.to/lastmile_qr_scan"}}, {"name": "8ddc7f93dd59c9a9938e456e7bd000aa", "type": "electric_scooter", "lat": 38.906440833333335, "is_reserved": 0, "lon": -77.024953, "fusion_lon": 0.0, "is_disabled": 0, "fusion_lat": 0.0, "bike_id": "8ddc7f93dd59c9a9938e456e7bd000aa", "rental_uris": {"ios": "https://dc.lft.to/lastmile_qr_scan", "android": "https://dc.lft.to/lastmile_qr_scan"}}, {"name": "7f0d404c7ee88088b78822f13c57ea21", "type": "electric_scooter", "lat": 38.8532215, "is_reserved": 0, "lon": -76.98004066666667, "fusion_lon": 0.0, "is_disabled": 0, "fusion_lat": 0.0, "bike_id": "7f0d404c7ee88088b78822f13c57ea21", "rental_uris": {"ios": "https://dc.lft.to/lastmile_qr_scan", "android": "https://dc.lft.to/lastmile_qr_scan"}}, {"name": "d4d47f9dc17a8d51ece5ba491f0b1eed", "type": "electric_scooter", "lat": 38.901687333333335, "is_reserved": 0, "lon": -77.04646366666667, "fusion_lon": 0.0, "is_disabled": 0, "fusion_lat": 0.0, "bike_id": "d4d47f9dc17a8d51ece5ba491f0b1eed", "rental_uris": {"ios": "https://dc.lft.to/lastmile_qr_scan", "android": "https://dc.lft.to/lastmile_qr_scan"}}, {"name": "0e72b7ecc36ce8506d086c7fb3f42429", "type": "electric_scooter", "lat": 38.91960683333333, "is_reserved": 0, "lon": -77.03211366666666, "fusion_lon": 0.0, "is_disabled": 0, "fusion_lat": 0.0, "bike_id": "0e72b7ecc36ce8506d086c7fb3f42429", "rental_uris": {"ios": "https://dc.lft.to/lastmile_qr_scan", "android": "https://dc.lft.to/lastmile_qr_scan"}}, {"name": "2a7bc5f58d2fc42f695ec5bbbc7d424a", "type": "electric_scooter", "lat": 38.940978333333334, "is_reserved": 0, "lon": -77.032832, "fusion_lon": 0.0, "is_disabled": 0, "fusion_lat": 0.0, "bike_id": "2a7bc5f58d2fc42f695ec5bbbc7d424a", "rental_uris": {"ios": "https://dc.lft.to/lastmile_qr_scan", "android": "https://dc.lft.to/lastmile_qr_scan"}}, {"name": "939cb1d743fda99f562c84a9d5d34e96", "type": "electric_scooter", "lat": 38.90000283333333, "is_reserved": 0, "lon": -76.99500383333333, "fusion_lon": 0.0, "is_disabled": 0, "fusion_lat": 0.0, "bike_id": "939cb1d743fda99f562c84a9d5d34e96", "rental_uris": {"ios": "https://dc.lft.to/lastmile_qr_scan", "android": "https://dc.lft.to/lastmile_qr_scan"}}, {"name": "c20aaa1f239ec627cbe0658e2ed9f358", "type": "electric_scooter", "lat": 38.895253333333336, "is_reserved": 0, "lon": -77.03350783333333, "fusion_lon": 0.0, "is_disabled": 0, "fusion_lat": 0.0, "bike_id": "c20aaa1f239ec627cbe0658e2ed9f358", "rental_uris": {"ios": "https://dc.lft.to/lastmile_qr_scan", "android": "https://dc.lft.to/lastmile_qr_scan"}}, {"name": "1b59e79876c46bc77551a82e4b4ecd98", "type": "electric_scooter", "lat": 38.86412933333333, "is_reserved": 0, "lon": -76.98053266666666, "fusion_lon": 0.0, "is_disabled": 0, "fusion_lat": 0.0, "bike_id": "1b59e79876c46bc77551a82e4b4ecd98", "rental_uris": {"ios": "https://dc.lft.to/lastmile_qr_scan", "android": "https://dc.lft.to/lastmile_qr_scan"}}, {"name": "5f9eb268c0cd2a7d63a4c7c3de6d517d", "type": "electric_scooter", "lat": 38.90597316666667, "is_reserved": 0, "lon": -77.03884433333333, "fusion_lon": 0.0, "is_disabled": 0, "fusion_lat": 0.0, "bike_id": "5f9eb268c0cd2a7d63a4c7c3de6d517d", "rental_uris": {"ios": "https://dc.lft.to/lastmile_qr_scan", "android": "https://dc.lft.to/lastmile_qr_scan"}}, {"name": "9d466e3ba8801fe5e9107ecc3fab6b2a", "type": "electric_scooter", "lat": 38.92449533333333, "is_reserved": 0, "lon": -77.03375566666666, "fusion_lon": 0.0, "is_disabled": 0, "fusion_lat": 0.0, "bike_id": "9d466e3ba8801fe5e9107ecc3fab6b2a", "rental_uris": {"ios": "https://dc.lft.to/lastmile_qr_scan", "android": "https://dc.lft.to/lastmile_qr_scan"}}, {"name": "a24d78f3ebcb4641fd1de651e5cfdc70", "type": "electric_scooter", "lat": 38.97237416666667, "is_reserved": 0, "lon": -77.02713183333333, "fusion_lon": 0.0, "is_disabled": 0, "fusion_lat": 0.0, "bike_id": "a24d78f3ebcb4641fd1de651e5cfdc70", "rental_uris": {"ios": "https://dc.lft.to/lastmile_qr_scan", "android": "https://dc.lft.to/lastmile_qr_scan"}}, {"name": "338c29824d691373a1879a57d3d30cd0", "type": "electric_scooter", "lat": 38.91406883333333, "is_reserved": 0, "lon": -77.045687, "fusion_lon": 0.0, "is_disabled": 0, "fusion_lat": 0.0, "bike_id": "338c29824d691373a1879a57d3d30cd0", "rental_uris": {"ios": "https://dc.lft.to/lastmile_qr_scan", "android": "https://dc.lft.to/lastmile_qr_scan"}}, {"name": "88f808d6206fb4c451dc3792bd1a65bc", "type": "electric_scooter", "lat": 38.901479, "is_reserved": 0, "lon": -77.0332365, "fusion_lon": 0.0, "is_disabled": 0, "fusion_lat": 0.0, "bike_id": "88f808d6206fb4c451dc3792bd1a65bc", "rental_uris": {"ios": "https://dc.lft.to/lastmile_qr_scan", "android": "https://dc.lft.to/lastmile_qr_scan"}}, {"name": "d5f8de62b71ef256067f5e7f52cd736d", "type": "electric_scooter", "lat": 38.85896183333333, "is_reserved": 0, "lon": -76.96705333333334, "fusion_lon": 0.0, "is_disabled": 0, "fusion_lat": 0.0, "bike_id": "d5f8de62b71ef256067f5e7f52cd736d", "rental_uris": {"ios": "https://dc.lft.to/lastmile_qr_scan", "android": "https://dc.lft.to/lastmile_qr_scan"}}, {"name": "53a975fb573e881023200d8b772d1c9a", "type": "electric_scooter", "lat": 38.92454816666667, "is_reserved": 0, "lon": -77.02032183333333, "fusion_lon": 0.0, "is_disabled": 0, "fusion_lat": 0.0, "bike_id": "53a975fb573e881023200d8b772d1c9a", "rental_uris": {"ios": "https://dc.lft.to/lastmile_qr_scan", "android": "https://dc.lft.to/lastmile_qr_scan"}}, {"name": "8d914447dd5a724246ed4f897d9b2971", "type": "electric_scooter", "lat": 38.89397666666667, "is_reserved": 0, "lon": -76.9480835, "fusion_lon": 0.0, "is_disabled": 0, "fusion_lat": 0.0, "bike_id": "8d914447dd5a724246ed4f897d9b2971", "rental_uris": {"ios": "https://dc.lft.to/lastmile_qr_scan", "android": "https://dc.lft.to/lastmile_qr_scan"}}, {"name": "d94e9c6dbdbb6a6132a3c054e2ec882c", "type": "electric_scooter", "lat": 38.931997, "is_reserved": 0, "lon": -77.03843633333334, "fusion_lon": 0.0, "is_disabled": 0, "fusion_lat": 0.0, "bike_id": "d94e9c6dbdbb6a6132a3c054e2ec882c", "rental_uris": {"ios": "https://dc.lft.to/lastmile_qr_scan", "android": "https://dc.lft.to/lastmile_qr_scan"}}, {"name": "15263e0ca55318b47fe8f55c488ac7c6", "type": "electric_scooter", "lat": 38.9079585, "is_reserved": 0, "lon": -77.04871133333333, "fusion_lon": 0.0, "is_disabled": 0, "fusion_lat": 0.0, "bike_id": "15263e0ca55318b47fe8f55c488ac7c6", "rental_uris": {"ios": "https://dc.lft.to/lastmile_qr_scan", "android": "https://dc.lft.to/lastmile_qr_scan"}}, {"name": "105ab00c100a66e371c61af240ae2459", "type": "electric_bike", "lat": 38.90533883333333, "is_reserved": 0, "lon": -76.99806783333334, "fusion_lon": 0.0, "is_disabled": 0, "fusion_lat": 0.0, "bike_id": "105ab00c100a66e371c61af240ae2459", "rental_uris": {"ios": "https://dc.lft.to/lastmile_qr_scan", "android": "https://dc.lft.to/lastmile_qr_scan"}}, {"name": "ef3998f7b58ca05e3d0eea840ad1bc1a", "type": "electric_scooter", "lat": 38.88434266666667, "is_reserved": 0, "lon": -76.95757016666667, "fusion_lon": 0.0, "is_disabled": 0, "fusion_lat": 0.0, "bike_id": "ef3998f7b58ca05e3d0eea840ad1bc1a", "rental_uris": {"ios": "https://dc.lft.to/lastmile_qr_scan", "android": "https://dc.lft.to/lastmile_qr_scan"}}, {"name": "845cb83a257e5a984fe7509fd2baf1c1", "type": "electric_bike", "lat": 38.9909105, "is_reserved": 0, "lon": -76.87496783333333, "fusion_lon": 0.0, "is_disabled": 0, "fusion_lat": 0.0, "bike_id": "845cb83a257e5a984fe7509fd2baf1c1", "rental_uris": {"ios": "https://dc.lft.to/lastmile_qr_scan", "android": "https://dc.lft.to/lastmile_qr_scan"}}, {"name": "4688f12d37047f355dc927d712deda07", "type": "electric_scooter", "lat": 38.9132995, "is_reserved": 0, "lon": -77.03043566666666, "fusion_lon": 0.0, "is_disabled": 0, "fusion_lat": 0.0, "bike_id": "4688f12d37047f355dc927d712deda07", "rental_uris": {"ios": "https://dc.lft.to/lastmile_qr_scan", "android": "https://dc.lft.to/lastmile_qr_scan"}}, {"name": "f5d008429a1310b68532b84ac03e1da7", "type": "electric_scooter", "lat": 38.9415255, "is_reserved": 0, "lon": -77.036601, "fusion_lon": 0.0, "is_disabled": 0, "fusion_lat": 0.0, "bike_id": "f5d008429a1310b68532b84ac03e1da7", "rental_uris": {"ios": "https://dc.lft.to/lastmile_qr_scan", "android": "https://dc.lft.to/lastmile_qr_scan"}}, {"name": "c77601ee7be475521491930764d16887", "type": "electric_scooter", "lat": 38.922907, "is_reserved": 0, "lon": -77.020763, "fusion_lon": 0.0, "is_disabled": 0, "fusion_lat": 0.0, "bike_id": "c77601ee7be475521491930764d16887", "rental_uris": {"ios": "https://dc.lft.to/lastmile_qr_scan", "android": "https://dc.lft.to/lastmile_qr_scan"}}, {"name": "b2b9e43c3b4c81e5cfd959e7c08481ab", "type": "electric_scooter", "lat": 38.89670983333333, "is_reserved": 0, "lon": -77.054005, "fusion_lon": 0.0, "is_disabled": 0, "fusion_lat": 0.0, "bike_id": "b2b9e43c3b4c81e5cfd959e7c08481ab", "rental_uris": {"ios": "https://dc.lft.to/lastmile_qr_scan", "android": "https://dc.lft.to/lastmile_qr_scan"}}, {"name": "7db4b2e8eac4342776a398f8d9f7dffa", "type": "electric_scooter", "lat": 38.898262833333334, "is_reserved": 0, "lon": -76.92639383333334, "fusion_lon": 0.0, "is_disabled": 0, "fusion_lat": 0.0, "bike_id": "7db4b2e8eac4342776a398f8d9f7dffa", "rental_uris": {"ios": "https://dc.lft.to/lastmile_qr_scan", "android": "https://dc.lft.to/lastmile_qr_scan"}}, {"name": "e56ec22cdd7195332c36aa5cde89936b", "type": "electric_scooter", "lat": 38.924055, "is_reserved": 0, "lon": -77.02541933333333, "fusion_lon": 0.0, "is_disabled": 0, "fusion_lat": 0.0, "bike_id": "e56ec22cdd7195332c36aa5cde89936b", "rental_uris": {"ios": "https://dc.lft.to/lastmile_qr_scan", "android": "https://dc.lft.to/lastmile_qr_scan"}}, {"name": "31266231196007e216d69cd25aa842e6", "type": "electric_scooter", "lat": 38.8669855, "is_reserved": 0, "lon": -76.9871565, "fusion_lon": 0.0, "is_disabled": 0, "fusion_lat": 0.0, "bike_id": "31266231196007e216d69cd25aa842e6", "rental_uris": {"ios": "https://dc.lft.to/lastmile_qr_scan", "android": "https://dc.lft.to/lastmile_qr_scan"}}, {"name": "f915d6c35520eb8c5345709edbead260", "type": "electric_scooter", "lat": 38.92286983333334, "is_reserved": 0, "lon": -77.03204466666666, "fusion_lon": 0.0, "is_disabled": 0, "fusion_lat": 0.0, "bike_id": "f915d6c35520eb8c5345709edbead260", "rental_uris": {"ios": "https://dc.lft.to/lastmile_qr_scan", "android": "https://dc.lft.to/lastmile_qr_scan"}}, {"name": "e7f70093e390a8cbdad21a6d40317edd", "type": "electric_scooter", "lat": 38.902019333333335, "is_reserved": 0, "lon": -77.02334583333334, "fusion_lon": 0.0, "is_disabled": 0, "fusion_lat": 0.0, "bike_id": "e7f70093e390a8cbdad21a6d40317edd", "rental_uris": {"ios": "https://dc.lft.to/lastmile_qr_scan", "android": "https://dc.lft.to/lastmile_qr_scan"}}, {"name": "2ad65d47c62a2fbeed21166aee3af47a", "type": "electric_scooter", "lat": 38.92823666666666, "is_reserved": 0, "lon": -77.01413016666666, "fusion_lon": 0.0, "is_disabled": 0, "fusion_lat": 0.0, "bike_id": "2ad65d47c62a2fbeed21166aee3af47a", "rental_uris": {"ios": "https://dc.lft.to/lastmile_qr_scan", "android": "https://dc.lft.to/lastmile_qr_scan"}}, {"name": "e3b25f384b1caa6f0362f8d30d4d274f", "type": "electric_bike", "lat": 39.05634233333333, "is_reserved": 0, "lon": -77.125266, "fusion_lon": 0.0, "is_disabled": 0, "fusion_lat": 0.0, "bike_id": "e3b25f384b1caa6f0362f8d30d4d274f", "rental_uris": {"ios": "https://dc.lft.to/lastmile_qr_scan", "android": "https://dc.lft.to/lastmile_qr_scan"}}, {"name": "467d6165a5da49b9c9ac652af62f6155", "type": "electric_scooter", "lat": 38.917246, "is_reserved": 0, "lon": -77.03659666666667, "fusion_lon": 0.0, "is_disabled": 0, "fusion_lat": 0.0, "bike_id": "467d6165a5da49b9c9ac652af62f6155", "rental_uris": {"ios": "https://dc.lft.to/lastmile_qr_scan", "android": "https://dc.lft.to/lastmile_qr_scan"}}, {"name": "a81334537115acd1ddae0af8370f9964", "type": "electric_scooter", "lat": 38.9057685, "is_reserved": 0, "lon": -77.02543516666667, "fusion_lon": 0.0, "is_disabled": 0, "fusion_lat": 0.0, "bike_id": "a81334537115acd1ddae0af8370f9964", "rental_uris": {"ios": "https://dc.lft.to/lastmile_qr_scan", "android": "https://dc.lft.to/lastmile_qr_scan"}}, {"name": "977da483609645472bc2f3a4b7075109", "type": "electric_scooter", "lat": 38.900138166666665, "is_reserved": 0, "lon": -76.9890455, "fusion_lon": 0.0, "is_disabled": 0, "fusion_lat": 0.0, "bike_id": "977da483609645472bc2f3a4b7075109", "rental_uris": {"ios": "https://dc.lft.to/lastmile_qr_scan", "android": "https://dc.lft.to/lastmile_qr_scan"}}, {"name": "400db5eb7a83738e655c4fb53c90f398", "type": "electric_scooter", "lat": 38.86829816666667, "is_reserved": 0, "lon": -76.9861785, "fusion_lon": 0.0, "is_disabled": 0, "fusion_lat": 0.0, "bike_id": "400db5eb7a83738e655c4fb53c90f398", "rental_uris": {"ios": "https://dc.lft.to/lastmile_qr_scan", "android": "https://dc.lft.to/lastmile_qr_scan"}}, {"name": "dbfd733caa09e0323221b31915c0bea7", "type": "electric_scooter", "lat": 38.8853225, "is_reserved": 0, "lon": -77.005789, "fusion_lon": 0.0, "is_disabled": 0, "fusion_lat": 0.0, "bike_id": "dbfd733caa09e0323221b31915c0bea7", "rental_uris": {"ios": "https://dc.lft.to/lastmile_qr_scan", "android": "https://dc.lft.to/lastmile_qr_scan"}}, {"name": "720ef2e4d517da105369f8fe96dc6c95", "type": "electric_scooter", "lat": 38.932763333333334, "is_reserved": 0, "lon": -77.0297485, "fusion_lon": 0.0, "is_disabled": 0, "fusion_lat": 0.0, "bike_id": "720ef2e4d517da105369f8fe96dc6c95", "rental_uris": {"ios": "https://dc.lft.to/lastmile_qr_scan", "android": "https://dc.lft.to/lastmile_qr_scan"}}, {"name": "acf2d43287d1d33dab5f2606f108aacc", "type": "electric_scooter", "lat": 38.8827865, "is_reserved": 0, "lon": -76.98613516666667, "fusion_lon": 0.0, "is_disabled": 0, "fusion_lat": 0.0, "bike_id": "acf2d43287d1d33dab5f2606f108aacc", "rental_uris": {"ios": "https://dc.lft.to/lastmile_qr_scan", "android": "https://dc.lft.to/lastmile_qr_scan"}}, {"name": "606533e8bedbd42ef7418171a7eaf99e", "type": "electric_scooter", "lat": 38.90580533333333, "is_reserved": 0, "lon": -77.04445183333333, "fusion_lon": 0.0, "is_disabled": 0, "fusion_lat": 0.0, "bike_id": "606533e8bedbd42ef7418171a7eaf99e", "rental_uris": {"ios": "https://dc.lft.to/lastmile_qr_scan", "android": "https://dc.lft.to/lastmile_qr_scan"}}, {"name": "9d86c45813ba01145fab6520ccf1bc36", "type": "electric_scooter", "lat": 38.90845866666667, "is_reserved": 0, "lon": -77.031937, "fusion_lon": 0.0, "is_disabled": 0, "fusion_lat": 0.0, "bike_id": "9d86c45813ba01145fab6520ccf1bc36", "rental_uris": {"ios": "https://dc.lft.to/lastmile_qr_scan", "android": "https://dc.lft.to/lastmile_qr_scan"}}, {"name": "e2bf87e4afbe52030b43552d0fa98534", "type": "electric_scooter", "lat": 38.927045166666666, "is_reserved": 0, "lon": -77.020881, "fusion_lon": 0.0, "is_disabled": 0, "fusion_lat": 0.0, "bike_id": "e2bf87e4afbe52030b43552d0fa98534", "rental_uris": {"ios": "https://dc.lft.to/lastmile_qr_scan", "android": "https://dc.lft.to/lastmile_qr_scan"}}, {"name": "6617f2fb28a3de30fcf910d05ef812f8", "type": "electric_scooter", "lat": 38.8997985, "is_reserved": 0, "lon": -77.02126416666667, "fusion_lon": 0.0, "is_disabled": 0, "fusion_lat": 0.0, "bike_id": "6617f2fb28a3de30fcf910d05ef812f8", "rental_uris": {"ios": "https://dc.lft.to/lastmile_qr_scan", "android": "https://dc.lft.to/lastmile_qr_scan"}}, {"name": "d2468daad5f03380f1eebbbdadca74d2", "type": "electric_scooter", "lat": 38.93569166666666, "is_reserved": 0, "lon": -77.03734966666667, "fusion_lon": 0.0, "is_disabled": 0, "fusion_lat": 0.0, "bike_id": "d2468daad5f03380f1eebbbdadca74d2", "rental_uris": {"ios": "https://dc.lft.to/lastmile_qr_scan", "android": "https://dc.lft.to/lastmile_qr_scan"}}, {"name": "d90f0f1a56383bc7878a515020a7f65d", "type": "electric_scooter", "lat": 38.8849375, "is_reserved": 0, "lon": -77.00730433333334, "fusion_lon": 0.0, "is_disabled": 0, "fusion_lat": 0.0, "bike_id": "d90f0f1a56383bc7878a515020a7f65d", "rental_uris": {"ios": "https://dc.lft.to/lastmile_qr_scan", "android": "https://dc.lft.to/lastmile_qr_scan"}}, {"name": "368eb46253a0bf739e2eb4d7b88695da", "type": "electric_scooter", "lat": 38.95264533333334, "is_reserved": 0, "lon": -77.00195916666667, "fusion_lon": 0.0, "is_disabled": 0, "fusion_lat": 0.0, "bike_id": "368eb46253a0bf739e2eb4d7b88695da", "rental_uris": {"ios": "https://dc.lft.to/lastmile_qr_scan", "android": "https://dc.lft.to/lastmile_qr_scan"}}, {"name": "d085ac6670c6aa4252e6a03650bfd341", "type": "electric_scooter", "lat": 38.930817, "is_reserved": 0, "lon": -77.027961, "fusion_lon": 0.0, "is_disabled": 0, "fusion_lat": 0.0, "bike_id": "d085ac6670c6aa4252e6a03650bfd341", "rental_uris": {"ios": "https://dc.lft.to/lastmile_qr_scan", "android": "https://dc.lft.to/lastmile_qr_scan"}}, {"name": "0499d15e9ad6537ab13ff0657a46f431", "type": "electric_scooter", "lat": 38.89832466666667, "is_reserved": 0, "lon": -77.026784, "fusion_lon": 0.0, "is_disabled": 0, "fusion_lat": 0.0, "bike_id": "0499d15e9ad6537ab13ff0657a46f431", "rental_uris": {"ios": "https://dc.lft.to/lastmile_qr_scan", "android": "https://dc.lft.to/lastmile_qr_scan"}}, {"name": "7b3d0630b8fddb13c072ff9c9fd18ee9", "type": "electric_scooter", "lat": 38.924069833333334, "is_reserved": 0, "lon": -77.0197, "fusion_lon": 0.0, "is_disabled": 0, "fusion_lat": 0.0, "bike_id": "7b3d0630b8fddb13c072ff9c9fd18ee9", "rental_uris": {"ios": "https://dc.lft.to/lastmile_qr_scan", "android": "https://dc.lft.to/lastmile_qr_scan"}}, {"name": "61d792870000835c99113b16bf9bec69", "type": "electric_scooter", "lat": 38.93002166666667, "is_reserved": 0, "lon": -77.055402, "fusion_lon": 0.0, "is_disabled": 0, "fusion_lat": 0.0, "bike_id": "61d792870000835c99113b16bf9bec69", "rental_uris": {"ios": "https://dc.lft.to/lastmile_qr_scan", "android": "https://dc.lft.to/lastmile_qr_scan"}}, {"name": "0e22e42fc6b6e115bb62775e2369173a", "type": "electric_scooter", "lat": 38.917103833333336, "is_reserved": 0, "lon": -77.02547883333334, "fusion_lon": 0.0, "is_disabled": 0, "fusion_lat": 0.0, "bike_id": "0e22e42fc6b6e115bb62775e2369173a", "rental_uris": {"ios": "https://dc.lft.to/lastmile_qr_scan", "android": "https://dc.lft.to/lastmile_qr_scan"}}, {"name": "5852e374a84a77948daf6d65884795bd", "type": "electric_scooter", "lat": 38.88743866666667, "is_reserved": 0, "lon": -77.03134633333333, "fusion_lon": 0.0, "is_disabled": 0, "fusion_lat": 0.0, "bike_id": "5852e374a84a77948daf6d65884795bd", "rental_uris": {"ios": "https://dc.lft.to/lastmile_qr_scan", "android": "https://dc.lft.to/lastmile_qr_scan"}}, {"name": "2b3034802151f198668b15de0a290953", "type": "electric_scooter", "lat": 38.88338983333333, "is_reserved": 0, "lon": -76.993481, "fusion_lon": 0.0, "is_disabled": 0, "fusion_lat": 0.0, "bike_id": "2b3034802151f198668b15de0a290953", "rental_uris": {"ios": "https://dc.lft.to/lastmile_qr_scan", "android": "https://dc.lft.to/lastmile_qr_scan"}}, {"name": "42800d0ded3c4fa9f6e6d2424b3a6609", "type": "electric_scooter", "lat": 38.8875065, "is_reserved": 0, "lon": -77.02022283333334, "fusion_lon": 0.0, "is_disabled": 0, "fusion_lat": 0.0, "bike_id": "42800d0ded3c4fa9f6e6d2424b3a6609", "rental_uris": {"ios": "https://dc.lft.to/lastmile_qr_scan", "android": "https://dc.lft.to/lastmile_qr_scan"}}, {"name": "29f06421dd2237bf2fbfa300d0c35f8e", "type": "electric_scooter", "lat": 38.862103, "is_reserved": 0, "lon": -76.99475516666666, "fusion_lon": 0.0, "is_disabled": 0, "fusion_lat": 0.0, "bike_id": "29f06421dd2237bf2fbfa300d0c35f8e", "rental_uris": {"ios": "https://dc.lft.to/lastmile_qr_scan", "android": "https://dc.lft.to/lastmile_qr_scan"}}, {"name": "31057af4e26273af00eddc895d888790", "type": "electric_scooter", "lat": 38.89607683333333, "is_reserved": 0, "lon": -77.0450735, "fusion_lon": 0.0, "is_disabled": 0, "fusion_lat": 0.0, "bike_id": "31057af4e26273af00eddc895d888790", "rental_uris": {"ios": "https://dc.lft.to/lastmile_qr_scan", "android": "https://dc.lft.to/lastmile_qr_scan"}}, {"name": "a6cf019c1f1dd5bc3e22a3748b72b878", "type": "electric_scooter", "lat": 38.89684966666667, "is_reserved": 0, "lon": -76.996324, "fusion_lon": 0.0, "is_disabled": 0, "fusion_lat": 0.0, "bike_id": "a6cf019c1f1dd5bc3e22a3748b72b878", "rental_uris": {"ios": "https://dc.lft.to/lastmile_qr_scan", "android": "https://dc.lft.to/lastmile_qr_scan"}}, {"name": "651d89ce4d8d2813bd8dab7a60ad626d", "type": "electric_scooter", "lat": 38.8910405, "is_reserved": 0, "lon": -76.98707116666667, "fusion_lon": 0.0, "is_disabled": 0, "fusion_lat": 0.0, "bike_id": "651d89ce4d8d2813bd8dab7a60ad626d", "rental_uris": {"ios": "https://dc.lft.to/lastmile_qr_scan", "android": "https://dc.lft.to/lastmile_qr_scan"}}, {"name": "f05ce09e682eefee7282189f8a916611", "type": "electric_scooter", "lat": 38.915748, "is_reserved": 0, "lon": -77.0460285, "fusion_lon": 0.0, "is_disabled": 0, "fusion_lat": 0.0, "bike_id": "f05ce09e682eefee7282189f8a916611", "rental_uris": {"ios": "https://dc.lft.to/lastmile_qr_scan", "android": "https://dc.lft.to/lastmile_qr_scan"}}, {"name": "658c8922cf77ce8ced2c9891f62bb6a1", "type": "electric_scooter", "lat": 38.9028655, "is_reserved": 0, "lon": -77.03642116666667, "fusion_lon": 0.0, "is_disabled": 0, "fusion_lat": 0.0, "bike_id": "658c8922cf77ce8ced2c9891f62bb6a1", "rental_uris": {"ios": "https://dc.lft.to/lastmile_qr_scan", "android": "https://dc.lft.to/lastmile_qr_scan"}}, {"name": "63e2266bf010c68a062549f0f6b02e58", "type": "electric_scooter", "lat": 38.874695, "is_reserved": 0, "lon": -77.01870183333334, "fusion_lon": 0.0, "is_disabled": 0, "fusion_lat": 0.0, "bike_id": "63e2266bf010c68a062549f0f6b02e58", "rental_uris": {"ios": "https://dc.lft.to/lastmile_qr_scan", "android": "https://dc.lft.to/lastmile_qr_scan"}}, {"name": "9fedb4ac58c43bfb4719dd38d95432db", "type": "electric_scooter", "lat": 38.90489183333333, "is_reserved": 0, "lon": -76.9842865, "fusion_lon": 0.0, "is_disabled": 0, "fusion_lat": 0.0, "bike_id": "9fedb4ac58c43bfb4719dd38d95432db", "rental_uris": {"ios": "https://dc.lft.to/lastmile_qr_scan", "android": "https://dc.lft.to/lastmile_qr_scan"}}, {"name": "2d58b2f0da20e41983030cead53c2a26", "type": "electric_scooter", "lat": 38.918017166666665, "is_reserved": 0, "lon": -77.0355685, "fusion_lon": 0.0, "is_disabled": 0, "fusion_lat": 0.0, "bike_id": "2d58b2f0da20e41983030cead53c2a26", "rental_uris": {"ios": "https://dc.lft.to/lastmile_qr_scan", "android": "https://dc.lft.to/lastmile_qr_scan"}}, {"name": "f0da36e5a8bc63df2c636fc8ef96c559", "type": "electric_scooter", "lat": 38.89842433333333, "is_reserved": 0, "lon": -76.99504183333333, "fusion_lon": 0.0, "is_disabled": 0, "fusion_lat": 0.0, "bike_id": "f0da36e5a8bc63df2c636fc8ef96c559", "rental_uris": {"ios": "https://dc.lft.to/lastmile_qr_scan", "android": "https://dc.lft.to/lastmile_qr_scan"}}, {"name": "c4aab8d30618e23a75588396fe678162", "type": "electric_bike", "lat": 38.840636, "is_reserved": 0, "lon": -77.06406233333334, "fusion_lon": 0.0, "is_disabled": 0, "fusion_lat": 0.0, "bike_id": "c4aab8d30618e23a75588396fe678162", "rental_uris": {"ios": "https://dc.lft.to/lastmile_qr_scan", "android": "https://dc.lft.to/lastmile_qr_scan"}}, {"name": "769d02edf377aaacbc58320ce4ebe2d5", "type": "electric_scooter", "lat": 38.898427, "is_reserved": 0, "lon": -76.94478666666667, "fusion_lon": 0.0, "is_disabled": 0, "fusion_lat": 0.0, "bike_id": "769d02edf377aaacbc58320ce4ebe2d5", "rental_uris": {"ios": "https://dc.lft.to/lastmile_qr_scan", "android": "https://dc.lft.to/lastmile_qr_scan"}}, {"name": "754e223c49048f1b4096e4c34a35d3d8", "type": "electric_scooter", "lat": 38.92148483333333, "is_reserved": 0, "lon": -77.03533683333333, "fusion_lon": 0.0, "is_disabled": 0, "fusion_lat": 0.0, "bike_id": "754e223c49048f1b4096e4c34a35d3d8", "rental_uris": {"ios": "https://dc.lft.to/lastmile_qr_scan", "android": "https://dc.lft.to/lastmile_qr_scan"}}, {"name": "dad801ca381b8d4fcad33a147228a8d2", "type": "electric_bike", "lat": 38.86284116666667, "is_reserved": 0, "lon": -77.06379833333334, "fusion_lon": 0.0, "is_disabled": 0, "fusion_lat": 0.0, "bike_id": "dad801ca381b8d4fcad33a147228a8d2", "rental_uris": {"ios": "https://dc.lft.to/lastmile_qr_scan", "android": "https://dc.lft.to/lastmile_qr_scan"}}, {"name": "eef4b88dc9b8796621185d942c0504f1", "type": "electric_scooter", "lat": 38.89749183333333, "is_reserved": 0, "lon": -77.01040183333333, "fusion_lon": 0.0, "is_disabled": 0, "fusion_lat": 0.0, "bike_id": "eef4b88dc9b8796621185d942c0504f1", "rental_uris": {"ios": "https://dc.lft.to/lastmile_qr_scan", "android": "https://dc.lft.to/lastmile_qr_scan"}}, {"name": "fa7e772f823d480de2cb13a520118a4c", "type": "electric_bike", "lat": 38.86754483333333, "is_reserved": 0, "lon": -76.94536983333333, "fusion_lon": 0.0, "is_disabled": 0, "fusion_lat": 0.0, "bike_id": "fa7e772f823d480de2cb13a520118a4c", "rental_uris": {"ios": "https://dc.lft.to/lastmile_qr_scan", "android": "https://dc.lft.to/lastmile_qr_scan"}}, {"name": "e415b8f15f8e50dd81b53f129cb4272e", "type": "electric_scooter", "lat": 38.92729933333333, "is_reserved": 0, "lon": -77.00569566666667, "fusion_lon": 0.0, "is_disabled": 0, "fusion_lat": 0.0, "bike_id": "e415b8f15f8e50dd81b53f129cb4272e", "rental_uris": {"ios": "https://dc.lft.to/lastmile_qr_scan", "android": "https://dc.lft.to/lastmile_qr_scan"}}, {"name": "5a277ae4578f6784c07602551e7d6679", "type": "electric_bike", "lat": 38.8279055, "is_reserved": 0, "lon": -77.00910366666666, "fusion_lon": 0.0, "is_disabled": 0, "fusion_lat": 0.0, "bike_id": "5a277ae4578f6784c07602551e7d6679", "rental_uris": {"ios": "https://dc.lft.to/lastmile_qr_scan", "android": "https://dc.lft.to/lastmile_qr_scan"}}, {"name": "91dd086968f21adf85c2e6c41a860b09", "type": "electric_bike", "lat": 39.094622333333334, "is_reserved": 0, "lon": -77.14997916666667, "fusion_lon": 0.0, "is_disabled": 0, "fusion_lat": 0.0, "bike_id": "91dd086968f21adf85c2e6c41a860b09", "rental_uris": {"ios": "https://dc.lft.to/lastmile_qr_scan", "android": "https://dc.lft.to/lastmile_qr_scan"}}, {"name": "b09a9737b736e10f35bb097e00d306c9", "type": "electric_scooter", "lat": 38.929631666666666, "is_reserved": 0, "lon": -77.011498, "fusion_lon": 0.0, "is_disabled": 0, "fusion_lat": 0.0, "bike_id": "b09a9737b736e10f35bb097e00d306c9", "rental_uris": {"ios": "https://dc.lft.to/lastmile_qr_scan", "android": "https://dc.lft.to/lastmile_qr_scan"}}, {"name": "0f7988daca03590da632759e02beb7f8", "type": "electric_scooter", "lat": 38.863663333333335, "is_reserved": 0, "lon": -77.01364683333334, "fusion_lon": 0.0, "is_disabled": 0, "fusion_lat": 0.0, "bike_id": "0f7988daca03590da632759e02beb7f8", "rental_uris": {"ios": "https://dc.lft.to/lastmile_qr_scan", "android": "https://dc.lft.to/lastmile_qr_scan"}}, {"name": "8eb9be611a5df79730936742381e01e4", "type": "electric_scooter", "lat": 38.92160633333334, "is_reserved": 0, "lon": -77.04701033333333, "fusion_lon": 0.0, "is_disabled": 0, "fusion_lat": 0.0, "bike_id": "8eb9be611a5df79730936742381e01e4", "rental_uris": {"ios": "https://dc.lft.to/lastmile_qr_scan", "android": "https://dc.lft.to/lastmile_qr_scan"}}, {"name": "d1356e242a73f6be234ceeb55f303481", "type": "electric_scooter", "lat": 38.95632066666667, "is_reserved": 0, "lon": -77.02784583333333, "fusion_lon": 0.0, "is_disabled": 0, "fusion_lat": 0.0, "bike_id": "d1356e242a73f6be234ceeb55f303481", "rental_uris": {"ios": "https://dc.lft.to/lastmile_qr_scan", "android": "https://dc.lft.to/lastmile_qr_scan"}}, {"name": "f06e360f7e7799cbcce6dd3bed504933", "type": "electric_bike", "lat": 38.845760166666665, "is_reserved": 0, "lon": -77.0962405, "fusion_lon": 0.0, "is_disabled": 0, "fusion_lat": 0.0, "bike_id": "f06e360f7e7799cbcce6dd3bed504933", "rental_uris": {"ios": "https://dc.lft.to/lastmile_qr_scan", "android": "https://dc.lft.to/lastmile_qr_scan"}}, {"name": "685261b0314e54f350e49f41caa31c7a", "type": "electric_scooter", "lat": 38.90273533333333, "is_reserved": 0, "lon": -77.044981, "fusion_lon": 0.0, "is_disabled": 0, "fusion_lat": 0.0, "bike_id": "685261b0314e54f350e49f41caa31c7a", "rental_uris": {"ios": "https://dc.lft.to/lastmile_qr_scan", "android": "https://dc.lft.to/lastmile_qr_scan"}}, {"name": "21e076786d00ba7d2f928a1dd371a5df", "type": "electric_scooter", "lat": 38.905327666666665, "is_reserved": 0, "lon": -77.057665, "fusion_lon": 0.0, "is_disabled": 0, "fusion_lat": 0.0, "bike_id": "21e076786d00ba7d2f928a1dd371a5df", "rental_uris": {"ios": "https://dc.lft.to/lastmile_qr_scan", "android": "https://dc.lft.to/lastmile_qr_scan"}}, {"name": "400185620027569eb090363ecefd9a44", "type": "electric_scooter", "lat": 38.91796516666667, "is_reserved": 0, "lon": -77.03441266666667, "fusion_lon": 0.0, "is_disabled": 0, "fusion_lat": 0.0, "bike_id": "400185620027569eb090363ecefd9a44", "rental_uris": {"ios": "https://dc.lft.to/lastmile_qr_scan", "android": "https://dc.lft.to/lastmile_qr_scan"}}, {"name": "d26bacfb453652070e3d716daeb3515b", "type": "electric_scooter", "lat": 38.916463666666665, "is_reserved": 0, "lon": -77.03218566666666, "fusion_lon": 0.0, "is_disabled": 0, "fusion_lat": 0.0, "bike_id": "d26bacfb453652070e3d716daeb3515b", "rental_uris": {"ios": "https://dc.lft.to/lastmile_qr_scan", "android": "https://dc.lft.to/lastmile_qr_scan"}}, {"name": "283691db31e27723de60afa5a282b5c7", "type": "electric_scooter", "lat": 38.916686, "is_reserved": 0, "lon": -77.00506866666667, "fusion_lon": 0.0, "is_disabled": 0, "fusion_lat": 0.0, "bike_id": "283691db31e27723de60afa5a282b5c7", "rental_uris": {"ios": "https://dc.lft.to/lastmile_qr_scan", "android": "https://dc.lft.to/lastmile_qr_scan"}}, {"name": "621f02efd688b1f9fb5f542392d0e26e", "type": "electric_scooter", "lat": 38.90375866666667, "is_reserved": 0, "lon": -77.02992416666666, "fusion_lon": 0.0, "is_disabled": 0, "fusion_lat": 0.0, "bike_id": "621f02efd688b1f9fb5f542392d0e26e", "rental_uris": {"ios": "https://dc.lft.to/lastmile_qr_scan", "android": "https://dc.lft.to/lastmile_qr_scan"}}, {"name": "eb4c20dc49826ea98df9f1b3d72553a3", "type": "electric_scooter", "lat": 38.91964183333333, "is_reserved": 0, "lon": -77.03193833333333, "fusion_lon": 0.0, "is_disabled": 0, "fusion_lat": 0.0, "bike_id": "eb4c20dc49826ea98df9f1b3d72553a3", "rental_uris": {"ios": "https://dc.lft.to/lastmile_qr_scan", "android": "https://dc.lft.to/lastmile_qr_scan"}}, {"name": "2dce0984dc6b707a207e34036dfeb39c", "type": "electric_scooter", "lat": 38.896770333333336, "is_reserved": 0, "lon": -76.94737366666666, "fusion_lon": 0.0, "is_disabled": 0, "fusion_lat": 0.0, "bike_id": "2dce0984dc6b707a207e34036dfeb39c", "rental_uris": {"ios": "https://dc.lft.to/lastmile_qr_scan", "android": "https://dc.lft.to/lastmile_qr_scan"}}, {"name": "9674b373957339e387982b8b4b7ef606", "type": "electric_scooter", "lat": 38.902344666666664, "is_reserved": 0, "lon": -77.043517, "fusion_lon": 0.0, "is_disabled": 0, "fusion_lat": 0.0, "bike_id": "9674b373957339e387982b8b4b7ef606", "rental_uris": {"ios": "https://dc.lft.to/lastmile_qr_scan", "android": "https://dc.lft.to/lastmile_qr_scan"}}, {"name": "6fe9a2525b6a4729884410397659e44b", "type": "electric_scooter", "lat": 38.932990333333336, "is_reserved": 0, "lon": -77.02854016666667, "fusion_lon": 0.0, "is_disabled": 0, "fusion_lat": 0.0, "bike_id": "6fe9a2525b6a4729884410397659e44b", "rental_uris": {"ios": "https://dc.lft.to/lastmile_qr_scan", "android": "https://dc.lft.to/lastmile_qr_scan"}}, {"name": "68ca1eae91fe9853f8a0a901e4c6243e", "type": "electric_bike", "lat": 38.89221916666666, "is_reserved": 0, "lon": -77.10777616666667, "fusion_lon": 0.0, "is_disabled": 0, "fusion_lat": 0.0, "bike_id": "68ca1eae91fe9853f8a0a901e4c6243e", "rental_uris": {"ios": "https://dc.lft.to/lastmile_qr_scan", "android": "https://dc.lft.to/lastmile_qr_scan"}}, {"name": "6cfbc1ee765c8466ef0551074f59b6cb", "type": "electric_scooter", "lat": 38.90394116666667, "is_reserved": 0, "lon": -77.0434735, "fusion_lon": 0.0, "is_disabled": 0, "fusion_lat": 0.0, "bike_id": "6cfbc1ee765c8466ef0551074f59b6cb", "rental_uris": {"ios": "https://dc.lft.to/lastmile_qr_scan", "android": "https://dc.lft.to/lastmile_qr_scan"}}, {"name": "c5efb48513fea6fc6e1ee6d2968c473b", "type": "electric_scooter", "lat": 38.9085345, "is_reserved": 0, "lon": -77.0273255, "fusion_lon": 0.0, "is_disabled": 0, "fusion_lat": 0.0, "bike_id": "c5efb48513fea6fc6e1ee6d2968c473b", "rental_uris": {"ios": "https://dc.lft.to/lastmile_qr_scan", "android": "https://dc.lft.to/lastmile_qr_scan"}}, {"name": "8b1ddc940237918a86178a33782c17db", "type": "electric_scooter", "lat": 38.899306833333334, "is_reserved": 0, "lon": -77.01484883333333, "fusion_lon": 0.0, "is_disabled": 0, "fusion_lat": 0.0, "bike_id": "8b1ddc940237918a86178a33782c17db", "rental_uris": {"ios": "https://dc.lft.to/lastmile_qr_scan", "android": "https://dc.lft.to/lastmile_qr_scan"}}, {"name": "993c1701443120af61e1037b52b95808", "type": "electric_scooter", "lat": 38.931152, "is_reserved": 0, "lon": -77.03816283333333, "fusion_lon": 0.0, "is_disabled": 0, "fusion_lat": 0.0, "bike_id": "993c1701443120af61e1037b52b95808", "rental_uris": {"ios": "https://dc.lft.to/lastmile_qr_scan", "android": "https://dc.lft.to/lastmile_qr_scan"}}, {"name": "f79c43819ada98e279466ca9693a708c", "type": "electric_scooter", "lat": 38.905137, "is_reserved": 0, "lon": -77.067607, "fusion_lon": 0.0, "is_disabled": 0, "fusion_lat": 0.0, "bike_id": "f79c43819ada98e279466ca9693a708c", "rental_uris": {"ios": "https://dc.lft.to/lastmile_qr_scan", "android": "https://dc.lft.to/lastmile_qr_scan"}}, {"name": "af369b9dcc2c8e955d0928f0811828c6", "type": "electric_scooter", "lat": 38.942896833333336, "is_reserved": 0, "lon": -77.0217245, "fusion_lon": 0.0, "is_disabled": 0, "fusion_lat": 0.0, "bike_id": "af369b9dcc2c8e955d0928f0811828c6", "rental_uris": {"ios": "https://dc.lft.to/lastmile_qr_scan", "android": "https://dc.lft.to/lastmile_qr_scan"}}, {"name": "c215bf035f7ae6029ef98825c9f83eeb", "type": "electric_scooter", "lat": 38.92059583333333, "is_reserved": 0, "lon": -77.04280866666667, "fusion_lon": 0.0, "is_disabled": 0, "fusion_lat": 0.0, "bike_id": "c215bf035f7ae6029ef98825c9f83eeb", "rental_uris": {"ios": "https://dc.lft.to/lastmile_qr_scan", "android": "https://dc.lft.to/lastmile_qr_scan"}}, {"name": "2376e513101e217668274199ece4dab1", "type": "electric_scooter", "lat": 38.9339265, "is_reserved": 0, "lon": -77.03581816666667, "fusion_lon": 0.0, "is_disabled": 0, "fusion_lat": 0.0, "bike_id": "2376e513101e217668274199ece4dab1", "rental_uris": {"ios": "https://dc.lft.to/lastmile_qr_scan", "android": "https://dc.lft.to/lastmile_qr_scan"}}, {"name": "10581c52ffabb1acbace8b8c4f9d2d2f", "type": "electric_scooter", "lat": 38.932531833333336, "is_reserved": 0, "lon": -77.03280683333334, "fusion_lon": 0.0, "is_disabled": 0, "fusion_lat": 0.0, "bike_id": "10581c52ffabb1acbace8b8c4f9d2d2f", "rental_uris": {"ios": "https://dc.lft.to/lastmile_qr_scan", "android": "https://dc.lft.to/lastmile_qr_scan"}}, {"name": "9815a74c39e4f55cae2174844b5f03c3", "type": "electric_scooter", "lat": 38.87630016666667, "is_reserved": 0, "lon": -76.9653035, "fusion_lon": 0.0, "is_disabled": 0, "fusion_lat": 0.0, "bike_id": "9815a74c39e4f55cae2174844b5f03c3", "rental_uris": {"ios": "https://dc.lft.to/lastmile_qr_scan", "android": "https://dc.lft.to/lastmile_qr_scan"}}, {"name": "180dc5764a51fa1ad56960dd7b920ef3", "type": "electric_scooter", "lat": 38.886887, "is_reserved": 0, "lon": -76.957604, "fusion_lon": 0.0, "is_disabled": 0, "fusion_lat": 0.0, "bike_id": "180dc5764a51fa1ad56960dd7b920ef3", "rental_uris": {"ios": "https://dc.lft.to/lastmile_qr_scan", "android": "https://dc.lft.to/lastmile_qr_scan"}}, {"name": "cdd91dd7529ddea70fcafe1b4c4053e9", "type": "electric_scooter", "lat": 38.89227566666667, "is_reserved": 0, "lon": -77.01523583333334, "fusion_lon": 0.0, "is_disabled": 0, "fusion_lat": 0.0, "bike_id": "cdd91dd7529ddea70fcafe1b4c4053e9", "rental_uris": {"ios": "https://dc.lft.to/lastmile_qr_scan", "android": "https://dc.lft.to/lastmile_qr_scan"}}, {"name": "5100dd1818c995e4ad3247bc0e75bc8b", "type": "electric_scooter", "lat": 38.897421333333334, "is_reserved": 0, "lon": -76.93846066666667, "fusion_lon": 0.0, "is_disabled": 0, "fusion_lat": 0.0, "bike_id": "5100dd1818c995e4ad3247bc0e75bc8b", "rental_uris": {"ios": "https://dc.lft.to/lastmile_qr_scan", "android": "https://dc.lft.to/lastmile_qr_scan"}}, {"name": "8fbf64c8551375cd7e2bba308b0cb9d4", "type": "electric_scooter", "lat": 38.927679499999996, "is_reserved": 0, "lon": -77.0730335, "fusion_lon": 0.0, "is_disabled": 0, "fusion_lat": 0.0, "bike_id": "8fbf64c8551375cd7e2bba308b0cb9d4", "rental_uris": {"ios": "https://dc.lft.to/lastmile_qr_scan", "android": "https://dc.lft.to/lastmile_qr_scan"}}, {"name": "4cf13aaacf94890117b8f915b78e1902", "type": "electric_scooter", "lat": 38.895261833333336, "is_reserved": 0, "lon": -77.0033905, "fusion_lon": 0.0, "is_disabled": 0, "fusion_lat": 0.0, "bike_id": "4cf13aaacf94890117b8f915b78e1902", "rental_uris": {"ios": "https://dc.lft.to/lastmile_qr_scan", "android": "https://dc.lft.to/lastmile_qr_scan"}}, {"name": "4814fb39d5ac49b83fd95234d9196707", "type": "electric_bike", "lat": 38.8382545, "is_reserved": 0, "lon": -76.99685366666667, "fusion_lon": 0.0, "is_disabled": 0, "fusion_lat": 0.0, "bike_id": "4814fb39d5ac49b83fd95234d9196707", "rental_uris": {"ios": "https://dc.lft.to/lastmile_qr_scan", "android": "https://dc.lft.to/lastmile_qr_scan"}}, {"name": "bb194ad869caa099ce7413cc8ed7f06e", "type": "electric_scooter", "lat": 38.8960455, "is_reserved": 0, "lon": -77.04461183333333, "fusion_lon": 0.0, "is_disabled": 0, "fusion_lat": 0.0, "bike_id": "bb194ad869caa099ce7413cc8ed7f06e", "rental_uris": {"ios": "https://dc.lft.to/lastmile_qr_scan", "android": "https://dc.lft.to/lastmile_qr_scan"}}, {"name": "2b016f7225990233d6615d166c87edd6", "type": "electric_scooter", "lat": 38.928560833333336, "is_reserved": 0, "lon": -77.013724, "fusion_lon": 0.0, "is_disabled": 0, "fusion_lat": 0.0, "bike_id": "2b016f7225990233d6615d166c87edd6", "rental_uris": {"ios": "https://dc.lft.to/lastmile_qr_scan", "android": "https://dc.lft.to/lastmile_qr_scan"}}, {"name": "1646f335fee8cfee0d81766d7735f804", "type": "electric_bike", "lat": 38.83811583333333, "is_reserved": 0, "lon": -77.095266, "fusion_lon": 0.0, "is_disabled": 0, "fusion_lat": 0.0, "bike_id": "1646f335fee8cfee0d81766d7735f804", "rental_uris": {"ios": "https://dc.lft.to/lastmile_qr_scan", "android": "https://dc.lft.to/lastmile_qr_scan"}}, {"name": "917f6163c50e73b66fadcce8f4995f86", "type": "electric_scooter", "lat": 38.904981166666666, "is_reserved": 0, "lon": -77.02831133333333, "fusion_lon": 0.0, "is_disabled": 0, "fusion_lat": 0.0, "bike_id": "917f6163c50e73b66fadcce8f4995f86", "rental_uris": {"ios": "https://dc.lft.to/lastmile_qr_scan", "android": "https://dc.lft.to/lastmile_qr_scan"}}, {"name": "e01894e54768dc3e2d9697c8c05403ce", "type": "electric_scooter", "lat": 38.933355, "is_reserved": 0, "lon": -77.03283566666667, "fusion_lon": 0.0, "is_disabled": 0, "fusion_lat": 0.0, "bike_id": "e01894e54768dc3e2d9697c8c05403ce", "rental_uris": {"ios": "https://dc.lft.to/lastmile_qr_scan", "android": "https://dc.lft.to/lastmile_qr_scan"}}, {"name": "3bb58d58ebf8dae6522e1c75c2598885", "type": "electric_scooter", "lat": 38.86519933333334, "is_reserved": 0, "lon": -76.99034433333334, "fusion_lon": 0.0, "is_disabled": 0, "fusion_lat": 0.0, "bike_id": "3bb58d58ebf8dae6522e1c75c2598885", "rental_uris": {"ios": "https://dc.lft.to/lastmile_qr_scan", "android": "https://dc.lft.to/lastmile_qr_scan"}}, {"name": "be0cc897d9c26cc978b51344089f68a3", "type": "electric_scooter", "lat": 38.93283783333333, "is_reserved": 0, "lon": -77.0397775, "fusion_lon": 0.0, "is_disabled": 0, "fusion_lat": 0.0, "bike_id": "be0cc897d9c26cc978b51344089f68a3", "rental_uris": {"ios": "https://dc.lft.to/lastmile_qr_scan", "android": "https://dc.lft.to/lastmile_qr_scan"}}, {"name": "120c5614326a3363a13f79a0ea96ed87", "type": "electric_scooter", "lat": 38.913283166666666, "is_reserved": 0, "lon": -77.03267983333333, "fusion_lon": 0.0, "is_disabled": 0, "fusion_lat": 0.0, "bike_id": "120c5614326a3363a13f79a0ea96ed87", "rental_uris": {"ios": "https://dc.lft.to/lastmile_qr_scan", "android": "https://dc.lft.to/lastmile_qr_scan"}}, {"name": "8968de3f2ae3778ac8e3d3fec8f49817", "type": "electric_scooter", "lat": 38.92926083333333, "is_reserved": 0, "lon": -77.0200995, "fusion_lon": 0.0, "is_disabled": 0, "fusion_lat": 0.0, "bike_id": "8968de3f2ae3778ac8e3d3fec8f49817", "rental_uris": {"ios": "https://dc.lft.to/lastmile_qr_scan", "android": "https://dc.lft.to/lastmile_qr_scan"}}, {"name": "08d9ca67bf44eb36da6484a1389dab37", "type": "electric_bike", "lat": 38.813096333333334, "is_reserved": 0, "lon": -77.0509855, "fusion_lon": 0.0, "is_disabled": 0, "fusion_lat": 0.0, "bike_id": "08d9ca67bf44eb36da6484a1389dab37", "rental_uris": {"ios": "https://dc.lft.to/lastmile_qr_scan", "android": "https://dc.lft.to/lastmile_qr_scan"}}, {"name": "276017d46f55468c3b3874c4f339f7d6", "type": "electric_scooter", "lat": 38.8955535, "is_reserved": 0, "lon": -76.95027733333333, "fusion_lon": 0.0, "is_disabled": 0, "fusion_lat": 0.0, "bike_id": "276017d46f55468c3b3874c4f339f7d6", "rental_uris": {"ios": "https://dc.lft.to/lastmile_qr_scan", "android": "https://dc.lft.to/lastmile_qr_scan"}}, {"name": "3b0bf5543f9b042d83597584b81d82c8", "type": "electric_scooter", "lat": 38.92549133333333, "is_reserved": 0, "lon": -77.02264983333333, "fusion_lon": 0.0, "is_disabled": 0, "fusion_lat": 0.0, "bike_id": "3b0bf5543f9b042d83597584b81d82c8", "rental_uris": {"ios": "https://dc.lft.to/lastmile_qr_scan", "android": "https://dc.lft.to/lastmile_qr_scan"}}, {"name": "9db50e765351331ef24380ed0f98544d", "type": "electric_scooter", "lat": 38.862107333333334, "is_reserved": 0, "lon": -76.99468816666666, "fusion_lon": 0.0, "is_disabled": 0, "fusion_lat": 0.0, "bike_id": "9db50e765351331ef24380ed0f98544d", "rental_uris": {"ios": "https://dc.lft.to/lastmile_qr_scan", "android": "https://dc.lft.to/lastmile_qr_scan"}}, {"name": "789936d3346dae01ebbb1633246fc7b6", "type": "electric_scooter", "lat": 38.918677333333335, "is_reserved": 0, "lon": -77.03190833333333, "fusion_lon": 0.0, "is_disabled": 0, "fusion_lat": 0.0, "bike_id": "789936d3346dae01ebbb1633246fc7b6", "rental_uris": {"ios": "https://dc.lft.to/lastmile_qr_scan", "android": "https://dc.lft.to/lastmile_qr_scan"}}, {"name": "bfd7d0f038deceb8d52d3cad5af8d79c", "type": "electric_scooter", "lat": 38.9027875, "is_reserved": 0, "lon": -77.03369633333334, "fusion_lon": 0.0, "is_disabled": 0, "fusion_lat": 0.0, "bike_id": "bfd7d0f038deceb8d52d3cad5af8d79c", "rental_uris": {"ios": "https://dc.lft.to/lastmile_qr_scan", "android": "https://dc.lft.to/lastmile_qr_scan"}}, {"name": "1e4202978bfabc3446314d62c7c270a5", "type": "electric_scooter", "lat": 38.9252925, "is_reserved": 0, "lon": -77.01207333333333, "fusion_lon": 0.0, "is_disabled": 0, "fusion_lat": 0.0, "bike_id": "1e4202978bfabc3446314d62c7c270a5", "rental_uris": {"ios": "https://dc.lft.to/lastmile_qr_scan", "android": "https://dc.lft.to/lastmile_qr_scan"}}, {"name": "1bb087c14ffb8655310eab03eb20f854", "type": "electric_scooter", "lat": 38.87979983333334, "is_reserved": 0, "lon": -77.02397966666666, "fusion_lon": 0.0, "is_disabled": 0, "fusion_lat": 0.0, "bike_id": "1bb087c14ffb8655310eab03eb20f854", "rental_uris": {"ios": "https://dc.lft.to/lastmile_qr_scan", "android": "https://dc.lft.to/lastmile_qr_scan"}}, {"name": "ea05bb7ace5fa7e35b11f4755e0968b0", "type": "electric_scooter", "lat": 38.92174766666667, "is_reserved": 0, "lon": -77.02542533333333, "fusion_lon": 0.0, "is_disabled": 0, "fusion_lat": 0.0, "bike_id": "ea05bb7ace5fa7e35b11f4755e0968b0", "rental_uris": {"ios": "https://dc.lft.to/lastmile_qr_scan", "android": "https://dc.lft.to/lastmile_qr_scan"}},