{"data": {"bikes": [{"bike_id": "80be9ca581f5a33b12a0ecfeae209c49", "fusion_lon": 0.0, "lon": -77.00740916666666, "name": "80be9ca581f5a33b12a0ecfeae209c49", "is_disabled": 0, "rental_uris": {"android": "https://dc.lft.to/lastmile_qr_scan", "ios": "https://dc.lft.to/lastmile_qr_scan"}, "type": "electric_scooter", "lat": 38.87711266666667, "is_reserved": 0, "fusion_lat": 0.0}, {"bike_id": "1a31c8256923cea6037f2543eb352625", "fusion_lon": 0.0, "lon": -76.99256116666666, "name": "1a31c8256923cea6037f2543eb352625", "is_disabled": 0, "rental_uris": {"android": "https://dc.lft.to/lastmile_qr_scan", "ios": "https://dc.lft.to/lastmile_qr_scan"}, "type": "electric_scooter", "lat": 38.9197715, "is_reserved": 0, "fusion_lat": 0.0}, {"bike_id": "93e3708eb4ef61626ef89dae9f3358e8", "fusion_lon": 0.0, "lon": -77.03052666666666, "name": "93e3708eb4ef61626ef89dae9f3358e8", "is_disabled": 0, "rental_uris": {"android": "https://dc.lft.to/lastmile_qr_scan", "ios": "https://dc.lft.to/lastmile_qr_scan"}, "type": "electric_scooter", "lat": 38.884297, "is_reserved": 0, "fusion_lat": 0.0}, {"bike_id": "fe2de4611be71ffeba8fce1912891c2e", "fusion_lon": 0.0, "lon": -77.0378925, "name": "fe2de4611be71ffeba8fce1912891c2e", "is_disabled": 0, "rental_uris": {"android": "https://dc.lft.to/lastmile_qr_scan", "ios": "https://dc.lft.to/lastmile_qr_scan"}, "type": "electric_scooter", "lat": 38.906814833333335, "is_reserved": 0, "fusion_lat": 0.0}, {"bike_id": "365e4027b9f7b032d6f92f45bcb0bc9c", "fusion_lon": 0.0, "lon": -77.04884466666667, "name": "365e4027b9f7b032d6f92f45bcb0bc9c", "is_disabled": 0, "rental_uris": {"android": "https://dc.lft.to/lastmile_qr_scan", "ios": "https://dc.lft.to/lastmile_qr_scan"}, "type": "electric_scooter", "lat": 38.91339166666667, "is_reserved": 0, "fusion_lat": 0.0}, {"bike_id": "c053ca5eca10c1918b85801b63c3cddc", "fusion_lon": 0.0, "lon": -77.03212983333333, "name": "c053ca5eca10c1918b85801b63c3cddc", "is_disabled": 0, "rental_uris": {"android": "https://dc.lft.to/lastmile_qr_scan", "ios": "https://dc.lft.to/lastmile_qr_scan"}, "type": "electric_scooter", "lat": 38.914761166666665, "is_reserved": 0, "fusion_lat": 0.0}, {"bike_id": "923ce41bb81c8e0153bd5df71954af2b", "fusion_lon": 0.0, "lon": -77.0486485, "name": "923ce41bb81c8e0153bd5df71954af2b", "is_disabled": 0, "rental_uris": {"android": "https://dc.lft.to/lastmile_qr_scan", "ios": "https://dc.lft.to/lastmile_qr_scan"}, "type": "electric_scooter", "lat": 38.915719333333335, "is_reserved": 0, "fusion_lat": 0.0}, {"bike_id": "42ed13b5efbb14105c139003e04305f5", "fusion_lon": 0.0, "lon": -77.0233255, "name": "42ed13b5efbb14105c139003e04305f5", "is_disabled": 0, "rental_uris": {"android": "https://dc.lft.to/lastmile_qr_scan", "ios": "https://dc.lft.to/lastmile_qr_scan"}, "type": "electric_scooter", "lat": 38.924794166666665, "is_reserved": 0, "fusion_lat": 0.0}, {"bike_id": "c96323b959bb81fc2ad0f3b646d0ca67", "fusion_lon": 0.0, "lon": -77.01981883333333, "name": "c96323b959bb81fc2ad0f3b646d0ca67", "is_disabled": 0, "rental_uris": {"android": "https://dc.lft.to/lastmile_qr_scan", "ios": "https://dc.lft.to/lastmile_qr_scan"}, "type": "electric_scooter", "lat": 38.8847855, "is_reserved": 0, "fusion_lat": 0.0}, {"bike_id": "3fe74fd4a5e815cc06c6e2b2bfabaf7f", "fusion_lon": 0.0, "lon": -77.09484233333333, "name": "3fe74fd4a5e815cc06c6e2b2bfabaf7f", "is_disabled": 0, "rental_uris": {"android": "https://dc.lft.to/lastmile_qr_scan", "ios": "https://dc.lft.to/lastmile_qr_scan"}, "type": "electric_bike", "lat": 39.03047216666667, "is_reserved": 0, "fusion_lat": 0.0}, {"bike_id": "a4eaa21b923d9ee8b10cb3de2b6cec32", "fusion_lon": 0.0, "lon": -77.06337516666666, "name": "a4eaa21b923d9ee8b10cb3de2b6cec32", "is_disabled": 0, "rental_uris": {"android": "https://dc.lft.to/lastmile_qr_scan", "ios": "https://dc.lft.to/lastmile_qr_scan"}, "type": "electric_scooter", "lat": 38.906848833333335, "is_reserved": 0, "fusion_lat": 0.0}, {"bike_id": "e10845eceff7ef9b0d79e13330c107bf", "fusion_lon": 0.0, "lon": -77.02072866666667, "name": "e10845eceff7ef9b0d79e13330c107bf", "is_disabled": 0, "rental_uris": {"android": "https://dc.lft.to/lastmile_qr_scan", "ios": "https://dc.lft.to/lastmile_qr_scan"}, "type": "electric_scooter", "lat": 38.875779333333334, "is_reserved": 0, "fusion_lat": 0.0}, {"bike_id": "be7130f6cc770897756b3beba268bd46", "fusion_lon": 0.0, "lon": -76.9882695, "name": "be7130f6cc770897756b3beba268bd46", "is_disabled": 0, "rental_uris": {"android": "https://dc.lft.to/lastmile_qr_scan", "ios": "https://dc.lft.to/lastmile_qr_scan"}, "type": "electric_scooter", "lat": 38.900362, "is_reserved": 0, "fusion_lat": 0.0}, {"bike_id": "d3e76173d3ca1d7625205b476664701b", "fusion_lon": 0.0, "lon": -77.0294355, "name": "d3e76173d3ca1d7625205b476664701b", "is_disabled": 0, "rental_uris": {"android": "https://dc.lft.to/lastmile_qr_scan", "ios": "https://dc.lft.to/lastmile_qr_scan"}, "type": "electric_scooter", "lat": 38.90505433333333, "is_reserved": 0, "fusion_lat": 0.0}, {"bike_id": "e5828b24fe2c3a398f884a2ab8fa58fb", "fusion_lon": 0.0, "lon": -76.9894265, "name": "e5828b24fe2c3a398f884a2ab8fa58fb", "is_disabled": 0, "rental_uris": {"android": "https://dc.lft.to/lastmile_qr_scan", "ios": "https://dc.lft.to/lastmile_qr_scan"}, "type": "electric_scooter", "lat": 38.903954666666664, "is_reserved": 0, "fusion_lat": 0.0}, {"bike_id": "835cf09f11a1c2e75347964a25fd183f", "fusion_lon": 0.0, "lon": -77.033713, "name": "835cf09f11a1c2e75347964a25fd183f", "is_disabled": 0, "rental_uris": {"android": "https://dc.lft.to/lastmile_qr_scan", "ios": "https://dc.lft.to/lastmile_qr_scan"}, "type": "electric_scooter", "lat": 38.9137335, "is_reserved": 0, "fusion_lat": 0.0}, {"bike_id": "35cdd3e0f433b8020060acabddc80309", "fusion_lon": 0.0, "lon": -76.97330166666667, "name": "35cdd3e0f433b8020060acabddc80309", "is_disabled": 0, "rental_uris": {"android": "https://dc.lft.to/lastmile_qr_scan", "ios": "https://dc.lft.to/lastmile_qr_scan"}, "type": "electric_scooter", "lat": 38.9041035, "is_reserved": 0, "fusion_lat": 0.0}, {"bike_id": "49d24e4ef20725ea87c97e93dad911fe", "fusion_lon": 0.0, "lon": -77.03373783333333, "name": "49d24e4ef20725ea87c97e93dad911fe", "is_disabled": 0, "rental_uris": {"android": "https://dc.lft.to/lastmile_qr_scan", "ios": "https://dc.lft.to/lastmile_qr_scan"}, "type": "electric_scooter", "lat": 38.9223585, "is_reserved": 0, "fusion_lat": 0.0}, {"bike_id": "88f686b40e65bf647359be60e8d9343c", "fusion_lon": 0.0, "lon": -76.9839745, "name": "88f686b40e65bf647359be60e8d9343c", "is_disabled": 0, "rental_uris": {"android": "https://dc.lft.to/lastmile_qr_scan", "ios": "https://dc.lft.to/lastmile_qr_scan"}, "type": "electric_scooter", "lat": 38.867013, "is_reserved": 0, "fusion_lat": 0.0}, {"bike_id": "5ab199bac150d8930a198cbe4c511926", "fusion_lon": 0.0, "lon": -77.034803, "name": "5ab199bac150d8930a198cbe4c511926", "is_disabled": 0, "rental_uris": {"android": "https://dc.lft.to/lastmile_qr_scan", "ios": "https://dc.lft.to/lastmile_qr_scan"}, "type": "electric_scooter", "lat": 38.92482066666667, "is_reserved": 0, "fusion_lat": 0.0}, {"bike_id": "6962769938992250514d48a6a9fb9749", "fusion_lon": 0.0, "lon": -76.93734133333334, "name": "6962769938992250514d48a6a9fb9749", "is_disabled": 0, "rental_uris": {"android": "https://dc.lft.to/lastmile_qr_scan", "ios": "https://dc.lft.to/lastmile_qr_scan"}, "type": "electric_scooter", "lat": 38.890154833333334, "is_reserved": 0, "fusion_lat": 0.0}, {"bike_id": "a1a1d9d46ee1652eca623155e2c8169a", "fusion_lon": 0.0, "lon": -77.0161825, "name": "a1a1d9d46ee1652eca623155e2c8169a", "is_disabled": 0, "rental_uris": {"android": "https://dc.lft.to/lastmile_qr_scan", "ios": "https://dc.lft.to/lastmile_qr_scan"}, "type": "electric_scooter", "lat": 38.902656666666665, "is_reserved": 0, "fusion_lat": 0.0}, {"bike_id": "8a48c3d1fb5bc4f9e4282d8dace254ea", "fusion_lon": 0.0, "lon": -77.0619175, "name": "8a48c3d1fb5bc4f9e4282d8dace254ea", "is_disabled": 0, "rental_uris": {"android": "https://dc.lft.to/lastmile_qr_scan", "ios": "https://dc.lft.to/lastmile_qr_scan"}, "type": "electric_scooter", "lat": 38.9444615, "is_reserved": 0, "fusion_lat": 0.0}, {"bike_id": "c85bf82c106f04b2947edc315d995af0", "fusion_lon": 0.0, "lon": -77.0504885, "name": "c85bf82c106f04b2947edc315d995af0", "is_disabled": 0, "rental_uris": {"android": "https://dc.lft.to/lastmile_qr_scan", "ios": "https://dc.lft.to/lastmile_qr_scan"}, "type": "electric_scooter", "lat": 38.923412666666664, "is_reserved": 0, "fusion_lat": 0.0}, {"bike_id": "eaaf1a59fce3f22146e220e49bfb76f8", "fusion_lon": 0.0, "lon": -77.045522, "name": "eaaf1a59fce3f22146e220e49bfb76f8", "is_disabled": 0, "rental_uris": {"android": "https://dc.lft.to/lastmile_qr_scan", "ios": "https://dc.lft.to/lastmile_qr_scan"}, "type": "electric_scooter", "lat": 38.92422533333333, "is_reserved": 0, "fusion_lat": 0.0}, {"bike_id": "843b42501df04d9a81d802f8829f26cb", "fusion_lon": 0.0, "lon": -77.02699266666667, "name": "843b42501df04d9a81d802f8829f26cb", "is_disabled": 0, "rental_uris": {"android": "https://dc.lft.to/lastmile_qr_scan", "ios": "https://dc.lft.to/lastmile_qr_scan"}, "type": "electric_scooter", "lat": 38.91801133333333, "is_reserved": 0, "fusion_lat": 0.0}, {"bike_id": "3acc667df2ee615c8d47b863848bc603", "fusion_lon": 0.0, "lon": -76.999461, "name": "3acc667df2ee615c8d47b863848bc603", "is_disabled": 0, "rental_uris": {"android": "https://dc.lft.to/lastmile_qr_scan", "ios": "https://dc.lft.to/lastmile_qr_scan"}, "type": "electric_scooter", "lat": 38.8429295, "is_reserved": 0, "fusion_lat": 0.0}, {"bike_id": "86a2d4aa4f9ba62142a794ef6e12cc73", "fusion_lon": 0.0, "lon": -77.03909766666666, "name": "86a2d4aa4f9ba62142a794ef6e12cc73", "is_disabled": 0, "rental_uris": {"android": "https://dc.lft.to/lastmile_qr_scan", "ios": "https://dc.lft.to/lastmile_qr_scan"}, "type": "electric_scooter", "lat": 38.91557383333333, "is_reserved": 0, "fusion_lat": 0.0}, {"bike_id": "876f3e3ec51482c6c29b79ecb99042b2", "fusion_lon": 0.0, "lon": -77.02194883333334, "name": "876f3e3ec51482c6c29b79ecb99042b2", "is_disabled": 0, "rental_uris": {"android": "https://dc.lft.to/lastmile_qr_scan", "ios": "https://dc.lft.to/lastmile_qr_scan"}, "type": "electric_scooter", "lat": 38.919045833333335, "is_reserved": 0, "fusion_lat": 0.0}, {"bike_id": "f65d83d224d842817704d0b800a3286b", "fusion_lon": 0.0, "lon": -77.03823733333333, "name": "f65d83d224d842817704d0b800a3286b", "is_disabled": 0, "rental_uris": {"android": "https://dc.lft.to/lastmile_qr_scan", "ios": "https://dc.lft.to/lastmile_qr_scan"}, "type": "electric_scooter", "lat": 38.906806833333334, "is_reserved": 0, "fusion_lat": 0.0}, {"bike_id": "2ebb17f8f4187454bdecf6750666656c", "fusion_lon": 0.0, "lon": -77.05737333333333, "name": "2ebb17f8f4187454bdecf6750666656c", "is_disabled": 0, "rental_uris": {"android": "https://dc.lft.to/lastmile_qr_scan", "ios": "https://dc.lft.to/lastmile_qr_scan"}, "type": "electric_scooter", "lat": 38.924347166666664, "is_reserved": 0, "fusion_lat": 0.0}, {"bike_id": "472da92a6b97e063562bd83a179b913e", "fusion_lon": 0.0, "lon": -77.0241245, "name": "472da92a6b97e063562bd83a179b913e", "is_disabled": 0, "rental_uris": {"android": "https://dc.lft.to/lastmile_qr_scan", "ios": "https://dc.lft.to/lastmile_qr_scan"}, "type": "electric_scooter", "lat": 38.91908083333333, "is_reserved": 0, "fusion_lat": 0.0}, {"bike_id": "82567ed94bba11fe487a3c85a99e5d3f", "fusion_lon": 0.0, "lon": -77.0384045, "name": "82567ed94bba11fe487a3c85a99e5d3f", "is_disabled": 0, "rental_uris": {"android": "https://dc.lft.to/lastmile_qr_scan", "ios": "https://dc.lft.to/lastmile_qr_scan"}, "type": "electric_scooter", "lat": 38.916388, "is_reserved": 0, "fusion_lat": 0.0}, {"bike_id": "5e0739196136efe665b935d4de597e86", "fusion_lon": 0.0, "lon": -77.03829816666666, "name": "5e0739196136efe665b935d4de597e86", "is_disabled": 0, "rental_uris": {"android": "https://dc.lft.to/lastmile_qr_scan", "ios": "https://dc.lft.to/lastmile_qr_scan"}, "type": "electric_scooter", "lat": 38.906825, "is_reserved": 0, "fusion_lat": 0.0}, {"bike_id": "a5d1ba64f452040e97a571ed7171301b", "fusion_lon": 0.0, "lon": -76.93225166666667, "name": "a5d1ba64f452040e97a571ed7171301b", "is_disabled": 0, "rental_uris": {"android": "https://dc.lft.to/lastmile_qr_scan", "ios": "https://dc.lft.to/lastmile_qr_scan"}, "type": "electric_scooter", "lat": 38.89884333333333, "is_reserved": 0, "fusion_lat": 0.0}, {"bike_id": "3e244a855346f316fda899c4eacd2475", "fusion_lon": 0.0, "lon": -76.9926945, "name": "3e244a855346f316fda899c4eacd2475", "is_disabled": 0, "rental_uris": {"android": "https://dc.lft.to/lastmile_qr_scan", "ios": "https://dc.lft.to/lastmile_qr_scan"}, "type": "electric_scooter", "lat": 38.8864135, "is_reserved": 0, "fusion_lat": 0.0}, {"bike_id": "20f10845b82ba49476350af07e38fe39", "fusion_lon": 0.0, "lon": -77.029474, "name": "20f10845b82ba49476350af07e38fe39", "is_disabled": 0, "rental_uris": {"android": "https://dc.lft.to/lastmile_qr_scan", "ios": "https://dc.lft.to/lastmile_qr_scan"}, "type": "electric_scooter", "lat": 38.89934733333333, "is_reserved": 0, "fusion_lat": 0.0}, {"bike_id": "2e83593b13ff4f447231229511c06218", "fusion_lon": 0.0, "lon": -76.9487515, "name": "2e83593b13ff4f447231229511c06218", "is_disabled": 0, "rental_uris": {"android": "https://dc.lft.to/lastmile_qr_scan", "ios": "https://dc.lft.to/lastmile_qr_scan"}, "type": "electric_scooter", "lat": 38.8950065, "is_reserved": 0, "fusion_lat": 0.0}, {"bike_id": "756c7d99ffa435adcd1b939fa8269ee2", "fusion_lon": 0.0, "lon": -76.98881566666667, "name": "756c7d99ffa435adcd1b939fa8269ee2", "is_disabled": 0, "rental_uris": {"android": "https://dc.lft.to/lastmile_qr_scan", "ios": "https://dc.lft.to/lastmile_qr_scan"}, "type": "electric_scooter", "lat": 38.866547833333335, "is_reserved": 0, "fusion_lat": 0.0}, {"bike_id": "4ce59427c654fe68d2496fdbc08684f9", "fusion_lon": 0.0, "lon": -77.0259895, "name": "4ce59427c654fe68d2496fdbc08684f9", "is_disabled": 0, "rental_uris": {"android": "https://dc.lft.to/lastmile_qr_scan", "ios": "https://dc.lft.to/lastmile_qr_scan"}, "type": "electric_scooter", "lat": 38.9023745, "is_reserved": 0, "fusion_lat": 0.0}, {"bike_id": "0cc84d8a0f5014119ad4b361fc358a23", "fusion_lon": 0.0, "lon": -77.00566933333333, "name": "0cc84d8a0f5014119ad4b361fc358a23", "is_disabled": 0, "rental_uris": {"android": "https://dc.lft.to/lastmile_qr_scan", "ios": "https://dc.lft.to/lastmile_qr_scan"}, "type": "electric_scooter", "lat": 38.88049683333333, "is_reserved": 0, "fusion_lat": 0.0}, {"bike_id": "1cae6898763685cc8cd0dfbb2f0d491d", "fusion_lon": 0.0, "lon": -77.04310733333334, "name": "1cae6898763685cc8cd0dfbb2f0d491d", "is_disabled": 0, "rental_uris": {"android": "https://dc.lft.to/lastmile_qr_scan", "ios": "https://dc.lft.to/lastmile_qr_scan"}, "type": "electric_scooter", "lat": 38.926638833333335, "is_reserved": 0, "fusion_lat": 0.0}, {"bike_id": "19c6a9dcfb634f82bfb8da3e7e1364bc", "fusion_lon": 0.0, "lon": -76.9872475, "name": "19c6a9dcfb634f82bfb8da3e7e1364bc", "is_disabled": 0, "rental_uris": {"android": "https://dc.lft.to/lastmile_qr_scan", "ios": "https://dc.lft.to/lastmile_qr_scan"}, "type": "electric_scooter", "lat": 38.906987, "is_reserved": 0, "fusion_lat": 0.0}, {"bike_id": "0066784edc0d094251a46daff7036d73", "fusion_lon": 0.0, "lon": -77.02713716666666, "name": "0066784edc0d094251a46daff7036d73", "is_disabled": 0, "rental_uris": {"android": "https://dc.lft.to/lastmile_qr_scan", "ios": "https://dc.lft.to/lastmile_qr_scan"}, "type": "electric_scooter", "lat": 38.909576666666666, "is_reserved": 0, "fusion_lat": 0.0}, {"bike_id": "2df81ffc1da2e0c3a13bc2bd371aeff3", "fusion_lon": 0.0, "lon": -77.03658616666667, "name": "2df81ffc1da2e0c3a13bc2bd371aeff3", "is_disabled": 0, "rental_uris": {"android": "https://dc.lft.to/lastmile_qr_scan", "ios": "https://dc.lft.to/lastmile_qr_scan"}, "type": "electric_scooter", "lat": 38.921028666666665, "is_reserved": 0, "fusion_lat": 0.0}, {"bike_id": "3e90a8aab3ccf89c1ff9da3a86638ebe", "fusion_lon": 0.0, "lon": -77.03227466666667, "name": "3e90a8aab3ccf89c1ff9da3a86638ebe", "is_disabled": 0, "rental_uris": {"android": "https://dc.lft.to/lastmile_qr_scan", "ios": "https://dc.lft.to/lastmile_qr_scan"}, "type": "electric_scooter", "lat": 38.9185225, "is_reserved": 0, "fusion_lat": 0.0}, {"bike_id": "14c337ff6febcd61e535af9808b6e881", "fusion_lon": 0.0, "lon": -76.98710433333333, "name": "14c337ff6febcd61e535af9808b6e881", "is_disabled": 0, "rental_uris": {"android": "https://dc.lft.to/lastmile_qr_scan", "ios": "https://dc.lft.to/lastmile_qr_scan"}, "type": "electric_scooter", "lat": 38.86701166666667, "is_reserved": 0, "fusion_lat": 0.0}, {"bike_id": "737933c41ba6ac0a3295d4646b4495e4", "fusion_lon": 0.0, "lon": -76.94943366666666, "name": "737933c41ba6ac0a3295d4646b4495e4", "is_disabled": 0, "rental_uris": {"android": "https://dc.lft.to/lastmile_qr_scan", "ios": "https://dc.lft.to/lastmile_qr_scan"}, "type": "electric_scooter", "lat": 38.893535666666665, "is_reserved": 0, "fusion_lat": 0.0}, {"bike_id": "302e5eac914eabf1eb0487c4034c29fc", "fusion_lon": 0.0, "lon": -77.02519583333333, "name": "302e5eac914eabf1eb0487c4034c29fc", "is_disabled": 0, "rental_uris": {"android": "https://dc.lft.to/lastmile_qr_scan", "ios": "https://dc.lft.to/lastmile_qr_scan"}, "type": "electric_scooter", "lat": 38.94618366666667, "is_reserved": 0, "fusion_lat": 0.0}, {"bike_id": "b3f901a8bf19d83ee316551dbf484744", "fusion_lon": 0.0, "lon": -77.05393116666667, "name": "b3f901a8bf19d83ee316551dbf484744", "is_disabled": 0, "rental_uris": {"android": "https://dc.lft.to/lastmile_qr_scan", "ios": "https://dc.lft.to/lastmile_qr_scan"}, "type": "electric_scooter", "lat": 38.928137, "is_reserved": 0, "fusion_lat": 0.0}, {"bike_id": "800ec4e8d1e386c8cefa74aa69a6a7fe", "fusion_lon": 0.0, "lon": -77.00563216666667, "name": "800ec4e8d1e386c8cefa74aa69a6a7fe", "is_disabled": 0, "rental_uris": {"android": "https://dc.lft.to/lastmile_qr_scan", "ios": "https://dc.lft.to/lastmile_qr_scan"}, "type": "electric_scooter", "lat": 38.9057725, "is_reserved": 0, "fusion_lat": 0.0}, {"bike_id": "eea4d065e8e32734622ba29aadfe37b5", "fusion_lon": 0.0, "lon": -77.03516183333333, "name": "eea4d065e8e32734622ba29aadfe37b5", "is_disabled": 0, "rental_uris": {"android": "https://dc.lft.to/lastmile_qr_scan", "ios": "https://dc.lft.to/lastmile_qr_scan"}, "type": "electric_scooter", "lat": 38.92319216666667, "is_reserved": 0, "fusion_lat": 0.0}, {"bike_id": "69a2d8fffd741086ef08eaf66faf37c9", "fusion_lon": 0.0, "lon": -77.0119, "name": "69a2d8fffd741086ef08eaf66faf37c9", "is_disabled": 0, "rental_uris": {"android": "https://dc.lft.to/lastmile_qr_scan", "ios": "https://dc.lft.to/lastmile_qr_scan"}, "type": "electric_scooter", "lat": 38.9155085, "is_reserved": 0, "fusion_lat": 0.0}, {"bike_id": "91e41fc362bf6100bd788962a6063f34", "fusion_lon": 0.0, "lon": -77.03658633333333, "name": "91e41fc362bf6100bd788962a6063f34", "is_disabled": 0, "rental_uris": {"android": "https://dc.lft.to/lastmile_qr_scan", "ios": "https://dc.lft.to/lastmile_qr_scan"}, "type": "electric_scooter", "lat": 38.92981483333333, "is_reserved": 0, "fusion_lat": 0.0}, {"bike_id": "48d67a7d0998fcdd6158923018d2046d", "fusion_lon": 0.0, "lon": -77.01947833333334, "name": "48d67a7d0998fcdd6158923018d2046d", "is_disabled": 0, "rental_uris": {"android": "https://dc.lft.to/lastmile_qr_scan", "ios": "https://dc.lft.to/lastmile_qr_scan"}, "type": "electric_scooter", "lat": 38.924216666666666, "is_reserved": 0, "fusion_lat": 0.0}, {"bike_id": "272a8a926ddb5183e029a942230235df", "fusion_lon": 0.0, "lon": -77.00667016666667, "name": "272a8a926ddb5183e029a942230235df", "is_disabled": 0, "rental_uris": {"android": "https://dc.lft.to/lastmile_qr_scan", "ios": "https://dc.lft.to/lastmile_qr_scan"}, "type": "electric_bike", "lat": 38.94505, "is_reserved": 0, "fusion_lat": 0.0}, {"bike_id": "7309788908efda674bda1f4b1f350b3e", "fusion_lon": 0.0, "lon": -77.00937833333333, "name": "7309788908efda674bda1f4b1f350b3e", "is_disabled": 0, "rental_uris": {"android": "https://dc.lft.to/lastmile_qr_scan", "ios": "https://dc.lft.to/lastmile_qr_scan"}, "type": "electric_scooter", "lat": 38.918318, "is_reserved": 0, "fusion_lat": 0.0}, {"bike_id": "69498162dca50ed91b61b91fd2eba939", "fusion_lon": 0.0, "lon": -77.03210016666667, "name": "69498162dca50ed91b61b91fd2eba939", "is_disabled": 0, "rental_uris": {"android": "https://dc.lft.to/lastmile_qr_scan", "ios": "https://dc.lft.to/lastmile_qr_scan"}, "type": "electric_scooter", "lat": 38.9155495, "is_reserved": 0, "fusion_lat": 0.0}, {"bike_id": "4b1106b69729035ecf34763d2030b0ec", "fusion_lon": 0.0, "lon": -77.00067033333333, "name": "4b1106b69729035ecf34763d2030b0ec", "is_disabled": 0, "rental_uris": {"android": "https://dc.lft.to/lastmile_qr_scan", "ios": "https://dc.lft.to/lastmile_qr_scan"}, "type": "electric_scooter", "lat": 38.925514166666666, "is_reserved": 0, "fusion_lat": 0.0}, {"bike_id": "6cb9bd0b87679184e6058aeb6cb3d5b4", "fusion_lon": 0.0, "lon": -77.02305666666666, "name": "6cb9bd0b87679184e6058aeb6cb3d5b4", "is_disabled": 0, "rental_uris": {"android": "https://dc.lft.to/lastmile_qr_scan", "ios": "https://dc.lft.to/lastmile_qr_scan"}, "type": "electric_scooter", "lat": 38.909557666666664, "is_reserved": 0, "fusion_lat": 0.0}, {"bike_id": "fad01785e7f0140bec51d3c9d055f225", "fusion_lon": 0.0, "lon": -77.016098, "name": "fad01785e7f0140bec51d3c9d055f225", "is_disabled": 0, "rental_uris": {"android": "https://dc.lft.to/lastmile_qr_scan", "ios": "https://dc.lft.to/lastmile_qr_scan"}, "type": "electric_scooter", "lat": 38.92052833333333, "is_reserved": 0, "fusion_lat": 0.0}, {"bike_id": "61bd92138e8a850c67c028540cc72ecc", "fusion_lon": 0.0, "lon": -76.93182433333334, "name": "61bd92138e8a850c67c028540cc72ecc", "is_disabled": 0, "rental_uris": {"android": "https://dc.lft.to/lastmile_qr_scan", "ios": "https://dc.lft.to/lastmile_qr_scan"}, "type": "electric_scooter", "lat": 38.89877283333333, "is_reserved": 0, "fusion_lat": 0.0}, {"bike_id": "39a4c76010102471818abbeca313876c", "fusion_lon": 0.0, "lon": -77.1012885, "name": "39a4c76010102471818abbeca313876c", "is_disabled": 0, "rental_uris": {"android": "https://dc.lft.to/lastmile_qr_scan", "ios": "https://dc.lft.to/lastmile_qr_scan"}, "type": "electric_bike", "lat": 38.85206266666667, "is_reserved": 0, "fusion_lat": 0.0}, {"bike_id": "bed9d04bcf0d8d854d2c74329dbb7b97", "fusion_lon": 0.0, "lon": -76.96544333333334, "name": "bed9d04bcf0d8d854d2c74329dbb7b97", "is_disabled": 0, "rental_uris": {"android": "https://dc.lft.to/lastmile_qr_scan", "ios": "https://dc.lft.to/lastmile_qr_scan"}, "type": "electric_scooter", "lat": 38.91847116666667, "is_reserved": 0, "fusion_lat": 0.0}, {"bike_id": "1a61db9ea3761c71c3b55936881107d2", "fusion_lon": 0.0, "lon": -77.0071505, "name": "1a61db9ea3761c71c3b55936881107d2", "is_disabled": 0, "rental_uris": {"android": "https://dc.lft.to/lastmile_qr_scan", "ios": "https://dc.lft.to/lastmile_qr_scan"}, "type": "electric_scooter", "lat": 38.898105666666666, "is_reserved": 0, "fusion_lat": 0.0}, {"bike_id": "38990d824d95d2187b9129411a665210", "fusion_lon": 0.0, "lon": -77.03466066666667, "name": "38990d824d95d2187b9129411a665210", "is_disabled": 0, "rental_uris": {"android": "https://dc.lft.to/lastmile_qr_scan", "ios": "https://dc.lft.to/lastmile_qr_scan"}, "type": "electric_scooter", "lat": 38.908795, "is_reserved": 0, "fusion_lat": 0.0}, {"bike_id": "49969548b6eb9a745912603e64b4ab86", "fusion_lon": 0.0, "lon": -77.02914233333334, "name": "49969548b6eb9a745912603e64b4ab86", "is_disabled": 0, "rental_uris": {"android": "https://dc.lft.to/lastmile_qr_scan", "ios": "https://dc.lft.to/lastmile_qr_scan"}, "type": "electric_scooter", "lat": 38.92578116666667, "is_reserved": 0, "fusion_lat": 0.0}, {"bike_id": "5b4bafc792eabbc24001f479202409b1", "fusion_lon": 0.0, "lon": -77.02364183333333, "name": "5b4bafc792eabbc24001f479202409b1", "is_disabled": 0, "rental_uris": {"android": "https://dc.lft.to/lastmile_qr_scan", "ios": "https://dc.lft.to/lastmile_qr_scan"}, "type": "electric_scooter", "lat": 38.89223766666667, "is_reserved": 0, "fusion_lat": 0.0}, {"bike_id": "bea32e90a1e8d887785313c97d44aa04", "fusion_lon": 0.0, "lon": -77.02156483333333, "name": "bea32e90a1e8d887785313c97d44aa04", "is_disabled": 0, "rental_uris": {"android": "https://dc.lft.to/lastmile_qr_scan", "ios": "https://dc.lft.to/lastmile_qr_scan"}, "type": "electric_scooter", "lat": 38.92606283333333, "is_reserved": 0, "fusion_lat": 0.0}, {"bike_id": "d6a2474a0f2c9158a901fe9cb221c9fb", "fusion_lon": 0.0, "lon": -77.040983, "name": "d6a2474a0f2c9158a901fe9cb221c9fb", "is_disabled": 0, "rental_uris": {"android": "https://dc.lft.to/lastmile_qr_scan", "ios": "https://dc.lft.to/lastmile_qr_scan"}, "type": "electric_scooter", "lat": 38.90487483333333, "is_reserved": 0, "fusion_lat": 0.0}, {"bike_id": "35577ba54e1ec172ed77ecaf9c24961d", "fusion_lon": 0.0, "lon": -77.04013483333334, "name": "35577ba54e1ec172ed77ecaf9c24961d", "is_disabled": 0, "rental_uris": {"android": "https://dc.lft.to/lastmile_qr_scan", "ios": "https://dc.lft.to/lastmile_qr_scan"}, "type": "electric_scooter", "lat": 38.922706833333336, "is_reserved": 0, "fusion_lat": 0.0}, {"bike_id": "fbb1c413906eb6d3f7799c69ffd58355", "fusion_lon": 0.0, "lon": -77.002066, "name": "fbb1c413906eb6d3f7799c69ffd58355", "is_disabled": 0, "rental_uris": {"android": "https://dc.lft.to/lastmile_qr_scan", "ios": "https://dc.lft.to/lastmile_qr_scan"}, "type": "electric_scooter", "lat": 38.90896566666667, "is_reserved": 0, "fusion_lat": 0.0}, {"bike_id": "788da0ab1231b0c157fa1c939703c07d", "fusion_lon": 0.0, "lon": -76.98003616666666, "name": "788da0ab1231b0c157fa1c939703c07d", "is_disabled": 0, "rental_uris": {"android": "https://dc.lft.to/lastmile_qr_scan", "ios": "https://dc.lft.to/lastmile_qr_scan"}, "type": "electric_scooter", "lat": 38.8532795, "is_reserved": 0, "fusion_lat": 0.0}, {"bike_id": "7a0ed8eb300bf0f8f4ba827f8d1fdd8f", "fusion_lon": 0.0, "lon": -77.03171, "name": "7a0ed8eb300bf0f8f4ba827f8d1fdd8f", "is_disabled": 0, "rental_uris": {"android": "https://dc.lft.to/lastmile_qr_scan", "ios": "https://dc.lft.to/lastmile_qr_scan"}, "type": "electric_scooter", "lat": 38.90962016666667, "is_reserved": 0, "fusion_lat": 0.0}, {"bike_id": "d2b9a2829807edb5019342006e12a3d6", "fusion_lon": 0.0, "lon": -76.94839266666666, "name": "d2b9a2829807edb5019342006e12a3d6", "is_disabled": 0, "rental_uris": {"android": "https://dc.lft.to/lastmile_qr_scan", "ios": "https://dc.lft.to/lastmile_qr_scan"}, "type": "electric_scooter", "lat": 38.89588633333334, "is_reserved": 0, "fusion_lat": 0.0}, {"bike_id": "6cbf49a65bf9648e4160d5b5234aa703", "fusion_lon": 0.0, "lon": -77.03681366666666, "name": "6cbf49a65bf9648e4160d5b5234aa703", "is_disabled": 0, "rental_uris": {"android": "https://dc.lft.to/lastmile_qr_scan", "ios": "https://dc.lft.to/lastmile_qr_scan"}, "type": "electric_scooter", "lat": 38.916701833333335, "is_reserved": 0, "fusion_lat": 0.0}, {"bike_id": "6bcd1eb6f2aa8bd510ef0aa91ae88d54", "fusion_lon": 0.0, "lon": -77.05648883333333, "name": "6bcd1eb6f2aa8bd510ef0aa91ae88d54", "is_disabled": 0, "rental_uris": {"android": "https://dc.lft.to/lastmile_qr_scan", "ios": "https://dc.lft.to/lastmile_qr_scan"}, "type": "electric_scooter", "lat": 38.90535533333333, "is_reserved": 0, "fusion_lat": 0.0}, {"bike_id": "a24d5dd5c94f66268b0633b2b522e191", "fusion_lon": 0.0, "lon": -77.02893783333333, "name": "a24d5dd5c94f66268b0633b2b522e191", "is_disabled": 0, "rental_uris": {"android": "https://dc.lft.to/lastmile_qr_scan", "ios": "https://dc.lft.to/lastmile_qr_scan"}, "type": "electric_scooter", "lat": 38.91406516666667, "is_reserved": 0, "fusion_lat": 0.0}, {"bike_id": "6324ef065b80621e1f94c3f282790049", "fusion_lon": 0.0, "lon": -77.023508, "name": "6324ef065b80621e1f94c3f282790049", "is_disabled": 0, "rental_uris": {"android": "https://dc.lft.to/lastmile_qr_scan", "ios": "https://dc.lft.to/lastmile_qr_scan"}, "type": "electric_scooter", "lat": 38.88751416666667, "is_reserved": 0, "fusion_lat": 0.0}, {"bike_id": "d5e27a2a36d569cf08231d1e76e7bc12", "fusion_lon": 0.0, "lon": -77.02768916666666, "name": "d5e27a2a36d569cf08231d1e76e7bc12", "is_disabled": 0, "rental_uris": {"android": "https://dc.lft.to/lastmile_qr_scan", "ios": "https://dc.lft.to/lastmile_qr_scan"}, "type": "electric_scooter", "lat": 38.916959, "is_reserved": 0, "fusion_lat": 0.0}, {"bike_id": "9dd607d254ce3b42d41239292e0a890c", "fusion_lon": 0.0, "lon": -77.03496066666666, "name": "9dd607d254ce3b42d41239292e0a890c", "is_disabled": 0, "rental_uris": {"android": "https://dc.lft.to/lastmile_qr_scan", "ios": "https://dc.lft.to/lastmile_qr_scan"}, "type": "electric_scooter", "lat": 38.9248, "is_reserved": 0, "fusion_lat": 0.0}, {"bike_id": "5e8645d2cc3830c215c32b484b1bd0f7", "fusion_lon": 0.0, "lon": -77.03469616666666, "name": "5e8645d2cc3830c215c32b484b1bd0f7", "is_disabled": 0, "rental_uris": {"android": "https://dc.lft.to/lastmile_qr_scan", "ios": "https://dc.lft.to/lastmile_qr_scan"}, "type": "electric_scooter", "lat": 38.905612833333336, "is_reserved": 0, "fusion_lat": 0.0}, {"bike_id": "02f19330dcd1825bcd3a55176bfae4b2", "fusion_lon": 0.0, "lon": -77.06697916666667, "name": "02f19330dcd1825bcd3a55176bfae4b2", "is_disabled": 0, "rental_uris": {"android": "https://dc.lft.to/lastmile_qr_scan", "ios": "https://dc.lft.to/lastmile_qr_scan"}, "type": "electric_bike", "lat": 38.83180483333334, "is_reserved": 0, "fusion_lat": 0.0}, {"bike_id": "e03682d5621be28b4966e9b01d145086", "fusion_lon": 0.0, "lon": -77.03251216666666, "name": "e03682d5621be28b4966e9b01d145086", "is_disabled": 0, "rental_uris": {"android": "https://dc.lft.to/lastmile_qr_scan", "ios": "https://dc.lft.to/lastmile_qr_scan"}, "type": "electric_scooter", "lat": 38.93561616666667, "is_reserved": 0, "fusion_lat": 0.0}, {"bike_id": "30f7d39131f74c8fc9bd29081f9279b0", "fusion_lon": 0.0, "lon": -77.0570125, "name": "30f7d39131f74c8fc9bd29081f9279b0", "is_disabled": 0, "rental_uris": {"android": "https://dc.lft.to/lastmile_qr_scan", "ios": "https://dc.lft.to/lastmile_qr_scan"}, "type": "electric_scooter", "lat": 38.90571516666667, "is_reserved": 0, "fusion_lat": 0.0}, {"bike_id": "73411d67872b7ec7892323a459db08c4", "fusion_lon": 0.0, "lon": -77.0397255, "name": "73411d67872b7ec7892323a459db08c4", "is_disabled": 0, "rental_uris": {"android": "https://dc.lft.to/lastmile_qr_scan", "ios": "https://dc.lft.to/lastmile_qr_scan"}, "type": "electric_scooter", "lat": 38.90715333333333, "is_reserved": 0, "fusion_lat": 0.0}, {"bike_id": "dea9834469bc67c66d7cc77afb9b1f00", "fusion_lon": 0.0, "lon": -76.93195066666667, "name": "dea9834469bc67c66d7cc77afb9b1f00", "is_disabled": 0, "rental_uris": {"android": "https://dc.lft.to/lastmile_qr_scan", "ios": "https://dc.lft.to/lastmile_qr_scan"}, "type": "electric_scooter", "lat": 38.898787666666664, "is_reserved": 0, "fusion_lat": 0.0}, {"bike_id": "706f8c262a4f3b5ee7ceb4666ce66edc", "fusion_lon": 0.0, "lon": -77.035533, "name": "706f8c262a4f3b5ee7ceb4666ce66edc", "is_disabled": 0, "rental_uris": {"android": "https://dc.lft.to/lastmile_qr_scan", "ios": "https://dc.lft.to/lastmile_qr_scan"}, "type": "electric_scooter", "lat": 38.92415733333333, "is_reserved": 0, "fusion_lat": 0.0}, {"bike_id": "d2540263f3fa78d217fe6cc8ebaddc37", "fusion_lon": 0.0, "lon": -76.98515533333334, "name": "d2540263f3fa78d217fe6cc8ebaddc37", "is_disabled": 0, "rental_uris": {"android": "https://dc.lft.to/lastmile_qr_scan", "ios": "https://dc.lft.to/lastmile_qr_scan"}, "type": "electric_scooter", "lat": 38.86665133333333, "is_reserved": 0, "fusion_lat": 0.0}, {"bike_id": "9c081b9da0a614e80a087dc0a413cb2b", "fusion_lon": 0.0, "lon": -77.0514205, "name": "9c081b9da0a614e80a087dc0a413cb2b", "is_disabled": 0, "rental_uris": {"android": "https://dc.lft.to/lastmile_qr_scan", "ios": "https://dc.lft.to/lastmile_qr_scan"}, "type": "electric_scooter", "lat": 38.90527, "is_reserved": 0, "fusion_lat": 0.0}, {"bike_id": "49e7d1796078a54e884a53b67eba7a12", "fusion_lon": 0.0, "lon": -76.93538066666666, "name": "49e7d1796078a54e884a53b67eba7a12", "is_disabled": 0, "rental_uris": {"android": "https://dc.lft.to/lastmile_qr_scan", "ios": "https://dc.lft.to/lastmile_qr_scan"}, "type": "electric_bike", "lat": 38.955605166666665, "is_reserved": 0, "fusion_lat": 0.0}, {"bike_id": "7dde8549e2960a011fff60b5e49024f8", "fusion_lon": 0.0, "lon": -77.02938683333333, "name": "7dde8549e2960a011fff60b5e49024f8", "is_disabled": 0, "rental_uris": {"android": "https://dc.lft.to/lastmile_qr_scan", "ios": "https://dc.lft.to/lastmile_qr_scan"}, "type": "electric_scooter", "lat": 38.90513933333333, "is_reserved": 0, "fusion_lat": 0.0}, {"bike_id": "46e89976bceac3c7f6ec5f027df2553b", "fusion_lon": 0.0, "lon": -77.0018505, "name": "46e89976bceac3c7f6ec5f027df2553b", "is_disabled": 0, "rental_uris": {"android": "https://dc.lft.to/lastmile_qr_scan", "ios": "https://dc.lft.to/lastmile_qr_scan"}, "type": "electric_scooter", "lat": 38.900438, "is_reserved": 0, "fusion_lat": 0.0}, {"bike_id": "794b53421d77b5247e1a809dff01c7f7", "fusion_lon": 0.0, "lon": -77.04476283333334, "name": "794b53421d77b5247e1a809dff01c7f7", "is_disabled": 0, "rental_uris": {"android": "https://dc.lft.to/lastmile_qr_scan", "ios": "https://dc.lft.to/lastmile_qr_scan"}, "type": "electric_scooter", "lat": 38.92246433333333, "is_reserved": 0, "fusion_lat": 0.0}, {"bike_id": "87a64b9ce23eda6227731310c7edcf73", "fusion_lon": 0.0, "lon": -77.0158195, "name": "87a64b9ce23eda6227731310c7edcf73", "is_disabled": 0, "rental_uris": {"android": "https://dc.lft.to/lastmile_qr_scan", "ios": "https://dc.lft.to/lastmile_qr_scan"}, "type": "electric_scooter", "lat": 38.891833, "is_reserved": 0, "fusion_lat": 0.0}, {"bike_id": "353d04534d97e1b27fd1738d6499bffc", "fusion_lon": 0.0, "lon": -77.0020465, "name": "353d04534d97e1b27fd1738d6499bffc", "is_disabled": 0, "rental_uris": {"android": "https://dc.lft.to/lastmile_qr_scan", "ios": "https://dc.lft.to/lastmile_qr_scan"}, "type": "electric_scooter", "lat": 38.9004335, "is_reserved": 0, "fusion_lat": 0.0}, {"bike_id": "b783ecc4caf0eb32710fb0ba17eec1a9", "fusion_lon": 0.0, "lon": -77.02709833333333, "name": "b783ecc4caf0eb32710fb0ba17eec1a9", "is_disabled": 0, "rental_uris": {"android": "https://dc.lft.to/lastmile_qr_scan", "ios": "https://dc.lft.to/lastmile_qr_scan"}, "type": "electric_scooter", "lat": 38.9288115, "is_reserved": 0, "fusion_lat": 0.0}, {"bike_id": "4f8b1282029047320c92fcb24915d3bb", "fusion_lon": 0.0, "lon": -77.03436616666667, "name": "4f8b1282029047320c92fcb24915d3bb", "is_disabled": 0, "rental_uris": {"android": "https://dc.lft.to/lastmile_qr_scan", "ios": "https://dc.lft.to/lastmile_qr_scan"}, "type": "electric_scooter", "lat": 38.90766583333333, "is_reserved": 0, "fusion_lat": 0.0}, {"bike_id": "1a558dd187630a0f7c17d91246f74a28", "fusion_lon": 0.0, "lon": -76.99777266666666, "name": "1a558dd187630a0f7c17d91246f74a28", "is_disabled": 0, "rental_uris": {"android": "https://dc.lft.to/lastmile_qr_scan", "ios": "https://dc.lft.to/lastmile_qr_scan"}, "type": "electric_scooter", "lat": 38.844268666666665, "is_reserved": 0, "fusion_lat": 0.0}, {"bike_id": "da63ee8f1f68b8bdefb5c6e3bd7c5e74", "fusion_lon": 0.0, "lon": -76.94635083333333, "name": "da63ee8f1f68b8bdefb5c6e3bd7c5e74", "is_disabled": 0, "rental_uris": {"android": "https://dc.lft.to/lastmile_qr_scan", "ios": "https://dc.lft.to/lastmile_qr_scan"}, "type": "electric_scooter", "lat": 38.898438, "is_reserved": 0, "fusion_lat": 0.0}, {"bike_id": "fae28d584a8a1ef13af055463acef218", "fusion_lon": 0.0, "lon": -76.957514, "name": "fae28d584a8a1ef13af055463acef218", "is_disabled": 0, "rental_uris": {"android": "https://dc.lft.to/lastmile_qr_scan", "ios": "https://dc.lft.to/lastmile_qr_scan"}, "type": "electric_scooter", "lat": 38.8842965, "is_reserved": 0, "fusion_lat": 0.0}, {"bike_id": "32a91477a54553ec851c063d9b2bdc09", "fusion_lon": 0.0, "lon": -77.003345, "name": "32a91477a54553ec851c063d9b2bdc09", "is_disabled": 0, "rental_uris": {"android": "https://dc.lft.to/lastmile_qr_scan", "ios": "https://dc.lft.to/lastmile_qr_scan"}, "type": "electric_scooter", "lat": 38.89526016666667, "is_reserved": 0, "fusion_lat": 0.0}, {"bike_id": "94ae38dbf0bd8880ae2a74962a9fcdc0", "fusion_lon": 0.0, "lon": -76.99775866666667, "name": "94ae38dbf0bd8880ae2a74962a9fcdc0", "is_disabled": 0, "rental_uris": {"android": "https://dc.lft.to/lastmile_qr_scan", "ios": "https://dc.lft.to/lastmile_qr_scan"}, "type": "electric_scooter", "lat": 38.844361, "is_reserved": 0, "fusion_lat": 0.0}, {"bike_id": "c525547b3da8fbc4f886be27267fd2d8", "fusion_lon": 0.0, "lon": -77.02027883333334, "name": "c525547b3da8fbc4f886be27267fd2d8", "is_disabled": 0, "rental_uris": {"android": "https://dc.lft.to/lastmile_qr_scan", "ios": "https://dc.lft.to/lastmile_qr_scan"}, "type": "electric_scooter", "lat": 38.924112666666666, "is_reserved": 0, "fusion_lat": 0.0}, {"bike_id": "06555678cd7dd3cac7b6189dfbe1371e", "fusion_lon": 0.0, "lon": -76.97105066666667, "name": "06555678cd7dd3cac7b6189dfbe1371e", "is_disabled": 0, "rental_uris": {"android": "https://dc.lft.to/lastmile_qr_scan", "ios": "https://dc.lft.to/lastmile_qr_scan"}, "type": "electric_bike", "lat": 38.857101666666665, "is_reserved": 0, "fusion_lat": 0.0}, {"bike_id": "0d8df1d094828effdc7f5e4ca25da1cf", "fusion_lon": 0.0, "lon": -76.93757583333333, "name": "0d8df1d094828effdc7f5e4ca25da1cf", "is_disabled": 0, "rental_uris": {"android": "https://dc.lft.to/lastmile_qr_scan", "ios": "https://dc.lft.to/lastmile_qr_scan"}, "type": "electric_scooter", "lat": 38.890450666666666, "is_reserved": 0, "fusion_lat": 0.0}, {"bike_id": "8e3b364509c0ae68b7a64a1a1e5cce9a", "fusion_lon": 0.0, "lon": -77.050445, "name": "8e3b364509c0ae68b7a64a1a1e5cce9a", "is_disabled": 0, "rental_uris": {"android": "https://dc.lft.to/lastmile_qr_scan", "ios": "https://dc.lft.to/lastmile_qr_scan"}, "type": "electric_scooter", "lat": 38.900927333333335, "is_reserved": 0, "fusion_lat": 0.0}, {"bike_id": "827ac05183f412364af48c6737d6d525", "fusion_lon": 0.0, "lon": -77.11754616666667, "name": "827ac05183f412364af48c6737d6d525", "is_disabled": 0, "rental_uris": {"android": "https://dc.lft.to/lastmile_qr_scan", "ios": "https://dc.lft.to/lastmile_qr_scan"}, "type": "electric_bike", "lat": 39.049033, "is_reserved": 0, "fusion_lat": 0.0}, {"bike_id": "027893145a6ed3a33dc0c25f80f26c85", "fusion_lon": 0.0, "lon": -76.99224366666667, "name": "027893145a6ed3a33dc0c25f80f26c85", "is_disabled": 0, "rental_uris": {"android": "https://dc.lft.to/lastmile_qr_scan", "ios": "https://dc.lft.to/lastmile_qr_scan"}, "type": "electric_bike", "lat": 38.897406833333335, "is_reserved": 0, "fusion_lat": 0.0}, {"bike_id": "37efc48a6d8c0d665bed6fa18cabbe2e", "fusion_lon": 0.0, "lon": -77.01132866666667, "name": "37efc48a6d8c0d665bed6fa18cabbe2e", "is_disabled": 0, "rental_uris": {"android": "https://dc.lft.to/lastmile_qr_scan", "ios": "https://dc.lft.to/lastmile_qr_scan"}, "type": "electric_scooter", "lat": 38.885251333333336, "is_reserved": 0, "fusion_lat": 0.0}, {"bike_id": "cb4ac43fd0c1508468255c363229b4e9", "fusion_lon": 0.0, "lon": -77.04310433333333, "name": "cb4ac43fd0c1508468255c363229b4e9", "is_disabled": 0, "rental_uris": {"android": "https://dc.lft.to/lastmile_qr_scan", "ios": "https://dc.lft.to/lastmile_qr_scan"}, "type": "electric_scooter", "lat": 38.88106966666667, "is_reserved": 0, "fusion_lat": 0.0}, {"bike_id": "695224174c97141d63524341d563efea", "fusion_lon": 0.0, "lon": -77.0217245, "name": "695224174c97141d63524341d563efea", "is_disabled": 0, "rental_uris": {"android": "https://dc.lft.to/lastmile_qr_scan", "ios": "https://dc.lft.to/lastmile_qr_scan"}, "type": "electric_scooter", "lat": 38.942912666666665, "is_reserved": 0, "fusion_lat": 0.0}, {"bike_id": "7a20769f7340de80a518b5af89b2367c", "fusion_lon": 0.0, "lon": -76.971842, "name": "7a20769f7340de80a518b5af89b2367c", "is_disabled": 0, "rental_uris": {"android": "https://dc.lft.to/lastmile_qr_scan", "ios": "https://dc.lft.to/lastmile_qr_scan"}, "type": "electric_bike", "lat": 38.917942833333335, "is_reserved": 0, "fusion_lat": 0.0}, {"bike_id": "44b492692fbe451c249c9e9b3afccc43", "fusion_lon": 0.0, "lon": -77.06593633333334, "name": "44b492692fbe451c249c9e9b3afccc43", "is_disabled": 0, "rental_uris": {"android": "https://dc.lft.to/lastmile_qr_scan", "ios": "https://dc.lft.to/lastmile_qr_scan"}, "type": "electric_scooter", "lat": 38.903841666666665, "is_reserved": 0, "fusion_lat": 0.0}, {"bike_id": "adb18465c3fdc31917711bd246a03e51", "fusion_lon": 0.0, "lon": -76.99358333333333, "name": "adb18465c3fdc31917711bd246a03e51", "is_disabled": 0, "rental_uris": {"android": "https://dc.lft.to/lastmile_qr_scan", "ios": "https://dc.lft.to/lastmile_qr_scan"}, "type": "electric_scooter", "lat": 38.9240295, "is_reserved": 0, "fusion_lat": 0.0}, {"bike_id": "6efc878976c9a98356b532820320adb2", "fusion_lon": 0.0, "lon": -77.02361233333333, "name": "6efc878976c9a98356b532820320adb2", "is_disabled": 0, "rental_uris": {"android": "https://dc.lft.to/lastmile_qr_scan", "ios": "https://dc.lft.to/lastmile_qr_scan"}, "type": "electric_scooter", "lat": 38.884811, "is_reserved": 0, "fusion_lat": 0.0}, {"bike_id": "67788547e97949b25b1761f298f03ece", "fusion_lon": 0.0, "lon": -77.13141566666667, "name": "67788547e97949b25b1761f298f03ece", "is_disabled": 0, "rental_uris": {"android": "https://dc.lft.to/lastmile_qr_scan", "ios": "https://dc.lft.to/lastmile_qr_scan"}, "type": "electric_bike", "lat": 38.861692, "is_reserved": 0, "fusion_lat": 0.0}, {"bike_id": "ff17584bd2578ff6633902b7baa64447", "fusion_lon": 0.0, "lon": -77.02489333333334, "name": "ff17584bd2578ff6633902b7baa64447", "is_disabled": 0, "rental_uris": {"android": "https://dc.lft.to/lastmile_qr_scan", "ios": "https://dc.lft.to/lastmile_qr_scan"}, "type": "electric_scooter", "lat": 38.941875333333336, "is_reserved": 0, "fusion_lat": 0.0}, {"bike_id": "58d14d1a8674210a6efddfa96cf15bd0", "fusion_lon": 0.0, "lon": -77.02035116666667, "name": "58d14d1a8674210a6efddfa96cf15bd0", "is_disabled": 0, "rental_uris": {"android": "https://dc.lft.to/lastmile_qr_scan", "ios": "https://dc.lft.to/lastmile_qr_scan"}, "type": "electric_scooter", "lat": 38.90147983333333, "is_reserved": 0, "fusion_lat": 0.0}, {"bike_id": "a635f93de06a1dc661303753b1cdd55a", "fusion_lon": 0.0, "lon": -77.021127, "name": "a635f93de06a1dc661303753b1cdd55a", "is_disabled": 0, "rental_uris": {"android": "https://dc.lft.to/lastmile_qr_scan", "ios": "https://dc.lft.to/lastmile_qr_scan"}, "type": "electric_scooter", "lat": 38.91738333333333, "is_reserved": 0, "fusion_lat": 0.0}, {"bike_id": "71e437dd280f07986d07cb9548e5b939", "fusion_lon": 0.0, "lon": -76.988206, "name": "71e437dd280f07986d07cb9548e5b939", "is_disabled": 0, "rental_uris": {"android": "https://dc.lft.to/lastmile_qr_scan", "ios": "https://dc.lft.to/lastmile_qr_scan"}, "type": "electric_scooter", "lat": 38.90036933333333, "is_reserved": 0, "fusion_lat": 0.0}, {"bike_id": "d0b24f22be3b5a6f6d2593c675d2049a", "fusion_lon": 0.0, "lon": -77.03469033333333, "name": "d0b24f22be3b5a6f6d2593c675d2049a", "is_disabled": 0, "rental_uris": {"android": "https://dc.lft.to/lastmile_qr_scan", "ios": "https://dc.lft.to/lastmile_qr_scan"}, "type": "electric_scooter", "lat": 38.91702633333333, "is_reserved": 0, "fusion_lat": 0.0}, {"bike_id": "baf085bc77a87561875a3d43764f1ba6", "fusion_lon": 0.0, "lon": -77.03116666666666, "name": "baf085bc77a87561875a3d43764f1ba6", "is_disabled": 0, "rental_uris": {"android": "https://dc.lft.to/lastmile_qr_scan", "ios": "https://dc.lft.to/lastmile_qr_scan"}, "type": "electric_scooter", "lat": 38.894746166666664, "is_reserved": 0, "fusion_lat": 0.0}, {"bike_id": "35ead00c69521c619b8abf3303167fc9", "fusion_lon": 0.0, "lon": -77.026837, "name": "35ead00c69521c619b8abf3303167fc9", "is_disabled": 0, "rental_uris": {"android": "https://dc.lft.to/lastmile_qr_scan", "ios": "https://dc.lft.to/lastmile_qr_scan"}, "type": "electric_scooter", "lat": 38.9237925, "is_reserved": 0, "fusion_lat": 0.0}, {"bike_id": "aaf545b886f50c946e83cd6eae24076d", "fusion_lon": 0.0, "lon": -77.05494516666667, "name": "aaf545b886f50c946e83cd6eae24076d", "is_disabled": 0, "rental_uris": {"android": "https://dc.lft.to/lastmile_qr_scan", "ios": "https://dc.lft.to/lastmile_qr_scan"}, "type": "electric_scooter", "lat": 38.93662466666667, "is_reserved": 0, "fusion_lat": 0.0}, {"bike_id": "b3a6a8b9a71fa907ba7ed9937c3fe12b", "fusion_lon": 0.0, "lon": -77.00200366666667, "name": "b3a6a8b9a71fa907ba7ed9937c3fe12b", "is_disabled": 0, "rental_uris": {"android": "https://dc.lft.to/lastmile_qr_scan", "ios": "https://dc.lft.to/lastmile_qr_scan"}, "type": "electric_bike", "lat": 38.819423666666665, "is_reserved": 0, "fusion_lat": 0.0}, {"bike_id": "5f6662619446af783848cddafd46f66b", "fusion_lon": 0.0, "lon": -77.03278383333334, "name": "5f6662619446af783848cddafd46f66b", "is_disabled": 0, "rental_uris": {"android": "https://dc.lft.to/lastmile_qr_scan", "ios": "https://dc.lft.to/lastmile_qr_scan"}, "type": "electric_scooter", "lat": 38.93402783333333, "is_reserved": 0, "fusion_lat": 0.0}, {"bike_id": "126da61b6d49681b9553735009966588", "fusion_lon": 0.0, "lon": -77.02295, "name": "126da61b6d49681b9553735009966588", "is_disabled": 0, "rental_uris": {"android": "https://dc.lft.to/lastmile_qr_scan", "ios": "https://dc.lft.to/lastmile_qr_scan"}, "type": "electric_scooter", "lat": 38.91547666666666, "is_reserved": 0, "fusion_lat": 0.0}, {"bike_id": "eee4a9ecb1ccaa8b4660d2a85bafcfd5", "fusion_lon": 0.0, "lon": -77.0401685, "name": "eee4a9ecb1ccaa8b4660d2a85bafcfd5", "is_disabled": 0, "rental_uris": {"android": "https://dc.lft.to/lastmile_qr_scan", "ios": "https://dc.lft.to/lastmile_qr_scan"}, "type": "electric_scooter", "lat": 38.9226905, "is_reserved": 0, "fusion_lat": 0.0}, {"bike_id": "b85a2f61753d79f176d34b1cfe0b52ae", "fusion_lon": 0.0, "lon": -77.028077, "name": "b85a2f61753d79f176d34b1cfe0b52ae", "is_disabled": 0, "rental_uris": {"android": "https://dc.lft.to/lastmile_qr_scan", "ios": "https://dc.lft.to/lastmile_qr_scan"}, "type": "electric_scooter", "lat": 38.911277166666665, "is_reserved": 0, "fusion_lat": 0.0}, {"bike_id": "c1cd635695913bf793636b6a63c38543", "fusion_lon": 0.0, "lon": -77.00605833333333, "name": "c1cd635695913bf793636b6a63c38543", "is_disabled": 0, "rental_uris": {"android": "https://dc.lft.to/lastmile_qr_scan", "ios": "https://dc.lft.to/lastmile_qr_scan"}, "type": "electric_scooter", "lat": 38.87775583333333, "is_reserved": 0, "fusion_lat": 0.0}, {"bike_id": "195612c8a1dc5d7a47a0dd70f3f872b9", "fusion_lon": 0.0, "lon": -77.03417633333333, "name": "195612c8a1dc5d7a47a0dd70f3f872b9", "is_disabled": 0, "rental_uris": {"android": "https://dc.lft.to/lastmile_qr_scan", "ios": "https://dc.lft.to/lastmile_qr_scan"}, "type": "electric_scooter", "lat": 38.919227166666666, "is_reserved": 0, "fusion_lat": 0.0}, {"bike_id": "7b50138da237eebd715de81bfd0bbcaf", "fusion_lon": 0.0, "lon": -77.021698, "name": "7b50138da237eebd715de81bfd0bbcaf", "is_disabled": 0, "rental_uris": {"android": "https://dc.lft.to/lastmile_qr_scan", "ios": "https://dc.lft.to/lastmile_qr_scan"}, "type": "electric_scooter", "lat": 38.92506733333333, "is_reserved": 0, "fusion_lat": 0.0}, {"bike_id": "050ea4d0ec8f7b8f6e32e4bdf7c7e245", "fusion_lon": 0.0, "lon": -77.04840366666667, "name": "050ea4d0ec8f7b8f6e32e4bdf7c7e245", "is_disabled": 0, "rental_uris": {"android": "https://dc.lft.to/lastmile_qr_scan", "ios": "https://dc.lft.to/lastmile_qr_scan"}, "type": "electric_scooter", "lat": 38.91182933333333, "is_reserved": 0, "fusion_lat": 0.0}, {"bike_id": "2a7176535689470cb948945a6609bf12", "fusion_lon": 0.0, "lon": -77.02305066666666, "name": "2a7176535689470cb948945a6609bf12", "is_disabled": 0, "rental_uris": {"android": "https://dc.lft.to/lastmile_qr_scan", "ios": "https://dc.lft.to/lastmile_qr_scan"}, "type": "electric_scooter", "lat": 38.9160305, "is_reserved": 0, "fusion_lat": 0.0}, {"bike_id": "4c6ecd1c2d75232117981d818e082504", "fusion_lon": 0.0, "lon": -77.04124833333333, "name": "4c6ecd1c2d75232117981d818e082504", "is_disabled": 0, "rental_uris": {"android": "https://dc.lft.to/lastmile_qr_scan", "ios": "https://dc.lft.to/lastmile_qr_scan"}, "type": "electric_scooter", "lat": 38.921413, "is_reserved": 0, "fusion_lat": 0.0}, {"bike_id": "127395fa9615733f6f2337d75a0037f9", "fusion_lon": 0.0, "lon": -77.04131533333333, "name": "127395fa9615733f6f2337d75a0037f9", "is_disabled": 0, "rental_uris": {"android": "https://dc.lft.to/lastmile_qr_scan", "ios": "https://dc.lft.to/lastmile_qr_scan"}, "type": "electric_bike", "lat": 38.8050635, "is_reserved": 0, "fusion_lat": 0.0}, {"bike_id": "18b1c298561b4172018df615009714be", "fusion_lon": 0.0, "lon": -77.0295795, "name": "18b1c298561b4172018df615009714be", "is_disabled": 0, "rental_uris": {"android": "https://dc.lft.to/lastmile_qr_scan", "ios": "https://dc.lft.to/lastmile_qr_scan"}, "type": "electric_scooter", "lat": 38.9228815, "is_reserved": 0, "fusion_lat": 0.0}, {"bike_id": "33f4e61cc83801fd860d89821b1bb692", "fusion_lon": 0.0, "lon": -76.95094233333333, "name": "33f4e61cc83801fd860d89821b1bb692", "is_disabled": 0, "rental_uris": {"android": "https://dc.lft.to/lastmile_qr_scan", "ios": "https://dc.lft.to/lastmile_qr_scan"}, "type": "electric_scooter", "lat": 38.884489333333335, "is_reserved": 0, "fusion_lat": 0.0}, {"bike_id": "475adb86029bb09f2b7c5384f4d4c740", "fusion_lon": 0.0, "lon": -77.04002283333334, "name": "475adb86029bb09f2b7c5384f4d4c740", "is_disabled": 0, "rental_uris": {"android": "https://dc.lft.to/lastmile_qr_scan", "ios": "https://dc.lft.to/lastmile_qr_scan"}, "type": "electric_scooter", "lat": 38.9048315, "is_reserved": 0, "fusion_lat": 0.0}, {"bike_id": "9ddeb6f607cb07969e684219ed527af2", "fusion_lon": 0.0, "lon": -77.034136, "name": "9ddeb6f607cb07969e684219ed527af2", "is_disabled": 0, "rental_uris": {"android": "https://dc.lft.to/lastmile_qr_scan", "ios": "https://dc.lft.to/lastmile_qr_scan"}, "type": "electric_scooter", "lat": 38.9072145, "is_reserved": 0, "fusion_lat": 0.0}, {"bike_id": "4a77eddd03a49c2dbc2d1de19566e118", "fusion_lon": 0.0, "lon": -77.0414135, "name": "4a77eddd03a49c2dbc2d1de19566e118", "is_disabled": 0, "rental_uris": {"android": "https://dc.lft.to/lastmile_qr_scan", "ios": "https://dc.lft.to/lastmile_qr_scan"}, "type": "electric_scooter", "lat": 38.92297966666667, "is_reserved": 0, "fusion_lat": 0.0}, {"bike_id": "9bb0ac52d9f8b9fa2afd9b21b8261cdb", "fusion_lon": 0.0, "lon": -76.93729433333333, "name": "9bb0ac52d9f8b9fa2afd9b21b8261cdb", "is_disabled": 0, "rental_uris": {"android": "https://dc.lft.to/lastmile_qr_scan", "ios": "https://dc.lft.to/lastmile_qr_scan"}, "type": "electric_scooter", "lat": 38.890164, "is_reserved": 0, "fusion_lat": 0.0}, {"bike_id": "5c4c111a9561a5fa2fa7c28951ee1e2c", "fusion_lon": 0.0, "lon": -76.97271516666666, "name": "5c4c111a9561a5fa2fa7c28951ee1e2c", "is_disabled": 0, "rental_uris": {"android": "https://dc.lft.to/lastmile_qr_scan", "ios": "https://dc.lft.to/lastmile_qr_scan"}, "type": "electric_bike", "lat": 38.919603, "is_reserved": 0, "fusion_lat": 0.0}, {"bike_id": "d001930617969dc27b7dbc3c7be776e1", "fusion_lon": 0.0, "lon": -77.04647716666666, "name": "d001930617969dc27b7dbc3c7be776e1", "is_disabled": 0, "rental_uris": {"android": "https://dc.lft.to/lastmile_qr_scan", "ios": "https://dc.lft.to/lastmile_qr_scan"}, "type": "electric_bike", "lat": 39.05504766666667, "is_reserved": 0, "fusion_lat": 0.0}, {"bike_id": "e6cdef05883eac58afac971d64ae84e0", "fusion_lon": 0.0, "lon": -77.03692383333333, "name": "e6cdef05883eac58afac971d64ae84e0", "is_disabled": 0, "rental_uris": {"android": "https://dc.lft.to/lastmile_qr_scan", "ios": "https://dc.lft.to/lastmile_qr_scan"}, "type": "electric_bike", "lat": 38.93975733333333, "is_reserved": 0, "fusion_lat": 0.0}, {"bike_id": "07be10df76df38760f7cfb6e85a6fd8c", "fusion_lon": 0.0, "lon": -77.02155483333334, "name": "07be10df76df38760f7cfb6e85a6fd8c", "is_disabled": 0, "rental_uris": {"android": "https://dc.lft.to/lastmile_qr_scan", "ios": "https://dc.lft.to/lastmile_qr_scan"}, "type": "electric_scooter", "lat": 38.92497266666667, "is_reserved": 0, "fusion_lat": 0.0}, {"bike_id": "86f052123baf31778dbe7f9904d9435a", "fusion_lon": 0.0, "lon": -77.04853766666666, "name": "86f052123baf31778dbe7f9904d9435a", "is_disabled": 0, "rental_uris": {"android": "https://dc.lft.to/lastmile_qr_scan", "ios": "https://dc.lft.to/lastmile_qr_scan"}, "type": "electric_scooter", "lat": 38.904720166666664, "is_reserved": 0, "fusion_lat": 0.0}, {"bike_id": "6ef85d1cb166d9990c72da644b31f080", "fusion_lon": 0.0, "lon": -77.03359233333333, "name": "6ef85d1cb166d9990c72da644b31f080", "is_disabled": 0, "rental_uris": {"android": "https://dc.lft.to/lastmile_qr_scan", "ios": "https://dc.lft.to/lastmile_qr_scan"}, "type": "electric_scooter", "lat": 38.9216115, "is_reserved": 0, "fusion_lat": 0.0}, {"bike_id": "a91f89ee85c0edc9071a7c548491a234", "fusion_lon": 0.0, "lon": -77.012902, "name": "a91f89ee85c0edc9071a7c548491a234", "is_disabled": 0, "rental_uris": {"android": "https://dc.lft.to/lastmile_qr_scan", "ios": "https://dc.lft.to/lastmile_qr_scan"}, "type": "electric_bike", "lat": 39.0038275, "is_reserved": 0, "fusion_lat": 0.0}, {"bike_id": "81edd9ed50e4bc89f153c8c5b61cc5cf", "fusion_lon": 0.0, "lon": -77.058827, "name": "81edd9ed50e4bc89f153c8c5b61cc5cf", "is_disabled": 0, "rental_uris": {"android": "https://dc.lft.to/lastmile_qr_scan", "ios": "https://dc.lft.to/lastmile_qr_scan"}, "type": "electric_bike", "lat": 38.95895266666667, "is_reserved": 0, "fusion_lat": 0.0}, {"bike_id": "4939a0c2456e18f8b20eb073ea091e5b", "fusion_lon": 0.0, "lon": -77.02380483333333, "name": "4939a0c2456e18f8b20eb073ea091e5b", "is_disabled": 0, "rental_uris": {"android": "https://dc.lft.to/lastmile_qr_scan", "ios": "https://dc.lft.to/lastmile_qr_scan"}, "type": "electric_scooter", "lat": 38.90205566666667, "is_reserved": 0, "fusion_lat": 0.0}, {"bike_id": "03aaad4ce39b3ea957ad1aa605ba7c0b", "fusion_lon": 0.0, "lon": -77.01693616666667, "name": "03aaad4ce39b3ea957ad1aa605ba7c0b", "is_disabled": 0, "rental_uris": {"android": "https://dc.lft.to/lastmile_qr_scan", "ios": "https://dc.lft.to/lastmile_qr_scan"}, "type": "electric_scooter", "lat": 38.91176866666667, "is_reserved": 0, "fusion_lat": 0.0}, {"bike_id": "002d86d983b4294d8116394c24b883b0", "fusion_lon": 0.0, "lon": -77.21647566666667, "name": "002d86d983b4294d8116394c24b883b0", "is_disabled": 0, "rental_uris": {"android": "https://dc.lft.to/lastmile_qr_scan", "ios": "https://dc.lft.to/lastmile_qr_scan"}, "type": "electric_bike", "lat": 38.930126, "is_reserved": 0, "fusion_lat": 0.0}, {"bike_id": "84ed0667f024981832644de6611b80ca", "fusion_lon": 0.0, "lon": -77.02884383333334, "name": "84ed0667f024981832644de6611b80ca", "is_disabled": 0, "rental_uris": {"android": "https://dc.lft.to/lastmile_qr_scan", "ios": "https://dc.lft.to/lastmile_qr_scan"}, "type": "electric_bike", "lat": 38.9987515, "is_reserved": 0, "fusion_lat": 0.0}, {"bike_id": "f735e02db2ba357cab1dcc3e66dabcab", "fusion_lon": 0.0, "lon": -77.0025765, "name": "f735e02db2ba357cab1dcc3e66dabcab", "is_disabled": 0, "rental_uris": {"android": "https://dc.lft.to/lastmile_qr_scan", "ios": "https://dc.lft.to/lastmile_qr_scan"}, "type": "electric_scooter", "lat": 38.905807833333334, "is_reserved": 0, "fusion_lat": 0.0}, {"bike_id": "375e2a10539c4bec0f9a9190e8251fc8", "fusion_lon": 0.0, "lon": -77.04583166666667, "name": "375e2a10539c4bec0f9a9190e8251fc8", "is_disabled": 0, "rental_uris": {"android": "https://dc.lft.to/lastmile_qr_scan", "ios": "https://dc.lft.to/lastmile_qr_scan"}, "type": "electric_scooter", "lat": 38.91859483333333, "is_reserved": 0, "fusion_lat": 0.0}, {"bike_id": "cab2e79647d587c75d4636aa65d6b172", "fusion_lon": 0.0, "lon": -76.997763, "name": "cab2e79647d587c75d4636aa65d6b172", "is_disabled": 0, "rental_uris": {"android": "https://dc.lft.to/lastmile_qr_scan", "ios": "https://dc.lft.to/lastmile_qr_scan"}, "type": "electric_scooter", "lat": 38.84427133333333, "is_reserved": 0, "fusion_lat": 0.0}, {"bike_id": "caedbf17422963843549dd934fa36e30", "fusion_lon": 0.0, "lon": -76.95755783333334, "name": "caedbf17422963843549dd934fa36e30", "is_disabled": 0, "rental_uris": {"android": "https://dc.lft.to/lastmile_qr_scan", "ios": "https://dc.lft.to/lastmile_qr_scan"}, "type": "electric_scooter", "lat": 38.88430983333333, "is_reserved": 0, "fusion_lat": 0.0}, {"bike_id": "4dd04e9cd9c07c181787c0ce937f2b3e", "fusion_lon": 0.0, "lon": -77.1059945, "name": "4dd04e9cd9c07c181787c0ce937f2b3e", "is_disabled": 0, "rental_uris": {"android": "https://dc.lft.to/lastmile_qr_scan", "ios": "https://dc.lft.to/lastmile_qr_scan"}, "type": "electric_bike", "lat": 38.92897283333333, "is_reserved": 0, "fusion_lat": 0.0}, {"bike_id": "1ccfee7128fc08e7003cc63c6c7da78d", "fusion_lon": 0.0, "lon": -77.0345315, "name": "1ccfee7128fc08e7003cc63c6c7da78d", "is_disabled": 0, "rental_uris": {"android": "https://dc.lft.to/lastmile_qr_scan", "ios": "https://dc.lft.to/lastmile_qr_scan"}, "type": "electric_scooter", "lat": 38.9055085, "is_reserved": 0, "fusion_lat": 0.0}, {"bike_id": "c460f238d432f9b493c0155f158cb416", "fusion_lon": 0.0, "lon": -77.01583883333333, "name": "c460f238d432f9b493c0155f158cb416", "is_disabled": 0, "rental_uris": {"android": "https://dc.lft.to/lastmile_qr_scan", "ios": "https://dc.lft.to/lastmile_qr_scan"}, "type": "electric_scooter", "lat": 38.91682516666667, "is_reserved": 0, "fusion_lat": 0.0}, {"bike_id": "baa38e233d2871e51ae17362eb59561e", "fusion_lon": 0.0, "lon": -76.94965083333334, "name": "baa38e233d2871e51ae17362eb59561e", "is_disabled": 0, "rental_uris": {"android": "https://dc.lft.to/lastmile_qr_scan", "ios": "https://dc.lft.to/lastmile_qr_scan"}, "type": "electric_scooter", "lat": 38.89362, "is_reserved": 0, "fusion_lat": 0.0}, {"bike_id": "d2f89bd2fb9898215baa589302ca8c3a", "fusion_lon": 0.0, "lon": -76.98072983333333, "name": "d2f89bd2fb9898215baa589302ca8c3a", "is_disabled": 0, "rental_uris": {"android": "https://dc.lft.to/lastmile_qr_scan", "ios": "https://dc.lft.to/lastmile_qr_scan"}, "type": "electric_scooter", "lat": 38.90168666666667, "is_reserved": 0, "fusion_lat": 0.0}, {"bike_id": "8e09974979710308c8d1b17ea29fe909", "fusion_lon": 0.0, "lon": -77.04865316666667, "name": "8e09974979710308c8d1b17ea29fe909", "is_disabled": 0, "rental_uris": {"android": "https://dc.lft.to/lastmile_qr_scan", "ios": "https://dc.lft.to/lastmile_qr_scan"}, "type": "electric_scooter", "lat": 38.91527133333334, "is_reserved": 0, "fusion_lat": 0.0}, {"bike_id": "f576918042c7f2ba73ee037200484898", "fusion_lon": 0.0, "lon": -77.000964, "name": "f576918042c7f2ba73ee037200484898", "is_disabled": 0, "rental_uris": {"android": "https://dc.lft.to/lastmile_qr_scan", "ios": "https://dc.lft.to/lastmile_qr_scan"}, "type": "electric_scooter", "lat": 38.8764995, "is_reserved": 0, "fusion_lat": 0.0}, {"bike_id": "564d165ece71bd3136e633e90c8842aa", "fusion_lon": 0.0, "lon": -77.02121683333333, "name": "564d165ece71bd3136e633e90c8842aa", "is_disabled": 0, "rental_uris": {"android": "https://dc.lft.to/lastmile_qr_scan", "ios": "https://dc.lft.to/lastmile_qr_scan"}, "type": "electric_scooter", "lat": 38.88748, "is_reserved": 0, "fusion_lat": 0.0}, {"bike_id": "6f7e2b26891b109bd4660f7cbcb09a00", "fusion_lon": 0.0, "lon": -77.044769, "name": "6f7e2b26891b109bd4660f7cbcb09a00", "is_disabled": 0, "rental_uris": {"android": "https://dc.lft.to/lastmile_qr_scan", "ios": "https://dc.lft.to/lastmile_qr_scan"}, "type": "electric_scooter", "lat": 38.91162766666667, "is_reserved": 0, "fusion_lat": 0.0}, {"bike_id": "77bdce3145714cd792cb6c88518e77f3", "fusion_lon": 0.0, "lon": -77.074184, "name": "77bdce3145714cd792cb6c88518e77f3", "is_disabled": 0, "rental_uris": {"android": "https://dc.lft.to/lastmile_qr_scan", "ios": "https://dc.lft.to/lastmile_qr_scan"}, "type": "electric_scooter", "lat": 38.91305716666667, "is_reserved": 0, "fusion_lat": 0.0}, {"bike_id": "aee485306942ddfe31f2e1db1f7bec95", "fusion_lon": 0.0, "lon": -76.97169716666667, "name": "aee485306942ddfe31f2e1db1f7bec95", "is_disabled": 0, "rental_uris": {"android": "https://dc.lft.to/lastmile_qr_scan", "ios": "https://dc.lft.to/lastmile_qr_scan"}, "type": "electric_scooter", "lat": 38.854268833333336, "is_reserved": 0, "fusion_lat": 0.0}, {"bike_id": "f7101559129e939a5fb739f0c62060dd", "fusion_lon": 0.0, "lon": -76.932859, "name": "f7101559129e939a5fb739f0c62060dd", "is_disabled": 0, "rental_uris": {"android": "https://dc.lft.to/lastmile_qr_scan", "ios": "https://dc.lft.to/lastmile_qr_scan"}, "type": "electric_scooter", "lat": 38.881504, "is_reserved": 0, "fusion_lat": 0.0}, {"bike_id": "b29abff214acb32836cd76abf5701991", "fusion_lon": 0.0, "lon": -76.99684083333334, "name": "b29abff214acb32836cd76abf5701991", "is_disabled": 0, "rental_uris": {"android": "https://dc.lft.to/lastmile_qr_scan", "ios": "https://dc.lft.to/lastmile_qr_scan"}, "type": "electric_scooter", "lat": 38.9083335, "is_reserved": 0, "fusion_lat": 0.0}, {"bike_id": "237a53bd89457993c83dd658af6410a7", "fusion_lon": 0.0, "lon": -77.02200816666667, "name": "237a53bd89457993c83dd658af6410a7", "is_disabled": 0, "rental_uris": {"android": "https://dc.lft.to/lastmile_qr_scan", "ios": "https://dc.lft.to/lastmile_qr_scan"}, "type": "electric_scooter", "lat": 38.90222133333333, "is_reserved": 0, "fusion_lat": 0.0}, {"bike_id": "ecb751471458befc80b7ced224cc7950", "fusion_lon": 0.0, "lon": -77.0282035, "name": "ecb751471458befc80b7ced224cc7950", "is_disabled": 0, "rental_uris": {"android": "https://dc.lft.to/lastmile_qr_scan", "ios": "https://dc.lft.to/lastmile_qr_scan"}, "type": "electric_scooter", "lat": 38.932060166666666, "is_reserved": 0, "fusion_lat": 0.0}, {"bike_id": "370d6f096ff7d25f49850cb0db96f747", "fusion_lon": 0.0, "lon": -77.03254766666667, "name": "370d6f096ff7d25f49850cb0db96f747", "is_disabled": 0, "rental_uris": {"android": "https://dc.lft.to/lastmile_qr_scan", "ios": "https://dc.lft.to/lastmile_qr_scan"}, "type": "electric_scooter", "lat": 38.939741833333336, "is_reserved": 0, "fusion_lat": 0.0}, {"bike_id": "a7cff4f7536712010a3dc76bf4b4e445", "fusion_lon": 0.0, "lon": -77.01789216666667, "name": "a7cff4f7536712010a3dc76bf4b4e445", "is_disabled": 0, "rental_uris": {"android": "https://dc.lft.to/lastmile_qr_scan", "ios": "https://dc.lft.to/lastmile_qr_scan"}, "type": "electric_scooter", "lat": 38.9041775, "is_reserved": 0, "fusion_lat": 0.0}, {"bike_id": "31a1402681926f20ad23d830d447e8ff", "fusion_lon": 0.0, "lon": -77.0219675, "name": "31a1402681926f20ad23d830d447e8ff", "is_disabled": 0, "rental_uris": {"android": "https://dc.lft.to/lastmile_qr_scan", "ios": "https://dc.lft.to/lastmile_qr_scan"}, "type": "electric_scooter", "lat": 38.91847966666667, "is_reserved": 0, "fusion_lat": 0.0}, {"bike_id": "cfffb662ed7268e76df0abfd09aac1e1", "fusion_lon": 0.0, "lon": -76.98074033333333, "name": "cfffb662ed7268e76df0abfd09aac1e1", "is_disabled": 0, "rental_uris": {"android": "https://dc.lft.to/lastmile_qr_scan", "ios": "https://dc.lft.to/lastmile_qr_scan"}, "type": "electric_scooter", "lat": 38.9017345, "is_reserved": 0, "fusion_lat": 0.0}, {"bike_id": "d351281677a812c16d162e28fe410441", "fusion_lon": 0.0, "lon": -76.99338933333334, "name": "d351281677a812c16d162e28fe410441", "is_disabled": 0, "rental_uris": {"android": "https://dc.lft.to/lastmile_qr_scan", "ios": "https://dc.lft.to/lastmile_qr_scan"}, "type": "electric_bike", "lat": 38.97230066666667, "is_reserved": 0, "fusion_lat": 0.0}, {"bike_id": "d8aa165673638012a6b458f73825b1a8", "fusion_lon": 0.0, "lon": -76.9960955, "name": "d8aa165673638012a6b458f73825b1a8", "is_disabled": 0, "rental_uris": {"android": "https://dc.lft.to/lastmile_qr_scan", "ios": "https://dc.lft.to/lastmile_qr_scan"}, "type": "electric_scooter", "lat": 38.8991935, "is_reserved": 0, "fusion_lat": 0.0}, {"bike_id": "1a26c06972fe8d2f9f2d4685daf9a9a2", "fusion_lon": 0.0, "lon": -77.04388566666667, "name": "1a26c06972fe8d2f9f2d4685daf9a9a2", "is_disabled": 0, "rental_uris": {"android": "https://dc.lft.to/lastmile_qr_scan", "ios": "https://dc.lft.to/lastmile_qr_scan"}, "type": "electric_scooter", "lat": 38.920556166666664, "is_reserved": 0, "fusion_lat": 0.0}, {"bike_id": "7b310726c2fdbd21dec94db8957cf2fe", "fusion_lon": 0.0, "lon": -76.948746, "name": "7b310726c2fdbd21dec94db8957cf2fe", "is_disabled": 0, "rental_uris": {"android": "https://dc.lft.to/lastmile_qr_scan", "ios": "https://dc.lft.to/lastmile_qr_scan"}, "type": "electric_scooter", "lat": 38.895017, "is_reserved": 0, "fusion_lat": 0.0}, {"bike_id": "17d4554f95ca4cefd4c383d9119a6165", "fusion_lon": 0.0, "lon": -77.01612033333333, "name": "17d4554f95ca4cefd4c383d9119a6165", "is_disabled": 0, "rental_uris": {"android": "https://dc.lft.to/lastmile_qr_scan", "ios": "https://dc.lft.to/lastmile_qr_scan"}, "type": "electric_scooter", "lat": 38.9127685, "is_reserved": 0, "fusion_lat": 0.0}, {"bike_id": "018e4753bbeec5a0c2f621c20af0e3f2", "fusion_lon": 0.0, "lon": -77.04599366666666, "name": "018e4753bbeec5a0c2f621c20af0e3f2", "is_disabled": 0, "rental_uris": {"android": "https://dc.lft.to/lastmile_qr_scan", "ios": "https://dc.lft.to/lastmile_qr_scan"}, "type": "electric_scooter", "lat": 38.916939166666666, "is_reserved": 0, "fusion_lat": 0.0}, {"bike_id": "33688e225de634718d39b0497a043aab", "fusion_lon": 0.0, "lon": -77.02151316666667, "name": "33688e225de634718d39b0497a043aab", "is_disabled": 0, "rental_uris": {"android": "https://dc.lft.to/lastmile_qr_scan", "ios": "https://dc.lft.to/lastmile_qr_scan"}, "type": "electric_scooter", "lat": 38.909638, "is_reserved": 0, "fusion_lat": 0.0}, {"bike_id": "e83def74532ba9154d7ac5d64daf08cc", "fusion_lon": 0.0, "lon": -77.048123, "name": "e83def74532ba9154d7ac5d64daf08cc", "is_disabled": 0, "rental_uris": {"android": "https://dc.lft.to/lastmile_qr_scan", "ios": "https://dc.lft.to/lastmile_qr_scan"}, "type": "electric_scooter", "lat": 38.91117083333334, "is_reserved": 0, "fusion_lat": 0.0}, {"bike_id": "65e4e4dc284f41d3bb4615dfb42ca7d6", "fusion_lon": 0.0, "lon": -77.0764165, "name": "65e4e4dc284f41d3bb4615dfb42ca7d6", "is_disabled": 0, "rental_uris": {"android": "https://dc.lft.to/lastmile_qr_scan", "ios": "https://dc.lft.to/lastmile_qr_scan"}, "type": "electric_scooter", "lat": 38.93206216666667, "is_reserved": 0, "fusion_lat": 0.0}, {"bike_id": "9ca776e0bf0d71237d63cdcacaa2842b", "fusion_lon": 0.0, "lon": -77.04888966666667, "name": "9ca776e0bf0d71237d63cdcacaa2842b", "is_disabled": 0, "rental_uris": {"android": "https://dc.lft.to/lastmile_qr_scan", "ios": "https://dc.lft.to/lastmile_qr_scan"}, "type": "electric_scooter", "lat": 38.9006255, "is_reserved": 0, "fusion_lat": 0.0}, {"bike_id": "2ad2e9af4db33d4c0a8ca95c3b320bbe", "fusion_lon": 0.0, "lon": -77.03889333333333, "name": "2ad2e9af4db33d4c0a8ca95c3b320bbe", "is_disabled": 0, "rental_uris": {"android": "https://dc.lft.to/lastmile_qr_scan", "ios": "https://dc.lft.to/lastmile_qr_scan"}, "type": "electric_scooter", "lat": 38.92199933333333, "is_reserved": 0, "fusion_lat": 0.0}, {"bike_id": "f0ed3387c2b2ae9e8f3a79b60c12d916", "fusion_lon": 0.0, "lon": -77.0365975, "name": "f0ed3387c2b2ae9e8f3a79b60c12d916", "is_disabled": 0, "rental_uris": {"android": "https://dc.lft.to/lastmile_qr_scan", "ios": "https://dc.lft.to/lastmile_qr_scan"}, "type": "electric_scooter", "lat": 38.923349333333334, "is_reserved": 0, "fusion_lat": 0.0}, {"bike_id": "792ba24e3bbe454ff7486eae462217b7", "fusion_lon": 0.0, "lon": -77.0238875, "name": "792ba24e3bbe454ff7486eae462217b7", "is_disabled": 0, "rental_uris": {"android": "https://dc.lft.to/lastmile_qr_scan", "ios": "https://dc.lft.to/lastmile_qr_scan"}, "type": "electric_scooter", "lat": 38.9112325, "is_reserved": 0, "fusion_lat": 0.0}, {"bike_id": "b08ca6ba50b0aeba5b54559db9475c37", "fusion_lon": 0.0, "lon": -77.027142, "name": "b08ca6ba50b0aeba5b54559db9475c37", "is_disabled": 0, "rental_uris": {"android": "https://dc.lft.to/lastmile_qr_scan", "ios": "https://dc.lft.to/lastmile_qr_scan"}, "type": "electric_scooter", "lat": 38.90699983333333, "is_reserved": 0, "fusion_lat": 0.0}, {"bike_id": "826b3d648765246e706176267c04ae61", "fusion_lon": 0.0, "lon": -76.981713, "name": "826b3d648765246e706176267c04ae61", "is_disabled": 0, "rental_uris": {"android": "https://dc.lft.to/lastmile_qr_scan", "ios": "https://dc.lft.to/lastmile_qr_scan"}, "type": "electric_scooter", "lat": 38.85675416666667, "is_reserved": 0, "fusion_lat": 0.0}, {"bike_id": "bdc29bd61e351abd8ea47b1ab2891095", "fusion_lon": 0.0, "lon": -77.04001916666667, "name": "bdc29bd61e351abd8ea47b1ab2891095", "is_disabled": 0, "rental_uris": {"android": "https://dc.lft.to/lastmile_qr_scan", "ios": "https://dc.lft.to/lastmile_qr_scan"}, "type": "electric_scooter", "lat": 38.9342785, "is_reserved": 0, "fusion_lat": 0.0}, {"bike_id": "b8336dbe4a4da28a6340514475b7876e", "fusion_lon": 0.0, "lon": -76.99692516666667, "name": "b8336dbe4a4da28a6340514475b7876e", "is_disabled": 0, "rental_uris": {"android": "https://dc.lft.to/lastmile_qr_scan", "ios": "https://dc.lft.to/lastmile_qr_scan"}, "type": "electric_bike", "lat": 38.83868183333333, "is_reserved": 0, "fusion_lat": 0.0}, {"bike_id": "4d1d7493e852abb88027f6abe4a10662", "fusion_lon": 0.0, "lon": -77.03292516666667, "name": "4d1d7493e852abb88027f6abe4a10662", "is_disabled": 0, "rental_uris": {"android": "https://dc.lft.to/lastmile_qr_scan", "ios": "https://dc.lft.to/lastmile_qr_scan"}, "type": "electric_scooter", "lat": 38.919905166666666, "is_reserved": 0, "fusion_lat": 0.0}, {"bike_id": "f60ce1662acc2147642c28831899e212", "fusion_lon": 0.0, "lon": -77.01753733333334, "name": "f60ce1662acc2147642c28831899e212", "is_disabled": 0, "rental_uris": {"android": "https://dc.lft.to/lastmile_qr_scan", "ios": "https://dc.lft.to/lastmile_qr_scan"}, "type": "electric_scooter", "lat": 38.877215166666666, "is_reserved": 0, "fusion_lat": 0.0}, {"bike_id": "dedf56bf00862d6a7d250c8f222c5b59", "fusion_lon": 0.0, "lon": -77.0419985, "name": "dedf56bf00862d6a7d250c8f222c5b59", "is_disabled": 0, "rental_uris": {"android": "https://dc.lft.to/lastmile_qr_scan", "ios": "https://dc.lft.to/lastmile_qr_scan"}, "type": "electric_scooter", "lat": 38.92047183333333, "is_reserved": 0, "fusion_lat": 0.0}, {"bike_id": "e9d22c73e59de9177703f64fffb991dc", "fusion_lon": 0.0, "lon": -77.0277965, "name": "e9d22c73e59de9177703f64fffb991dc", "is_disabled": 0, "rental_uris": {"android": "https://dc.lft.to/lastmile_qr_scan", "ios": "https://dc.lft.to/lastmile_qr_scan"}, "type": "electric_scooter", "lat": 38.9277315, "is_reserved": 0, "fusion_lat": 0.0}, {"bike_id": "b90d5563ffb3e89bd0105ec819f89b31", "fusion_lon": 0.0, "lon": -77.041976, "name": "b90d5563ffb3e89bd0105ec819f89b31", "is_disabled": 0, "rental_uris": {"android": "https://dc.lft.to/lastmile_qr_scan", "ios": "https://dc.lft.to/lastmile_qr_scan"}, "type": "electric_scooter", "lat": 38.920638, "is_reserved": 0, "fusion_lat": 0.0}, {"bike_id": "b253b53ce584a2c553a2f29f78e74390", "fusion_lon": 0.0, "lon": -77.03448433333334, "name": "b253b53ce584a2c553a2f29f78e74390", "is_disabled": 0, "rental_uris": {"android": "https://dc.lft.to/lastmile_qr_scan", "ios": "https://dc.lft.to/lastmile_qr_scan"}, "type": "electric_scooter", "lat": 38.907588833333335, "is_reserved": 0, "fusion_lat": 0.0}, {"bike_id": "8d8cb1256749e2a20fdc037f77f2d199", "fusion_lon": 0.0, "lon": -77.017987, "name": "8d8cb1256749e2a20fdc037f77f2d199", "is_disabled": 0, "rental_uris": {"android": "https://dc.lft.to/lastmile_qr_scan", "ios": "https://dc.lft.to/lastmile_qr_scan"}, "type": "electric_scooter", "lat": 38.9082585, "is_reserved": 0, "fusion_lat": 0.0}, {"bike_id": "fd917995306c1eb4330a61fcdaf03b5f", "fusion_lon": 0.0, "lon": -77.03341583333334, "name": "fd917995306c1eb4330a61fcdaf03b5f", "is_disabled": 0, "rental_uris": {"android": "https://dc.lft.to/lastmile_qr_scan", "ios": "https://dc.lft.to/lastmile_qr_scan"}, "type": "electric_scooter", "lat": 38.898444, "is_reserved": 0, "fusion_lat": 0.0}, {"bike_id": "7184893992117b356ee35a7334b6dcc3", "fusion_lon": 0.0, "lon": -77.016508, "name": "7184893992117b356ee35a7334b6dcc3", "is_disabled": 0, "rental_uris": {"android": "https://dc.lft.to/lastmile_qr_scan", "ios": "https://dc.lft.to/lastmile_qr_scan"}, "type": "electric_scooter", "lat": 38.91593016666667, "is_reserved": 0, "fusion_lat": 0.0}, {"bike_id": "8cb8f3f99f194fe8965c606811ad13b4", "fusion_lon": 0.0, "lon": -76.9908935, "name": "8cb8f3f99f194fe8965c606811ad13b4", "is_disabled": 0, "rental_uris": {"android": "https://dc.lft.to/lastmile_qr_scan", "ios": "https://dc.lft.to/lastmile_qr_scan"}, "type": "electric_scooter", "lat": 38.92956433333333, "is_reserved": 0, "fusion_lat": 0.0}, {"bike_id": "ecd425c46a194a4afb025507ac227ca5", "fusion_lon": 0.0, "lon": -77.02324116666666, "name": "ecd425c46a194a4afb025507ac227ca5", "is_disabled": 0, "rental_uris": {"android": "https://dc.lft.to/lastmile_qr_scan", "ios": "https://dc.lft.to/lastmile_qr_scan"}, "type": "electric_scooter", "lat": 38.9270665, "is_reserved": 0, "fusion_lat": 0.0}, {"bike_id": "22562ff025465aff0602b92d107371bc", "fusion_lon": 0.0, "lon": -77.03508666666667, "name": "22562ff025465aff0602b92d107371bc", "is_disabled": 0, "rental_uris": {"android": "https://dc.lft.to/lastmile_qr_scan", "ios": "https://dc.lft.to/lastmile_qr_scan"}, "type": "electric_scooter", "lat": 38.926407833333336, "is_reserved": 0, "fusion_lat": 0.0}, {"bike_id": "60156b13ffea0390c3a7881a0488f0ea", "fusion_lon": 0.0, "lon": -76.98836216666666, "name": "60156b13ffea0390c3a7881a0488f0ea", "is_disabled": 0, "rental_uris": {"android": "https://dc.lft.to/lastmile_qr_scan", "ios": "https://dc.lft.to/lastmile_qr_scan"}, "type": "electric_scooter", "lat": 38.8926285, "is_reserved": 0, "fusion_lat": 0.0}, {"bike_id": "aea1225775809506510dbad9a70256b4", "fusion_lon": 0.0, "lon": -77.03259083333333, "name": "aea1225775809506510dbad9a70256b4", "is_disabled": 0, "rental_uris": {"android": "https://dc.lft.to/lastmile_qr_scan", "ios": "https://dc.lft.to/lastmile_qr_scan"}, "type": "electric_scooter", "lat": 38.914068, "is_reserved": 0, "fusion_lat": 0.0}, {"bike_id": "4bd2651419e1dfe9f47ab1eaf6b7ee08", "fusion_lon": 0.0, "lon": -77.02506866666667, "name": "4bd2651419e1dfe9f47ab1eaf6b7ee08", "is_disabled": 0, "rental_uris": {"android": "https://dc.lft.to/lastmile_qr_scan", "ios": "https://dc.lft.to/lastmile_qr_scan"}, "type": "electric_scooter", "lat": 38.9040445, "is_reserved": 0, "fusion_lat": 0.0}, {"bike_id": "5f7e8f0c0c5d742fff8167cc039f24c1", "fusion_lon": 0.0, "lon": -77.032381, "name": "5f7e8f0c0c5d742fff8167cc039f24c1", "is_disabled": 0, "rental_uris": {"android": "https://dc.lft.to/lastmile_qr_scan", "ios": "https://dc.lft.to/lastmile_qr_scan"}, "type": "electric_scooter", "lat": 38.919179, "is_reserved": 0, "fusion_lat": 0.0}, {"bike_id": "db785ecd6103b2468563228906fc86ea", "fusion_lon": 0.0, "lon": -76.98709783333334, "name": "db785ecd6103b2468563228906fc86ea", "is_disabled": 0, "rental_uris": {"android": "https://dc.lft.to/lastmile_qr_scan", "ios": "https://dc.lft.to/lastmile_qr_scan"}, "type": "electric_scooter", "lat": 38.86700233333333, "is_reserved": 0, "fusion_lat": 0.0}, {"bike_id": "d7edd43989b53c9e31af1293d7c99395", "fusion_lon": 0.0, "lon": -77.01453983333333, "name": "d7edd43989b53c9e31af1293d7c99395", "is_disabled": 0, "rental_uris": {"android": "https://dc.lft.to/lastmile_qr_scan", "ios": "https://dc.lft.to/lastmile_qr_scan"}, "type": "electric_scooter", "lat": 38.91820516666667, "is_reserved": 0, "fusion_lat": 0.0}, {"bike_id": "76ad7f20a3b80196d04a42e14344abd8", "fusion_lon": 0.0, "lon": -77.0390225, "name": "76ad7f20a3b80196d04a42e14344abd8", "is_disabled": 0, "rental_uris": {"android": "https://dc.lft.to/lastmile_qr_scan", "ios": "https://dc.lft.to/lastmile_qr_scan"}, "type": "electric_scooter", "lat": 38.92482666666667, "is_reserved": 0, "fusion_lat": 0.0}, {"bike_id": "12471d2a2dc25775488b86b44f5f2053", "fusion_lon": 0.0, "lon": -77.02091716666666, "name": "12471d2a2dc25775488b86b44f5f2053", "is_disabled": 0, "rental_uris": {"android": "https://dc.lft.to/lastmile_qr_scan", "ios": "https://dc.lft.to/lastmile_qr_scan"}, "type": "electric_scooter", "lat": 38.9311905, "is_reserved": 0, "fusion_lat": 0.0}, {"bike_id": "a19036c95ef0c6fed800ecd071ff8c8d", "fusion_lon": 0.0, "lon": -76.99900566666666, "name": "a19036c95ef0c6fed800ecd071ff8c8d", "is_disabled": 0, "rental_uris": {"android": "https://dc.lft.to/lastmile_qr_scan", "ios": "https://dc.lft.to/lastmile_qr_scan"}, "type": "electric_scooter", "lat": 38.9468905, "is_reserved": 0, "fusion_lat": 0.0}, {"bike_id": "f444e025dd51bb7a619967a2a29d7309", "fusion_lon": 0.0, "lon": -77.02713266666666, "name": "f444e025dd51bb7a619967a2a29d7309", "is_disabled": 0, "rental_uris": {"android": "https://dc.lft.to/lastmile_qr_scan", "ios": "https://dc.lft.to/lastmile_qr_scan"}, "type": "electric_scooter", "lat": 38.90669333333334, "is_reserved": 0, "fusion_lat": 0.0}, {"bike_id": "e3416ff5ee73a7a4fe12485aa561857d", "fusion_lon": 0.0, "lon": -77.07725033333334, "name": "e3416ff5ee73a7a4fe12485aa561857d", "is_disabled": 0, "rental_uris": {"android": "https://dc.lft.to/lastmile_qr_scan", "ios": "https://dc.lft.to/lastmile_qr_scan"}, "type": "electric_scooter", "lat": 38.9576825, "is_reserved": 0, "fusion_lat": 0.0}, {"bike_id": "3148405c9c735ecb82c190b151660fe5", "fusion_lon": 0.0, "lon": -77.02345883333334, "name": "3148405c9c735ecb82c190b151660fe5", "is_disabled": 0, "rental_uris": {"android": "https://dc.lft.to/lastmile_qr_scan", "ios": "https://dc.lft.to/lastmile_qr_scan"}, "type": "electric_scooter", "lat": 38.946124, "is_reserved": 0, "fusion_lat": 0.0}, {"bike_id": "aae3c3b7e7d372502f8f0700ef78a286", "fusion_lon": 0.0, "lon": -77.02377916666667, "name": "aae3c3b7e7d372502f8f0700ef78a286", "is_disabled": 0, "rental_uris": {"android": "https://dc.lft.to/lastmile_qr_scan", "ios": "https://dc.lft.to/lastmile_qr_scan"}, "type": "electric_scooter", "lat": 38.90750166666667, "is_reserved": 0, "fusion_lat": 0.0}, {"bike_id": "6b7e304ffd0c00c71606a9e9c50fce99", "fusion_lon": 0.0, "lon": -77.02399716666666, "name": "6b7e304ffd0c00c71606a9e9c50fce99", "is_disabled": 0, "rental_uris": {"android": "https://dc.lft.to/lastmile_qr_scan", "ios": "https://dc.lft.to/lastmile_qr_scan"}, "type": "electric_scooter", "lat": 38.91743, "is_reserved": 0, "fusion_lat": 0.0}, {"bike_id": "fff3a780a40b5f772f2210e300a07500", "fusion_lon": 0.0, "lon": -77.02347633333333, "name": "fff3a780a40b5f772f2210e300a07500", "is_disabled": 0, "rental_uris": {"android": "https://dc.lft.to/lastmile_qr_scan", "ios": "https://dc.lft.to/lastmile_qr_scan"}, "type": "electric_scooter", "lat": 38.94611883333334, "is_reserved": 0, "fusion_lat": 0.0}, {"bike_id": "6bc1225ef236850ca6158acd714cdafd", "fusion_lon": 0.0, "lon": -77.032351, "name": "6bc1225ef236850ca6158acd714cdafd", "is_disabled": 0, "rental_uris": {"android": "https://dc.lft.to/lastmile_qr_scan", "ios": "https://dc.lft.to/lastmile_qr_scan"}, "type": "electric_scooter", "lat": 38.92359666666667, "is_reserved": 0, "fusion_lat": 0.0}, {"bike_id": "c33fba19c79ee23b90ad7ac7e4e331ce", "fusion_lon": 0.0, "lon": -76.98623866666667, "name": "c33fba19c79ee23b90ad7ac7e4e331ce", "is_disabled": 0, "rental_uris": {"android": "https://dc.lft.to/lastmile_qr_scan", "ios": "https://dc.lft.to/lastmile_qr_scan"}, "type": "electric_scooter", "lat": 38.880477, "is_reserved": 0, "fusion_lat": 0.0}, {"bike_id": "89005e6b57c26096ee3d051b94f6a651", "fusion_lon": 0.0, "lon": -77.017446, "name": "89005e6b57c26096ee3d051b94f6a651", "is_disabled": 0, "rental_uris": {"android": "https://dc.lft.to/lastmile_qr_scan", "ios": "https://dc.lft.to/lastmile_qr_scan"}, "type": "electric_scooter", "lat": 38.88340266666667, "is_reserved": 0, "fusion_lat": 0.0}, {"bike_id": "550dc0ac6aa1eaea906333b86665ea88", "fusion_lon": 0.0, "lon": -77.02505183333334, "name": "550dc0ac6aa1eaea906333b86665ea88", "is_disabled": 0, "rental_uris": {"android": "https://dc.lft.to/lastmile_qr_scan", "ios": "https://dc.lft.to/lastmile_qr_scan"}, "type": "electric_scooter", "lat": 38.921042666666665, "is_reserved": 0, "fusion_lat": 0.0}, {"bike_id": "9d339ec04cf4e1131e23234bbbf6a61f", "fusion_lon": 0.0, "lon": -77.0279345, "name": "9d339ec04cf4e1131e23234bbbf6a61f", "is_disabled": 0, "rental_uris": {"android": "https://dc.lft.to/lastmile_qr_scan", "ios": "https://dc.lft.to/lastmile_qr_scan"}, "type": "electric_scooter", "lat": 38.92970616666667, "is_reserved": 0, "fusion_lat": 0.0}, {"bike_id": "ebdc6d0fe29414589c20cf5f5546ece9", "fusion_lon": 0.0, "lon": -77.03358633333333, "name": "ebdc6d0fe29414589c20cf5f5546ece9", "is_disabled": 0, "rental_uris": {"android": "https://dc.lft.to/lastmile_qr_scan", "ios": "https://dc.lft.to/lastmile_qr_scan"}, "type": "electric_scooter", "lat": 38.928894166666666, "is_reserved": 0, "fusion_lat": 0.0}, {"bike_id": "754b28451dd911ca854a60070b2532e6", "fusion_lon": 0.0, "lon": -76.9233205, "name": "754b28451dd911ca854a60070b2532e6", "is_disabled": 0, "rental_uris": {"android": "https://dc.lft.to/lastmile_qr_scan", "ios": "https://dc.lft.to/lastmile_qr_scan"}, "type": "electric_bike", "lat": 38.8711045, "is_reserved": 0, "fusion_lat": 0.0}, {"bike_id": "7f822dcfe31adb6461d390aa7c4b21fb", "fusion_lon": 0.0, "lon": -76.977314, "name": "7f822dcfe31adb6461d390aa7c4b21fb", "is_disabled": 0, "rental_uris": {"android": "https://dc.lft.to/lastmile_qr_scan", "ios": "https://dc.lft.to/lastmile_qr_scan"}, "type": "electric_scooter", "lat": 38.895172333333335, "is_reserved": 0, "fusion_lat": 0.0}, {"bike_id": "19cf79020637bc399400d11355ae539e", "fusion_lon": 0.0, "lon": -77.01579283333334, "name": "19cf79020637bc399400d11355ae539e", "is_disabled": 0, "rental_uris": {"android": "https://dc.lft.to/lastmile_qr_scan", "ios": "https://dc.lft.to/lastmile_qr_scan"}, "type": "electric_scooter", "lat": 38.891789333333335, "is_reserved": 0, "fusion_lat": 0.0}, {"bike_id": "85c0696633366bf7f20751ea239df9e0", "fusion_lon": 0.0, "lon": -77.02723116666667, "name": "85c0696633366bf7f20751ea239df9e0", "is_disabled": 0, "rental_uris": {"android": "https://dc.lft.to/lastmile_qr_scan", "ios": "https://dc.lft.to/lastmile_qr_scan"}, "type": "electric_bike", "lat": 38.94556133333333, "is_reserved": 0, "fusion_lat": 0.0}, {"bike_id": "acf62c95aa6c9b711504eb2c621db823", "fusion_lon": 0.0, "lon": -77.023702, "name": "acf62c95aa6c9b711504eb2c621db823", "is_disabled": 0, "rental_uris": {"android": "https://dc.lft.to/lastmile_qr_scan", "ios": "https://dc.lft.to/lastmile_qr_scan"}, "type": "electric_scooter", "lat": 38.90364616666667, "is_reserved": 0, "fusion_lat": 0.0}, {"bike_id": "1722a0dfd479fbb242ae8cff3c3d0534", "fusion_lon": 0.0, "lon": -77.07350333333333, "name": "1722a0dfd479fbb242ae8cff3c3d0534", "is_disabled": 0, "rental_uris": {"android": "https://dc.lft.to/lastmile_qr_scan", "ios": "https://dc.lft.to/lastmile_qr_scan"}, "type": "electric_bike", "lat": 38.9305025, "is_reserved": 0, "fusion_lat": 0.0}, {"bike_id": "3e2b417e698cc09b06640f8b8921f527", "fusion_lon": 0.0, "lon": -77.04141566666667, "name": "3e2b417e698cc09b06640f8b8921f527", "is_disabled": 0, "rental_uris": {"android": "https://dc.lft.to/lastmile_qr_scan", "ios": "https://dc.lft.to/lastmile_qr_scan"}, "type": "electric_scooter", "lat": 38.926502166666666, "is_reserved": 0, "fusion_lat": 0.0}, {"bike_id": "fc01ab1006efb96b7202694c612b71c4", "fusion_lon": 0.0, "lon": -77.054185, "name": "fc01ab1006efb96b7202694c612b71c4", "is_disabled": 0, "rental_uris": {"android": "https://dc.lft.to/lastmile_qr_scan", "ios": "https://dc.lft.to/lastmile_qr_scan"}, "type": "electric_bike", "lat": 38.935267833333334, "is_reserved": 0, "fusion_lat": 0.0}, {"bike_id": "9e44c17b6450dbd34b629a17c2dd9cd6", "fusion_lon": 0.0, "lon": -77.0130325, "name": "9e44c17b6450dbd34b629a17c2dd9cd6", "is_disabled": 0, "rental_uris": {"android": "https://dc.lft.to/lastmile_qr_scan", "ios": "https://dc.lft.to/lastmile_qr_scan"}, "type": "electric_scooter", "lat": 38.901370666666665, "is_reserved": 0, "fusion_lat": 0.0}, {"bike_id": "10693845a5c943a06dd06e1a947ac0b4", "fusion_lon": 0.0, "lon": -77.057875, "name": "10693845a5c943a06dd06e1a947ac0b4", "is_disabled": 0, "rental_uris": {"android": "https://dc.lft.to/lastmile_qr_scan", "ios": "https://dc.lft.to/lastmile_qr_scan"}, "type": "electric_scooter", "lat": 38.90100016666667, "is_reserved": 0, "fusion_lat": 0.0}, {"bike_id": "43b632526efe4d26197de83b4f3e9ced", "fusion_lon": 0.0, "lon": -77.02863983333333, "name": "43b632526efe4d26197de83b4f3e9ced", "is_disabled": 0, "rental_uris": {"android": "https://dc.lft.to/lastmile_qr_scan", "ios": "https://dc.lft.to/lastmile_qr_scan"}, "type": "electric_scooter", "lat": 38.904291666666666, "is_reserved": 0, "fusion_lat": 0.0}, {"bike_id": "bff2ed61c206f2a134933e7cd905d8bd", "fusion_lon": 0.0, "lon": -77.04705816666667, "name": "bff2ed61c206f2a134933e7cd905d8bd", "is_disabled": 0, "rental_uris": {"android": "https://dc.lft.to/lastmile_qr_scan", "ios": "https://dc.lft.to/lastmile_qr_scan"}, "type": "electric_scooter", "lat": 38.9222785, "is_reserved": 0, "fusion_lat": 0.0}, {"bike_id": "25b03b7c248e12728dd39c054243aa3e", "fusion_lon": 0.0, "lon": -77.02960516666667, "name": "25b03b7c248e12728dd39c054243aa3e", "is_disabled": 0, "rental_uris": {"android": "https://dc.lft.to/lastmile_qr_scan", "ios": "https://dc.lft.to/lastmile_qr_scan"}, "type": "electric_scooter", "lat": 38.90624616666667, "is_reserved": 0, "fusion_lat": 0.0}, {"bike_id": "d5f82051cca04b2153661451c8f5144a", "fusion_lon": 0.0, "lon": -77.04826183333333, "name": "d5f82051cca04b2153661451c8f5144a", "is_disabled": 0, "rental_uris": {"android": "https://dc.lft.to/lastmile_qr_scan", "ios": "https://dc.lft.to/lastmile_qr_scan"}, "type": "electric_scooter", "lat": 38.910423333333334, "is_reserved": 0, "fusion_lat": 0.0}, {"bike_id": "98cac47d4887f3a6ee94a7e75cfb10e2", "fusion_lon": 0.0, "lon": -77.0414185, "name": "98cac47d4887f3a6ee94a7e75cfb10e2", "is_disabled": 0, "rental_uris": {"android": "https://dc.lft.to/lastmile_qr_scan", "ios": "https://dc.lft.to/lastmile_qr_scan"}, "type": "electric_scooter", "lat": 38.89349883333333, "is_reserved": 0, "fusion_lat": 0.0}, {"bike_id": "b896f7aa8e6900e28310750112b44419", "fusion_lon": 0.0, "lon": -77.023786, "name": "b896f7aa8e6900e28310750112b44419", "is_disabled": 0, "rental_uris": {"android": "https://dc.lft.to/lastmile_qr_scan", "ios": "https://dc.lft.to/lastmile_qr_scan"}, "type": "electric_scooter", "lat": 38.90952733333334, "is_reserved": 0, "fusion_lat": 0.0}, {"bike_id": "824c377760904b3f39f4f2616d5e7f89", "fusion_lon": 0.0, "lon": -76.98049566666667, "name": "824c377760904b3f39f4f2616d5e7f89", "is_disabled": 0, "rental_uris": {"android": "https://dc.lft.to/lastmile_qr_scan", "ios": "https://dc.lft.to/lastmile_qr_scan"}, "type": "electric_bike", "lat": 38.901822833333334, "is_reserved": 0, "fusion_lat": 0.0}, {"bike_id": "f5130508fd8765a2459602e52296dac8", "fusion_lon": 0.0, "lon": -76.99700083333333, "name": "f5130508fd8765a2459602e52296dac8", "is_disabled": 0, "rental_uris": {"android": "https://dc.lft.to/lastmile_qr_scan", "ios": "https://dc.lft.to/lastmile_qr_scan"}, "type": "electric_scooter", "lat": 38.84429683333333, "is_reserved": 0, "fusion_lat": 0.0}, {"bike_id": "2d9c8cb88cbc142a57a8d6b46e74ec8e", "fusion_lon": 0.0, "lon": -76.998732, "name": "2d9c8cb88cbc142a57a8d6b46e74ec8e", "is_disabled": 0, "rental_uris": {"android": "https://dc.lft.to/lastmile_qr_scan", "ios": "https://dc.lft.to/lastmile_qr_scan"}, "type": "electric_scooter", "lat": 38.90024116666667, "is_reserved": 0, "fusion_lat": 0.0}, {"bike_id": "6939a1d057fef05abcad6638dbc0e32e", "fusion_lon": 0.0, "lon": -76.93348683333333, "name": "6939a1d057fef05abcad6638dbc0e32e", "is_disabled": 0, "rental_uris": {"android": "https://dc.lft.to/lastmile_qr_scan", "ios": "https://dc.lft.to/lastmile_qr_scan"}, "type": "electric_scooter", "lat": 38.89904416666667, "is_reserved": 0, "fusion_lat": 0.0}, {"bike_id": "94bf7fc90efb74a093de77a075ca9133", "fusion_lon": 0.0, "lon": -77.03453733333333, "name": "94bf7fc90efb74a093de77a075ca9133", "is_disabled": 0, "rental_uris": {"android": "https://dc.lft.to/lastmile_qr_scan", "ios": "https://dc.lft.to/lastmile_qr_scan"}, "type": "electric_scooter", "lat": 38.908016833333335, "is_reserved": 0, "fusion_lat": 0.0}, {"bike_id": "e0ae8d571b666bc3fd484f3a1e33b478", "fusion_lon": 0.0, "lon": -77.026921, "name": "e0ae8d571b666bc3fd484f3a1e33b478", "is_disabled": 0, "rental_uris": {"android": "https://dc.lft.to/lastmile_qr_scan", "ios": "https://dc.lft.to/lastmile_qr_scan"}, "type": "electric_scooter", "lat": 38.91126533333333, "is_reserved": 0, "fusion_lat": 0.0}, {"bike_id": "05c1e8480a00956f5d1c5e0cc3b81e00", "fusion_lon": 0.0, "lon": -77.01754766666667, "name": "05c1e8480a00956f5d1c5e0cc3b81e00", "is_disabled": 0, "rental_uris": {"android": "https://dc.lft.to/lastmile_qr_scan", "ios": "https://dc.lft.to/lastmile_qr_scan"}, "type": "electric_scooter", "lat": 38.90255883333333, "is_reserved": 0, "fusion_lat": 0.0}, {"bike_id": "3af34c9a9111dbe19c594bf2ac79550f", "fusion_lon": 0.0, "lon": -77.04173033333333, "name": "3af34c9a9111dbe19c594bf2ac79550f", "is_disabled": 0, "rental_uris": {"android": "https://dc.lft.to/lastmile_qr_scan", "ios": "https://dc.lft.to/lastmile_qr_scan"}, "type": "electric_scooter", "lat": 38.9185845, "is_reserved": 0, "fusion_lat": 0.0}, {"bike_id": "e4d3dadb98133a8664fef141f34c0744", "fusion_lon": 0.0, "lon": -77.04324683333333, "name": "e4d3dadb98133a8664fef141f34c0744", "is_disabled": 0, "rental_uris": {"android": "https://dc.lft.to/lastmile_qr_scan", "ios": "https://dc.lft.to/lastmile_qr_scan"}, "type": "electric_scooter", "lat": 38.892218666666665, "is_reserved": 0, "fusion_lat": 0.0}, {"bike_id": "8d3df29f0962398324c49d3f55cd34d3", "fusion_lon": 0.0, "lon": -77.03262833333334, "name": "8d3df29f0962398324c49d3f55cd34d3", "is_disabled": 0, "rental_uris": {"android": "https://dc.lft.to/lastmile_qr_scan", "ios": "https://dc.lft.to/lastmile_qr_scan"}, "type": "electric_scooter", "lat": 38.93774066666667, "is_reserved": 0, "fusion_lat": 0.0}, {"bike_id": "b1b6824cd23da27b038d043c24435046", "fusion_lon": 0.0, "lon": -77.0271385, "name": "b1b6824cd23da27b038d043c24435046", "is_disabled": 0, "rental_uris": {"android": "https://dc.lft.to/lastmile_qr_scan", "ios": "https://dc.lft.to/lastmile_qr_scan"}, "type": "electric_scooter", "lat": 38.906860333333334, "is_reserved": 0, "fusion_lat": 0.0}, {"bike_id": "3f68096602f060994204f75d0bbe2d8d", "fusion_lon": 0.0, "lon": -77.03577216666666, "name": "3f68096602f060994204f75d0bbe2d8d", "is_disabled": 0, "rental_uris": {"android": "https://dc.lft.to/lastmile_qr_scan", "ios": "https://dc.lft.to/lastmile_qr_scan"}, "type": "electric_scooter", "lat": 38.923413, "is_reserved": 0, "fusion_lat": 0.0}, {"bike_id": "b3a368c0267fa74dce318032d0a80eb3", "fusion_lon": 0.0, "lon": -77.02716116666667, "name": "b3a368c0267fa74dce318032d0a80eb3", "is_disabled": 0, "rental_uris": {"android": "https://dc.lft.to/lastmile_qr_scan", "ios": "https://dc.lft.to/lastmile_qr_scan"}, "type": "electric_scooter", "lat": 38.906722333333335, "is_reserved": 0, "fusion_lat": 0.0}, {"bike_id": "0b640d95ed66b038c26f0fe3f44f9300", "fusion_lon": 0.0, "lon": -77.00726466666667, "name": "0b640d95ed66b038c26f0fe3f44f9300", "is_disabled": 0, "rental_uris": {"android": "https://dc.lft.to/lastmile_qr_scan", "ios": "https://dc.lft.to/lastmile_qr_scan"}, "type": "electric_scooter", "lat": 38.88489783333333, "is_reserved": 0, "fusion_lat": 0.0}, {"bike_id": "37856c36c2088d878260de1e81f5d54d", "fusion_lon": 0.0, "lon": -77.0527035, "name": "37856c36c2088d878260de1e81f5d54d", "is_disabled": 0, "rental_uris": {"android": "https://dc.lft.to/lastmile_qr_scan", "ios": "https://dc.lft.to/lastmile_qr_scan"}, "type": "electric_scooter", "lat": 38.925399666666664, "is_reserved": 0, "fusion_lat": 0.0}, {"bike_id": "cb5b959b3dc1efb88209d79f15e99995", "fusion_lon": 0.0, "lon": -77.0176365, "name": "cb5b959b3dc1efb88209d79f15e99995", "is_disabled": 0, "rental_uris": {"android": "https://dc.lft.to/lastmile_qr_scan", "ios": "https://dc.lft.to/lastmile_qr_scan"}, "type": "electric_scooter", "lat": 38.87720066666667, "is_reserved": 0, "fusion_lat": 0.0}, {"bike_id": "0e9b413bd18026ffe88a30fe4166fa95", "fusion_lon": 0.0, "lon": -76.99820183333334, "name": "0e9b413bd18026ffe88a30fe4166fa95", "is_disabled": 0, "rental_uris": {"android": "https://dc.lft.to/lastmile_qr_scan", "ios": "https://dc.lft.to/lastmile_qr_scan"}, "type": "electric_scooter", "lat": 38.908258833333335, "is_reserved": 0, "fusion_lat": 0.0}, {"bike_id": "a6fe689442153444ffd86929d63e0035", "fusion_lon": 0.0, "lon": -77.03136716666667, "name": "a6fe689442153444ffd86929d63e0035", "is_disabled": 0, "rental_uris": {"android": "https://dc.lft.to/lastmile_qr_scan", "ios": "https://dc.lft.to/lastmile_qr_scan"}, "type": "electric_scooter", "lat": 38.918022, "is_reserved": 0, "fusion_lat": 0.0}, {"bike_id": "1e62e58919212a7dd8ddd894953388e4", "fusion_lon": 0.0, "lon": -77.01741133333333, "name": "1e62e58919212a7dd8ddd894953388e4", "is_disabled": 0, "rental_uris": {"android": "https://dc.lft.to/lastmile_qr_scan", "ios": "https://dc.lft.to/lastmile_qr_scan"}, "type": "electric_scooter", "lat": 38.88337383333333, "is_reserved": 0, "fusion_lat": 0.0}, {"bike_id": "8399d999de2393ba75033f7f9a83564e", "fusion_lon": 0.0, "lon": -76.99352166666667, "name": "8399d999de2393ba75033f7f9a83564e", "is_disabled": 0, "rental_uris": {"android": "https://dc.lft.to/lastmile_qr_scan", "ios": "https://dc.lft.to/lastmile_qr_scan"}, "type": "electric_bike", "lat": 38.845073666666664, "is_reserved": 0, "fusion_lat": 0.0}, {"bike_id": "773ef98b16eeec76943e4c9fd20d0c2b", "fusion_lon": 0.0, "lon": -77.05997366666666, "name": "773ef98b16eeec76943e4c9fd20d0c2b", "is_disabled": 0, "rental_uris": {"android": "https://dc.lft.to/lastmile_qr_scan", "ios": "https://dc.lft.to/lastmile_qr_scan"}, "type": "electric_scooter", "lat": 38.901753166666666, "is_reserved": 0, "fusion_lat": 0.0}, {"bike_id": "fe4867fec71a481ac841af7bc73e132a", "fusion_lon": 0.0, "lon": -77.01404083333334, "name": "fe4867fec71a481ac841af7bc73e132a", "is_disabled": 0, "rental_uris": {"android": "https://dc.lft.to/lastmile_qr_scan", "ios": "https://dc.lft.to/lastmile_qr_scan"}, "type": "electric_scooter", "lat": 38.928573666666665, "is_reserved": 0, "fusion_lat": 0.0}, {"bike_id": "b4edee39ca5c520a40a71157b54b32c4", "fusion_lon": 0.0, "lon": -77.023855, "name": "b4edee39ca5c520a40a71157b54b32c4", "is_disabled": 0, "rental_uris": {"android": "https://dc.lft.to/lastmile_qr_scan", "ios": "https://dc.lft.to/lastmile_qr_scan"}, "type": "electric_scooter", "lat": 38.9152895, "is_reserved": 0, "fusion_lat": 0.0}, {"bike_id": "6e3e6ef0e1389ccfcf6022d9ab3d765f", "fusion_lon": 0.0, "lon": -76.9990065, "name": "6e3e6ef0e1389ccfcf6022d9ab3d765f", "is_disabled": 0, "rental_uris": {"android": "https://dc.lft.to/lastmile_qr_scan", "ios": "https://dc.lft.to/lastmile_qr_scan"}, "type": "electric_scooter", "lat": 38.94827, "is_reserved": 0, "fusion_lat": 0.0}, {"bike_id": "480b6bd60ccb57109d79e0e443146a9b", "fusion_lon": 0.0, "lon": -77.02717533333333, "name": "480b6bd60ccb57109d79e0e443146a9b", "is_disabled": 0, "rental_uris": {"android": "https://dc.lft.to/lastmile_qr_scan", "ios": "https://dc.lft.to/lastmile_qr_scan"}, "type": "electric_scooter", "lat": 38.9095875, "is_reserved": 0, "fusion_lat": 0.0}, {"bike_id": "0f5cc02d9a59c835c6f7673ab5406d90", "fusion_lon": 0.0, "lon": -77.05107366666667, "name": "0f5cc02d9a59c835c6f7673ab5406d90", "is_disabled": 0, "rental_uris": {"android": "https://dc.lft.to/lastmile_qr_scan", "ios": "https://dc.lft.to/lastmile_qr_scan"}, "type": "electric_scooter", "lat": 38.9052975, "is_reserved": 0, "fusion_lat": 0.0}, {"bike_id": "970b20497d8d010fc6b368a49583a7c7", "fusion_lon": 0.0, "lon": -76.98709816666667, "name": "970b20497d8d010fc6b368a49583a7c7", "is_disabled": 0, "rental_uris": {"android": "https://dc.lft.to/lastmile_qr_scan", "ios": "https://dc.lft.to/lastmile_qr_scan"}, "type": "electric_scooter", "lat": 38.900670166666664, "is_reserved": 0, "fusion_lat": 0.0}, {"bike_id": "c1678a18488d608a987a5f454fe761c7", "fusion_lon": 0.0, "lon": -77.024865, "name": "c1678a18488d608a987a5f454fe761c7", "is_disabled": 0, "rental_uris": {"android": "https://dc.lft.to/lastmile_qr_scan", "ios": "https://dc.lft.to/lastmile_qr_scan"}, "type": "electric_scooter", "lat": 38.94312, "is_reserved": 0, "fusion_lat": 0.0}, {"bike_id": "1445ebb5ec28c1dbc149df168b8ffbc9", "fusion_lon": 0.0, "lon": -76.98692466666667, "name": "1445ebb5ec28c1dbc149df168b8ffbc9", "is_disabled": 0, "rental_uris": {"android": "https://dc.lft.to/lastmile_qr_scan", "ios": "https://dc.lft.to/lastmile_qr_scan"}, "type": "electric_bike", "lat": 38.94476433333333, "is_reserved": 0, "fusion_lat": 0.0}, {"bike_id": "55e7b5cd4633aca351410c4b818834a5", "fusion_lon": 0.0, "lon": -77.0244815, "name": "55e7b5cd4633aca351410c4b818834a5", "is_disabled": 0, "rental_uris": {"android": "https://dc.lft.to/lastmile_qr_scan", "ios": "https://dc.lft.to/lastmile_qr_scan"}, "type": "electric_scooter", "lat": 38.91268733333333, "is_reserved": 0, "fusion_lat": 0.0}, {"bike_id": "7f22fb52f85cdf5bd6293839acb68f88", "fusion_lon": 0.0, "lon": -77.0554215, "name": "7f22fb52f85cdf5bd6293839acb68f88", "is_disabled": 0, "rental_uris": {"android": "https://dc.lft.to/lastmile_qr_scan", "ios": "https://dc.lft.to/lastmile_qr_scan"}, "type": "electric_scooter", "lat": 38.930111, "is_reserved": 0, "fusion_lat": 0.0}, {"bike_id": "1ca478980ae6392c003ea9f1bd8da892", "fusion_lon": 0.0, "lon": -77.01314633333334, "name": "1ca478980ae6392c003ea9f1bd8da892", "is_disabled": 0, "rental_uris": {"android": "https://dc.lft.to/lastmile_qr_scan", "ios": "https://dc.lft.to/lastmile_qr_scan"}, "type": "electric_scooter", "lat": 38.900533, "is_reserved": 0, "fusion_lat": 0.0}, {"bike_id": "0cb471ff8e6a28e8d424b87743047541", "fusion_lon": 0.0, "lon": -77.03673366666666, "name": "0cb471ff8e6a28e8d424b87743047541", "is_disabled": 0, "rental_uris": {"android": "https://dc.lft.to/lastmile_qr_scan", "ios": "https://dc.lft.to/lastmile_qr_scan"}, "type": "electric_scooter", "lat": 38.9171215, "is_reserved": 0, "fusion_lat": 0.0}, {"bike_id": "662ee1b2f89fba22bd19c76ebff1ebfc", "fusion_lon": 0.0, "lon": -77.02722916666667, "name": "662ee1b2f89fba22bd19c76ebff1ebfc", "is_disabled": 0, "rental_uris": {"android": "https://dc.lft.to/lastmile_qr_scan", "ios": "https://dc.lft.to/lastmile_qr_scan"}, "type": "electric_scooter", "lat": 38.94959566666667, "is_reserved": 0, "fusion_lat": 0.0}, {"bike_id": "06d5102403fd85ff2f44aa2c631b9040", "fusion_lon": 0.0, "lon": -77.03855516666667, "name": "06d5102403fd85ff2f44aa2c631b9040", "is_disabled": 0, "rental_uris": {"android": "https://dc.lft.to/lastmile_qr_scan", "ios": "https://dc.lft.to/lastmile_qr_scan"}, "type": "electric_scooter", "lat": 38.915467, "is_reserved": 0, "fusion_lat": 0.0}, {"bike_id": "601740e7b849ecd25034e6cd0139391a", "fusion_lon": 0.0, "lon": -77.11709483333334, "name": "601740e7b849ecd25034e6cd0139391a", "is_disabled": 0, "rental_uris": {"android": "https://dc.lft.to/lastmile_qr_scan", "ios": "https://dc.lft.to/lastmile_qr_scan"}, "type": "electric_bike", "lat": 38.867461, "is_reserved": 0, "fusion_lat": 0.0}, {"bike_id": "e739775680b9c9ac073ffbf6494c24e0", "fusion_lon": 0.0, "lon": -77.02288966666667, "name": "e739775680b9c9ac073ffbf6494c24e0", "is_disabled": 0, "rental_uris": {"android": "https://dc.lft.to/lastmile_qr_scan", "ios": "https://dc.lft.to/lastmile_qr_scan"}, "type": "electric_scooter", "lat": 38.927525833333334, "is_reserved": 0, "fusion_lat": 0.0}, {"bike_id": "00ddc87cdec1f321334a77c930d226a5", "fusion_lon": 0.0, "lon": -77.050087, "name": "00ddc87cdec1f321334a77c930d226a5", "is_disabled": 0, "rental_uris": {"android": "https://dc.lft.to/lastmile_qr_scan", "ios": "https://dc.lft.to/lastmile_qr_scan"}, "type": "electric_scooter", "lat": 38.9062285, "is_reserved": 0, "fusion_lat": 0.0}, {"bike_id": "949b916a6fbd1835b644f58735e6370c", "fusion_lon": 0.0, "lon": -77.0513755, "name": "949b916a6fbd1835b644f58735e6370c", "is_disabled": 0, "rental_uris": {"android": "https://dc.lft.to/lastmile_qr_scan", "ios": "https://dc.lft.to/lastmile_qr_scan"},