{"data": {"bikes": [{"is_reserved": 0, "is_disabled": 0, "fusion_lon": 0.0, "lat": 38.89592583333334, "name": "103443b6d33023b4f59a31af54e56acb", "bike_id": "103443b6d33023b4f59a31af54e56acb", "lon": -77.048077, "fusion_lat": 0.0, "rental_uris": {"android": "https://dc.lft.to/lastmile_qr_scan", "ios": "https://dc.lft.to/lastmile_qr_scan"}, "type": "electric_scooter"}, {"is_reserved": 0, "is_disabled": 0, "fusion_lon": 0.0, "lat": 38.909587, "name": "73cfd554da34ea709bdf22afa2d05441", "bike_id": "73cfd554da34ea709bdf22afa2d05441", "lon": -77.034226, "fusion_lat": 0.0, "rental_uris": {"android": "https://dc.lft.to/lastmile_qr_scan", "ios": "https://dc.lft.to/lastmile_qr_scan"}, "type": "electric_scooter"}, {"is_reserved": 0, "is_disabled": 0, "fusion_lon": 0.0, "lat": 38.89746783333333, "name": "6e0e2ad08594321f29be16a691084034", "bike_id": "6e0e2ad08594321f29be16a691084034", "lon": -77.02447766666667, "fusion_lat": 0.0, "rental_uris": {"android": "https://dc.lft.to/lastmile_qr_scan", "ios": "https://dc.lft.to/lastmile_qr_scan"}, "type": "electric_scooter"}, {"is_reserved": 0, "is_disabled": 0, "fusion_lon": 0.0, "lat": 38.90344733333333, "name": "cda88cc4413c3c296e32c342b3384f84", "bike_id": "cda88cc4413c3c296e32c342b3384f84", "lon": -77.03293033333334, "fusion_lat": 0.0, "rental_uris": {"android": "https://dc.lft.to/lastmile_qr_scan", "ios": "https://dc.lft.to/lastmile_qr_scan"}, "type": "electric_scooter"}, {"is_reserved": 0, "is_disabled": 0, "fusion_lon": 0.0, "lat": 38.8972055, "name": "79f1d8f47c3fc9706aafa16da6442bac", "bike_id": "79f1d8f47c3fc9706aafa16da6442bac", "lon": -77.04356066666666, "fusion_lat": 0.0, "rental_uris": {"android": "https://dc.lft.to/lastmile_qr_scan", "ios": "https://dc.lft.to/lastmile_qr_scan"}, "type": "electric_scooter"}, {"is_reserved": 0, "is_disabled": 0, "fusion_lon": 0.0, "lat": 39.005347666666665, "name": "d93ae18086b62ea20cb49483a1854096", "bike_id": "d93ae18086b62ea20cb49483a1854096", "lon": -77.1040015, "fusion_lat": 0.0, "rental_uris": {"android": "https://dc.lft.to/lastmile_qr_scan", "ios": "https://dc.lft.to/lastmile_qr_scan"}, "type": "electric_bike"}, {"is_reserved": 0, "is_disabled": 0, "fusion_lon": 0.0, "lat": 38.9386495, "name": "d578ce25507ce5354dcf45bab011c8d3", "bike_id": "d578ce25507ce5354dcf45bab011c8d3", "lon": -77.0252215, "fusion_lat": 0.0, "rental_uris": {"android": "https://dc.lft.to/lastmile_qr_scan", "ios": "https://dc.lft.to/lastmile_qr_scan"}, "type": "electric_scooter"}, {"is_reserved": 0, "is_disabled": 0, "fusion_lon": 0.0, "lat": 38.90282116666667, "name": "2119b04bd39a670b5e4b2a7eefe91ee2", "bike_id": "2119b04bd39a670b5e4b2a7eefe91ee2", "lon": -77.03854533333333, "fusion_lat": 0.0, "rental_uris": {"android": "https://dc.lft.to/lastmile_qr_scan", "ios": "https://dc.lft.to/lastmile_qr_scan"}, "type": "electric_scooter"}, {"is_reserved": 0, "is_disabled": 0, "fusion_lon": 0.0, "lat": 38.917062666666666, "name": "2eaec8c02437cba5026b780b7c388749", "bike_id": "2eaec8c02437cba5026b780b7c388749", "lon": -77.0250265, "fusion_lat": 0.0, "rental_uris": {"android": "https://dc.lft.to/lastmile_qr_scan", "ios": "https://dc.lft.to/lastmile_qr_scan"}, "type": "electric_scooter"}, {"is_reserved": 0, "is_disabled": 0, "fusion_lon": 0.0, "lat": 38.92472883333333, "name": "4707ba34ef32643dac24cba5fc5b8577", "bike_id": "4707ba34ef32643dac24cba5fc5b8577", "lon": -77.03935833333334, "fusion_lat": 0.0, "rental_uris": {"android": "https://dc.lft.to/lastmile_qr_scan", "ios": "https://dc.lft.to/lastmile_qr_scan"}, "type": "electric_scooter"}, {"is_reserved": 0, "is_disabled": 0, "fusion_lon": 0.0, "lat": 38.94034333333333, "name": "310d0e2e76c06bd15e27ea133fb8aff4", "bike_id": "310d0e2e76c06bd15e27ea133fb8aff4", "lon": -77.02897766666666, "fusion_lat": 0.0, "rental_uris": {"android": "https://dc.lft.to/lastmile_qr_scan", "ios": "https://dc.lft.to/lastmile_qr_scan"}, "type": "electric_scooter"}, {"is_reserved": 0, "is_disabled": 0, "fusion_lon": 0.0, "lat": 38.90676366666667, "name": "b185e7da6529b00ba9a0549e649cf54c", "bike_id": "b185e7da6529b00ba9a0549e649cf54c", "lon": -77.07182983333334, "fusion_lat": 0.0, "rental_uris": {"android": "https://dc.lft.to/lastmile_qr_scan", "ios": "https://dc.lft.to/lastmile_qr_scan"}, "type": "electric_scooter"}, {"is_reserved": 0, "is_disabled": 0, "fusion_lon": 0.0, "lat": 38.9111315, "name": "73d34b7081c658ddcef1c04056f363bc", "bike_id": "73d34b7081c658ddcef1c04056f363bc", "lon": -77.03619633333334, "fusion_lat": 0.0, "rental_uris": {"android": "https://dc.lft.to/lastmile_qr_scan", "ios": "https://dc.lft.to/lastmile_qr_scan"}, "type": "electric_scooter"}, {"is_reserved": 0, "is_disabled": 0, "fusion_lon": 0.0, "lat": 38.92234966666667, "name": "45623bcb1102a7ce7db9396f0635cc6b", "bike_id": "45623bcb1102a7ce7db9396f0635cc6b", "lon": -77.03465266666667, "fusion_lat": 0.0, "rental_uris": {"android": "https://dc.lft.to/lastmile_qr_scan", "ios": "https://dc.lft.to/lastmile_qr_scan"}, "type": "electric_scooter"}, {"is_reserved": 0, "is_disabled": 0, "fusion_lon": 0.0, "lat": 38.910936, "name": "a53da3eb0dc49137ceecde5ca4a50820", "bike_id": "a53da3eb0dc49137ceecde5ca4a50820", "lon": -77.025457, "fusion_lat": 0.0, "rental_uris": {"android": "https://dc.lft.to/lastmile_qr_scan", "ios": "https://dc.lft.to/lastmile_qr_scan"}, "type": "electric_scooter"}, {"is_reserved": 0, "is_disabled": 0, "fusion_lon": 0.0, "lat": 38.905753833333335, "name": "60ad88ef7778fa56e495db47fdb8011b", "bike_id": "60ad88ef7778fa56e495db47fdb8011b", "lon": -77.022047, "fusion_lat": 0.0, "rental_uris": {"android": "https://dc.lft.to/lastmile_qr_scan", "ios": "https://dc.lft.to/lastmile_qr_scan"}, "type": "electric_scooter"}, {"is_reserved": 0, "is_disabled": 0, "fusion_lon": 0.0, "lat": 38.90218816666667, "name": "8ae81692c11189a0188a78d7ceef42a6", "bike_id": "8ae81692c11189a0188a78d7ceef42a6", "lon": -77.048096, "fusion_lat": 0.0, "rental_uris": {"android": "https://dc.lft.to/lastmile_qr_scan", "ios": "https://dc.lft.to/lastmile_qr_scan"}, "type": "electric_scooter"}, {"is_reserved": 0, "is_disabled": 0, "fusion_lon": 0.0, "lat": 38.91363, "name": "488bde06522b69a0f06d4fc85bc5e911", "bike_id": "488bde06522b69a0f06d4fc85bc5e911", "lon": -77.04561783333334, "fusion_lat": 0.0, "rental_uris": {"android": "https://dc.lft.to/lastmile_qr_scan", "ios": "https://dc.lft.to/lastmile_qr_scan"}, "type": "electric_scooter"}, {"is_reserved": 0, "is_disabled": 0, "fusion_lon": 0.0, "lat": 38.94029583333333, "name": "0e29c8c6a330f433127e51459f4dfc8c", "bike_id": "0e29c8c6a330f433127e51459f4dfc8c", "lon": -77.07744416666667, "fusion_lat": 0.0, "rental_uris": {"android": "https://dc.lft.to/lastmile_qr_scan", "ios": "https://dc.lft.to/lastmile_qr_scan"}, "type": "electric_scooter"}, {"is_reserved": 0, "is_disabled": 0, "fusion_lon": 0.0, "lat": 38.941412166666666, "name": "9243066b379ef7741d3361c1dec6c5c6", "bike_id": "9243066b379ef7741d3361c1dec6c5c6", "lon": -77.02329866666666, "fusion_lat": 0.0, "rental_uris": {"android": "https://dc.lft.to/lastmile_qr_scan", "ios": "https://dc.lft.to/lastmile_qr_scan"}, "type": "electric_scooter"}, {"is_reserved": 0, "is_disabled": 0, "fusion_lon": 0.0, "lat": 38.88661483333333, "name": "04bb8c1687849945e293a374a0a71f4a", "bike_id": "04bb8c1687849945e293a374a0a71f4a", "lon": -76.93674216666666, "fusion_lat": 0.0, "rental_uris": {"android": "https://dc.lft.to/lastmile_qr_scan", "ios": "https://dc.lft.to/lastmile_qr_scan"}, "type": "electric_scooter"}, {"is_reserved": 0, "is_disabled": 0, "fusion_lon": 0.0, "lat": 38.88392433333333, "name": "d603ea0666712824247bf900be674257", "bike_id": "d603ea0666712824247bf900be674257", "lon": -76.93039816666666, "fusion_lat": 0.0, "rental_uris": {"android": "https://dc.lft.to/lastmile_qr_scan", "ios": "https://dc.lft.to/lastmile_qr_scan"}, "type": "electric_scooter"}, {"is_reserved": 0, "is_disabled": 0, "fusion_lon": 0.0, "lat": 39.084297666666664, "name": "5d0e5f48d30eeb4b9160d2d1a38e4080", "bike_id": "5d0e5f48d30eeb4b9160d2d1a38e4080", "lon": -76.95146616666666, "fusion_lat": 0.0, "rental_uris": {"android": "https://dc.lft.to/lastmile_qr_scan", "ios": "https://dc.lft.to/lastmile_qr_scan"}, "type": "electric_bike"}, {"is_reserved": 0, "is_disabled": 0, "fusion_lon": 0.0, "lat": 38.92471666666667, "name": "794021414350654ad6cd7d6c891d04a6", "bike_id": "794021414350654ad6cd7d6c891d04a6", "lon": -77.02218883333333, "fusion_lat": 0.0, "rental_uris": {"android": "https://dc.lft.to/lastmile_qr_scan", "ios": "https://dc.lft.to/lastmile_qr_scan"}, "type": "electric_scooter"}, {"is_reserved": 0, "is_disabled": 0, "fusion_lon": 0.0, "lat": 38.928582666666664, "name": "daca41358c4babd2a35249c32e1e1d2b", "bike_id": "daca41358c4babd2a35249c32e1e1d2b", "lon": -77.03549683333334, "fusion_lat": 0.0, "rental_uris": {"android": "https://dc.lft.to/lastmile_qr_scan", "ios": "https://dc.lft.to/lastmile_qr_scan"}, "type": "electric_scooter"}, {"is_reserved": 0, "is_disabled": 0, "fusion_lon": 0.0, "lat": 38.9061415, "name": "d7252ad13900f9bfd00d3d9b834a2166", "bike_id": "d7252ad13900f9bfd00d3d9b834a2166", "lon": -76.97802566666667, "fusion_lat": 0.0, "rental_uris": {"android": "https://dc.lft.to/lastmile_qr_scan", "ios": "https://dc.lft.to/lastmile_qr_scan"}, "type": "electric_scooter"}, {"is_reserved": 0, "is_disabled": 0, "fusion_lon": 0.0, "lat": 38.90367366666667, "name": "b91bf49df6152caa9dcd8269c30ef126", "bike_id": "b91bf49df6152caa9dcd8269c30ef126", "lon": -77.03158383333333, "fusion_lat": 0.0, "rental_uris": {"android": "https://dc.lft.to/lastmile_qr_scan", "ios": "https://dc.lft.to/lastmile_qr_scan"}, "type": "electric_scooter"}, {"is_reserved": 0, "is_disabled": 0, "fusion_lon": 0.0, "lat": 38.9212915, "name": "9bec23109ef64e07c9e03f067ffec873", "bike_id": "9bec23109ef64e07c9e03f067ffec873", "lon": -77.01164283333334, "fusion_lat": 0.0, "rental_uris": {"android": "https://dc.lft.to/lastmile_qr_scan", "ios": "https://dc.lft.to/lastmile_qr_scan"}, "type": "electric_scooter"}, {"is_reserved": 0, "is_disabled": 0, "fusion_lon": 0.0, "lat": 38.9206805, "name": "f331d0be26fa593af1d9846882796944", "bike_id": "f331d0be26fa593af1d9846882796944", "lon": -77.04553183333333, "fusion_lat": 0.0, "rental_uris": {"android": "https://dc.lft.to/lastmile_qr_scan", "ios": "https://dc.lft.to/lastmile_qr_scan"}, "type": "electric_scooter"}, {"is_reserved": 0, "is_disabled": 0, "fusion_lon": 0.0, "lat": 38.921493, "name": "e1b0cb71c6b029397fc3ef24d60ec58a", "bike_id": "e1b0cb71c6b029397fc3ef24d60ec58a", "lon": -77.01791483333334, "fusion_lat": 0.0, "rental_uris": {"android": "https://dc.lft.to/lastmile_qr_scan", "ios": "https://dc.lft.to/lastmile_qr_scan"}, "type": "electric_scooter"}, {"is_reserved": 0, "is_disabled": 0, "fusion_lon": 0.0, "lat": 38.91974783333333, "name": "672d960e2b30e44c81e1933a30eae409", "bike_id": "672d960e2b30e44c81e1933a30eae409", "lon": -77.03207983333333, "fusion_lat": 0.0, "rental_uris": {"android": "https://dc.lft.to/lastmile_qr_scan", "ios": "https://dc.lft.to/lastmile_qr_scan"}, "type": "electric_scooter"}, {"is_reserved": 0, "is_disabled": 0, "fusion_lon": 0.0, "lat": 38.92317233333333, "name": "730a2875f1bafa07067254dff8df1373", "bike_id": "730a2875f1bafa07067254dff8df1373", "lon": -77.0296415, "fusion_lat": 0.0, "rental_uris": {"android": "https://dc.lft.to/lastmile_qr_scan", "ios": "https://dc.lft.to/lastmile_qr_scan"}, "type": "electric_scooter"}, {"is_reserved": 0, "is_disabled": 0, "fusion_lon": 0.0, "lat": 38.957034, "name": "5cb5071c5bd174b8e55e310dd11ea27b", "bike_id": "5cb5071c5bd174b8e55e310dd11ea27b", "lon": -77.35971716666667, "fusion_lat": 0.0, "rental_uris": {"android": "https://dc.lft.to/lastmile_qr_scan", "ios": "https://dc.lft.to/lastmile_qr_scan"}, "type": "electric_bike"}, {"is_reserved": 0, "is_disabled": 0, "fusion_lon": 0.0, "lat": 38.9040925, "name": "80987bbde094ca5b3682b6a4f498c6d4", "bike_id": "80987bbde094ca5b3682b6a4f498c6d4", "lon": -77.024805, "fusion_lat": 0.0, "rental_uris": {"android": "https://dc.lft.to/lastmile_qr_scan", "ios": "https://dc.lft.to/lastmile_qr_scan"}, "type": "electric_scooter"}, {"is_reserved": 0, "is_disabled": 0, "fusion_lon": 0.0, "lat": 38.88236066666666, "name": "bb3951a02b40a9d107f7ce6dd0a98b98", "bike_id": "bb3951a02b40a9d107f7ce6dd0a98b98", "lon": -76.9949145, "fusion_lat": 0.0, "rental_uris": {"android": "https://dc.lft.to/lastmile_qr_scan", "ios": "https://dc.lft.to/lastmile_qr_scan"}, "type": "electric_scooter"}, {"is_reserved": 0, "is_disabled": 0, "fusion_lon": 0.0, "lat": 38.903735833333336, "name": "8fa4b992b94210b2a683c47bd685f00e", "bike_id": "8fa4b992b94210b2a683c47bd685f00e", "lon": -77.04187783333333, "fusion_lat": 0.0, "rental_uris": {"android": "https://dc.lft.to/lastmile_qr_scan", "ios": "https://dc.lft.to/lastmile_qr_scan"}, "type": "electric_scooter"}, {"is_reserved": 0, "is_disabled": 0, "fusion_lon": 0.0, "lat": 38.91979833333333, "name": "1a3ed4b923b6ec6b1ca4f0cbda85ee9d", "bike_id": "1a3ed4b923b6ec6b1ca4f0cbda85ee9d", "lon": -77.01857616666666, "fusion_lat": 0.0, "rental_uris": {"android": "https://dc.lft.to/lastmile_qr_scan", "ios": "https://dc.lft.to/lastmile_qr_scan"}, "type": "electric_scooter"}, {"is_reserved": 0, "is_disabled": 0, "fusion_lon": 0.0, "lat": 38.9031055, "name": "68bd0802a0c3de19f78786ecaaff47b7", "bike_id": "68bd0802a0c3de19f78786ecaaff47b7", "lon": -77.0195515, "fusion_lat": 0.0, "rental_uris": {"android": "https://dc.lft.to/lastmile_qr_scan", "ios": "https://dc.lft.to/lastmile_qr_scan"}, "type": "electric_scooter"}, {"is_reserved": 0, "is_disabled": 0, "fusion_lon": 0.0, "lat": 38.98965783333333, "name": "11322c63113c9b68a94699797ee1f279", "bike_id": "11322c63113c9b68a94699797ee1f279", "lon": -77.09891, "fusion_lat": 0.0, "rental_uris": {"android": "https://dc.lft.to/lastmile_qr_scan", "ios": "https://dc.lft.to/lastmile_qr_scan"}, "type": "electric_bike"}, {"is_reserved": 0, "is_disabled": 0, "fusion_lon": 0.0, "lat": 38.908737, "name": "bc03cc1feb4d9c6f4a559cb0561b5dcd", "bike_id": "bc03cc1feb4d9c6f4a559cb0561b5dcd", "lon": -77.00286733333333, "fusion_lat": 0.0, "rental_uris": {"android": "https://dc.lft.to/lastmile_qr_scan", "ios": "https://dc.lft.to/lastmile_qr_scan"}, "type": "electric_scooter"}, {"is_reserved": 0, "is_disabled": 0, "fusion_lon": 0.0, "lat": 38.90006866666667, "name": "c9ca85999650b05794d722f03e1eb840", "bike_id": "c9ca85999650b05794d722f03e1eb840", "lon": -77.00930733333334, "fusion_lat": 0.0, "rental_uris": {"android": "https://dc.lft.to/lastmile_qr_scan", "ios": "https://dc.lft.to/lastmile_qr_scan"}, "type": "electric_scooter"}, {"is_reserved": 0, "is_disabled": 0, "fusion_lon": 0.0, "lat": 38.931461166666665, "name": "697583ff4c156a14cae040add93a8be4", "bike_id": "697583ff4c156a14cae040add93a8be4", "lon": -77.032429, "fusion_lat": 0.0, "rental_uris": {"android": "https://dc.lft.to/lastmile_qr_scan", "ios": "https://dc.lft.to/lastmile_qr_scan"}, "type": "electric_scooter"}, {"is_reserved": 0, "is_disabled": 0, "fusion_lon": 0.0, "lat": 38.93433, "name": "58bf5509e1dba27d9b79fb21083da47d", "bike_id": "58bf5509e1dba27d9b79fb21083da47d", "lon": -77.034457, "fusion_lat": 0.0, "rental_uris": {"android": "https://dc.lft.to/lastmile_qr_scan", "ios": "https://dc.lft.to/lastmile_qr_scan"}, "type": "electric_scooter"}, {"is_reserved": 0, "is_disabled": 0, "fusion_lon": 0.0, "lat": 38.90203233333333, "name": "1d8bdc3289e5ad6d8a0bf079d127155d", "bike_id": "1d8bdc3289e5ad6d8a0bf079d127155d", "lon": -77.05900066666666, "fusion_lat": 0.0, "rental_uris": {"android": "https://dc.lft.to/lastmile_qr_scan", "ios": "https://dc.lft.to/lastmile_qr_scan"}, "type": "electric_scooter"}, {"is_reserved": 0, "is_disabled": 0, "fusion_lon": 0.0, "lat": 38.9084995, "name": "23f26210778d1e7a8283d7a8f71a5f31", "bike_id": "23f26210778d1e7a8283d7a8f71a5f31", "lon": -76.99801633333334, "fusion_lat": 0.0, "rental_uris": {"android": "https://dc.lft.to/lastmile_qr_scan", "ios": "https://dc.lft.to/lastmile_qr_scan"}, "type": "electric_scooter"}, {"is_reserved": 0, "is_disabled": 0, "fusion_lon": 0.0, "lat": 38.9198485, "name": "316c584c1d19e791ba5d0338f8e10b40", "bike_id": "316c584c1d19e791ba5d0338f8e10b40", "lon": -77.03255033333333, "fusion_lat": 0.0, "rental_uris": {"android": "https://dc.lft.to/lastmile_qr_scan", "ios": "https://dc.lft.to/lastmile_qr_scan"}, "type": "electric_scooter"}, {"is_reserved": 0, "is_disabled": 0, "fusion_lon": 0.0, "lat": 38.91927866666666, "name": "475a51507085ec22351d80f0b3555f92", "bike_id": "475a51507085ec22351d80f0b3555f92", "lon": -77.02481266666666, "fusion_lat": 0.0, "rental_uris": {"android": "https://dc.lft.to/lastmile_qr_scan", "ios": "https://dc.lft.to/lastmile_qr_scan"}, "type": "electric_scooter"}, {"is_reserved": 0, "is_disabled": 0, "fusion_lon": 0.0, "lat": 38.9444625, "name": "ce1c89567f340ac697573c32655c63ba", "bike_id": "ce1c89567f340ac697573c32655c63ba", "lon": -77.06351233333334, "fusion_lat": 0.0, "rental_uris": {"android": "https://dc.lft.to/lastmile_qr_scan", "ios": "https://dc.lft.to/lastmile_qr_scan"}, "type": "electric_scooter"}, {"is_reserved": 0, "is_disabled": 0, "fusion_lon": 0.0, "lat": 38.90560166666667, "name": "537b05e60af682c13f31126e717f389d", "bike_id": "537b05e60af682c13f31126e717f389d", "lon": -77.033831, "fusion_lat": 0.0, "rental_uris": {"android": "https://dc.lft.to/lastmile_qr_scan", "ios": "https://dc.lft.to/lastmile_qr_scan"}, "type": "electric_scooter"}, {"is_reserved": 0, "is_disabled": 0, "fusion_lon": 0.0, "lat": 39.084915333333335, "name": "1c0cc6618d321995a5ecc8544c4b3dea", "bike_id": "1c0cc6618d321995a5ecc8544c4b3dea", "lon": -76.95050266666667, "fusion_lat": 0.0, "rental_uris": {"android": "https://dc.lft.to/lastmile_qr_scan", "ios": "https://dc.lft.to/lastmile_qr_scan"}, "type": "electric_bike"}, {"is_reserved": 0, "is_disabled": 0, "fusion_lon": 0.0, "lat": 38.91844416666667, "name": "57022b07dd402f9f4f6a4ff5c0bf9337", "bike_id": "57022b07dd402f9f4f6a4ff5c0bf9337", "lon": -77.05911816666666, "fusion_lat": 0.0, "rental_uris": {"android": "https://dc.lft.to/lastmile_qr_scan", "ios": "https://dc.lft.to/lastmile_qr_scan"}, "type": "electric_scooter"}, {"is_reserved": 0, "is_disabled": 0, "fusion_lon": 0.0, "lat": 38.918740666666665, "name": "5e8ba0caa06bbcf36e818768a14be239", "bike_id": "5e8ba0caa06bbcf36e818768a14be239", "lon": -77.04093433333334, "fusion_lat": 0.0, "rental_uris": {"android": "https://dc.lft.to/lastmile_qr_scan", "ios": "https://dc.lft.to/lastmile_qr_scan"}, "type": "electric_scooter"}, {"is_reserved": 0, "is_disabled": 0, "fusion_lon": 0.0, "lat": 38.93687383333334, "name": "697a7c2881038dbabf23e08a7c148d57", "bike_id": "697a7c2881038dbabf23e08a7c148d57", "lon": -77.02413416666667, "fusion_lat": 0.0, "rental_uris": {"android": "https://dc.lft.to/lastmile_qr_scan", "ios": "https://dc.lft.to/lastmile_qr_scan"}, "type": "electric_scooter"}, {"is_reserved": 0, "is_disabled": 0, "fusion_lon": 0.0, "lat": 38.9283645, "name": "d50240e5a93efdeb43ad0fac51d76ef2", "bike_id": "d50240e5a93efdeb43ad0fac51d76ef2", "lon": -77.03729233333334, "fusion_lat": 0.0, "rental_uris": {"android": "https://dc.lft.to/lastmile_qr_scan", "ios": "https://dc.lft.to/lastmile_qr_scan"}, "type": "electric_scooter"}, {"is_reserved": 0, "is_disabled": 0, "fusion_lon": 0.0, "lat": 38.92149, "name": "042b681cd2b9d948053ba9d6710f403f", "bike_id": "042b681cd2b9d948053ba9d6710f403f", "lon": -77.04024983333333, "fusion_lat": 0.0, "rental_uris": {"android": "https://dc.lft.to/lastmile_qr_scan", "ios": "https://dc.lft.to/lastmile_qr_scan"}, "type": "electric_scooter"}, {"is_reserved": 0, "is_disabled": 0, "fusion_lon": 0.0, "lat": 38.85812416666667, "name": "e84762a3ba000afbb74e0580326124ec", "bike_id": "e84762a3ba000afbb74e0580326124ec", "lon": -76.98997633333333, "fusion_lat": 0.0, "rental_uris": {"android": "https://dc.lft.to/lastmile_qr_scan", "ios": "https://dc.lft.to/lastmile_qr_scan"}, "type": "electric_scooter"}, {"is_reserved": 0, "is_disabled": 0, "fusion_lon": 0.0, "lat": 38.90049633333334, "name": "a47244769857c4da845901c496d167dd", "bike_id": "a47244769857c4da845901c496d167dd", "lon": -76.9915655, "fusion_lat": 0.0, "rental_uris": {"android": "https://dc.lft.to/lastmile_qr_scan", "ios": "https://dc.lft.to/lastmile_qr_scan"}, "type": "electric_scooter"}, {"is_reserved": 0, "is_disabled": 0, "fusion_lon": 0.0, "lat": 38.9155565, "name": "eff3d5f09f9ee5ced443fc73f0d4a0ec", "bike_id": "eff3d5f09f9ee5ced443fc73f0d4a0ec", "lon": -77.0463815, "fusion_lat": 0.0, "rental_uris": {"android": "https://dc.lft.to/lastmile_qr_scan", "ios": "https://dc.lft.to/lastmile_qr_scan"}, "type": "electric_bike"}, {"is_reserved": 0, "is_disabled": 0, "fusion_lon": 0.0, "lat": 38.887077166666664, "name": "cc3fe4ec6988f630ca31fc27675a7608", "bike_id": "cc3fe4ec6988f630ca31fc27675a7608", "lon": -76.98340083333333, "fusion_lat": 0.0, "rental_uris": {"android": "https://dc.lft.to/lastmile_qr_scan", "ios": "https://dc.lft.to/lastmile_qr_scan"}, "type": "electric_scooter"}, {"is_reserved": 0, "is_disabled": 0, "fusion_lon": 0.0, "lat": 38.87600333333334, "name": "946fcec709d96809ad561ba59ab87e6b", "bike_id": "946fcec709d96809ad561ba59ab87e6b", "lon": -77.0057445, "fusion_lat": 0.0, "rental_uris": {"android": "https://dc.lft.to/lastmile_qr_scan", "ios": "https://dc.lft.to/lastmile_qr_scan"}, "type": "electric_scooter"}, {"is_reserved": 0, "is_disabled": 0, "fusion_lon": 0.0, "lat": 38.803843, "name": "1bc9c41e9aa5992920c9213cb3356269", "bike_id": "1bc9c41e9aa5992920c9213cb3356269", "lon": -76.98818616666667, "fusion_lat": 0.0, "rental_uris": {"android": "https://dc.lft.to/lastmile_qr_scan", "ios": "https://dc.lft.to/lastmile_qr_scan"}, "type": "electric_bike"}, {"is_reserved": 0, "is_disabled": 0, "fusion_lon": 0.0, "lat": 38.920625, "name": "4ab04aa54b92dd466c9365b8e88966cf", "bike_id": "4ab04aa54b92dd466c9365b8e88966cf", "lon": -77.0160435, "fusion_lat": 0.0, "rental_uris": {"android": "https://dc.lft.to/lastmile_qr_scan", "ios": "https://dc.lft.to/lastmile_qr_scan"}, "type": "electric_scooter"}, {"is_reserved": 0, "is_disabled": 0, "fusion_lon": 0.0, "lat": 38.880244833333336, "name": "e510c52c7806af5bbca829bfc7c93bc6", "bike_id": "e510c52c7806af5bbca829bfc7c93bc6", "lon": -76.943234, "fusion_lat": 0.0, "rental_uris": {"android": "https://dc.lft.to/lastmile_qr_scan", "ios": "https://dc.lft.to/lastmile_qr_scan"}, "type": "electric_scooter"}, {"is_reserved": 0, "is_disabled": 0, "fusion_lon": 0.0, "lat": 38.92047783333334, "name": "45928c51f042c4d058f0aeb8ad1df080", "bike_id": "45928c51f042c4d058f0aeb8ad1df080", "lon": -77.0176485, "fusion_lat": 0.0, "rental_uris": {"android": "https://dc.lft.to/lastmile_qr_scan", "ios": "https://dc.lft.to/lastmile_qr_scan"}, "type": "electric_scooter"}, {"is_reserved": 0, "is_disabled": 0, "fusion_lon": 0.0, "lat": 38.906689, "name": "37920fda07a1a9ff92719540115575aa", "bike_id": "37920fda07a1a9ff92719540115575aa", "lon": -76.98367166666667, "fusion_lat": 0.0, "rental_uris": {"android": "https://dc.lft.to/lastmile_qr_scan", "ios": "https://dc.lft.to/lastmile_qr_scan"}, "type": "electric_scooter"}, {"is_reserved": 0, "is_disabled": 0, "fusion_lon": 0.0, "lat": 38.9004725, "name": "bf27f576185e2f69a1398c11768357b5", "bike_id": "bf27f576185e2f69a1398c11768357b5", "lon": -77.01770316666666, "fusion_lat": 0.0, "rental_uris": {"android": "https://dc.lft.to/lastmile_qr_scan", "ios": "https://dc.lft.to/lastmile_qr_scan"}, "type": "electric_scooter"}, {"is_reserved": 0, "is_disabled": 0, "fusion_lon": 0.0, "lat": 38.912256, "name": "4d73cd6c4cd4ec96d86d0106739822a9", "bike_id": "4d73cd6c4cd4ec96d86d0106739822a9", "lon": -77.077502, "fusion_lat": 0.0, "rental_uris": {"android": "https://dc.lft.to/lastmile_qr_scan", "ios": "https://dc.lft.to/lastmile_qr_scan"}, "type": "electric_scooter"}, {"is_reserved": 0, "is_disabled": 0, "fusion_lon": 0.0, "lat": 38.92239683333333, "name": "bcb78af130636461e5e2886da6d338f9", "bike_id": "bcb78af130636461e5e2886da6d338f9", "lon": -77.02855416666667, "fusion_lat": 0.0, "rental_uris": {"android": "https://dc.lft.to/lastmile_qr_scan", "ios": "https://dc.lft.to/lastmile_qr_scan"}, "type": "electric_scooter"}, {"is_reserved": 0, "is_disabled": 0, "fusion_lon": 0.0, "lat": 38.90098316666667, "name": "2ad2556e844500b4d366d9808b7492c8", "bike_id": "2ad2556e844500b4d366d9808b7492c8", "lon": -77.05786483333333, "fusion_lat": 0.0, "rental_uris": {"android": "https://dc.lft.to/lastmile_qr_scan", "ios": "https://dc.lft.to/lastmile_qr_scan"}, "type": "electric_scooter"}, {"is_reserved": 0, "is_disabled": 0, "fusion_lon": 0.0, "lat": 38.929630833333334, "name": "1d1c7acdba16848b06b5d8375a5ae3b8", "bike_id": "1d1c7acdba16848b06b5d8375a5ae3b8", "lon": -77.042013, "fusion_lat": 0.0, "rental_uris": {"android": "https://dc.lft.to/lastmile_qr_scan", "ios": "https://dc.lft.to/lastmile_qr_scan"}, "type": "electric_scooter"}, {"is_reserved": 0, "is_disabled": 0, "fusion_lon": 0.0, "lat": 38.93746766666667, "name": "a4294df0299cd3f180b5da7031e88986", "bike_id": "a4294df0299cd3f180b5da7031e88986", "lon": -77.02541566666666, "fusion_lat": 0.0, "rental_uris": {"android": "https://dc.lft.to/lastmile_qr_scan", "ios": "https://dc.lft.to/lastmile_qr_scan"}, "type": "electric_scooter"}, {"is_reserved": 0, "is_disabled": 0, "fusion_lon": 0.0, "lat": 38.9131765, "name": "4dd3c3dcde6fb276bab7472f7f9f1d7d", "bike_id": "4dd3c3dcde6fb276bab7472f7f9f1d7d", "lon": -77.0466835, "fusion_lat": 0.0, "rental_uris": {"android": "https://dc.lft.to/lastmile_qr_scan", "ios": "https://dc.lft.to/lastmile_qr_scan"}, "type": "electric_scooter"}, {"is_reserved": 0, "is_disabled": 0, "fusion_lon": 0.0, "lat": 38.8973775, "name": "db94f198f581816ee57b71653004d57e", "bike_id": "db94f198f581816ee57b71653004d57e", "lon": -77.03109283333333, "fusion_lat": 0.0, "rental_uris": {"android": "https://dc.lft.to/lastmile_qr_scan", "ios": "https://dc.lft.to/lastmile_qr_scan"}, "type": "electric_scooter"}, {"is_reserved": 0, "is_disabled": 0, "fusion_lon": 0.0, "lat": 38.91029283333334, "name": "f9e16a53e245b88fc03e419e812ec8b4", "bike_id": "f9e16a53e245b88fc03e419e812ec8b4", "lon": -77.03179933333334, "fusion_lat": 0.0, "rental_uris": {"android": "https://dc.lft.to/lastmile_qr_scan", "ios": "https://dc.lft.to/lastmile_qr_scan"}, "type": "electric_scooter"}, {"is_reserved": 0, "is_disabled": 0, "fusion_lon": 0.0, "lat": 38.924508, "name": "f8017473111c3007a3486df51a7deaad", "bike_id": "f8017473111c3007a3486df51a7deaad", "lon": -77.02240633333334, "fusion_lat": 0.0, "rental_uris": {"android": "https://dc.lft.to/lastmile_qr_scan", "ios": "https://dc.lft.to/lastmile_qr_scan"}, "type": "electric_scooter"}, {"is_reserved": 0, "is_disabled": 0, "fusion_lon": 0.0, "lat": 38.90458783333333, "name": "254cb96af166d54fe86615f80c836361", "bike_id": "254cb96af166d54fe86615f80c836361", "lon": -76.99458233333333, "fusion_lat": 0.0, "rental_uris": {"android": "https://dc.lft.to/lastmile_qr_scan", "ios": "https://dc.lft.to/lastmile_qr_scan"}, "type": "electric_scooter"}, {"is_reserved": 0, "is_disabled": 0, "fusion_lon": 0.0, "lat": 38.922208166666664, "name": "234b9cf3e1229c9c373ca742e929da27", "bike_id": "234b9cf3e1229c9c373ca742e929da27", "lon": -77.0424245, "fusion_lat": 0.0, "rental_uris": {"android": "https://dc.lft.to/lastmile_qr_scan", "ios": "https://dc.lft.to/lastmile_qr_scan"}, "type": "electric_scooter"}, {"is_reserved": 0, "is_disabled": 0, "fusion_lon": 0.0, "lat": 38.900430166666666, "name": "b96aaba614fd284f088be7c9fd1d6739", "bike_id": "b96aaba614fd284f088be7c9fd1d6739", "lon": -77.039527, "fusion_lat": 0.0, "rental_uris": {"android": "https://dc.lft.to/lastmile_qr_scan", "ios": "https://dc.lft.to/lastmile_qr_scan"}, "type": "electric_scooter"}, {"is_reserved": 0, "is_disabled": 0, "fusion_lon": 0.0, "lat": 38.8985175, "name": "31d95351179dd5526f908ddd9fc4022d", "bike_id": "31d95351179dd5526f908ddd9fc4022d", "lon": -76.93184333333333, "fusion_lat": 0.0, "rental_uris": {"android": "https://dc.lft.to/lastmile_qr_scan", "ios": "https://dc.lft.to/lastmile_qr_scan"}, "type": "electric_bike"}, {"is_reserved": 0, "is_disabled": 0, "fusion_lon": 0.0, "lat": 38.93304933333334, "name": "9d4c0e593bb44bea035d13c16b0a9f13", "bike_id": "9d4c0e593bb44bea035d13c16b0a9f13", "lon": -77.03080116666666, "fusion_lat": 0.0, "rental_uris": {"android": "https://dc.lft.to/lastmile_qr_scan", "ios": "https://dc.lft.to/lastmile_qr_scan"}, "type": "electric_scooter"}, {"is_reserved": 0, "is_disabled": 0, "fusion_lon": 0.0, "lat": 38.896026166666665, "name": "98c7fb5f6224f2d5767dd6044177215f", "bike_id": "98c7fb5f6224f2d5767dd6044177215f", "lon": -76.94848333333333, "fusion_lat": 0.0, "rental_uris": {"android": "https://dc.lft.to/lastmile_qr_scan", "ios": "https://dc.lft.to/lastmile_qr_scan"}, "type": "electric_scooter"}, {"is_reserved": 0, "is_disabled": 0, "fusion_lon": 0.0, "lat": 38.956159, "name": "f607eafb00918d44ab5300980bde844d", "bike_id": "f607eafb00918d44ab5300980bde844d", "lon": -76.962673, "fusion_lat": 0.0, "rental_uris": {"android": "https://dc.lft.to/lastmile_qr_scan", "ios": "https://dc.lft.to/lastmile_qr_scan"}, "type": "electric_bike"}, {"is_reserved": 0, "is_disabled": 0, "fusion_lon": 0.0, "lat": 38.923098, "name": "71587982d1e7dda2177bbf0f07b51419", "bike_id": "71587982d1e7dda2177bbf0f07b51419", "lon": -77.031104, "fusion_lat": 0.0, "rental_uris": {"android": "https://dc.lft.to/lastmile_qr_scan", "ios": "https://dc.lft.to/lastmile_qr_scan"}, "type": "electric_scooter"}, {"is_reserved": 0, "is_disabled": 0, "fusion_lon": 0.0, "lat": 38.883652833333336, "name": "fa4e8a7bbdb0de3ed895303f776051f8", "bike_id": "fa4e8a7bbdb0de3ed895303f776051f8", "lon": -76.9950865, "fusion_lat": 0.0, "rental_uris": {"android": "https://dc.lft.to/lastmile_qr_scan", "ios": "https://dc.lft.to/lastmile_qr_scan"}, "type": "electric_scooter"}, {"is_reserved": 0, "is_disabled": 0, "fusion_lon": 0.0, "lat": 38.887868833333336, "name": "caf5692e57dbea32e248d23df3058dca", "bike_id": "caf5692e57dbea32e248d23df3058dca", "lon": -77.01595633333334, "fusion_lat": 0.0, "rental_uris": {"android": "https://dc.lft.to/lastmile_qr_scan", "ios": "https://dc.lft.to/lastmile_qr_scan"}, "type": "electric_scooter"}, {"is_reserved": 0, "is_disabled": 0, "fusion_lon": 0.0, "lat": 38.88138933333333, "name": "305942789cb33cd2861982da86716098", "bike_id": "305942789cb33cd2861982da86716098", "lon": -77.02275083333333, "fusion_lat": 0.0, "rental_uris": {"android": "https://dc.lft.to/lastmile_qr_scan", "ios": "https://dc.lft.to/lastmile_qr_scan"}, "type": "electric_scooter"}, {"is_reserved": 0, "is_disabled": 0, "fusion_lon": 0.0, "lat": 38.99230716666667, "name": "0363a7aa96cf1943e44fc876f4d830ca", "bike_id": "0363a7aa96cf1943e44fc876f4d830ca", "lon": -77.02383133333333, "fusion_lat": 0.0, "rental_uris": {"android": "https://dc.lft.to/lastmile_qr_scan", "ios": "https://dc.lft.to/lastmile_qr_scan"}, "type": "electric_bike"}, {"is_reserved": 0, "is_disabled": 0, "fusion_lon": 0.0, "lat": 38.919496333333335, "name": "bcaf8f2c9ef7f63e946bb153515aa318", "bike_id": "bcaf8f2c9ef7f63e946bb153515aa318", "lon": -77.04157216666667, "fusion_lat": 0.0, "rental_uris": {"android": "https://dc.lft.to/lastmile_qr_scan", "ios": "https://dc.lft.to/lastmile_qr_scan"}, "type": "electric_scooter"}, {"is_reserved": 0, "is_disabled": 0, "fusion_lon": 0.0, "lat": 38.92687216666667, "name": "18be15b6ccd1a4c423eee8329a711583", "bike_id": "18be15b6ccd1a4c423eee8329a711583", "lon": -77.02963283333334, "fusion_lat": 0.0, "rental_uris": {"android": "https://dc.lft.to/lastmile_qr_scan", "ios": "https://dc.lft.to/lastmile_qr_scan"}, "type": "electric_scooter"}, {"is_reserved": 0, "is_disabled": 0, "fusion_lon": 0.0, "lat": 38.972364666666664, "name": "07728abe7df53af10273625759b5f5aa", "bike_id": "07728abe7df53af10273625759b5f5aa", "lon": -77.02711783333334, "fusion_lat": 0.0, "rental_uris": {"android": "https://dc.lft.to/lastmile_qr_scan", "ios": "https://dc.lft.to/lastmile_qr_scan"}, "type": "electric_scooter"}, {"is_reserved": 0, "is_disabled": 0, "fusion_lon": 0.0, "lat": 38.842910833333335, "name": "60686b94d41fd9c2c972f2ed5c8aef13", "bike_id": "60686b94d41fd9c2c972f2ed5c8aef13", "lon": -77.06380966666667, "fusion_lat": 0.0, "rental_uris": {"android": "https://dc.lft.to/lastmile_qr_scan", "ios": "https://dc.lft.to/lastmile_qr_scan"}, "type": "electric_bike"}, {"is_reserved": 0, "is_disabled": 0, "fusion_lon": 0.0, "lat": 38.92242266666667, "name": "d47703530ecc87a1f0e45756506b8a07", "bike_id": "d47703530ecc87a1f0e45756506b8a07", "lon": -77.02987333333333, "fusion_lat": 0.0, "rental_uris": {"android": "https://dc.lft.to/lastmile_qr_scan", "ios": "https://dc.lft.to/lastmile_qr_scan"}, "type": "electric_scooter"}, {"is_reserved": 0, "is_disabled": 0, "fusion_lon": 0.0, "lat": 38.91806966666667, "name": "58d5603b8e2330ef5db9ca5f9622e140", "bike_id": "58d5603b8e2330ef5db9ca5f9622e140", "lon": -77.04153516666666, "fusion_lat": 0.0, "rental_uris": {"android": "https://dc.lft.to/lastmile_qr_scan", "ios": "https://dc.lft.to/lastmile_qr_scan"}, "type": "electric_scooter"}, {"is_reserved": 0, "is_disabled": 0, "fusion_lon": 0.0, "lat": 38.916916666666665, "name": "a597fca7a6557a91d822ded317ddd921", "bike_id": "a597fca7a6557a91d822ded317ddd921", "lon": -77.02491083333334, "fusion_lat": 0.0, "rental_uris": {"android": "https://dc.lft.to/lastmile_qr_scan", "ios": "https://dc.lft.to/lastmile_qr_scan"}, "type": "electric_scooter"}, {"is_reserved": 0, "is_disabled": 0, "fusion_lon": 0.0, "lat": 38.909586833333336, "name": "63ed4fbac15d7fd86daf099a3bdaa28c", "bike_id": "63ed4fbac15d7fd86daf099a3bdaa28c", "lon": -77.02312883333333, "fusion_lat": 0.0, "rental_uris": {"android": "https://dc.lft.to/lastmile_qr_scan", "ios": "https://dc.lft.to/lastmile_qr_scan"}, "type": "electric_scooter"}, {"is_reserved": 0, "is_disabled": 0, "fusion_lon": 0.0, "lat": 38.911988666666666, "name": "26c5116c6ce5c06c16eeca7ffb1ec802", "bike_id": "26c5116c6ce5c06c16eeca7ffb1ec802", "lon": -77.03182216666667, "fusion_lat": 0.0, "rental_uris": {"android": "https://dc.lft.to/lastmile_qr_scan", "ios": "https://dc.lft.to/lastmile_qr_scan"}, "type": "electric_scooter"}, {"is_reserved": 0, "is_disabled": 0, "fusion_lon": 0.0, "lat": 38.92335966666667, "name": "905e8d51a1e4a4635cc8c44f63d54131", "bike_id": "905e8d51a1e4a4635cc8c44f63d54131", "lon": -77.01910216666667, "fusion_lat": 0.0, "rental_uris": {"android": "https://dc.lft.to/lastmile_qr_scan", "ios": "https://dc.lft.to/lastmile_qr_scan"}, "type": "electric_scooter"}, {"is_reserved": 0, "is_disabled": 0, "fusion_lon": 0.0, "lat": 38.92238716666667, "name": "5e629aca03eac46de8d0f2b22644ce6d", "bike_id": "5e629aca03eac46de8d0f2b22644ce6d", "lon": -77.02260683333333, "fusion_lat": 0.0, "rental_uris": {"android": "https://dc.lft.to/lastmile_qr_scan", "ios": "https://dc.lft.to/lastmile_qr_scan"}, "type": "electric_scooter"}, {"is_reserved": 0, "is_disabled": 0, "fusion_lon": 0.0, "lat": 38.91632716666667, "name": "40cbc5fbb8f7d41ec904c6f0fce5adc0", "bike_id": "40cbc5fbb8f7d41ec904c6f0fce5adc0", "lon": -77.04621283333333, "fusion_lat": 0.0, "rental_uris": {"android": "https://dc.lft.to/lastmile_qr_scan", "ios": "https://dc.lft.to/lastmile_qr_scan"}, "type": "electric_scooter"}, {"is_reserved": 0, "is_disabled": 0, "fusion_lon": 0.0, "lat": 38.894789, "name": "109dd4428b92a94bc36e942e5d85939f", "bike_id": "109dd4428b92a94bc36e942e5d85939f", "lon": -77.02013916666667, "fusion_lat": 0.0, "rental_uris": {"android": "https://dc.lft.to/lastmile_qr_scan", "ios": "https://dc.lft.to/lastmile_qr_scan"}, "type": "electric_scooter"}, {"is_reserved": 0, "is_disabled": 0, "fusion_lon": 0.0, "lat": 38.90383116666667, "name": "7d32085b26d59ad8f612e905ff52bd41", "bike_id": "7d32085b26d59ad8f612e905ff52bd41", "lon": -77.04038933333334, "fusion_lat": 0.0, "rental_uris": {"android": "https://dc.lft.to/lastmile_qr_scan", "ios": "https://dc.lft.to/lastmile_qr_scan"}, "type": "electric_scooter"}, {"is_reserved": 0, "is_disabled": 0, "fusion_lon": 0.0, "lat": 38.900114333333335, "name": "c851d9fcb4066685217e715603f9d391", "bike_id": "c851d9fcb4066685217e715603f9d391", "lon": -76.98602316666667, "fusion_lat": 0.0, "rental_uris": {"android": "https://dc.lft.to/lastmile_qr_scan", "ios": "https://dc.lft.to/lastmile_qr_scan"}, "type": "electric_scooter"}, {"is_reserved": 0, "is_disabled": 0, "fusion_lon": 0.0, "lat": 38.948901, "name": "4e900284318305bfa66cdc8c689c14df", "bike_id": "4e900284318305bfa66cdc8c689c14df", "lon": -77.01850883333333, "fusion_lat": 0.0, "rental_uris": {"android": "https://dc.lft.to/lastmile_qr_scan", "ios": "https://dc.lft.to/lastmile_qr_scan"}, "type": "electric_scooter"}, {"is_reserved": 0, "is_disabled": 0, "fusion_lon": 0.0, "lat": 38.9206385, "name": "23299b2ab673467d506e28732314426e", "bike_id": "23299b2ab673467d506e28732314426e", "lon": -77.02845283333333, "fusion_lat": 0.0, "rental_uris": {"android": "https://dc.lft.to/lastmile_qr_scan", "ios": "https://dc.lft.to/lastmile_qr_scan"}, "type": "electric_scooter"}, {"is_reserved": 0, "is_disabled": 0, "fusion_lon": 0.0, "lat": 38.90236183333333, "name": "fc8870d733967e6e8172bfded0a109f4", "bike_id": "fc8870d733967e6e8172bfded0a109f4", "lon": -77.01629416666667, "fusion_lat": 0.0, "rental_uris": {"android": "https://dc.lft.to/lastmile_qr_scan", "ios": "https://dc.lft.to/lastmile_qr_scan"}, "type": "electric_scooter"}, {"is_reserved": 0, "is_disabled": 0, "fusion_lon": 0.0, "lat": 38.917456666666666, "name": "d87913a41493560f6f34959b12e769c3", "bike_id": "d87913a41493560f6f34959b12e769c3", "lon": -77.02493066666666, "fusion_lat": 0.0, "rental_uris": {"android": "https://dc.lft.to/lastmile_qr_scan", "ios": "https://dc.lft.to/lastmile_qr_scan"}, "type": "electric_scooter"}, {"is_reserved": 0, "is_disabled": 0, "fusion_lon": 0.0, "lat": 38.90389666666667, "name": "fd5b3872f5bcc06a93be033486b800d3", "bike_id": "fd5b3872f5bcc06a93be033486b800d3", "lon": -77.012705, "fusion_lat": 0.0, "rental_uris": {"android": "https://dc.lft.to/lastmile_qr_scan", "ios": "https://dc.lft.to/lastmile_qr_scan"}, "type": "electric_scooter"}, {"is_reserved": 0, "is_disabled": 0, "fusion_lon": 0.0, "lat": 38.90173033333333, "name": "75d6aae45aae6b8a5d7f1595697c32e3", "bike_id": "75d6aae45aae6b8a5d7f1595697c32e3", "lon": -77.0590025, "fusion_lat": 0.0, "rental_uris": {"android": "https://dc.lft.to/lastmile_qr_scan", "ios": "https://dc.lft.to/lastmile_qr_scan"}, "type": "electric_scooter"}, {"is_reserved": 0, "is_disabled": 0, "fusion_lon": 0.0, "lat": 38.94410666666667, "name": "3d9ff4ca259f19b4aaeffdde70229c92", "bike_id": "3d9ff4ca259f19b4aaeffdde70229c92", "lon": -77.06326883333334, "fusion_lat": 0.0, "rental_uris": {"android": "https://dc.lft.to/lastmile_qr_scan", "ios": "https://dc.lft.to/lastmile_qr_scan"}, "type": "electric_scooter"}, {"is_reserved": 0, "is_disabled": 0, "fusion_lon": 0.0, "lat": 38.90482766666667, "name": "77a6b0f4081689256e356e917a614b4c", "bike_id": "77a6b0f4081689256e356e917a614b4c", "lon": -77.0012765, "fusion_lat": 0.0, "rental_uris": {"android": "https://dc.lft.to/lastmile_qr_scan", "ios": "https://dc.lft.to/lastmile_qr_scan"}, "type": "electric_scooter"}, {"is_reserved": 0, "is_disabled": 0, "fusion_lon": 0.0, "lat": 38.92551866666667, "name": "207385911e17337ca86d2d8e7f15e360", "bike_id": "207385911e17337ca86d2d8e7f15e360", "lon": -77.0213825, "fusion_lat": 0.0, "rental_uris": {"android": "https://dc.lft.to/lastmile_qr_scan", "ios": "https://dc.lft.to/lastmile_qr_scan"}, "type": "electric_scooter"}, {"is_reserved": 0, "is_disabled": 0, "fusion_lon": 0.0, "lat": 38.924175166666664, "name": "0d72c97ce1d6467ff9306aa01adb9602", "bike_id": "0d72c97ce1d6467ff9306aa01adb9602", "lon": -77.02014483333333, "fusion_lat": 0.0, "rental_uris": {"android": "https://dc.lft.to/lastmile_qr_scan", "ios": "https://dc.lft.to/lastmile_qr_scan"}, "type": "electric_scooter"}, {"is_reserved": 0, "is_disabled": 0, "fusion_lon": 0.0, "lat": 38.9122435, "name": "963cee52e9bd729ac29aa38c6cfb4559", "bike_id": "963cee52e9bd729ac29aa38c6cfb4559", "lon": -77.03183016666667, "fusion_lat": 0.0, "rental_uris": {"android": "https://dc.lft.to/lastmile_qr_scan", "ios": "https://dc.lft.to/lastmile_qr_scan"}, "type": "electric_scooter"}, {"is_reserved": 0, "is_disabled": 0, "fusion_lon": 0.0, "lat": 38.9169045, "name": "263c6008279fd59c13d5f1eeee7de865", "bike_id": "263c6008279fd59c13d5f1eeee7de865", "lon": -77.02518233333333, "fusion_lat": 0.0, "rental_uris": {"android": "https://dc.lft.to/lastmile_qr_scan", "ios": "https://dc.lft.to/lastmile_qr_scan"}, "type": "electric_scooter"}, {"is_reserved": 0, "is_disabled": 0, "fusion_lon": 0.0, "lat": 38.924338, "name": "2472ff8195643d0e6cdc0b4061f18bad", "bike_id": "2472ff8195643d0e6cdc0b4061f18bad", "lon": -77.0032255, "fusion_lat": 0.0, "rental_uris": {"android": "https://dc.lft.to/lastmile_qr_scan", "ios": "https://dc.lft.to/lastmile_qr_scan"}, "type": "electric_scooter"}, {"is_reserved": 0, "is_disabled": 0, "fusion_lon": 0.0, "lat": 38.89510766666667, "name": "b9493e12feec5fdf8aec5c8eb7482eb4", "bike_id": "b9493e12feec5fdf8aec5c8eb7482eb4", "lon": -76.94886083333333, "fusion_lat": 0.0, "rental_uris": {"android": "https://dc.lft.to/lastmile_qr_scan", "ios": "https://dc.lft.to/lastmile_qr_scan"}, "type": "electric_scooter"}, {"is_reserved": 0, "is_disabled": 0, "fusion_lon": 0.0, "lat": 38.949653, "name": "8426f8a0f7d2c40a683e0e8ee0705150", "bike_id": "8426f8a0f7d2c40a683e0e8ee0705150", "lon": -76.9609455, "fusion_lat": 0.0, "rental_uris": {"android": "https://dc.lft.to/lastmile_qr_scan", "ios": "https://dc.lft.to/lastmile_qr_scan"}, "type": "electric_bike"}, {"is_reserved": 0, "is_disabled": 0, "fusion_lon": 0.0, "lat": 38.91347716666667, "name": "f23d94df7fd3169068223dca6ca3b9a1", "bike_id": "f23d94df7fd3169068223dca6ca3b9a1", "lon": -77.0318525, "fusion_lat": 0.0, "rental_uris": {"android": "https://dc.lft.to/lastmile_qr_scan", "ios": "https://dc.lft.to/lastmile_qr_scan"}, "type": "electric_scooter"}, {"is_reserved": 0, "is_disabled": 0, "fusion_lon": 0.0, "lat": 38.87653666666667, "name": "d103c85bd5ac7300a3681796f9f79720", "bike_id": "d103c85bd5ac7300a3681796f9f79720", "lon": -77.011729, "fusion_lat": 0.0, "rental_uris": {"android": "https://dc.lft.to/lastmile_qr_scan", "ios": "https://dc.lft.to/lastmile_qr_scan"}, "type": "electric_scooter"}, {"is_reserved": 0, "is_disabled": 0, "fusion_lon": 0.0, "lat": 38.930135166666666, "name": "22e554fa7890a3677b2a5d9baaa6f2be", "bike_id": "22e554fa7890a3677b2a5d9baaa6f2be", "lon": -77.0619075, "fusion_lat": 0.0, "rental_uris": {"android": "https://dc.lft.to/lastmile_qr_scan", "ios": "https://dc.lft.to/lastmile_qr_scan"}, "type": "electric_scooter"}, {"is_reserved": 0, "is_disabled": 0, "fusion_lon": 0.0, "lat": 38.9236715, "name": "4c174fe9f7ceade220e1066e7d37f9d6", "bike_id": "4c174fe9f7ceade220e1066e7d37f9d6", "lon": -77.04092466666667, "fusion_lat": 0.0, "rental_uris": {"android": "https://dc.lft.to/lastmile_qr_scan", "ios": "https://dc.lft.to/lastmile_qr_scan"}, "type": "electric_scooter"}, {"is_reserved": 0, "is_disabled": 0, "fusion_lon": 0.0, "lat": 38.90274433333333, "name": "227525e73fdfcb515c49cc04bc353eb9", "bike_id": "227525e73fdfcb515c49cc04bc353eb9", "lon": -77.03921816666667, "fusion_lat": 0.0, "rental_uris": {"android": "https://dc.lft.to/lastmile_qr_scan", "ios": "https://dc.lft.to/lastmile_qr_scan"}, "type": "electric_scooter"}, {"is_reserved": 0, "is_disabled": 0, "fusion_lon": 0.0, "lat": 38.89360333333333, "name": "8dce0a6a3068c9b1dd5b50968fe7ac58", "bike_id": "8dce0a6a3068c9b1dd5b50968fe7ac58", "lon": -77.04620266666667, "fusion_lat": 0.0, "rental_uris": {"android": "https://dc.lft.to/lastmile_qr_scan", "ios": "https://dc.lft.to/lastmile_qr_scan"}, "type": "electric_scooter"}, {"is_reserved": 0, "is_disabled": 0, "fusion_lon": 0.0, "lat": 38.91676016666667, "name": "2de9418eb8e504598db044f6ccaf9a2f", "bike_id": "2de9418eb8e504598db044f6ccaf9a2f", "lon": -77.02334966666666, "fusion_lat": 0.0, "rental_uris": {"android": "https://dc.lft.to/lastmile_qr_scan", "ios": "https://dc.lft.to/lastmile_qr_scan"}, "type": "electric_scooter"}, {"is_reserved": 0, "is_disabled": 0, "fusion_lon": 0.0, "lat": 38.897032, "name": "0f5126b1fcb25ef93fd6d2f5275b8173", "bike_id": "0f5126b1fcb25ef93fd6d2f5275b8173", "lon": -76.93921116666667, "fusion_lat": 0.0, "rental_uris": {"android": "https://dc.lft.to/lastmile_qr_scan", "ios": "https://dc.lft.to/lastmile_qr_scan"}, "type": "electric_scooter"}, {"is_reserved": 0, "is_disabled": 0, "fusion_lon": 0.0, "lat": 38.9082785, "name": "03183a0cddd1725d3cea0bb4756b83db", "bike_id": "03183a0cddd1725d3cea0bb4756b83db", "lon": -77.00202116666667, "fusion_lat": 0.0, "rental_uris": {"android": "https://dc.lft.to/lastmile_qr_scan", "ios": "https://dc.lft.to/lastmile_qr_scan"}, "type": "electric_scooter"}, {"is_reserved": 0, "is_disabled": 0, "fusion_lon": 0.0, "lat": 38.903934166666666, "name": "c844824d6d7fd4205025c1046c76eef5", "bike_id": "c844824d6d7fd4205025c1046c76eef5", "lon": -76.9894125, "fusion_lat": 0.0, "rental_uris": {"android": "https://dc.lft.to/lastmile_qr_scan", "ios": "https://dc.lft.to/lastmile_qr_scan"}, "type": "electric_scooter"}, {"is_reserved": 0, "is_disabled": 0, "fusion_lon": 0.0, "lat": 38.886665666666666, "name": "898274bc0ef8f161a3a301aa40ddb092", "bike_id": "898274bc0ef8f161a3a301aa40ddb092", "lon": -77.01375333333333, "fusion_lat": 0.0, "rental_uris": {"android": "https://dc.lft.to/lastmile_qr_scan", "ios": "https://dc.lft.to/lastmile_qr_scan"}, "type": "electric_scooter"}, {"is_reserved": 0, "is_disabled": 0, "fusion_lon": 0.0, "lat": 38.89621066666667, "name": "002aaff95e7e5fe03f83de601e0e7b5e", "bike_id": "002aaff95e7e5fe03f83de601e0e7b5e", "lon": -76.90750833333334, "fusion_lat": 0.0, "rental_uris": {"android": "https://dc.lft.to/lastmile_qr_scan", "ios": "https://dc.lft.to/lastmile_qr_scan"}, "type": "electric_bike"}, {"is_reserved": 0, "is_disabled": 0, "fusion_lon": 0.0, "lat": 38.9201245, "name": "1263dd48a70525151033e270cd3f81ed", "bike_id": "1263dd48a70525151033e270cd3f81ed", "lon": -77.07160383333333, "fusion_lat": 0.0, "rental_uris": {"android": "https://dc.lft.to/lastmile_qr_scan", "ios": "https://dc.lft.to/lastmile_qr_scan"}, "type": "electric_scooter"}, {"is_reserved": 0, "is_disabled": 0, "fusion_lon": 0.0, "lat": 38.94241483333333, "name": "5303eaed7ee806783139909c80eb0cf0", "bike_id": "5303eaed7ee806783139909c80eb0cf0", "lon": -77.00222166666667, "fusion_lat": 0.0, "rental_uris": {"android": "https://dc.lft.to/lastmile_qr_scan", "ios": "https://dc.lft.to/lastmile_qr_scan"}, "type": "electric_scooter"}, {"is_reserved": 0, "is_disabled": 0, "fusion_lon": 0.0, "lat": 38.919733, "name": "f80fe544366ebbe8ae9fb0f6b0c0f3d8", "bike_id": "f80fe544366ebbe8ae9fb0f6b0c0f3d8", "lon": -77.04180483333333, "fusion_lat": 0.0, "rental_uris": {"android": "https://dc.lft.to/lastmile_qr_scan", "ios": "https://dc.lft.to/lastmile_qr_scan"}, "type": "electric_scooter"}, {"is_reserved": 0, "is_disabled": 0, "fusion_lon": 0.0, "lat": 38.92826566666667, "name": "508eef682c418ab81d51d4eded42237f", "bike_id": "508eef682c418ab81d51d4eded42237f", "lon": -77.02257433333334, "fusion_lat": 0.0, "rental_uris": {"android": "https://dc.lft.to/lastmile_qr_scan", "ios": "https://dc.lft.to/lastmile_qr_scan"}, "type": "electric_scooter"}, {"is_reserved": 0, "is_disabled": 0, "fusion_lon": 0.0, "lat": 38.90253216666667, "name": "f7415b2a360872fb4f3cce654ee4fd5a", "bike_id": "f7415b2a360872fb4f3cce654ee4fd5a", "lon": -77.02817883333333, "fusion_lat": 0.0, "rental_uris": {"android": "https://dc.lft.to/lastmile_qr_scan", "ios": "https://dc.lft.to/lastmile_qr_scan"}, "type": "electric_scooter"}, {"is_reserved": 0, "is_disabled": 0, "fusion_lon": 0.0, "lat": 38.92481816666667, "name": "b1dd890aab3dc2dc16aef3e2db6b3621", "bike_id": "b1dd890aab3dc2dc16aef3e2db6b3621", "lon": -77.03786016666666, "fusion_lat": 0.0, "rental_uris": {"android": "https://dc.lft.to/lastmile_qr_scan", "ios": "https://dc.lft.to/lastmile_qr_scan"}, "type": "electric_scooter"}, {"is_reserved": 0, "is_disabled": 0, "fusion_lon": 0.0, "lat": 38.86481216666667, "name": "31f4cc139b525f887f45024eab748a79", "bike_id": "31f4cc139b525f887f45024eab748a79", "lon": -76.97751916666667, "fusion_lat": 0.0, "rental_uris": {"android": "https://dc.lft.to/lastmile_qr_scan", "ios": "https://dc.lft.to/lastmile_qr_scan"}, "type": "electric_bike"}, {"is_reserved": 0, "is_disabled": 0, "fusion_lon": 0.0, "lat": 38.944094, "name": "6afb5e11bf5a5855b29f1b02e3762488", "bike_id": "6afb5e11bf5a5855b29f1b02e3762488", "lon": -77.02749483333334, "fusion_lat": 0.0, "rental_uris": {"android": "https://dc.lft.to/lastmile_qr_scan", "ios": "https://dc.lft.to/lastmile_qr_scan"}, "type": "electric_scooter"}, {"is_reserved": 0, "is_disabled": 0, "fusion_lon": 0.0, "lat": 38.950665, "name": "562767706d7c623f9cee15c803479d79", "bike_id": "562767706d7c623f9cee15c803479d79", "lon": -76.97081866666667, "fusion_lat": 0.0, "rental_uris": {"android": "https://dc.lft.to/lastmile_qr_scan", "ios": "https://dc.lft.to/lastmile_qr_scan"}, "type": "electric_bike"}, {"is_reserved": 0, "is_disabled": 0, "fusion_lon": 0.0, "lat": 38.857898666666664, "name": "0c3c928329b8044f6384169275843920", "bike_id": "0c3c928329b8044f6384169275843920", "lon": -77.09962933333334, "fusion_lat": 0.0, "rental_uris": {"android": "https://dc.lft.to/lastmile_qr_scan", "ios": "https://dc.lft.to/lastmile_qr_scan"}, "type": "electric_bike"}, {"is_reserved": 0, "is_disabled": 0, "fusion_lon": 0.0, "lat": 38.9047865, "name": "51432ed3a35df262f8d3a85172e6f71d", "bike_id": "51432ed3a35df262f8d3a85172e6f71d", "lon": -77.0433165, "fusion_lat": 0.0, "rental_uris": {"android": "https://dc.lft.to/lastmile_qr_scan", "ios": "https://dc.lft.to/lastmile_qr_scan"}, "type": "electric_scooter"}, {"is_reserved": 0, "is_disabled": 0, "fusion_lon": 0.0, "lat": 38.924239, "name": "6cc5d80fa1f10ceefa817d07c7f60d4d", "bike_id": "6cc5d80fa1f10ceefa817d07c7f60d4d", "lon": -77.02133366666666, "fusion_lat": 0.0, "rental_uris": {"android": "https://dc.lft.to/lastmile_qr_scan", "ios": "https://dc.lft.to/lastmile_qr_scan"}, "type": "electric_scooter"}, {"is_reserved": 0, "is_disabled": 0, "fusion_lon": 0.0, "lat": 38.901724, "name": "612b54e3219bfb78e6b89df17b69f8d2", "bike_id": "612b54e3219bfb78e6b89df17b69f8d2", "lon": -77.048765, "fusion_lat": 0.0, "rental_uris": {"android": "https://dc.lft.to/lastmile_qr_scan", "ios": "https://dc.lft.to/lastmile_qr_scan"}, "type": "electric_scooter"}, {"is_reserved": 0, "is_disabled": 0, "fusion_lon": 0.0, "lat": 38.819113, "name": "1ca1b7fbfc42203e7a65b53f41325c32", "bike_id": "1ca1b7fbfc42203e7a65b53f41325c32", "lon": -77.12661533333333, "fusion_lat": 0.0, "rental_uris": {"android": "https://dc.lft.to/lastmile_qr_scan", "ios": "https://dc.lft.to/lastmile_qr_scan"}, "type": "electric_bike"}, {"is_reserved": 0, "is_disabled": 0, "fusion_lon": 0.0, "lat": 38.907828333333335, "name": "9a83fecad5cc8360c4ba3d39bbd4f147", "bike_id": "9a83fecad5cc8360c4ba3d39bbd4f147", "lon": -77.07251266666667, "fusion_lat": 0.0, "rental_uris": {"android": "https://dc.lft.to/lastmile_qr_scan", "ios": "https://dc.lft.to/lastmile_qr_scan"}, "type": "electric_scooter"}, {"is_reserved": 0, "is_disabled": 0, "fusion_lon": 0.0, "lat": 38.9018195, "name": "74a568154343548795c1302a1ff2ea56", "bike_id": "74a568154343548795c1302a1ff2ea56", "lon": -76.93007, "fusion_lat": 0.0, "rental_uris": {"android": "https://dc.lft.to/lastmile_qr_scan", "ios": "https://dc.lft.to/lastmile_qr_scan"}, "type": "electric_scooter"}, {"is_reserved": 0, "is_disabled": 0, "fusion_lon": 0.0, "lat": 38.914169333333334, "name": "a75831fabdcb66c2b76a143789599980", "bike_id": "a75831fabdcb66c2b76a143789599980", "lon": -77.03173466666667, "fusion_lat": 0.0, "rental_uris": {"android": "https://dc.lft.to/lastmile_qr_scan", "ios": "https://dc.lft.to/lastmile_qr_scan"}, "type": "electric_scooter"}, {"is_reserved": 0, "is_disabled": 0, "fusion_lon": 0.0, "lat": 38.92463516666667, "name": "c424cbb229ce95d4b06048bc0976f95c", "bike_id": "c424cbb229ce95d4b06048bc0976f95c", "lon": -77.03824633333333, "fusion_lat": 0.0, "rental_uris": {"android": "https://dc.lft.to/lastmile_qr_scan", "ios": "https://dc.lft.to/lastmile_qr_scan"}, "type": "electric_scooter"}, {"is_reserved": 0, "is_disabled": 0, "fusion_lon": 0.0, "lat": 38.89730816666667, "name": "4d766357e32ef97469b79099298cfc58", "bike_id": "4d766357e32ef97469b79099298cfc58", "lon": -77.03334283333334, "fusion_lat": 0.0, "rental_uris": {"android": "https://dc.lft.to/lastmile_qr_scan", "ios": "https://dc.lft.to/lastmile_qr_scan"}, "type": "electric_scooter"}, {"is_reserved": 0, "is_disabled": 0, "fusion_lon": 0.0, "lat": 38.88277516666667, "name": "de1ffadca46aef2afb55e16a5a1bf0fb", "bike_id": "de1ffadca46aef2afb55e16a5a1bf0fb", "lon": -76.932432, "fusion_lat": 0.0, "rental_uris": {"android": "https://dc.lft.to/lastmile_qr_scan", "ios": "https://dc.lft.to/lastmile_qr_scan"}, "type": "electric_bike"}, {"is_reserved": 0, "is_disabled": 0, "fusion_lon": 0.0, "lat": 38.86522766666667, "name": "05819f1180665bd6561e07fc2c08d2be", "bike_id": "05819f1180665bd6561e07fc2c08d2be", "lon": -76.97440316666666, "fusion_lat": 0.0, "rental_uris": {"android": "https://dc.lft.to/lastmile_qr_scan", "ios": "https://dc.lft.to/lastmile_qr_scan"}, "type": "electric_bike"}, {"is_reserved": 0, "is_disabled": 0, "fusion_lon": 0.0, "lat": 38.84698433333333, "name": "326d9a7335d05012e61d9d4d11e3a715", "bike_id": "326d9a7335d05012e61d9d4d11e3a715", "lon": -76.99614266666667, "fusion_lat": 0.0, "rental_uris": {"android": "https://dc.lft.to/lastmile_qr_scan", "ios": "https://dc.lft.to/lastmile_qr_scan"}, "type": "electric_bike"}, {"is_reserved": 0, "is_disabled": 0, "fusion_lon": 0.0, "lat": 38.938624833333336, "name": "1bf48f2724f1a8269367a2978a75c06e", "bike_id": "1bf48f2724f1a8269367a2978a75c06e", "lon": -77.030458, "fusion_lat": 0.0, "rental_uris": {"android": "https://dc.lft.to/lastmile_qr_scan", "ios": "https://dc.lft.to/lastmile_qr_scan"}, "type": "electric_scooter"}, {"is_reserved": 0, "is_disabled": 0, "fusion_lon": 0.0, "lat": 38.909044, "name": "b9c91835f287995d744f93ca37f14451", "bike_id": "b9c91835f287995d744f93ca37f14451", "lon": -77.07268816666667, "fusion_lat": 0.0, "rental_uris": {"android": "https://dc.lft.to/lastmile_qr_scan", "ios": "https://dc.lft.to/lastmile_qr_scan"}, "type": "electric_scooter"}, {"is_reserved": 0, "is_disabled": 0, "fusion_lon": 0.0, "lat": 38.91858883333333, "name": "7b828879fce18ac0e3aa43842c2ee55b", "bike_id": "7b828879fce18ac0e3aa43842c2ee55b", "lon": -77.0415715, "fusion_lat": 0.0, "rental_uris": {"android": "https://dc.lft.to/lastmile_qr_scan", "ios": "https://dc.lft.to/lastmile_qr_scan"}, "type": "electric_scooter"}, {"is_reserved": 0, "is_disabled": 0, "fusion_lon": 0.0, "lat": 38.936905, "name": "2e52b9e3b4dfa68cda3477b97b38f2ad", "bike_id": "2e52b9e3b4dfa68cda3477b97b38f2ad", "lon": -76.990587, "fusion_lat": 0.0, "rental_uris": {"android": "https://dc.lft.to/lastmile_qr_scan", "ios": "https://dc.lft.to/lastmile_qr_scan"}, "type": "electric_bike"}, {"is_reserved": 0, "is_disabled": 0, "fusion_lon": 0.0, "lat": 38.9169075, "name": "fed077d5edb616fba2703e1ae08cb0eb", "bike_id": "fed077d5edb616fba2703e1ae08cb0eb", "lon": -77.03771516666667, "fusion_lat": 0.0, "rental_uris": {"android": "https://dc.lft.to/lastmile_qr_scan", "ios": "https://dc.lft.to/lastmile_qr_scan"}, "type": "electric_scooter"}, {"is_reserved": 0, "is_disabled": 0, "fusion_lon": 0.0, "lat": 38.92453183333333, "name": "bc2510f0cb846db633259a6ffd6f2bd4", "bike_id": "bc2510f0cb846db633259a6ffd6f2bd4", "lon": -77.03285383333333, "fusion_lat": 0.0, "rental_uris": {"android": "https://dc.lft.to/lastmile_qr_scan", "ios": "https://dc.lft.to/lastmile_qr_scan"}, "type": "electric_scooter"}, {"is_reserved": 0, "is_disabled": 0, "fusion_lon": 0.0, "lat": 38.92227366666667, "name": "43179fcba1ae12fd0ba44b77e220c446", "bike_id": "43179fcba1ae12fd0ba44b77e220c446", "lon": -77.02115083333334, "fusion_lat": 0.0, "rental_uris": {"android": "https://dc.lft.to/lastmile_qr_scan", "ios": "https://dc.lft.to/lastmile_qr_scan"}, "type": "electric_scooter"}, {"is_reserved": 0, "is_disabled": 0, "fusion_lon": 0.0, "lat": 38.90236633333333, "name": "756234ec0880744674827f0cba7239f5", "bike_id": "756234ec0880744674827f0cba7239f5", "lon": -77.00199766666667, "fusion_lat": 0.0, "rental_uris": {"android": "https://dc.lft.to/lastmile_qr_scan", "ios": "https://dc.lft.to/lastmile_qr_scan"}, "type": "electric_scooter"}, {"is_reserved": 0, "is_disabled": 0, "fusion_lon": 0.0, "lat": 38.91846, "name": "bea26c126a9c50e52bd012aaee3c1336", "bike_id": "bea26c126a9c50e52bd012aaee3c1336", "lon": -77.02285383333333, "fusion_lat": 0.0, "rental_uris": {"android": "https://dc.lft.to/lastmile_qr_scan", "ios": "https://dc.lft.to/lastmile_qr_scan"}, "type": "electric_scooter"}, {"is_reserved": 0, "is_disabled": 0, "fusion_lon": 0.0, "lat": 38.894917166666666, "name": "b8c515bf3796eff6bf63455ddf1545e5", "bike_id": "b8c515bf3796eff6bf63455ddf1545e5", "lon": -76.94894883333333, "fusion_lat": 0.0, "rental_uris": {"android": "https://dc.lft.to/lastmile_qr_scan", "ios": "https://dc.lft.to/lastmile_qr_scan"}, "type": "electric_scooter"}, {"is_reserved": 0, "is_disabled": 0, "fusion_lon": 0.0, "lat": 38.923683833333335, "name": "142c144b7a150acdc79eaa46ff8873a6", "bike_id": "142c144b7a150acdc79eaa46ff8873a6", "lon": -77.02981416666667, "fusion_lat": 0.0, "rental_uris": {"android": "https://dc.lft.to/lastmile_qr_scan", "ios": "https://dc.lft.to/lastmile_qr_scan"}, "type": "electric_scooter"}, {"is_reserved": 0, "is_disabled": 0, "fusion_lon": 0.0, "lat": 38.892264, "name": "2bf9578617976d2bc1fc3734f0cdef61", "bike_id": "2bf9578617976d2bc1fc3734f0cdef61", "lon": -77.026349, "fusion_lat": 0.0, "rental_uris": {"android": "https://dc.lft.to/lastmile_qr_scan", "ios": "https://dc.lft.to/lastmile_qr_scan"}, "type": "electric_scooter"}, {"is_reserved": 0, "is_disabled": 0, "fusion_lon": 0.0, "lat": 38.939705833333335, "name": "28c088f553d3e3fc6a611c835a2f9db1", "bike_id": "28c088f553d3e3fc6a611c835a2f9db1", "lon": -77.03429, "fusion_lat": 0.0, "rental_uris": {"android": "https://dc.lft.to/lastmile_qr_scan", "ios": "https://dc.lft.to/lastmile_qr_scan"}, "type": "electric_scooter"}, {"is_reserved": 0, "is_disabled": 0, "fusion_lon": 0.0, "lat": 38.88422683333334, "name": "6ddbbced81c8d88f0291200d93471f54", "bike_id": "6ddbbced81c8d88f0291200d93471f54", "lon": -76.99692766666666, "fusion_lat": 0.0, "rental_uris": {"android": "https://dc.lft.to/lastmile_qr_scan", "ios": "https://dc.lft.to/lastmile_qr_scan"}, "type": "electric_scooter"}, {"is_reserved": 0, "is_disabled": 0, "fusion_lon": 0.0, "lat": 39.00380333333333, "name": "038d343ce92891b7df7d59e676529b02", "bike_id": "038d343ce92891b7df7d59e676529b02", "lon": -77.012876, "fusion_lat": 0.0, "rental_uris": {"android": "https://dc.lft.to/lastmile_qr_scan", "ios": "https://dc.lft.to/lastmile_qr_scan"}, "type": "electric_bike"}, {"is_reserved": 0, "is_disabled": 0, "fusion_lon": 0.0, "lat": 38.945629833333335, "name": "d04f96e67a9abaad9989b8ef446a15d3", "bike_id": "d04f96e67a9abaad9989b8ef446a15d3", "lon": -77.079564, "fusion_lat": 0.0, "rental_uris": {"android": "https://dc.lft.to/lastmile_qr_scan", "ios": "https://dc.lft.to/lastmile_qr_scan"}, "type": "electric_scooter"}, {"is_reserved": 0, "is_disabled": 0, "fusion_lon": 0.0, "lat": 38.90338216666667, "name": "e09e7e5627b7226f1a80b8d69c693892", "bike_id": "e09e7e5627b7226f1a80b8d69c693892", "lon": -76.97573866666667, "fusion_lat": 0.0, "rental_uris": {"android": "https://dc.lft.to/lastmile_qr_scan", "ios": "https://dc.lft.to/lastmile_qr_scan"}, "type": "electric_scooter"}, {"is_reserved": 0, "is_disabled": 0, "fusion_lon": 0.0, "lat": 38.92984116666667, "name": "90ddfa43d080676c750af50c09464a2e", "bike_id": "90ddfa43d080676c750af50c09464a2e", "lon": -77.02776583333333, "fusion_lat": 0.0, "rental_uris": {"android": "https://dc.lft.to/lastmile_qr_scan", "ios": "https://dc.lft.to/lastmile_qr_scan"}, "type": "electric_scooter"}, {"is_reserved": 0, "is_disabled": 0, "fusion_lon": 0.0, "lat": 38.837408833333335, "name": "a0f021c8a0bef67b57e92cf00e680a80", "bike_id": "a0f021c8a0bef67b57e92cf00e680a80", "lon": -76.99862533333334, "fusion_lat": 0.0, "rental_uris": {"android": "https://dc.lft.to/lastmile_qr_scan", "ios": "https://dc.lft.to/lastmile_qr_scan"}, "type": "electric_scooter"}, {"is_reserved": 0, "is_disabled": 0, "fusion_lon": 0.0, "lat": 38.92149883333333, "name": "6dd192883691828514edb70e73a8d5cf", "bike_id": "6dd192883691828514edb70e73a8d5cf", "lon": -77.03506233333333, "fusion_lat": 0.0, "rental_uris": {"android": "https://dc.lft.to/lastmile_qr_scan", "ios": "https://dc.lft.to/lastmile_qr_scan"}, "type": "electric_scooter"}, {"is_reserved": 0, "is_disabled": 0, "fusion_lon": 0.0, "lat": 38.878846833333334, "name": "cbe19a4ba4ef00fa86c4a8a24016594a", "bike_id": "cbe19a4ba4ef00fa86c4a8a24016594a", "lon": -77.02317916666667, "fusion_lat": 0.0, "rental_uris": {"android": "https://dc.lft.to/lastmile_qr_scan", "ios": "https://dc.lft.to/lastmile_qr_scan"}, "type": "electric_scooter"}, {"is_reserved": 0, "is_disabled": 0, "fusion_lon": 0.0, "lat": 38.89526383333333, "name": "a6b063d54aacbe38debec7716c70591d", "bike_id": "a6b063d54aacbe38debec7716c70591d", "lon": -77.01976016666667, "fusion_lat": 0.0, "rental_uris": {"android": "https://dc.lft.to/lastmile_qr_scan", "ios": "https://dc.lft.to/lastmile_qr_scan"}, "type": "electric_scooter"}, {"is_reserved": 0, "is_disabled": 0, "fusion_lon": 0.0, "lat": 38.914072833333336, "name": "61d2ddb8e3ec8d7bf685161811002332", "bike_id": "61d2ddb8e3ec8d7bf685161811002332", "lon": -77.02378166666666, "fusion_lat": 0.0, "rental_uris": {"android": "https://dc.lft.to/lastmile_qr_scan", "ios": "https://dc.lft.to/lastmile_qr_scan"}, "type": "electric_scooter"}, {"is_reserved": 0, "is_disabled": 0, "fusion_lon": 0.0, "lat": 38.87174, "name": "074fe2670934f5034220d82ab678e996", "bike_id": "074fe2670934f5034220d82ab678e996", "lon": -77.00663983333334, "fusion_lat": 0.0, "rental_uris": {"android": "https://dc.lft.to/lastmile_qr_scan", "ios": "https://dc.lft.to/lastmile_qr_scan"}, "type": "electric_scooter"}, {"is_reserved": 0, "is_disabled": 0, "fusion_lon": 0.0, "lat": 38.93215933333333, "name": "6ff8f611d0fa4730c26a950b53daf858", "bike_id": "6ff8f611d0fa4730c26a950b53daf858", "lon": -77.033472, "fusion_lat": 0.0, "rental_uris": {"android": "https://dc.lft.to/lastmile_qr_scan", "ios": "https://dc.lft.to/lastmile_qr_scan"}, "type": "electric_scooter"}, {"is_reserved": 0, "is_disabled": 0, "fusion_lon": 0.0, "lat": 38.93185316666667, "name": "2868edefe698cbd3ef7fc0036703e4c0", "bike_id": "2868edefe698cbd3ef7fc0036703e4c0", "lon": -77.03882233333333, "fusion_lat": 0.0, "rental_uris": {"android": "https://dc.lft.to/lastmile_qr_scan", "ios": "https://dc.lft.to/lastmile_qr_scan"}, "type": "electric_scooter"}, {"is_reserved": 0, "is_disabled": 0, "fusion_lon": 0.0, "lat": 38.907626, "name": "80278f39d4fcbaa6595788b2f3df9fed", "bike_id": "80278f39d4fcbaa6595788b2f3df9fed", "lon": -77.04529683333334, "fusion_lat": 0.0, "rental_uris": {"android": "https://dc.lft.to/lastmile_qr_scan", "ios": "https://dc.lft.to/lastmile_qr_scan"}, "type": "electric_scooter"}, {"is_reserved": 0, "is_disabled": 0, "fusion_lon": 0.0, "lat": 38.879773166666666, "name": "696349ee47cb589777725f8b193fd03c", "bike_id": "696349ee47cb589777725f8b193fd03c", "lon": -77.02425916666667, "fusion_lat": 0.0, "rental_uris": {"android": "https://dc.lft.to/lastmile_qr_scan", "ios": "https://dc.lft.to/lastmile_qr_scan"}, "type": "electric_scooter"}, {"is_reserved": 0, "is_disabled": 0, "fusion_lon": 0.0, "lat": 38.91706466666667, "name": "6eb0d64c0ac31a4385d3d3de41e9f70b", "bike_id": "6eb0d64c0ac31a4385d3d3de41e9f70b", "lon": -77.034766, "fusion_lat": 0.0, "rental_uris": {"android": "https://dc.lft.to/lastmile_qr_scan", "ios": "https://dc.lft.to/lastmile_qr_scan"}, "type": "electric_scooter"}, {"is_reserved": 0, "is_disabled": 0, "fusion_lon": 0.0, "lat": 38.916768833333336, "name": "7ea830990de6c14307cfce05bc207140", "bike_id": "7ea830990de6c14307cfce05bc207140", "lon": -77.0239725, "fusion_lat": 0.0, "rental_uris": {"android": "https://dc.lft.to/lastmile_qr_scan", "ios": "https://dc.lft.to/lastmile_qr_scan"}, "type": "electric_scooter"}, {"is_reserved": 0, "is_disabled": 0, "fusion_lon": 0.0, "lat": 38.92138466666667, "name": "4c8ae313caebc26061ff82253629d00c", "bike_id": "4c8ae313caebc26061ff82253629d00c", "lon": -77.05152566666666, "fusion_lat": 0.0, "rental_uris": {"android": "https://dc.lft.to/lastmile_qr_scan", "ios": "https://dc.lft.to/lastmile_qr_scan"}, "type": "electric_scooter"}, {"is_reserved": 0, "is_disabled": 0, "fusion_lon": 0.0, "lat": 38.92426433333333, "name": "89ba9bc77264746feb4bbd35b87b1ce8", "bike_id": "89ba9bc77264746feb4bbd35b87b1ce8", "lon": -77.04042033333333, "fusion_lat": 0.0, "rental_uris": {"android": "https://dc.lft.to/lastmile_qr_scan", "ios": "https://dc.lft.to/lastmile_qr_scan"}, "type": "electric_scooter"}, {"is_reserved": 0, "is_disabled": 0, "fusion_lon": 0.0, "lat": 38.9127365, "name": "c7cb634ffedd6f638ee4b80667e2bd6b", "bike_id": "c7cb634ffedd6f638ee4b80667e2bd6b", "lon": -77.03178733333333, "fusion_lat": 0.0, "rental_uris": {"android": "https://dc.lft.to/lastmile_qr_scan", "ios": "https://dc.lft.to/lastmile_qr_scan"}, "type": "electric_scooter"}, {"is_reserved": 0, "is_disabled": 0, "fusion_lon": 0.0, "lat": 38.89454766666667, "name": "0a9881dfd52a23b2c790075ba92c88bb", "bike_id": "0a9881dfd52a23b2c790075ba92c88bb", "lon": -77.02688266666667, "fusion_lat": 0.0, "rental_uris": {"android": "https://dc.lft.to/lastmile_qr_scan", "ios": "https://dc.lft.to/lastmile_qr_scan"}, "type": "electric_scooter"}, {"is_reserved": 0, "is_disabled": 0, "fusion_lon": 0.0, "lat": 38.9155235, "name": "841b740d35edb01df7c2ed1c528109df", "bike_id": "841b740d35edb01df7c2ed1c528109df", "lon": -77.03175133333333, "fusion_lat": 0.0, "rental_uris": {"android": "https://dc.lft.to/lastmile_qr_scan", "ios": "https://dc.lft.to/lastmile_qr_scan"}, "type": "electric_scooter"}, {"is_reserved": 0, "is_disabled": 0, "fusion_lon": 0.0, "lat": 38.919404, "name": "ab37478cf81253167dd7b4c3ce62a9bd", "bike_id": "ab37478cf81253167dd7b4c3ce62a9bd", "lon": -77.02292616666666, "fusion_lat": 0.0, "rental_uris": {"android": "https://dc.lft.to/lastmile_qr_scan", "ios": "https://dc.lft.to/lastmile_qr_scan"}, "type": "electric_scooter"}, {"is_reserved": 0, "is_disabled": 0, "fusion_lon": 0.0, "lat": 38.961595833333334, "name": "163fba9c7e5730512ae5e7202a767b46", "bike_id": "163fba9c7e5730512ae5e7202a767b46", "lon": -77.0278975, "fusion_lat": 0.0, "rental_uris": {"android": "https://dc.lft.to/lastmile_qr_scan", "ios": "https://dc.lft.to/lastmile_qr_scan"}, "type": "electric_scooter"}, {"is_reserved": 0, "is_disabled": 0, "fusion_lon": 0.0, "lat": 38.92009616666667, "name": "765aefc2fa5e1dc9459e7cac284100e5", "bike_id": "765aefc2fa5e1dc9459e7cac284100e5", "lon": -77.03785933333333, "fusion_lat": 0.0, "rental_uris": {"android": "https://dc.lft.to/lastmile_qr_scan", "ios": "https://dc.lft.to/lastmile_qr_scan"}, "type": "electric_scooter"}, {"is_reserved": 0, "is_disabled": 0, "fusion_lon": 0.0, "lat": 38.9207035, "name": "29f5b681db3e3293457b641fe3356812", "bike_id": "29f5b681db3e3293457b641fe3356812", "lon": -77.04549933333334, "fusion_lat": 0.0, "rental_uris": {"android": "https://dc.lft.to/lastmile_qr_scan", "ios": "https://dc.lft.to/lastmile_qr_scan"}, "type": "electric_scooter"}, {"is_reserved": 0, "is_disabled": 0, "fusion_lon": 0.0, "lat": 38.862608333333334, "name": "306911777b7978890e6dc40f3de6be2b", "bike_id": "306911777b7978890e6dc40f3de6be2b", "lon": -76.983527, "fusion_lat": 0.0, "rental_uris": {"android": "https://dc.lft.to/lastmile_qr_scan", "ios": "https://dc.lft.to/lastmile_qr_scan"}, "type": "electric_bike"}, {"is_reserved": 0, "is_disabled": 0, "fusion_lon": 0.0, "lat": 38.91762083333333, "name": "e777d47482e03af5a790d411d781dc63", "bike_id": "e777d47482e03af5a790d411d781dc63", "lon": -77.02405016666667, "fusion_lat": 0.0, "rental_uris": {"android": "https://dc.lft.to/lastmile_qr_scan", "ios": "https://dc.lft.to/lastmile_qr_scan"}, "type": "electric_scooter"}, {"is_reserved": 0, "is_disabled": 0, "fusion_lon": 0.0, "lat": 38.91775333333333, "name": "a74bd7bde3bdb9465ea4e5dd83e579db", "bike_id": "a74bd7bde3bdb9465ea4e5dd83e579db", "lon": -77.02276083333334, "fusion_lat": 0.0, "rental_uris": {"android": "https://dc.lft.to/lastmile_qr_scan", "ios": "https://dc.lft.to/lastmile_qr_scan"}, "type": "electric_scooter"}, {"is_reserved": 0, "is_disabled": 0, "fusion_lon": 0.0, "lat": 38.923817666666665, "name": "fcd96f157c7a5a5de8c85bb44874d303", "bike_id": "fcd96f157c7a5a5de8c85bb44874d303", "lon": -77.02957816666667, "fusion_lat": 0.0, "rental_uris": {"android": "https://dc.lft.to/lastmile_qr_scan", "ios": "https://dc.lft.to/lastmile_qr_scan"}, "type": "electric_scooter"}, {"is_reserved": 0, "is_disabled": 0, "fusion_lon": 0.0, "lat": 38.91405816666666, "name": "3bfb7e4a78e08f6ccb4d1e49a9557810", "bike_id": "3bfb7e4a78e08f6ccb4d1e49a9557810", "lon": -77.02418033333333, "fusion_lat": 0.0, "rental_uris": {"android": "https://dc.lft.to/lastmile_qr_scan", "ios": "https://dc.lft.to/lastmile_qr_scan"}, "type": "electric_scooter"}, {"is_reserved": 0, "is_disabled": 0, "fusion_lon": 0.0, "lat": 38.92332866666667, "name": "4694ccc25f5b6186fd1103e43c49bf7a", "bike_id": "4694ccc25f5b6186fd1103e43c49bf7a", "lon": -77.0567695, "fusion_lat": 0.0, "rental_uris": {"android": "https://dc.lft.to/lastmile_qr_scan", "ios": "https://dc.lft.to/lastmile_qr_scan"}, "type": "electric_scooter"}, {"is_reserved": 0, "is_disabled": 0, "fusion_lon": 0.0, "lat": 38.90471016666667, "name": "c691a91801c216ffe3606b1b71ee426f", "bike_id": "c691a91801c216ffe3606b1b71ee426f", "lon": -77.03540733333334, "fusion_lat": 0.0, "rental_uris": {"android": "https://dc.lft.to/lastmile_qr_scan", "ios": "https://dc.lft.to/lastmile_qr_scan"}, "type": "electric_scooter"}, {"is_reserved": 0, "is_disabled": 0, "fusion_lon": 0.0, "lat": 38.93854833333333, "name": "d9338341393ff44f7be4c97f6201dd6d", "bike_id": "d9338341393ff44f7be4c97f6201dd6d", "lon": -76.99432633333333, "fusion_lat": 0.0, "rental_uris": {"android": "https://dc.lft.to/lastmile_qr_scan", "ios": "https://dc.lft.to/lastmile_qr_scan"}, "type": "electric_scooter"}, {"is_reserved": 0, "is_disabled": 0, "fusion_lon": 0.0, "lat": 38.89127633333333, "name": "995166d34dfa9513d333380f0b0d4d46", "bike_id": "995166d34dfa9513d333380f0b0d4d46", "lon": -76.94056816666667, "fusion_lat": 0.0, "rental_uris": {"android": "https://dc.lft.to/lastmile_qr_scan", "ios": "https://dc.lft.to/lastmile_qr_scan"}, "type": "electric_bike"}, {"is_reserved": 0, "is_disabled": 0, "fusion_lon": 0.0, "lat": 38.93656933333333, "name": "b741d0a7263c6edf1e540b2170693b92", "bike_id": "b741d0a7263c6edf1e540b2170693b92", "lon": -77.066098, "fusion_lat": 0.0, "rental_uris": {"android": "https://dc.lft.to/lastmile_qr_scan", "ios": "https://dc.lft.to/lastmile_qr_scan"}, "type": "electric_scooter"}, {"is_reserved": 0, "is_disabled": 0, "fusion_lon": 0.0, "lat": 38.912376333333334, "name": "e36e32f46930df300a0865ec223c9b58", "bike_id": "e36e32f46930df300a0865ec223c9b58", "lon": -76.98678516666666, "fusion_lat": 0.0, "rental_uris": {"android": "https://dc.lft.to/lastmile_qr_scan", "ios": "https://dc.lft.to/lastmile_qr_scan"}, "type": "electric_scooter"}, {"is_reserved": 0, "is_disabled": 0, "fusion_lon": 0.0, "lat": 38.920866, "name": "c67b08d98dadb9777ae562b90f040c11", "bike_id": "c67b08d98dadb9777ae562b90f040c11", "lon": -77.031685, "fusion_lat": 0.0, "rental_uris": {"android": "https://dc.lft.to/lastmile_qr_scan", "ios": "https://dc.lft.to/lastmile_qr_scan"}, "type": "electric_scooter"}, {"is_reserved": 0, "is_disabled": 0, "fusion_lon": 0.0, "lat": 38.87710366666667, "name": "0ba1f2d4d14ec97084d13af3c394f80d", "bike_id": "0ba1f2d4d14ec97084d13af3c394f80d", "lon": -77.01848166666667, "fusion_lat": 0.0, "rental_uris": {"android": "https://dc.lft.to/lastmile_qr_scan", "ios": "https://dc.lft.to/lastmile_qr_scan"}, "type": "electric_scooter"}, {"is_reserved": 0, "is_disabled": 0, "fusion_lon": 0.0, "lat": 38.897992333333335, "name": "68a4917221351da9f2f8803a165cf40a", "bike_id": "68a4917221351da9f2f8803a165cf40a", "lon": -76.99258116666667, "fusion_lat": 0.0, "rental_uris": {"android": "https://dc.lft.to/lastmile_qr_scan", "ios": "https://dc.lft.to/lastmile_qr_scan"}, "type": "electric_scooter"}, {"is_reserved": 0, "is_disabled": 0, "fusion_lon": 0.0, "lat": 38.908712666666666, "name": "661f7f28a24900ccbc14fe4c1638b4b7", "bike_id": "661f7f28a24900ccbc14fe4c1638b4b7", "lon": -77.03756816666667, "fusion_lat": 0.0, "rental_uris": {"android": "https://dc.lft.to/lastmile_qr_scan", "ios": "https://dc.lft.to/lastmile_qr_scan"}, "type": "electric_scooter"}, {"is_reserved": 0, "is_disabled": 0, "fusion_lon": 0.0, "lat": 38.87373183333333, "name": "696218eb95d0e1df5dca7cf73b77b205", "bike_id": "696218eb95d0e1df5dca7cf73b77b205", "lon": -77.00089433333333, "fusion_lat": 0.0, "rental_uris": {"android": "https://dc.lft.to/lastmile_qr_scan", "ios": "https://dc.lft.to/lastmile_qr_scan"}, "type": "electric_scooter"}, {"is_reserved": 0, "is_disabled": 0, "fusion_lon": 0.0, "lat": 38.92266033333333, "name": "ab83c7a33fa70fafb488c102f1899380", "bike_id": "ab83c7a33fa70fafb488c102f1899380", "lon": -77.01942666666666, "fusion_lat": 0.0, "rental_uris": {"android": "https://dc.lft.to/lastmile_qr_scan", "ios": "https://dc.lft.to/lastmile_qr_scan"}, "type": "electric_scooter"}, {"is_reserved": 0, "is_disabled": 0, "fusion_lon": 0.0, "lat": 38.90055816666667, "name": "f49a62dc8c9ce9f284a30539b4c45757", "bike_id": "f49a62dc8c9ce9f284a30539b4c45757", "lon": -77.04903016666667, "fusion_lat": 0.0, "rental_uris": {"android": "https://dc.lft.to/lastmile_qr_scan", "ios": "https://dc.lft.to/lastmile_qr_scan"}, "type": "electric_scooter"}, {"is_reserved": 0, "is_disabled": 0, "fusion_lon": 0.0, "lat": 38.8863875, "name": "1407229225def335c2f38adacaa8b699", "bike_id": "1407229225def335c2f38adacaa8b699", "lon": -77.002108, "fusion_lat": 0.0, "rental_uris": {"android": "https://dc.lft.to/lastmile_qr_scan", "ios": "https://dc.lft.to/lastmile_qr_scan"}, "type": "electric_scooter"}, {"is_reserved": 0, "is_disabled": 0, "fusion_lon": 0.0, "lat": 38.91192066666667, "name": "57bfb9935c8fec2b32a608dd9a1614e2", "bike_id": "57bfb9935c8fec2b32a608dd9a1614e2", "lon": -77.01981366666666, "fusion_lat": 0.0, "rental_uris": {"android": "https://dc.lft.to/lastmile_qr_scan", "ios": "https://dc.lft.to/lastmile_qr_scan"}, "type": "electric_scooter"}, {"is_reserved": 0, "is_disabled": 0, "fusion_lon": 0.0, "lat": 38.9263135, "name": "15688bf5d2deccfb8150a1d98a65d7f5", "bike_id": "15688bf5d2deccfb8150a1d98a65d7f5", "lon": -77.0732745, "fusion_lat": 0.0, "rental_uris": {"android": "https://dc.lft.to/lastmile_qr_scan", "ios": "https://dc.lft.to/lastmile_qr_scan"}, "type": "electric_scooter"}, {"is_reserved": 0, "is_disabled": 0, "fusion_lon": 0.0, "lat": 38.9318885, "name": "32dcbe1223dfb4210ae063d4e2c9efb1", "bike_id": "32dcbe1223dfb4210ae063d4e2c9efb1", "lon": -77.0201865, "fusion_lat": 0.0, "rental_uris": {"android": "https://dc.lft.to/lastmile_qr_scan", "ios": "https://dc.lft.to/lastmile_qr_scan"}, "type": "electric_scooter"}, {"is_reserved": 0, "is_disabled": 0, "fusion_lon": 0.0, "lat": 38.911819666666666, "name": "48dd0f480766c2b7be64a1e2e6398be1", "bike_id": "48dd0f480766c2b7be64a1e2e6398be1", "lon": -77.0314075, "fusion_lat": 0.0, "rental_uris": {"android": "https://dc.lft.to/lastmile_qr_scan", "ios": "https://dc.lft.to/lastmile_qr_scan"}, "type": "electric_scooter"}, {"is_reserved": 0, "is_disabled": 0, "fusion_lon": 0.0, "lat": 38.9240785, "name": "1d7d783dfc8df1336ff1ddd2730ac70b", "bike_id": "1d7d783dfc8df1336ff1ddd2730ac70b", "lon": -77.01946816666667, "fusion_lat": 0.0, "rental_uris": {"android": "https://dc.lft.to/lastmile_qr_scan", "ios": "https://dc.lft.to/lastmile_qr_scan"}, "type": "electric_scooter"}, {"is_reserved": 0, "is_disabled": 0, "fusion_lon": 0.0, "lat": 38.902698, "name": "aaf99d68996e21dfe3058db622b63fd5", "bike_id": "aaf99d68996e21dfe3058db622b63fd5", "lon": -77.03441966666666, "fusion_lat": 0.0, "rental_uris": {"android": "https://dc.lft.to/lastmile_qr_scan", "ios": "https://dc.lft.to/lastmile_qr_scan"}, "type": "electric_scooter"}, {"is_reserved": 0, "is_disabled": 0, "fusion_lon": 0.0, "lat": 38.89502566666667, "name": "46d0a442c75e096f55ddc8b594025815", "bike_id": "46d0a442c75e096f55ddc8b594025815", "lon": -77.04635183333333, "fusion_lat": 0.0, "rental_uris": {"android": "https://dc.lft.to/lastmile_qr_scan", "ios": "https://dc.lft.to/lastmile_qr_scan"}, "type": "electric_scooter"}, {"is_reserved": 0, "is_disabled": 0, "fusion_lon": 0.0, "lat": 38.918144, "name": "2d96038d531c9f8e333dc0be41c22ddc", "bike_id": "2d96038d531c9f8e333dc0be41c22ddc", "lon": -77.01425366666666, "fusion_lat": 0.0, "rental_uris": {"android": "https://dc.lft.to/lastmile_qr_scan", "ios": "https://dc.lft.to/lastmile_qr_scan"}, "type": "electric_scooter"}, {"is_reserved": 0, "is_disabled": 0, "fusion_lon": 0.0, "lat": 38.922532333333336, "name": "f894e8306c0566642433a1dc1b66dd9f", "bike_id": "f894e8306c0566642433a1dc1b66dd9f", "lon": -77.019498, "fusion_lat": 0.0, "rental_uris": {"android": "https://dc.lft.to/lastmile_qr_scan", "ios": "https://dc.lft.to/lastmile_qr_scan"}, "type": "electric_scooter"}, {"is_reserved": 0, "is_disabled": 0, "fusion_lon": 0.0, "lat": 38.91954366666667, "name": "0a55ba5069ba22f071dadebe6931544b", "bike_id": "0a55ba5069ba22f071dadebe6931544b", "lon": -77.032013, "fusion_lat": 0.0, "rental_uris": {"android": "https://dc.lft.to/lastmile_qr_scan", "ios": "https://dc.lft.to/lastmile_qr_scan"}, "type": "electric_scooter"}, {"is_reserved": 0, "is_disabled": 0, "fusion_lon": 0.0, "lat": 38.91804033333333, "name": "5969ee19622f22e024d732b2832e9b76", "bike_id": "5969ee19622f22e024d732b2832e9b76", "lon": -77.024975, "fusion_lat": 0.0, "rental_uris": {"android": "https://dc.lft.to/lastmile_qr_scan", "ios": "https://dc.lft.to/lastmile_qr_scan"}, "type": "electric_scooter"}, {"is_reserved": 0, "is_disabled": 0, "fusion_lon": 0.0, "lat": 38.9576085, "name": "fe92aa28501e187a9601d91a3a77a0e3", "bike_id": "fe92aa28501e187a9601d91a3a77a0e3", "lon": -77.009149, "fusion_lat": 0.0, "rental_uris": {"android": "https://dc.lft.to/lastmile_qr_scan", "ios": "https://dc.lft.to/lastmile_qr_scan"}, "type": "electric_scooter"}, {"is_reserved": 0, "is_disabled": 0, "fusion_lon": 0.0, "lat": 38.9359635, "name": "2060acdfbd82021d30e3cd860440d9f4", "bike_id": "2060acdfbd82021d30e3cd860440d9f4", "lon": -77.0211565, "fusion_lat": 0.0, "rental_uris": {"android": "https://dc.lft.to/lastmile_qr_scan", "ios": "https://dc.lft.to/lastmile_qr_scan"}, "type": "electric_bike"}, {"is_reserved": 0, "is_disabled": 0, "fusion_lon": 0.0, "lat": 38.923119166666666, "name": "1e349266cbdc047549308a75ea476f1d", "bike_id": "1e349266cbdc047549308a75ea476f1d", "lon": -77.027144, "fusion_lat": 0.0, "rental_uris": {"android": "https://dc.lft.to/lastmile_qr_scan", "ios": "https://dc.lft.to/lastmile_qr_scan"}, "type": "electric_scooter"}, {"is_reserved": 0, "is_disabled": 0, "fusion_lon": 0.0, "lat": 38.916718, "name": "0aad51ca1ae308c4843893826c3c4fa3", "bike_id": "0aad51ca1ae308c4843893826c3c4fa3", "lon": -77.04606216666667, "fusion_lat": 0.0, "rental_uris": {"android": "https://dc.lft.to/lastmile_qr_scan", "ios": "https://dc.lft.to/lastmile_qr_scan"}, "type": "electric_scooter"}, {"is_reserved": 0, "is_disabled": 0, "fusion_lon": 0.0, "lat": 38.91322233333333, "name": "d4a2d1c8eef3f2eae1a865f0cd5e8ef2", "bike_id": "d4a2d1c8eef3f2eae1a865f0cd5e8ef2", "lon": -77.045338, "fusion_lat": 0.0, "rental_uris": {"android": "https://dc.lft.to/lastmile_qr_scan", "ios": "https://dc.lft.to/lastmile_qr_scan"}, "type": "electric_scooter"}, {"is_reserved": 0, "is_disabled": 0, "fusion_lon": 0.0, "lat": 38.905788666666666, "name": "4e32a0ddc2d1db654e7873126648efd0", "bike_id": "4e32a0ddc2d1db654e7873126648efd0", "lon": -77.04102933333333, "fusion_lat": 0.0, "rental_uris": {"android": "https://dc.lft.to/lastmile_qr_scan", "ios": "https://dc.lft.to/lastmile_qr_scan"}, "type": "electric_scooter"}, {"is_reserved": 0, "is_disabled": 0, "fusion_lon": 0.0, "lat": 38.90029716666667, "name": "104d29b5d720360ca9fc61ef87af91fd", "bike_id": "104d29b5d720360ca9fc61ef87af91fd", "lon": -76.998482, "fusion_lat": 0.0, "rental_uris": {"android": "https://dc.lft.to/lastmile_qr_scan", "ios": "https://dc.lft.to/lastmile_qr_scan"}, "type": "electric_scooter"}, {"is_reserved": 0, "is_disabled": 0, "fusion_lon": 0.0, "lat": 38.900335, "name": "8c7b24ef5a410d173433a41a1e2545e6", "bike_id": "8c7b24ef5a410d173433a41a1e2545e6", "lon": -76.98826016666666, "fusion_lat": 0.0, "rental_uris": {"android": "https://dc.lft.to/lastmile_qr_scan", "ios": "https://dc.lft.to/lastmile_qr_scan"}, "type": "electric_scooter"}, {"is_reserved": 0, "is_disabled": 0, "fusion_lon": 0.0, "lat": 38.9171065, "name": "a4e9d237fccfdc8e23aeaeb8ec29a605", "bike_id": "a4e9d237fccfdc8e23aeaeb8ec29a605", "lon": -77.03868483333333, "fusion_lat": 0.0, "rental_uris": {"android": "https://dc.lft.to/lastmile_qr_scan", "ios": "https://dc.lft.to/lastmile_qr_scan"}, "type": "electric_scooter"}, {"is_reserved": 0, "is_disabled": 0, "fusion_lon": 0.0, "lat": 38.91551333333334, "name": "112ce414190c26e756eda368a5422a50", "bike_id": "112ce414190c26e756eda368a5422a50", "lon": -77.02366333333333, "fusion_lat": 0.0, "rental_uris": {"android": "https://dc.lft.to/lastmile_qr_scan", "ios": "https://dc.lft.to/lastmile_qr_scan"}, "type": "electric_bike"}, {"is_reserved": 0, "is_disabled": 0, "fusion_lon": 0.0, "lat": 38.915614, "name": "8c017a3ce4dc7c8dd413be2be82f0f02", "bike_id": "8c017a3ce4dc7c8dd413be2be82f0f02", "lon": -77.03192933333334, "fusion_lat": 0.0, "rental_uris": {"android": "https://dc.lft.to/lastmile_qr_scan", "ios": "https://dc.lft.to/lastmile_qr_scan"}, "type": "electric_scooter"}, {"is_reserved": 0, "is_disabled": 0, "fusion_lon": 0.0, "lat": 39.07471366666667, "name": "1e00110e62364a72218fb4248d1b0830", "bike_id": "1e00110e62364a72218fb4248d1b0830", "lon": -77.11526483333333, "fusion_lat": 0.0, "rental_uris": {"android": "https://dc.lft.to/lastmile_qr_scan", "ios": "https://dc.lft.to/lastmile_qr_scan"}, "type": "electric_bike"}, {"is_reserved": 0, "is_disabled": 0, "fusion_lon": 0.0, "lat": 38.8984745, "name": "89054995a37532ee5fab58574ce650fb", "bike_id": "89054995a37532ee5fab58574ce650fb", "lon": -77.03959366666666, "fusion_lat": 0.0, "rental_uris": {"android": "https://dc.lft.to/lastmile_qr_scan", "ios": "https://dc.lft.to/lastmile_qr_scan"}, "type": "electric_scooter"}, {"is_reserved": 0, "is_disabled": 0, "fusion_lon": 0.0, "lat": 38.93399983333333, "name": "a562302836da57fc636280596e3c526f", "bike_id": "a562302836da57fc636280596e3c526f", "lon": -77.04141833333334, "fusion_lat": 0.0, "rental_uris": {"android": "https://dc.lft.to/lastmile_qr_scan", "ios": "https://dc.lft.to/lastmile_qr_scan"}, "type": "electric_scooter"}, {"is_reserved": 0, "is_disabled": 0, "fusion_lon": 0.0, "lat": 38.885168166666666, "name": "6ca502d71691c2bf8f4adc3b9c16953b", "bike_id": "6ca502d71691c2bf8f4adc3b9c16953b", "lon": -77.01471333333333, "fusion_lat": 0.0, "rental_uris": {"android": "https://dc.lft.to/lastmile_qr_scan", "ios": "https://dc.lft.to/lastmile_qr_scan"}, "type": "electric_scooter"}, {"is_reserved": 0, "is_disabled": 0, "fusion_lon": 0.0, "lat": 38.920186, "name": "b1886a8822520e8c2eb435500709c838", "bike_id": "b1886a8822520e8c2eb435500709c838", "lon": -77.0317285, "fusion_lat": 0.0, "rental_uris": {"android": "https://dc.lft.to/lastmile_qr_scan", "ios": "https://dc.lft.to/lastmile_qr_scan"}, "type": "electric_scooter"}, {"is_reserved": 0, "is_disabled": 0, "fusion_lon": 0.0, "lat": 38.921411166666665, "name": "327e067256d07ab580c030114e85db41", "bike_id": "327e067256d07ab580c030114e85db41", "lon": -77.01795666666666, "fusion_lat": 0.0, "rental_uris": {"android": "https://dc.lft.to/lastmile_qr_scan", "ios": "https://dc.lft.to/lastmile_qr_scan"}, "type": "electric_scooter"}, {"is_reserved": 0, "is_disabled": 0, "fusion_lon": 0.0, "lat": 38.903836, "name": "eaeb817ea8efb18f0940d24834348d62", "bike_id": "eaeb817ea8efb18f0940d24834348d62", "lon": -77.05337433333334, "fusion_lat": 0.0, "rental_uris": {"android": "https://dc.lft.to/lastmile_qr_scan", "ios": "https://dc.lft.to/lastmile_qr_scan"}, "type": "electric_scooter"}, {"is_reserved": 0, "is_disabled": 0, "fusion_lon": 0.0, "lat": 38.918342333333335, "name": "7830e5fe4426e705aa8f1de9c2c19bb6", "bike_id": "7830e5fe4426e705aa8f1de9c2c19bb6", "lon": -77.05312216666667, "fusion_lat": 0.0, "rental_uris": {"android": "https://dc.lft.to/lastmile_qr_scan", "ios": "https://dc.lft.to/lastmile_qr_scan"}, "type": "electric_scooter"}, {"is_reserved": 0, "is_disabled": 0, "fusion_lon": 0.0, "lat": 38.923928833333335, "name": "15891ff30b3fe27cb7dd4ff5ca5481ec", "bike_id": "15891ff30b3fe27cb7dd4ff5ca5481ec", "lon": -77.02262666666667, "fusion_lat": 0.0, "rental_uris": {"android": "https://dc.lft.to/lastmile_qr_scan", "ios": "https://dc.lft.to/lastmile_qr_scan"}, "type": "electric_scooter"}, {"is_reserved": 0, "is_disabled": 0, "fusion_lon": 0.0, "lat": 38.90004916666667, "name": "c42cc9dfaffad3aa9c91d057cf35906a", "bike_id": "c42cc9dfaffad3aa9c91d057cf35906a", "lon": -76.99615966666667, "fusion_lat": 0.0, "rental_uris": {"android": "https://dc.lft.to/lastmile_qr_scan", "ios": "https://dc.lft.to/lastmile_qr_scan"}, "type": "electric_bike"}, {"is_reserved": 0, "is_disabled": 0, "fusion_lon": 0.0, "lat": 38.87777, "name": "f113b0c73c62b5c43c24dc83581efd3c", "bike_id": "f113b0c73c62b5c43c24dc83581efd3c", "lon": -77.00210166666666, "fusion_lat": 0.0, "rental_uris": {"android": "https://dc.lft.to/lastmile_qr_scan", "ios": "https://dc.lft.to/lastmile_qr_scan"}, "type": "electric_scooter"}, {"is_reserved": 0, "is_disabled": 0, "fusion_lon": 0.0, "lat": 38.897592333333336, "name": "fb62e05fc7dcdade077e51119cbb0194", "bike_id": "fb62e05fc7dcdade077e51119cbb0194", "lon": -77.0095105, "fusion_lat": 0.0, "rental_uris": {"android": "https://dc.lft.to/lastmile_qr_scan", "ios": "https://dc.lft.to/lastmile_qr_scan"}, "type": "electric_scooter"}, {"is_reserved": 0, "is_disabled": 0, "fusion_lon": 0.0, "lat": 38.9027805, "name": "0d73a1af2c2c73d9aa49dc865784fdba", "bike_id": "0d73a1af2c2c73d9aa49dc865784fdba", "lon": -77.0444455, "fusion_lat": 0.0, "rental_uris": {"android": "https://dc.lft.to/lastmile_qr_scan", "ios": "https://dc.lft.to/lastmile_qr_scan"}, "type": "electric_scooter"}, {"is_reserved": 0, "is_disabled": 0, "fusion_lon": 0.0, "lat": 38.9286565, "name": "28624469aba3c39b138dcb85adcb3601", "bike_id": "28624469aba3c39b138dcb85adcb3601", "lon": -77.03713416666666, "fusion_lat": 0.0, "rental_uris": {"android": "https://dc.lft.to/lastmile_qr_scan", "ios": "https://dc.lft.to/lastmile_qr_scan"}, "type": "electric_scooter"}, {"is_reserved": 0, "is_disabled": 0, "fusion_lon": 0.0, "lat": 38.908601833333336, "name": "07f94186ba410ab0960ae0bd6ee83c0a", "bike_id": "07f94186ba410ab0960ae0bd6ee83c0a", "lon": -77.08072083333333, "fusion_lat": 0.0, "rental_uris": {"android": "https://dc.lft.to/lastmile_qr_scan", "ios": "https://dc.lft.to/lastmile_qr_scan"}, "type": "electric_bike"}, {"is_reserved": 0, "is_disabled": 0, "fusion_lon": 0.0, "lat": 38.901300166666665, "name": "08189f0ad4444a8532990a410d673fff", "bike_id": "08189f0ad4444a8532990a410d673fff", "lon": -77.04035833333333, "fusion_lat": 0.0, "rental_uris": {"android": "https://dc.lft.to/lastmile_qr_scan", "ios": "https://dc.lft.to/lastmile_qr_scan"}, "type": "electric_scooter"}, {"is_reserved": 0, "is_disabled": 0, "fusion_lon": 0.0, "lat": 38.90259283333333, "name": "a7794993b25b862c7d1182efb8476e2c", "bike_id": "a7794993b25b862c7d1182efb8476e2c", "lon": -77.01536816666666, "fusion_lat": 0.0, "rental_uris": {"android": "https://dc.lft.to/lastmile_qr_scan", "ios": "https://dc.lft.to/lastmile_qr_scan"}, "type": "electric_scooter"}, {"is_reserved": 0, "is_disabled": 0, "fusion_lon": 0.0, "lat": 38.91544733333333, "name": "5ce9ad4a75a27f31f0ef1cc970802593", "bike_id": "5ce9ad4a75a27f31f0ef1cc970802593", "lon": -77.03184166666666, "fusion_lat": 0.0, "rental_uris": {"android": "https://dc.lft.to/lastmile_qr_scan", "ios": "https://dc.lft.to/lastmile_qr_scan"}, "type": "electric_scooter"}, {"is_reserved": 0, "is_disabled": 0, "fusion_lon": 0.0, "lat": 38.941089833333336, "name": "3b2dcbdd50ec71a3084cc51757c904b4", "bike_id": "3b2dcbdd50ec71a3084cc51757c904b4", "lon": -77.06137566666666, "fusion_lat": 0.0, "rental_uris": {"android": "https://dc.lft.to/lastmile_qr_scan", "ios": "https://dc.lft.to/lastmile_qr_scan"}, "type": "electric_scooter"}, {"is_reserved": 0, "is_disabled": 0, "fusion_lon": 0.0, "lat": 38.92494833333333, "name": "286a35e03ec2349c5b03be108446aaae", "bike_id": "286a35e03ec2349c5b03be108446aaae", "lon": -77.04130583333334, "fusion_lat": 0.0, "rental_uris": {"android": "https://dc.lft.to/lastmile_qr_scan", "ios": "https://dc.lft.to/lastmile_qr_scan"}, "type": "electric_scooter"}, {"is_reserved": 0, "is_disabled": 0, "fusion_lon": 0.0, "lat": 38.93463066666666, "name": "fb094f63a36c76cfa3000f08b8dcbcbe", "bike_id": "fb094f63a36c76cfa3000f08b8dcbcbe", "lon": -77.05809016666667, "fusion_lat": 0.0, "rental_uris": {"android": "https://dc.lft.to/lastmile_qr_scan", "ios": "https://dc.lft.to/lastmile_qr_scan"}, "type": "electric_scooter"}, {"is_reserved": 0, "is_disabled": 0, "fusion_lon": 0.0, "lat": 38.923385, "name": "b7acc5abe1bf82ad20214458235da46f", "bike_id": "b7acc5abe1bf82ad20214458235da46f", "lon": -77.01906383333333, "fusion_lat": 0.0, "rental_uris": {"android": "https://dc.lft.to/lastmile_qr_scan", "ios": "https://dc.lft.to/lastmile_qr_scan"}, "type": "electric_scooter"}, {"is_reserved": 0, "is_disabled": 0, "fusion_lon": 0.0, "lat": 38.89731, "name": "004ad9220c676f2607b4500e7eebb1c9", "bike_id": "004ad9220c676f2607b4500e7eebb1c9", "lon": -77.04454766666667, "fusion_lat": 0.0, "rental_uris": {"android": "https://dc.lft.to/lastmile_qr_scan", "ios": "https://dc.lft.to/lastmile_qr_scan"}, "type": "electric_scooter"}, {"is_reserved": 0, "is_disabled": 0, "fusion_lon": 0.0, "lat": 38.898261166666664, "name": "1e8fcdd98169263f52c846a9346369b8", "bike_id": "1e8fcdd98169263f52c846a9346369b8", "lon": -77.04611033333333, "fusion_lat": 0.0, "rental_uris": {"android": "https://dc.lft.to/lastmile_qr_scan", "ios": "https://dc.lft.to/lastmile_qr_scan"}, "type": "electric_scooter"}, {"is_reserved": 0, "is_disabled": 0, "fusion_lon": 0.0, "lat": 38.9278865, "name": "7ccde89d2c392e94cdd045f4d46b367c", "bike_id": "7ccde89d2c392e94cdd045f4d46b367c", "lon": -77.03083016666666, "fusion_lat": 0.0, "rental_uris": {"android": "https://dc.lft.to/lastmile_qr_scan", "ios": "https://dc.lft.to/lastmile_qr_scan"}, "type": "electric_scooter"}, {"is_reserved": 0, "is_disabled": 0, "fusion_lon": 0.0, "lat": 38.8935295, "name": "a71e0a53b5045a1a2de17c57a24a244e", "bike_id": "a71e0a53b5045a1a2de17c57a24a244e", "lon": -77.00338716666667, "fusion_lat": 0.0, "rental_uris": {"android": "https://dc.lft.to/lastmile_qr_scan", "ios": "https://dc.lft.to/lastmile_qr_scan"}, "type": "electric_scooter"}, {"is_reserved": 0, "is_disabled": 0, "fusion_lon": 0.0, "lat": 38.9041265, "name": "1a073146c9360c7f581014a65ade803e", "bike_id": "1a073146c9360c7f581014a65ade803e", "lon": -77.04363466666666, "fusion_lat": 0.0, "rental_uris": {"android": "https://dc.lft.to/lastmile_qr_scan", "ios": "https://dc.lft.to/lastmile_qr_scan"}, "type": "electric_scooter"}, {"is_reserved": 0, "is_disabled": 0, "fusion_lon": 0.0, "lat": 38.895466666666664, "name": "023dd37d396c0168ad151f2877fdcc98", "bike_id": "023dd37d396c0168ad151f2877fdcc98", "lon": -77.01117966666666, "fusion_lat": 0.0, "rental_uris": {"android": "https://dc.lft.to/lastmile_qr_scan", "ios": "https://dc.lft.to/lastmile_qr_scan"}, "type": "electric_scooter"}, {"is_reserved": 0, "is_disabled": 0, "fusion_lon": 0.0, "lat": 38.892487833333334, "name": "79e7f0e451d0fc8546974fe3f93628c2", "bike_id": "79e7f0e451d0fc8546974fe3f93628c2", "lon": -77.03186216666667, "fusion_lat": 0.0, "rental_uris": {"android": "https://dc.lft.to/lastmile_qr_scan", "ios": "https://dc.lft.to/lastmile_qr_scan"}, "type": "electric_scooter"}, {"is_reserved": 0, "is_disabled": 0, "fusion_lon": 0.0, "lat": 38.857093, "name": "901d684c2afe6048808f72fe43155ff9", "bike_id": "901d684c2afe6048808f72fe43155ff9", "lon": -76.9812825, "fusion_lat": 0.0, "rental_uris": {"android": "https://dc.lft.to/lastmile_qr_scan", "ios": "https://dc.lft.to/lastmile_qr_scan"}, "type": "electric_scooter"}, {"is_reserved": 0, "is_disabled": 0, "fusion_lon": 0.0, "lat": 38.92232683333334, "name": "3a9e2dbeda0020a8315169ea36c56286", "bike_id": "3a9e2dbeda0020a8315169ea36c56286", "lon": -77.04247933333333, "fusion_lat": 0.0, "rental_uris": {"android": "https://dc.lft.to/lastmile_qr_scan", "ios": "https://dc.lft.to/lastmile_qr_scan"}, "type": "electric_scooter"}, {"is_reserved": 0, "is_disabled": 0, "fusion_lon": 0.0, "lat": 38.93402533333333, "name": "7aaced11b6b4652d860beb9918e9f37c", "bike_id": "7aaced11b6b4652d860beb9918e9f37c", "lon": -77.03261633333334, "fusion_lat": 0.0, "rental_uris": {"android": "https://dc.lft.to/lastmile_qr_scan", "ios": "https://dc.lft.to/lastmile_qr_scan"}, "type": "electric_scooter"}, {"is_reserved": 0, "is_disabled": 0, "fusion_lon": 0.0, "lat": 38.880378666666665, "name": "96ad57918f5be1a0f22c1f62683300c4", "bike_id": "96ad57918f5be1a0f22c1f62683300c4", "lon": -76.92721616666667, "fusion_lat": 0.0, "rental_uris": {"android": "https://dc.lft.to/lastmile_qr_scan", "ios": "https://dc.lft.to/lastmile_qr_scan"}, "type": "electric_scooter"}, {"is_reserved": 0, "is_disabled": 0, "fusion_lon": 0.0, "lat": 38.892186833333334, "name": "db657733fd08480f1bab8b0eed3500bb", "bike_id": "db657733fd08480f1bab8b0eed3500bb", "lon": -77.02743966666667, "fusion_lat": 0.0, "rental_uris": {"android": "https://dc.lft.to/lastmile_qr_scan", "ios": "https://dc.lft.to/lastmile_qr_scan"}, "type": "electric_scooter"}, {"is_reserved": 0, "is_disabled": 0, "fusion_lon": 0.0, "lat": 38.87373316666667, "name": "13e47536cc4c65f40e46d9c118ab5b27", "bike_id": "13e47536cc4c65f40e46d9c118ab5b27", "lon": -77.000751, "fusion_lat": 0.0, "rental_uris": {"android": "https://dc.lft.to/lastmile_qr_scan", "ios": "https://dc.lft.to/lastmile_qr_scan"}, "type": "electric_scooter"}, {"is_reserved": 0, "is_disabled": 0, "fusion_lon": 0.0, "lat": 38.922455, "name": "dd665673f0ca8bc8c6e215bc78ba69b1", "bike_id": "dd665673f0ca8bc8c6e215bc78ba69b1", "lon": -77.035177, "fusion_lat": 0.0, "rental_uris": {"android": "https://dc.lft.to/lastmile_qr_scan", "ios": "https://dc.lft.to/lastmile_qr_scan"}, "type": "electric_scooter"}, {"is_reserved": 0, "is_disabled": 0, "fusion_lon": 0.0, "lat": 38.87894633333333, "name": "866d1f1a704dbe9096526dabe545df76", "bike_id": "866d1f1a704dbe9096526dabe545df76", "lon": -76.93531983333334, "fusion_lat": 0.0, "rental_uris": {"android": "https://dc.lft.to/lastmile_qr_scan", "ios": "https://dc.lft.to/lastmile_qr_scan"}, "type": "electric_scooter"}, {"is_reserved": 0, "is_disabled": 0, "fusion_lon": 0.0, "lat": 38.898305666666666, "name": "8d74621a8ad3a67b5b80bcecd89ef716", "bike_id": "8d74621a8ad3a67b5b80bcecd89ef716", "lon": -76.94634716666667, "fusion_lat": 0.0, "rental_uris": {"android": "https://dc.lft.to/lastmile_qr_scan", "ios": "https://dc.lft.to/lastmile_qr_scan"}, "type": "electric_scooter"}, {"is_reserved": 0, "is_disabled": 0, "fusion_lon": 0.0, "lat": 38.9004165, "name": "98f4bcf19e070c6f86231844e0c11cf4", "bike_id": "98f4bcf19e070c6f86231844e0c11cf4", "lon": -76.98820533333334, "fusion_lat": 0.0, "rental_uris": {"android": "https://dc.lft.to/lastmile_qr_scan", "ios": "https://dc.lft.to/lastmile_qr_scan"}, "type": "electric_scooter"}, {"is_reserved": 0, "is_disabled": 0, "fusion_lon": 0.0, "lat": 38.84276083333334, "name": "b92f522388d35c0340b99091fb6d124f", "bike_id": "b92f522388d35c0340b99091fb6d124f", "lon": -76.98841716666666, "fusion_lat": 0.0, "rental_uris": {"android": "https://dc.lft.to/lastmile_qr_scan", "ios": "https://dc.lft.to/lastmile_qr_scan"}, "type": "electric_bike"}, {"is_reserved": 0, "is_disabled": 0, "fusion_lon": 0.0, "lat": 38.8637795, "name": "9e9e3a249d1c91b4319c829b14339bf9", "bike_id": "9e9e3a249d1c91b4319c829b14339bf9", "lon": -76.98813966666667, "fusion_lat": 0.0, "rental_uris": {"android": "https://dc.lft.to/lastmile_qr_scan", "ios": "https://dc.lft.to/lastmile_qr_scan"}, "type": "electric_scooter"}, {"is_reserved": 0, "is_disabled": 0, "fusion_lon": 0.0, "lat": 38.89062, "name": "690d2d50d0917ae055a21c616266dade", "bike_id": "690d2d50d0917ae055a21c616266dade", "lon": -76.99241516666666, "fusion_lat": 0.0, "rental_uris": {"android": "https://dc.lft.to/lastmile_qr_scan", "ios": "https://dc.lft.to/lastmile_qr_scan"}, "type": "electric_scooter"}, {"is_reserved": 0, "is_disabled": 0, "fusion_lon": 0.0, "lat": 38.89810466666667, "name": "8f4bab7a4a8028579f67043386b4387b", "bike_id": "8f4bab7a4a8028579f67043386b4387b", "lon": -77.0060145, "fusion_lat": 0.0, "rental_uris": {"android": "https://dc.lft.to/lastmile_qr_scan", "ios": "https://dc.lft.to/lastmile_qr_scan"}, "type": "electric_bike"}, {"is_reserved": 0, "is_disabled": 0, "fusion_lon": 0.0, "lat": 38.91258216666667, "name": "641883988f356dd14e40e196a9b0f469", "bike_id": "641883988f356dd14e40e196a9b0f469", "lon": -77.0446785, "fusion_lat": 0.0, "rental_uris": {"android": "https://dc.lft.to/lastmile_qr_scan", "ios": "https://dc.lft.to/lastmile_qr_scan"}, "type": "electric_scooter"}, {"is_reserved": 0, "is_disabled": 0, "fusion_lon": 0.0, "lat": 38.9141685, "name": "19262590ab68a70eb7b821a53fdb68fd", "bike_id": "19262590ab68a70eb7b821a53fdb68fd", "lon": -77.03235683333334, "fusion_lat": 0.0, "rental_uris": {"android": "https://dc.lft.to/lastmile_qr_scan", "ios": "https://dc.lft.to/lastmile_qr_scan"}, "type": "electric_scooter"}, {"is_reserved": 0, "is_disabled": 0, "fusion_lon": 0.0, "lat": 38.92718383333333, "name": "1734dce629854e981d5b2024ae3f4804", "bike_id": "1734dce629854e981d5b2024ae3f4804", "lon": -77.02083916666666, "fusion_lat": 0.0, "rental_uris": {"android": "https://dc.lft.to/lastmile_qr_scan", "ios": "https://dc.lft.to/lastmile_qr_scan"}, "type": "electric_scooter"}, {"is_reserved": 0, "is_disabled": 0, "fusion_lon": 0.0, "lat": 38.921527166666664, "name": "4336a93320e9a1e1e451f3c34d76464d", "bike_id": "4336a93320e9a1e1e451f3c34d76464d", "lon": -77.04217483333333, "fusion_lat": 0.0, "rental_uris": {"android": "https://dc.lft.to/lastmile_qr_scan", "ios": "https://dc.lft.to/lastmile_qr_scan"}, "type": "electric_scooter"}, {"is_reserved": 0, "is_disabled": 0, "fusion_lon": 0.0, "lat": 38.93868666666667, "name": "8c46278461a49b6e7c78021956f13929", "bike_id": "8c46278461a49b6e7c78021956f13929", "lon": -77.0251915, "fusion_lat": 0.0, "rental_uris": {"android": "https://dc.lft.to/lastmile_qr_scan", "ios": "https://dc.lft.to/lastmile_qr_scan"}, "type": "electric_scooter"}, {"is_reserved": 0, "is_disabled": 0, "fusion_lon": 0.0, "lat": 38.899093666666666, "name": "27f41d2314c8d58822336688145e752c", "bike_id": "27f41d2314c8d58822336688145e752c", "lon": -77.01378733333334, "fusion_lat": 0.0, "rental_uris": {"android": "https://dc.lft.to/lastmile_qr_scan", "ios": "https://dc.lft.to/lastmile_qr_scan"}, "type": "electric_scooter"}, {"is_reserved": 0, "is_disabled": 0, "fusion_lon": 0.0, "lat": 38.93448466666667, "name": "b80b0d073c1c08fd1d6cba5f42de0143", "bike_id": "b80b0d073c1c08fd1d6cba5f42de0143", "lon": -77.0209985, "fusion_lat": 0.0, "rental_uris": {"android": "https://dc.lft.to/lastmile_qr_scan", "ios": "https://dc.lft.to/lastmile_qr_scan"}, "type": "electric_scooter"}, {"is_reserved": 0, "is_disabled": 0, "fusion_lon": 0.0, "lat": 38.881924833333336, "name": "8afc94aef619e4f3c1ce605bd5f49721", "bike_id": "8afc94aef619e4f3c1ce605bd5f49721", "lon": -76.99505133333334, "fusion_lat": 0.0, "rental_uris": {"android": "https://dc.lft.to/lastmile_qr_scan", "ios": "https://dc.lft.to/lastmile_qr_scan"}, "type": "electric_scooter"},