{"data": {"bikes": [{"lat": 38.884903666666666, "is_disabled": 0, "type": "electric_scooter", "lon": -77.0071445, "bike_id": "8f02cf0eecb009bdc437124c5bde6ca1", "fusion_lat": 0.0, "name": "8f02cf0eecb009bdc437124c5bde6ca1", "is_reserved": 0, "rental_uris": {"android": "https://dc.lft.to/lastmile_qr_scan", "ios": "https://dc.lft.to/lastmile_qr_scan"}, "fusion_lon": 0.0}, {"lat": 38.923472833333335, "is_disabled": 0, "type": "electric_bike", "lon": -76.97125016666666, "bike_id": "5a9c78c7d614b0fee754aefdbbf980b1", "fusion_lat": 0.0, "name": "5a9c78c7d614b0fee754aefdbbf980b1", "is_reserved": 0, "rental_uris": {"android": "https://dc.lft.to/lastmile_qr_scan", "ios": "https://dc.lft.to/lastmile_qr_scan"}, "fusion_lon": 0.0}, {"lat": 38.953278166666664, "is_disabled": 0, "type": "electric_scooter", "lon": -77.027532, "bike_id": "ad245e2d9f2bbbe5bf81deba0b264388", "fusion_lat": 0.0, "name": "ad245e2d9f2bbbe5bf81deba0b264388", "is_reserved": 0, "rental_uris": {"android": "https://dc.lft.to/lastmile_qr_scan", "ios": "https://dc.lft.to/lastmile_qr_scan"}, "fusion_lon": 0.0}, {"lat": 39.036957666666666, "is_disabled": 0, "type": "electric_bike", "lon": -77.05140066666667, "bike_id": "cba6a0620a52d40a1f190ea965880887", "fusion_lat": 0.0, "name": "cba6a0620a52d40a1f190ea965880887", "is_reserved": 0, "rental_uris": {"android": "https://dc.lft.to/lastmile_qr_scan", "ios": "https://dc.lft.to/lastmile_qr_scan"}, "fusion_lon": 0.0}, {"lat": 38.807523, "is_disabled": 0, "type": "electric_bike", "lon": -77.09450666666666, "bike_id": "4559b26f3af641b8c8a2ed08d58984ea", "fusion_lat": 0.0, "name": "4559b26f3af641b8c8a2ed08d58984ea", "is_reserved": 0, "rental_uris": {"android": "https://dc.lft.to/lastmile_qr_scan", "ios": "https://dc.lft.to/lastmile_qr_scan"}, "fusion_lon": 0.0}, {"lat": 38.884684166666666, "is_disabled": 0, "type": "electric_scooter", "lon": -76.99278416666667, "bike_id": "9a6780404ce57122c9d616ba8be3dea4", "fusion_lat": 0.0, "name": "9a6780404ce57122c9d616ba8be3dea4", "is_reserved": 0, "rental_uris": {"android": "https://dc.lft.to/lastmile_qr_scan", "ios": "https://dc.lft.to/lastmile_qr_scan"}, "fusion_lon": 0.0}, {"lat": 38.91673766666667, "is_disabled": 0, "type": "electric_scooter", "lon": -77.03193016666667, "bike_id": "b11d03c1b7f1d0ebb06ed144fb99aca4", "fusion_lat": 0.0, "name": "b11d03c1b7f1d0ebb06ed144fb99aca4", "is_reserved": 0, "rental_uris": {"android": "https://dc.lft.to/lastmile_qr_scan", "ios": "https://dc.lft.to/lastmile_qr_scan"}, "fusion_lon": 0.0}, {"lat": 38.915501166666665, "is_disabled": 0, "type": "electric_bike", "lon": -77.04161233333333, "bike_id": "db7750e8660ae19d4960f5087120a3ff", "fusion_lat": 0.0, "name": "db7750e8660ae19d4960f5087120a3ff", "is_reserved": 0, "rental_uris": {"android": "https://dc.lft.to/lastmile_qr_scan", "ios": "https://dc.lft.to/lastmile_qr_scan"}, "fusion_lon": 0.0}, {"lat": 38.911292833333334, "is_disabled": 0, "type": "electric_scooter", "lon": -77.0435125, "bike_id": "d5196709a36dfe3195e9fb7648d22e1d", "fusion_lat": 0.0, "name": "d5196709a36dfe3195e9fb7648d22e1d", "is_reserved": 0, "rental_uris": {"android": "https://dc.lft.to/lastmile_qr_scan", "ios": "https://dc.lft.to/lastmile_qr_scan"}, "fusion_lon": 0.0}, {"lat": 38.88158716666667, "is_disabled": 0, "type": "electric_scooter", "lon": -77.003612, "bike_id": "2ce41ceed84dc479a020a82ccf02a9fb", "fusion_lat": 0.0, "name": "2ce41ceed84dc479a020a82ccf02a9fb", "is_reserved": 0, "rental_uris": {"android": "https://dc.lft.to/lastmile_qr_scan", "ios": "https://dc.lft.to/lastmile_qr_scan"}, "fusion_lon": 0.0}, {"lat": 38.87651366666667, "is_disabled": 0, "type": "electric_scooter", "lon": -77.0153565, "bike_id": "d74fc8a9f6db721d7a27bf2953355efd", "fusion_lat": 0.0, "name": "d74fc8a9f6db721d7a27bf2953355efd", "is_reserved": 0, "rental_uris": {"android": "https://dc.lft.to/lastmile_qr_scan", "ios": "https://dc.lft.to/lastmile_qr_scan"}, "fusion_lon": 0.0}, {"lat": 38.915613666666665, "is_disabled": 0, "type": "electric_scooter", "lon": -77.01044066666667, "bike_id": "0d6c5d3946ffbc4bb046a1624618f7ae", "fusion_lat": 0.0, "name": "0d6c5d3946ffbc4bb046a1624618f7ae", "is_reserved": 0, "rental_uris": {"android": "https://dc.lft.to/lastmile_qr_scan", "ios": "https://dc.lft.to/lastmile_qr_scan"}, "fusion_lon": 0.0}, {"lat": 38.877146, "is_disabled": 0, "type": "electric_scooter", "lon": -77.00320383333333, "bike_id": "97abacad487c03909403b1a13b192009", "fusion_lat": 0.0, "name": "97abacad487c03909403b1a13b192009", "is_reserved": 0, "rental_uris": {"android": "https://dc.lft.to/lastmile_qr_scan", "ios": "https://dc.lft.to/lastmile_qr_scan"}, "fusion_lon": 0.0}, {"lat": 38.93292133333333, "is_disabled": 0, "type": "electric_scooter", "lon": -77.0453175, "bike_id": "2277ebccfd6cd663006b176831ce4aad", "fusion_lat": 0.0, "name": "2277ebccfd6cd663006b176831ce4aad", "is_reserved": 0, "rental_uris": {"android": "https://dc.lft.to/lastmile_qr_scan", "ios": "https://dc.lft.to/lastmile_qr_scan"}, "fusion_lon": 0.0}, {"lat": 38.9146035, "is_disabled": 0, "type": "electric_scooter", "lon": -77.01427233333334, "bike_id": "401b348ff68123d31f0253229e0a40d0", "fusion_lat": 0.0, "name": "401b348ff68123d31f0253229e0a40d0", "is_reserved": 0, "rental_uris": {"android": "https://dc.lft.to/lastmile_qr_scan", "ios": "https://dc.lft.to/lastmile_qr_scan"}, "fusion_lon": 0.0}, {"lat": 38.88796033333333, "is_disabled": 0, "type": "electric_scooter", "lon": -76.93361016666667, "bike_id": "79b1f1cafb0ce7acc025f3c9df1b4f5e", "fusion_lat": 0.0, "name": "79b1f1cafb0ce7acc025f3c9df1b4f5e", "is_reserved": 0, "rental_uris": {"android": "https://dc.lft.to/lastmile_qr_scan", "ios": "https://dc.lft.to/lastmile_qr_scan"}, "fusion_lon": 0.0}, {"lat": 38.923484, "is_disabled": 0, "type": "electric_scooter", "lon": -77.05422583333333, "bike_id": "5cc29f37c3b0fd33eef8a420e4b9dde0", "fusion_lat": 0.0, "name": "5cc29f37c3b0fd33eef8a420e4b9dde0", "is_reserved": 0, "rental_uris": {"android": "https://dc.lft.to/lastmile_qr_scan", "ios": "https://dc.lft.to/lastmile_qr_scan"}, "fusion_lon": 0.0}, {"lat": 38.870755333333335, "is_disabled": 0, "type": "electric_bike", "lon": -76.97842583333333, "bike_id": "f25148f2a2931f1999097aadabf299e4", "fusion_lat": 0.0, "name": "f25148f2a2931f1999097aadabf299e4", "is_reserved": 0, "rental_uris": {"android": "https://dc.lft.to/lastmile_qr_scan", "ios": "https://dc.lft.to/lastmile_qr_scan"}, "fusion_lon": 0.0}, {"lat": 38.85922083333333, "is_disabled": 0, "type": "electric_scooter", "lon": -76.9897635, "bike_id": "a7a53b4d5ef4a385905f13123bbba665", "fusion_lat": 0.0, "name": "a7a53b4d5ef4a385905f13123bbba665", "is_reserved": 0, "rental_uris": {"android": "https://dc.lft.to/lastmile_qr_scan", "ios": "https://dc.lft.to/lastmile_qr_scan"}, "fusion_lon": 0.0}, {"lat": 38.931427166666666, "is_disabled": 0, "type": "electric_scooter", "lon": -77.041423, "bike_id": "308d45ae58fad376a354e3b29541d34d", "fusion_lat": 0.0, "name": "308d45ae58fad376a354e3b29541d34d", "is_reserved": 0, "rental_uris": {"android": "https://dc.lft.to/lastmile_qr_scan", "ios": "https://dc.lft.to/lastmile_qr_scan"}, "fusion_lon": 0.0}, {"lat": 38.91357716666667, "is_disabled": 0, "type": "electric_scooter", "lon": -77.069215, "bike_id": "67ad5123b3483188147c952014a7dcbd", "fusion_lat": 0.0, "name": "67ad5123b3483188147c952014a7dcbd", "is_reserved": 0, "rental_uris": {"android": "https://dc.lft.to/lastmile_qr_scan", "ios": "https://dc.lft.to/lastmile_qr_scan"}, "fusion_lon": 0.0}, {"lat": 38.923148833333336, "is_disabled": 0, "type": "electric_scooter", "lon": -77.03968516666667, "bike_id": "712e16bda7581c973e629b149b43ef31", "fusion_lat": 0.0, "name": "712e16bda7581c973e629b149b43ef31", "is_reserved": 0, "rental_uris": {"android": "https://dc.lft.to/lastmile_qr_scan", "ios": "https://dc.lft.to/lastmile_qr_scan"}, "fusion_lon": 0.0}, {"lat": 38.921598, "is_disabled": 0, "type": "electric_scooter", "lon": -77.033492, "bike_id": "5970bb5371077d5efb8b246f8205bd96", "fusion_lat": 0.0, "name": "5970bb5371077d5efb8b246f8205bd96", "is_reserved": 0, "rental_uris": {"android": "https://dc.lft.to/lastmile_qr_scan", "ios": "https://dc.lft.to/lastmile_qr_scan"}, "fusion_lon": 0.0}, {"lat": 38.90533833333333, "is_disabled": 0, "type": "electric_scooter", "lon": -77.05714516666667, "bike_id": "d53b5c84573e01afe1c1021e326a6e83", "fusion_lat": 0.0, "name": "d53b5c84573e01afe1c1021e326a6e83", "is_reserved": 0, "rental_uris": {"android": "https://dc.lft.to/lastmile_qr_scan", "ios": "https://dc.lft.to/lastmile_qr_scan"}, "fusion_lon": 0.0}, {"lat": 38.91415, "is_disabled": 0, "type": "electric_scooter", "lon": -77.0292135, "bike_id": "a6dbb168c3dafadbe073eb8e4c5d1f14", "fusion_lat": 0.0, "name": "a6dbb168c3dafadbe073eb8e4c5d1f14", "is_reserved": 0, "rental_uris": {"android": "https://dc.lft.to/lastmile_qr_scan", "ios": "https://dc.lft.to/lastmile_qr_scan"}, "fusion_lon": 0.0}, {"lat": 38.949735833333335, "is_disabled": 0, "type": "electric_scooter", "lon": -77.0655635, "bike_id": "2239e0a5ca248d5c700f73b0e2e73890", "fusion_lat": 0.0, "name": "2239e0a5ca248d5c700f73b0e2e73890", "is_reserved": 0, "rental_uris": {"android": "https://dc.lft.to/lastmile_qr_scan", "ios": "https://dc.lft.to/lastmile_qr_scan"}, "fusion_lon": 0.0}, {"lat": 39.0304115, "is_disabled": 0, "type": "electric_bike", "lon": -77.09480666666667, "bike_id": "8c436b3ae74655e1a4967241c4d01133", "fusion_lat": 0.0, "name": "8c436b3ae74655e1a4967241c4d01133", "is_reserved": 0, "rental_uris": {"android": "https://dc.lft.to/lastmile_qr_scan", "ios": "https://dc.lft.to/lastmile_qr_scan"}, "fusion_lon": 0.0}, {"lat": 38.922583333333336, "is_disabled": 0, "type": "electric_scooter", "lon": -77.07467766666667, "bike_id": "2da1f13666b4c1d8e0b6edb0038dad22", "fusion_lat": 0.0, "name": "2da1f13666b4c1d8e0b6edb0038dad22", "is_reserved": 0, "rental_uris": {"android": "https://dc.lft.to/lastmile_qr_scan", "ios": "https://dc.lft.to/lastmile_qr_scan"}, "fusion_lon": 0.0}, {"lat": 38.99814683333334, "is_disabled": 0, "type": "electric_bike", "lon": -76.88372666666666, "bike_id": "95da6fa109239b2bcd65bb69a85a6d1c", "fusion_lat": 0.0, "name": "95da6fa109239b2bcd65bb69a85a6d1c", "is_reserved": 0, "rental_uris": {"android": "https://dc.lft.to/lastmile_qr_scan", "ios": "https://dc.lft.to/lastmile_qr_scan"}, "fusion_lon": 0.0}, {"lat": 38.901558333333334, "is_disabled": 0, "type": "electric_scooter", "lon": -77.02886916666667, "bike_id": "2159c86d2b0d25ef2cbd8363417bd829", "fusion_lat": 0.0, "name": "2159c86d2b0d25ef2cbd8363417bd829", "is_reserved": 0, "rental_uris": {"android": "https://dc.lft.to/lastmile_qr_scan", "ios": "https://dc.lft.to/lastmile_qr_scan"}, "fusion_lon": 0.0}, {"lat": 38.91708833333333, "is_disabled": 0, "type": "electric_scooter", "lon": -77.02729433333333, "bike_id": "6965cca9d92705c375a865ee2582d716", "fusion_lat": 0.0, "name": "6965cca9d92705c375a865ee2582d716", "is_reserved": 0, "rental_uris": {"android": "https://dc.lft.to/lastmile_qr_scan", "ios": "https://dc.lft.to/lastmile_qr_scan"}, "fusion_lon": 0.0}, {"lat": 38.892055166666665, "is_disabled": 0, "type": "electric_scooter", "lon": -76.98564083333333, "bike_id": "10a16697143f17a4188a1bc0d72b8481", "fusion_lat": 0.0, "name": "10a16697143f17a4188a1bc0d72b8481", "is_reserved": 0, "rental_uris": {"android": "https://dc.lft.to/lastmile_qr_scan", "ios": "https://dc.lft.to/lastmile_qr_scan"}, "fusion_lon": 0.0}, {"lat": 38.938599333333336, "is_disabled": 0, "type": "electric_scooter", "lon": -77.03094983333334, "bike_id": "98cfb2730b0b4eee8303b703041614c4", "fusion_lat": 0.0, "name": "98cfb2730b0b4eee8303b703041614c4", "is_reserved": 0, "rental_uris": {"android": "https://dc.lft.to/lastmile_qr_scan", "ios": "https://dc.lft.to/lastmile_qr_scan"}, "fusion_lon": 0.0}, {"lat": 38.913172333333335, "is_disabled": 0, "type": "electric_scooter", "lon": -76.98644516666667, "bike_id": "8a37349070fedf18bc97abd2a0edf0d6", "fusion_lat": 0.0, "name": "8a37349070fedf18bc97abd2a0edf0d6", "is_reserved": 0, "rental_uris": {"android": "https://dc.lft.to/lastmile_qr_scan", "ios": "https://dc.lft.to/lastmile_qr_scan"}, "fusion_lon": 0.0}, {"lat": 39.024285, "is_disabled": 0, "type": "electric_bike", "lon": -77.13099966666667, "bike_id": "0124fd88cbdd8e75a6e420a5715dc2a4", "fusion_lat": 0.0, "name": "0124fd88cbdd8e75a6e420a5715dc2a4", "is_reserved": 0, "rental_uris": {"android": "https://dc.lft.to/lastmile_qr_scan", "ios": "https://dc.lft.to/lastmile_qr_scan"}, "fusion_lon": 0.0}, {"lat": 38.917412666666664, "is_disabled": 0, "type": "electric_scooter", "lon": -77.031781, "bike_id": "4c53948687e141e12a7c19d44ca3dd11", "fusion_lat": 0.0, "name": "4c53948687e141e12a7c19d44ca3dd11", "is_reserved": 0, "rental_uris": {"android": "https://dc.lft.to/lastmile_qr_scan", "ios": "https://dc.lft.to/lastmile_qr_scan"}, "fusion_lon": 0.0}, {"lat": 38.907251, "is_disabled": 0, "type": "electric_scooter", "lon": -77.02983, "bike_id": "62d51439a394b8429dd11616e3f5eb4d", "fusion_lat": 0.0, "name": "62d51439a394b8429dd11616e3f5eb4d", "is_reserved": 0, "rental_uris": {"android": "https://dc.lft.to/lastmile_qr_scan", "ios": "https://dc.lft.to/lastmile_qr_scan"}, "fusion_lon": 0.0}, {"lat": 38.90113766666666, "is_disabled": 0, "type": "electric_scooter", "lon": -77.03183, "bike_id": "fe300ac1b80b0cbaa8aba6968db345a3", "fusion_lat": 0.0, "name": "fe300ac1b80b0cbaa8aba6968db345a3", "is_reserved": 0, "rental_uris": {"android": "https://dc.lft.to/lastmile_qr_scan", "ios": "https://dc.lft.to/lastmile_qr_scan"}, "fusion_lon": 0.0}, {"lat": 38.933544833333336, "is_disabled": 0, "type": "electric_scooter", "lon": -77.02488633333333, "bike_id": "929a3950095804651534c514dcbc3510", "fusion_lat": 0.0, "name": "929a3950095804651534c514dcbc3510", "is_reserved": 0, "rental_uris": {"android": "https://dc.lft.to/lastmile_qr_scan", "ios": "https://dc.lft.to/lastmile_qr_scan"}, "fusion_lon": 0.0}, {"lat": 38.991588166666666, "is_disabled": 0, "type": "electric_bike", "lon": -77.02506083333333, "bike_id": "160ad3edf66a027e79d05ee3a3796219", "fusion_lat": 0.0, "name": "160ad3edf66a027e79d05ee3a3796219", "is_reserved": 0, "rental_uris": {"android": "https://dc.lft.to/lastmile_qr_scan", "ios": "https://dc.lft.to/lastmile_qr_scan"}, "fusion_lon": 0.0}, {"lat": 38.802674833333334, "is_disabled": 0, "type": "electric_bike", "lon": -77.08109866666666, "bike_id": "1f8fcbb7d6c5ce59156ca3634621401c", "fusion_lat": 0.0, "name": "1f8fcbb7d6c5ce59156ca3634621401c", "is_reserved": 0, "rental_uris": {"android": "https://dc.lft.to/lastmile_qr_scan", "ios": "https://dc.lft.to/lastmile_qr_scan"}, "fusion_lon": 0.0}, {"lat": 38.90023466666667, "is_disabled": 0, "type": "electric_scooter", "lon": -76.99912333333333, "bike_id": "933a99aae3e4f211393d37b664a2d2a2", "fusion_lat": 0.0, "name": "933a99aae3e4f211393d37b664a2d2a2", "is_reserved": 0, "rental_uris": {"android": "https://dc.lft.to/lastmile_qr_scan", "ios": "https://dc.lft.to/lastmile_qr_scan"}, "fusion_lon": 0.0}, {"lat": 38.86256316666667, "is_disabled": 0, "type": "electric_scooter", "lon": -76.995149, "bike_id": "7a9cd7cb3aa43f156dc319c3b18c55d6", "fusion_lat": 0.0, "name": "7a9cd7cb3aa43f156dc319c3b18c55d6", "is_reserved": 0, "rental_uris": {"android": "https://dc.lft.to/lastmile_qr_scan", "ios": "https://dc.lft.to/lastmile_qr_scan"}, "fusion_lon": 0.0}, {"lat": 38.92045316666667, "is_disabled": 0, "type": "electric_scooter", "lon": -77.023673, "bike_id": "0b73c82df9919d48e566bb46c035fafd", "fusion_lat": 0.0, "name": "0b73c82df9919d48e566bb46c035fafd", "is_reserved": 0, "rental_uris": {"android": "https://dc.lft.to/lastmile_qr_scan", "ios": "https://dc.lft.to/lastmile_qr_scan"}, "fusion_lon": 0.0}, {"lat": 38.928943, "is_disabled": 0, "type": "electric_scooter", "lon": -77.02400516666667, "bike_id": "b9904a3b01c4b8a316fe46765b97be52", "fusion_lat": 0.0, "name": "b9904a3b01c4b8a316fe46765b97be52", "is_reserved": 0, "rental_uris": {"android": "https://dc.lft.to/lastmile_qr_scan", "ios": "https://dc.lft.to/lastmile_qr_scan"}, "fusion_lon": 0.0}, {"lat": 38.95403, "is_disabled": 0, "type": "electric_scooter", "lon": -77.02744666666666, "bike_id": "d94de210ab7807c82a223a81ecf65666", "fusion_lat": 0.0, "name": "d94de210ab7807c82a223a81ecf65666", "is_reserved": 0, "rental_uris": {"android": "https://dc.lft.to/lastmile_qr_scan", "ios": "https://dc.lft.to/lastmile_qr_scan"}, "fusion_lon": 0.0}, {"lat": 38.916912833333335, "is_disabled": 0, "type": "electric_scooter", "lon": -77.03587633333333, "bike_id": "dd3c6f86dc8b97c3004e9a027057f3ad", "fusion_lat": 0.0, "name": "dd3c6f86dc8b97c3004e9a027057f3ad", "is_reserved": 0, "rental_uris": {"android": "https://dc.lft.to/lastmile_qr_scan", "ios": "https://dc.lft.to/lastmile_qr_scan"}, "fusion_lon": 0.0}, {"lat": 38.93435733333333, "is_disabled": 0, "type": "electric_scooter", "lon": -77.03459633333334, "bike_id": "43c11f0f31612399347b8f1fa36e654d", "fusion_lat": 0.0, "name": "43c11f0f31612399347b8f1fa36e654d", "is_reserved": 0, "rental_uris": {"android": "https://dc.lft.to/lastmile_qr_scan", "ios": "https://dc.lft.to/lastmile_qr_scan"}, "fusion_lon": 0.0}, {"lat": 38.870646, "is_disabled": 0, "type": "electric_scooter", "lon": -77.00836683333333, "bike_id": "ccfa4e5b904577fc4838af22aeb7bb50", "fusion_lat": 0.0, "name": "ccfa4e5b904577fc4838af22aeb7bb50", "is_reserved": 0, "rental_uris": {"android": "https://dc.lft.to/lastmile_qr_scan", "ios": "https://dc.lft.to/lastmile_qr_scan"}, "fusion_lon": 0.0}, {"lat": 38.86209516666667, "is_disabled": 0, "type": "electric_bike", "lon": -76.99776433333334, "bike_id": "4bf78568958ae7b74fdc69038c10bf68", "fusion_lat": 0.0, "name": "4bf78568958ae7b74fdc69038c10bf68", "is_reserved": 0, "rental_uris": {"android": "https://dc.lft.to/lastmile_qr_scan", "ios": "https://dc.lft.to/lastmile_qr_scan"}, "fusion_lon": 0.0}, {"lat": 38.866727833333336, "is_disabled": 0, "type": "electric_scooter", "lon": -76.98536733333333, "bike_id": "3b33a5a24b0ed86786b02d4043feaabc", "fusion_lat": 0.0, "name": "3b33a5a24b0ed86786b02d4043feaabc", "is_reserved": 0, "rental_uris": {"android": "https://dc.lft.to/lastmile_qr_scan", "ios": "https://dc.lft.to/lastmile_qr_scan"}, "fusion_lon": 0.0}, {"lat": 38.91677816666667, "is_disabled": 0, "type": "electric_scooter", "lon": -77.032262, "bike_id": "447a9677772e3c588115f19e2f06d0e7", "fusion_lat": 0.0, "name": "447a9677772e3c588115f19e2f06d0e7", "is_reserved": 0, "rental_uris": {"android": "https://dc.lft.to/lastmile_qr_scan", "ios": "https://dc.lft.to/lastmile_qr_scan"}, "fusion_lon": 0.0}, {"lat": 38.9140475, "is_disabled": 0, "type": "electric_scooter", "lon": -77.0211065, "bike_id": "68f73bd8428f9c2b2cd4ce3cba3e8103", "fusion_lat": 0.0, "name": "68f73bd8428f9c2b2cd4ce3cba3e8103", "is_reserved": 0, "rental_uris": {"android": "https://dc.lft.to/lastmile_qr_scan", "ios": "https://dc.lft.to/lastmile_qr_scan"}, "fusion_lon": 0.0}, {"lat": 38.90961583333333, "is_disabled": 0, "type": "electric_scooter", "lon": -77.032947, "bike_id": "9f7ed1619a8d5183c5d5e41b4e0dd491", "fusion_lat": 0.0, "name": "9f7ed1619a8d5183c5d5e41b4e0dd491", "is_reserved": 0, "rental_uris": {"android": "https://dc.lft.to/lastmile_qr_scan", "ios": "https://dc.lft.to/lastmile_qr_scan"}, "fusion_lon": 0.0}, {"lat": 38.92089933333333, "is_disabled": 0, "type": "electric_scooter", "lon": -77.02527483333333, "bike_id": "8985fc6e1fb4d50ed9a688658ef752ec", "fusion_lat": 0.0, "name": "8985fc6e1fb4d50ed9a688658ef752ec", "is_reserved": 0, "rental_uris": {"android": "https://dc.lft.to/lastmile_qr_scan", "ios": "https://dc.lft.to/lastmile_qr_scan"}, "fusion_lon": 0.0}, {"lat": 38.9323585, "is_disabled": 0, "type": "electric_bike", "lon": -76.974195, "bike_id": "01ea3b23418f1c1f9c2f2e55f7dc7988", "fusion_lat": 0.0, "name": "01ea3b23418f1c1f9c2f2e55f7dc7988", "is_reserved": 0, "rental_uris": {"android": "https://dc.lft.to/lastmile_qr_scan", "ios": "https://dc.lft.to/lastmile_qr_scan"}, "fusion_lon": 0.0}, {"lat": 38.9482135, "is_disabled": 0, "type": "electric_scooter", "lon": -76.99901166666666, "bike_id": "2a153ea3f5a350ad61ceacb2b397ca11", "fusion_lat": 0.0, "name": "2a153ea3f5a350ad61ceacb2b397ca11", "is_reserved": 0, "rental_uris": {"android": "https://dc.lft.to/lastmile_qr_scan", "ios": "https://dc.lft.to/lastmile_qr_scan"}, "fusion_lon": 0.0}, {"lat": 38.9141405, "is_disabled": 0, "type": "electric_scooter", "lon": -77.0220455, "bike_id": "542b48b3f709d27656f3022b47e95803", "fusion_lat": 0.0, "name": "542b48b3f709d27656f3022b47e95803", "is_reserved": 0, "rental_uris": {"android": "https://dc.lft.to/lastmile_qr_scan", "ios": "https://dc.lft.to/lastmile_qr_scan"}, "fusion_lon": 0.0}, {"lat": 38.908993333333335, "is_disabled": 0, "type": "electric_bike", "lon": -77.0188855, "bike_id": "2e5bfc560604914450a15d1c58572a31", "fusion_lat": 0.0, "name": "2e5bfc560604914450a15d1c58572a31", "is_reserved": 0, "rental_uris": {"android": "https://dc.lft.to/lastmile_qr_scan", "ios": "https://dc.lft.to/lastmile_qr_scan"}, "fusion_lon": 0.0}, {"lat": 38.8804285, "is_disabled": 0, "type": "electric_scooter", "lon": -76.9863035, "bike_id": "8876f78cebeb0ab776e94d3ae2820d3a", "fusion_lat": 0.0, "name": "8876f78cebeb0ab776e94d3ae2820d3a", "is_reserved": 0, "rental_uris": {"android": "https://dc.lft.to/lastmile_qr_scan", "ios": "https://dc.lft.to/lastmile_qr_scan"}, "fusion_lon": 0.0}, {"lat": 38.901997333333334, "is_disabled": 0, "type": "electric_scooter", "lon": -76.9994345, "bike_id": "ed8a57c9cd267fb61efab737bbce2920", "fusion_lat": 0.0, "name": "ed8a57c9cd267fb61efab737bbce2920", "is_reserved": 0, "rental_uris": {"android": "https://dc.lft.to/lastmile_qr_scan", "ios": "https://dc.lft.to/lastmile_qr_scan"}, "fusion_lon": 0.0}, {"lat": 38.962257666666666, "is_disabled": 0, "type": "electric_bike", "lon": -77.02623016666666, "bike_id": "8809d655a66f15eb9b463a7c222eae07", "fusion_lat": 0.0, "name": "8809d655a66f15eb9b463a7c222eae07", "is_reserved": 0, "rental_uris": {"android": "https://dc.lft.to/lastmile_qr_scan", "ios": "https://dc.lft.to/lastmile_qr_scan"}, "fusion_lon": 0.0}, {"lat": 38.9023455, "is_disabled": 0, "type": "electric_scooter", "lon": -77.00064716666667, "bike_id": "b82b95e5d71faa99889a9bddff095e94", "fusion_lat": 0.0, "name": "b82b95e5d71faa99889a9bddff095e94", "is_reserved": 0, "rental_uris": {"android": "https://dc.lft.to/lastmile_qr_scan", "ios": "https://dc.lft.to/lastmile_qr_scan"}, "fusion_lon": 0.0}, {"lat": 38.907741333333334, "is_disabled": 0, "type": "electric_scooter", "lon": -77.03855783333333, "bike_id": "07d00113530ccc2f0e60ba1e2b82ae42", "fusion_lat": 0.0, "name": "07d00113530ccc2f0e60ba1e2b82ae42", "is_reserved": 0, "rental_uris": {"android": "https://dc.lft.to/lastmile_qr_scan", "ios": "https://dc.lft.to/lastmile_qr_scan"}, "fusion_lon": 0.0}, {"lat": 38.906776666666666, "is_disabled": 0, "type": "electric_scooter", "lon": -77.03847183333333, "bike_id": "51d4b2b0d760f086edcd93a15e0c7531", "fusion_lat": 0.0, "name": "51d4b2b0d760f086edcd93a15e0c7531", "is_reserved": 0, "rental_uris": {"android": "https://dc.lft.to/lastmile_qr_scan", "ios": "https://dc.lft.to/lastmile_qr_scan"}, "fusion_lon": 0.0}, {"lat": 38.86887016666667, "is_disabled": 0, "type": "electric_scooter", "lon": -76.98309083333334, "bike_id": "5ca6d31be525004f915de1b818f4e2dd", "fusion_lat": 0.0, "name": "5ca6d31be525004f915de1b818f4e2dd", "is_reserved": 0, "rental_uris": {"android": "https://dc.lft.to/lastmile_qr_scan", "ios": "https://dc.lft.to/lastmile_qr_scan"}, "fusion_lon": 0.0}, {"lat": 38.882545, "is_disabled": 0, "type": "electric_scooter", "lon": -77.00437016666666, "bike_id": "a6c21e50927f4bc1ae6cc54fee592806", "fusion_lat": 0.0, "name": "a6c21e50927f4bc1ae6cc54fee592806", "is_reserved": 0, "rental_uris": {"android": "https://dc.lft.to/lastmile_qr_scan", "ios": "https://dc.lft.to/lastmile_qr_scan"}, "fusion_lon": 0.0}, {"lat": 38.900946, "is_disabled": 0, "type": "electric_scooter", "lon": -77.05025766666667, "bike_id": "5a69ef52104795030b8cf42b4a3bda5b", "fusion_lat": 0.0, "name": "5a69ef52104795030b8cf42b4a3bda5b", "is_reserved": 0, "rental_uris": {"android": "https://dc.lft.to/lastmile_qr_scan", "ios": "https://dc.lft.to/lastmile_qr_scan"}, "fusion_lon": 0.0}, {"lat": 38.90580533333333, "is_disabled": 0, "type": "electric_scooter", "lon": -77.00878866666666, "bike_id": "24ab99ef9d9f5cd9316cc2ae9ef69c3b", "fusion_lat": 0.0, "name": "24ab99ef9d9f5cd9316cc2ae9ef69c3b", "is_reserved": 0, "rental_uris": {"android": "https://dc.lft.to/lastmile_qr_scan", "ios": "https://dc.lft.to/lastmile_qr_scan"}, "fusion_lon": 0.0}, {"lat": 38.898934833333335, "is_disabled": 0, "type": "electric_scooter", "lon": -76.99725183333334, "bike_id": "3b7e77a73ee54ce7d2b9dbd6bf5675b4", "fusion_lat": 0.0, "name": "3b7e77a73ee54ce7d2b9dbd6bf5675b4", "is_reserved": 0, "rental_uris": {"android": "https://dc.lft.to/lastmile_qr_scan", "ios": "https://dc.lft.to/lastmile_qr_scan"}, "fusion_lon": 0.0}, {"lat": 38.902958, "is_disabled": 0, "type": "electric_scooter", "lon": -77.00206033333333, "bike_id": "10fa67d06bdf0fdb4992d8913a5750a7", "fusion_lat": 0.0, "name": "10fa67d06bdf0fdb4992d8913a5750a7", "is_reserved": 0, "rental_uris": {"android": "https://dc.lft.to/lastmile_qr_scan", "ios": "https://dc.lft.to/lastmile_qr_scan"}, "fusion_lon": 0.0}, {"lat": 38.86555416666667, "is_disabled": 0, "type": "electric_scooter", "lon": -76.9741485, "bike_id": "becc698034bcae43ce4d57ae18a4b410", "fusion_lat": 0.0, "name": "becc698034bcae43ce4d57ae18a4b410", "is_reserved": 0, "rental_uris": {"android": "https://dc.lft.to/lastmile_qr_scan", "ios": "https://dc.lft.to/lastmile_qr_scan"}, "fusion_lon": 0.0}, {"lat": 38.93364666666667, "is_disabled": 0, "type": "electric_scooter", "lon": -77.02394066666666, "bike_id": "e76555d591cbab0c401c2fb6d014156c", "fusion_lat": 0.0, "name": "e76555d591cbab0c401c2fb6d014156c", "is_reserved": 0, "rental_uris": {"android": "https://dc.lft.to/lastmile_qr_scan", "ios": "https://dc.lft.to/lastmile_qr_scan"}, "fusion_lon": 0.0}, {"lat": 38.953318, "is_disabled": 0, "type": "electric_bike", "lon": -76.9735835, "bike_id": "e4263cfd7735960f6732031f08953622", "fusion_lat": 0.0, "name": "e4263cfd7735960f6732031f08953622", "is_reserved": 0, "rental_uris": {"android": "https://dc.lft.to/lastmile_qr_scan", "ios": "https://dc.lft.to/lastmile_qr_scan"}, "fusion_lon": 0.0}, {"lat": 38.902638333333336, "is_disabled": 0, "type": "electric_scooter", "lon": -77.03187333333334, "bike_id": "f4e043e2745ed221e09a66b11d88bceb", "fusion_lat": 0.0, "name": "f4e043e2745ed221e09a66b11d88bceb", "is_reserved": 0, "rental_uris": {"android": "https://dc.lft.to/lastmile_qr_scan", "ios": "https://dc.lft.to/lastmile_qr_scan"}, "fusion_lon": 0.0}, {"lat": 38.86389583333333, "is_disabled": 0, "type": "electric_bike", "lon": -76.98986416666666, "bike_id": "e686cc8de5f3060030e386171ae8570a", "fusion_lat": 0.0, "name": "e686cc8de5f3060030e386171ae8570a", "is_reserved": 0, "rental_uris": {"android": "https://dc.lft.to/lastmile_qr_scan", "ios": "https://dc.lft.to/lastmile_qr_scan"}, "fusion_lon": 0.0}, {"lat": 38.934654333333334, "is_disabled": 0, "type": "electric_scooter", "lon": -77.0619155, "bike_id": "48c013708c2c0bf227fb982f62dfee02", "fusion_lat": 0.0, "name": "48c013708c2c0bf227fb982f62dfee02", "is_reserved": 0, "rental_uris": {"android": "https://dc.lft.to/lastmile_qr_scan", "ios": "https://dc.lft.to/lastmile_qr_scan"}, "fusion_lon": 0.0}, {"lat": 38.90083633333333, "is_disabled": 0, "type": "electric_scooter", "lon": -77.04919083333333, "bike_id": "96ad2affb1476f769c26b758e01a3001", "fusion_lat": 0.0, "name": "96ad2affb1476f769c26b758e01a3001", "is_reserved": 0, "rental_uris": {"android": "https://dc.lft.to/lastmile_qr_scan", "ios": "https://dc.lft.to/lastmile_qr_scan"}, "fusion_lon": 0.0}, {"lat": 38.931359, "is_disabled": 0, "type": "electric_scooter", "lon": -77.03251283333333, "bike_id": "27f003b8c59d7a1aeb3498175d51227d", "fusion_lat": 0.0, "name": "27f003b8c59d7a1aeb3498175d51227d", "is_reserved": 0, "rental_uris": {"android": "https://dc.lft.to/lastmile_qr_scan", "ios": "https://dc.lft.to/lastmile_qr_scan"}, "fusion_lon": 0.0}, {"lat": 38.933043166666664, "is_disabled": 0, "type": "electric_scooter", "lon": -77.0284235, "bike_id": "1b8a2b99ce3cba396e6294d8e8cca0c1", "fusion_lat": 0.0, "name": "1b8a2b99ce3cba396e6294d8e8cca0c1", "is_reserved": 0, "rental_uris": {"android": "https://dc.lft.to/lastmile_qr_scan", "ios": "https://dc.lft.to/lastmile_qr_scan"}, "fusion_lon": 0.0}, {"lat": 39.0001135, "is_disabled": 0, "type": "electric_bike", "lon": -76.91079716666667, "bike_id": "24118df8ed92a7ba47d1d2bcdc672fa9", "fusion_lat": 0.0, "name": "24118df8ed92a7ba47d1d2bcdc672fa9", "is_reserved": 0, "rental_uris": {"android": "https://dc.lft.to/lastmile_qr_scan", "ios": "https://dc.lft.to/lastmile_qr_scan"}, "fusion_lon": 0.0}, {"lat": 38.92586766666667, "is_disabled": 0, "type": "electric_scooter", "lon": -77.02833283333334, "bike_id": "1d66a17d1fbe521f9a12e901c651e6eb", "fusion_lat": 0.0, "name": "1d66a17d1fbe521f9a12e901c651e6eb", "is_reserved": 0, "rental_uris": {"android": "https://dc.lft.to/lastmile_qr_scan", "ios": "https://dc.lft.to/lastmile_qr_scan"}, "fusion_lon": 0.0}, {"lat": 38.854528, "is_disabled": 0, "type": "electric_scooter", "lon": -76.972321, "bike_id": "caac849ec98853a3cd086013dd83cabf", "fusion_lat": 0.0, "name": "caac849ec98853a3cd086013dd83cabf", "is_reserved": 0, "rental_uris": {"android": "https://dc.lft.to/lastmile_qr_scan", "ios": "https://dc.lft.to/lastmile_qr_scan"}, "fusion_lon": 0.0}, {"lat": 38.923597666666666, "is_disabled": 0, "type": "electric_scooter", "lon": -77.04378016666666, "bike_id": "b1946935b571d76966916b32ad5eac9a", "fusion_lat": 0.0, "name": "b1946935b571d76966916b32ad5eac9a", "is_reserved": 0, "rental_uris": {"android": "https://dc.lft.to/lastmile_qr_scan", "ios": "https://dc.lft.to/lastmile_qr_scan"}, "fusion_lon": 0.0}, {"lat": 38.909618333333334, "is_disabled": 0, "type": "electric_scooter", "lon": -77.03564833333333, "bike_id": "c46d5b96ef21086fc6a72e6702bace32", "fusion_lat": 0.0, "name": "c46d5b96ef21086fc6a72e6702bace32", "is_reserved": 0, "rental_uris": {"android": "https://dc.lft.to/lastmile_qr_scan", "ios": "https://dc.lft.to/lastmile_qr_scan"}, "fusion_lon": 0.0}, {"lat": 38.90695616666667, "is_disabled": 0, "type": "electric_bike", "lon": -77.06368783333333, "bike_id": "ae0cb2a11c5f762596b902ddb7d1d677", "fusion_lat": 0.0, "name": "ae0cb2a11c5f762596b902ddb7d1d677", "is_reserved": 0, "rental_uris": {"android": "https://dc.lft.to/lastmile_qr_scan", "ios": "https://dc.lft.to/lastmile_qr_scan"}, "fusion_lon": 0.0}, {"lat": 38.919647, "is_disabled": 0, "type": "electric_scooter", "lon": -77.02365966666666, "bike_id": "c4c86851c090c029d010940ff0735fdb", "fusion_lat": 0.0, "name": "c4c86851c090c029d010940ff0735fdb", "is_reserved": 0, "rental_uris": {"android": "https://dc.lft.to/lastmile_qr_scan", "ios": "https://dc.lft.to/lastmile_qr_scan"}, "fusion_lon": 0.0}, {"lat": 38.91989733333333, "is_disabled": 0, "type": "electric_scooter", "lon": -77.03241, "bike_id": "16452514bc2d25ba01f61caf38255625", "fusion_lat": 0.0, "name": "16452514bc2d25ba01f61caf38255625", "is_reserved": 0, "rental_uris": {"android": "https://dc.lft.to/lastmile_qr_scan", "ios": "https://dc.lft.to/lastmile_qr_scan"}, "fusion_lon": 0.0}, {"lat": 38.863806333333336, "is_disabled": 0, "type": "electric_scooter", "lon": -76.99251733333334, "bike_id": "7da5120c2b967b79eba33c4bbc452b3d", "fusion_lat": 0.0, "name": "7da5120c2b967b79eba33c4bbc452b3d", "is_reserved": 0, "rental_uris": {"android": "https://dc.lft.to/lastmile_qr_scan", "ios": "https://dc.lft.to/lastmile_qr_scan"}, "fusion_lon": 0.0}, {"lat": 38.94304233333333, "is_disabled": 0, "type": "electric_scooter", "lon": -77.05922816666667, "bike_id": "6ecf69f598ef97d35cc4fdf9f4fee0da", "fusion_lat": 0.0, "name": "6ecf69f598ef97d35cc4fdf9f4fee0da", "is_reserved": 0, "rental_uris": {"android": "https://dc.lft.to/lastmile_qr_scan", "ios": "https://dc.lft.to/lastmile_qr_scan"}, "fusion_lon": 0.0}, {"lat": 38.916895833333335, "is_disabled": 0, "type": "electric_scooter", "lon": -77.02598266666666, "bike_id": "bd472fd18d5879ad1ccd5b921bf4e7c6", "fusion_lat": 0.0, "name": "bd472fd18d5879ad1ccd5b921bf4e7c6", "is_reserved": 0, "rental_uris": {"android": "https://dc.lft.to/lastmile_qr_scan", "ios": "https://dc.lft.to/lastmile_qr_scan"}, "fusion_lon": 0.0}, {"lat": 38.97833383333333, "is_disabled": 0, "type": "electric_bike", "lon": -77.02634666666667, "bike_id": "62258c66071ae5562a689225cd3772d4", "fusion_lat": 0.0, "name": "62258c66071ae5562a689225cd3772d4", "is_reserved": 0, "rental_uris": {"android": "https://dc.lft.to/lastmile_qr_scan", "ios": "https://dc.lft.to/lastmile_qr_scan"}, "fusion_lon": 0.0}, {"lat": 38.926120833333336, "is_disabled": 0, "type": "electric_scooter", "lon": -77.02158683333333, "bike_id": "ab3451bd8b62891c9375e44dea104140", "fusion_lat": 0.0, "name": "ab3451bd8b62891c9375e44dea104140", "is_reserved": 0, "rental_uris": {"android": "https://dc.lft.to/lastmile_qr_scan", "ios": "https://dc.lft.to/lastmile_qr_scan"}, "fusion_lon": 0.0}, {"lat": 38.87959083333333, "is_disabled": 0, "type": "electric_scooter", "lon": -76.98742283333333, "bike_id": "b285e3fdffe1a18e9fe637a06fee1c24", "fusion_lat": 0.0, "name": "b285e3fdffe1a18e9fe637a06fee1c24", "is_reserved": 0, "rental_uris": {"android": "https://dc.lft.to/lastmile_qr_scan", "ios": "https://dc.lft.to/lastmile_qr_scan"}, "fusion_lon": 0.0}, {"lat": 38.884910833333336, "is_disabled": 0, "type": "electric_scooter", "lon": -77.00709133333334, "bike_id": "cdcba00806fdff4f0dec207732dc50e5", "fusion_lat": 0.0, "name": "cdcba00806fdff4f0dec207732dc50e5", "is_reserved": 0, "rental_uris": {"android": "https://dc.lft.to/lastmile_qr_scan", "ios": "https://dc.lft.to/lastmile_qr_scan"}, "fusion_lon": 0.0}, {"lat": 38.90011233333333, "is_disabled": 0, "type": "electric_scooter", "lon": -77.01199633333333, "bike_id": "75f03eb50e075037aabbc5e4421e1f8f", "fusion_lat": 0.0, "name": "75f03eb50e075037aabbc5e4421e1f8f", "is_reserved": 0, "rental_uris": {"android": "https://dc.lft.to/lastmile_qr_scan", "ios": "https://dc.lft.to/lastmile_qr_scan"}, "fusion_lon": 0.0}, {"lat": 38.9257485, "is_disabled": 0, "type": "electric_scooter", "lon": -76.98609233333333, "bike_id": "933d109a8eded9ef3e497a956546fe64", "fusion_lat": 0.0, "name": "933d109a8eded9ef3e497a956546fe64", "is_reserved": 0, "rental_uris": {"android": "https://dc.lft.to/lastmile_qr_scan", "ios": "https://dc.lft.to/lastmile_qr_scan"}, "fusion_lon": 0.0}, {"lat": 38.90241816666666, "is_disabled": 0, "type": "electric_scooter", "lon": -77.05427, "bike_id": "bcb475bc175cc8dc16916bf0c0a2accb", "fusion_lat": 0.0, "name": "bcb475bc175cc8dc16916bf0c0a2accb", "is_reserved": 0, "rental_uris": {"android": "https://dc.lft.to/lastmile_qr_scan", "ios": "https://dc.lft.to/lastmile_qr_scan"}, "fusion_lon": 0.0}, {"lat": 38.91670516666667, "is_disabled": 0, "type": "electric_scooter", "lon": -77.02593666666667, "bike_id": "7dd795ab422322c694b3144feeed1308", "fusion_lat": 0.0, "name": "7dd795ab422322c694b3144feeed1308", "is_reserved": 0, "rental_uris": {"android": "https://dc.lft.to/lastmile_qr_scan", "ios": "https://dc.lft.to/lastmile_qr_scan"}, "fusion_lon": 0.0}, {"lat": 38.923736, "is_disabled": 0, "type": "electric_scooter", "lon": -77.02924783333333, "bike_id": "60c7aff7ae221ba770cc27d8a2b47622", "fusion_lat": 0.0, "name": "60c7aff7ae221ba770cc27d8a2b47622", "is_reserved": 0, "rental_uris": {"android": "https://dc.lft.to/lastmile_qr_scan", "ios": "https://dc.lft.to/lastmile_qr_scan"}, "fusion_lon": 0.0}, {"lat": 38.842895, "is_disabled": 0, "type": "electric_scooter", "lon": -76.99945133333334, "bike_id": "5239db5c781e86a76566e651e336dcc3", "fusion_lat": 0.0, "name": "5239db5c781e86a76566e651e336dcc3", "is_reserved": 0, "rental_uris": {"android": "https://dc.lft.to/lastmile_qr_scan", "ios": "https://dc.lft.to/lastmile_qr_scan"}, "fusion_lon": 0.0}, {"lat": 38.92144016666666, "is_disabled": 0, "type": "electric_scooter", "lon": -77.03504033333333, "bike_id": "dcd431ac416b4b79826637be0408e89f", "fusion_lat": 0.0, "name": "dcd431ac416b4b79826637be0408e89f", "is_reserved": 0, "rental_uris": {"android": "https://dc.lft.to/lastmile_qr_scan", "ios": "https://dc.lft.to/lastmile_qr_scan"}, "fusion_lon": 0.0}, {"lat": 38.899947, "is_disabled": 0, "type": "electric_scooter", "lon": -76.99952383333333, "bike_id": "90811441521c307998610f62261fca7f", "fusion_lat": 0.0, "name": "90811441521c307998610f62261fca7f", "is_reserved": 0, "rental_uris": {"android": "https://dc.lft.to/lastmile_qr_scan", "ios": "https://dc.lft.to/lastmile_qr_scan"}, "fusion_lon": 0.0}, {"lat": 38.897292, "is_disabled": 0, "type": "electric_scooter", "lon": -77.05472, "bike_id": "4f2e4fca519731e9dceb5d0d849bd9db", "fusion_lat": 0.0, "name": "4f2e4fca519731e9dceb5d0d849bd9db", "is_reserved": 0, "rental_uris": {"android": "https://dc.lft.to/lastmile_qr_scan", "ios": "https://dc.lft.to/lastmile_qr_scan"}, "fusion_lon": 0.0}, {"lat": 38.92952983333333, "is_disabled": 0, "type": "electric_scooter", "lon": -76.99086283333334, "bike_id": "3552e19cddb15a4503b8b442bab48612", "fusion_lat": 0.0, "name": "3552e19cddb15a4503b8b442bab48612", "is_reserved": 0, "rental_uris": {"android": "https://dc.lft.to/lastmile_qr_scan", "ios": "https://dc.lft.to/lastmile_qr_scan"}, "fusion_lon": 0.0}, {"lat": 38.91543033333333, "is_disabled": 0, "type": "electric_scooter", "lon": -77.074128, "bike_id": "61879ce0e4ccbd8cf5db811b4e8c7b13", "fusion_lat": 0.0, "name": "61879ce0e4ccbd8cf5db811b4e8c7b13", "is_reserved": 0, "rental_uris": {"android": "https://dc.lft.to/lastmile_qr_scan", "ios": "https://dc.lft.to/lastmile_qr_scan"}, "fusion_lon": 0.0}, {"lat": 38.97226933333334, "is_disabled": 0, "type": "electric_bike", "lon": -77.03606916666666, "bike_id": "1a5ce22ffbc956121ba39f936c460152", "fusion_lat": 0.0, "name": "1a5ce22ffbc956121ba39f936c460152", "is_reserved": 0, "rental_uris": {"android": "https://dc.lft.to/lastmile_qr_scan", "ios": "https://dc.lft.to/lastmile_qr_scan"}, "fusion_lon": 0.0}, {"lat": 38.9096585, "is_disabled": 0, "type": "electric_scooter", "lon": -76.9960415, "bike_id": "398dab008cb3e48ee1d69b52e230fe34", "fusion_lat": 0.0, "name": "398dab008cb3e48ee1d69b52e230fe34", "is_reserved": 0, "rental_uris": {"android": "https://dc.lft.to/lastmile_qr_scan", "ios": "https://dc.lft.to/lastmile_qr_scan"}, "fusion_lon": 0.0}, {"lat": 38.874288666666665, "is_disabled": 0, "type": "electric_scooter", "lon": -77.00062466666667, "bike_id": "3729a56ef5e15b950ba0fb2f82fcdf65", "fusion_lat": 0.0, "name": "3729a56ef5e15b950ba0fb2f82fcdf65", "is_reserved": 0, "rental_uris": {"android": "https://dc.lft.to/lastmile_qr_scan", "ios": "https://dc.lft.to/lastmile_qr_scan"}, "fusion_lon": 0.0}, {"lat": 38.89287216666666, "is_disabled": 0, "type": "electric_scooter", "lon": -76.95851533333334, "bike_id": "c0be412b2cca191db15d91c86ecef032", "fusion_lat": 0.0, "name": "c0be412b2cca191db15d91c86ecef032", "is_reserved": 0, "rental_uris": {"android": "https://dc.lft.to/lastmile_qr_scan", "ios": "https://dc.lft.to/lastmile_qr_scan"}, "fusion_lon": 0.0}, {"lat": 38.876368666666664, "is_disabled": 0, "type": "electric_scooter", "lon": -77.00563033333333, "bike_id": "d246c6b374dabaa61ab8ca7be905cd38", "fusion_lat": 0.0, "name": "d246c6b374dabaa61ab8ca7be905cd38", "is_reserved": 0, "rental_uris": {"android": "https://dc.lft.to/lastmile_qr_scan", "ios": "https://dc.lft.to/lastmile_qr_scan"}, "fusion_lon": 0.0}, {"lat": 38.91423366666667, "is_disabled": 0, "type": "electric_scooter", "lon": -77.0318215, "bike_id": "5574515c823cfba07f2037d440bd6a7c", "fusion_lat": 0.0, "name": "5574515c823cfba07f2037d440bd6a7c", "is_reserved": 0, "rental_uris": {"android": "https://dc.lft.to/lastmile_qr_scan", "ios": "https://dc.lft.to/lastmile_qr_scan"}, "fusion_lon": 0.0}, {"lat": 38.9310925, "is_disabled": 0, "type": "electric_scooter", "lon": -77.03398266666666, "bike_id": "fc6b48dd56a5f4b88f8e48e7f5196d72", "fusion_lat": 0.0, "name": "fc6b48dd56a5f4b88f8e48e7f5196d72", "is_reserved": 0, "rental_uris": {"android": "https://dc.lft.to/lastmile_qr_scan", "ios": "https://dc.lft.to/lastmile_qr_scan"}, "fusion_lon": 0.0}, {"lat": 38.9028565, "is_disabled": 0, "type": "electric_scooter", "lon": -77.0635705, "bike_id": "5fa1f3d4568e9046464278322211ed1c", "fusion_lat": 0.0, "name": "5fa1f3d4568e9046464278322211ed1c", "is_reserved": 0, "rental_uris": {"android": "https://dc.lft.to/lastmile_qr_scan", "ios": "https://dc.lft.to/lastmile_qr_scan"}, "fusion_lon": 0.0}, {"lat": 38.911688, "is_disabled": 0, "type": "electric_scooter", "lon": -77.03854366666667, "bike_id": "ab9fa02259716e2b25db7b2ed7da5c4e", "fusion_lat": 0.0, "name": "ab9fa02259716e2b25db7b2ed7da5c4e", "is_reserved": 0, "rental_uris": {"android": "https://dc.lft.to/lastmile_qr_scan", "ios": "https://dc.lft.to/lastmile_qr_scan"}, "fusion_lon": 0.0}, {"lat": 38.921094833333335, "is_disabled": 0, "type": "electric_bike", "lon": -76.98571, "bike_id": "db411774ea5a0a99df2e2515379b9cc3", "fusion_lat": 0.0, "name": "db411774ea5a0a99df2e2515379b9cc3", "is_reserved": 0, "rental_uris": {"android": "https://dc.lft.to/lastmile_qr_scan", "ios": "https://dc.lft.to/lastmile_qr_scan"}, "fusion_lon": 0.0}, {"lat": 38.909180166666665, "is_disabled": 0, "type": "electric_bike", "lon": -77.087389, "bike_id": "ba91d1d5ea7630ad8c5afc50b828ab61", "fusion_lat": 0.0, "name": "ba91d1d5ea7630ad8c5afc50b828ab61", "is_reserved": 0, "rental_uris": {"android": "https://dc.lft.to/lastmile_qr_scan", "ios": "https://dc.lft.to/lastmile_qr_scan"}, "fusion_lon": 0.0}, {"lat": 38.91703916666667, "is_disabled": 0, "type": "electric_scooter", "lon": -77.024638, "bike_id": "0dc06a17329236f1068c999557868615", "fusion_lat": 0.0, "name": "0dc06a17329236f1068c999557868615", "is_reserved": 0, "rental_uris": {"android": "https://dc.lft.to/lastmile_qr_scan", "ios": "https://dc.lft.to/lastmile_qr_scan"}, "fusion_lon": 0.0}, {"lat": 38.905448, "is_disabled": 0, "type": "electric_scooter", "lon": -77.05708133333333, "bike_id": "4da72ea8851cf64d2141b8fec1543ebe", "fusion_lat": 0.0, "name": "4da72ea8851cf64d2141b8fec1543ebe", "is_reserved": 0, "rental_uris": {"android": "https://dc.lft.to/lastmile_qr_scan", "ios": "https://dc.lft.to/lastmile_qr_scan"}, "fusion_lon": 0.0}, {"lat": 38.84102633333333, "is_disabled": 0, "type": "electric_bike", "lon": -77.08935983333333, "bike_id": "98cd08ad8a717070e65955d3875fa1c1", "fusion_lat": 0.0, "name": "98cd08ad8a717070e65955d3875fa1c1", "is_reserved": 0, "rental_uris": {"android": "https://dc.lft.to/lastmile_qr_scan", "ios": "https://dc.lft.to/lastmile_qr_scan"}, "fusion_lon": 0.0}, {"lat": 38.92571183333333, "is_disabled": 0, "type": "electric_scooter", "lon": -77.03785716666667, "bike_id": "8a1f2cf156f33be2d9b646fa98c6c28e", "fusion_lat": 0.0, "name": "8a1f2cf156f33be2d9b646fa98c6c28e", "is_reserved": 0, "rental_uris": {"android": "https://dc.lft.to/lastmile_qr_scan", "ios": "https://dc.lft.to/lastmile_qr_scan"}, "fusion_lon": 0.0}, {"lat": 38.934670833333335, "is_disabled": 0, "type": "electric_scooter", "lon": -77.02407566666666, "bike_id": "ec326eb30893c69f98c7ed0460e71667", "fusion_lat": 0.0, "name": "ec326eb30893c69f98c7ed0460e71667", "is_reserved": 0, "rental_uris": {"android": "https://dc.lft.to/lastmile_qr_scan", "ios": "https://dc.lft.to/lastmile_qr_scan"}, "fusion_lon": 0.0}, {"lat": 38.893542333333336, "is_disabled": 0, "type": "electric_scooter", "lon": -77.04140233333334, "bike_id": "8ef790bb386164c5050601b06702b350", "fusion_lat": 0.0, "name": "8ef790bb386164c5050601b06702b350", "is_reserved": 0, "rental_uris": {"android": "https://dc.lft.to/lastmile_qr_scan", "ios": "https://dc.lft.to/lastmile_qr_scan"}, "fusion_lon": 0.0}, {"lat": 38.91284133333333, "is_disabled": 0, "type": "electric_scooter", "lon": -77.03204916666667, "bike_id": "91c8f925c77ac000c9745090e1d50dcf", "fusion_lat": 0.0, "name": "91c8f925c77ac000c9745090e1d50dcf", "is_reserved": 0, "rental_uris": {"android": "https://dc.lft.to/lastmile_qr_scan", "ios": "https://dc.lft.to/lastmile_qr_scan"}, "fusion_lon": 0.0}, {"lat": 38.9588425, "is_disabled": 0, "type": "electric_bike", "lon": -76.924895, "bike_id": "f3c460ec221bf050cbc657e926b15ef9", "fusion_lat": 0.0, "name": "f3c460ec221bf050cbc657e926b15ef9", "is_reserved": 0, "rental_uris": {"android": "https://dc.lft.to/lastmile_qr_scan", "ios": "https://dc.lft.to/lastmile_qr_scan"}, "fusion_lon": 0.0}, {"lat": 38.900661, "is_disabled": 0, "type": "electric_scooter", "lon": -77.00204416666666, "bike_id": "4cc2f755b22fff8164890df6ed7de6e6", "fusion_lat": 0.0, "name": "4cc2f755b22fff8164890df6ed7de6e6", "is_reserved": 0, "rental_uris": {"android": "https://dc.lft.to/lastmile_qr_scan", "ios": "https://dc.lft.to/lastmile_qr_scan"}, "fusion_lon": 0.0}, {"lat": 38.889244, "is_disabled": 0, "type": "electric_scooter", "lon": -76.97373433333334, "bike_id": "cccc4b24352f9e488b2b3f8d75b33591", "fusion_lat": 0.0, "name": "cccc4b24352f9e488b2b3f8d75b33591", "is_reserved": 0, "rental_uris": {"android": "https://dc.lft.to/lastmile_qr_scan", "ios": "https://dc.lft.to/lastmile_qr_scan"}, "fusion_lon": 0.0}, {"lat": 38.908600166666666, "is_disabled": 0, "type": "electric_scooter", "lon": -77.04767866666667, "bike_id": "bf66816db76b523185c25f3822bdf827", "fusion_lat": 0.0, "name": "bf66816db76b523185c25f3822bdf827", "is_reserved": 0, "rental_uris": {"android": "https://dc.lft.to/lastmile_qr_scan", "ios": "https://dc.lft.to/lastmile_qr_scan"}, "fusion_lon": 0.0}, {"lat": 38.905306, "is_disabled": 0, "type": "electric_scooter", "lon": -77.05827866666667, "bike_id": "e0c46b107e8232217cfe838fbd8be920", "fusion_lat": 0.0, "name": "e0c46b107e8232217cfe838fbd8be920", "is_reserved": 0, "rental_uris": {"android": "https://dc.lft.to/lastmile_qr_scan", "ios": "https://dc.lft.to/lastmile_qr_scan"}, "fusion_lon": 0.0}, {"lat": 38.862536166666665, "is_disabled": 0, "type": "electric_scooter", "lon": -76.9951145, "bike_id": "5ce8833c6446ff9ad3d472769e44fd27", "fusion_lat": 0.0, "name": "5ce8833c6446ff9ad3d472769e44fd27", "is_reserved": 0, "rental_uris": {"android": "https://dc.lft.to/lastmile_qr_scan", "ios": "https://dc.lft.to/lastmile_qr_scan"}, "fusion_lon": 0.0}, {"lat": 38.91687433333333, "is_disabled": 0, "type": "electric_scooter", "lon": -77.02688033333334, "bike_id": "b4a18f3b8ad93d87ba36fa7db6967c4e", "fusion_lat": 0.0, "name": "b4a18f3b8ad93d87ba36fa7db6967c4e", "is_reserved": 0, "rental_uris": {"android": "https://dc.lft.to/lastmile_qr_scan", "ios": "https://dc.lft.to/lastmile_qr_scan"}, "fusion_lon": 0.0}, {"lat": 38.893647, "is_disabled": 0, "type": "electric_bike", "lon": -76.99332183333334, "bike_id": "41b920e41780e80f99a586bcab4e170f", "fusion_lat": 0.0, "name": "41b920e41780e80f99a586bcab4e170f", "is_reserved": 0, "rental_uris": {"android": "https://dc.lft.to/lastmile_qr_scan", "ios": "https://dc.lft.to/lastmile_qr_scan"}, "fusion_lon": 0.0}, {"lat": 38.944032, "is_disabled": 0, "type": "electric_scooter", "lon": -77.02642016666667, "bike_id": "0a0cb993de68cb66c5c370a79dfb86dd", "fusion_lat": 0.0, "name": "0a0cb993de68cb66c5c370a79dfb86dd", "is_reserved": 0, "rental_uris": {"android": "https://dc.lft.to/lastmile_qr_scan", "ios": "https://dc.lft.to/lastmile_qr_scan"}, "fusion_lon": 0.0}, {"lat": 38.91421166666667, "is_disabled": 0, "type": "electric_scooter", "lon": -77.03181016666667, "bike_id": "1b66575f50f4e688886b4379789bffb4", "fusion_lat": 0.0, "name": "1b66575f50f4e688886b4379789bffb4", "is_reserved": 0, "rental_uris": {"android": "https://dc.lft.to/lastmile_qr_scan", "ios": "https://dc.lft.to/lastmile_qr_scan"}, "fusion_lon": 0.0}, {"lat": 38.9335555, "is_disabled": 0, "type": "electric_bike", "lon": -77.09957616666667, "bike_id": "8412ec1538c4fe67a01647b9334ccbc9", "fusion_lat": 0.0, "name": "8412ec1538c4fe67a01647b9334ccbc9", "is_reserved": 0, "rental_uris": {"android": "https://dc.lft.to/lastmile_qr_scan", "ios": "https://dc.lft.to/lastmile_qr_scan"}, "fusion_lon": 0.0}, {"lat": 38.93206383333333, "is_disabled": 0, "type": "electric_scooter", "lon": -76.97769166666667, "bike_id": "e999a69b1cb9d1e05b6faa8a21131428", "fusion_lat": 0.0, "name": "e999a69b1cb9d1e05b6faa8a21131428", "is_reserved": 0, "rental_uris": {"android": "https://dc.lft.to/lastmile_qr_scan", "ios": "https://dc.lft.to/lastmile_qr_scan"}, "fusion_lon": 0.0}, {"lat": 38.90275283333333, "is_disabled": 0, "type": "electric_scooter", "lon": -77.036588, "bike_id": "3d1d7458a388be706679c5ddbfc3baa5", "fusion_lat": 0.0, "name": "3d1d7458a388be706679c5ddbfc3baa5", "is_reserved": 0, "rental_uris": {"android": "https://dc.lft.to/lastmile_qr_scan", "ios": "https://dc.lft.to/lastmile_qr_scan"}, "fusion_lon": 0.0}, {"lat": 38.91713133333333, "is_disabled": 0, "type": "electric_scooter", "lon": -77.0333755, "bike_id": "283389079a2ad3215f3a2a26800fe4ae", "fusion_lat": 0.0, "name": "283389079a2ad3215f3a2a26800fe4ae", "is_reserved": 0, "rental_uris": {"android": "https://dc.lft.to/lastmile_qr_scan", "ios": "https://dc.lft.to/lastmile_qr_scan"}, "fusion_lon": 0.0}, {"lat": 38.89591683333333, "is_disabled": 0, "type": "electric_bike", "lon": -77.12691216666667, "bike_id": "cb858c36711e1cf212f5c3374bdccbde", "fusion_lat": 0.0, "name": "cb858c36711e1cf212f5c3374bdccbde", "is_reserved": 0, "rental_uris": {"android": "https://dc.lft.to/lastmile_qr_scan", "ios": "https://dc.lft.to/lastmile_qr_scan"}, "fusion_lon": 0.0}, {"lat": 38.91006316666667, "is_disabled": 0, "type": "electric_scooter", "lon": -77.04424533333334, "bike_id": "2a82590df001d7781118853890fad319", "fusion_lat": 0.0, "name": "2a82590df001d7781118853890fad319", "is_reserved": 0, "rental_uris": {"android": "https://dc.lft.to/lastmile_qr_scan", "ios": "https://dc.lft.to/lastmile_qr_scan"}, "fusion_lon": 0.0}, {"lat": 38.910114166666666, "is_disabled": 0, "type": "electric_scooter", "lon": -77.0444125, "bike_id": "44faa7699df89aee095243ca22586e7e", "fusion_lat": 0.0, "name": "44faa7699df89aee095243ca22586e7e", "is_reserved": 0, "rental_uris": {"android": "https://dc.lft.to/lastmile_qr_scan", "ios": "https://dc.lft.to/lastmile_qr_scan"}, "fusion_lon": 0.0}, {"lat": 38.90662066666667, "is_disabled": 0, "type": "electric_scooter", "lon": -77.03855966666667, "bike_id": "5c2fa750420d0bd1deae9bf092ab653c", "fusion_lat": 0.0, "name": "5c2fa750420d0bd1deae9bf092ab653c", "is_reserved": 0, "rental_uris": {"android": "https://dc.lft.to/lastmile_qr_scan", "ios": "https://dc.lft.to/lastmile_qr_scan"}, "fusion_lon": 0.0}, {"lat": 38.909595333333336, "is_disabled": 0, "type": "electric_scooter", "lon": -77.022799, "bike_id": "2fb03b41333c6708fce3916899feba63", "fusion_lat": 0.0, "name": "2fb03b41333c6708fce3916899feba63", "is_reserved": 0, "rental_uris": {"android": "https://dc.lft.to/lastmile_qr_scan", "ios": "https://dc.lft.to/lastmile_qr_scan"}, "fusion_lon": 0.0}, {"lat": 38.86521333333334, "is_disabled": 0, "type": "electric_scooter", "lon": -76.99028783333333, "bike_id": "b6d6698231d7d9d6939ef2fc37ca5d5e", "fusion_lat": 0.0, "name": "b6d6698231d7d9d6939ef2fc37ca5d5e", "is_reserved": 0, "rental_uris": {"android": "https://dc.lft.to/lastmile_qr_scan", "ios": "https://dc.lft.to/lastmile_qr_scan"}, "fusion_lon": 0.0}, {"lat": 38.90288233333333, "is_disabled": 0, "type": "electric_bike", "lon": -77.03238266666666, "bike_id": "60fdb2598d0b7a92e815bcad23b085aa", "fusion_lat": 0.0, "name": "60fdb2598d0b7a92e815bcad23b085aa", "is_reserved": 0, "rental_uris": {"android": "https://dc.lft.to/lastmile_qr_scan", "ios": "https://dc.lft.to/lastmile_qr_scan"}, "fusion_lon": 0.0}, {"lat": 38.912682333333336, "is_disabled": 0, "type": "electric_bike", "lon": -77.01967116666667, "bike_id": "033b4028d7e4874a75bfe17b9dd755da", "fusion_lat": 0.0, "name": "033b4028d7e4874a75bfe17b9dd755da", "is_reserved": 0, "rental_uris": {"android": "https://dc.lft.to/lastmile_qr_scan", "ios": "https://dc.lft.to/lastmile_qr_scan"}, "fusion_lon": 0.0}, {"lat": 38.92201633333333, "is_disabled": 0, "type": "electric_scooter", "lon": -76.95661216666667, "bike_id": "413ef6890d659c9662919d8c64996328", "fusion_lat": 0.0, "name": "413ef6890d659c9662919d8c64996328", "is_reserved": 0, "rental_uris": {"android": "https://dc.lft.to/lastmile_qr_scan", "ios": "https://dc.lft.to/lastmile_qr_scan"}, "fusion_lon": 0.0}, {"lat": 38.924795333333336, "is_disabled": 0, "type": "electric_bike", "lon": -76.99030616666667, "bike_id": "e5a98ff994313c777b683dd404dbcfd3", "fusion_lat": 0.0, "name": "e5a98ff994313c777b683dd404dbcfd3", "is_reserved": 0, "rental_uris": {"android": "https://dc.lft.to/lastmile_qr_scan", "ios": "https://dc.lft.to/lastmile_qr_scan"}, "fusion_lon": 0.0}, {"lat": 39.08858633333333, "is_disabled": 0, "type": "electric_bike", "lon": -77.178429, "bike_id": "824fe58350bf34623fca1bbad07e12d5", "fusion_lat": 0.0, "name": "824fe58350bf34623fca1bbad07e12d5", "is_reserved": 0, "rental_uris": {"android": "https://dc.lft.to/lastmile_qr_scan", "ios": "https://dc.lft.to/lastmile_qr_scan"}, "fusion_lon": 0.0}, {"lat": 38.928548666666664, "is_disabled": 0, "type": "electric_bike", "lon": -77.22223083333333, "bike_id": "280516a0a3d5b72c83218fd2411e5190", "fusion_lat": 0.0, "name": "280516a0a3d5b72c83218fd2411e5190", "is_reserved": 0, "rental_uris": {"android": "https://dc.lft.to/lastmile_qr_scan", "ios": "https://dc.lft.to/lastmile_qr_scan"}, "fusion_lon": 0.0}, {"lat": 38.90170466666667, "is_disabled": 0, "type": "electric_scooter", "lon": -77.04991766666667, "bike_id": "767a280e3960de4419053ebe31a878c5", "fusion_lat": 0.0, "name": "767a280e3960de4419053ebe31a878c5", "is_reserved": 0, "rental_uris": {"android": "https://dc.lft.to/lastmile_qr_scan", "ios": "https://dc.lft.to/lastmile_qr_scan"}, "fusion_lon": 0.0}, {"lat": 38.90632016666667, "is_disabled": 0, "type": "electric_scooter", "lon": -77.03140216666667, "bike_id": "579b7d6ef779fb48ab984b339444a66f", "fusion_lat": 0.0, "name": "579b7d6ef779fb48ab984b339444a66f", "is_reserved": 0, "rental_uris": {"android": "https://dc.lft.to/lastmile_qr_scan", "ios": "https://dc.lft.to/lastmile_qr_scan"}, "fusion_lon": 0.0}, {"lat": 38.870876333333335, "is_disabled": 0, "type": "electric_bike", "lon": -77.01205233333333, "bike_id": "fabe5a5c509c3c10a8b712daa9711834", "fusion_lat": 0.0, "name": "fabe5a5c509c3c10a8b712daa9711834", "is_reserved": 0, "rental_uris": {"android": "https://dc.lft.to/lastmile_qr_scan", "ios": "https://dc.lft.to/lastmile_qr_scan"}, "fusion_lon": 0.0}, {"lat": 38.903286, "is_disabled": 0, "type": "electric_scooter", "lon": -77.02898483333334, "bike_id": "7701eb442e80b3a6ac85d18cd82981bf", "fusion_lat": 0.0, "name": "7701eb442e80b3a6ac85d18cd82981bf", "is_reserved": 0, "rental_uris": {"android": "https://dc.lft.to/lastmile_qr_scan", "ios": "https://dc.lft.to/lastmile_qr_scan"}, "fusion_lon": 0.0}, {"lat": 38.91763433333333, "is_disabled": 0, "type": "electric_scooter", "lon": -77.04772216666667, "bike_id": "6fd5cfb2d11d4635408a9a0416324ec6", "fusion_lat": 0.0, "name": "6fd5cfb2d11d4635408a9a0416324ec6", "is_reserved": 0, "rental_uris": {"android": "https://dc.lft.to/lastmile_qr_scan", "ios": "https://dc.lft.to/lastmile_qr_scan"}, "fusion_lon": 0.0}, {"lat": 38.89965183333333, "is_disabled": 0, "type": "electric_scooter", "lon": -76.92658066666667, "bike_id": "48a626bc51989380694d108e85a138df", "fusion_lat": 0.0, "name": "48a626bc51989380694d108e85a138df", "is_reserved": 0, "rental_uris": {"android": "https://dc.lft.to/lastmile_qr_scan", "ios": "https://dc.lft.to/lastmile_qr_scan"}, "fusion_lon": 0.0}, {"lat": 38.887307666666665, "is_disabled": 0, "type": "electric_scooter", "lon": -77.03208583333333, "bike_id": "fa87af16fa7f01cf393e7d27e39c6ab5", "fusion_lat": 0.0, "name": "fa87af16fa7f01cf393e7d27e39c6ab5", "is_reserved": 0, "rental_uris": {"android": "https://dc.lft.to/lastmile_qr_scan", "ios": "https://dc.lft.to/lastmile_qr_scan"}, "fusion_lon": 0.0}, {"lat": 38.90064483333333, "is_disabled": 0, "type": "electric_scooter", "lon": -77.00213466666666, "bike_id": "c88e9252b55d4bdd958570f2e019f291", "fusion_lat": 0.0, "name": "c88e9252b55d4bdd958570f2e019f291", "is_reserved": 0, "rental_uris": {"android": "https://dc.lft.to/lastmile_qr_scan", "ios": "https://dc.lft.to/lastmile_qr_scan"}, "fusion_lon": 0.0}, {"lat": 38.91774483333333, "is_disabled": 0, "type": "electric_scooter", "lon": -77.038511, "bike_id": "01e9242dd1a839ab23bcbee55caecee1", "fusion_lat": 0.0, "name": "01e9242dd1a839ab23bcbee55caecee1", "is_reserved": 0, "rental_uris": {"android": "https://dc.lft.to/lastmile_qr_scan", "ios": "https://dc.lft.to/lastmile_qr_scan"}, "fusion_lon": 0.0}, {"lat": 38.923343833333334, "is_disabled": 0, "type": "electric_scooter", "lon": -77.02692933333333, "bike_id": "ba23e1e695200d258fe2a822c07644cc", "fusion_lat": 0.0, "name": "ba23e1e695200d258fe2a822c07644cc", "is_reserved": 0, "rental_uris": {"android": "https://dc.lft.to/lastmile_qr_scan", "ios": "https://dc.lft.to/lastmile_qr_scan"}, "fusion_lon": 0.0}, {"lat": 38.9020435, "is_disabled": 0, "type": "electric_scooter", "lon": -77.02373983333334, "bike_id": "7454345cc4b677eefdc4d6d4e2728314", "fusion_lat": 0.0, "name": "7454345cc4b677eefdc4d6d4e2728314", "is_reserved": 0, "rental_uris": {"android": "https://dc.lft.to/lastmile_qr_scan", "ios": "https://dc.lft.to/lastmile_qr_scan"}, "fusion_lon": 0.0}, {"lat": 38.898018, "is_disabled": 0, "type": "electric_scooter", "lon": -77.0323685, "bike_id": "d88aaa1899299526d153d862d35d29eb", "fusion_lat": 0.0, "name": "d88aaa1899299526d153d862d35d29eb", "is_reserved": 0, "rental_uris": {"android": "https://dc.lft.to/lastmile_qr_scan", "ios": "https://dc.lft.to/lastmile_qr_scan"}, "fusion_lon": 0.0}, {"lat": 38.900914, "is_disabled": 0, "type": "electric_scooter", "lon": -77.01219166666667, "bike_id": "bfe4acc839a08eff783454600dc18eb6", "fusion_lat": 0.0, "name": "bfe4acc839a08eff783454600dc18eb6", "is_reserved": 0, "rental_uris": {"android": "https://dc.lft.to/lastmile_qr_scan", "ios": "https://dc.lft.to/lastmile_qr_scan"}, "fusion_lon": 0.0}, {"lat": 38.902680333333336, "is_disabled": 0, "type": "electric_scooter", "lon": -77.0382575, "bike_id": "eb7c731a8bb2a40c410e5b2ad420df27", "fusion_lat": 0.0, "name": "eb7c731a8bb2a40c410e5b2ad420df27", "is_reserved": 0, "rental_uris": {"android": "https://dc.lft.to/lastmile_qr_scan", "ios": "https://dc.lft.to/lastmile_qr_scan"}, "fusion_lon": 0.0}, {"lat": 38.906544, "is_disabled": 0, "type": "electric_scooter", "lon": -77.02951583333333, "bike_id": "53777dfbd4f0355bc9153b8f1b8f7468", "fusion_lat": 0.0, "name": "53777dfbd4f0355bc9153b8f1b8f7468", "is_reserved": 0, "rental_uris": {"android": "https://dc.lft.to/lastmile_qr_scan", "ios": "https://dc.lft.to/lastmile_qr_scan"}, "fusion_lon": 0.0}, {"lat": 39.05201116666667, "is_disabled": 0, "type": "electric_bike", "lon": -77.1091255, "bike_id": "853a6c919940a19769d5e04fff40d0c4", "fusion_lat": 0.0, "name": "853a6c919940a19769d5e04fff40d0c4", "is_reserved": 0, "rental_uris": {"android": "https://dc.lft.to/lastmile_qr_scan", "ios": "https://dc.lft.to/lastmile_qr_scan"}, "fusion_lon": 0.0}, {"lat": 38.94897683333333, "is_disabled": 0, "type": "electric_scooter", "lon": -77.030478, "bike_id": "e57560286f4e17d349215b0c155ffc23", "fusion_lat": 0.0, "name": "e57560286f4e17d349215b0c155ffc23", "is_reserved": 0, "rental_uris": {"android": "https://dc.lft.to/lastmile_qr_scan", "ios": "https://dc.lft.to/lastmile_qr_scan"}, "fusion_lon": 0.0}, {"lat": 38.97223816666666, "is_disabled": 0, "type": "electric_bike", "lon": -76.99345266666667, "bike_id": "168ce3e16b0047b8d425584687a8e906", "fusion_lat": 0.0, "name": "168ce3e16b0047b8d425584687a8e906", "is_reserved": 0, "rental_uris": {"android": "https://dc.lft.to/lastmile_qr_scan", "ios": "https://dc.lft.to/lastmile_qr_scan"}, "fusion_lon": 0.0}, {"lat": 38.90322833333333, "is_disabled": 0, "type": "electric_scooter", "lon": -77.03772666666667, "bike_id": "1ecefa988c420969f982816fd013c48f", "fusion_lat": 0.0, "name": "1ecefa988c420969f982816fd013c48f", "is_reserved": 0, "rental_uris": {"android": "https://dc.lft.to/lastmile_qr_scan", "ios": "https://dc.lft.to/lastmile_qr_scan"}, "fusion_lon": 0.0}, {"lat": 38.908317833333335, "is_disabled": 0, "type": "electric_scooter", "lon": -76.99692633333333, "bike_id": "fad39b041e0fe268ee45f2be20930787", "fusion_lat": 0.0, "name": "fad39b041e0fe268ee45f2be20930787", "is_reserved": 0, "rental_uris": {"android": "https://dc.lft.to/lastmile_qr_scan", "ios": "https://dc.lft.to/lastmile_qr_scan"}, "fusion_lon": 0.0}, {"lat": 38.92240316666667, "is_disabled": 0, "type": "electric_scooter", "lon": -77.04575416666667, "bike_id": "e53acecae548ae70bd4f836771ebc1ce", "fusion_lat": 0.0, "name": "e53acecae548ae70bd4f836771ebc1ce", "is_reserved": 0, "rental_uris": {"android": "https://dc.lft.to/lastmile_qr_scan", "ios": "https://dc.lft.to/lastmile_qr_scan"}, "fusion_lon": 0.0}, {"lat": 38.9331595, "is_disabled": 0, "type": "electric_scooter", "lon": -77.04528166666667, "bike_id": "791fa3573dd97cb20f1158a1051232ee", "fusion_lat": 0.0, "name": "791fa3573dd97cb20f1158a1051232ee", "is_reserved": 0, "rental_uris": {"android": "https://dc.lft.to/lastmile_qr_scan", "ios": "https://dc.lft.to/lastmile_qr_scan"}, "fusion_lon": 0.0}, {"lat": 38.950719166666666, "is_disabled": 0, "type": "electric_scooter", "lon": -77.02715216666667, "bike_id": "97bab52d72cc397df31f084f8b5c6368", "fusion_lat": 0.0, "name": "97bab52d72cc397df31f084f8b5c6368", "is_reserved": 0, "rental_uris": {"android": "https://dc.lft.to/lastmile_qr_scan", "ios": "https://dc.lft.to/lastmile_qr_scan"}, "fusion_lon": 0.0}, {"lat": 38.9266355, "is_disabled": 0, "type": "electric_scooter", "lon": -77.01467433333333, "bike_id": "a0ba216fda7c8b78e7edb01b13054699", "fusion_lat": 0.0, "name": "a0ba216fda7c8b78e7edb01b13054699", "is_reserved": 0, "rental_uris": {"android": "https://dc.lft.to/lastmile_qr_scan", "ios": "https://dc.lft.to/lastmile_qr_scan"}, "fusion_lon": 0.0}, {"lat": 38.9258105, "is_disabled": 0, "type": "electric_scooter", "lon": -77.05760533333333, "bike_id": "6f6f803ddb332f50883340540d4339f6", "fusion_lat": 0.0, "name": "6f6f803ddb332f50883340540d4339f6", "is_reserved": 0, "rental_uris": {"android": "https://dc.lft.to/lastmile_qr_scan", "ios": "https://dc.lft.to/lastmile_qr_scan"}, "fusion_lon": 0.0}, {"lat": 38.91837433333333, "is_disabled": 0, "type": "electric_scooter", "lon": -77.0351775, "bike_id": "1cb4deefb0e839b7747cc3439ef8f18f", "fusion_lat": 0.0, "name": "1cb4deefb0e839b7747cc3439ef8f18f", "is_reserved": 0, "rental_uris": {"android": "https://dc.lft.to/lastmile_qr_scan", "ios": "https://dc.lft.to/lastmile_qr_scan"}, "fusion_lon": 0.0}, {"lat": 38.886507333333334, "is_disabled": 0, "type": "electric_scooter", "lon": -77.0216325, "bike_id": "b594b4c4d9f9da50fab5ef95d01a0f6b", "fusion_lat": 0.0, "name": "b594b4c4d9f9da50fab5ef95d01a0f6b", "is_reserved": 0, "rental_uris": {"android": "https://dc.lft.to/lastmile_qr_scan", "ios": "https://dc.lft.to/lastmile_qr_scan"}, "fusion_lon": 0.0}, {"lat": 38.89510116666666, "is_disabled": 0, "type": "electric_scooter", "lon": -77.00732983333333, "bike_id": "62e9201d8ce7675d9b802b4f7f8f45c6", "fusion_lat": 0.0, "name": "62e9201d8ce7675d9b802b4f7f8f45c6", "is_reserved": 0, "rental_uris": {"android": "https://dc.lft.to/lastmile_qr_scan", "ios": "https://dc.lft.to/lastmile_qr_scan"}, "fusion_lon": 0.0}, {"lat": 38.915673166666664, "is_disabled": 0, "type": "electric_scooter", "lon": -77.03665866666667, "bike_id": "d95f1ed5f387a91c037062992d1eca58", "fusion_lat": 0.0, "name": "d95f1ed5f387a91c037062992d1eca58", "is_reserved": 0, "rental_uris": {"android": "https://dc.lft.to/lastmile_qr_scan", "ios": "https://dc.lft.to/lastmile_qr_scan"}, "fusion_lon": 0.0}, {"lat": 38.91303533333333, "is_disabled": 0, "type": "electric_scooter", "lon": -77.0195105, "bike_id": "fbcb3b7e3609e53dfa1c87cdde681448", "fusion_lat": 0.0, "name": "fbcb3b7e3609e53dfa1c87cdde681448", "is_reserved": 0, "rental_uris": {"android": "https://dc.lft.to/lastmile_qr_scan", "ios": "https://dc.lft.to/lastmile_qr_scan"}, "fusion_lon": 0.0}, {"lat": 38.91248183333333, "is_disabled": 0, "type": "electric_scooter", "lon": -77.0199885, "bike_id": "3e3637ae1a9b7bb877453251410992fc", "fusion_lat": 0.0, "name": "3e3637ae1a9b7bb877453251410992fc", "is_reserved": 0, "rental_uris": {"android": "https://dc.lft.to/lastmile_qr_scan", "ios": "https://dc.lft.to/lastmile_qr_scan"}, "fusion_lon": 0.0}, {"lat": 38.90999083333333, "is_disabled": 0, "type": "electric_scooter", "lon": -77.0319625, "bike_id": "821953273c05b7a5045d27cf1cb75ff7", "fusion_lat": 0.0, "name": "821953273c05b7a5045d27cf1cb75ff7", "is_reserved": 0, "rental_uris": {"android": "https://dc.lft.to/lastmile_qr_scan", "ios": "https://dc.lft.to/lastmile_qr_scan"}, "fusion_lon": 0.0}, {"lat": 38.92248633333333, "is_disabled": 0, "type": "electric_scooter", "lon": -77.02975616666667, "bike_id": "4f95f4819e63666a94b24b27266dc27c", "fusion_lat": 0.0, "name": "4f95f4819e63666a94b24b27266dc27c", "is_reserved": 0, "rental_uris": {"android": "https://dc.lft.to/lastmile_qr_scan", "ios": "https://dc.lft.to/lastmile_qr_scan"}, "fusion_lon": 0.0}, {"lat": 38.9010805, "is_disabled": 0, "type": "electric_scooter", "lon": -76.9962195, "bike_id": "eba32f29dc2746afba17e06b676ccba1", "fusion_lat": 0.0, "name": "eba32f29dc2746afba17e06b676ccba1", "is_reserved": 0, "rental_uris": {"android": "https://dc.lft.to/lastmile_qr_scan", "ios": "https://dc.lft.to/lastmile_qr_scan"}, "fusion_lon": 0.0}, {"lat": 38.927470666666665, "is_disabled": 0, "type": "electric_scooter", "lon": -77.02415733333333, "bike_id": "974e3d5c68878ff3978abf5209b8b20a", "fusion_lat": 0.0, "name": "974e3d5c68878ff3978abf5209b8b20a", "is_reserved": 0, "rental_uris": {"android": "https://dc.lft.to/lastmile_qr_scan", "ios": "https://dc.lft.to/lastmile_qr_scan"}, "fusion_lon": 0.0}, {"lat": 38.88575516666667, "is_disabled": 0, "type": "electric_scooter", "lon": -76.91908416666666, "bike_id": "977c58ef937b1be15832066f0a6356ee", "fusion_lat": 0.0, "name": "977c58ef937b1be15832066f0a6356ee", "is_reserved": 0, "rental_uris": {"android": "https://dc.lft.to/lastmile_qr_scan", "ios": "https://dc.lft.to/lastmile_qr_scan"}, "fusion_lon": 0.0}, {"lat": 38.913256833333335, "is_disabled": 0, "type": "electric_scooter", "lon": -77.04530766666667, "bike_id": "a0d5983aff2787b31aec9b84154e1ae2", "fusion_lat": 0.0, "name": "a0d5983aff2787b31aec9b84154e1ae2", "is_reserved": 0, "rental_uris": {"android": "https://dc.lft.to/lastmile_qr_scan", "ios": "https://dc.lft.to/lastmile_qr_scan"}, "fusion_lon": 0.0}, {"lat": 38.95400033333333, "is_disabled": 0, "type": "electric_scooter", "lon": -77.027381, "bike_id": "ae9c65a9d662152cc1a76dbc737a152b", "fusion_lat": 0.0, "name": "ae9c65a9d662152cc1a76dbc737a152b", "is_reserved": 0, "rental_uris": {"android": "https://dc.lft.to/lastmile_qr_scan", "ios": "https://dc.lft.to/lastmile_qr_scan"}, "fusion_lon": 0.0}, {"lat": 38.9012655, "is_disabled": 0, "type": "electric_scooter", "lon": -77.0415935, "bike_id": "063177b74304af8c004716f22833904b", "fusion_lat": 0.0, "name": "063177b74304af8c004716f22833904b", "is_reserved": 0, "rental_uris": {"android": "https://dc.lft.to/lastmile_qr_scan", "ios": "https://dc.lft.to/lastmile_qr_scan"}, "fusion_lon": 0.0}, {"lat": 38.9218245, "is_disabled": 0, "type": "electric_scooter", "lon": -77.04707533333334, "bike_id": "da8e5f202ab60b2c439bcac41c28967b", "fusion_lat": 0.0, "name": "da8e5f202ab60b2c439bcac41c28967b", "is_reserved": 0, "rental_uris": {"android": "https://dc.lft.to/lastmile_qr_scan", "ios": "https://dc.lft.to/lastmile_qr_scan"}, "fusion_lon": 0.0}, {"lat": 38.914141666666666, "is_disabled": 0, "type": "electric_scooter", "lon": -77.01334566666667, "bike_id": "b31249dc7c06c35b9f864fa54d85cb1d", "fusion_lat": 0.0, "name": "b31249dc7c06c35b9f864fa54d85cb1d", "is_reserved": 0, "rental_uris": {"android": "https://dc.lft.to/lastmile_qr_scan", "ios": "https://dc.lft.to/lastmile_qr_scan"}, "fusion_lon": 0.0}, {"lat": 38.92605866666667, "is_disabled": 0, "type": "electric_scooter", "lon": -77.05692533333334, "bike_id": "3b39ae33b835b2cfa54c432dc4b5922f", "fusion_lat": 0.0, "name": "3b39ae33b835b2cfa54c432dc4b5922f", "is_reserved": 0, "rental_uris": {"android": "https://dc.lft.to/lastmile_qr_scan", "ios": "https://dc.lft.to/lastmile_qr_scan"}, "fusion_lon": 0.0}, {"lat": 38.93754466666667, "is_disabled": 0, "type": "electric_scooter", "lon": -77.03471, "bike_id": "d84c2d815eb803be96a2b4212093cfe1", "fusion_lat": 0.0, "name": "d84c2d815eb803be96a2b4212093cfe1", "is_reserved": 0, "rental_uris": {"android": "https://dc.lft.to/lastmile_qr_scan", "ios": "https://dc.lft.to/lastmile_qr_scan"}, "fusion_lon": 0.0}, {"lat": 38.884268, "is_disabled": 0, "type": "electric_bike", "lon": -77.0008025, "bike_id": "640505afb96707a68aba4737cc0f694c", "fusion_lat": 0.0, "name": "640505afb96707a68aba4737cc0f694c", "is_reserved": 0, "rental_uris": {"android": "https://dc.lft.to/lastmile_qr_scan", "ios": "https://dc.lft.to/lastmile_qr_scan"}, "fusion_lon": 0.0}, {"lat": 38.905581166666664, "is_disabled": 0, "type": "electric_scooter", "lon": -77.01770516666667, "bike_id": "6061fb18c8fdff45a84d3dea441606dd", "fusion_lat": 0.0, "name": "6061fb18c8fdff45a84d3dea441606dd", "is_reserved": 0, "rental_uris": {"android": "https://dc.lft.to/lastmile_qr_scan", "ios": "https://dc.lft.to/lastmile_qr_scan"}, "fusion_lon": 0.0}, {"lat": 38.86171216666666, "is_disabled": 0, "type": "electric_bike", "lon": -77.13142433333333, "bike_id": "bfa6c784f7cdb3a0257fd6987e267cfc", "fusion_lat": 0.0, "name": "bfa6c784f7cdb3a0257fd6987e267cfc", "is_reserved": 0, "rental_uris": {"android": "https://dc.lft.to/lastmile_qr_scan", "ios": "https://dc.lft.to/lastmile_qr_scan"}, "fusion_lon": 0.0}, {"lat": 38.9174245, "is_disabled": 0, "type": "electric_scooter", "lon": -77.03176566666667, "bike_id": "468013420a302db8af671d837573ad4d", "fusion_lat": 0.0, "name": "468013420a302db8af671d837573ad4d", "is_reserved": 0, "rental_uris": {"android": "https://dc.lft.to/lastmile_qr_scan", "ios": "https://dc.lft.to/lastmile_qr_scan"}, "fusion_lon": 0.0}, {"lat": 38.9179395, "is_disabled": 0, "type": "electric_bike", "lon": -76.9718865, "bike_id": "c301c3b4f54629ee1c7001e72b12f7a5", "fusion_lat": 0.0, "name": "c301c3b4f54629ee1c7001e72b12f7a5", "is_reserved": 0, "rental_uris": {"android": "https://dc.lft.to/lastmile_qr_scan", "ios": "https://dc.lft.to/lastmile_qr_scan"}, "fusion_lon": 0.0}, {"lat": 38.91703233333333, "is_disabled": 0, "type": "electric_scooter", "lon": -77.0321525, "bike_id": "3635823ca060ff33b7909c47ce852fba", "fusion_lat": 0.0, "name": "3635823ca060ff33b7909c47ce852fba", "is_reserved": 0, "rental_uris": {"android": "https://dc.lft.to/lastmile_qr_scan", "ios": "https://dc.lft.to/lastmile_qr_scan"}, "fusion_lon": 0.0}, {"lat": 38.899989166666664, "is_disabled": 0, "type": "electric_scooter", "lon": -76.99743066666667, "bike_id": "cdfd2043f228268906848fcc85f83872", "fusion_lat": 0.0, "name": "cdfd2043f228268906848fcc85f83872", "is_reserved": 0, "rental_uris": {"android": "https://dc.lft.to/lastmile_qr_scan", "ios": "https://dc.lft.to/lastmile_qr_scan"}, "fusion_lon": 0.0}, {"lat": 38.86700733333333, "is_disabled": 0, "type": "electric_scooter", "lon": -76.987098, "bike_id": "85dbfbc0237506f96a7faab01c93ca71", "fusion_lat": 0.0, "name": "85dbfbc0237506f96a7faab01c93ca71", "is_reserved": 0, "rental_uris": {"android": "https://dc.lft.to/lastmile_qr_scan", "ios": "https://dc.lft.to/lastmile_qr_scan"}, "fusion_lon": 0.0}, {"lat": 38.85568216666667, "is_disabled": 0, "type": "electric_bike", "lon": -77.11133433333333, "bike_id": "bfdba903aaa7fe633fb5adf70c26a1f1", "fusion_lat": 0.0, "name": "bfdba903aaa7fe633fb5adf70c26a1f1", "is_reserved": 0, "rental_uris": {"android": "https://dc.lft.to/lastmile_qr_scan", "ios": "https://dc.lft.to/lastmile_qr_scan"}, "fusion_lon": 0.0}, {"lat": 38.905263833333336, "is_disabled": 0, "type": "electric_scooter", "lon": -77.06240066666666, "bike_id": "fd1f5d3f8f56b6e2e2cc7a584c8eb021", "fusion_lat": 0.0, "name": "fd1f5d3f8f56b6e2e2cc7a584c8eb021", "is_reserved": 0, "rental_uris": {"android": "https://dc.lft.to/lastmile_qr_scan", "ios": "https://dc.lft.to/lastmile_qr_scan"}, "fusion_lon": 0.0}, {"lat": 38.933225666666665, "is_disabled": 0, "type": "electric_scooter", "lon": -77.04367416666666, "bike_id": "6bf53abcfb30c11e713498852401ba68", "fusion_lat": 0.0, "name": "6bf53abcfb30c11e713498852401ba68", "is_reserved": 0, "rental_uris": {"android": "https://dc.lft.to/lastmile_qr_scan", "ios": "https://dc.lft.to/lastmile_qr_scan"}, "fusion_lon": 0.0}, {"lat": 38.9195255, "is_disabled": 0, "type": "electric_scooter", "lon": -76.98073, "bike_id": "327d1bc72519d7c3120cf1195318bb1b", "fusion_lat": 0.0, "name": "327d1bc72519d7c3120cf1195318bb1b", "is_reserved": 0, "rental_uris": {"android": "https://dc.lft.to/lastmile_qr_scan", "ios": "https://dc.lft.to/lastmile_qr_scan"}, "fusion_lon": 0.0}, {"lat": 38.89732566666667, "is_disabled": 0, "type": "electric_scooter", "lon": -77.00771983333334, "bike_id": "182b2113726c636ef4b2f03ebca2aae2", "fusion_lat": 0.0, "name": "182b2113726c636ef4b2f03ebca2aae2", "is_reserved": 0, "rental_uris": {"android": "https://dc.lft.to/lastmile_qr_scan", "ios": "https://dc.lft.to/lastmile_qr_scan"}, "fusion_lon": 0.0}, {"lat": 38.9314145, "is_disabled": 0, "type": "electric_scooter", "lon": -77.02134216666667, "bike_id": "7b1f7d97b8be906dffd575428b2c7dc1", "fusion_lat": 0.0, "name": "7b1f7d97b8be906dffd575428b2c7dc1", "is_reserved": 0, "rental_uris": {"android": "https://dc.lft.to/lastmile_qr_scan", "ios": "https://dc.lft.to/lastmile_qr_scan"}, "fusion_lon": 0.0}, {"lat": 38.905600666666665, "is_disabled": 0, "type": "electric_scooter", "lon": -77.01307616666666, "bike_id": "13384a7ea7c41d4b0c5a883e68764bdd", "fusion_lat": 0.0, "name": "13384a7ea7c41d4b0c5a883e68764bdd", "is_reserved": 0, "rental_uris": {"android": "https://dc.lft.to/lastmile_qr_scan", "ios": "https://dc.lft.to/lastmile_qr_scan"}, "fusion_lon": 0.0}, {"lat": 38.90183566666666, "is_disabled": 0, "type": "electric_scooter", "lon": -77.02400016666667, "bike_id": "68ef48a72d778989dc7516f00a3275ab", "fusion_lat": 0.0, "name": "68ef48a72d778989dc7516f00a3275ab", "is_reserved": 0, "rental_uris": {"android": "https://dc.lft.to/lastmile_qr_scan", "ios": "https://dc.lft.to/lastmile_qr_scan"}, "fusion_lon": 0.0}, {"lat": 38.9174085, "is_disabled": 0, "type": "electric_scooter", "lon": -77.031927, "bike_id": "aa182e5d78613558223f92505490b3ac", "fusion_lat": 0.0, "name": "aa182e5d78613558223f92505490b3ac", "is_reserved": 0, "rental_uris": {"android": "https://dc.lft.to/lastmile_qr_scan", "ios": "https://dc.lft.to/lastmile_qr_scan"}, "fusion_lon": 0.0}, {"lat": 38.909433166666666, "is_disabled": 0, "type": "electric_scooter", "lon": -77.04420483333334, "bike_id": "919c3e6ba01e5324f6fc6b94e1a73ca2", "fusion_lat": 0.0, "name": "919c3e6ba01e5324f6fc6b94e1a73ca2", "is_reserved": 0, "rental_uris": {"android": "https://dc.lft.to/lastmile_qr_scan", "ios": "https://dc.lft.to/lastmile_qr_scan"}, "fusion_lon": 0.0}, {"lat": 38.90269966666666, "is_disabled": 0, "type": "electric_scooter", "lon": -77.05263183333334, "bike_id": "bf27dc85821e5deb9d1ef0c853ce8c4f", "fusion_lat": 0.0, "name": "bf27dc85821e5deb9d1ef0c853ce8c4f", "is_reserved": 0, "rental_uris": {"android": "https://dc.lft.to/lastmile_qr_scan", "ios": "https://dc.lft.to/lastmile_qr_scan"}, "fusion_lon": 0.0}, {"lat": 38.884798, "is_disabled": 0, "type": "electric_scooter", "lon": -76.94527566666666, "bike_id": "33e74b1c56a55f69c3d2dc6029fb3d8b", "fusion_lat": 0.0, "name": "33e74b1c56a55f69c3d2dc6029fb3d8b", "is_reserved": 0, "rental_uris": {"android": "https://dc.lft.to/lastmile_qr_scan", "ios": "https://dc.lft.to/lastmile_qr_scan"}, "fusion_lon": 0.0}, {"lat": 38.93072183333334, "is_disabled": 0, "type": "electric_scooter", "lon": -77.07761116666667, "bike_id": "3102c7efd26693d4f6acc2d63cae6d6a", "fusion_lat": 0.0, "name": "3102c7efd26693d4f6acc2d63cae6d6a", "is_reserved": 0, "rental_uris": {"android": "https://dc.lft.to/lastmile_qr_scan", "ios": "https://dc.lft.to/lastmile_qr_scan"}, "fusion_lon": 0.0}, {"lat": 38.90848716666667, "is_disabled": 0, "type": "electric_bike", "lon": -77.0402035, "bike_id": "fada8b7539ea56e92d26458478dc31a8", "fusion_lat": 0.0, "name": "fada8b7539ea56e92d26458478dc31a8", "is_reserved": 0, "rental_uris": {"android": "https://dc.lft.to/lastmile_qr_scan", "ios": "https://dc.lft.to/lastmile_qr_scan"}, "fusion_lon": 0.0}, {"lat": 38.900301, "is_disabled": 0, "type": "electric_scooter", "lon": -76.98364933333333, "bike_id": "20eb55a61850c3dfe1f9cddb4cab0504", "fusion_lat": 0.0, "name": "20eb55a61850c3dfe1f9cddb4cab0504", "is_reserved": 0, "rental_uris": {"android": "https://dc.lft.to/lastmile_qr_scan", "ios": "https://dc.lft.to/lastmile_qr_scan"}, "fusion_lon": 0.0}, {"lat": 38.9174225, "is_disabled": 0, "type": "electric_scooter", "lon": -77.03185283333333, "bike_id": "8df5ac464bc4ece5ded1dd2c6ce31eb6", "fusion_lat": 0.0, "name": "8df5ac464bc4ece5ded1dd2c6ce31eb6", "is_reserved": 0, "rental_uris": {"android": "https://dc.lft.to/lastmile_qr_scan", "ios": "https://dc.lft.to/lastmile_qr_scan"}, "fusion_lon": 0.0}, {"lat": 38.91778216666667, "is_disabled": 0, "type": "electric_scooter", "lon": -77.02228383333333, "bike_id": "20a135376bf1fe0d12f04ed368d4e1c7", "fusion_lat": 0.0, "name": "20a135376bf1fe0d12f04ed368d4e1c7", "is_reserved": 0, "rental_uris": {"android": "https://dc.lft.to/lastmile_qr_scan", "ios": "https://dc.lft.to/lastmile_qr_scan"}, "fusion_lon": 0.0}, {"lat": 38.918174, "is_disabled": 0, "type": "electric_scooter", "lon": -77.03173983333333, "bike_id": "0e4717ff94c07ba911dc483106fbcc08", "fusion_lat": 0.0, "name": "0e4717ff94c07ba911dc483106fbcc08", "is_reserved": 0, "rental_uris": {"android": "https://dc.lft.to/lastmile_qr_scan", "ios": "https://dc.lft.to/lastmile_qr_scan"}, "fusion_lon": 0.0}, {"lat": 38.91242733333333, "is_disabled": 0, "type": "electric_scooter", "lon": -77.04664283333334, "bike_id": "f8b243ab43b4da475a71a2ea74a2773e", "fusion_lat": 0.0, "name": "f8b243ab43b4da475a71a2ea74a2773e", "is_reserved": 0, "rental_uris": {"android": "https://dc.lft.to/lastmile_qr_scan", "ios": "https://dc.lft.to/lastmile_qr_scan"}, "fusion_lon": 0.0}, {"lat": 38.901031833333334, "is_disabled": 0, "type": "electric_scooter", "lon": -77.0589955, "bike_id": "d8e5117e026fb4c76367903f7af1c0c1", "fusion_lat": 0.0, "name": "d8e5117e026fb4c76367903f7af1c0c1", "is_reserved": 0, "rental_uris": {"android": "https://dc.lft.to/lastmile_qr_scan", "ios": "https://dc.lft.to/lastmile_qr_scan"}, "fusion_lon": 0.0}, {"lat": 38.932936, "is_disabled": 0, "type": "electric_scooter", "lon": -77.0219285, "bike_id": "8a1b9807222ad511a775c7941176620c", "fusion_lat": 0.0, "name": "8a1b9807222ad511a775c7941176620c", "is_reserved": 0, "rental_uris": {"android": "https://dc.lft.to/lastmile_qr_scan", "ios": "https://dc.lft.to/lastmile_qr_scan"}, "fusion_lon": 0.0}, {"lat": 38.903466, "is_disabled": 0, "type": "electric_scooter", "lon": -77.0447965, "bike_id": "27e582357c4cd9159b3378a710251acd", "fusion_lat": 0.0, "name": "27e582357c4cd9159b3378a710251acd", "is_reserved": 0, "rental_uris": {"android": "https://dc.lft.to/lastmile_qr_scan", "ios": "https://dc.lft.to/lastmile_qr_scan"}, "fusion_lon": 0.0}, {"lat": 38.923007166666665, "is_disabled": 0, "type": "electric_scooter", "lon": -77.02329833333333, "bike_id": "14fad6c1be04589b740d6ab3f418382d", "fusion_lat": 0.0, "name": "14fad6c1be04589b740d6ab3f418382d", "is_reserved": 0, "rental_uris": {"android": "https://dc.lft.to/lastmile_qr_scan", "ios": "https://dc.lft.to/lastmile_qr_scan"}, "fusion_lon": 0.0}, {"lat": 38.89889683333333, "is_disabled": 0, "type": "electric_scooter", "lon": -77.0723265, "bike_id": "7bc3525c12b4f2ed59deca99b031b93e", "fusion_lat": 0.0, "name": "7bc3525c12b4f2ed59deca99b031b93e", "is_reserved": 0, "rental_uris": {"android": "https://dc.lft.to/lastmile_qr_scan", "ios": "https://dc.lft.to/lastmile_qr_scan"}, "fusion_lon": 0.0}, {"lat": 38.9397765, "is_disabled": 0, "type": "electric_scooter", "lon": -77.02629866666666, "bike_id": "8b1abc870eaa1cb7972a2d77356c49af", "fusion_lat": 0.0, "name": "8b1abc870eaa1cb7972a2d77356c49af", "is_reserved": 0, "rental_uris": {"android": "https://dc.lft.to/lastmile_qr_scan", "ios": "https://dc.lft.to/lastmile_qr_scan"}, "fusion_lon": 0.0}, {"lat": 38.9025395, "is_disabled": 0, "type": "electric_scooter", "lon": -77.02823783333334, "bike_id": "bd16ca3c3134e4608f9e574a45e99542", "fusion_lat": 0.0, "name": "bd16ca3c3134e4608f9e574a45e99542", "is_reserved": 0, "rental_uris": {"android": "https://dc.lft.to/lastmile_qr_scan", "ios": "https://dc.lft.to/lastmile_qr_scan"}, "fusion_lon": 0.0}, {"lat": 38.90215166666667, "is_disabled": 0, "type": "electric_scooter", "lon": -76.945897, "bike_id": "42100d55ff8ede573ecbe44dc821c715", "fusion_lat": 0.0, "name": "42100d55ff8ede573ecbe44dc821c715", "is_reserved": 0, "rental_uris": {"android": "https://dc.lft.to/lastmile_qr_scan", "ios": "https://dc.lft.to/lastmile_qr_scan"}, "fusion_lon": 0.0}, {"lat": 38.92857466666667, "is_disabled": 0, "type": "electric_scooter", "lon": -77.0543725, "bike_id": "9a2bf2555c193ddb03070efcdbc4e5b0", "fusion_lat": 0.0, "name": "9a2bf2555c193ddb03070efcdbc4e5b0", "is_reserved": 0, "rental_uris": {"android": "https://dc.lft.to/lastmile_qr_scan", "ios": "https://dc.lft.to/lastmile_qr_scan"}, "fusion_lon": 0.0}, {"lat": 38.919628, "is_disabled": 0, "type": "electric_bike", "lon": -76.97260616666667, "bike_id": "fa57a9fc000198126b055b968152a0b1", "fusion_lat": 0.0, "name": "fa57a9fc000198126b055b968152a0b1", "is_reserved": 0, "rental_uris": {"android": "https://dc.lft.to/lastmile_qr_scan", "ios": "https://dc.lft.to/lastmile_qr_scan"}, "fusion_lon": 0.0}, {"lat": 38.92850766666667, "is_disabled": 0, "type": "electric_scooter", "lon": -77.037293, "bike_id": "2208ea197420ec2d565a8fb0440f4c5a", "fusion_lat": 0.0, "name": "2208ea197420ec2d565a8fb0440f4c5a", "is_reserved": 0, "rental_uris": {"android": "https://dc.lft.to/lastmile_qr_scan", "ios": "https://dc.lft.to/lastmile_qr_scan"}, "fusion_lon": 0.0}, {"lat": 38.930116, "is_disabled": 0, "type": "electric_bike", "lon": -77.21644633333334, "bike_id": "4587273b17f33356a2802ce6cf3b6819", "fusion_lat": 0.0, "name": "4587273b17f33356a2802ce6cf3b6819", "is_reserved": 0, "rental_uris": {"android": "https://dc.lft.to/lastmile_qr_scan", "ios": "https://dc.lft.to/lastmile_qr_scan"}, "fusion_lon": 0.0}, {"lat": 38.9471705, "is_disabled": 0, "type": "electric_scooter", "lon": -77.02263416666666, "bike_id": "a33305e0ee106950f8c919159bfdb4f1", "fusion_lat": 0.0, "name": "a33305e0ee106950f8c919159bfdb4f1", "is_reserved": 0, "rental_uris": {"android": "https://dc.lft.to/lastmile_qr_scan", "ios": "https://dc.lft.to/lastmile_qr_scan"}, "fusion_lon": 0.0}, {"lat": 38.9014385, "is_disabled": 0, "type": "electric_bike", "lon": -76.98649783333333, "bike_id": "57734b3dc89e3ebd8a21d8253d15c0de", "fusion_lat": 0.0, "name": "57734b3dc89e3ebd8a21d8253d15c0de", "is_reserved": 0, "rental_uris": {"android": "https://dc.lft.to/lastmile_qr_scan", "ios": "https://dc.lft.to/lastmile_qr_scan"}, "fusion_lon": 0.0}, {"lat": 38.91423283333334, "is_disabled": 0, "type": "electric_scooter", "lon": -77.005024, "bike_id": "b2450033741285a2a4de9ad03a1d02ff", "fusion_lat": 0.0, "name": "b2450033741285a2a4de9ad03a1d02ff", "is_reserved": 0, "rental_uris": {"android": "https://dc.lft.to/lastmile_qr_scan", "ios": "https://dc.lft.to/lastmile_qr_scan"}, "fusion_lon": 0.0}, {"lat": 38.89354633333333, "is_disabled": 0, "type": "electric_scooter", "lon": -77.04140533333333, "bike_id": "fe4e77aa709f029150ee7907d0c19cc6", "fusion_lat": 0.0, "name": "fe4e77aa709f029150ee7907d0c19cc6", "is_reserved": 0, "rental_uris": {"android": "https://dc.lft.to/lastmile_qr_scan", "ios": "https://dc.lft.to/lastmile_qr_scan"}, "fusion_lon": 0.0}, {"lat": 38.905313666666665, "is_disabled": 0, "type": "electric_scooter", "lon": -77.0631455, "bike_id": "d44c254bbfc2052fe0c019bf481107a5", "fusion_lat": 0.0, "name": "d44c254bbfc2052fe0c019bf481107a5", "is_reserved": 0, "rental_uris": {"android": "https://dc.lft.to/lastmile_qr_scan", "ios": "https://dc.lft.to/lastmile_qr_scan"}, "fusion_lon": 0.0}, {"lat": 38.862551333333336, "is_disabled": 0, "type": "electric_scooter", "lon": -76.99515816666667, "bike_id": "70c4848fa85723adb6f820e01703de9c", "fusion_lat": 0.0, "name": "70c4848fa85723adb6f820e01703de9c", "is_reserved": 0, "rental_uris": {"android": "https://dc.lft.to/lastmile_qr_scan", "ios": "https://dc.lft.to/lastmile_qr_scan"}, "fusion_lon": 0.0}, {"lat": 38.93739866666667, "is_disabled": 0, "type": "electric_scooter", "lon": -77.03621383333333, "bike_id": "3195220938c2b39ec859ac8087453ed0", "fusion_lat": 0.0, "name": "3195220938c2b39ec859ac8087453ed0", "is_reserved": 0, "rental_uris": {"android": "https://dc.lft.to/lastmile_qr_scan", "ios": "https://dc.lft.to/lastmile_qr_scan"}, "fusion_lon": 0.0}, {"lat": 38.945532, "is_disabled": 0, "type": "electric_bike", "lon": -76.895325, "bike_id": "a914086e9a2ce4090b78474c7e0afee4", "fusion_lat": 0.0, "name": "a914086e9a2ce4090b78474c7e0afee4", "is_reserved": 0, "rental_uris": {"android": "https://dc.lft.to/lastmile_qr_scan", "ios": "https://dc.lft.to/lastmile_qr_scan"}, "fusion_lon": 0.0}, {"lat": 38.851879333333336, "is_disabled": 0, "type": "electric_scooter", "lon": -76.97620633333334, "bike_id": "7daf5179e64ae8ff7681795134df5ef0", "fusion_lat": 0.0, "name": "7daf5179e64ae8ff7681795134df5ef0", "is_reserved": 0, "rental_uris": {"android": "https://dc.lft.to/lastmile_qr_scan", "ios": "https://dc.lft.to/lastmile_qr_scan"}, "fusion_lon": 0.0}, {"lat": 38.844305166666665, "is_disabled": 0, "type": "electric_scooter", "lon": -76.9965595, "bike_id": "54ed09e6f0dab784ac907b8eb9d15612", "fusion_lat": 0.0, "name": "54ed09e6f0dab784ac907b8eb9d15612", "is_reserved": 0, "rental_uris": {"android": "https://dc.lft.to/lastmile_qr_scan", "ios": "https://dc.lft.to/lastmile_qr_scan"}, "fusion_lon": 0.0}, {"lat": 38.917246166666665, "is_disabled": 0, "type": "electric_scooter", "lon": -77.02288916666667, "bike_id": "a96a2c7ffc3a04a212afc380bd1e9fa4", "fusion_lat": 0.0, "name": "a96a2c7ffc3a04a212afc380bd1e9fa4", "is_reserved": 0, "rental_uris": {"android": "https://dc.lft.to/lastmile_qr_scan", "ios": "https://dc.lft.to/lastmile_qr_scan"}, "fusion_lon": 0.0}, {"lat": 39.034269, "is_disabled": 0, "type": "electric_bike", "lon": -77.04317933333333, "bike_id": "b993b672820579a4e1026c5688659fac", "fusion_lat": 0.0, "name": "b993b672820579a4e1026c5688659fac", "is_reserved": 0, "rental_uris": {"android": "https://dc.lft.to/lastmile_qr_scan", "ios": "https://dc.lft.to/lastmile_qr_scan"}, "fusion_lon": 0.0}, {"lat": 38.936553833333335, "is_disabled": 0, "type": "electric_bike", "lon": -76.95219416666667, "bike_id": "ea73b28c7879875af692fece1ea9e707", "fusion_lat": 0.0, "name": "ea73b28c7879875af692fece1ea9e707", "is_reserved": 0, "rental_uris": {"android": "https://dc.lft.to/lastmile_qr_scan", "ios": "https://dc.lft.to/lastmile_qr_scan"}, "fusion_lon": 0.0}, {"lat": 38.90532433333333, "is_disabled": 0, "type": "electric_scooter", "lon": -77.057124, "bike_id": "db7180f8803c1deaa6abeca750a5bbe6", "fusion_lat": 0.0, "name": "db7180f8803c1deaa6abeca750a5bbe6", "is_reserved": 0, "rental_uris": {"android": "https://dc.lft.to/lastmile_qr_scan", "ios": "https://dc.lft.to/lastmile_qr_scan"}, "fusion_lon": 0.0}, {"lat": 38.89073033333333, "is_disabled": 0, "type": "electric_scooter", "lon": -76.98834583333333, "bike_id": "cefd3ae08b2e6ac534e071bafb9c5b34", "fusion_lat": 0.0, "name": "cefd3ae08b2e6ac534e071bafb9c5b34", "is_reserved": 0, "rental_uris": {"android": "https://dc.lft.to/lastmile_qr_scan", "ios": "https://dc.lft.to/lastmile_qr_scan"}, "fusion_lon": 0.0}, {"lat": 38.901170666666665, "is_disabled": 0, "type": "electric_scooter", "lon": -77.04355716666667, "bike_id": "dfe7cdb0e9477ebd0dd754d5c9d7d740", "fusion_lat": 0.0, "name": "dfe7cdb0e9477ebd0dd754d5c9d7d740", "is_reserved": 0, "rental_uris": {"android": "https://dc.lft.to/lastmile_qr_scan", "ios": "https://dc.lft.to/lastmile_qr_scan"}, "fusion_lon": 0.0}, {"lat": 38.9005755, "is_disabled": 0, "type": "electric_scooter", "lon": -77.04890866666666, "bike_id": "4a2cc67be6bf6dc384199072742c45dd", "fusion_lat": 0.0, "name": "4a2cc67be6bf6dc384199072742c45dd", "is_reserved": 0, "rental_uris": {"android": "https://dc.lft.to/lastmile_qr_scan", "ios": "https://dc.lft.to/lastmile_qr_scan"}, "fusion_lon": 0.0}, {"lat": 38.925900666666664, "is_disabled": 0, "type": "electric_scooter", "lon": -77.0440495, "bike_id": "b17aea822d119e0c47fc36e56551ce42", "fusion_lat": 0.0, "name": "b17aea822d119e0c47fc36e56551ce42", "is_reserved": 0, "rental_uris": {"android": "https://dc.lft.to/lastmile_qr_scan", "ios": "https://dc.lft.to/lastmile_qr_scan"}, "fusion_lon": 0.0}, {"lat": 38.90603266666667, "is_disabled": 0, "type": "electric_scooter", "lon": -77.06343866666667, "bike_id": "e0db3ff0162d1d34639792e0db03a067", "fusion_lat": 0.0, "name": "e0db3ff0162d1d34639792e0db03a067", "is_reserved": 0, "rental_uris": {"android": "https://dc.lft.to/lastmile_qr_scan", "ios": "https://dc.lft.to/lastmile_qr_scan"}, "fusion_lon": 0.0}, {"lat": 38.90979083333333, "is_disabled": 0, "type": "electric_scooter", "lon": -77.03208283333333, "bike_id": "2b4a0bb08311cebc4959d6dd86768555", "fusion_lat": 0.0, "name": "2b4a0bb08311cebc4959d6dd86768555", "is_reserved": 0, "rental_uris": {"android": "https://dc.lft.to/lastmile_qr_scan", "ios": "https://dc.lft.to/lastmile_qr_scan"}, "fusion_lon": 0.0}, {"lat": 38.9925655, "is_disabled": 0, "type": "electric_scooter", "lon": -77.0365855, "bike_id": "d0a62376ea0e0735350e5dbe0dd964f8", "fusion_lat": 0.0, "name": "d0a62376ea0e0735350e5dbe0dd964f8", "is_reserved": 0, "rental_uris": {"android": "https://dc.lft.to/lastmile_qr_scan", "ios": "https://dc.lft.to/lastmile_qr_scan"}, "fusion_lon": 0.0}, {"lat": 38.9306815, "is_disabled": 0, "type": "electric_scooter", "lon": -77.03191033333333, "bike_id": "f02fcbd0152ca6af6b49d75fddc91bd7", "fusion_lat": 0.0, "name": "f02fcbd0152ca6af6b49d75fddc91bd7", "is_reserved": 0, "rental_uris": {"android": "https://dc.lft.to/lastmile_qr_scan", "ios": "https://dc.lft.to/lastmile_qr_scan"}, "fusion_lon": 0.0}, {"lat": 38.91116383333333, "is_disabled": 0, "type": "electric_scooter", "lon": -77.03827633333333, "bike_id": "5a9e1b64da9bb4d1aea8d14cd78a6af7", "fusion_lat": 0.0, "name": "5a9e1b64da9bb4d1aea8d14cd78a6af7", "is_reserved": 0, "rental_uris": {"android": "https://dc.lft.to/lastmile_qr_scan", "ios": "https://dc.lft.to/lastmile_qr_scan"}, "fusion_lon": 0.0}, {"lat": 38.90198483333333, "is_disabled": 0, "type": "electric_scooter", "lon": -77.0267455, "bike_id": "56ac088738e077bf0e0293232172cf39", "fusion_lat": 0.0, "name": "56ac088738e077bf0e0293232172cf39", "is_reserved": 0, "rental_uris": {"android": "https://dc.lft.to/lastmile_qr_scan", "ios": "https://dc.lft.to/lastmile_qr_scan"}, "fusion_lon": 0.0}, {"lat": 38.8519155, "is_disabled": 0, "type": "electric_bike", "lon": -76.96107533333333, "bike_id": "d3379d9c63cadf1b3a6ed473cbc7ff38", "fusion_lat": 0.0, "name": "d3379d9c63cadf1b3a6ed473cbc7ff38", "is_reserved": 0, "rental_uris": {"android": "https://dc.lft.to/lastmile_qr_scan", "ios": "https://dc.lft.to/lastmile_qr_scan"}, "fusion_lon": 0.0}, {"lat": 38.900666666666666, "is_disabled": 0, "type": "electric_scooter", "lon": -77.00193583333333, "bike_id": "914c26e88e9256a965b5ff3cf8e40420", "fusion_lat": 0.0, "name": "914c26e88e9256a965b5ff3cf8e40420", "is_reserved": 0, "rental_uris": {"android": "https://dc.lft.to/lastmile_qr_scan", "ios": "https://dc.lft.to/lastmile_qr_scan"}, "fusion_lon": 0.0}, {"lat": 38.9225095, "is_disabled": 0, "type": "electric_scooter", "lon": -77.033846, "bike_id": "c3af85a83d3465f4dffdb476bfcd3f35", "fusion_lat": 0.0, "name": "c3af85a83d3465f4dffdb476bfcd3f35", "is_reserved": 0, "rental_uris": {"android": "https://dc.lft.to/lastmile_qr_scan", "ios": "https://dc.lft.to/lastmile_qr_scan"}, "fusion_lon": 0.0}, {"lat": 38.94434866666667, "is_disabled": 0, "type": "electric_scooter", "lon": -77.01505716666667, "bike_id": "e884a6348a2a0496861b698059660daf", "fusion_lat": 0.0, "name": "e884a6348a2a0496861b698059660daf", "is_reserved": 0, "rental_uris": {"android": "https://dc.lft.to/lastmile_qr_scan", "ios": "https://dc.lft.to/lastmile_qr_scan"}, "fusion_lon": 0.0}, {"lat": 38.94392633333333, "is_disabled": 0, "type": "electric_scooter", "lon": -77.01981216666667, "bike_id": "bd1e9eb0f71600f0ecc9fff33d9a4f2b", "fusion_lat": 0.0, "name": "bd1e9eb0f71600f0ecc9fff33d9a4f2b", "is_reserved": 0, "rental_uris": {"android": "https://dc.lft.to/lastmile_qr_scan", "ios": "https://dc.lft.to/lastmile_qr_scan"}, "fusion_lon": 0.0}, {"lat": 38.8550425, "is_disabled": 0, "type": "electric_bike", "lon": -77.12031133333333, "bike_id": "14f0e67e1f710d955569fd38e67e9edf", "fusion_lat": 0.0, "name": "14f0e67e1f710d955569fd38e67e9edf", "is_reserved": 0, "rental_uris": {"android": "https://dc.lft.to/lastmile_qr_scan", "ios": "https://dc.lft.to/lastmile_qr_scan"}, "fusion_lon": 0.0}, {"lat": 38.917153666666664, "is_disabled": 0, "type": "electric_scooter", "lon": -77.04153983333333, "bike_id": "9dee117bc78496d442e2024cb4b25d99", "fusion_lat": 0.0, "name": "9dee117bc78496d442e2024cb4b25d99", "is_reserved": 0, "rental_uris": {"android": "https://dc.lft.to/lastmile_qr_scan", "ios": "https://dc.lft.to/lastmile_qr_scan"}, "fusion_lon": 0.0}, {"lat": 38.913145166666666, "is_disabled": 0, "type": "electric_scooter", "lon": -77.04479633333334, "bike_id": "654fb8c1e7c6c664d3922abc31b95bea", "fusion_lat": 0.0, "name": "654fb8c1e7c6c664d3922abc31b95bea", "is_reserved": 0, "rental_uris": {"android": "https://dc.lft.to/lastmile_qr_scan", "ios": "https://dc.lft.to/lastmile_qr_scan"}, "fusion_lon": 0.0}, {"lat": 38.9273205, "is_disabled": 0, "type": "electric_scooter", "lon": -77.02245933333333, "bike_id": "8ae0f434d924117d66959b313edc13de", "fusion_lat": 0.0, "name": "8ae0f434d924117d66959b313edc13de", "is_reserved": 0, "rental_uris": {"android": "https://dc.lft.to/lastmile_qr_scan", "ios": "https://dc.lft.to/lastmile_qr_scan"}, "fusion_lon": 0.0}, {"lat": 38.885954, "is_disabled": 0, "type": "electric_scooter", "lon": -77.02197933333333, "bike_id": "a241b1d232d94a30a41956977fb6da78", "fusion_lat": 0.0, "name": "a241b1d232d94a30a41956977fb6da78", "is_reserved": 0, "rental_uris": {"android": "https://dc.lft.to/lastmile_qr_scan", "ios": "https://dc.lft.to/lastmile_qr_scan"}, "fusion_lon": 0.0}, {"lat": 38.904182666666664, "is_disabled": 0, "type": "electric_scooter", "lon": -77.0531375, "bike_id": "dd2cdb8aecfe783994dc358e8ca3dc60", "fusion_lat": 0.0, "name": "dd2cdb8aecfe783994dc358e8ca3dc60", "is_reserved": 0, "rental_uris": {"android": "https://dc.lft.to/lastmile_qr_scan", "ios": "https://dc.lft.to/lastmile_qr_scan"}, "fusion_lon": 0.0}, {"lat": 38.91484, "is_disabled": 0, "type": "electric_scooter", "lon": -77.02584933333333, "bike_id": "1f0e54356b29331cf8ac5c76602905ca", "fusion_lat": 0.0, "name": "1f0e54356b29331cf8ac5c76602905ca", "is_reserved": 0, "rental_uris": {"android": "https://dc.lft.to/lastmile_qr_scan", "ios": "https://dc.lft.to/lastmile_qr_scan"}, "fusion_lon": 0.0}, {"lat": 38.92674433333333, "is_disabled": 0, "type": "electric_scooter", "lon": -77.0150655, "bike_id": "1547f7b8aac38f13dd90dafea1b9589d", "fusion_lat": 0.0, "name": "1547f7b8aac38f13dd90dafea1b9589d", "is_reserved": 0, "rental_uris": {"android": "https://dc.lft.to/lastmile_qr_scan", "ios": "https://dc.lft.to/lastmile_qr_scan"}, "fusion_lon": 0.0}, {"lat": 38.91414533333333, "is_disabled": 0, "type": "electric_scooter", "lon": -77.029417, "bike_id": "d83c288a1386eaad1d30d0ead925b65a", "fusion_lat": 0.0, "name": "d83c288a1386eaad1d30d0ead925b65a", "is_reserved": 0, "rental_uris": {"android": "https://dc.lft.to/lastmile_qr_scan", "ios": "https://dc.lft.to/lastmile_qr_scan"}, "fusion_lon": 0.0}, {"lat": 38.90266533333333, "is_disabled": 0, "type": "electric_scooter", "lon": -77.0362715, "bike_id": "3d959b33abe98103e0bd283ab4bcb302", "fusion_lat": 0.0, "name": "3d959b33abe98103e0bd283ab4bcb302", "is_reserved": 0, "rental_uris": {"android": "https://dc.lft.to/lastmile_qr_scan", "ios": "https://dc.lft.to/lastmile_qr_scan"}, "fusion_lon": 0.0}, {"lat": 38.923198, "is_disabled": 0, "type": "electric_scooter", "lon": -77.03640233333333, "bike_id": "dd0832ab7c88efca638bde99e3d33a12", "fusion_lat": 0.0, "name": "dd0832ab7c88efca638bde99e3d33a12", "is_reserved": 0, "rental_uris": {"android": "https://dc.lft.to/lastmile_qr_scan", "ios": "https://dc.lft.to/lastmile_qr_scan"}, "fusion_lon": 0.0}, {"lat": 38.902709, "is_disabled": 0, "type": "electric_scooter", "lon": -77.043982, "bike_id": "5b71697664be36950f0db79c6216141f", "fusion_lat": 0.0, "name": "5b71697664be36950f0db79c6216141f", "is_reserved": 0, "rental_uris": {"android": "https://dc.lft.to/lastmile_qr_scan", "ios": "https://dc.lft.to/lastmile_qr_scan"}, "fusion_lon": 0.0}, {"lat": 38.911752, "is_disabled": 0, "type": "electric_scooter", "lon": -77.03187083333333, "bike_id": "f6ba98fcdcc66accf2ea7a689e8d1b4d", "fusion_lat": 0.0, "name": "f6ba98fcdcc66accf2ea7a689e8d1b4d", "is_reserved": 0, "rental_uris": {"android": "https://dc.lft.to/lastmile_qr_scan", "ios": "https://dc.lft.to/lastmile_qr_scan"}, "fusion_lon": 0.0}, {"lat": 38.933864, "is_disabled": 0, "type": "electric_scooter", "lon": -77.0325335, "bike_id": "8a0f0cac50aa03b3a90204fcb6b6972d", "fusion_lat": 0.0, "name": "8a0f0cac50aa03b3a90204fcb6b6972d", "is_reserved": 0, "rental_uris": {"android": "https://dc.lft.to/lastmile_qr_scan", "ios": "https://dc.lft.to/lastmile_qr_scan"}, "fusion_lon": 0.0}, {"lat": 38.922542666666665, "is_disabled": 0, "type": "electric_scooter", "lon": -77.02345283333334, "bike_id": "3acbba6cb43cdf7c819a30e497037130", "fusion_lat": 0.0, "name": "3acbba6cb43cdf7c819a30e497037130", "is_reserved": 0, "rental_uris": {"android": "https://dc.lft.to/lastmile_qr_scan", "ios": "https://dc.lft.to/lastmile_qr_scan"}, "fusion_lon": 0.0}, {"lat": 38.922571, "is_disabled": 0, "type": "electric_scooter", "lon": -77.0429565, "bike_id": "2e6f78c048388c3f57d1bc5bf324727e", "fusion_lat": 0.0, "name": "2e6f78c048388c3f57d1bc5bf324727e", "is_reserved": 0, "rental_uris": {"android": "https://dc.lft.to/lastmile_qr_scan", "ios": "https://dc.lft.to/lastmile_qr_scan"}, "fusion_lon": 0.0}, {"lat": 38.93637233333333, "is_disabled": 0, "type": "electric_scooter", "lon": -77.02483483333333, "bike_id": "0cace740af40a69b27c9192966ffd2dc", "fusion_lat": 0.0, "name": "0cace740af40a69b27c9192966ffd2dc", "is_reserved": 0, "rental_uris": {"android": "https://dc.lft.to/lastmile_qr_scan", "ios": "https://dc.lft.to/lastmile_qr_scan"}, "fusion_lon": 0.0}, {"lat": 38.8935215, "is_disabled": 0, "type": "electric_scooter", "lon": -77.04138633333334, "bike_id": "68e51eb43ccba9a1e10cd57f73640f30", "fusion_lat": 0.0, "name": "68e51eb43ccba9a1e10cd57f73640f30", "is_reserved": 0, "rental_uris": {"android": "https://dc.lft.to/lastmile_qr_scan", "ios": "https://dc.lft.to/lastmile_qr_scan"}, "fusion_lon": 0.0}, {"lat": 38.91489116666666, "is_disabled": 0, "type": "electric_scooter", "lon": -77.03262883333333, "bike_id": "5f80935ef477f19afdbd92ecd1521d16", "fusion_lat": 0.0, "name": "5f80935ef477f19afdbd92ecd1521d16", "is_reserved": 0, "rental_uris": {"android": "https://dc.lft.to/lastmile_qr_scan", "ios": "https://dc.lft.to/lastmile_qr_scan"}, "fusion_lon": 0.0}, {"lat": 38.899288166666665, "is_disabled": 0, "type": "electric_scooter", "lon": -77.00374516666666, "bike_id": "3996fe2e9b72d19a7434b16467d9d5be", "fusion_lat": 0.0, "name": "3996fe2e9b72d19a7434b16467d9d5be", "is_reserved": 0, "rental_uris": {"android": "https://dc.lft.to/lastmile_qr_scan", "ios": "https://dc.lft.to/lastmile_qr_scan"}, "fusion_lon": 0.0}, {"lat": 38.9188195, "is_disabled": 0, "type": "electric_scooter", "lon": -77.0346395, "bike_id": "dbe9f4cb14dcf2e6fcbc9d0f83e54329", "fusion_lat": 0.0, "name": "dbe9f4cb14dcf2e6fcbc9d0f83e54329", "is_reserved": 0, "rental_uris": {"android": "https://dc.lft.to/lastmile_qr_scan", "ios": "https://dc.lft.to/lastmile_qr_scan"}, "fusion_lon": 0.0},