{"data": {"bikes": [{"fusion_lat": 0.0, "name": "334801810900bd76715f5adf2ad1dc65", "is_disabled": 0, "rental_uris": {"android": "https://dc.lft.to/lastmile_qr_scan", "ios": "https://dc.lft.to/lastmile_qr_scan"}, "fusion_lon": 0.0, "lat": 38.92013516666667, "bike_id": "334801810900bd76715f5adf2ad1dc65", "type": "electric_scooter", "is_reserved": 0, "lon": -77.03883}, {"fusion_lat": 0.0, "name": "9fc4b5b60fe61a090caae062a391dde2", "is_disabled": 0, "rental_uris": {"android": "https://dc.lft.to/lastmile_qr_scan", "ios": "https://dc.lft.to/lastmile_qr_scan"}, "fusion_lon": 0.0, "lat": 38.903782666666665, "bike_id": "9fc4b5b60fe61a090caae062a391dde2", "type": "electric_scooter", "is_reserved": 0, "lon": -76.97620816666667}, {"fusion_lat": 0.0, "name": "c07a5d561db9922408d1afa01137e70d", "is_disabled": 0, "rental_uris": {"android": "https://dc.lft.to/lastmile_qr_scan", "ios": "https://dc.lft.to/lastmile_qr_scan"}, "fusion_lon": 0.0, "lat": 38.905268666666665, "bike_id": "c07a5d561db9922408d1afa01137e70d", "type": "electric_scooter", "is_reserved": 0, "lon": -77.029741}, {"fusion_lat": 0.0, "name": "b347ca51aa2cf7c9c95bb2b82450e690", "is_disabled": 0, "rental_uris": {"android": "https://dc.lft.to/lastmile_qr_scan", "ios": "https://dc.lft.to/lastmile_qr_scan"}, "fusion_lon": 0.0, "lat": 38.929432166666665, "bike_id": "b347ca51aa2cf7c9c95bb2b82450e690", "type": "electric_scooter", "is_reserved": 0, "lon": -77.0325075}, {"fusion_lat": 0.0, "name": "47a217221d1684705bb4c5dd12a05223", "is_disabled": 0, "rental_uris": {"android": "https://dc.lft.to/lastmile_qr_scan", "ios": "https://dc.lft.to/lastmile_qr_scan"}, "fusion_lon": 0.0, "lat": 38.92172, "bike_id": "47a217221d1684705bb4c5dd12a05223", "type": "electric_scooter", "is_reserved": 0, "lon": -77.03511783333333}, {"fusion_lat": 0.0, "name": "024561fa67aff70c64e839ebd48eb5a0", "is_disabled": 0, "rental_uris": {"android": "https://dc.lft.to/lastmile_qr_scan", "ios": "https://dc.lft.to/lastmile_qr_scan"}, "fusion_lon": 0.0, "lat": 38.881887, "bike_id": "024561fa67aff70c64e839ebd48eb5a0", "type": "electric_scooter", "is_reserved": 0, "lon": -77.00352966666667}, {"fusion_lat": 0.0, "name": "93124354fb3f63b07043b1771c123c8b", "is_disabled": 0, "rental_uris": {"android": "https://dc.lft.to/lastmile_qr_scan", "ios": "https://dc.lft.to/lastmile_qr_scan"}, "fusion_lon": 0.0, "lat": 38.904150666666666, "bike_id": "93124354fb3f63b07043b1771c123c8b", "type": "electric_scooter", "is_reserved": 0, "lon": -77.05126083333333}, {"fusion_lat": 0.0, "name": "9d5266a3c52c3fb47819c614ad95d7d4", "is_disabled": 0, "rental_uris": {"android": "https://dc.lft.to/lastmile_qr_scan", "ios": "https://dc.lft.to/lastmile_qr_scan"}, "fusion_lon": 0.0, "lat": 38.919248, "bike_id": "9d5266a3c52c3fb47819c614ad95d7d4", "type": "electric_scooter", "is_reserved": 0, "lon": -77.02473983333333}, {"fusion_lat": 0.0, "name": "7a2161f7cb2928867e1a5c865f28bd64", "is_disabled": 0, "rental_uris": {"android": "https://dc.lft.to/lastmile_qr_scan", "ios": "https://dc.lft.to/lastmile_qr_scan"}, "fusion_lon": 0.0, "lat": 38.891924, "bike_id": "7a2161f7cb2928867e1a5c865f28bd64", "type": "electric_scooter", "is_reserved": 0, "lon": -77.01545183333333}, {"fusion_lat": 0.0, "name": "631b469d92509e0e577573b7696bba00", "is_disabled": 0, "rental_uris": {"android": "https://dc.lft.to/lastmile_qr_scan", "ios": "https://dc.lft.to/lastmile_qr_scan"}, "fusion_lon": 0.0, "lat": 38.9076755, "bike_id": "631b469d92509e0e577573b7696bba00", "type": "electric_scooter", "is_reserved": 0, "lon": -76.99854333333333}, {"fusion_lat": 0.0, "name": "1794e086d14c3af45197b6f03dd1892e", "is_disabled": 0, "rental_uris": {"android": "https://dc.lft.to/lastmile_qr_scan", "ios": "https://dc.lft.to/lastmile_qr_scan"}, "fusion_lon": 0.0, "lat": 38.9179105, "bike_id": "1794e086d14c3af45197b6f03dd1892e", "type": "electric_scooter", "is_reserved": 0, "lon": -77.041099}, {"fusion_lat": 0.0, "name": "b13a66814391f6c4b5a7a6f8a576497e", "is_disabled": 0, "rental_uris": {"android": "https://dc.lft.to/lastmile_qr_scan", "ios": "https://dc.lft.to/lastmile_qr_scan"}, "fusion_lon": 0.0, "lat": 38.89951633333333, "bike_id": "b13a66814391f6c4b5a7a6f8a576497e", "type": "electric_scooter", "is_reserved": 0, "lon": -77.0394175}, {"fusion_lat": 0.0, "name": "829270f1f010d7d870aea4a58c5ea070", "is_disabled": 0, "rental_uris": {"android": "https://dc.lft.to/lastmile_qr_scan", "ios": "https://dc.lft.to/lastmile_qr_scan"}, "fusion_lon": 0.0, "lat": 38.913088333333334, "bike_id": "829270f1f010d7d870aea4a58c5ea070", "type": "electric_scooter", "is_reserved": 0, "lon": -77.0319345}, {"fusion_lat": 0.0, "name": "1bec87d82606754d3beb3ca698f8af7c", "is_disabled": 0, "rental_uris": {"android": "https://dc.lft.to/lastmile_qr_scan", "ios": "https://dc.lft.to/lastmile_qr_scan"}, "fusion_lon": 0.0, "lat": 38.9302465, "bike_id": "1bec87d82606754d3beb3ca698f8af7c", "type": "electric_scooter", "is_reserved": 0, "lon": -77.03779683333333}, {"fusion_lat": 0.0, "name": "cf4b9583d07032b4285c2a49d24b2bb7", "is_disabled": 0, "rental_uris": {"android": "https://dc.lft.to/lastmile_qr_scan", "ios": "https://dc.lft.to/lastmile_qr_scan"}, "fusion_lon": 0.0, "lat": 38.908066, "bike_id": "cf4b9583d07032b4285c2a49d24b2bb7", "type": "electric_scooter", "is_reserved": 0, "lon": -77.03867533333333}, {"fusion_lat": 0.0, "name": "3dd8d41feb971f1cce3e26921217b29b", "is_disabled": 0, "rental_uris": {"android": "https://dc.lft.to/lastmile_qr_scan", "ios": "https://dc.lft.to/lastmile_qr_scan"}, "fusion_lon": 0.0, "lat": 39.01416483333333, "bike_id": "3dd8d41feb971f1cce3e26921217b29b", "type": "electric_bike", "is_reserved": 0, "lon": -77.044963}, {"fusion_lat": 0.0, "name": "d95f5bb0b7e6c34d2e48ec00eee9f6e5", "is_disabled": 0, "rental_uris": {"android": "https://dc.lft.to/lastmile_qr_scan", "ios": "https://dc.lft.to/lastmile_qr_scan"}, "fusion_lon": 0.0, "lat": 38.899986, "bike_id": "d95f5bb0b7e6c34d2e48ec00eee9f6e5", "type": "electric_scooter", "is_reserved": 0, "lon": -77.02176483333334}, {"fusion_lat": 0.0, "name": "c2fdcfaae5bd8294c2b671f0bd3d2eeb", "is_disabled": 0, "rental_uris": {"android": "https://dc.lft.to/lastmile_qr_scan", "ios": "https://dc.lft.to/lastmile_qr_scan"}, "fusion_lon": 0.0, "lat": 38.905571, "bike_id": "c2fdcfaae5bd8294c2b671f0bd3d2eeb", "type": "electric_scooter", "is_reserved": 0, "lon": -77.0167505}, {"fusion_lat": 0.0, "name": "0c93e57fc46f6281c07be833f901db65", "is_disabled": 0, "rental_uris": {"android": "https://dc.lft.to/lastmile_qr_scan", "ios": "https://dc.lft.to/lastmile_qr_scan"}, "fusion_lon": 0.0, "lat": 38.881639666666665, "bike_id": "0c93e57fc46f6281c07be833f901db65", "type": "electric_scooter", "is_reserved": 0, "lon": -77.02765433333333}, {"fusion_lat": 0.0, "name": "395ea44dc94df68ee60d494aa1fb1c39", "is_disabled": 0, "rental_uris": {"android": "https://dc.lft.to/lastmile_qr_scan", "ios": "https://dc.lft.to/lastmile_qr_scan"}, "fusion_lon": 0.0, "lat": 38.920309, "bike_id": "395ea44dc94df68ee60d494aa1fb1c39", "type": "electric_scooter", "is_reserved": 0, "lon": -77.07146}, {"fusion_lat": 0.0, "name": "cf1d98b65a368238282cbd71f1c6edb4", "is_disabled": 0, "rental_uris": {"android": "https://dc.lft.to/lastmile_qr_scan", "ios": "https://dc.lft.to/lastmile_qr_scan"}, "fusion_lon": 0.0, "lat": 38.898759166666665, "bike_id": "cf1d98b65a368238282cbd71f1c6edb4", "type": "electric_bike", "is_reserved": 0, "lon": -77.1133375}, {"fusion_lat": 0.0, "name": "5899a4d91397987666309dcc24c411a9", "is_disabled": 0, "rental_uris": {"android": "https://dc.lft.to/lastmile_qr_scan", "ios": "https://dc.lft.to/lastmile_qr_scan"}, "fusion_lon": 0.0, "lat": 38.955563833333336, "bike_id": "5899a4d91397987666309dcc24c411a9", "type": "electric_bike", "is_reserved": 0, "lon": -77.0243555}, {"fusion_lat": 0.0, "name": "cd18e27fe1fe6f37562d11bc6ffe771c", "is_disabled": 0, "rental_uris": {"android": "https://dc.lft.to/lastmile_qr_scan", "ios": "https://dc.lft.to/lastmile_qr_scan"}, "fusion_lon": 0.0, "lat": 38.9553005, "bike_id": "cd18e27fe1fe6f37562d11bc6ffe771c", "type": "electric_bike", "is_reserved": 0, "lon": -77.02471883333334}, {"fusion_lat": 0.0, "name": "14726353e0c83461fac3d3ba45c674c7", "is_disabled": 0, "rental_uris": {"android": "https://dc.lft.to/lastmile_qr_scan", "ios": "https://dc.lft.to/lastmile_qr_scan"}, "fusion_lon": 0.0, "lat": 38.9072265, "bike_id": "14726353e0c83461fac3d3ba45c674c7", "type": "electric_scooter", "is_reserved": 0, "lon": -77.04336716666667}, {"fusion_lat": 0.0, "name": "50873114cd5cbf83efeb9376e1c59f86", "is_disabled": 0, "rental_uris": {"android": "https://dc.lft.to/lastmile_qr_scan", "ios": "https://dc.lft.to/lastmile_qr_scan"}, "fusion_lon": 0.0, "lat": 38.920866333333336, "bike_id": "50873114cd5cbf83efeb9376e1c59f86", "type": "electric_scooter", "is_reserved": 0, "lon": -77.02404716666666}, {"fusion_lat": 0.0, "name": "c1f2faa5d60b32b35c45412a7ae5abf6", "is_disabled": 0, "rental_uris": {"android": "https://dc.lft.to/lastmile_qr_scan", "ios": "https://dc.lft.to/lastmile_qr_scan"}, "fusion_lon": 0.0, "lat": 38.90734233333333, "bike_id": "c1f2faa5d60b32b35c45412a7ae5abf6", "type": "electric_scooter", "is_reserved": 0, "lon": -77.03578216666666}, {"fusion_lat": 0.0, "name": "d1fe7b0badb8ba18c58d8957c6dd87e8", "is_disabled": 0, "rental_uris": {"android": "https://dc.lft.to/lastmile_qr_scan", "ios": "https://dc.lft.to/lastmile_qr_scan"}, "fusion_lon": 0.0, "lat": 38.93056716666667, "bike_id": "d1fe7b0badb8ba18c58d8957c6dd87e8", "type": "electric_scooter", "is_reserved": 0, "lon": -77.03211566666667}, {"fusion_lat": 0.0, "name": "a1e537e9306732cade1c05cd94c4153f", "is_disabled": 0, "rental_uris": {"android": "https://dc.lft.to/lastmile_qr_scan", "ios": "https://dc.lft.to/lastmile_qr_scan"}, "fusion_lon": 0.0, "lat": 38.91976, "bike_id": "a1e537e9306732cade1c05cd94c4153f", "type": "electric_scooter", "is_reserved": 0, "lon": -77.0239735}, {"fusion_lat": 0.0, "name": "1b88f6189885bc656db33d5aecf1f583", "is_disabled": 0, "rental_uris": {"android": "https://dc.lft.to/lastmile_qr_scan", "ios": "https://dc.lft.to/lastmile_qr_scan"}, "fusion_lon": 0.0, "lat": 38.903709666666664, "bike_id": "1b88f6189885bc656db33d5aecf1f583", "type": "electric_scooter", "is_reserved": 0, "lon": -77.0331055}, {"fusion_lat": 0.0, "name": "4e0e1bfec44884d29ca284de7616e3e5", "is_disabled": 0, "rental_uris": {"android": "https://dc.lft.to/lastmile_qr_scan", "ios": "https://dc.lft.to/lastmile_qr_scan"}, "fusion_lon": 0.0, "lat": 38.923541666666665, "bike_id": "4e0e1bfec44884d29ca284de7616e3e5", "type": "electric_scooter", "is_reserved": 0, "lon": -77.04150733333333}, {"fusion_lat": 0.0, "name": "efef070e890eb8ead05955b89feaa7f2", "is_disabled": 0, "rental_uris": {"android": "https://dc.lft.to/lastmile_qr_scan", "ios": "https://dc.lft.to/lastmile_qr_scan"}, "fusion_lon": 0.0, "lat": 38.907399166666664, "bike_id": "efef070e890eb8ead05955b89feaa7f2", "type": "electric_scooter", "is_reserved": 0, "lon": -77.043341}, {"fusion_lat": 0.0, "name": "0ea61bd65de95c2861b115ba8acd886f", "is_disabled": 0, "rental_uris": {"android": "https://dc.lft.to/lastmile_qr_scan", "ios": "https://dc.lft.to/lastmile_qr_scan"}, "fusion_lon": 0.0, "lat": 38.907909, "bike_id": "0ea61bd65de95c2861b115ba8acd886f", "type": "electric_scooter", "is_reserved": 0, "lon": -77.04330516666667}, {"fusion_lat": 0.0, "name": "7fe8c457012d5e865eac302d1ea150fe", "is_disabled": 0, "rental_uris": {"android": "https://dc.lft.to/lastmile_qr_scan", "ios": "https://dc.lft.to/lastmile_qr_scan"}, "fusion_lon": 0.0, "lat": 38.884006666666664, "bike_id": "7fe8c457012d5e865eac302d1ea150fe", "type": "electric_scooter", "is_reserved": 0, "lon": -77.029642}, {"fusion_lat": 0.0, "name": "ee4e419302929ca2f86414f23a2343f9", "is_disabled": 0, "rental_uris": {"android": "https://dc.lft.to/lastmile_qr_scan", "ios": "https://dc.lft.to/lastmile_qr_scan"}, "fusion_lon": 0.0, "lat": 38.895857166666666, "bike_id": "ee4e419302929ca2f86414f23a2343f9", "type": "electric_scooter", "is_reserved": 0, "lon": -77.02315333333334}, {"fusion_lat": 0.0, "name": "3db7a137d21163bed0ef661edce3920b", "is_disabled": 0, "rental_uris": {"android": "https://dc.lft.to/lastmile_qr_scan", "ios": "https://dc.lft.to/lastmile_qr_scan"}, "fusion_lon": 0.0, "lat": 38.906679833333335, "bike_id": "3db7a137d21163bed0ef661edce3920b", "type": "electric_scooter", "is_reserved": 0, "lon": -77.03858266666667}, {"fusion_lat": 0.0, "name": "c2832b12038533165771363a324d1f5a", "is_disabled": 0, "rental_uris": {"android": "https://dc.lft.to/lastmile_qr_scan", "ios": "https://dc.lft.to/lastmile_qr_scan"}, "fusion_lon": 0.0, "lat": 38.929945333333336, "bike_id": "c2832b12038533165771363a324d1f5a", "type": "electric_scooter", "is_reserved": 0, "lon": -77.03791533333333}, {"fusion_lat": 0.0, "name": "96fdc6fbcdeebc0e59fe9dfa3c49bd2b", "is_disabled": 0, "rental_uris": {"android": "https://dc.lft.to/lastmile_qr_scan", "ios": "https://dc.lft.to/lastmile_qr_scan"}, "fusion_lon": 0.0, "lat": 38.901710666666666, "bike_id": "96fdc6fbcdeebc0e59fe9dfa3c49bd2b", "type": "electric_scooter", "is_reserved": 0, "lon": -76.98065033333333}, {"fusion_lat": 0.0, "name": "a52fe45f44cbc9a4ea62b6b258cdd558", "is_disabled": 0, "rental_uris": {"android": "https://dc.lft.to/lastmile_qr_scan", "ios": "https://dc.lft.to/lastmile_qr_scan"}, "fusion_lon": 0.0, "lat": 38.887436666666666, "bike_id": "a52fe45f44cbc9a4ea62b6b258cdd558", "type": "electric_scooter", "is_reserved": 0, "lon": -76.9984525}, {"fusion_lat": 0.0, "name": "e7345de1c472fa7f4e3c9b48c03cd0f2", "is_disabled": 0, "rental_uris": {"android": "https://dc.lft.to/lastmile_qr_scan", "ios": "https://dc.lft.to/lastmile_qr_scan"}, "fusion_lon": 0.0, "lat": 38.921253166666666, "bike_id": "e7345de1c472fa7f4e3c9b48c03cd0f2", "type": "electric_scooter", "is_reserved": 0, "lon": -77.04427733333333}, {"fusion_lat": 0.0, "name": "8421381bc947c4ddcb48b6118f51c171", "is_disabled": 0, "rental_uris": {"android": "https://dc.lft.to/lastmile_qr_scan", "ios": "https://dc.lft.to/lastmile_qr_scan"}, "fusion_lon": 0.0, "lat": 38.921768, "bike_id": "8421381bc947c4ddcb48b6118f51c171", "type": "electric_scooter", "is_reserved": 0, "lon": -77.02660833333333}, {"fusion_lat": 0.0, "name": "e6942fae54993857b7e1424fef38f58a", "is_disabled": 0, "rental_uris": {"android": "https://dc.lft.to/lastmile_qr_scan", "ios": "https://dc.lft.to/lastmile_qr_scan"}, "fusion_lon": 0.0, "lat": 38.9307415, "bike_id": "e6942fae54993857b7e1424fef38f58a", "type": "electric_scooter", "is_reserved": 0, "lon": -77.03156783333333}, {"fusion_lat": 0.0, "name": "98fe3bf275d572f55f7d7992e9d93dfb", "is_disabled": 0, "rental_uris": {"android": "https://dc.lft.to/lastmile_qr_scan", "ios": "https://dc.lft.to/lastmile_qr_scan"}, "fusion_lon": 0.0, "lat": 38.904289166666665, "bike_id": "98fe3bf275d572f55f7d7992e9d93dfb", "type": "electric_scooter", "is_reserved": 0, "lon": -76.97948916666667}, {"fusion_lat": 0.0, "name": "5be8040cea73c3483a08cab8570c4021", "is_disabled": 0, "rental_uris": {"android": "https://dc.lft.to/lastmile_qr_scan", "ios": "https://dc.lft.to/lastmile_qr_scan"}, "fusion_lon": 0.0, "lat": 38.903785666666664, "bike_id": "5be8040cea73c3483a08cab8570c4021", "type": "electric_scooter", "is_reserved": 0, "lon": -77.0340775}, {"fusion_lat": 0.0, "name": "b6ae0d72b3544e7060722bfa4b0ba6ca", "is_disabled": 0, "rental_uris": {"android": "https://dc.lft.to/lastmile_qr_scan", "ios": "https://dc.lft.to/lastmile_qr_scan"}, "fusion_lon": 0.0, "lat": 38.876348666666665, "bike_id": "b6ae0d72b3544e7060722bfa4b0ba6ca", "type": "electric_scooter", "is_reserved": 0, "lon": -77.00916666666667}, {"fusion_lat": 0.0, "name": "b3e05d75e5965c348b5a35b8bf182e67", "is_disabled": 0, "rental_uris": {"android": "https://dc.lft.to/lastmile_qr_scan", "ios": "https://dc.lft.to/lastmile_qr_scan"}, "fusion_lon": 0.0, "lat": 38.92983616666667, "bike_id": "b3e05d75e5965c348b5a35b8bf182e67", "type": "electric_scooter", "is_reserved": 0, "lon": -77.034711}, {"fusion_lat": 0.0, "name": "8645674a092dea8d1d2ca090af10719c", "is_disabled": 0, "rental_uris": {"android": "https://dc.lft.to/lastmile_qr_scan", "ios": "https://dc.lft.to/lastmile_qr_scan"}, "fusion_lon": 0.0, "lat": 38.910957333333336, "bike_id": "8645674a092dea8d1d2ca090af10719c", "type": "electric_scooter", "is_reserved": 0, "lon": -77.03184183333333}, {"fusion_lat": 0.0, "name": "ec768ef9086dbad5c6bff3abfe730d6d", "is_disabled": 0, "rental_uris": {"android": "https://dc.lft.to/lastmile_qr_scan", "ios": "https://dc.lft.to/lastmile_qr_scan"}, "fusion_lon": 0.0, "lat": 38.902444333333335, "bike_id": "ec768ef9086dbad5c6bff3abfe730d6d", "type": "electric_scooter", "is_reserved": 0, "lon": -77.005431}, {"fusion_lat": 0.0, "name": "1f46f473ab1489125d18c0c3a7d81046", "is_disabled": 0, "rental_uris": {"android": "https://dc.lft.to/lastmile_qr_scan", "ios": "https://dc.lft.to/lastmile_qr_scan"}, "fusion_lon": 0.0, "lat": 38.90705466666667, "bike_id": "1f46f473ab1489125d18c0c3a7d81046", "type": "electric_scooter", "is_reserved": 0, "lon": -77.00773866666667}, {"fusion_lat": 0.0, "name": "77fd5f968a0a05727b287c5467bd5812", "is_disabled": 0, "rental_uris": {"android": "https://dc.lft.to/lastmile_qr_scan", "ios": "https://dc.lft.to/lastmile_qr_scan"}, "fusion_lon": 0.0, "lat": 38.911108166666665, "bike_id": "77fd5f968a0a05727b287c5467bd5812", "type": "electric_scooter", "is_reserved": 0, "lon": -77.00390183333333}, {"fusion_lat": 0.0, "name": "fd02e3c4a368958862fa18fb1c4db46d", "is_disabled": 0, "rental_uris": {"android": "https://dc.lft.to/lastmile_qr_scan", "ios": "https://dc.lft.to/lastmile_qr_scan"}, "fusion_lon": 0.0, "lat": 38.8957975, "bike_id": "fd02e3c4a368958862fa18fb1c4db46d", "type": "electric_scooter", "is_reserved": 0, "lon": -76.9831965}, {"fusion_lat": 0.0, "name": "ae986d36240fc10a91be786ae7bd8510", "is_disabled": 0, "rental_uris": {"android": "https://dc.lft.to/lastmile_qr_scan", "ios": "https://dc.lft.to/lastmile_qr_scan"}, "fusion_lon": 0.0, "lat": 38.93578566666667, "bike_id": "ae986d36240fc10a91be786ae7bd8510", "type": "electric_scooter", "is_reserved": 0, "lon": -77.02124}, {"fusion_lat": 0.0, "name": "493f8838d46235e2c4ec663d33a2b0c9", "is_disabled": 0, "rental_uris": {"android": "https://dc.lft.to/lastmile_qr_scan", "ios": "https://dc.lft.to/lastmile_qr_scan"}, "fusion_lon": 0.0, "lat": 38.949662833333335, "bike_id": "493f8838d46235e2c4ec663d33a2b0c9", "type": "electric_scooter", "is_reserved": 0, "lon": -77.0662405}, {"fusion_lat": 0.0, "name": "bff93f95b59b4d8dcda2fef4b85c2de7", "is_disabled": 0, "rental_uris": {"android": "https://dc.lft.to/lastmile_qr_scan", "ios": "https://dc.lft.to/lastmile_qr_scan"}, "fusion_lon": 0.0, "lat": 38.923356166666665, "bike_id": "bff93f95b59b4d8dcda2fef4b85c2de7", "type": "electric_scooter", "is_reserved": 0, "lon": -77.05298033333334}, {"fusion_lat": 0.0, "name": "73387f4090aa8187b2253b5000c8f644", "is_disabled": 0, "rental_uris": {"android": "https://dc.lft.to/lastmile_qr_scan", "ios": "https://dc.lft.to/lastmile_qr_scan"}, "fusion_lon": 0.0, "lat": 38.900439666666664, "bike_id": "73387f4090aa8187b2253b5000c8f644", "type": "electric_scooter", "is_reserved": 0, "lon": -76.99738483333333}, {"fusion_lat": 0.0, "name": "d33c526ea4f3f54096fc13bc2f8f80d8", "is_disabled": 0, "rental_uris": {"android": "https://dc.lft.to/lastmile_qr_scan", "ios": "https://dc.lft.to/lastmile_qr_scan"}, "fusion_lon": 0.0, "lat": 38.9181575, "bike_id": "d33c526ea4f3f54096fc13bc2f8f80d8", "type": "electric_scooter", "is_reserved": 0, "lon": -77.03166966666667}, {"fusion_lat": 0.0, "name": "aa2cb4bda3b7e0dc91ee05ff7ffdb2c9", "is_disabled": 0, "rental_uris": {"android": "https://dc.lft.to/lastmile_qr_scan", "ios": "https://dc.lft.to/lastmile_qr_scan"}, "fusion_lon": 0.0, "lat": 38.92448066666667, "bike_id": "aa2cb4bda3b7e0dc91ee05ff7ffdb2c9", "type": "electric_scooter", "is_reserved": 0, "lon": -77.03961283333334}, {"fusion_lat": 0.0, "name": "a59ab3fab236768bfeb53ed70f2afeee", "is_disabled": 0, "rental_uris": {"android": "https://dc.lft.to/lastmile_qr_scan", "ios": "https://dc.lft.to/lastmile_qr_scan"}, "fusion_lon": 0.0, "lat": 38.87482383333333, "bike_id": "a59ab3fab236768bfeb53ed70f2afeee", "type": "electric_scooter", "is_reserved": 0, "lon": -77.006004}, {"fusion_lat": 0.0, "name": "8417486016f8961af0accdfd4ca004f2", "is_disabled": 0, "rental_uris": {"android": "https://dc.lft.to/lastmile_qr_scan", "ios": "https://dc.lft.to/lastmile_qr_scan"}, "fusion_lon": 0.0, "lat": 38.9209385, "bike_id": "8417486016f8961af0accdfd4ca004f2", "type": "electric_scooter", "is_reserved": 0, "lon": -77.02512483333334}, {"fusion_lat": 0.0, "name": "d5811a0bb3fa60b91b2bca883cd1920a", "is_disabled": 0, "rental_uris": {"android": "https://dc.lft.to/lastmile_qr_scan", "ios": "https://dc.lft.to/lastmile_qr_scan"}, "fusion_lon": 0.0, "lat": 38.876629666666666, "bike_id": "d5811a0bb3fa60b91b2bca883cd1920a", "type": "electric_scooter", "is_reserved": 0, "lon": -77.0177785}, {"fusion_lat": 0.0, "name": "294cac09cd9096f6f4afdba65e333051", "is_disabled": 0, "rental_uris": {"android": "https://dc.lft.to/lastmile_qr_scan", "ios": "https://dc.lft.to/lastmile_qr_scan"}, "fusion_lon": 0.0, "lat": 38.90193033333333, "bike_id": "294cac09cd9096f6f4afdba65e333051", "type": "electric_scooter", "is_reserved": 0, "lon": -77.06118433333333}, {"fusion_lat": 0.0, "name": "c9705e7be8a80d1f5c875dfbd842b624", "is_disabled": 0, "rental_uris": {"android": "https://dc.lft.to/lastmile_qr_scan", "ios": "https://dc.lft.to/lastmile_qr_scan"}, "fusion_lon": 0.0, "lat": 38.942699166666664, "bike_id": "c9705e7be8a80d1f5c875dfbd842b624", "type": "electric_scooter", "is_reserved": 0, "lon": -77.0325685}, {"fusion_lat": 0.0, "name": "30a4934acd5f977502dc6028e1580210", "is_disabled": 0, "rental_uris": {"android": "https://dc.lft.to/lastmile_qr_scan", "ios": "https://dc.lft.to/lastmile_qr_scan"}, "fusion_lon": 0.0, "lat": 38.9348645, "bike_id": "30a4934acd5f977502dc6028e1580210", "type": "electric_scooter", "is_reserved": 0, "lon": -77.07277816666667}, {"fusion_lat": 0.0, "name": "8f0810f44bf309d6bd88c18f5a21bc30", "is_disabled": 0, "rental_uris": {"android": "https://dc.lft.to/lastmile_qr_scan", "ios": "https://dc.lft.to/lastmile_qr_scan"}, "fusion_lon": 0.0, "lat": 38.89791066666667, "bike_id": "8f0810f44bf309d6bd88c18f5a21bc30", "type": "electric_scooter", "is_reserved": 0, "lon": -76.94729266666667}, {"fusion_lat": 0.0, "name": "bd8e62351a89250e3337b50a91eae99c", "is_disabled": 0, "rental_uris": {"android": "https://dc.lft.to/lastmile_qr_scan", "ios": "https://dc.lft.to/lastmile_qr_scan"}, "fusion_lon": 0.0, "lat": 38.902645666666665, "bike_id": "bd8e62351a89250e3337b50a91eae99c", "type": "electric_scooter", "is_reserved": 0, "lon": -77.03630016666666}, {"fusion_lat": 0.0, "name": "79cf3289ab30561d815b44970b0bd530", "is_disabled": 0, "rental_uris": {"android": "https://dc.lft.to/lastmile_qr_scan", "ios": "https://dc.lft.to/lastmile_qr_scan"}, "fusion_lon": 0.0, "lat": 38.914879666666664, "bike_id": "79cf3289ab30561d815b44970b0bd530", "type": "electric_scooter", "is_reserved": 0, "lon": -77.04238233333334}, {"fusion_lat": 0.0, "name": "7180b764da548288071d36cc79ff7d4c", "is_disabled": 0, "rental_uris": {"android": "https://dc.lft.to/lastmile_qr_scan", "ios": "https://dc.lft.to/lastmile_qr_scan"}, "fusion_lon": 0.0, "lat": 38.90810333333334, "bike_id": "7180b764da548288071d36cc79ff7d4c", "type": "electric_scooter", "is_reserved": 0, "lon": -77.0345395}, {"fusion_lat": 0.0, "name": "ca62bf7cc4e733f4181330c17a251e64", "is_disabled": 0, "rental_uris": {"android": "https://dc.lft.to/lastmile_qr_scan", "ios": "https://dc.lft.to/lastmile_qr_scan"}, "fusion_lon": 0.0, "lat": 38.923496, "bike_id": "ca62bf7cc4e733f4181330c17a251e64", "type": "electric_scooter", "is_reserved": 0, "lon": -77.039033}, {"fusion_lat": 0.0, "name": "281eb75dab0271bb6d6838181df08627", "is_disabled": 0, "rental_uris": {"android": "https://dc.lft.to/lastmile_qr_scan", "ios": "https://dc.lft.to/lastmile_qr_scan"}, "fusion_lon": 0.0, "lat": 38.90233, "bike_id": "281eb75dab0271bb6d6838181df08627", "type": "electric_scooter", "is_reserved": 0, "lon": -77.0181315}, {"fusion_lat": 0.0, "name": "8f4b213c43e473a956dcd38e94dc0e3c", "is_disabled": 0, "rental_uris": {"android": "https://dc.lft.to/lastmile_qr_scan", "ios": "https://dc.lft.to/lastmile_qr_scan"}, "fusion_lon": 0.0, "lat": 38.88676383333333, "bike_id": "8f4b213c43e473a956dcd38e94dc0e3c", "type": "electric_bike", "is_reserved": 0, "lon": -77.162432}, {"fusion_lat": 0.0, "name": "4772a58011cd88da2ca516de9d330d87", "is_disabled": 0, "rental_uris": {"android": "https://dc.lft.to/lastmile_qr_scan", "ios": "https://dc.lft.to/lastmile_qr_scan"}, "fusion_lon": 0.0, "lat": 38.94408883333333, "bike_id": "4772a58011cd88da2ca516de9d330d87", "type": "electric_scooter", "is_reserved": 0, "lon": -77.06321083333333}, {"fusion_lat": 0.0, "name": "8ca2eddd176a729da072fa249c044244", "is_disabled": 0, "rental_uris": {"android": "https://dc.lft.to/lastmile_qr_scan", "ios": "https://dc.lft.to/lastmile_qr_scan"}, "fusion_lon": 0.0, "lat": 38.9274895, "bike_id": "8ca2eddd176a729da072fa249c044244", "type": "electric_scooter", "is_reserved": 0, "lon": -77.02448666666666}, {"fusion_lat": 0.0, "name": "83470bd73348a385ac0be4acf1e89cd2", "is_disabled": 0, "rental_uris": {"android": "https://dc.lft.to/lastmile_qr_scan", "ios": "https://dc.lft.to/lastmile_qr_scan"}, "fusion_lon": 0.0, "lat": 38.908144, "bike_id": "83470bd73348a385ac0be4acf1e89cd2", "type": "electric_scooter", "is_reserved": 0, "lon": -77.04274916666667}, {"fusion_lat": 0.0, "name": "85b54014a74abf42ddcfa6197297603c", "is_disabled": 0, "rental_uris": {"android": "https://dc.lft.to/lastmile_qr_scan", "ios": "https://dc.lft.to/lastmile_qr_scan"}, "fusion_lon": 0.0, "lat": 38.892092166666664, "bike_id": "85b54014a74abf42ddcfa6197297603c", "type": "electric_scooter", "is_reserved": 0, "lon": -77.0263225}, {"fusion_lat": 0.0, "name": "777ecd8d785409b2aad8dc068d164e4d", "is_disabled": 0, "rental_uris": {"android": "https://dc.lft.to/lastmile_qr_scan", "ios": "https://dc.lft.to/lastmile_qr_scan"}, "fusion_lon": 0.0, "lat": 38.91710233333333, "bike_id": "777ecd8d785409b2aad8dc068d164e4d", "type": "electric_scooter", "is_reserved": 0, "lon": -77.04005583333333}, {"fusion_lat": 0.0, "name": "46df772c9abace9d6ef0bd0aad023664", "is_disabled": 0, "rental_uris": {"android": "https://dc.lft.to/lastmile_qr_scan", "ios": "https://dc.lft.to/lastmile_qr_scan"}, "fusion_lon": 0.0, "lat": 38.90331966666667, "bike_id": "46df772c9abace9d6ef0bd0aad023664", "type": "electric_bike", "is_reserved": 0, "lon": -76.97530383333333}, {"fusion_lat": 0.0, "name": "5326d67693132e7fc6f61857531a742d", "is_disabled": 0, "rental_uris": {"android": "https://dc.lft.to/lastmile_qr_scan", "ios": "https://dc.lft.to/lastmile_qr_scan"}, "fusion_lon": 0.0, "lat": 38.91022533333334, "bike_id": "5326d67693132e7fc6f61857531a742d", "type": "electric_scooter", "is_reserved": 0, "lon": -77.0331545}, {"fusion_lat": 0.0, "name": "7e661c78b62cc835e81b236b6bffe875", "is_disabled": 0, "rental_uris": {"android": "https://dc.lft.to/lastmile_qr_scan", "ios": "https://dc.lft.to/lastmile_qr_scan"}, "fusion_lon": 0.0, "lat": 38.91128033333333, "bike_id": "7e661c78b62cc835e81b236b6bffe875", "type": "electric_scooter", "is_reserved": 0, "lon": -77.04497183333334}, {"fusion_lat": 0.0, "name": "330b93fd8d6f1739003cadb90f17e56a", "is_disabled": 0, "rental_uris": {"android": "https://dc.lft.to/lastmile_qr_scan", "ios": "https://dc.lft.to/lastmile_qr_scan"}, "fusion_lon": 0.0, "lat": 38.8578915, "bike_id": "330b93fd8d6f1739003cadb90f17e56a", "type": "electric_bike", "is_reserved": 0, "lon": -77.05155116666667}, {"fusion_lat": 0.0, "name": "0ba50b965c9d1f405c5187c3145f24a2", "is_disabled": 0, "rental_uris": {"android": "https://dc.lft.to/lastmile_qr_scan", "ios": "https://dc.lft.to/lastmile_qr_scan"}, "fusion_lon": 0.0, "lat": 38.94325366666666, "bike_id": "0ba50b965c9d1f405c5187c3145f24a2", "type": "electric_scooter", "is_reserved": 0, "lon": -77.0613855}, {"fusion_lat": 0.0, "name": "a5201e528a881e7a688970e697f0bed3", "is_disabled": 0, "rental_uris": {"android": "https://dc.lft.to/lastmile_qr_scan", "ios": "https://dc.lft.to/lastmile_qr_scan"}, "fusion_lon": 0.0, "lat": 38.943389, "bike_id": "a5201e528a881e7a688970e697f0bed3", "type": "electric_scooter", "is_reserved": 0, "lon": -77.03244816666667}, {"fusion_lat": 0.0, "name": "ae21b48de23083e3630bebe236738ee1", "is_disabled": 0, "rental_uris": {"android": "https://dc.lft.to/lastmile_qr_scan", "ios": "https://dc.lft.to/lastmile_qr_scan"}, "fusion_lon": 0.0, "lat": 38.90008683333333, "bike_id": "ae21b48de23083e3630bebe236738ee1", "type": "electric_scooter", "is_reserved": 0, "lon": -76.99349866666667}, {"fusion_lat": 0.0, "name": "cbf80e7dced99864a31dc5dd2eb1fcec", "is_disabled": 0, "rental_uris": {"android": "https://dc.lft.to/lastmile_qr_scan", "ios": "https://dc.lft.to/lastmile_qr_scan"}, "fusion_lon": 0.0, "lat": 38.924922, "bike_id": "cbf80e7dced99864a31dc5dd2eb1fcec", "type": "electric_scooter", "is_reserved": 0, "lon": -77.02176616666667}, {"fusion_lat": 0.0, "name": "e4d0c167a8a5e4cd674af079d751fb2a", "is_disabled": 0, "rental_uris": {"android": "https://dc.lft.to/lastmile_qr_scan", "ios": "https://dc.lft.to/lastmile_qr_scan"}, "fusion_lon": 0.0, "lat": 38.9109885, "bike_id": "e4d0c167a8a5e4cd674af079d751fb2a", "type": "electric_scooter", "is_reserved": 0, "lon": -77.04838983333333}, {"fusion_lat": 0.0, "name": "ae60c16140bb06e0d5d92e1a6672f001", "is_disabled": 0, "rental_uris": {"android": "https://dc.lft.to/lastmile_qr_scan", "ios": "https://dc.lft.to/lastmile_qr_scan"}, "fusion_lon": 0.0, "lat": 38.842793666666665, "bike_id": "ae60c16140bb06e0d5d92e1a6672f001", "type": "electric_bike", "is_reserved": 0, "lon": -77.04503183333334}, {"fusion_lat": 0.0, "name": "722bf34d890c3974725facfb3807d16e", "is_disabled": 0, "rental_uris": {"android": "https://dc.lft.to/lastmile_qr_scan", "ios": "https://dc.lft.to/lastmile_qr_scan"}, "fusion_lon": 0.0, "lat": 38.956021666666665, "bike_id": "722bf34d890c3974725facfb3807d16e", "type": "electric_scooter", "is_reserved": 0, "lon": -77.03352716666667}, {"fusion_lat": 0.0, "name": "10aee61a080acf53c7f40bb0166b0b07", "is_disabled": 0, "rental_uris": {"android": "https://dc.lft.to/lastmile_qr_scan", "ios": "https://dc.lft.to/lastmile_qr_scan"}, "fusion_lon": 0.0, "lat": 38.92446183333333, "bike_id": "10aee61a080acf53c7f40bb0166b0b07", "type": "electric_scooter", "is_reserved": 0, "lon": -77.05233733333333}, {"fusion_lat": 0.0, "name": "8971b92c17dc5f6a9e589376c7074f93", "is_disabled": 0, "rental_uris": {"android": "https://dc.lft.to/lastmile_qr_scan", "ios": "https://dc.lft.to/lastmile_qr_scan"}, "fusion_lon": 0.0, "lat": 38.912514, "bike_id": "8971b92c17dc5f6a9e589376c7074f93", "type": "electric_scooter", "is_reserved": 0, "lon": -77.008009}, {"fusion_lat": 0.0, "name": "8822d19c5353e7a3b47bb75ebd821fa4", "is_disabled": 0, "rental_uris": {"android": "https://dc.lft.to/lastmile_qr_scan", "ios": "https://dc.lft.to/lastmile_qr_scan"}, "fusion_lon": 0.0, "lat": 38.892450333333336, "bike_id": "8822d19c5353e7a3b47bb75ebd821fa4", "type": "electric_scooter", "is_reserved": 0, "lon": -77.03955783333333}, {"fusion_lat": 0.0, "name": "b612d7889e04f3224c11ff5b202f0b81", "is_disabled": 0, "rental_uris": {"android": "https://dc.lft.to/lastmile_qr_scan", "ios": "https://dc.lft.to/lastmile_qr_scan"}, "fusion_lon": 0.0, "lat": 38.889886833333335, "bike_id": "b612d7889e04f3224c11ff5b202f0b81", "type": "electric_scooter", "is_reserved": 0, "lon": -76.91418033333333}, {"fusion_lat": 0.0, "name": "57bccac95d160aa7ff0ddba4f1f3c634", "is_disabled": 0, "rental_uris": {"android": "https://dc.lft.to/lastmile_qr_scan", "ios": "https://dc.lft.to/lastmile_qr_scan"}, "fusion_lon": 0.0, "lat": 38.90492066666667, "bike_id": "57bccac95d160aa7ff0ddba4f1f3c634", "type": "electric_scooter", "is_reserved": 0, "lon": -77.04107266666666}, {"fusion_lat": 0.0, "name": "078392519f1e93015543ac8a75fc543a", "is_disabled": 0, "rental_uris": {"android": "https://dc.lft.to/lastmile_qr_scan", "ios": "https://dc.lft.to/lastmile_qr_scan"}, "fusion_lon": 0.0, "lat": 38.91099966666667, "bike_id": "078392519f1e93015543ac8a75fc543a", "type": "electric_scooter", "is_reserved": 0, "lon": -77.04198516666666}, {"fusion_lat": 0.0, "name": "506ce7545f59fb5c6b40677e622ed3f0", "is_disabled": 0, "rental_uris": {"android": "https://dc.lft.to/lastmile_qr_scan", "ios": "https://dc.lft.to/lastmile_qr_scan"}, "fusion_lon": 0.0, "lat": 38.906152, "bike_id": "506ce7545f59fb5c6b40677e622ed3f0", "type": "electric_scooter", "is_reserved": 0, "lon": -77.00583066666667}, {"fusion_lat": 0.0, "name": "f90016c75074e33ad2b2452ed9f6ac6a", "is_disabled": 0, "rental_uris": {"android": "https://dc.lft.to/lastmile_qr_scan", "ios": "https://dc.lft.to/lastmile_qr_scan"}, "fusion_lon": 0.0, "lat": 38.91549283333333, "bike_id": "f90016c75074e33ad2b2452ed9f6ac6a", "type": "electric_scooter", "is_reserved": 0, "lon": -77.0214205}, {"fusion_lat": 0.0, "name": "b968af741841ccede08455f034257f41", "is_disabled": 0, "rental_uris": {"android": "https://dc.lft.to/lastmile_qr_scan", "ios": "https://dc.lft.to/lastmile_qr_scan"}, "fusion_lon": 0.0, "lat": 38.89740966666667, "bike_id": "b968af741841ccede08455f034257f41", "type": "electric_scooter", "is_reserved": 0, "lon": -77.00857333333333}, {"fusion_lat": 0.0, "name": "a264cd87ab4648df06f80691fb657b35", "is_disabled": 0, "rental_uris": {"android": "https://dc.lft.to/lastmile_qr_scan", "ios": "https://dc.lft.to/lastmile_qr_scan"}, "fusion_lon": 0.0, "lat": 38.90553533333333, "bike_id": "a264cd87ab4648df06f80691fb657b35", "type": "electric_scooter", "is_reserved": 0, "lon": -77.046601}, {"fusion_lat": 0.0, "name": "d91c1131d952aec0b6994bd4be935dcc", "is_disabled": 0, "rental_uris": {"android": "https://dc.lft.to/lastmile_qr_scan", "ios": "https://dc.lft.to/lastmile_qr_scan"}, "fusion_lon": 0.0, "lat": 38.954863833333334, "bike_id": "d91c1131d952aec0b6994bd4be935dcc", "type": "electric_bike", "is_reserved": 0, "lon": -77.02669883333333}, {"fusion_lat": 0.0, "name": "8890b801d64cb4c2e3319096b6ecfadb", "is_disabled": 0, "rental_uris": {"android": "https://dc.lft.to/lastmile_qr_scan", "ios": "https://dc.lft.to/lastmile_qr_scan"}, "fusion_lon": 0.0, "lat": 38.92199733333333, "bike_id": "8890b801d64cb4c2e3319096b6ecfadb", "type": "electric_scooter", "is_reserved": 0, "lon": -77.08088033333334}, {"fusion_lat": 0.0, "name": "eafb5b293024192789eb9e5c93ff6f42", "is_disabled": 0, "rental_uris": {"android": "https://dc.lft.to/lastmile_qr_scan", "ios": "https://dc.lft.to/lastmile_qr_scan"}, "fusion_lon": 0.0, "lat": 38.957994166666666, "bike_id": "eafb5b293024192789eb9e5c93ff6f42", "type": "electric_bike", "is_reserved": 0, "lon": -76.96045366666667}, {"fusion_lat": 0.0, "name": "1bcf1558dca8de25868725550ed668b4", "is_disabled": 0, "rental_uris": {"android": "https://dc.lft.to/lastmile_qr_scan", "ios": "https://dc.lft.to/lastmile_qr_scan"}, "fusion_lon": 0.0, "lat": 38.9143315, "bike_id": "1bcf1558dca8de25868725550ed668b4", "type": "electric_scooter", "is_reserved": 0, "lon": -77.04484033333334}, {"fusion_lat": 0.0, "name": "f473336c27514a0b3eb4b81aa9b07a3d", "is_disabled": 0, "rental_uris": {"android": "https://dc.lft.to/lastmile_qr_scan", "ios": "https://dc.lft.to/lastmile_qr_scan"}, "fusion_lon": 0.0, "lat": 38.9072505, "bike_id": "f473336c27514a0b3eb4b81aa9b07a3d", "type": "electric_scooter", "is_reserved": 0, "lon": -77.02525433333334}, {"fusion_lat": 0.0, "name": "00277f4cdf53b927b289913611d6df59", "is_disabled": 0, "rental_uris": {"android": "https://dc.lft.to/lastmile_qr_scan", "ios": "https://dc.lft.to/lastmile_qr_scan"}, "fusion_lon": 0.0, "lat": 38.9268185, "bike_id": "00277f4cdf53b927b289913611d6df59", "type": "electric_scooter", "is_reserved": 0, "lon": -77.02542683333333}, {"fusion_lat": 0.0, "name": "9b2a76f06ad59a1e3dfd3a5987e591a4", "is_disabled": 0, "rental_uris": {"android": "https://dc.lft.to/lastmile_qr_scan", "ios": "https://dc.lft.to/lastmile_qr_scan"}, "fusion_lon": 0.0, "lat": 38.88649783333334, "bike_id": "9b2a76f06ad59a1e3dfd3a5987e591a4", "type": "electric_scooter", "is_reserved": 0, "lon": -77.01976416666666}, {"fusion_lat": 0.0, "name": "096a314d0af0c9ae0498a91e597a7fc8", "is_disabled": 0, "rental_uris": {"android": "https://dc.lft.to/lastmile_qr_scan", "ios": "https://dc.lft.to/lastmile_qr_scan"}, "fusion_lon": 0.0, "lat": 38.88299516666667, "bike_id": "096a314d0af0c9ae0498a91e597a7fc8", "type": "electric_scooter", "is_reserved": 0, "lon": -76.9485425}, {"fusion_lat": 0.0, "name": "dfe8557aee1011f2dde9a24c31ce338a", "is_disabled": 0, "rental_uris": {"android": "https://dc.lft.to/lastmile_qr_scan", "ios": "https://dc.lft.to/lastmile_qr_scan"}, "fusion_lon": 0.0, "lat": 38.898358, "bike_id": "dfe8557aee1011f2dde9a24c31ce338a", "type": "electric_scooter", "is_reserved": 0, "lon": -77.02969766666666}, {"fusion_lat": 0.0, "name": "482c8d5c73909301b0c0012c114eb990", "is_disabled": 0, "rental_uris": {"android": "https://dc.lft.to/lastmile_qr_scan", "ios": "https://dc.lft.to/lastmile_qr_scan"}, "fusion_lon": 0.0, "lat": 38.9076975, "bike_id": "482c8d5c73909301b0c0012c114eb990", "type": "electric_scooter", "is_reserved": 0, "lon": -77.038364}, {"fusion_lat": 0.0, "name": "b70c532b07029e0cdefc05e0cb22835c", "is_disabled": 0, "rental_uris": {"android": "https://dc.lft.to/lastmile_qr_scan", "ios": "https://dc.lft.to/lastmile_qr_scan"}, "fusion_lon": 0.0, "lat": 38.909126, "bike_id": "b70c532b07029e0cdefc05e0cb22835c", "type": "electric_scooter", "is_reserved": 0, "lon": -77.0643025}, {"fusion_lat": 0.0, "name": "4cfeb186ee8c6deee00563e20c57f1e5", "is_disabled": 0, "rental_uris": {"android": "https://dc.lft.to/lastmile_qr_scan", "ios": "https://dc.lft.to/lastmile_qr_scan"}, "fusion_lon": 0.0, "lat": 38.8075365, "bike_id": "4cfeb186ee8c6deee00563e20c57f1e5", "type": "electric_bike", "is_reserved": 0, "lon": -77.094535}, {"fusion_lat": 0.0, "name": "4c27467c7b36d2d4f609435c859f7fc1", "is_disabled": 0, "rental_uris": {"android": "https://dc.lft.to/lastmile_qr_scan", "ios": "https://dc.lft.to/lastmile_qr_scan"}, "fusion_lon": 0.0, "lat": 38.85419266666667, "bike_id": "4c27467c7b36d2d4f609435c859f7fc1", "type": "electric_bike", "is_reserved": 0, "lon": -77.1207425}, {"fusion_lat": 0.0, "name": "c06a05d73041fe33de87070b716f8ba1", "is_disabled": 0, "rental_uris": {"android": "https://dc.lft.to/lastmile_qr_scan", "ios": "https://dc.lft.to/lastmile_qr_scan"}, "fusion_lon": 0.0, "lat": 38.91202366666667, "bike_id": "c06a05d73041fe33de87070b716f8ba1", "type": "electric_scooter", "is_reserved": 0, "lon": -77.0007885}, {"fusion_lat": 0.0, "name": "5dd36f5a35d2dd254ccbc13165e3eae2", "is_disabled": 0, "rental_uris": {"android": "https://dc.lft.to/lastmile_qr_scan", "ios": "https://dc.lft.to/lastmile_qr_scan"}, "fusion_lon": 0.0, "lat": 38.917126833333334, "bike_id": "5dd36f5a35d2dd254ccbc13165e3eae2", "type": "electric_scooter", "is_reserved": 0, "lon": -77.0323155}, {"fusion_lat": 0.0, "name": "556f05d5d2260fe855b3c023306ebf3d", "is_disabled": 0, "rental_uris": {"android": "https://dc.lft.to/lastmile_qr_scan", "ios": "https://dc.lft.to/lastmile_qr_scan"}, "fusion_lon": 0.0, "lat": 38.9234975, "bike_id": "556f05d5d2260fe855b3c023306ebf3d", "type": "electric_bike", "is_reserved": 0, "lon": -77.041507}, {"fusion_lat": 0.0, "name": "6e5a82feaaa862c9156a8032b10b636f", "is_disabled": 0, "rental_uris": {"android": "https://dc.lft.to/lastmile_qr_scan", "ios": "https://dc.lft.to/lastmile_qr_scan"}, "fusion_lon": 0.0, "lat": 38.909556, "bike_id": "6e5a82feaaa862c9156a8032b10b636f", "type": "electric_scooter", "is_reserved": 0, "lon": -77.048059}, {"fusion_lat": 0.0, "name": "b3d34e79e4152c09300f8e59d627925a", "is_disabled": 0, "rental_uris": {"android": "https://dc.lft.to/lastmile_qr_scan", "ios": "https://dc.lft.to/lastmile_qr_scan"}, "fusion_lon": 0.0, "lat": 38.93222516666667, "bike_id": "b3d34e79e4152c09300f8e59d627925a", "type": "electric_scooter", "is_reserved": 0, "lon": -76.9948935}, {"fusion_lat": 0.0, "name": "dbf95470d14b7a71c9cf41065eb50fe8", "is_disabled": 0, "rental_uris": {"android": "https://dc.lft.to/lastmile_qr_scan", "ios": "https://dc.lft.to/lastmile_qr_scan"}, "fusion_lon": 0.0, "lat": 38.91710466666667, "bike_id": "dbf95470d14b7a71c9cf41065eb50fe8", "type": "electric_scooter", "is_reserved": 0, "lon": -77.03876683333333}, {"fusion_lat": 0.0, "name": "c8ed1e53d089d99571a50e58a7b83fe6", "is_disabled": 0, "rental_uris": {"android": "https://dc.lft.to/lastmile_qr_scan", "ios": "https://dc.lft.to/lastmile_qr_scan"}, "fusion_lon": 0.0, "lat": 38.9192385, "bike_id": "c8ed1e53d089d99571a50e58a7b83fe6", "type": "electric_scooter", "is_reserved": 0, "lon": -77.02734966666667}, {"fusion_lat": 0.0, "name": "a528a0fb68cd4530697806b3f8d01cf8", "is_disabled": 0, "rental_uris": {"android": "https://dc.lft.to/lastmile_qr_scan", "ios": "https://dc.lft.to/lastmile_qr_scan"}, "fusion_lon": 0.0, "lat": 38.91711333333333, "bike_id": "a528a0fb68cd4530697806b3f8d01cf8", "type": "electric_scooter", "is_reserved": 0, "lon": -77.03867883333334}, {"fusion_lat": 0.0, "name": "b53ccc8e754f5f28253af60c63c16fe6", "is_disabled": 0, "rental_uris": {"android": "https://dc.lft.to/lastmile_qr_scan", "ios": "https://dc.lft.to/lastmile_qr_scan"}, "fusion_lon": 0.0, "lat": 38.90013416666667, "bike_id": "b53ccc8e754f5f28253af60c63c16fe6", "type": "electric_scooter", "is_reserved": 0, "lon": -77.01179883333333}, {"fusion_lat": 0.0, "name": "52ab6a70cd385c1309316a2d020a23da", "is_disabled": 0, "rental_uris": {"android": "https://dc.lft.to/lastmile_qr_scan", "ios": "https://dc.lft.to/lastmile_qr_scan"}, "fusion_lon": 0.0, "lat": 38.877290333333335, "bike_id": "52ab6a70cd385c1309316a2d020a23da", "type": "electric_scooter", "is_reserved": 0, "lon": -76.99670183333333}, {"fusion_lat": 0.0, "name": "ec06ba6f8e891e3bc4c8fef29500a1db", "is_disabled": 0, "rental_uris": {"android": "https://dc.lft.to/lastmile_qr_scan", "ios": "https://dc.lft.to/lastmile_qr_scan"}, "fusion_lon": 0.0, "lat": 39.03440283333333, "bike_id": "ec06ba6f8e891e3bc4c8fef29500a1db", "type": "electric_bike", "is_reserved": 0, "lon": -77.043126}, {"fusion_lat": 0.0, "name": "23c784ed7dc08846b53365b346c31e1e", "is_disabled": 0, "rental_uris": {"android": "https://dc.lft.to/lastmile_qr_scan", "ios": "https://dc.lft.to/lastmile_qr_scan"}, "fusion_lon": 0.0, "lat": 38.882990666666664, "bike_id": "23c784ed7dc08846b53365b346c31e1e", "type": "electric_scooter", "is_reserved": 0, "lon": -77.01754566666666}, {"fusion_lat": 0.0, "name": "a283afa90173c8d58348b2f2a7217f73", "is_disabled": 0, "rental_uris": {"android": "https://dc.lft.to/lastmile_qr_scan", "ios": "https://dc.lft.to/lastmile_qr_scan"}, "fusion_lon": 0.0, "lat": 38.87482166666667, "bike_id": "a283afa90173c8d58348b2f2a7217f73", "type": "electric_scooter", "is_reserved": 0, "lon": -77.0060415}, {"fusion_lat": 0.0, "name": "82a98243da64c2085dfd71959638e9a8", "is_disabled": 0, "rental_uris": {"android": "https://dc.lft.to/lastmile_qr_scan", "ios": "https://dc.lft.to/lastmile_qr_scan"}, "fusion_lon": 0.0, "lat": 38.853605, "bike_id": "82a98243da64c2085dfd71959638e9a8", "type": "electric_bike", "is_reserved": 0, "lon": -77.11495683333334}, {"fusion_lat": 0.0, "name": "2fb6a336e832ebf3ab8ed6fb007ac42e", "is_disabled": 0, "rental_uris": {"android": "https://dc.lft.to/lastmile_qr_scan", "ios": "https://dc.lft.to/lastmile_qr_scan"}, "fusion_lon": 0.0, "lat": 38.917148166666664, "bike_id": "2fb6a336e832ebf3ab8ed6fb007ac42e", "type": "electric_scooter", "is_reserved": 0, "lon": -77.038569}, {"fusion_lat": 0.0, "name": "12907ebd0aa78116ad3731222221a9a2", "is_disabled": 0, "rental_uris": {"android": "https://dc.lft.to/lastmile_qr_scan", "ios": "https://dc.lft.to/lastmile_qr_scan"}, "fusion_lon": 0.0, "lat": 38.887175666666664, "bike_id": "12907ebd0aa78116ad3731222221a9a2", "type": "electric_scooter", "is_reserved": 0, "lon": -77.02584166666666}, {"fusion_lat": 0.0, "name": "75e44c256888589ae1c378d77a7f8476", "is_disabled": 0, "rental_uris": {"android": "https://dc.lft.to/lastmile_qr_scan", "ios": "https://dc.lft.to/lastmile_qr_scan"}, "fusion_lon": 0.0, "lat": 38.915413, "bike_id": "75e44c256888589ae1c378d77a7f8476", "type": "electric_scooter", "is_reserved": 0, "lon": -77.0384755}, {"fusion_lat": 0.0, "name": "d7e7b2ecbf7abc2730f57522d350f63d", "is_disabled": 0, "rental_uris": {"android": "https://dc.lft.to/lastmile_qr_scan", "ios": "https://dc.lft.to/lastmile_qr_scan"}, "fusion_lon": 0.0, "lat": 38.897703666666665, "bike_id": "d7e7b2ecbf7abc2730f57522d350f63d", "type": "electric_scooter", "is_reserved": 0, "lon": -76.98458683333334}, {"fusion_lat": 0.0, "name": "03ceddf8aa4e1d6cac270d6207f08499", "is_disabled": 0, "rental_uris": {"android": "https://dc.lft.to/lastmile_qr_scan", "ios": "https://dc.lft.to/lastmile_qr_scan"}, "fusion_lon": 0.0, "lat": 38.91920316666667, "bike_id": "03ceddf8aa4e1d6cac270d6207f08499", "type": "electric_scooter", "is_reserved": 0, "lon": -77.024164}, {"fusion_lat": 0.0, "name": "0161387f05453d18582461506e710004", "is_disabled": 0, "rental_uris": {"android": "https://dc.lft.to/lastmile_qr_scan", "ios": "https://dc.lft.to/lastmile_qr_scan"}, "fusion_lon": 0.0, "lat": 38.94302283333333, "bike_id": "0161387f05453d18582461506e710004", "type": "electric_scooter", "is_reserved": 0, "lon": -77.06130216666666}, {"fusion_lat": 0.0, "name": "f50f51ab792908843d50ffea419a39e5", "is_disabled": 0, "rental_uris": {"android": "https://dc.lft.to/lastmile_qr_scan", "ios": "https://dc.lft.to/lastmile_qr_scan"}, "fusion_lon": 0.0, "lat": 38.923155666666666, "bike_id": "f50f51ab792908843d50ffea419a39e5", "type": "electric_scooter", "is_reserved": 0, "lon": -77.043482}, {"fusion_lat": 0.0, "name": "86f638ad0fe8da710f19e69592a1bd28", "is_disabled": 0, "rental_uris": {"android": "https://dc.lft.to/lastmile_qr_scan", "ios": "https://dc.lft.to/lastmile_qr_scan"}, "fusion_lon": 0.0, "lat": 38.87364566666667, "bike_id": "86f638ad0fe8da710f19e69592a1bd28", "type": "electric_scooter", "is_reserved": 0, "lon": -77.00058616666666}, {"fusion_lat": 0.0, "name": "ad3ed9cf4b0157af9697d24c2aec1fc2", "is_disabled": 0, "rental_uris": {"android": "https://dc.lft.to/lastmile_qr_scan", "ios": "https://dc.lft.to/lastmile_qr_scan"}, "fusion_lon": 0.0, "lat": 38.91672483333333, "bike_id": "ad3ed9cf4b0157af9697d24c2aec1fc2", "type": "electric_scooter", "is_reserved": 0, "lon": -77.03052383333333}, {"fusion_lat": 0.0, "name": "29f48a3484c077627bb804f63b545e2c", "is_disabled": 0, "rental_uris": {"android": "https://dc.lft.to/lastmile_qr_scan", "ios": "https://dc.lft.to/lastmile_qr_scan"}, "fusion_lon": 0.0, "lat": 38.9243935, "bike_id": "29f48a3484c077627bb804f63b545e2c", "type": "electric_scooter", "is_reserved": 0, "lon": -77.03324266666667}, {"fusion_lat": 0.0, "name": "fdbb0641554e7494e2f20575940080aa", "is_disabled": 0, "rental_uris": {"android": "https://dc.lft.to/lastmile_qr_scan", "ios": "https://dc.lft.to/lastmile_qr_scan"}, "fusion_lon": 0.0, "lat": 38.92034783333333, "bike_id": "fdbb0641554e7494e2f20575940080aa", "type": "electric_scooter", "is_reserved": 0, "lon": -77.04183933333333}, {"fusion_lat": 0.0, "name": "52defe48c7a2d2dccbe9cbad967ba2d8", "is_disabled": 0, "rental_uris": {"android": "https://dc.lft.to/lastmile_qr_scan", "ios": "https://dc.lft.to/lastmile_qr_scan"}, "fusion_lon": 0.0, "lat": 38.879008666666664, "bike_id": "52defe48c7a2d2dccbe9cbad967ba2d8", "type": "electric_scooter", "is_reserved": 0, "lon": -77.00573866666667}, {"fusion_lat": 0.0, "name": "289532fa57ebed8ab458aeeb6f3ef1b3", "is_disabled": 0, "rental_uris": {"android": "https://dc.lft.to/lastmile_qr_scan", "ios": "https://dc.lft.to/lastmile_qr_scan"}, "fusion_lon": 0.0, "lat": 38.88718133333333, "bike_id": "289532fa57ebed8ab458aeeb6f3ef1b3", "type": "electric_scooter", "is_reserved": 0, "lon": -76.9964595}, {"fusion_lat": 0.0, "name": "4d4086262663330af4c27571d599fe72", "is_disabled": 0, "rental_uris": {"android": "https://dc.lft.to/lastmile_qr_scan", "ios": "https://dc.lft.to/lastmile_qr_scan"}, "fusion_lon": 0.0, "lat": 38.909503666666666, "bike_id": "4d4086262663330af4c27571d599fe72", "type": "electric_scooter", "is_reserved": 0, "lon": -77.03444066666667}, {"fusion_lat": 0.0, "name": "ba4892d5a731a08c232c30d5f4075909", "is_disabled": 0, "rental_uris": {"android": "https://dc.lft.to/lastmile_qr_scan", "ios": "https://dc.lft.to/lastmile_qr_scan"}, "fusion_lon": 0.0, "lat": 38.89726916666667, "bike_id": "ba4892d5a731a08c232c30d5f4075909", "type": "electric_scooter", "is_reserved": 0, "lon": -77.0083375}, {"fusion_lat": 0.0, "name": "0a895345f451de258f674799ded8aa5c", "is_disabled": 0, "rental_uris": {"android": "https://dc.lft.to/lastmile_qr_scan", "ios": "https://dc.lft.to/lastmile_qr_scan"}, "fusion_lon": 0.0, "lat": 38.91683333333334, "bike_id": "0a895345f451de258f674799ded8aa5c", "type": "electric_scooter", "is_reserved": 0, "lon": -77.04140983333333}, {"fusion_lat": 0.0, "name": "831ff5062476880a679e26508fc1d422", "is_disabled": 0, "rental_uris": {"android": "https://dc.lft.to/lastmile_qr_scan", "ios": "https://dc.lft.to/lastmile_qr_scan"}, "fusion_lon": 0.0, "lat": 38.95797683333333, "bike_id": "831ff5062476880a679e26508fc1d422", "type": "electric_bike", "is_reserved": 0, "lon": -77.00191183333334}, {"fusion_lat": 0.0, "name": "77b8314371f826ca22f4970c3c2eece3", "is_disabled": 0, "rental_uris": {"android": "https://dc.lft.to/lastmile_qr_scan", "ios": "https://dc.lft.to/lastmile_qr_scan"}, "fusion_lon": 0.0, "lat": 38.93280583333333, "bike_id": "77b8314371f826ca22f4970c3c2eece3", "type": "electric_scooter", "is_reserved": 0, "lon": -77.04083466666667}, {"fusion_lat": 0.0, "name": "cf68ca76d60c2549bbc730571261e807", "is_disabled": 0, "rental_uris": {"android": "https://dc.lft.to/lastmile_qr_scan", "ios": "https://dc.lft.to/lastmile_qr_scan"}, "fusion_lon": 0.0, "lat": 38.90953783333333, "bike_id": "cf68ca76d60c2549bbc730571261e807", "type": "electric_scooter", "is_reserved": 0, "lon": -77.014389}, {"fusion_lat": 0.0, "name": "662e9c47929f0e0e804bc36739890e5e", "is_disabled": 0, "rental_uris": {"android": "https://dc.lft.to/lastmile_qr_scan", "ios": "https://dc.lft.to/lastmile_qr_scan"}, "fusion_lon": 0.0, "lat": 38.834991333333335, "bike_id": "662e9c47929f0e0e804bc36739890e5e", "type": "electric_bike", "is_reserved": 0, "lon": -77.09022983333334}, {"fusion_lat": 0.0, "name": "c2edcbe165a5e67adb41cd13ba2cc100", "is_disabled": 0, "rental_uris": {"android": "https://dc.lft.to/lastmile_qr_scan", "ios": "https://dc.lft.to/lastmile_qr_scan"}, "fusion_lon": 0.0, "lat": 38.91785933333333, "bike_id": "c2edcbe165a5e67adb41cd13ba2cc100", "type": "electric_scooter", "is_reserved": 0, "lon": -77.02284183333333}, {"fusion_lat": 0.0, "name": "3ec01fe3dd9739495106ee443f4741b5", "is_disabled": 0, "rental_uris": {"android": "https://dc.lft.to/lastmile_qr_scan", "ios": "https://dc.lft.to/lastmile_qr_scan"}, "fusion_lon": 0.0, "lat": 38.9206705, "bike_id": "3ec01fe3dd9739495106ee443f4741b5", "type": "electric_scooter", "is_reserved": 0, "lon": -77.02223616666667}, {"fusion_lat": 0.0, "name": "27c48144c95c5054a303f670667cc4dc", "is_disabled": 0, "rental_uris": {"android": "https://dc.lft.to/lastmile_qr_scan", "ios": "https://dc.lft.to/lastmile_qr_scan"}, "fusion_lon": 0.0, "lat": 38.918469333333334, "bike_id": "27c48144c95c5054a303f670667cc4dc", "type": "electric_scooter", "is_reserved": 0, "lon": -76.96535666666666}, {"fusion_lat": 0.0, "name": "e061ec1ecb64d5db3b7a3d88f20bd1c4", "is_disabled": 0, "rental_uris": {"android": "https://dc.lft.to/lastmile_qr_scan", "ios": "https://dc.lft.to/lastmile_qr_scan"}, "fusion_lon": 0.0, "lat": 38.8949885, "bike_id": "e061ec1ecb64d5db3b7a3d88f20bd1c4", "type": "electric_scooter", "is_reserved": 0, "lon": -77.00204133333334}, {"fusion_lat": 0.0, "name": "3fd6f65de3c02dcf9ff0c7a3aa21bb8b", "is_disabled": 0, "rental_uris": {"android": "https://dc.lft.to/lastmile_qr_scan", "ios": "https://dc.lft.to/lastmile_qr_scan"}, "fusion_lon": 0.0, "lat": 38.96747383333334, "bike_id": "3fd6f65de3c02dcf9ff0c7a3aa21bb8b", "type": "electric_bike", "is_reserved": 0, "lon": -76.98224516666667}, {"fusion_lat": 0.0, "name": "c97eaa3bb5ae95ba9bf5ea1a7d791425", "is_disabled": 0, "rental_uris": {"android": "https://dc.lft.to/lastmile_qr_scan", "ios": "https://dc.lft.to/lastmile_qr_scan"}, "fusion_lon": 0.0, "lat": 38.9120885, "bike_id": "c97eaa3bb5ae95ba9bf5ea1a7d791425", "type": "electric_scooter", "is_reserved": 0, "lon": -77.01979816666666}, {"fusion_lat": 0.0, "name": "aca130ab65b45dc5b955f69b245d32e1", "is_disabled": 0, "rental_uris": {"android": "https://dc.lft.to/lastmile_qr_scan", "ios": "https://dc.lft.to/lastmile_qr_scan"}, "fusion_lon": 0.0, "lat": 38.92448183333333, "bike_id": "aca130ab65b45dc5b955f69b245d32e1", "type": "electric_scooter", "is_reserved": 0, "lon": -77.0401765}, {"fusion_lat": 0.0, "name": "35833ba9ae1b5a39642fe73a6a5c715f", "is_disabled": 0, "rental_uris": {"android": "https://dc.lft.to/lastmile_qr_scan", "ios": "https://dc.lft.to/lastmile_qr_scan"}, "fusion_lon": 0.0, "lat": 38.914653666666666, "bike_id": "35833ba9ae1b5a39642fe73a6a5c715f", "type": "electric_scooter", "is_reserved": 0, "lon": -77.01554316666666}, {"fusion_lat": 0.0, "name": "1bcf020573446447572a931fe9ca51bd", "is_disabled": 0, "rental_uris": {"android": "https://dc.lft.to/lastmile_qr_scan", "ios": "https://dc.lft.to/lastmile_qr_scan"}, "fusion_lon": 0.0, "lat": 38.877675833333335, "bike_id": "1bcf020573446447572a931fe9ca51bd", "type": "electric_scooter", "is_reserved": 0, "lon": -77.00353716666666}, {"fusion_lat": 0.0, "name": "315d07972ecb1559e7059681884e2f86", "is_disabled": 0, "rental_uris": {"android": "https://dc.lft.to/lastmile_qr_scan", "ios": "https://dc.lft.to/lastmile_qr_scan"}, "fusion_lon": 0.0, "lat": 38.91812933333333, "bike_id": "315d07972ecb1559e7059681884e2f86", "type": "electric_scooter", "is_reserved": 0, "lon": -77.02476233333333}, {"fusion_lat": 0.0, "name": "cf12756186284538472b3391b931dffb", "is_disabled": 0, "rental_uris": {"android": "https://dc.lft.to/lastmile_qr_scan", "ios": "https://dc.lft.to/lastmile_qr_scan"}, "fusion_lon": 0.0, "lat": 38.90032433333333, "bike_id": "cf12756186284538472b3391b931dffb", "type": "electric_scooter", "is_reserved": 0, "lon": -77.02958516666666}, {"fusion_lat": 0.0, "name": "abda98da928030db77320073301cada7", "is_disabled": 0, "rental_uris": {"android": "https://dc.lft.to/lastmile_qr_scan", "ios": "https://dc.lft.to/lastmile_qr_scan"}, "fusion_lon": 0.0, "lat": 38.856079333333334, "bike_id": "abda98da928030db77320073301cada7", "type": "electric_bike", "is_reserved": 0, "lon": -77.108059}, {"fusion_lat": 0.0, "name": "34581e1a68a8ce1ccbd0ade2e6eeb994", "is_disabled": 0, "rental_uris": {"android": "https://dc.lft.to/lastmile_qr_scan", "ios": "https://dc.lft.to/lastmile_qr_scan"}, "fusion_lon": 0.0, "lat": 38.91223266666667, "bike_id": "34581e1a68a8ce1ccbd0ade2e6eeb994", "type": "electric_scooter", "is_reserved": 0, "lon": -77.047822}, {"fusion_lat": 0.0, "name": "a1bdd2765c0c41afe0dffb9583ebbf07", "is_disabled": 0, "rental_uris": {"android": "https://dc.lft.to/lastmile_qr_scan", "ios": "https://dc.lft.to/lastmile_qr_scan"}, "fusion_lon": 0.0, "lat": 38.90512316666667, "bike_id": "a1bdd2765c0c41afe0dffb9583ebbf07", "type": "electric_scooter", "is_reserved": 0, "lon": -77.01711916666666}, {"fusion_lat": 0.0, "name": "22fc730fc0edea6f86f884504f11acd7", "is_disabled": 0, "rental_uris": {"android": "https://dc.lft.to/lastmile_qr_scan", "ios": "https://dc.lft.to/lastmile_qr_scan"}, "fusion_lon": 0.0, "lat": 38.89920633333333, "bike_id": "22fc730fc0edea6f86f884504f11acd7", "type": "electric_scooter", "is_reserved": 0, "lon": -77.05153383333334}, {"fusion_lat": 0.0, "name": "681c89bf068315d117f5e396ffcf53d7", "is_disabled": 0, "rental_uris": {"android": "https://dc.lft.to/lastmile_qr_scan", "ios": "https://dc.lft.to/lastmile_qr_scan"}, "fusion_lon": 0.0, "lat": 38.90270683333333, "bike_id": "681c89bf068315d117f5e396ffcf53d7", "type": "electric_scooter", "is_reserved": 0, "lon": -76.98988483333333}, {"fusion_lat": 0.0, "name": "262c8a6c43103721e0124043c55b871f", "is_disabled": 0, "rental_uris": {"android": "https://dc.lft.to/lastmile_qr_scan", "ios": "https://dc.lft.to/lastmile_qr_scan"}, "fusion_lon": 0.0, "lat": 38.90957683333333, "bike_id": "262c8a6c43103721e0124043c55b871f", "type": "electric_scooter", "is_reserved": 0, "lon": -77.03941583333334}, {"fusion_lat": 0.0, "name": "ce79fc084068ec8a9c7abc869a667d1c", "is_disabled": 0, "rental_uris": {"android": "https://dc.lft.to/lastmile_qr_scan", "ios": "https://dc.lft.to/lastmile_qr_scan"}, "fusion_lon": 0.0, "lat": 38.911139, "bike_id": "ce79fc084068ec8a9c7abc869a667d1c", "type": "electric_scooter", "is_reserved": 0, "lon": -77.011512}, {"fusion_lat": 0.0, "name": "9b6382819a1b9a495470c1356448f37e", "is_disabled": 0, "rental_uris": {"android": "https://dc.lft.to/lastmile_qr_scan", "ios": "https://dc.lft.to/lastmile_qr_scan"}, "fusion_lon": 0.0, "lat": 38.95600683333333, "bike_id": "9b6382819a1b9a495470c1356448f37e", "type": "electric_scooter", "is_reserved": 0, "lon": -77.03353366666667}, {"fusion_lat": 0.0, "name": "49ceaebac558341653d3fc8b44852f02", "is_disabled": 0, "rental_uris": {"android": "https://dc.lft.to/lastmile_qr_scan", "ios": "https://dc.lft.to/lastmile_qr_scan"}, "fusion_lon": 0.0, "lat": 38.93823066666667, "bike_id": "49ceaebac558341653d3fc8b44852f02", "type": "electric_scooter", "is_reserved": 0, "lon": -77.032843}, {"fusion_lat": 0.0, "name": "86a0778de41bfc4c7f5895ab5d3cc24c", "is_disabled": 0, "rental_uris": {"android": "https://dc.lft.to/lastmile_qr_scan", "ios": "https://dc.lft.to/lastmile_qr_scan"}, "fusion_lon": 0.0, "lat": 38.937754, "bike_id": "86a0778de41bfc4c7f5895ab5d3cc24c", "type": "electric_scooter", "is_reserved": 0, "lon": -77.03266566666667}, {"fusion_lat": 0.0, "name": "5a1cc0614e86fe0505ff0559c07b56e1", "is_disabled": 0, "rental_uris": {"android": "https://dc.lft.to/lastmile_qr_scan", "ios": "https://dc.lft.to/lastmile_qr_scan"}, "fusion_lon": 0.0, "lat": 38.90411016666667, "bike_id": "5a1cc0614e86fe0505ff0559c07b56e1", "type": "electric_scooter", "is_reserved": 0, "lon": -77.02592783333333}, {"fusion_lat": 0.0, "name": "e06efd2c48a39e6ca598a494030d3bd6", "is_disabled": 0, "rental_uris": {"android": "https://dc.lft.to/lastmile_qr_scan", "ios": "https://dc.lft.to/lastmile_qr_scan"}, "fusion_lon": 0.0, "lat": 38.8983195, "bike_id": "e06efd2c48a39e6ca598a494030d3bd6", "type": "electric_scooter", "is_reserved": 0, "lon": -77.02964816666666}, {"fusion_lat": 0.0, "name": "86986c70cae6050701682a8711692c33", "is_disabled": 0, "rental_uris": {"android": "https://dc.lft.to/lastmile_qr_scan", "ios": "https://dc.lft.to/lastmile_qr_scan"}, "fusion_lon": 0.0, "lat": 38.9309625, "bike_id": "86986c70cae6050701682a8711692c33", "type": "electric_scooter", "is_reserved": 0, "lon": -77.02381683333333}, {"fusion_lat": 0.0, "name": "596180f5c3e05c769f97f2b35b31be24", "is_disabled": 0, "rental_uris": {"android": "https://dc.lft.to/lastmile_qr_scan", "ios": "https://dc.lft.to/lastmile_qr_scan"}, "fusion_lon": 0.0, "lat": 38.919191833333336, "bike_id": "596180f5c3e05c769f97f2b35b31be24", "type": "electric_scooter", "is_reserved": 0, "lon": -77.02422883333334}, {"fusion_lat": 0.0, "name": "01280b86d9f15b3c5280683b999c33b5", "is_disabled": 0, "rental_uris": {"android": "https://dc.lft.to/lastmile_qr_scan", "ios": "https://dc.lft.to/lastmile_qr_scan"}, "fusion_lon": 0.0, "lat": 38.905592, "bike_id": "01280b86d9f15b3c5280683b999c33b5", "type": "electric_scooter", "is_reserved": 0, "lon": -77.04447416666666}, {"fusion_lat": 0.0, "name": "53eb4227172ea1044433f4df50f554b3", "is_disabled": 0, "rental_uris": {"android": "https://dc.lft.to/lastmile_qr_scan", "ios": "https://dc.lft.to/lastmile_qr_scan"}, "fusion_lon": 0.0, "lat": 38.90940633333334, "bike_id": "53eb4227172ea1044433f4df50f554b3", "type": "electric_scooter", "is_reserved": 0, "lon": -77.048716}, {"fusion_lat": 0.0, "name": "bb97b84a9c756d705ee824076331c12b", "is_disabled": 0, "rental_uris": {"android": "https://dc.lft.to/lastmile_qr_scan", "ios": "https://dc.lft.to/lastmile_qr_scan"}, "fusion_lon": 0.0, "lat": 38.897274333333336, "bike_id": "bb97b84a9c756d705ee824076331c12b", "type": "electric_scooter", "is_reserved": 0, "lon": -77.04679083333333}, {"fusion_lat": 0.0, "name": "567eb03ef26fa1796ed73172952ed32c", "is_disabled": 0, "rental_uris": {"android": "https://dc.lft.to/lastmile_qr_scan", "ios": "https://dc.lft.to/lastmile_qr_scan"}, "fusion_lon": 0.0, "lat": 38.91186416666667, "bike_id": "567eb03ef26fa1796ed73172952ed32c", "type": "electric_scooter", "is_reserved": 0, "lon": -77.03755816666667}, {"fusion_lat": 0.0, "name": "5d3bedbec9a5ad75a7ac7b7138fb3274", "is_disabled": 0, "rental_uris": {"android": "https://dc.lft.to/lastmile_qr_scan", "ios": "https://dc.lft.to/lastmile_qr_scan"}, "fusion_lon": 0.0, "lat": 38.90957266666667, "bike_id": "5d3bedbec9a5ad75a7ac7b7138fb3274", "type": "electric_scooter", "is_reserved": 0, "lon": -77.0460325}, {"fusion_lat": 0.0, "name": "b3286c2dbe2a81378eb39396cf95856c", "is_disabled": 0, "rental_uris": {"android": "https://dc.lft.to/lastmile_qr_scan", "ios": "https://dc.lft.to/lastmile_qr_scan"}, "fusion_lon": 0.0, "lat": 38.9047095, "bike_id": "b3286c2dbe2a81378eb39396cf95856c", "type": "electric_scooter", "is_reserved": 0, "lon": -77.026026}, {"fusion_lat": 0.0, "name": "2376ff8789c84fd96144f3fa68cef1e9", "is_disabled": 0, "rental_uris": {"android": "https://dc.lft.to/lastmile_qr_scan", "ios": "https://dc.lft.to/lastmile_qr_scan"}, "fusion_lon": 0.0, "lat": 38.906793666666665, "bike_id": "2376ff8789c84fd96144f3fa68cef1e9", "type": "electric_scooter", "is_reserved": 0, "lon": -77.03636483333334}, {"fusion_lat": 0.0, "name": "51f7f992ec3aea255f4c04a005e21b5f", "is_disabled": 0, "rental_uris": {"android": "https://dc.lft.to/lastmile_qr_scan", "ios": "https://dc.lft.to/lastmile_qr_scan"}, "fusion_lon": 0.0, "lat": 38.904861, "bike_id": "51f7f992ec3aea255f4c04a005e21b5f", "type": "electric_scooter", "is_reserved": 0, "lon": -77.048807}, {"fusion_lat": 0.0, "name": "7b6c9f1e3433c021da9505c151048fad", "is_disabled": 0, "rental_uris": {"android": "https://dc.lft.to/lastmile_qr_scan", "ios": "https://dc.lft.to/lastmile_qr_scan"}, "fusion_lon": 0.0, "lat": 38.91949783333333, "bike_id": "7b6c9f1e3433c021da9505c151048fad", "type": "electric_bike", "is_reserved": 0, "lon": -77.22127466666667}, {"fusion_lat": 0.0, "name": "1bbef57107a7e2b32d021f97b56ed48b", "is_disabled": 0, "rental_uris": {"android": "https://dc.lft.to/lastmile_qr_scan", "ios": "https://dc.lft.to/lastmile_qr_scan"}, "fusion_lon": 0.0, "lat": 38.91102433333333, "bike_id": "1bbef57107a7e2b32d021f97b56ed48b", "type": "electric_scooter", "is_reserved": 0, "lon": -77.00209716666667}, {"fusion_lat": 0.0, "name": "84694774bfc5a64af71628939b859194", "is_disabled": 0, "rental_uris": {"android": "https://dc.lft.to/lastmile_qr_scan", "ios": "https://dc.lft.to/lastmile_qr_scan"}, "fusion_lon": 0.0, "lat": 38.88986633333333, "bike_id": "84694774bfc5a64af71628939b859194", "type": "electric_bike", "is_reserved": 0, "lon": -77.071315}, {"fusion_lat": 0.0, "name": "d52c7cd5590afbe27d31332258b054a7", "is_disabled": 0, "rental_uris": {"android": "https://dc.lft.to/lastmile_qr_scan", "ios": "https://dc.lft.to/lastmile_qr_scan"}, "fusion_lon": 0.0, "lat": 38.917502666666664, "bike_id": "d52c7cd5590afbe27d31332258b054a7", "type": "electric_scooter", "is_reserved": 0, "lon": -77.0693175}, {"fusion_lat": 0.0, "name": "8ebf9252b593ce102c31643385fb725e", "is_disabled": 0, "rental_uris": {"android": "https://dc.lft.to/lastmile_qr_scan", "ios": "https://dc.lft.to/lastmile_qr_scan"}, "fusion_lon": 0.0, "lat": 38.909173333333335, "bike_id": "8ebf9252b593ce102c31643385fb725e", "type": "electric_scooter", "is_reserved": 0, "lon": -77.04213233333333}, {"fusion_lat": 0.0, "name": "bd70e58afae01bed4920e109da2b05aa", "is_disabled": 0, "rental_uris": {"android": "https://dc.lft.to/lastmile_qr_scan", "ios": "https://dc.lft.to/lastmile_qr_scan"}, "fusion_lon": 0.0, "lat": 38.879987666666665, "bike_id": "bd70e58afae01bed4920e109da2b05aa", "type": "electric_bike", "is_reserved": 0, "lon": -77.02195016666667}, {"fusion_lat": 0.0, "name": "18316cde25ed756e1f04a6fba6a21f40", "is_disabled": 0, "rental_uris": {"android": "https://dc.lft.to/lastmile_qr_scan", "ios": "https://dc.lft.to/lastmile_qr_scan"}, "fusion_lon": 0.0, "lat": 38.9160815, "bike_id": "18316cde25ed756e1f04a6fba6a21f40", "type": "electric_scooter", "is_reserved": 0, "lon": -77.02388733333333}, {"fusion_lat": 0.0, "name": "f02cc9b2fcbd39837f59f8895fb42ed4", "is_disabled": 0, "rental_uris": {"android": "https://dc.lft.to/lastmile_qr_scan", "ios": "https://dc.lft.to/lastmile_qr_scan"}, "fusion_lon": 0.0, "lat": 38.870802166666664, "bike_id": "f02cc9b2fcbd39837f59f8895fb42ed4", "type": "electric_scooter", "is_reserved": 0, "lon": -77.01079716666666}, {"fusion_lat": 0.0, "name": "8e4a7091322369e8224f2ec87735238c", "is_disabled": 0, "rental_uris": {"android": "https://dc.lft.to/lastmile_qr_scan", "ios": "https://dc.lft.to/lastmile_qr_scan"}, "fusion_lon": 0.0, "lat": 38.923224166666664, "bike_id": "8e4a7091322369e8224f2ec87735238c", "type": "electric_bike", "is_reserved": 0, "lon": -77.0389615}, {"fusion_lat": 0.0, "name": "4756f12133751adc718913c58fb280ea", "is_disabled": 0, "rental_uris": {"android": "https://dc.lft.to/lastmile_qr_scan", "ios": "https://dc.lft.to/lastmile_qr_scan"}, "fusion_lon": 0.0, "lat": 38.93826416666667, "bike_id": "4756f12133751adc718913c58fb280ea", "type": "electric_scooter", "is_reserved": 0, "lon": -76.99187}, {"fusion_lat": 0.0, "name": "75620afa82ae96d6e4c2b757597b170d", "is_disabled": 0, "rental_uris": {"android": "https://dc.lft.to/lastmile_qr_scan", "ios": "https://dc.lft.to/lastmile_qr_scan"}, "fusion_lon": 0.0, "lat": 38.903953666666666, "bike_id": "75620afa82ae96d6e4c2b757597b170d", "type": "electric_scooter", "is_reserved": 0, "lon": -77.03822316666667}, {"fusion_lat": 0.0, "name": "b9c0dbfb471e84a03e23a205c6ec0297", "is_disabled": 0, "rental_uris": {"android": "https://dc.lft.to/lastmile_qr_scan", "ios": "https://dc.lft.to/lastmile_qr_scan"}, "fusion_lon": 0.0, "lat": 38.908766166666666, "bike_id": "b9c0dbfb471e84a03e23a205c6ec0297", "type": "electric_scooter", "is_reserved": 0, "lon": -76.99794633333333}, {"fusion_lat": 0.0, "name": "2209d0f246a8697cafa12abddf52c8c1", "is_disabled": 0, "rental_uris": {"android": "https://dc.lft.to/lastmile_qr_scan", "ios": "https://dc.lft.to/lastmile_qr_scan"}, "fusion_lon": 0.0, "lat": 38.917237666666665, "bike_id": "2209d0f246a8697cafa12abddf52c8c1", "type": "electric_scooter", "is_reserved": 0, "lon": -77.02694083333333}, {"fusion_lat": 0.0, "name": "2e6175915f70d348761de8e2cf97293d", "is_disabled": 0, "rental_uris": {"android": "https://dc.lft.to/lastmile_qr_scan", "ios": "https://dc.lft.to/lastmile_qr_scan"}, "fusion_lon": 0.0, "lat": 38.90778133333333, "bike_id": "2e6175915f70d348761de8e2cf97293d", "type": "electric_scooter", "is_reserved": 0, "lon": -77.03522433333333}, {"fusion_lat": 0.0, "name": "a1d3ab5b52e9aac2bab70cfc5d21dfd1", "is_disabled": 0, "rental_uris": {"android": "https://dc.lft.to/lastmile_qr_scan", "ios": "https://dc.lft.to/lastmile_qr_scan"}, "fusion_lon": 0.0, "lat": 38.927462166666665, "bike_id": "a1d3ab5b52e9aac2bab70cfc5d21dfd1", "type": "electric_scooter", "is_reserved": 0, "lon": -77.024216}, {"fusion_lat": 0.0, "name": "274d0aee8d6bd8a97b4ba7b9d626aaa1", "is_disabled": 0, "rental_uris": {"android": "https://dc.lft.to/lastmile_qr_scan", "ios": "https://dc.lft.to/lastmile_qr_scan"}, "fusion_lon": 0.0, "lat": 38.923010833333336, "bike_id": "274d0aee8d6bd8a97b4ba7b9d626aaa1", "type": "electric_scooter", "is_reserved": 0, "lon": -77.04225816666667}, {"fusion_lat": 0.0, "name": "1bf877931b81cb88d1e3bcdb376abd9e", "is_disabled": 0, "rental_uris": {"android": "https://dc.lft.to/lastmile_qr_scan", "ios": "https://dc.lft.to/lastmile_qr_scan"}, "fusion_lon": 0.0, "lat": 38.87179033333334, "bike_id": "1bf877931b81cb88d1e3bcdb376abd9e", "type": "electric_scooter", "is_reserved": 0, "lon": -77.00610533333334}, {"fusion_lat": 0.0, "name": "320b6aac466fac12a3345c9904ef50ac", "is_disabled": 0, "rental_uris": {"android": "https://dc.lft.to/lastmile_qr_scan", "ios": "https://dc.lft.to/lastmile_qr_scan"}, "fusion_lon": 0.0, "lat": 38.9575545, "bike_id": "320b6aac466fac12a3345c9904ef50ac", "type": "electric_scooter", "is_reserved": 0, "lon": -77.02054466666667}, {"fusion_lat": 0.0, "name": "375f2f0e55349c180ea1cf0f640956ff", "is_disabled": 0, "rental_uris": {"android": "https://dc.lft.to/lastmile_qr_scan", "ios": "https://dc.lft.to/lastmile_qr_scan"}, "fusion_lon": 0.0, "lat": 38.921186666666664, "bike_id": "375f2f0e55349c180ea1cf0f640956ff", "type": "electric_scooter", "is_reserved": 0, "lon": -77.047007}, {"fusion_lat": 0.0, "name": "fade217a0a5b00c04848f163b342dac9", "is_disabled": 0, "rental_uris": {"android": "https://dc.lft.to/lastmile_qr_scan", "ios": "https://dc.lft.to/lastmile_qr_scan"}, "fusion_lon": 0.0, "lat": 38.881924, "bike_id": "fade217a0a5b00c04848f163b342dac9", "type": "electric_scooter", "is_reserved": 0, "lon": -76.9948265}, {"fusion_lat": 0.0, "name": "f7cd175480602971b102c558f220315d", "is_disabled": 0, "rental_uris": {"android": "https://dc.lft.to/lastmile_qr_scan", "ios": "https://dc.lft.to/lastmile_qr_scan"}, "fusion_lon": 0.0, "lat": 38.887272833333334, "bike_id": "f7cd175480602971b102c558f220315d", "type": "electric_scooter", "is_reserved": 0, "lon": -77.017696}, {"fusion_lat": 0.0, "name": "20e4ede1ec7d369f891f6e86d16dd29d", "is_disabled": 0, "rental_uris": {"android": "https://dc.lft.to/lastmile_qr_scan", "ios": "https://dc.lft.to/lastmile_qr_scan"}, "fusion_lon": 0.0, "lat": 38.89656466666667, "bike_id": "20e4ede1ec7d369f891f6e86d16dd29d", "type": "electric_scooter", "is_reserved": 0, "lon": -77.0334875}, {"fusion_lat": 0.0, "name": "3daa40c9cfdbe963038f7d81702e35e6", "is_disabled": 0, "rental_uris": {"android": "https://dc.lft.to/lastmile_qr_scan", "ios": "https://dc.lft.to/lastmile_qr_scan"}, "fusion_lon": 0.0, "lat": 38.91093, "bike_id": "3daa40c9cfdbe963038f7d81702e35e6", "type": "electric_scooter", "is_reserved": 0, "lon": -77.04482183333333}, {"fusion_lat": 0.0, "name": "b632722af65c86a7c79817bd9f26fc85", "is_disabled": 0, "rental_uris": {"android": "https://dc.lft.to/lastmile_qr_scan", "ios": "https://dc.lft.to/lastmile_qr_scan"}, "fusion_lon": 0.0, "lat": 38.90059466666666, "bike_id": "b632722af65c86a7c79817bd9f26fc85", "type": "electric_scooter", "is_reserved": 0, "lon": -76.92741833333334}, {"fusion_lat": 0.0, "name": "afd69a5a6053bbeef0ec7402809169a8", "is_disabled": 0, "rental_uris": {"android": "https://dc.lft.to/lastmile_qr_scan", "ios": "https://dc.lft.to/lastmile_qr_scan"}, "fusion_lon": 0.0, "lat": 38.91912133333334, "bike_id": "afd69a5a6053bbeef0ec7402809169a8", "type": "electric_scooter", "is_reserved": 0, "lon": -77.028157}, {"fusion_lat": 0.0, "name": "a761f22c354e2a99f17789433e491dfd", "is_disabled": 0, "rental_uris": {"android": "https://dc.lft.to/lastmile_qr_scan", "ios": "https://dc.lft.to/lastmile_qr_scan"}, "fusion_lon": 0.0, "lat": 38.807611666666666, "bike_id": "a761f22c354e2a99f17789433e491dfd", "type": "electric_bike", "is_reserved": 0, "lon": -77.12987566666666}, {"fusion_lat": 0.0, "name": "cedfb95f00823f767abcb6b75e0e7ab4", "is_disabled": 0, "rental_uris": {"android": "https://dc.lft.to/lastmile_qr_scan", "ios": "https://dc.lft.to/lastmile_qr_scan"}, "fusion_lon": 0.0, "lat": 38.89540566666667, "bike_id": "cedfb95f00823f767abcb6b75e0e7ab4", "type": "electric_scooter", "is_reserved": 0, "lon": -76.94949633333333}, {"fusion_lat": 0.0, "name": "62def6d342a861342cabf1fefd74e1ae", "is_disabled": 0, "rental_uris": {"android": "https://dc.lft.to/lastmile_qr_scan", "ios": "https://dc.lft.to/lastmile_qr_scan"}, "fusion_lon": 0.0, "lat": 38.961161833333335, "bike_id": "62def6d342a861342cabf1fefd74e1ae", "type": "electric_scooter", "is_reserved": 0, "lon": -77.02789083333333}, {"fusion_lat": 0.0, "name": "378dfaa494d19992de469efcd14c03a2", "is_disabled": 0, "rental_uris": {"android": "https://dc.lft.to/lastmile_qr_scan", "ios": "https://dc.lft.to/lastmile_qr_scan"}, "fusion_lon": 0.0, "lat": 38.90118066666667, "bike_id": "378dfaa494d19992de469efcd14c03a2", "type": "electric_scooter", "is_reserved": 0, "lon": -77.00215033333333}, {"fusion_lat": 0.0, "name": "7539075f6d0843c701478cd31c9c75e6", "is_disabled": 0, "rental_uris": {"android": "https://dc.lft.to/lastmile_qr_scan", "ios": "https://dc.lft.to/lastmile_qr_scan"}, "fusion_lon": 0.0, "lat": 38.918038833333334, "bike_id": "7539075f6d0843c701478cd31c9c75e6", "type": "electric_scooter", "is_reserved": 0, "lon": -77.02875883333333}, {"fusion_lat": 0.0, "name": "5340a28c1fd27ba2791a1411fae7602d", "is_disabled": 0, "rental_uris": {"android": "https://dc.lft.to/lastmile_qr_scan", "ios": "https://dc.lft.to/lastmile_qr_scan"}, "fusion_lon": 0.0, "lat": 38.887267666666666, "bike_id": "5340a28c1fd27ba2791a1411fae7602d", "type": "electric_scooter", "is_reserved": 0, "lon": -77.03218466666667}, {"fusion_lat": 0.0, "name": "cc201dd58fe286183db5d31f19849570", "is_disabled": 0, "rental_uris": {"android": "https://dc.lft.to/lastmile_qr_scan", "ios": "https://dc.lft.to/lastmile_qr_scan"}, "fusion_lon": 0.0, "lat": 38.89684116666667, "bike_id": "cc201dd58fe286183db5d31f19849570", "type": "electric_scooter", "is_reserved": 0, "lon": -77.050857}, {"fusion_lat": 0.0, "name": "dc4faa86e73a411e93228f69fbd29eea", "is_disabled": 0, "rental_uris": {"android": "https://dc.lft.to/lastmile_qr_scan", "ios": "https://dc.lft.to/lastmile_qr_scan"}, "fusion_lon": 0.0, "lat": 38.887330666666664, "bike_id": "dc4faa86e73a411e93228f69fbd29eea", "type": "electric_scooter", "is_reserved": 0, "lon": -77.01513766666666}, {"fusion_lat": 0.0, "name": "b55b10dd98b1f20e00dc368180e75fcc", "is_disabled": 0, "rental_uris": {"android": "https://dc.lft.to/lastmile_qr_scan", "ios": "https://dc.lft.to/lastmile_qr_scan"}, "fusion_lon": 0.0, "lat": 38.9203125, "bike_id": "b55b10dd98b1f20e00dc368180e75fcc", "type": "electric_bike", "is_reserved": 0, "lon": -76.97951283333333}, {"fusion_lat": 0.0, "name": "e9c1407e389c7e2a8bd1e5c37af82495", "is_disabled": 0, "rental_uris": {"android": "https://dc.lft.to/lastmile_qr_scan", "ios": "https://dc.lft.to/lastmile_qr_scan"}, "fusion_lon": 0.0, "lat": 38.875306, "bike_id": "e9c1407e389c7e2a8bd1e5c37af82495", "type": "electric_scooter", "is_reserved": 0, "lon": -77.00506283333333}, {"fusion_lat": 0.0, "name": "a81ed50b81aec905bca3dd44d0a68748", "is_disabled": 0, "rental_uris": {"android": "https://dc.lft.to/lastmile_qr_scan", "ios": "https://dc.lft.to/lastmile_qr_scan"}, "fusion_lon": 0.0, "lat": 38.89220233333333, "bike_id": "a81ed50b81aec905bca3dd44d0a68748", "type": "electric_scooter", "is_reserved": 0, "lon": -77.023121}, {"fusion_lat": 0.0, "name": "37ad842f01f10daa91d8a049584f6875", "is_disabled": 0, "rental_uris": {"android": "https://dc.lft.to/lastmile_qr_scan", "ios": "https://dc.lft.to/lastmile_qr_scan"}, "fusion_lon": 0.0, "lat": 38.9001755, "bike_id": "37ad842f01f10daa91d8a049584f6875", "type": "electric_scooter", "is_reserved": 0, "lon": -76.99299233333333}, {"fusion_lat": 0.0, "name": "6df59d5c6a32aa01923f9af231ee4ff3", "is_disabled": 0, "rental_uris": {"android": "https://dc.lft.to/lastmile_qr_scan", "ios": "https://dc.lft.to/lastmile_qr_scan"}, "fusion_lon": 0.0, "lat": 38.93181666666667, "bike_id": "6df59d5c6a32aa01923f9af231ee4ff3", "type": "electric_scooter", "is_reserved": 0, "lon": -77.03302383333333}, {"fusion_lat": 0.0, "name": "94f5a8f47b0ad6c7612700b70ac04042", "is_disabled": 0, "rental_uris": {"android": "https://dc.lft.to/lastmile_qr_scan", "ios": "https://dc.lft.to/lastmile_qr_scan"}, "fusion_lon": 0.0, "lat": 38.93407466666667, "bike_id": "94f5a8f47b0ad6c7612700b70ac04042", "type": "electric_scooter", "is_reserved": 0, "lon": -77.0219895}, {"fusion_lat": 0.0, "name": "78fb31c0082542c88216407627c46a65", "is_disabled": 0, "rental_uris": {"android": "https://dc.lft.to/lastmile_qr_scan", "ios": "https://dc.lft.to/lastmile_qr_scan"}, "fusion_lon": 0.0, "lat": 38.90148083333333, "bike_id": "78fb31c0082542c88216407627c46a65", "type": "electric_scooter", "is_reserved": 0, "lon": -77.0258515}, {"fusion_lat": 0.0, "name": "2816ab5fa607fe9ce775faba17dbc67f", "is_disabled": 0, "rental_uris": {"android": "https://dc.lft.to/lastmile_qr_scan", "ios": "https://dc.lft.to/lastmile_qr_scan"}, "fusion_lon": 0.0, "lat": 38.90543983333333, "bike_id": "2816ab5fa607fe9ce775faba17dbc67f", "type": "electric_scooter", "is_reserved": 0, "lon": -77.04657683333333}, {"fusion_lat": 0.0, "name": "46427bf1f12277c79c23d87f9aecd874", "is_disabled": 0, "rental_uris": {"android": "https://dc.lft.to/lastmile_qr_scan", "ios": "https://dc.lft.to/lastmile_qr_scan"}, "fusion_lon": 0.0, "lat": 38.930111833333335, "bike_id": "46427bf1f12277c79c23d87f9aecd874", "type": "electric_scooter", "is_reserved": 0, "lon": -77.032469}, {"fusion_lat": 0.0, "name": "00f9c28b803bd69459007a9398bb7f2e", "is_disabled": 0, "rental_uris": {"android": "https://dc.lft.to/lastmile_qr_scan", "ios": "https://dc.lft.to/lastmile_qr_scan"}, "fusion_lon": 0.0, "lat": 38.909564, "bike_id": "00f9c28b803bd69459007a9398bb7f2e", "type": "electric_scooter", "is_reserved": 0, "lon": -77.02762216666666}, {"fusion_lat": 0.0, "name": "db1198abf9e8493a564e40ae5da8026d", "is_disabled": 0, "rental_uris": {"android": "https://dc.lft.to/lastmile_qr_scan", "ios": "https://dc.lft.to/lastmile_qr_scan"}, "fusion_lon": 0.0, "lat": 38.9006725, "bike_id": "db1198abf9e8493a564e40ae5da8026d", "type": "electric_scooter", "is_reserved": 0, "lon": -76.94692033333334}, {"fusion_lat": 0.0, "name": "665f73371cd467c680c41de7e114275d", "is_disabled": 0, "rental_uris": {"android": "https://dc.lft.to/lastmile_qr_scan", "ios": "https://dc.lft.to/lastmile_qr_scan"}, "fusion_lon": 0.0, "lat": 38.954194666666666, "bike_id": "665f73371cd467c680c41de7e114275d", "type": "electric_scooter", "is_reserved": 0, "lon": -77.02767316666667}, {"fusion_lat": 0.0, "name": "0da1bf88963112e3f0bfee42dfdc4c3e", "is_disabled": 0, "rental_uris": {"android": "https://dc.lft.to/lastmile_qr_scan", "ios": "https://dc.lft.to/lastmile_qr_scan"}, "fusion_lon": 0.0, "lat": 38.90896466666667, "bike_id": "0da1bf88963112e3f0bfee42dfdc4c3e", "type": "electric_scooter", "is_reserved": 0, "lon": -77.044037}, {"fusion_lat": 0.0, "name": "730d5c010dab4e36a51225224ea240ff", "is_disabled": 0, "rental_uris": {"android": "https://dc.lft.to/lastmile_qr_scan", "ios": "https://dc.lft.to/lastmile_qr_scan"}, "fusion_lon": 0.0, "lat": 38.89349383333333, "bike_id": "730d5c010dab4e36a51225224ea240ff", "type": "electric_scooter", "is_reserved": 0, "lon": -76.98656416666667}, {"fusion_lat": 0.0, "name": "6d7d70a34e6ccce3e4872283d55f83cf", "is_disabled": 0, "rental_uris": {"android": "https://dc.lft.to/lastmile_qr_scan", "ios": "https://dc.lft.to/lastmile_qr_scan"}, "fusion_lon": 0.0, "lat": 38.91627666666667, "bike_id": "6d7d70a34e6ccce3e4872283d55f83cf", "type": "electric_scooter", "is_reserved": 0, "lon": -77.0507465}, {"fusion_lat": 0.0, "name": "0f31efec2aa7575f22ab690753a50947", "is_disabled": 0, "rental_uris": {"android": "https://dc.lft.to/lastmile_qr_scan", "ios": "https://dc.lft.to/lastmile_qr_scan"}, "fusion_lon": 0.0, "lat": 38.89712766666667, "bike_id": "0f31efec2aa7575f22ab690753a50947", "type": "electric_scooter", "is_reserved": 0, "lon": -77.007967}, {"fusion_lat": 0.0, "name": "f69fe00fb6f960eaa9410272190a0cb5", "is_disabled": 0, "rental_uris": {"android": "https://dc.lft.to/lastmile_qr_scan", "ios": "https://dc.lft.to/lastmile_qr_scan"}, "fusion_lon": 0.0, "lat": 38.8999745, "bike_id": "f69fe00fb6f960eaa9410272190a0cb5", "type": "electric_scooter", "is_reserved": 0, "lon": -76.99845216666667}, {"fusion_lat": 0.0, "name": "94fc7f35ec1656d73f7c3c56e4506bb8", "is_disabled": 0, "rental_uris": {"android": "https://dc.lft.to/lastmile_qr_scan", "ios": "https://dc.lft.to/lastmile_qr_scan"}, "fusion_lon": 0.0, "lat": 38.91849166666667, "bike_id": "94fc7f35ec1656d73f7c3c56e4506bb8", "type": "electric_scooter", "is_reserved": 0, "lon": -77.02315533333334}, {"fusion_lat": 0.0, "name": "27c645cb317af55424b1d170eae686c1", "is_disabled": 0, "rental_uris": {"android": "https://dc.lft.to/lastmile_qr_scan", "ios": "https://dc.lft.to/lastmile_qr_scan"}, "fusion_lon": 0.0, "lat": 38.886809166666666, "bike_id": "27c645cb317af55424b1d170eae686c1", "type": "electric_scooter", "is_reserved": 0, "lon": -77.001939}, {"fusion_lat": 0.0, "name": "d075659a34e4ab9017f4d99510b87d9b", "is_disabled": 0, "rental_uris": {"android": "https://dc.lft.to/lastmile_qr_scan", "ios": "https://dc.lft.to/lastmile_qr_scan"}, "fusion_lon": 0.0, "lat": 38.89997533333333, "bike_id": "d075659a34e4ab9017f4d99510b87d9b", "type": "electric_scooter", "is_reserved": 0, "lon": -77.0510945}, {"fusion_lat": 0.0, "name": "0e79ca4e7bda42cc66713e4d41e85c03", "is_disabled": 0, "rental_uris": {"android": "https://dc.lft.to/lastmile_qr_scan", "ios": "https://dc.lft.to/lastmile_qr_scan"}, "fusion_lon": 0.0, "lat": 38.924793333333334, "bike_id": "0e79ca4e7bda42cc66713e4d41e85c03", "type": "electric_scooter", "is_reserved": 0, "lon": -77.05207983333334}, {"fusion_lat": 0.0, "name": "93311bf8e433b5a00eb4f8afd9cad377", "is_disabled": 0, "rental_uris": {"android": "https://dc.lft.to/lastmile_qr_scan", "ios": "https://dc.lft.to/lastmile_qr_scan"}, "fusion_lon": 0.0, "lat": 38.9171885, "bike_id": "93311bf8e433b5a00eb4f8afd9cad377", "type": "electric_scooter", "is_reserved": 0, "lon": -77.02900016666666}, {"fusion_lat": 0.0, "name": "5a51e95169505a500dcd478da35a8af1", "is_disabled": 0, "rental_uris": {"android": "https://dc.lft.to/lastmile_qr_scan", "ios": "https://dc.lft.to/lastmile_qr_scan"}, "fusion_lon": 0.0, "lat": 38.92442833333333, "bike_id": "5a51e95169505a500dcd478da35a8af1", "type": "electric_scooter", "is_reserved": 0, "lon": -77.0187045}, {"fusion_lat": 0.0, "name": "579d84868339d9d455a1de6cca04ffe2", "is_disabled": 0, "rental_uris": {"android": "https://dc.lft.to/lastmile_qr_scan", "ios": "https://dc.lft.to/lastmile_qr_scan"}, "fusion_lon": 0.0, "lat": 38.8520185, "bike_id": "579d84868339d9d455a1de6cca04ffe2", "type": "electric_bike", "is_reserved": 0, "lon": -76.9628995}, {"fusion_lat": 0.0, "name": "75d1629e5e5e9f3f5696e0f720e6f4a4", "is_disabled": 0, "rental_uris": {"android": "https://dc.lft.to/lastmile_qr_scan", "ios": "https://dc.lft.to/lastmile_qr_scan"}, "fusion_lon": 0.0, "lat": 38.883767166666665, "bike_id": "75d1629e5e5e9f3f5696e0f720e6f4a4", "type": "electric_scooter", "is_reserved": 0, "lon": -77.00522366666667}, {"fusion_lat": 0.0, "name": "9bd84b89848d497269746c5e9a8594f0", "is_disabled": 0, "rental_uris": {"android": "https://dc.lft.to/lastmile_qr_scan", "ios": "https://dc.lft.to/lastmile_qr_scan"}, "fusion_lon": 0.0, "lat": 38.91429883333333, "bike_id": "9bd84b89848d497269746c5e9a8594f0", "type": "electric_scooter", "is_reserved": 0, "lon": -77.02165566666666}, {"fusion_lat": 0.0, "name": "b14943f59faa9baf8e2abab0032ab3a4", "is_disabled": 0, "rental_uris": {"android": "https://dc.lft.to/lastmile_qr_scan", "ios": "https://dc.lft.to/lastmile_qr_scan"}, "fusion_lon": 0.0, "lat": 38.93481466666667, "bike_id": "b14943f59faa9baf8e2abab0032ab3a4", "type": "electric_scooter", "is_reserved": 0, "lon": -77.03397116666666}, {"fusion_lat": 0.0, "name": "3697cae7f8a382ecf372f7d5624aa3ed", "is_disabled": 0, "rental_uris": {"android": "https://dc.lft.to/lastmile_qr_scan", "ios": "https://dc.lft.to/lastmile_qr_scan"}, "fusion_lon": 0.0, "lat": 38.847664, "bike_id": "3697cae7f8a382ecf372f7d5624aa3ed", "type": "electric_bike", "is_reserved": 0, "lon": -76.96634533333334}, {"fusion_lat": 0.0, "name": "e1c9fde410b7d88a0b677d12f7b5cba6", "is_disabled": 0, "rental_uris": {"android": "https://dc.lft.to/lastmile_qr_scan", "ios": "https://dc.lft.to/lastmile_qr_scan"}, "fusion_lon": 0.0, "lat": 38.905938166666665, "bike_id": "e1c9fde410b7d88a0b677d12f7b5cba6", "type": "electric_scooter", "is_reserved": 0, "lon": -77.062937}, {"fusion_lat": 0.0, "name": "002e87ae8833a586545aaf9a95017671", "is_disabled": 0, "rental_uris": {"android": "https://dc.lft.to/lastmile_qr_scan", "ios": "https://dc.lft.to/lastmile_qr_scan"}, "fusion_lon": 0.0, "lat": 38.904086, "bike_id": "002e87ae8833a586545aaf9a95017671", "type": "electric_scooter", "is_reserved": 0, "lon": -76.973334}, {"fusion_lat": 0.0, "name": "83363a54c4b9d96ce01d97f8aab02abf", "is_disabled": 0, "rental_uris": {"android": "https://dc.lft.to/lastmile_qr_scan", "ios": "https://dc.lft.to/lastmile_qr_scan"}, "fusion_lon": 0.0, "lat": 38.907615666666665, "bike_id": "83363a54c4b9d96ce01d97f8aab02abf", "type": "electric_scooter", "is_reserved": 0, "lon": -77.03556616666667}, {"fusion_lat": 0.0, "name": "e56a1739c90d4cebde522a98360a0ed5", "is_disabled": 0, "rental_uris": {"android": "https://dc.lft.to/lastmile_qr_scan", "ios": "https://dc.lft.to/lastmile_qr_scan"}, "fusion_lon": 0.0, "lat": 38.8442145, "bike_id": "e56a1739c90d4cebde522a98360a0ed5", "type": "electric_scooter", "is_reserved": 0, "lon": -76.99778283333333}, {"fusion_lat": 0.0, "name": "b158f157e9bc783da43994e68f41d68e", "is_disabled": 0, "rental_uris": {"android": "https://dc.lft.to/lastmile_qr_scan", "ios": "https://dc.lft.to/lastmile_qr_scan"}, "fusion_lon": 0.0, "lat": 38.916714, "bike_id": "b158f157e9bc783da43994e68f41d68e", "type": "electric_scooter", "is_reserved": 0, "lon": -77.02713716666666}, {"fusion_lat": 0.0, "name": "ef2724ced6b3f13650e4c3d46e7135e0", "is_disabled": 0, "rental_uris": {"android": "https://dc.lft.to/lastmile_qr_scan", "ios": "https://dc.lft.to/lastmile_qr_scan"}, "fusion_lon": 0.0, "lat": 38.91610933333333, "bike_id": "ef2724ced6b3f13650e4c3d46e7135e0", "type": "electric_scooter", "is_reserved": 0, "lon": -77.02290816666667}, {"fusion_lat": 0.0, "name": "c7e07b2c180adffe85d56678b4c53de3", "is_disabled": 0, "rental_uris": {"android": "https://dc.lft.to/lastmile_qr_scan", "ios": "https://dc.lft.to/lastmile_qr_scan"}, "fusion_lon": 0.0, "lat": 38.913505666666666, "bike_id": "c7e07b2c180adffe85d56678b4c53de3", "type": "electric_scooter", "is_reserved": 0, "lon": -77.0205735}, {"fusion_lat": 0.0, "name": "9959b19e178173ee1269cd7aae77968a", "is_disabled": 0, "rental_uris": {"android": "https://dc.lft.to/lastmile_qr_scan", "ios": "https://dc.lft.to/lastmile_qr_scan"}, "fusion_lon": 0.0, "lat": 38.9068955, "bike_id": "9959b19e178173ee1269cd7aae77968a", "type": "electric_scooter", "is_reserved": 0, "lon": -76.999597}, {"fusion_lat": 0.0, "name": "ec158127fc41b52c6bbc91889bac01de", "is_disabled": 0, "rental_uris": {"android": "https://dc.lft.to/lastmile_qr_scan", "ios": "https://dc.lft.to/lastmile_qr_scan"}, "fusion_lon": 0.0, "lat": 38.89265066666667, "bike_id": "ec158127fc41b52c6bbc91889bac01de", "type": "electric_scooter", "is_reserved": 0, "lon": -77.04655783333334}, {"fusion_lat": 0.0, "name": "a38b7d3736ff05ea7dea78e9b8356bb3", "is_disabled": 0, "rental_uris": {"android": "https://dc.lft.to/lastmile_qr_scan", "ios": "https://dc.lft.to/lastmile_qr_scan"}, "fusion_lon": 0.0, "lat": 38.9644995, "bike_id": "a38b7d3736ff05ea7dea78e9b8356bb3", "type": "electric_bike", "is_reserved": 0, "lon": -77.02247116666666}, {"fusion_lat": 0.0, "name": "e747852d1b8fa233cbaa939f6c225cbe", "is_disabled": 0, "rental_uris": {"android": "https://dc.lft.to/lastmile_qr_scan", "ios": "https://dc.lft.to/lastmile_qr_scan"}, "fusion_lon": 0.0, "lat": 38.90022483333333, "bike_id": "e747852d1b8fa233cbaa939f6c225cbe", "type": "electric_scooter", "is_reserved": 0, "lon": -76.9740055}, {"fusion_lat": 0.0, "name": "bdfd7314553a2395c56e492a366cd27e", "is_disabled": 0, "rental_uris": {"android": "https://dc.lft.to/lastmile_qr_scan", "ios": "https://dc.lft.to/lastmile_qr_scan"}, "fusion_lon": 0.0, "lat": 38.915175833333336, "bike_id": "bdfd7314553a2395c56e492a366cd27e", "type": "electric_scooter", "is_reserved": 0, "lon": -77.01219216666667}, {"fusion_lat": 0.0, "name": "c0cd9278cca24cd54aa768af9e916e86", "is_disabled": 0, "rental_uris": {"android": "https://dc.lft.to/lastmile_qr_scan", "ios": "https://dc.lft.to/lastmile_qr_scan"}, "fusion_lon": 0.0, "lat": 38.90697466666667, "bike_id": "c0cd9278cca24cd54aa768af9e916e86", "type": "electric_scooter", "is_reserved": 0, "lon": -77.0465645}, {"fusion_lat": 0.0, "name": "c0657f62644d6307341f920cb83ce282", "is_disabled": 0, "rental_uris": {"android": "https://dc.lft.to/lastmile_qr_scan", "ios": "https://dc.lft.to/lastmile_qr_scan"}, "fusion_lon": 0.0, "lat": 38.88759266666667, "bike_id": "c0657f62644d6307341f920cb83ce282", "type": "electric_scooter", "is_reserved": 0, "lon": -77.03351866666667}, {"fusion_lat": 0.0, "name": "52a04675de20c8b97b1786dec03f989a", "is_disabled": 0, "rental_uris": {"android": "https://dc.lft.to/lastmile_qr_scan", "ios": "https://dc.lft.to/lastmile_qr_scan"}, "fusion_lon": 0.0, "lat": 38.91714483333333, "bike_id": "52a04675de20c8b97b1786dec03f989a", "type": "electric_scooter", "is_reserved": 0, "lon": -77.03857466666666}, {"fusion_lat": 0.0, "name": "7ee6945cc7d7570eebb1ac032af2427c", "is_disabled": 0, "rental_uris": {"android": "https://dc.lft.to/lastmile_qr_scan", "ios": "https://dc.lft.to/lastmile_qr_scan"}, "fusion_lon": 0.0, "lat": 38.917045333333334, "bike_id": "7ee6945cc7d7570eebb1ac032af2427c", "type": "electric_scooter", "is_reserved": 0, "lon": -77.02615183333333}, {"fusion_lat": 0.0, "name": "69a39f057bb3bf7d2c0f80deea002254", "is_disabled": 0, "rental_uris": {"android": "https://dc.lft.to/lastmile_qr_scan", "ios": "https://dc.lft.to/lastmile_qr_scan"}, "fusion_lon": 0.0, "lat": 38.9234605, "bike_id": "69a39f057bb3bf7d2c0f80deea002254", "type": "electric_scooter", "is_reserved": 0, "lon": -77.05624233333333}, {"fusion_lat": 0.0, "name": "75dd0094f51c0457c3ebf5d15d556218", "is_disabled": 0, "rental_uris": {"android": "https://dc.lft.to/lastmile_qr_scan", "ios": "https://dc.lft.to/lastmile_qr_scan"}, "fusion_lon": 0.0, "lat": 38.9222885, "bike_id": "75dd0094f51c0457c3ebf5d15d556218", "type": "electric_bike", "is_reserved": 0, "lon": -77.02337266666666}, {"fusion_lat": 0.0, "name": "107548b2ec8ed17344e9cf38f1ab3d88", "is_disabled": 0, "rental_uris": {"android": "https://dc.lft.to/lastmile_qr_scan", "ios": "https://dc.lft.to/lastmile_qr_scan"}, "fusion_lon": 0.0, "lat": 38.909443833333334, "bike_id": "107548b2ec8ed17344e9cf38f1ab3d88", "type": "electric_scooter", "is_reserved": 0, "lon": -76.9876705}, {"fusion_lat": 0.0, "name": "3d121a76647f0052f86cfb67ef972185", "is_disabled": 0, "rental_uris": {"android": "https://dc.lft.to/lastmile_qr_scan", "ios": "https://dc.lft.to/lastmile_qr_scan"}, "fusion_lon": 0.0, "lat": 38.8435385, "bike_id": "3d121a76647f0052f86cfb67ef972185", "type": "electric_bike", "is_reserved": 0, "lon": -76.978204}, {"fusion_lat": 0.0, "name": "3767ff8e90485964dc7a7e14bdab015c", "is_disabled": 0, "rental_uris": {"android": "https://dc.lft.to/lastmile_qr_scan", "ios": "https://dc.lft.to/lastmile_qr_scan"}, "fusion_lon": 0.0, "lat": 38.89674483333334, "bike_id": "3767ff8e90485964dc7a7e14bdab015c", "type": "electric_scooter", "is_reserved": 0, "lon": -77.0247855}, {"fusion_lat": 0.0, "name": "82f5ccb5d49d6c8d1fc5eab47a26b8d9", "is_disabled": 0, "rental_uris": {"android": "https://dc.lft.to/lastmile_qr_scan", "ios": "https://dc.lft.to/lastmile_qr_scan"}, "fusion_lon": 0.0, "lat": 38.88358683333333, "bike_id": "82f5ccb5d49d6c8d1fc5eab47a26b8d9", "type": "electric_scooter", "is_reserved": 0, "lon": -76.9415445}, {"fusion_lat": 0.0, "name": "2753c4c2ec9d52d27b1f15a7a81834a1", "is_disabled": 0, "rental_uris": {"android": "https://dc.lft.to/lastmile_qr_scan", "ios": "https://dc.lft.to/lastmile_qr_scan"}, "fusion_lon": 0.0, "lat": 38.92339033333333, "bike_id": "2753c4c2ec9d52d27b1f15a7a81834a1", "type": "electric_scooter", "is_reserved": 0, "lon": -77.05225833333333}, {"fusion_lat": 0.0, "name": "e709923c064b9737e34355aec98e39fa", "is_disabled": 0, "rental_uris": {"android": "https://dc.lft.to/lastmile_qr_scan", "ios": "https://dc.lft.to/lastmile_qr_scan"}, "fusion_lon": 0.0, "lat": 38.91575233333333, "bike_id": "e709923c064b9737e34355aec98e39fa", "type": "electric_scooter", "is_reserved": 0, "lon": -76.983954}, {"fusion_lat": 0.0, "name": "4580e1cfa63d4790a305703cf63085ae", "is_disabled": 0, "rental_uris": {"android": "https://dc.lft.to/lastmile_qr_scan", "ios": "https://dc.lft.to/lastmile_qr_scan"}, "fusion_lon": 0.0, "lat": 38.901621666666664, "bike_id": "4580e1cfa63d4790a305703cf63085ae", "type": "electric_scooter", "is_reserved": 0, "lon": -77.05919316666666}, {"fusion_lat": 0.0, "name": "4d7d6644e2a414c56d3c0e972b5a76c4", "is_disabled": 0, "rental_uris": {"android": "https://dc.lft.to/lastmile_qr_scan", "ios": "https://dc.lft.to/lastmile_qr_scan"}, "fusion_lon": 0.0, "lat": 38.917078333333336, "bike_id": "4d7d6644e2a414c56d3c0e972b5a76c4", "type": "electric_scooter", "is_reserved": 0, "lon": -77.03229383333333}, {"fusion_lat": 0.0, "name": "ee68d3df93b13c0988beb240383a2588", "is_disabled": 0, "rental_uris": {"android": "https://dc.lft.to/lastmile_qr_scan", "ios": "https://dc.lft.to/lastmile_qr_scan"}, "fusion_lon": 0.0, "lat": 38.956298833333335, "bike_id": "ee68d3df93b13c0988beb240383a2588", "type": "electric_scooter", "is_reserved": 0, "lon": -77.02835466666667}, {"fusion_lat": 0.0, "name": "8fdc2b656595d7cbf92c6c9640c7e51e", "is_disabled": 0, "rental_uris": {"android": "https://dc.lft.to/lastmile_qr_scan", "ios": "https://dc.lft.to/lastmile_qr_scan"}, "fusion_lon": 0.0, "lat": 38.92042983333333, "bike_id": "8fdc2b656595d7cbf92c6c9640c7e51e", "type": "electric_bike", "is_reserved": 0, "lon": -76.99818766666667}, {"fusion_lat": 0.0, "name": "b77c8dec1d2a55f63c82fe7eabd787bd", "is_disabled": 0, "rental_uris": {"android": "https://dc.lft.to/lastmile_qr_scan", "ios": "https://dc.lft.to/lastmile_qr_scan"}, "fusion_lon": 0.0, "lat": 38.917900333333336, "bike_id": "b77c8dec1d2a55f63c82fe7eabd787bd", "type": "electric_bike", "is_reserved": 0, "lon": -77.04258133333333}, {"fusion_lat": 0.0, "name": "5a8e110e7b7330f2880a26c191232cb4", "is_disabled": 0, "rental_uris": {"android": "https://dc.lft.to/lastmile_qr_scan", "ios": "https://dc.lft.to/lastmile_qr_scan"}, "fusion_lon": 0.0, "lat": 38.9036405, "bike_id": "5a8e110e7b7330f2880a26c191232cb4", "type": "electric_scooter", "is_reserved": 0, "lon": -77.035591}, {"fusion_lat": 0.0, "name": "9314b840d658c9675bdccca57acbfb19", "is_disabled": 0, "rental_uris": {"android": "https://dc.lft.to/lastmile_qr_scan", "ios": "https://dc.lft.to/lastmile_qr_scan"}, "fusion_lon": 0.0, "lat": 38.9050335, "bike_id": "9314b840d658c9675bdccca57acbfb19", "type": "electric_bike", "is_reserved": 0, "lon": -76.974481}, {"fusion_lat": 0.0, "name": "7e62c8eaf6d7c2493699764da8c0a813", "is_disabled": 0, "rental_uris": {"android": "https://dc.lft.to/lastmile_qr_scan", "ios": "https://dc.lft.to/lastmile_qr_scan"}, "fusion_lon": 0.0, "lat": 38.93137333333333, "bike_id": "7e62c8eaf6d7c2493699764da8c0a813", "type": "electric_bike", "is_reserved": 0, "lon": -77.019684}, {"fusion_lat": 0.0, "name": "aa55c52a3f7531a801cd0b506b039575", "is_disabled": 0, "rental_uris": {"android": "https://dc.lft.to/lastmile_qr_scan", "ios": "https://dc.lft.to/lastmile_qr_scan"}, "fusion_lon": 0.0, "lat": 38.900227, "bike_id": "aa55c52a3f7531a801cd0b506b039575", "type": "electric_scooter", "is_reserved": 0, "lon": -77.032814}, {"fusion_lat": 0.0, "name": "0020e31d878c6128a81d8ecaa5c0e72d", "is_disabled": 0, "rental_uris": {"android": "https://dc.lft.to/lastmile_qr_scan", "ios": "https://dc.lft.to/lastmile_qr_scan"}, "fusion_lon": 0.0, "lat": 38.90383, "bike_id": "0020e31d878c6128a81d8ecaa5c0e72d", "type": "electric_scooter", "is_reserved": 0, "lon": -77.03840316666667}, {"fusion_lat": 0.0, "name": "462596f2c43617034558174e81820217", "is_disabled": 0, "rental_uris": {"android": "https://dc.lft.to/lastmile_qr_scan", "ios": "https://dc.lft.to/lastmile_qr_scan"}, "fusion_lon": 0.0, "lat": 38.92695066666667, "bike_id": "462596f2c43617034558174e81820217", "type": "electric_scooter", "is_reserved": 0, "lon": -77.02128016666667}, {"fusion_lat": 0.0, "name": "74fc461db0230ab8f40ed321153651ca", "is_disabled": 0, "rental_uris": {"android": "https://dc.lft.to/lastmile_qr_scan", "ios": "https://dc.lft.to/lastmile_qr_scan"}, "fusion_lon": 0.0, "lat": 38.88015866666667, "bike_id": "74fc461db0230ab8f40ed321153651ca", "type": "electric_scooter", "is_reserved": 0, "lon": -76.98067466666667}, {"fusion_lat": 0.0, "name": "126971edcb4d3d7b99ab4d1e8d2e0feb", "is_disabled": 0, "rental_uris": {"android": "https://dc.lft.to/lastmile_qr_scan", "ios": "https://dc.lft.to/lastmile_qr_scan"}, "fusion_lon": 0.0, "lat": 38.89235133333333, "bike_id": "126971edcb4d3d7b99ab4d1e8d2e0feb", "type": "electric_scooter", "is_reserved": 0, "lon": -77.02382883333334}, {"fusion_lat": 0.0, "name": "9d3a183041059139630e5f92b657976f", "is_disabled": 0, "rental_uris": {"android": "https://dc.lft.to/lastmile_qr_scan", "ios": "https://dc.lft.to/lastmile_qr_scan"}, "fusion_lon": 0.0, "lat": 38.917465, "bike_id": "9d3a183041059139630e5f92b657976f", "type": "electric_scooter", "is_reserved": 0, "lon": -77.06933183333334}, {"fusion_lat": 0.0, "name": "d217cecc340eae0e72a36d282c8bac36", "is_disabled": 0, "rental_uris": {"android": "https://dc.lft.to/lastmile_qr_scan", "ios": "https://dc.lft.to/lastmile_qr_scan"}, "fusion_lon": 0.0, "lat": 38.9111115, "bike_id": "d217cecc340eae0e72a36d282c8bac36", "type": "electric_scooter", "is_reserved": 0, "lon": -77.018792}, {"fusion_lat": 0.0, "name": "571de0c5c985547c3c1896bbcc27bce1", "is_disabled": 0, "rental_uris": {"android": "https://dc.lft.to/lastmile_qr_scan", "ios": "https://dc.lft.to/lastmile_qr_scan"}, "fusion_lon": 0.0, "lat": 38.906671, "bike_id": "571de0c5c985547c3c1896bbcc27bce1", "type": "electric_scooter", "is_reserved": 0, "lon": -77.021955}, {"fusion_lat": 0.0, "name": "02ca6575168b6e377f948e80e44e864b", "is_disabled": 0, "rental_uris": {"android": "https://dc.lft.to/lastmile_qr_scan", "ios": "https://dc.lft.to/lastmile_qr_scan"}, "fusion_lon": 0.0, "lat": 38.91634466666667, "bike_id": "02ca6575168b6e377f948e80e44e864b", "type": "electric_scooter", "is_reserved": 0, "lon": -77.02967583333333}, {"fusion_lat": 0.0, "name": "eef25257dee18d39918d5b6c45420af3", "is_disabled": 0, "rental_uris": {"android": "https://dc.lft.to/lastmile_qr_scan", "ios": "https://dc.lft.to/lastmile_qr_scan"}, "fusion_lon": 0.0, "lat": 38.962217833333334, "bike_id": "eef25257dee18d39918d5b6c45420af3", "type": "electric_bike", "is_reserved": 0, "lon": -77.0263415}, {"fusion_lat": 0.0, "name": "287599992af2346baa15e6c9dbb82d8c", "is_disabled": 0, "rental_uris": {"android": "https://dc.lft.to/lastmile_qr_scan", "ios": "https://dc.lft.to/lastmile_qr_scan"}, "fusion_lon": 0.0, "lat": 38.90621333333333, "bike_id": "287599992af2346baa15e6c9dbb82d8c", "type": "electric_scooter", "is_reserved": 0, "lon": -77.02594883333333}, {"fusion_lat": 0.0, "name": "8e66662afc03dae3159a6fc72ce465c0", "is_disabled": 0, "rental_uris": {"android": "https://dc.lft.to/lastmile_qr_scan", "ios": "https://dc.lft.to/lastmile_qr_scan"}, "fusion_lon": 0.0, "lat": 38.911167166666665, "bike_id": "8e66662afc03dae3159a6fc72ce465c0", "type": "electric_scooter", "is_reserved": 0, "lon": -77.04375633333333}, {"fusion_lat": 0.0, "name": "4453a32a266b4bd1d590189800904206", "is_disabled": 0, "rental_uris": {"android": "https://dc.lft.to/lastmile_qr_scan", "ios": "https://dc.lft.to/lastmile_qr_scan"}, "fusion_lon": 0.0, "lat": 38.896076666666666, "bike_id": "4453a32a266b4bd1d590189800904206", "type": "electric_scooter", "is_reserved": 0, "lon": -76.98106883333334}, {"fusion_lat": 0.0, "name": "d1a7358982ab1f7b169a8aec0f49ef4d", "is_disabled": 0, "rental_uris": {"android": "https://dc.lft.to/lastmile_qr_scan", "ios": "https://dc.lft.to/lastmile_qr_scan"}, "fusion_lon": 0.0, "lat": 38.89782666666667, "bike_id": "d1a7358982ab1f7b169a8aec0f49ef4d", "type": "electric_scooter", "is_reserved": 0, "lon": -77.02385833333334},