{"data": {"bikes": [{"bike_id": "ebbddf9ad08c84c219159fc9e35fa279", "is_reserved": 0, "fusion_lon": 0.0, "lat": 38.902693666666664, "is_disabled": 0, "name": "ebbddf9ad08c84c219159fc9e35fa279", "fusion_lat": 0.0, "rental_uris": {"ios": "https://dc.lft.to/lastmile_qr_scan", "android": "https://dc.lft.to/lastmile_qr_scan"}, "lon": -77.0602385, "type": "electric_scooter"}, {"bike_id": "27ec12d2c6cafa87617f06e624e5cc9b", "is_reserved": 0, "fusion_lon": 0.0, "lat": 38.90511583333333, "is_disabled": 0, "name": "27ec12d2c6cafa87617f06e624e5cc9b", "fusion_lat": 0.0, "rental_uris": {"ios": "https://dc.lft.to/lastmile_qr_scan", "android": "https://dc.lft.to/lastmile_qr_scan"}, "lon": -77.05017883333333, "type": "electric_scooter"}, {"bike_id": "fda6250f473f380f05d3a9a26cbf4071", "is_reserved": 0, "fusion_lon": 0.0, "lat": 38.90338716666667, "is_disabled": 0, "name": "fda6250f473f380f05d3a9a26cbf4071", "fusion_lat": 0.0, "rental_uris": {"ios": "https://dc.lft.to/lastmile_qr_scan", "android": "https://dc.lft.to/lastmile_qr_scan"}, "lon": -77.04271733333333, "type": "electric_scooter"}, {"bike_id": "c9b8a9e797ca92ae001b28d738e3ad0f", "is_reserved": 0, "fusion_lon": 0.0, "lat": 38.923604, "is_disabled": 0, "name": "c9b8a9e797ca92ae001b28d738e3ad0f", "fusion_lat": 0.0, "rental_uris": {"ios": "https://dc.lft.to/lastmile_qr_scan", "android": "https://dc.lft.to/lastmile_qr_scan"}, "lon": -77.02062716666667, "type": "electric_scooter"}, {"bike_id": "821ac41a23ea1e0922aac8eded330308", "is_reserved": 0, "fusion_lon": 0.0, "lat": 38.870887333333336, "is_disabled": 0, "name": "821ac41a23ea1e0922aac8eded330308", "fusion_lat": 0.0, "rental_uris": {"ios": "https://dc.lft.to/lastmile_qr_scan", "android": "https://dc.lft.to/lastmile_qr_scan"}, "lon": -77.13330883333333, "type": "electric_bike"}, {"bike_id": "9da051f93b0ef92cdfaa01574e70aa19", "is_reserved": 0, "fusion_lon": 0.0, "lat": 38.916264166666664, "is_disabled": 0, "name": "9da051f93b0ef92cdfaa01574e70aa19", "fusion_lat": 0.0, "rental_uris": {"ios": "https://dc.lft.to/lastmile_qr_scan", "android": "https://dc.lft.to/lastmile_qr_scan"}, "lon": -77.03214716666666, "type": "electric_scooter"}, {"bike_id": "3f5cd33e44edc9039a5ba826da3132a9", "is_reserved": 0, "fusion_lon": 0.0, "lat": 38.934942666666664, "is_disabled": 0, "name": "3f5cd33e44edc9039a5ba826da3132a9", "fusion_lat": 0.0, "rental_uris": {"ios": "https://dc.lft.to/lastmile_qr_scan", "android": "https://dc.lft.to/lastmile_qr_scan"}, "lon": -77.02725083333333, "type": "electric_scooter"}, {"bike_id": "13090db4632964643a2f14b96892bfdc", "is_reserved": 0, "fusion_lon": 0.0, "lat": 38.86647716666667, "is_disabled": 0, "name": "13090db4632964643a2f14b96892bfdc", "fusion_lat": 0.0, "rental_uris": {"ios": "https://dc.lft.to/lastmile_qr_scan", "android": "https://dc.lft.to/lastmile_qr_scan"}, "lon": -76.98886666666667, "type": "electric_scooter"}, {"bike_id": "5de2ad4598a040c4b97e72e83ceb4cc9", "is_reserved": 0, "fusion_lon": 0.0, "lat": 38.86203866666666, "is_disabled": 0, "name": "5de2ad4598a040c4b97e72e83ceb4cc9", "fusion_lat": 0.0, "rental_uris": {"ios": "https://dc.lft.to/lastmile_qr_scan", "android": "https://dc.lft.to/lastmile_qr_scan"}, "lon": -76.9946935, "type": "electric_scooter"}, {"bike_id": "da1f0ef08a9ddd5ba108582a5ecfc752", "is_reserved": 0, "fusion_lon": 0.0, "lat": 38.909563, "is_disabled": 0, "name": "da1f0ef08a9ddd5ba108582a5ecfc752", "fusion_lat": 0.0, "rental_uris": {"ios": "https://dc.lft.to/lastmile_qr_scan", "android": "https://dc.lft.to/lastmile_qr_scan"}, "lon": -77.02498416666667, "type": "electric_scooter"}, {"bike_id": "4d7a9be83793238cbab21702495a254e", "is_reserved": 0, "fusion_lon": 0.0, "lat": 38.8922135, "is_disabled": 0, "name": "4d7a9be83793238cbab21702495a254e", "fusion_lat": 0.0, "rental_uris": {"ios": "https://dc.lft.to/lastmile_qr_scan", "android": "https://dc.lft.to/lastmile_qr_scan"}, "lon": -77.04365416666667, "type": "electric_scooter"}, {"bike_id": "e42f1cf96a24fe69c891c60ac0c2bf96", "is_reserved": 0, "fusion_lon": 0.0, "lat": 38.93973233333333, "is_disabled": 0, "name": "e42f1cf96a24fe69c891c60ac0c2bf96", "fusion_lat": 0.0, "rental_uris": {"ios": "https://dc.lft.to/lastmile_qr_scan", "android": "https://dc.lft.to/lastmile_qr_scan"}, "lon": -77.03590983333333, "type": "electric_scooter"}, {"bike_id": "adfa827c66f567f2fc85092ad6a01e68", "is_reserved": 0, "fusion_lon": 0.0, "lat": 38.878390833333334, "is_disabled": 0, "name": "adfa827c66f567f2fc85092ad6a01e68", "fusion_lat": 0.0, "rental_uris": {"ios": "https://dc.lft.to/lastmile_qr_scan", "android": "https://dc.lft.to/lastmile_qr_scan"}, "lon": -77.01967283333333, "type": "electric_bike"}, {"bike_id": "53e6ef9a5bde184f3f2d7a3ed5b59b15", "is_reserved": 0, "fusion_lon": 0.0, "lat": 38.89475, "is_disabled": 0, "name": "53e6ef9a5bde184f3f2d7a3ed5b59b15", "fusion_lat": 0.0, "rental_uris": {"ios": "https://dc.lft.to/lastmile_qr_scan", "android": "https://dc.lft.to/lastmile_qr_scan"}, "lon": -77.05007183333333, "type": "electric_scooter"}, {"bike_id": "20cfe57d33e440901ccf0094f8129852", "is_reserved": 0, "fusion_lon": 0.0, "lat": 38.94202033333333, "is_disabled": 0, "name": "20cfe57d33e440901ccf0094f8129852", "fusion_lat": 0.0, "rental_uris": {"ios": "https://dc.lft.to/lastmile_qr_scan", "android": "https://dc.lft.to/lastmile_qr_scan"}, "lon": -77.01825216666667, "type": "electric_bike"}, {"bike_id": "cd74010f8b943e7bdec4163f9ebcf99d", "is_reserved": 0, "fusion_lon": 0.0, "lat": 38.854298666666665, "is_disabled": 0, "name": "cd74010f8b943e7bdec4163f9ebcf99d", "fusion_lat": 0.0, "rental_uris": {"ios": "https://dc.lft.to/lastmile_qr_scan", "android": "https://dc.lft.to/lastmile_qr_scan"}, "lon": -76.9095905, "type": "electric_bike"}, {"bike_id": "922fd9cb8b2f26ac827247536c14711a", "is_reserved": 0, "fusion_lon": 0.0, "lat": 38.84426033333333, "is_disabled": 0, "name": "922fd9cb8b2f26ac827247536c14711a", "fusion_lat": 0.0, "rental_uris": {"ios": "https://dc.lft.to/lastmile_qr_scan", "android": "https://dc.lft.to/lastmile_qr_scan"}, "lon": -76.99781233333333, "type": "electric_scooter"}, {"bike_id": "4750ce672c528700d9202195748fab05", "is_reserved": 0, "fusion_lon": 0.0, "lat": 38.91620983333333, "is_disabled": 0, "name": "4750ce672c528700d9202195748fab05", "fusion_lat": 0.0, "rental_uris": {"ios": "https://dc.lft.to/lastmile_qr_scan", "android": "https://dc.lft.to/lastmile_qr_scan"}, "lon": -77.03158883333333, "type": "electric_scooter"}, {"bike_id": "8b1a638726cbdfb6a90022944738efb2", "is_reserved": 0, "fusion_lon": 0.0, "lat": 38.903753, "is_disabled": 0, "name": "8b1a638726cbdfb6a90022944738efb2", "fusion_lat": 0.0, "rental_uris": {"ios": "https://dc.lft.to/lastmile_qr_scan", "android": "https://dc.lft.to/lastmile_qr_scan"}, "lon": -77.0531115, "type": "electric_scooter"}, {"bike_id": "27bcc49828e6639e4053d09336088819", "is_reserved": 0, "fusion_lon": 0.0, "lat": 38.892133, "is_disabled": 0, "name": "27bcc49828e6639e4053d09336088819", "fusion_lat": 0.0, "rental_uris": {"ios": "https://dc.lft.to/lastmile_qr_scan", "android": "https://dc.lft.to/lastmile_qr_scan"}, "lon": -77.04863683333333, "type": "electric_scooter"}, {"bike_id": "45726b16e928b6e1cf120974b0994938", "is_reserved": 0, "fusion_lon": 0.0, "lat": 38.881991166666666, "is_disabled": 0, "name": "45726b16e928b6e1cf120974b0994938", "fusion_lat": 0.0, "rental_uris": {"ios": "https://dc.lft.to/lastmile_qr_scan", "android": "https://dc.lft.to/lastmile_qr_scan"}, "lon": -76.999497, "type": "electric_scooter"}, {"bike_id": "8d50cbafde89211e125cfd2f321dc585", "is_reserved": 0, "fusion_lon": 0.0, "lat": 38.905973333333336, "is_disabled": 0, "name": "8d50cbafde89211e125cfd2f321dc585", "fusion_lat": 0.0, "rental_uris": {"ios": "https://dc.lft.to/lastmile_qr_scan", "android": "https://dc.lft.to/lastmile_qr_scan"}, "lon": -77.05129983333333, "type": "electric_scooter"}, {"bike_id": "e09f0c2338ed0f3ad9166d9d1527e147", "is_reserved": 0, "fusion_lon": 0.0, "lat": 38.9024065, "is_disabled": 0, "name": "e09f0c2338ed0f3ad9166d9d1527e147", "fusion_lat": 0.0, "rental_uris": {"ios": "https://dc.lft.to/lastmile_qr_scan", "android": "https://dc.lft.to/lastmile_qr_scan"}, "lon": -77.00205983333333, "type": "electric_scooter"}, {"bike_id": "fa75be97d4a652366270ce77e812699a", "is_reserved": 0, "fusion_lon": 0.0, "lat": 38.810430333333336, "is_disabled": 0, "name": "fa75be97d4a652366270ce77e812699a", "fusion_lat": 0.0, "rental_uris": {"ios": "https://dc.lft.to/lastmile_qr_scan", "android": "https://dc.lft.to/lastmile_qr_scan"}, "lon": -77.08513, "type": "electric_bike"}, {"bike_id": "adb13f226678e03a4270c1bcf4142df8", "is_reserved": 0, "fusion_lon": 0.0, "lat": 38.87748783333333, "is_disabled": 0, "name": "adb13f226678e03a4270c1bcf4142df8", "fusion_lat": 0.0, "rental_uris": {"ios": "https://dc.lft.to/lastmile_qr_scan", "android": "https://dc.lft.to/lastmile_qr_scan"}, "lon": -76.980568, "type": "electric_bike"}, {"bike_id": "df5fcbd74731718e35c975f1dcaaf30b", "is_reserved": 0, "fusion_lon": 0.0, "lat": 38.90307033333333, "is_disabled": 0, "name": "df5fcbd74731718e35c975f1dcaaf30b", "fusion_lat": 0.0, "rental_uris": {"ios": "https://dc.lft.to/lastmile_qr_scan", "android": "https://dc.lft.to/lastmile_qr_scan"}, "lon": -77.03324583333334, "type": "electric_scooter"}, {"bike_id": "05240c168a8d7cfcea5062d168eff521", "is_reserved": 0, "fusion_lon": 0.0, "lat": 38.93495016666667, "is_disabled": 0, "name": "05240c168a8d7cfcea5062d168eff521", "fusion_lat": 0.0, "rental_uris": {"ios": "https://dc.lft.to/lastmile_qr_scan", "android": "https://dc.lft.to/lastmile_qr_scan"}, "lon": -77.028423, "type": "electric_scooter"}, {"bike_id": "b37c09e9c2b2cb75b6270271d6fca77e", "is_reserved": 0, "fusion_lon": 0.0, "lat": 38.9256485, "is_disabled": 0, "name": "b37c09e9c2b2cb75b6270271d6fca77e", "fusion_lat": 0.0, "rental_uris": {"ios": "https://dc.lft.to/lastmile_qr_scan", "android": "https://dc.lft.to/lastmile_qr_scan"}, "lon": -77.03811983333334, "type": "electric_scooter"}, {"bike_id": "27fcc4ea5ef4a0347ebc171359655e8f", "is_reserved": 0, "fusion_lon": 0.0, "lat": 38.92871483333333, "is_disabled": 0, "name": "27fcc4ea5ef4a0347ebc171359655e8f", "fusion_lat": 0.0, "rental_uris": {"ios": "https://dc.lft.to/lastmile_qr_scan", "android": "https://dc.lft.to/lastmile_qr_scan"}, "lon": -77.03239266666667, "type": "electric_scooter"}, {"bike_id": "14dc4ec1bf753e3a6681e518497cf7a4", "is_reserved": 0, "fusion_lon": 0.0, "lat": 38.9221825, "is_disabled": 0, "name": "14dc4ec1bf753e3a6681e518497cf7a4", "fusion_lat": 0.0, "rental_uris": {"ios": "https://dc.lft.to/lastmile_qr_scan", "android": "https://dc.lft.to/lastmile_qr_scan"}, "lon": -77.04258133333333, "type": "electric_scooter"}, {"bike_id": "8221d8049f95a67b5d8e9de36a88210c", "is_reserved": 0, "fusion_lon": 0.0, "lat": 38.92070833333333, "is_disabled": 0, "name": "8221d8049f95a67b5d8e9de36a88210c", "fusion_lat": 0.0, "rental_uris": {"ios": "https://dc.lft.to/lastmile_qr_scan", "android": "https://dc.lft.to/lastmile_qr_scan"}, "lon": -77.042111, "type": "electric_scooter"}, {"bike_id": "e6181d554df39376b7913f1898573236", "is_reserved": 0, "fusion_lon": 0.0, "lat": 38.905260166666665, "is_disabled": 0, "name": "e6181d554df39376b7913f1898573236", "fusion_lat": 0.0, "rental_uris": {"ios": "https://dc.lft.to/lastmile_qr_scan", "android": "https://dc.lft.to/lastmile_qr_scan"}, "lon": -77.06462283333333, "type": "electric_scooter"}, {"bike_id": "1a440bfab3abda15874a8bf43dd6112c", "is_reserved": 0, "fusion_lon": 0.0, "lat": 38.89211066666667, "is_disabled": 0, "name": "1a440bfab3abda15874a8bf43dd6112c", "fusion_lat": 0.0, "rental_uris": {"ios": "https://dc.lft.to/lastmile_qr_scan", "android": "https://dc.lft.to/lastmile_qr_scan"}, "lon": -77.03163583333334, "type": "electric_scooter"}, {"bike_id": "9a74807a43d1a41891471947a0bdc76a", "is_reserved": 0, "fusion_lon": 0.0, "lat": 38.881523, "is_disabled": 0, "name": "9a74807a43d1a41891471947a0bdc76a", "fusion_lat": 0.0, "rental_uris": {"ios": "https://dc.lft.to/lastmile_qr_scan", "android": "https://dc.lft.to/lastmile_qr_scan"}, "lon": -77.0273625, "type": "electric_scooter"}, {"bike_id": "989f742babb66f0582e15de87f2bfafb", "is_reserved": 0, "fusion_lon": 0.0, "lat": 38.919237, "is_disabled": 0, "name": "989f742babb66f0582e15de87f2bfafb", "fusion_lat": 0.0, "rental_uris": {"ios": "https://dc.lft.to/lastmile_qr_scan", "android": "https://dc.lft.to/lastmile_qr_scan"}, "lon": -77.03579733333333, "type": "electric_scooter"}, {"bike_id": "3e973b1a218d17d2b9166ab7f90ab255", "is_reserved": 0, "fusion_lon": 0.0, "lat": 38.9084, "is_disabled": 0, "name": "3e973b1a218d17d2b9166ab7f90ab255", "fusion_lat": 0.0, "rental_uris": {"ios": "https://dc.lft.to/lastmile_qr_scan", "android": "https://dc.lft.to/lastmile_qr_scan"}, "lon": -76.9971525, "type": "electric_scooter"}, {"bike_id": "0c51e0672b2bb9306b563bad956cd924", "is_reserved": 0, "fusion_lon": 0.0, "lat": 38.925572, "is_disabled": 0, "name": "0c51e0672b2bb9306b563bad956cd924", "fusion_lat": 0.0, "rental_uris": {"ios": "https://dc.lft.to/lastmile_qr_scan", "android": "https://dc.lft.to/lastmile_qr_scan"}, "lon": -77.038082, "type": "electric_scooter"}, {"bike_id": "9d088dfd375a29be1e0412a969415a71", "is_reserved": 0, "fusion_lon": 0.0, "lat": 38.8849355, "is_disabled": 0, "name": "9d088dfd375a29be1e0412a969415a71", "fusion_lat": 0.0, "rental_uris": {"ios": "https://dc.lft.to/lastmile_qr_scan", "android": "https://dc.lft.to/lastmile_qr_scan"}, "lon": -77.007121, "type": "electric_scooter"}, {"bike_id": "1daa416cfbe3aa8d34e0a6e7caf13c00", "is_reserved": 0, "fusion_lon": 0.0, "lat": 38.8971365, "is_disabled": 0, "name": "1daa416cfbe3aa8d34e0a6e7caf13c00", "fusion_lat": 0.0, "rental_uris": {"ios": "https://dc.lft.to/lastmile_qr_scan", "android": "https://dc.lft.to/lastmile_qr_scan"}, "lon": -77.02409216666666, "type": "electric_scooter"}, {"bike_id": "acce184b5437969971c63e19949dfa2d", "is_reserved": 0, "fusion_lon": 0.0, "lat": 38.92335283333333, "is_disabled": 0, "name": "acce184b5437969971c63e19949dfa2d", "fusion_lat": 0.0, "rental_uris": {"ios": "https://dc.lft.to/lastmile_qr_scan", "android": "https://dc.lft.to/lastmile_qr_scan"}, "lon": -77.041975, "type": "electric_scooter"}, {"bike_id": "a3f2d78dde542310e5b6d50219f027fe", "is_reserved": 0, "fusion_lon": 0.0, "lat": 38.8973865, "is_disabled": 0, "name": "a3f2d78dde542310e5b6d50219f027fe", "fusion_lat": 0.0, "rental_uris": {"ios": "https://dc.lft.to/lastmile_qr_scan", "android": "https://dc.lft.to/lastmile_qr_scan"}, "lon": -77.01754616666666, "type": "electric_scooter"}, {"bike_id": "bc30549cd85163b67ee3b956a7a75df2", "is_reserved": 0, "fusion_lon": 0.0, "lat": 38.89216233333333, "is_disabled": 0, "name": "bc30549cd85163b67ee3b956a7a75df2", "fusion_lat": 0.0, "rental_uris": {"ios": "https://dc.lft.to/lastmile_qr_scan", "android": "https://dc.lft.to/lastmile_qr_scan"}, "lon": -77.0486805, "type": "electric_scooter"}, {"bike_id": "ade5db1a7f54fcd39f571d851f3a22cd", "is_reserved": 0, "fusion_lon": 0.0, "lat": 38.920979, "is_disabled": 0, "name": "ade5db1a7f54fcd39f571d851f3a22cd", "fusion_lat": 0.0, "rental_uris": {"ios": "https://dc.lft.to/lastmile_qr_scan", "android": "https://dc.lft.to/lastmile_qr_scan"}, "lon": -77.025334, "type": "electric_scooter"}, {"bike_id": "748ec607125ef6703199407eeee89412", "is_reserved": 0, "fusion_lon": 0.0, "lat": 38.86995966666667, "is_disabled": 0, "name": "748ec607125ef6703199407eeee89412", "fusion_lat": 0.0, "rental_uris": {"ios": "https://dc.lft.to/lastmile_qr_scan", "android": "https://dc.lft.to/lastmile_qr_scan"}, "lon": -76.95984483333334, "type": "electric_bike"}, {"bike_id": "d3f591b31e3e81a27dfcf66671204048", "is_reserved": 0, "fusion_lon": 0.0, "lat": 38.907972, "is_disabled": 0, "name": "d3f591b31e3e81a27dfcf66671204048", "fusion_lat": 0.0, "rental_uris": {"ios": "https://dc.lft.to/lastmile_qr_scan", "android": "https://dc.lft.to/lastmile_qr_scan"}, "lon": -77.03659083333334, "type": "electric_scooter"}, {"bike_id": "42062f162d95424b17635f2d2ed0c32f", "is_reserved": 0, "fusion_lon": 0.0, "lat": 38.80618666666667, "is_disabled": 0, "name": "42062f162d95424b17635f2d2ed0c32f", "fusion_lat": 0.0, "rental_uris": {"ios": "https://dc.lft.to/lastmile_qr_scan", "android": "https://dc.lft.to/lastmile_qr_scan"}, "lon": -77.06349416666667, "type": "electric_bike"}, {"bike_id": "01d051838c549b3f8152cdc6924eb893", "is_reserved": 0, "fusion_lon": 0.0, "lat": 38.8624905, "is_disabled": 0, "name": "01d051838c549b3f8152cdc6924eb893", "fusion_lat": 0.0, "rental_uris": {"ios": "https://dc.lft.to/lastmile_qr_scan", "android": "https://dc.lft.to/lastmile_qr_scan"}, "lon": -76.994795, "type": "electric_scooter"}, {"bike_id": "ad94cc2997a25a96fe0be3e14d331c94", "is_reserved": 0, "fusion_lon": 0.0, "lat": 38.90778866666667, "is_disabled": 0, "name": "ad94cc2997a25a96fe0be3e14d331c94", "fusion_lat": 0.0, "rental_uris": {"ios": "https://dc.lft.to/lastmile_qr_scan", "android": "https://dc.lft.to/lastmile_qr_scan"}, "lon": -77.03655316666666, "type": "electric_scooter"}, {"bike_id": "dff35795a4505f9c8a7ae355e9a303a0", "is_reserved": 0, "fusion_lon": 0.0, "lat": 38.921218, "is_disabled": 0, "name": "dff35795a4505f9c8a7ae355e9a303a0", "fusion_lat": 0.0, "rental_uris": {"ios": "https://dc.lft.to/lastmile_qr_scan", "android": "https://dc.lft.to/lastmile_qr_scan"}, "lon": -77.03655633333334, "type": "electric_scooter"}, {"bike_id": "7cc98ff0ee6d594ac9b48615f6e85bf7", "is_reserved": 0, "fusion_lon": 0.0, "lat": 38.82262766666667, "is_disabled": 0, "name": "7cc98ff0ee6d594ac9b48615f6e85bf7", "fusion_lat": 0.0, "rental_uris": {"ios": "https://dc.lft.to/lastmile_qr_scan", "android": "https://dc.lft.to/lastmile_qr_scan"}, "lon": -77.05809416666666, "type": "electric_bike"}, {"bike_id": "d494dff37debb06a39ddbaf3d48c7b6e", "is_reserved": 0, "fusion_lon": 0.0, "lat": 38.98501266666667, "is_disabled": 0, "name": "d494dff37debb06a39ddbaf3d48c7b6e", "fusion_lat": 0.0, "rental_uris": {"ios": "https://dc.lft.to/lastmile_qr_scan", "android": "https://dc.lft.to/lastmile_qr_scan"}, "lon": -76.98209866666667, "type": "electric_bike"}, {"bike_id": "486b1e676cfa4b607078a32a8c14bed5", "is_reserved": 0, "fusion_lon": 0.0, "lat": 38.9354885, "is_disabled": 0, "name": "486b1e676cfa4b607078a32a8c14bed5", "fusion_lat": 0.0, "rental_uris": {"ios": "https://dc.lft.to/lastmile_qr_scan", "android": "https://dc.lft.to/lastmile_qr_scan"}, "lon": -77.02716283333334, "type": "electric_scooter"}, {"bike_id": "70fc8195744d0c5cc32a4878f4f1e015", "is_reserved": 0, "fusion_lon": 0.0, "lat": 38.9443775, "is_disabled": 0, "name": "70fc8195744d0c5cc32a4878f4f1e015", "fusion_lat": 0.0, "rental_uris": {"ios": "https://dc.lft.to/lastmile_qr_scan", "android": "https://dc.lft.to/lastmile_qr_scan"}, "lon": -77.06351816666667, "type": "electric_scooter"}, {"bike_id": "6ecaa147bdc90102e037b1b6fe9a0975", "is_reserved": 0, "fusion_lon": 0.0, "lat": 38.9255285, "is_disabled": 0, "name": "6ecaa147bdc90102e037b1b6fe9a0975", "fusion_lat": 0.0, "rental_uris": {"ios": "https://dc.lft.to/lastmile_qr_scan", "android": "https://dc.lft.to/lastmile_qr_scan"}, "lon": -77.057551, "type": "electric_bike"}, {"bike_id": "06b964e3eba3f4951256f054f6e52907", "is_reserved": 0, "fusion_lon": 0.0, "lat": 38.919262, "is_disabled": 0, "name": "06b964e3eba3f4951256f054f6e52907", "fusion_lat": 0.0, "rental_uris": {"ios": "https://dc.lft.to/lastmile_qr_scan", "android": "https://dc.lft.to/lastmile_qr_scan"}, "lon": -77.03425266666666, "type": "electric_scooter"}, {"bike_id": "0e8284c7f5a4f0045f3e39c21c4c6174", "is_reserved": 0, "fusion_lon": 0.0, "lat": 38.912993166666666, "is_disabled": 0, "name": "0e8284c7f5a4f0045f3e39c21c4c6174", "fusion_lat": 0.0, "rental_uris": {"ios": "https://dc.lft.to/lastmile_qr_scan", "android": "https://dc.lft.to/lastmile_qr_scan"}, "lon": -77.08292383333334, "type": "electric_bike"}, {"bike_id": "9df8e2ea29df521098070c31a9895ab0", "is_reserved": 0, "fusion_lon": 0.0, "lat": 38.91328516666667, "is_disabled": 0, "name": "9df8e2ea29df521098070c31a9895ab0", "fusion_lat": 0.0, "rental_uris": {"ios": "https://dc.lft.to/lastmile_qr_scan", "android": "https://dc.lft.to/lastmile_qr_scan"}, "lon": -77.048153, "type": "electric_scooter"}, {"bike_id": "9b898dbfc9bcb088714a6b89566aa331", "is_reserved": 0, "fusion_lon": 0.0, "lat": 38.923221833333336, "is_disabled": 0, "name": "9b898dbfc9bcb088714a6b89566aa331", "fusion_lat": 0.0, "rental_uris": {"ios": "https://dc.lft.to/lastmile_qr_scan", "android": "https://dc.lft.to/lastmile_qr_scan"}, "lon": -77.04129916666666, "type": "electric_scooter"}, {"bike_id": "4312e99a96fdf11fd91032cedfdd936f", "is_reserved": 0, "fusion_lon": 0.0, "lat": 38.90025, "is_disabled": 0, "name": "4312e99a96fdf11fd91032cedfdd936f", "fusion_lat": 0.0, "rental_uris": {"ios": "https://dc.lft.to/lastmile_qr_scan", "android": "https://dc.lft.to/lastmile_qr_scan"}, "lon": -77.0022245, "type": "electric_scooter"}, {"bike_id": "759e05ba6c9f24f2f63053993ec10847", "is_reserved": 0, "fusion_lon": 0.0, "lat": 38.879190333333334, "is_disabled": 0, "name": "759e05ba6c9f24f2f63053993ec10847", "fusion_lat": 0.0, "rental_uris": {"ios": "https://dc.lft.to/lastmile_qr_scan", "android": "https://dc.lft.to/lastmile_qr_scan"}, "lon": -76.99257416666667, "type": "electric_scooter"}, {"bike_id": "ef1188e6b69496b40f6a6d3bf548604a", "is_reserved": 0, "fusion_lon": 0.0, "lat": 38.89246516666667, "is_disabled": 0, "name": "ef1188e6b69496b40f6a6d3bf548604a", "fusion_lat": 0.0, "rental_uris": {"ios": "https://dc.lft.to/lastmile_qr_scan", "android": "https://dc.lft.to/lastmile_qr_scan"}, "lon": -77.03962866666667, "type": "electric_scooter"}, {"bike_id": "4a74aa9bc64dbc93b94f0436baac1e07", "is_reserved": 0, "fusion_lon": 0.0, "lat": 38.891951166666665, "is_disabled": 0, "name": "4a74aa9bc64dbc93b94f0436baac1e07", "fusion_lat": 0.0, "rental_uris": {"ios": "https://dc.lft.to/lastmile_qr_scan", "android": "https://dc.lft.to/lastmile_qr_scan"}, "lon": -77.02243983333334, "type": "electric_scooter"}, {"bike_id": "0ba831922f7b1e54a7e8a523a8529594", "is_reserved": 0, "fusion_lon": 0.0, "lat": 38.922624666666664, "is_disabled": 0, "name": "0ba831922f7b1e54a7e8a523a8529594", "fusion_lat": 0.0, "rental_uris": {"ios": "https://dc.lft.to/lastmile_qr_scan", "android": "https://dc.lft.to/lastmile_qr_scan"}, "lon": -77.01828216666667, "type": "electric_scooter"}, {"bike_id": "54375e377f257ec7790cd476c0cbb1e8", "is_reserved": 0, "fusion_lon": 0.0, "lat": 38.901292166666664, "is_disabled": 0, "name": "54375e377f257ec7790cd476c0cbb1e8", "fusion_lat": 0.0, "rental_uris": {"ios": "https://dc.lft.to/lastmile_qr_scan", "android": "https://dc.lft.to/lastmile_qr_scan"}, "lon": -76.997126, "type": "electric_scooter"}, {"bike_id": "dfaff5ebc1eac19cd55539261da4eb29", "is_reserved": 0, "fusion_lon": 0.0, "lat": 38.892153666666665, "is_disabled": 0, "name": "dfaff5ebc1eac19cd55539261da4eb29", "fusion_lat": 0.0, "rental_uris": {"ios": "https://dc.lft.to/lastmile_qr_scan", "android": "https://dc.lft.to/lastmile_qr_scan"}, "lon": -77.04871633333333, "type": "electric_scooter"}, {"bike_id": "476d0fcc846eb869761d12c4fb1a17c1", "is_reserved": 0, "fusion_lon": 0.0, "lat": 38.927091, "is_disabled": 0, "name": "476d0fcc846eb869761d12c4fb1a17c1", "fusion_lat": 0.0, "rental_uris": {"ios": "https://dc.lft.to/lastmile_qr_scan", "android": "https://dc.lft.to/lastmile_qr_scan"}, "lon": -77.0405495, "type": "electric_scooter"}, {"bike_id": "e40465d465c081962947ac82b56421e2", "is_reserved": 0, "fusion_lon": 0.0, "lat": 38.91165616666667, "is_disabled": 0, "name": "e40465d465c081962947ac82b56421e2", "fusion_lat": 0.0, "rental_uris": {"ios": "https://dc.lft.to/lastmile_qr_scan", "android": "https://dc.lft.to/lastmile_qr_scan"}, "lon": -76.98663333333333, "type": "electric_scooter"}, {"bike_id": "aed37a818256c22ab451dadc0b28051e", "is_reserved": 0, "fusion_lon": 0.0, "lat": 38.905143833333334, "is_disabled": 0, "name": "aed37a818256c22ab451dadc0b28051e", "fusion_lat": 0.0, "rental_uris": {"ios": "https://dc.lft.to/lastmile_qr_scan", "android": "https://dc.lft.to/lastmile_qr_scan"}, "lon": -77.06526783333334, "type": "electric_scooter"}, {"bike_id": "69469356250f31640d49b223a3d219f4", "is_reserved": 0, "fusion_lon": 0.0, "lat": 38.966990333333335, "is_disabled": 0, "name": "69469356250f31640d49b223a3d219f4", "fusion_lat": 0.0, "rental_uris": {"ios": "https://dc.lft.to/lastmile_qr_scan", "android": "https://dc.lft.to/lastmile_qr_scan"}, "lon": -77.10225083333333, "type": "electric_bike"}, {"bike_id": "8e35091a98ae6c7566078ac726fd4bb4", "is_reserved": 0, "fusion_lon": 0.0, "lat": 38.895453, "is_disabled": 0, "name": "8e35091a98ae6c7566078ac726fd4bb4", "fusion_lat": 0.0, "rental_uris": {"ios": "https://dc.lft.to/lastmile_qr_scan", "android": "https://dc.lft.to/lastmile_qr_scan"}, "lon": -76.980784, "type": "electric_scooter"}, {"bike_id": "68bc5543f9306a3f2d623302b4d9c95e", "is_reserved": 0, "fusion_lon": 0.0, "lat": 38.89613833333333, "is_disabled": 0, "name": "68bc5543f9306a3f2d623302b4d9c95e", "fusion_lat": 0.0, "rental_uris": {"ios": "https://dc.lft.to/lastmile_qr_scan", "android": "https://dc.lft.to/lastmile_qr_scan"}, "lon": -76.99571816666666, "type": "electric_scooter"}, {"bike_id": "8bafbebf79c7ac86de31438b337079f4", "is_reserved": 0, "fusion_lon": 0.0, "lat": 38.90966216666666, "is_disabled": 0, "name": "8bafbebf79c7ac86de31438b337079f4", "fusion_lat": 0.0, "rental_uris": {"ios": "https://dc.lft.to/lastmile_qr_scan", "android": "https://dc.lft.to/lastmile_qr_scan"}, "lon": -77.03330783333334, "type": "electric_scooter"}, {"bike_id": "f1ce9b19845685fb05511a9fc728f131", "is_reserved": 0, "fusion_lon": 0.0, "lat": 38.900742666666666, "is_disabled": 0, "name": "f1ce9b19845685fb05511a9fc728f131", "fusion_lat": 0.0, "rental_uris": {"ios": "https://dc.lft.to/lastmile_qr_scan", "android": "https://dc.lft.to/lastmile_qr_scan"}, "lon": -77.04384033333334, "type": "electric_scooter"}, {"bike_id": "4b4cc95128eb6569b6c609aae9401998", "is_reserved": 0, "fusion_lon": 0.0, "lat": 38.90364666666667, "is_disabled": 0, "name": "4b4cc95128eb6569b6c609aae9401998", "fusion_lat": 0.0, "rental_uris": {"ios": "https://dc.lft.to/lastmile_qr_scan", "android": "https://dc.lft.to/lastmile_qr_scan"}, "lon": -77.04186166666666, "type": "electric_scooter"}, {"bike_id": "701fb2f920f63a35f442f1e7e6299fb1", "is_reserved": 0, "fusion_lon": 0.0, "lat": 38.8616035, "is_disabled": 0, "name": "701fb2f920f63a35f442f1e7e6299fb1", "fusion_lat": 0.0, "rental_uris": {"ios": "https://dc.lft.to/lastmile_qr_scan", "android": "https://dc.lft.to/lastmile_qr_scan"}, "lon": -77.13094666666667, "type": "electric_bike"}, {"bike_id": "c0164a662bdfa817fb3d11ef7507de58", "is_reserved": 0, "fusion_lon": 0.0, "lat": 38.9036885, "is_disabled": 0, "name": "c0164a662bdfa817fb3d11ef7507de58", "fusion_lat": 0.0, "rental_uris": {"ios": "https://dc.lft.to/lastmile_qr_scan", "android": "https://dc.lft.to/lastmile_qr_scan"}, "lon": -77.03429116666666, "type": "electric_scooter"}, {"bike_id": "b20ea6aada5f7cb6fe9bc72162104180", "is_reserved": 0, "fusion_lon": 0.0, "lat": 38.902848, "is_disabled": 0, "name": "b20ea6aada5f7cb6fe9bc72162104180", "fusion_lat": 0.0, "rental_uris": {"ios": "https://dc.lft.to/lastmile_qr_scan", "android": "https://dc.lft.to/lastmile_qr_scan"}, "lon": -77.02591516666666, "type": "electric_scooter"}, {"bike_id": "d68d4ed066a7e4ad702def2c1be31d6a", "is_reserved": 0, "fusion_lon": 0.0, "lat": 38.8981985, "is_disabled": 0, "name": "d68d4ed066a7e4ad702def2c1be31d6a", "fusion_lat": 0.0, "rental_uris": {"ios": "https://dc.lft.to/lastmile_qr_scan", "android": "https://dc.lft.to/lastmile_qr_scan"}, "lon": -77.02920083333333, "type": "electric_scooter"}, {"bike_id": "db36942a7a19dcabe5775935a3aa2b47", "is_reserved": 0, "fusion_lon": 0.0, "lat": 38.908471, "is_disabled": 0, "name": "db36942a7a19dcabe5775935a3aa2b47", "fusion_lat": 0.0, "rental_uris": {"ios": "https://dc.lft.to/lastmile_qr_scan", "android": "https://dc.lft.to/lastmile_qr_scan"}, "lon": -77.05499683333333, "type": "electric_bike"}, {"bike_id": "2cb14f515088392175f7fa9281a44828", "is_reserved": 0, "fusion_lon": 0.0, "lat": 38.90089033333334, "is_disabled": 0, "name": "2cb14f515088392175f7fa9281a44828", "fusion_lat": 0.0, "rental_uris": {"ios": "https://dc.lft.to/lastmile_qr_scan", "android": "https://dc.lft.to/lastmile_qr_scan"}, "lon": -77.05035716666667, "type": "electric_scooter"}, {"bike_id": "f13eb1116c321ffa8f623bd99a17fa7e", "is_reserved": 0, "fusion_lon": 0.0, "lat": 38.873230166666666, "is_disabled": 0, "name": "f13eb1116c321ffa8f623bd99a17fa7e", "fusion_lat": 0.0, "rental_uris": {"ios": "https://dc.lft.to/lastmile_qr_scan", "android": "https://dc.lft.to/lastmile_qr_scan"}, "lon": -77.10623433333333, "type": "electric_bike"}, {"bike_id": "30b9920c0fa8621310f1dae0dc6aa8b8", "is_reserved": 0, "fusion_lon": 0.0, "lat": 38.901456333333336, "is_disabled": 0, "name": "30b9920c0fa8621310f1dae0dc6aa8b8", "fusion_lat": 0.0, "rental_uris": {"ios": "https://dc.lft.to/lastmile_qr_scan", "android": "https://dc.lft.to/lastmile_qr_scan"}, "lon": -77.04196266666666, "type": "electric_scooter"}, {"bike_id": "9c52278c182d668a99166508ff88e47d", "is_reserved": 0, "fusion_lon": 0.0, "lat": 38.9274085, "is_disabled": 0, "name": "9c52278c182d668a99166508ff88e47d", "fusion_lat": 0.0, "rental_uris": {"ios": "https://dc.lft.to/lastmile_qr_scan", "android": "https://dc.lft.to/lastmile_qr_scan"}, "lon": -77.014574, "type": "electric_scooter"}, {"bike_id": "635747104cd3ee3c86af938565d9e122", "is_reserved": 0, "fusion_lon": 0.0, "lat": 38.90877616666667, "is_disabled": 0, "name": "635747104cd3ee3c86af938565d9e122", "fusion_lat": 0.0, "rental_uris": {"ios": "https://dc.lft.to/lastmile_qr_scan", "android": "https://dc.lft.to/lastmile_qr_scan"}, "lon": -77.03296883333333, "type": "electric_scooter"}, {"bike_id": "954df1aea8739e6a4c4e0265983474d8", "is_reserved": 0, "fusion_lon": 0.0, "lat": 38.876739, "is_disabled": 0, "name": "954df1aea8739e6a4c4e0265983474d8", "fusion_lat": 0.0, "rental_uris": {"ios": "https://dc.lft.to/lastmile_qr_scan", "android": "https://dc.lft.to/lastmile_qr_scan"}, "lon": -77.0178915, "type": "electric_scooter"}, {"bike_id": "b38308b9f37e96b75679530b6d1ab212", "is_reserved": 0, "fusion_lon": 0.0, "lat": 38.905208, "is_disabled": 0, "name": "b38308b9f37e96b75679530b6d1ab212", "fusion_lat": 0.0, "rental_uris": {"ios": "https://dc.lft.to/lastmile_qr_scan", "android": "https://dc.lft.to/lastmile_qr_scan"}, "lon": -77.0653625, "type": "electric_scooter"}, {"bike_id": "36c454ea28821559fefe2e1ee30d4625", "is_reserved": 0, "fusion_lon": 0.0, "lat": 38.9043995, "is_disabled": 0, "name": "36c454ea28821559fefe2e1ee30d4625", "fusion_lat": 0.0, "rental_uris": {"ios": "https://dc.lft.to/lastmile_qr_scan", "android": "https://dc.lft.to/lastmile_qr_scan"}, "lon": -77.06122183333333, "type": "electric_scooter"}, {"bike_id": "f5d66bdb7d551eb91d4e821fb0d7a2c4", "is_reserved": 0, "fusion_lon": 0.0, "lat": 38.845714666666666, "is_disabled": 0, "name": "f5d66bdb7d551eb91d4e821fb0d7a2c4", "fusion_lat": 0.0, "rental_uris": {"ios": "https://dc.lft.to/lastmile_qr_scan", "android": "https://dc.lft.to/lastmile_qr_scan"}, "lon": -77.0962825, "type": "electric_bike"}, {"bike_id": "1e597d8028a59ab67dbdd98c9da685e2", "is_reserved": 0, "fusion_lon": 0.0, "lat": 38.897303, "is_disabled": 0, "name": "1e597d8028a59ab67dbdd98c9da685e2", "fusion_lat": 0.0, "rental_uris": {"ios": "https://dc.lft.to/lastmile_qr_scan", "android": "https://dc.lft.to/lastmile_qr_scan"}, "lon": -77.0547485, "type": "electric_scooter"}, {"bike_id": "ec9e59378514ce0dae6fc40ec3f26f81", "is_reserved": 0, "fusion_lon": 0.0, "lat": 38.89713116666667, "is_disabled": 0, "name": "ec9e59378514ce0dae6fc40ec3f26f81", "fusion_lat": 0.0, "rental_uris": {"ios": "https://dc.lft.to/lastmile_qr_scan", "android": "https://dc.lft.to/lastmile_qr_scan"}, "lon": -77.02413016666667, "type": "electric_scooter"}, {"bike_id": "d47850c0590180a63b712cbd7e4e15ef", "is_reserved": 0, "fusion_lon": 0.0, "lat": 38.92261833333333, "is_disabled": 0, "name": "d47850c0590180a63b712cbd7e4e15ef", "fusion_lat": 0.0, "rental_uris": {"ios": "https://dc.lft.to/lastmile_qr_scan", "android": "https://dc.lft.to/lastmile_qr_scan"}, "lon": -77.04307266666666, "type": "electric_scooter"}, {"bike_id": "9d06b1f4070d8400760891e48184d1c4", "is_reserved": 0, "fusion_lon": 0.0, "lat": 38.959389, "is_disabled": 0, "name": "9d06b1f4070d8400760891e48184d1c4", "fusion_lat": 0.0, "rental_uris": {"ios": "https://dc.lft.to/lastmile_qr_scan", "android": "https://dc.lft.to/lastmile_qr_scan"}, "lon": -77.03119766666667, "type": "electric_scooter"}, {"bike_id": "02d4805704c905047b0f095b0a8e274e", "is_reserved": 0, "fusion_lon": 0.0, "lat": 38.906192833333336, "is_disabled": 0, "name": "02d4805704c905047b0f095b0a8e274e", "fusion_lat": 0.0, "rental_uris": {"ios": "https://dc.lft.to/lastmile_qr_scan", "android": "https://dc.lft.to/lastmile_qr_scan"}, "lon": -76.986137, "type": "electric_bike"}, {"bike_id": "326964b52ccda71e95b8f5213d924489", "is_reserved": 0, "fusion_lon": 0.0, "lat": 38.90503016666667, "is_disabled": 0, "name": "326964b52ccda71e95b8f5213d924489", "fusion_lat": 0.0, "rental_uris": {"ios": "https://dc.lft.to/lastmile_qr_scan", "android": "https://dc.lft.to/lastmile_qr_scan"}, "lon": -76.9901765, "type": "electric_scooter"}, {"bike_id": "f2dfdead126242052bafefa353d4c351", "is_reserved": 0, "fusion_lon": 0.0, "lat": 38.906525333333335, "is_disabled": 0, "name": "f2dfdead126242052bafefa353d4c351", "fusion_lat": 0.0, "rental_uris": {"ios": "https://dc.lft.to/lastmile_qr_scan", "android": "https://dc.lft.to/lastmile_qr_scan"}, "lon": -77.00057516666666, "type": "electric_scooter"}, {"bike_id": "aaaf84eef18cd90209315cd594b6c849", "is_reserved": 0, "fusion_lon": 0.0, "lat": 38.935318333333335, "is_disabled": 0, "name": "aaaf84eef18cd90209315cd594b6c849", "fusion_lat": 0.0, "rental_uris": {"ios": "https://dc.lft.to/lastmile_qr_scan", "android": "https://dc.lft.to/lastmile_qr_scan"}, "lon": -77.02362116666667, "type": "electric_scooter"}, {"bike_id": "bba5c85e32d82d9be46693a334128dae", "is_reserved": 0, "fusion_lon": 0.0, "lat": 38.90388683333333, "is_disabled": 0, "name": "bba5c85e32d82d9be46693a334128dae", "fusion_lat": 0.0, "rental_uris": {"ios": "https://dc.lft.to/lastmile_qr_scan", "android": "https://dc.lft.to/lastmile_qr_scan"}, "lon": -77.0207535, "type": "electric_scooter"}, {"bike_id": "5db2e7dfcfe8822e7f49241818a00c04", "is_reserved": 0, "fusion_lon": 0.0, "lat": 38.920271666666665, "is_disabled": 0, "name": "5db2e7dfcfe8822e7f49241818a00c04", "fusion_lat": 0.0, "rental_uris": {"ios": "https://dc.lft.to/lastmile_qr_scan", "android": "https://dc.lft.to/lastmile_qr_scan"}, "lon": -77.0312705, "type": "electric_scooter"}, {"bike_id": "ce7fa8968004c9cb1e891e6890d16c17", "is_reserved": 0, "fusion_lon": 0.0, "lat": 38.90409066666667, "is_disabled": 0, "name": "ce7fa8968004c9cb1e891e6890d16c17", "fusion_lat": 0.0, "rental_uris": {"ios": "https://dc.lft.to/lastmile_qr_scan", "android": "https://dc.lft.to/lastmile_qr_scan"}, "lon": -77.03265483333334, "type": "electric_scooter"}, {"bike_id": "dd739b7a97a4d0920fd8496773ca1beb", "is_reserved": 0, "fusion_lon": 0.0, "lat": 38.897370333333335, "is_disabled": 0, "name": "dd739b7a97a4d0920fd8496773ca1beb", "fusion_lat": 0.0, "rental_uris": {"ios": "https://dc.lft.to/lastmile_qr_scan", "android": "https://dc.lft.to/lastmile_qr_scan"}, "lon": -77.04502366666667, "type": "electric_scooter"}, {"bike_id": "91e0e87260e2e63ff7bbe626ba7bcca7", "is_reserved": 0, "fusion_lon": 0.0, "lat": 38.91051216666666, "is_disabled": 0, "name": "91e0e87260e2e63ff7bbe626ba7bcca7", "fusion_lat": 0.0, "rental_uris": {"ios": "https://dc.lft.to/lastmile_qr_scan", "android": "https://dc.lft.to/lastmile_qr_scan"}, "lon": -77.022118, "type": "electric_scooter"}, {"bike_id": "5c2367e577076d6eebafa824314dcdf7", "is_reserved": 0, "fusion_lon": 0.0, "lat": 38.898276, "is_disabled": 0, "name": "5c2367e577076d6eebafa824314dcdf7", "fusion_lat": 0.0, "rental_uris": {"ios": "https://dc.lft.to/lastmile_qr_scan", "android": "https://dc.lft.to/lastmile_qr_scan"}, "lon": -77.0334275, "type": "electric_scooter"}, {"bike_id": "1f9636615ceecf9b57487bbbc0e37aaf", "is_reserved": 0, "fusion_lon": 0.0, "lat": 38.93349333333333, "is_disabled": 0, "name": "1f9636615ceecf9b57487bbbc0e37aaf", "fusion_lat": 0.0, "rental_uris": {"ios": "https://dc.lft.to/lastmile_qr_scan", "android": "https://dc.lft.to/lastmile_qr_scan"}, "lon": -77.05862516666667, "type": "electric_scooter"}, {"bike_id": "60f1b88e46e90e7458c6f267a632ec32", "is_reserved": 0, "fusion_lon": 0.0, "lat": 38.92115116666667, "is_disabled": 0, "name": "60f1b88e46e90e7458c6f267a632ec32", "fusion_lat": 0.0, "rental_uris": {"ios": "https://dc.lft.to/lastmile_qr_scan", "android": "https://dc.lft.to/lastmile_qr_scan"}, "lon": -77.0319475, "type": "electric_scooter"}, {"bike_id": "3575000db122a085e408e8aafbdb46f0", "is_reserved": 0, "fusion_lon": 0.0, "lat": 38.923626166666665, "is_disabled": 0, "name": "3575000db122a085e408e8aafbdb46f0", "fusion_lat": 0.0, "rental_uris": {"ios": "https://dc.lft.to/lastmile_qr_scan", "android": "https://dc.lft.to/lastmile_qr_scan"}, "lon": -77.05045116666666, "type": "electric_scooter"}, {"bike_id": "353c35dbd450b2ba3d336a6d50e39fcd", "is_reserved": 0, "fusion_lon": 0.0, "lat": 38.905176, "is_disabled": 0, "name": "353c35dbd450b2ba3d336a6d50e39fcd", "fusion_lat": 0.0, "rental_uris": {"ios": "https://dc.lft.to/lastmile_qr_scan", "android": "https://dc.lft.to/lastmile_qr_scan"}, "lon": -77.04160983333334, "type": "electric_scooter"}, {"bike_id": "1044eb503cdb6c1aa7a0a87a71b7e937", "is_reserved": 0, "fusion_lon": 0.0, "lat": 38.90687366666667, "is_disabled": 0, "name": "1044eb503cdb6c1aa7a0a87a71b7e937", "fusion_lat": 0.0, "rental_uris": {"ios": "https://dc.lft.to/lastmile_qr_scan", "android": "https://dc.lft.to/lastmile_qr_scan"}, "lon": -77.029847, "type": "electric_scooter"}, {"bike_id": "f15b9556ef18e569055bd4ab0e92cf8b", "is_reserved": 0, "fusion_lon": 0.0, "lat": 38.928498166666664, "is_disabled": 0, "name": "f15b9556ef18e569055bd4ab0e92cf8b", "fusion_lat": 0.0, "rental_uris": {"ios": "https://dc.lft.to/lastmile_qr_scan", "android": "https://dc.lft.to/lastmile_qr_scan"}, "lon": -77.03256233333333, "type": "electric_scooter"}, {"bike_id": "423c13fe2313d118636db1915a6f1319", "is_reserved": 0, "fusion_lon": 0.0, "lat": 38.902557333333334, "is_disabled": 0, "name": "423c13fe2313d118636db1915a6f1319", "fusion_lat": 0.0, "rental_uris": {"ios": "https://dc.lft.to/lastmile_qr_scan", "android": "https://dc.lft.to/lastmile_qr_scan"}, "lon": -77.0178325, "type": "electric_scooter"}, {"bike_id": "7facf0efcfcf7dd5a1134bc918d10421", "is_reserved": 0, "fusion_lon": 0.0, "lat": 38.96561233333333, "is_disabled": 0, "name": "7facf0efcfcf7dd5a1134bc918d10421", "fusion_lat": 0.0, "rental_uris": {"ios": "https://dc.lft.to/lastmile_qr_scan", "android": "https://dc.lft.to/lastmile_qr_scan"}, "lon": -77.02302483333334, "type": "electric_bike"}, {"bike_id": "77fde3bc4a922d271ff2e6be467b7d3d", "is_reserved": 0, "fusion_lon": 0.0, "lat": 38.87865566666667, "is_disabled": 0, "name": "77fde3bc4a922d271ff2e6be467b7d3d", "fusion_lat": 0.0, "rental_uris": {"ios": "https://dc.lft.to/lastmile_qr_scan", "android": "https://dc.lft.to/lastmile_qr_scan"}, "lon": -76.989878, "type": "electric_scooter"}, {"bike_id": "31392f1954aae2f8f426b7cd3c647536", "is_reserved": 0, "fusion_lon": 0.0, "lat": 38.905806166666665, "is_disabled": 0, "name": "31392f1954aae2f8f426b7cd3c647536", "fusion_lat": 0.0, "rental_uris": {"ios": "https://dc.lft.to/lastmile_qr_scan", "android": "https://dc.lft.to/lastmile_qr_scan"}, "lon": -77.04118266666667, "type": "electric_scooter"}, {"bike_id": "591cdfae57838d2b1b0424593eff625e", "is_reserved": 0, "fusion_lon": 0.0, "lat": 38.900370333333335, "is_disabled": 0, "name": "591cdfae57838d2b1b0424593eff625e", "fusion_lat": 0.0, "rental_uris": {"ios": "https://dc.lft.to/lastmile_qr_scan", "android": "https://dc.lft.to/lastmile_qr_scan"}, "lon": -77.04345683333334, "type": "electric_scooter"}, {"bike_id": "2cb79dbf5cab776709292a4e60a12ee2", "is_reserved": 0, "fusion_lon": 0.0, "lat": 38.92820666666667, "is_disabled": 0, "name": "2cb79dbf5cab776709292a4e60a12ee2", "fusion_lat": 0.0, "rental_uris": {"ios": "https://dc.lft.to/lastmile_qr_scan", "android": "https://dc.lft.to/lastmile_qr_scan"}, "lon": -77.03696733333334, "type": "electric_scooter"}, {"bike_id": "63add0aca61350261e3173624096c58e", "is_reserved": 0, "fusion_lon": 0.0, "lat": 38.902877, "is_disabled": 0, "name": "63add0aca61350261e3173624096c58e", "fusion_lat": 0.0, "rental_uris": {"ios": "https://dc.lft.to/lastmile_qr_scan", "android": "https://dc.lft.to/lastmile_qr_scan"}, "lon": -77.03450416666666, "type": "electric_scooter"}, {"bike_id": "6b324e1ad4884864abff5cf926c853e8", "is_reserved": 0, "fusion_lon": 0.0, "lat": 38.922481, "is_disabled": 0, "name": "6b324e1ad4884864abff5cf926c853e8", "fusion_lat": 0.0, "rental_uris": {"ios": "https://dc.lft.to/lastmile_qr_scan", "android": "https://dc.lft.to/lastmile_qr_scan"}, "lon": -77.03194733333333, "type": "electric_scooter"}, {"bike_id": "8425ad6f5b9d323de8731343777c2867", "is_reserved": 0, "fusion_lon": 0.0, "lat": 38.9173635, "is_disabled": 0, "name": "8425ad6f5b9d323de8731343777c2867", "fusion_lat": 0.0, "rental_uris": {"ios": "https://dc.lft.to/lastmile_qr_scan", "android": "https://dc.lft.to/lastmile_qr_scan"}, "lon": -77.0079585, "type": "electric_scooter"}, {"bike_id": "b28f184a0b8a217cbb442d028ce5de91", "is_reserved": 0, "fusion_lon": 0.0, "lat": 38.88121783333333, "is_disabled": 0, "name": "b28f184a0b8a217cbb442d028ce5de91", "fusion_lat": 0.0, "rental_uris": {"ios": "https://dc.lft.to/lastmile_qr_scan", "android": "https://dc.lft.to/lastmile_qr_scan"}, "lon": -77.0009675, "type": "electric_scooter"}, {"bike_id": "d964ec4d9df520f21a94d43947acf098", "is_reserved": 0, "fusion_lon": 0.0, "lat": 38.932633333333335, "is_disabled": 0, "name": "d964ec4d9df520f21a94d43947acf098", "fusion_lat": 0.0, "rental_uris": {"ios": "https://dc.lft.to/lastmile_qr_scan", "android": "https://dc.lft.to/lastmile_qr_scan"}, "lon": -77.032676, "type": "electric_scooter"}, {"bike_id": "4abd1e270cbdb843f1194609d474aeac", "is_reserved": 0, "fusion_lon": 0.0, "lat": 38.921223166666664, "is_disabled": 0, "name": "4abd1e270cbdb843f1194609d474aeac", "fusion_lat": 0.0, "rental_uris": {"ios": "https://dc.lft.to/lastmile_qr_scan", "android": "https://dc.lft.to/lastmile_qr_scan"}, "lon": -77.04130766666667, "type": "electric_scooter"}, {"bike_id": "6db5a4d96b1474bca81cf40a34f10717", "is_reserved": 0, "fusion_lon": 0.0, "lat": 38.92348916666667, "is_disabled": 0, "name": "6db5a4d96b1474bca81cf40a34f10717", "fusion_lat": 0.0, "rental_uris": {"ios": "https://dc.lft.to/lastmile_qr_scan", "android": "https://dc.lft.to/lastmile_qr_scan"}, "lon": -77.0535135, "type": "electric_scooter"}, {"bike_id": "efc53e3255e74119bbf022f178f4745f", "is_reserved": 0, "fusion_lon": 0.0, "lat": 38.900496833333335, "is_disabled": 0, "name": "efc53e3255e74119bbf022f178f4745f", "fusion_lat": 0.0, "rental_uris": {"ios": "https://dc.lft.to/lastmile_qr_scan", "android": "https://dc.lft.to/lastmile_qr_scan"}, "lon": -77.0006735, "type": "electric_scooter"}, {"bike_id": "e7a0edc61fc480fcd5c933e7aec236f9", "is_reserved": 0, "fusion_lon": 0.0, "lat": 38.8934525, "is_disabled": 0, "name": "e7a0edc61fc480fcd5c933e7aec236f9", "fusion_lat": 0.0, "rental_uris": {"ios": "https://dc.lft.to/lastmile_qr_scan", "android": "https://dc.lft.to/lastmile_qr_scan"}, "lon": -76.94939083333334, "type": "electric_scooter"}, {"bike_id": "435cd0b9acf1f6de1ecbf087a1ecd187", "is_reserved": 0, "fusion_lon": 0.0, "lat": 38.885019166666666, "is_disabled": 0, "name": "435cd0b9acf1f6de1ecbf087a1ecd187", "fusion_lat": 0.0, "rental_uris": {"ios": "https://dc.lft.to/lastmile_qr_scan", "android": "https://dc.lft.to/lastmile_qr_scan"}, "lon": -77.00567083333334, "type": "electric_scooter"}, {"bike_id": "ac96fd7ae19f908f5b55f3ee8d4b4d92", "is_reserved": 0, "fusion_lon": 0.0, "lat": 38.90272616666667, "is_disabled": 0, "name": "ac96fd7ae19f908f5b55f3ee8d4b4d92", "fusion_lat": 0.0, "rental_uris": {"ios": "https://dc.lft.to/lastmile_qr_scan", "android": "https://dc.lft.to/lastmile_qr_scan"}, "lon": -77.0383955, "type": "electric_scooter"}, {"bike_id": "a64adf7bb9b5352bc919580cef06a1cd", "is_reserved": 0, "fusion_lon": 0.0, "lat": 38.87372, "is_disabled": 0, "name": "a64adf7bb9b5352bc919580cef06a1cd", "fusion_lat": 0.0, "rental_uris": {"ios": "https://dc.lft.to/lastmile_qr_scan", "android": "https://dc.lft.to/lastmile_qr_scan"}, "lon": -77.11805683333333, "type": "electric_bike"}, {"bike_id": "3cf706ab4d72ff39da84d1f4eb15810e", "is_reserved": 0, "fusion_lon": 0.0, "lat": 38.94435133333333, "is_disabled": 0, "name": "3cf706ab4d72ff39da84d1f4eb15810e", "fusion_lat": 0.0, "rental_uris": {"ios": "https://dc.lft.to/lastmile_qr_scan", "android": "https://dc.lft.to/lastmile_qr_scan"}, "lon": -76.99238116666666, "type": "electric_scooter"}, {"bike_id": "9a8d7b77dc11a4f09947ca4595afb5ef", "is_reserved": 0, "fusion_lon": 0.0, "lat": 38.91941766666667, "is_disabled": 0, "name": "9a8d7b77dc11a4f09947ca4595afb5ef", "fusion_lat": 0.0, "rental_uris": {"ios": "https://dc.lft.to/lastmile_qr_scan", "android": "https://dc.lft.to/lastmile_qr_scan"}, "lon": -77.04150233333333, "type": "electric_scooter"}, {"bike_id": "67ba6d84a1e5d9ca366579e0344cbbb3", "is_reserved": 0, "fusion_lon": 0.0, "lat": 38.904465, "is_disabled": 0, "name": "67ba6d84a1e5d9ca366579e0344cbbb3", "fusion_lat": 0.0, "rental_uris": {"ios": "https://dc.lft.to/lastmile_qr_scan", "android": "https://dc.lft.to/lastmile_qr_scan"}, "lon": -77.059206, "type": "electric_scooter"}, {"bike_id": "2c7a1759bcdc816378ea3958298bfe3d", "is_reserved": 0, "fusion_lon": 0.0, "lat": 38.912585166666666, "is_disabled": 0, "name": "2c7a1759bcdc816378ea3958298bfe3d", "fusion_lat": 0.0, "rental_uris": {"ios": "https://dc.lft.to/lastmile_qr_scan", "android": "https://dc.lft.to/lastmile_qr_scan"}, "lon": -77.0350685, "type": "electric_scooter"}, {"bike_id": "6aedc21edbccacdfab3b6b165d5c7a51", "is_reserved": 0, "fusion_lon": 0.0, "lat": 38.90148283333333, "is_disabled": 0, "name": "6aedc21edbccacdfab3b6b165d5c7a51", "fusion_lat": 0.0, "rental_uris": {"ios": "https://dc.lft.to/lastmile_qr_scan", "android": "https://dc.lft.to/lastmile_qr_scan"}, "lon": -77.02729166666667, "type": "electric_scooter"}, {"bike_id": "6cde8ace532dbba337eb3f01ee98fb48", "is_reserved": 0, "fusion_lon": 0.0, "lat": 38.866126666666666, "is_disabled": 0, "name": "6cde8ace532dbba337eb3f01ee98fb48", "fusion_lat": 0.0, "rental_uris": {"ios": "https://dc.lft.to/lastmile_qr_scan", "android": "https://dc.lft.to/lastmile_qr_scan"}, "lon": -76.98673566666666, "type": "electric_scooter"}, {"bike_id": "6ddcf4c62de7707448d2bde4c0c3de0c", "is_reserved": 0, "fusion_lon": 0.0, "lat": 38.90864966666667, "is_disabled": 0, "name": "6ddcf4c62de7707448d2bde4c0c3de0c", "fusion_lat": 0.0, "rental_uris": {"ios": "https://dc.lft.to/lastmile_qr_scan", "android": "https://dc.lft.to/lastmile_qr_scan"}, "lon": -77.02541183333334, "type": "electric_scooter"}, {"bike_id": "c477dc922197b937328e819ac37edc43", "is_reserved": 0, "fusion_lon": 0.0, "lat": 38.913340166666664, "is_disabled": 0, "name": "c477dc922197b937328e819ac37edc43", "fusion_lat": 0.0, "rental_uris": {"ios": "https://dc.lft.to/lastmile_qr_scan", "android": "https://dc.lft.to/lastmile_qr_scan"}, "lon": -77.04844383333334, "type": "electric_scooter"}, {"bike_id": "af8ec46e56d582a268a6c937681ea71d", "is_reserved": 0, "fusion_lon": 0.0, "lat": 38.90139416666667, "is_disabled": 0, "name": "af8ec46e56d582a268a6c937681ea71d", "fusion_lat": 0.0, "rental_uris": {"ios": "https://dc.lft.to/lastmile_qr_scan", "android": "https://dc.lft.to/lastmile_qr_scan"}, "lon": -76.97855616666666, "type": "electric_scooter"}, {"bike_id": "6e8450759fb1e78ff68f22ff80d5d1be", "is_reserved": 0, "fusion_lon": 0.0, "lat": 38.91703733333333, "is_disabled": 0, "name": "6e8450759fb1e78ff68f22ff80d5d1be", "fusion_lat": 0.0, "rental_uris": {"ios": "https://dc.lft.to/lastmile_qr_scan", "android": "https://dc.lft.to/lastmile_qr_scan"}, "lon": -77.03491966666667, "type": "electric_scooter"}, {"bike_id": "31e7f071926e1374c54557f517d158e4", "is_reserved": 0, "fusion_lon": 0.0, "lat": 38.8826835, "is_disabled": 0, "name": "31e7f071926e1374c54557f517d158e4", "fusion_lat": 0.0, "rental_uris": {"ios": "https://dc.lft.to/lastmile_qr_scan", "android": "https://dc.lft.to/lastmile_qr_scan"}, "lon": -76.99517733333333, "type": "electric_scooter"}, {"bike_id": "a9c4f49a18906ac980c62343e2c953b6", "is_reserved": 0, "fusion_lon": 0.0, "lat": 38.8998525, "is_disabled": 0, "name": "a9c4f49a18906ac980c62343e2c953b6", "fusion_lat": 0.0, "rental_uris": {"ios": "https://dc.lft.to/lastmile_qr_scan", "android": "https://dc.lft.to/lastmile_qr_scan"}, "lon": -77.027157, "type": "electric_scooter"}, {"bike_id": "f4a3d2c3c388417406177e85cff78e19", "is_reserved": 0, "fusion_lon": 0.0, "lat": 38.902287333333334, "is_disabled": 0, "name": "f4a3d2c3c388417406177e85cff78e19", "fusion_lat": 0.0, "rental_uris": {"ios": "https://dc.lft.to/lastmile_qr_scan", "android": "https://dc.lft.to/lastmile_qr_scan"}, "lon": -77.02378533333334, "type": "electric_scooter"}, {"bike_id": "b2708e87b2d70febc7f380fe57e9bd77", "is_reserved": 0, "fusion_lon": 0.0, "lat": 38.924016, "is_disabled": 0, "name": "b2708e87b2d70febc7f380fe57e9bd77", "fusion_lat": 0.0, "rental_uris": {"ios": "https://dc.lft.to/lastmile_qr_scan", "android": "https://dc.lft.to/lastmile_qr_scan"}, "lon": -77.03525683333334, "type": "electric_bike"}, {"bike_id": "049fb6b3bcd81ad5d06c8511f4f461a9", "is_reserved": 0, "fusion_lon": 0.0, "lat": 38.905541166666666, "is_disabled": 0, "name": "049fb6b3bcd81ad5d06c8511f4f461a9", "fusion_lat": 0.0, "rental_uris": {"ios": "https://dc.lft.to/lastmile_qr_scan", "android": "https://dc.lft.to/lastmile_qr_scan"}, "lon": -77.038341, "type": "electric_scooter"}, {"bike_id": "ce536a29a3474c44f601b7f6a0ede76c", "is_reserved": 0, "fusion_lon": 0.0, "lat": 38.90183783333333, "is_disabled": 0, "name": "ce536a29a3474c44f601b7f6a0ede76c", "fusion_lat": 0.0, "rental_uris": {"ios": "https://dc.lft.to/lastmile_qr_scan", "android": "https://dc.lft.to/lastmile_qr_scan"}, "lon": -76.93470166666667, "type": "electric_scooter"}, {"bike_id": "92654694dc1a78e7e90b93de0d715953", "is_reserved": 0, "fusion_lon": 0.0, "lat": 38.87115166666667, "is_disabled": 0, "name": "92654694dc1a78e7e90b93de0d715953", "fusion_lat": 0.0, "rental_uris": {"ios": "https://dc.lft.to/lastmile_qr_scan", "android": "https://dc.lft.to/lastmile_qr_scan"}, "lon": -77.0075405, "type": "electric_scooter"}, {"bike_id": "36478c6970ffbabfb3f48ef44222c276", "is_reserved": 0, "fusion_lon": 0.0, "lat": 38.920705166666664, "is_disabled": 0, "name": "36478c6970ffbabfb3f48ef44222c276", "fusion_lat": 0.0, "rental_uris": {"ios": "https://dc.lft.to/lastmile_qr_scan", "android": "https://dc.lft.to/lastmile_qr_scan"}, "lon": -77.0468765, "type": "electric_scooter"}, {"bike_id": "0d45fc2a5325fda0c1c5eedfda3bc161", "is_reserved": 0, "fusion_lon": 0.0, "lat": 38.9011535, "is_disabled": 0, "name": "0d45fc2a5325fda0c1c5eedfda3bc161", "fusion_lat": 0.0, "rental_uris": {"ios": "https://dc.lft.to/lastmile_qr_scan", "android": "https://dc.lft.to/lastmile_qr_scan"}, "lon": -77.0435145, "type": "electric_scooter"}, {"bike_id": "44b45cdcfbd7846b5ac7d5fa8574f2c1", "is_reserved": 0, "fusion_lon": 0.0, "lat": 38.88015983333333, "is_disabled": 0, "name": "44b45cdcfbd7846b5ac7d5fa8574f2c1", "fusion_lat": 0.0, "rental_uris": {"ios": "https://dc.lft.to/lastmile_qr_scan", "android": "https://dc.lft.to/lastmile_qr_scan"}, "lon": -76.93134383333333, "type": "electric_scooter"}, {"bike_id": "42c38ae8dcb3a1bd85e41604d08e1efa", "is_reserved": 0, "fusion_lon": 0.0, "lat": 38.908440166666665, "is_disabled": 0, "name": "42c38ae8dcb3a1bd85e41604d08e1efa", "fusion_lat": 0.0, "rental_uris": {"ios": "https://dc.lft.to/lastmile_qr_scan", "android": "https://dc.lft.to/lastmile_qr_scan"}, "lon": -77.03347816666667, "type": "electric_scooter"}, {"bike_id": "8427917c1a5793961978c843edf276a1", "is_reserved": 0, "fusion_lon": 0.0, "lat": 38.920723833333334, "is_disabled": 0, "name": "8427917c1a5793961978c843edf276a1", "fusion_lat": 0.0, "rental_uris": {"ios": "https://dc.lft.to/lastmile_qr_scan", "android": "https://dc.lft.to/lastmile_qr_scan"}, "lon": -77.04212433333333, "type": "electric_scooter"}, {"bike_id": "000ff31ff5b9088b934bb45ef25ed2cb", "is_reserved": 0, "fusion_lon": 0.0, "lat": 38.90430583333333, "is_disabled": 0, "name": "000ff31ff5b9088b934bb45ef25ed2cb", "fusion_lat": 0.0, "rental_uris": {"ios": "https://dc.lft.to/lastmile_qr_scan", "android": "https://dc.lft.to/lastmile_qr_scan"}, "lon": -77.04362033333334, "type": "electric_scooter"}, {"bike_id": "b972d7714754d4380f34c127bcd72e51", "is_reserved": 0, "fusion_lon": 0.0, "lat": 38.930145333333336, "is_disabled": 0, "name": "b972d7714754d4380f34c127bcd72e51", "fusion_lat": 0.0, "rental_uris": {"ios": "https://dc.lft.to/lastmile_qr_scan", "android": "https://dc.lft.to/lastmile_qr_scan"}, "lon": -77.0619415, "type": "electric_scooter"}, {"bike_id": "567653620e42042b55db74417de78a30", "is_reserved": 0, "fusion_lon": 0.0, "lat": 38.897007333333335, "is_disabled": 0, "name": "567653620e42042b55db74417de78a30", "fusion_lat": 0.0, "rental_uris": {"ios": "https://dc.lft.to/lastmile_qr_scan", "android": "https://dc.lft.to/lastmile_qr_scan"}, "lon": -76.91772283333333, "type": "electric_scooter"}, {"bike_id": "a9c76d0eeb3c77aa649a63aa34025e0d", "is_reserved": 0, "fusion_lon": 0.0, "lat": 38.88479483333333, "is_disabled": 0, "name": "a9c76d0eeb3c77aa649a63aa34025e0d", "fusion_lat": 0.0, "rental_uris": {"ios": "https://dc.lft.to/lastmile_qr_scan", "android": "https://dc.lft.to/lastmile_qr_scan"}, "lon": -77.03359033333334, "type": "electric_scooter"}, {"bike_id": "55bb4cc996dea89cb1ba2a902169e992", "is_reserved": 0, "fusion_lon": 0.0, "lat": 38.899688833333336, "is_disabled": 0, "name": "55bb4cc996dea89cb1ba2a902169e992", "fusion_lat": 0.0, "rental_uris": {"ios": "https://dc.lft.to/lastmile_qr_scan", "android": "https://dc.lft.to/lastmile_qr_scan"}, "lon": -77.0472165, "type": "electric_scooter"}, {"bike_id": "5cfe9e7c243fbab647da1f389a0cd856", "is_reserved": 0, "fusion_lon": 0.0, "lat": 38.8272675, "is_disabled": 0, "name": "5cfe9e7c243fbab647da1f389a0cd856", "fusion_lat": 0.0, "rental_uris": {"ios": "https://dc.lft.to/lastmile_qr_scan", "android": "https://dc.lft.to/lastmile_qr_scan"}, "lon": -77.00863433333333, "type": "electric_bike"}, {"bike_id": "cfd96f4ddda3d29e539a6c43a0c8c219", "is_reserved": 0, "fusion_lon": 0.0, "lat": 38.925192, "is_disabled": 0, "name": "cfd96f4ddda3d29e539a6c43a0c8c219", "fusion_lat": 0.0, "rental_uris": {"ios": "https://dc.lft.to/lastmile_qr_scan", "android": "https://dc.lft.to/lastmile_qr_scan"}, "lon": -77.05135533333333, "type": "electric_scooter"}, {"bike_id": "b28cc3e00d7ce1e384ec86cd9742f93a", "is_reserved": 0, "fusion_lon": 0.0, "lat": 38.89242216666667, "is_disabled": 0, "name": "b28cc3e00d7ce1e384ec86cd9742f93a", "fusion_lat": 0.0, "rental_uris": {"ios": "https://dc.lft.to/lastmile_qr_scan", "android": "https://dc.lft.to/lastmile_qr_scan"}, "lon": -77.0395675, "type": "electric_scooter"}, {"bike_id": "ddcdd76257b18a417e9057b5546978df", "is_reserved": 0, "fusion_lon": 0.0, "lat": 38.90464733333334, "is_disabled": 0, "name": "ddcdd76257b18a417e9057b5546978df", "fusion_lat": 0.0, "rental_uris": {"ios": "https://dc.lft.to/lastmile_qr_scan", "android": "https://dc.lft.to/lastmile_qr_scan"}, "lon": -77.043643, "type": "electric_scooter"}, {"bike_id": "463027c12d80e0af06654b6cb1e6c0bb", "is_reserved": 0, "fusion_lon": 0.0, "lat": 38.884327666666664, "is_disabled": 0, "name": "463027c12d80e0af06654b6cb1e6c0bb", "fusion_lat": 0.0, "rental_uris": {"ios": "https://dc.lft.to/lastmile_qr_scan", "android": "https://dc.lft.to/lastmile_qr_scan"}, "lon": -77.02369983333334, "type": "electric_scooter"}, {"bike_id": "5d941cca84692182bec434c877572c3b", "is_reserved": 0, "fusion_lon": 0.0, "lat": 38.886604, "is_disabled": 0, "name": "5d941cca84692182bec434c877572c3b", "fusion_lat": 0.0, "rental_uris": {"ios": "https://dc.lft.to/lastmile_qr_scan", "android": "https://dc.lft.to/lastmile_qr_scan"}, "lon": -77.03387633333334, "type": "electric_scooter"}, {"bike_id": "0f5b530b767f9d6530c87c486d3311a5", "is_reserved": 0, "fusion_lon": 0.0, "lat": 38.918828, "is_disabled": 0, "name": "0f5b530b767f9d6530c87c486d3311a5", "fusion_lat": 0.0, "rental_uris": {"ios": "https://dc.lft.to/lastmile_qr_scan", "android": "https://dc.lft.to/lastmile_qr_scan"}, "lon": -77.01596916666666, "type": "electric_scooter"}, {"bike_id": "02dd48ff737fac95699e52d92e91df99", "is_reserved": 0, "fusion_lon": 0.0, "lat": 38.89557466666667, "is_disabled": 0, "name": "02dd48ff737fac95699e52d92e91df99", "fusion_lat": 0.0, "rental_uris": {"ios": "https://dc.lft.to/lastmile_qr_scan", "android": "https://dc.lft.to/lastmile_qr_scan"}, "lon": -76.9337005, "type": "electric_scooter"}, {"bike_id": "83e21e70856ce66e1679e02039e7b020", "is_reserved": 0, "fusion_lon": 0.0, "lat": 38.93236533333334, "is_disabled": 0, "name": "83e21e70856ce66e1679e02039e7b020", "fusion_lat": 0.0, "rental_uris": {"ios": "https://dc.lft.to/lastmile_qr_scan", "android": "https://dc.lft.to/lastmile_qr_scan"}, "lon": -77.0326525, "type": "electric_scooter"}, {"bike_id": "7a0f7e5144569ec60069020f4e64c0dc", "is_reserved": 0, "fusion_lon": 0.0, "lat": 38.90380233333333, "is_disabled": 0, "name": "7a0f7e5144569ec60069020f4e64c0dc", "fusion_lat": 0.0, "rental_uris": {"ios": "https://dc.lft.to/lastmile_qr_scan", "android": "https://dc.lft.to/lastmile_qr_scan"}, "lon": -77.04381833333333, "type": "electric_scooter"}, {"bike_id": "e3fd522a1812c4e27b217bf513137937", "is_reserved": 0, "fusion_lon": 0.0, "lat": 38.95923716666667, "is_disabled": 0, "name": "e3fd522a1812c4e27b217bf513137937", "fusion_lat": 0.0, "rental_uris": {"ios": "https://dc.lft.to/lastmile_qr_scan", "android": "https://dc.lft.to/lastmile_qr_scan"}, "lon": -77.03326416666667, "type": "electric_scooter"}, {"bike_id": "487e1e56b30c58e430dfd94a3ec6e0e1", "is_reserved": 0, "fusion_lon": 0.0, "lat": 38.865568333333336, "is_disabled": 0, "name": "487e1e56b30c58e430dfd94a3ec6e0e1", "fusion_lat": 0.0, "rental_uris": {"ios": "https://dc.lft.to/lastmile_qr_scan", "android": "https://dc.lft.to/lastmile_qr_scan"}, "lon": -76.98953233333333, "type": "electric_scooter"}, {"bike_id": "5afe797c3de96ede854585707030342e", "is_reserved": 0, "fusion_lon": 0.0, "lat": 38.90011633333334, "is_disabled": 0, "name": "5afe797c3de96ede854585707030342e", "fusion_lat": 0.0, "rental_uris": {"ios": "https://dc.lft.to/lastmile_qr_scan", "android": "https://dc.lft.to/lastmile_qr_scan"}, "lon": -77.0023485, "type": "electric_scooter"}, {"bike_id": "23e880a817d40a4504c829e57f8da62d", "is_reserved": 0, "fusion_lon": 0.0, "lat": 38.905516, "is_disabled": 0, "name": "23e880a817d40a4504c829e57f8da62d", "fusion_lat": 0.0, "rental_uris": {"ios": "https://dc.lft.to/lastmile_qr_scan", "android": "https://dc.lft.to/lastmile_qr_scan"}, "lon": -77.02489833333334, "type": "electric_scooter"}, {"bike_id": "ca1d0ff10ef48c479d5443cef2add62d", "is_reserved": 0, "fusion_lon": 0.0, "lat": 38.908061000000004, "is_disabled": 0, "name": "ca1d0ff10ef48c479d5443cef2add62d", "fusion_lat": 0.0, "rental_uris": {"ios": "https://dc.lft.to/lastmile_qr_scan", "android": "https://dc.lft.to/lastmile_qr_scan"}, "lon": -77.01851, "type": "electric_scooter"}, {"bike_id": "9b60c4fd7f704b4607ca6fae06360934", "is_reserved": 0, "fusion_lon": 0.0, "lat": 38.902356833333336, "is_disabled": 0, "name": "9b60c4fd7f704b4607ca6fae06360934", "fusion_lat": 0.0, "rental_uris": {"ios": "https://dc.lft.to/lastmile_qr_scan", "android": "https://dc.lft.to/lastmile_qr_scan"}, "lon": -77.026964, "type": "electric_scooter"}, {"bike_id": "49707a274143b501b681a303c55937f6", "is_reserved": 0, "fusion_lon": 0.0, "lat": 38.919409333333334, "is_disabled": 0, "name": "49707a274143b501b681a303c55937f6", "fusion_lat": 0.0, "rental_uris": {"ios": "https://dc.lft.to/lastmile_qr_scan", "android": "https://dc.lft.to/lastmile_qr_scan"}, "lon": -77.044853, "type": "electric_scooter"}, {"bike_id": "309d5544252183625385447bac40df80", "is_reserved": 0, "fusion_lon": 0.0, "lat": 38.92486433333333, "is_disabled": 0, "name": "309d5544252183625385447bac40df80", "fusion_lat": 0.0, "rental_uris": {"ios": "https://dc.lft.to/lastmile_qr_scan", "android": "https://dc.lft.to/lastmile_qr_scan"}, "lon": -77.021438, "type": "electric_scooter"}, {"bike_id": "881627da8d474f7df4b43108873a4406", "is_reserved": 0, "fusion_lon": 0.0, "lat": 38.9182965, "is_disabled": 0, "name": "881627da8d474f7df4b43108873a4406", "fusion_lat": 0.0, "rental_uris": {"ios": "https://dc.lft.to/lastmile_qr_scan", "android": "https://dc.lft.to/lastmile_qr_scan"}, "lon": -77.0415585, "type": "electric_scooter"}, {"bike_id": "113f3be812db945b6bfc1ba4e2c2c1b3", "is_reserved": 0, "fusion_lon": 0.0, "lat": 38.900195333333336, "is_disabled": 0, "name": "113f3be812db945b6bfc1ba4e2c2c1b3", "fusion_lat": 0.0, "rental_uris": {"ios": "https://dc.lft.to/lastmile_qr_scan", "android": "https://dc.lft.to/lastmile_qr_scan"}, "lon": -77.04039016666667, "type": "electric_scooter"}, {"bike_id": "c1a8a06f91afcecf794f102f23deee68", "is_reserved": 0, "fusion_lon": 0.0, "lat": 38.84420983333333, "is_disabled": 0, "name": "c1a8a06f91afcecf794f102f23deee68", "fusion_lat": 0.0, "rental_uris": {"ios": "https://dc.lft.to/lastmile_qr_scan", "android": "https://dc.lft.to/lastmile_qr_scan"}, "lon": -76.997803, "type": "electric_scooter"}, {"bike_id": "c759b40c53d242f7da02e6c063e46514", "is_reserved": 0, "fusion_lon": 0.0, "lat": 38.90275916666667, "is_disabled": 0, "name": "c759b40c53d242f7da02e6c063e46514", "fusion_lat": 0.0, "rental_uris": {"ios": "https://dc.lft.to/lastmile_qr_scan", "android": "https://dc.lft.to/lastmile_qr_scan"}, "lon": -77.04027066666667, "type": "electric_scooter"}, {"bike_id": "3fe7c169550cdebaa98c7b1820dcc182", "is_reserved": 0, "fusion_lon": 0.0, "lat": 38.917674833333336, "is_disabled": 0, "name": "3fe7c169550cdebaa98c7b1820dcc182", "fusion_lat": 0.0, "rental_uris": {"ios": "https://dc.lft.to/lastmile_qr_scan", "android": "https://dc.lft.to/lastmile_qr_scan"}, "lon": -77.02398866666667, "type": "electric_scooter"}, {"bike_id": "e80dc3efff21a8412ceef43c9caabd23", "is_reserved": 0, "fusion_lon": 0.0, "lat": 38.91036066666667, "is_disabled": 0, "name": "e80dc3efff21a8412ceef43c9caabd23", "fusion_lat": 0.0, "rental_uris": {"ios": "https://dc.lft.to/lastmile_qr_scan", "android": "https://dc.lft.to/lastmile_qr_scan"}, "lon": -77.04395, "type": "electric_scooter"}, {"bike_id": "40d6cb90a603c40ab9859714ef6068df", "is_reserved": 0, "fusion_lon": 0.0, "lat": 38.87550983333333, "is_disabled": 0, "name": "40d6cb90a603c40ab9859714ef6068df", "fusion_lat": 0.0, "rental_uris": {"ios": "https://dc.lft.to/lastmile_qr_scan", "android": "https://dc.lft.to/lastmile_qr_scan"}, "lon": -76.964938, "type": "electric_scooter"}, {"bike_id": "7d8256551f66fbf9eb56b27a3a94f7f4", "is_reserved": 0, "fusion_lon": 0.0, "lat": 38.9287295, "is_disabled": 0, "name": "7d8256551f66fbf9eb56b27a3a94f7f4", "fusion_lat": 0.0, "rental_uris": {"ios": "https://dc.lft.to/lastmile_qr_scan", "android": "https://dc.lft.to/lastmile_qr_scan"}, "lon": -77.0332925, "type": "electric_scooter"}, {"bike_id": "43c354a2753bd073b1f59e39ed84c145", "is_reserved": 0, "fusion_lon": 0.0, "lat": 38.904074666666666, "is_disabled": 0, "name": "43c354a2753bd073b1f59e39ed84c145", "fusion_lat": 0.0, "rental_uris": {"ios": "https://dc.lft.to/lastmile_qr_scan", "android": "https://dc.lft.to/lastmile_qr_scan"}, "lon": -76.981047, "type": "electric_scooter"}, {"bike_id": "667cf66e290002a648e204dc17aee425", "is_reserved": 0, "fusion_lon": 0.0, "lat": 38.86198733333333, "is_disabled": 0, "name": "667cf66e290002a648e204dc17aee425", "fusion_lat": 0.0, "rental_uris": {"ios": "https://dc.lft.to/lastmile_qr_scan", "android": "https://dc.lft.to/lastmile_qr_scan"}, "lon": -76.9946775, "type": "electric_scooter"}, {"bike_id": "b2b667cc1f442b8269b86c744be716de", "is_reserved": 0, "fusion_lon": 0.0, "lat": 38.906713333333336, "is_disabled": 0, "name": "b2b667cc1f442b8269b86c744be716de", "fusion_lat": 0.0, "rental_uris": {"ios": "https://dc.lft.to/lastmile_qr_scan", "android": "https://dc.lft.to/lastmile_qr_scan"}, "lon": -76.987882, "type": "electric_scooter"}, {"bike_id": "9cfb2d268b963245cebdd8e283d949d4", "is_reserved": 0, "fusion_lon": 0.0, "lat": 38.9587415, "is_disabled": 0, "name": "9cfb2d268b963245cebdd8e283d949d4", "fusion_lat": 0.0, "rental_uris": {"ios": "https://dc.lft.to/lastmile_qr_scan", "android": "https://dc.lft.to/lastmile_qr_scan"}, "lon": -76.9249605, "type": "electric_bike"}, {"bike_id": "09b7c48ad5765236e7bf649e8730a755", "is_reserved": 0, "fusion_lon": 0.0, "lat": 38.902684, "is_disabled": 0, "name": "09b7c48ad5765236e7bf649e8730a755", "fusion_lat": 0.0, "rental_uris": {"ios": "https://dc.lft.to/lastmile_qr_scan", "android": "https://dc.lft.to/lastmile_qr_scan"}, "lon": -77.03266783333333, "type": "electric_scooter"}, {"bike_id": "83c22b056ebb5061a824db6f8f6b752e", "is_reserved": 0, "fusion_lon": 0.0, "lat": 38.89988916666667, "is_disabled": 0, "name": "83c22b056ebb5061a824db6f8f6b752e", "fusion_lat": 0.0, "rental_uris": {"ios": "https://dc.lft.to/lastmile_qr_scan", "android": "https://dc.lft.to/lastmile_qr_scan"}, "lon": -77.052387, "type": "electric_scooter"}, {"bike_id": "60f92ae6e5f9b7d7408f2987b64fc328", "is_reserved": 0, "fusion_lon": 0.0, "lat": 38.91686, "is_disabled": 0, "name": "60f92ae6e5f9b7d7408f2987b64fc328", "fusion_lat": 0.0, "rental_uris": {"ios": "https://dc.lft.to/lastmile_qr_scan", "android": "https://dc.lft.to/lastmile_qr_scan"}, "lon": -77.02959966666667, "type": "electric_scooter"}, {"bike_id": "93151d2975e7a827c862d503ccb564f4", "is_reserved": 0, "fusion_lon": 0.0, "lat": 38.89037366666667, "is_disabled": 0, "name": "93151d2975e7a827c862d503ccb564f4", "fusion_lat": 0.0, "rental_uris": {"ios": "https://dc.lft.to/lastmile_qr_scan", "android": "https://dc.lft.to/lastmile_qr_scan"}, "lon": -76.9408135, "type": "electric_scooter"}, {"bike_id": "5fc0aacf76eca0a241c6c59bc39d7ad7", "is_reserved": 0, "fusion_lon": 0.0, "lat": 38.89546416666666, "is_disabled": 0, "name": "5fc0aacf76eca0a241c6c59bc39d7ad7", "fusion_lat": 0.0, "rental_uris": {"ios": "https://dc.lft.to/lastmile_qr_scan", "android": "https://dc.lft.to/lastmile_qr_scan"}, "lon": -77.04854483333334, "type": "electric_scooter"}, {"bike_id": "127c4137e9b83b62db7a41c79d121ced", "is_reserved": 0, "fusion_lon": 0.0, "lat": 38.905211666666666, "is_disabled": 0, "name": "127c4137e9b83b62db7a41c79d121ced", "fusion_lat": 0.0, "rental_uris": {"ios": "https://dc.lft.to/lastmile_qr_scan", "android": "https://dc.lft.to/lastmile_qr_scan"}, "lon": -77.0599965, "type": "electric_scooter"}, {"bike_id": "60ef15414aff587b6da0b7f5095ccac0", "is_reserved": 0, "fusion_lon": 0.0, "lat": 38.89225733333333, "is_disabled": 0, "name": "60ef15414aff587b6da0b7f5095ccac0", "fusion_lat": 0.0, "rental_uris": {"ios": "https://dc.lft.to/lastmile_qr_scan", "android": "https://dc.lft.to/lastmile_qr_scan"}, "lon": -77.04368166666667, "type": "electric_scooter"}, {"bike_id": "dd4ccd8ff7f6f7bc43f4ad3f8f9b010e", "is_reserved": 0, "fusion_lon": 0.0, "lat": 38.930416666666666, "is_disabled": 0, "name": "dd4ccd8ff7f6f7bc43f4ad3f8f9b010e", "fusion_lat": 0.0, "rental_uris": {"ios": "https://dc.lft.to/lastmile_qr_scan", "android": "https://dc.lft.to/lastmile_qr_scan"}, "lon": -77.032224, "type": "electric_scooter"}, {"bike_id": "5eaca8933297540d24778fc3113ed04c", "is_reserved": 0, "fusion_lon": 0.0, "lat": 38.8922345, "is_disabled": 0, "name": "5eaca8933297540d24778fc3113ed04c", "fusion_lat": 0.0, "rental_uris": {"ios": "https://dc.lft.to/lastmile_qr_scan", "android": "https://dc.lft.to/lastmile_qr_scan"}, "lon": -77.03980216666666, "type": "electric_scooter"}, {"bike_id": "a3b4e6fb37509fa17412886e8abde693", "is_reserved": 0, "fusion_lon": 0.0, "lat": 38.904997333333334, "is_disabled": 0, "name": "a3b4e6fb37509fa17412886e8abde693", "fusion_lat": 0.0, "rental_uris": {"ios": "https://dc.lft.to/lastmile_qr_scan", "android": "https://dc.lft.to/lastmile_qr_scan"}, "lon": -77.059136, "type": "electric_scooter"}, {"bike_id": "f15183e8900fe66baa8d57d2328ba758", "is_reserved": 0, "fusion_lon": 0.0, "lat": 38.903536333333335, "is_disabled": 0, "name": "f15183e8900fe66baa8d57d2328ba758", "fusion_lat": 0.0, "rental_uris": {"ios": "https://dc.lft.to/lastmile_qr_scan", "android": "https://dc.lft.to/lastmile_qr_scan"}, "lon": -77.04344166666667, "type": "electric_scooter"}, {"bike_id": "d1c9fe3b4fc66bbe9be27a4f2e972279", "is_reserved": 0, "fusion_lon": 0.0, "lat": 38.9048435, "is_disabled": 0, "name": "d1c9fe3b4fc66bbe9be27a4f2e972279", "fusion_lat": 0.0, "rental_uris": {"ios": "https://dc.lft.to/lastmile_qr_scan", "android": "https://dc.lft.to/lastmile_qr_scan"}, "lon": -77.0679445, "type": "electric_scooter"}, {"bike_id": "74cce8386b157af978699d48e9fbe9cd", "is_reserved": 0, "fusion_lon": 0.0, "lat": 38.902224, "is_disabled": 0, "name": "74cce8386b157af978699d48e9fbe9cd", "fusion_lat": 0.0, "rental_uris": {"ios": "https://dc.lft.to/lastmile_qr_scan", "android": "https://dc.lft.to/lastmile_qr_scan"}, "lon": -77.0607435, "type": "electric_scooter"}, {"bike_id": "a0dc4b3cb3f3d168a0836a0d9268b0d3", "is_reserved": 0, "fusion_lon": 0.0, "lat": 38.90079266666667, "is_disabled": 0, "name": "a0dc4b3cb3f3d168a0836a0d9268b0d3", "fusion_lat": 0.0, "rental_uris": {"ios": "https://dc.lft.to/lastmile_qr_scan", "android": "https://dc.lft.to/lastmile_qr_scan"}, "lon": -77.05022666666666, "type": "electric_scooter"}, {"bike_id": "bffea2d442879ef519bede3676f96369", "is_reserved": 0, "fusion_lon": 0.0, "lat": 38.9336005, "is_disabled": 0, "name": "bffea2d442879ef519bede3676f96369", "fusion_lat": 0.0, "rental_uris": {"ios": "https://dc.lft.to/lastmile_qr_scan", "android": "https://dc.lft.to/lastmile_qr_scan"}, "lon": -77.0571495, "type": "electric_scooter"}, {"bike_id": "4233f5ba13002071894f8dbf8355176b", "is_reserved": 0, "fusion_lon": 0.0, "lat": 38.88023883333334, "is_disabled": 0, "name": "4233f5ba13002071894f8dbf8355176b", "fusion_lat": 0.0, "rental_uris": {"ios": "https://dc.lft.to/lastmile_qr_scan", "android": "https://dc.lft.to/lastmile_qr_scan"}, "lon": -76.99505883333333, "type": "electric_scooter"}, {"bike_id": "f5974ae9b9c6e76fe07edc898cd3de1b", "is_reserved": 0, "fusion_lon": 0.0, "lat": 38.87677033333333, "is_disabled": 0, "name": "f5974ae9b9c6e76fe07edc898cd3de1b", "fusion_lat": 0.0, "rental_uris": {"ios": "https://dc.lft.to/lastmile_qr_scan", "android": "https://dc.lft.to/lastmile_qr_scan"}, "lon": -77.01788566666667, "type": "electric_scooter"}, {"bike_id": "3a365ba77615cc1d18fcfabd8bf0e4d9", "is_reserved": 0, "fusion_lon": 0.0, "lat": 38.905118333333334, "is_disabled": 0, "name": "3a365ba77615cc1d18fcfabd8bf0e4d9", "fusion_lat": 0.0, "rental_uris": {"ios": "https://dc.lft.to/lastmile_qr_scan", "android": "https://dc.lft.to/lastmile_qr_scan"}, "lon": -77.0665345, "type": "electric_scooter"}, {"bike_id": "904977f4625334506704f4007edff981", "is_reserved": 0, "fusion_lon": 0.0, "lat": 38.8286545, "is_disabled": 0, "name": "904977f4625334506704f4007edff981", "fusion_lat": 0.0, "rental_uris": {"ios": "https://dc.lft.to/lastmile_qr_scan", "android": "https://dc.lft.to/lastmile_qr_scan"}, "lon": -77.112245, "type": "electric_bike"}, {"bike_id": "3033575d9f4342d1ec5238ea42042eab", "is_reserved": 0, "fusion_lon": 0.0, "lat": 38.90293333333334, "is_disabled": 0, "name": "3033575d9f4342d1ec5238ea42042eab", "fusion_lat": 0.0, "rental_uris": {"ios": "https://dc.lft.to/lastmile_qr_scan", "android": "https://dc.lft.to/lastmile_qr_scan"}, "lon": -77.04344116666667, "type": "electric_scooter"}, {"bike_id": "b9cfc85c480410bef1a1df033ed16529", "is_reserved": 0, "fusion_lon": 0.0, "lat": 38.907858166666664, "is_disabled": 0, "name": "b9cfc85c480410bef1a1df033ed16529", "fusion_lat": 0.0, "rental_uris": {"ios": "https://dc.lft.to/lastmile_qr_scan", "android": "https://dc.lft.to/lastmile_qr_scan"}, "lon": -77.03193016666667, "type": "electric_scooter"}, {"bike_id": "805279bdc37b6367051507ff7f99268d", "is_reserved": 0, "fusion_lon": 0.0, "lat": 38.91747183333333, "is_disabled": 0, "name": "805279bdc37b6367051507ff7f99268d", "fusion_lat": 0.0, "rental_uris": {"ios": "https://dc.lft.to/lastmile_qr_scan", "android": "https://dc.lft.to/lastmile_qr_scan"}, "lon": -77.0399585, "type": "electric_scooter"}, {"bike_id": "bffa84b23268d61345542a030f66da71", "is_reserved": 0, "fusion_lon": 0.0, "lat": 38.91446333333333, "is_disabled": 0, "name": "bffa84b23268d61345542a030f66da71", "fusion_lat": 0.0, "rental_uris": {"ios": "https://dc.lft.to/lastmile_qr_scan", "android": "https://dc.lft.to/lastmile_qr_scan"}, "lon": -77.02167816666666, "type": "electric_scooter"}, {"bike_id": "775a0a135493f86fba6915354a299212", "is_reserved": 0, "fusion_lon": 0.0, "lat": 38.9074275, "is_disabled": 0, "name": "775a0a135493f86fba6915354a299212", "fusion_lat": 0.0, "rental_uris": {"ios": "https://dc.lft.to/lastmile_qr_scan", "android": "https://dc.lft.to/lastmile_qr_scan"}, "lon": -76.986824, "type": "electric_scooter"}, {"bike_id": "2e074313ef6e6b99482b6c02cc395b84", "is_reserved": 0, "fusion_lon": 0.0, "lat": 38.90533033333333, "is_disabled": 0, "name": "2e074313ef6e6b99482b6c02cc395b84", "fusion_lat": 0.0, "rental_uris": {"ios": "https://dc.lft.to/lastmile_qr_scan", "android": "https://dc.lft.to/lastmile_qr_scan"}, "lon": -77.039959, "type": "electric_scooter"}, {"bike_id": "2684588e42e153cc66d86d18176833cd", "is_reserved": 0, "fusion_lon": 0.0, "lat": 38.883871, "is_disabled": 0, "name": "2684588e42e153cc66d86d18176833cd", "fusion_lat": 0.0, "rental_uris": {"ios": "https://dc.lft.to/lastmile_qr_scan", "android": "https://dc.lft.to/lastmile_qr_scan"}, "lon": -77.01535866666667, "type": "electric_scooter"}, {"bike_id": "0c83581b6e937da9f3d0bf066a6e1fd5", "is_reserved": 0, "fusion_lon": 0.0, "lat": 38.936040166666665, "is_disabled": 0, "name": "0c83581b6e937da9f3d0bf066a6e1fd5", "fusion_lat": 0.0, "rental_uris": {"ios": "https://dc.lft.to/lastmile_qr_scan", "android": "https://dc.lft.to/lastmile_qr_scan"}, "lon": -77.0586225, "type": "electric_scooter"}, {"bike_id": "d50021fcd28f6ab51ec5d5b3715ea869", "is_reserved": 0, "fusion_lon": 0.0, "lat": 38.9223205, "is_disabled": 0, "name": "d50021fcd28f6ab51ec5d5b3715ea869", "fusion_lat": 0.0, "rental_uris": {"ios": "https://dc.lft.to/lastmile_qr_scan", "android": "https://dc.lft.to/lastmile_qr_scan"}, "lon": -77.02715783333333, "type": "electric_scooter"}, {"bike_id": "9e4f62d5b5fb25f1392f3795aad04845", "is_reserved": 0, "fusion_lon": 0.0, "lat": 38.9084485, "is_disabled": 0, "name": "9e4f62d5b5fb25f1392f3795aad04845", "fusion_lat": 0.0, "rental_uris": {"ios": "https://dc.lft.to/lastmile_qr_scan", "android": "https://dc.lft.to/lastmile_qr_scan"}, "lon": -77.033839, "type": "electric_scooter"}, {"bike_id": "11b60059f758eab6628f9e5573c86bd3", "is_reserved": 0, "fusion_lon": 0.0, "lat": 38.990699166666666, "is_disabled": 0, "name": "11b60059f758eab6628f9e5573c86bd3", "fusion_lat": 0.0, "rental_uris": {"ios": "https://dc.lft.to/lastmile_qr_scan", "android": "https://dc.lft.to/lastmile_qr_scan"}, "lon": -76.8747135, "type": "electric_bike"}, {"bike_id": "81e6248da83794d41c7a3293f8f25c89", "is_reserved": 0, "fusion_lon": 0.0, "lat": 38.90246166666667, "is_disabled": 0, "name": "81e6248da83794d41c7a3293f8f25c89", "fusion_lat": 0.0, "rental_uris": {"ios": "https://dc.lft.to/lastmile_qr_scan", "android": "https://dc.lft.to/lastmile_qr_scan"}, "lon": -77.02659183333333, "type": "electric_scooter"}, {"bike_id": "f83f3452273664c5ac1c74746431d01d", "is_reserved": 0, "fusion_lon": 0.0, "lat": 38.8874405, "is_disabled": 0, "name": "f83f3452273664c5ac1c74746431d01d", "fusion_lat": 0.0, "rental_uris": {"ios": "https://dc.lft.to/lastmile_qr_scan", "android": "https://dc.lft.to/lastmile_qr_scan"}, "lon": -77.020273, "type": "electric_scooter"}, {"bike_id": "240a9cdc75a529b6aa523a0b07daf69d", "is_reserved": 0, "fusion_lon": 0.0, "lat": 38.991408666666665, "is_disabled": 0, "name": "240a9cdc75a529b6aa523a0b07daf69d", "fusion_lat": 0.0, "rental_uris": {"ios": "https://dc.lft.to/lastmile_qr_scan", "android": "https://dc.lft.to/lastmile_qr_scan"}, "lon": -77.04741466666667, "type": "electric_scooter"}, {"bike_id": "c3424f3c4865877dd3c195e0925e9501", "is_reserved": 0, "fusion_lon": 0.0, "lat": 38.95086966666667, "is_disabled": 0, "name": "c3424f3c4865877dd3c195e0925e9501", "fusion_lat": 0.0, "rental_uris": {"ios": "https://dc.lft.to/lastmile_qr_scan", "android": "https://dc.lft.to/lastmile_qr_scan"}, "lon": -77.012588, "type": "electric_bike"}, {"bike_id": "4b9843090c5a3afc304339868903fb09", "is_reserved": 0, "fusion_lon": 0.0, "lat": 38.902425, "is_disabled": 0, "name": "4b9843090c5a3afc304339868903fb09", "fusion_lat": 0.0, "rental_uris": {"ios": "https://dc.lft.to/lastmile_qr_scan", "android": "https://dc.lft.to/lastmile_qr_scan"}, "lon": -77.02812483333334, "type": "electric_scooter"}, {"bike_id": "361706828400b7a3af2b45e91089cc77", "is_reserved": 0, "fusion_lon": 0.0, "lat": 38.90855416666667, "is_disabled": 0, "name": "361706828400b7a3af2b45e91089cc77", "fusion_lat": 0.0, "rental_uris": {"ios": "https://dc.lft.to/lastmile_qr_scan", "android": "https://dc.lft.to/lastmile_qr_scan"}, "lon": -77.08073933333333, "type": "electric_bike"}, {"bike_id": "d9f74518e55a2a9104b9dd64231ed9db", "is_reserved": 0, "fusion_lon": 0.0, "lat": 38.8837105, "is_disabled": 0, "name": "d9f74518e55a2a9104b9dd64231ed9db", "fusion_lat": 0.0, "rental_uris": {"ios": "https://dc.lft.to/lastmile_qr_scan", "android": "https://dc.lft.to/lastmile_qr_scan"}, "lon": -76.99532866666667, "type": "electric_scooter"}, {"bike_id": "d379b7103ef817cd72dd3c1a96c3d0a0", "is_reserved": 0, "fusion_lon": 0.0, "lat": 38.8994185, "is_disabled": 0, "name": "d379b7103ef817cd72dd3c1a96c3d0a0", "fusion_lat": 0.0, "rental_uris": {"ios": "https://dc.lft.to/lastmile_qr_scan", "android": "https://dc.lft.to/lastmile_qr_scan"}, "lon": -77.0124945, "type": "electric_scooter"}, {"bike_id": "668663521ceaf656bdb0757238c1b3d6", "is_reserved": 0, "fusion_lon": 0.0, "lat": 38.882319, "is_disabled": 0, "name": "668663521ceaf656bdb0757238c1b3d6", "fusion_lat": 0.0, "rental_uris": {"ios": "https://dc.lft.to/lastmile_qr_scan", "android": "https://dc.lft.to/lastmile_qr_scan"}, "lon": -76.9909075, "type": "electric_scooter"}, {"bike_id": "0a5135bca8473110d5161625c819bf4a", "is_reserved": 0, "fusion_lon": 0.0, "lat": 38.919838666666664, "is_disabled": 0, "name": "0a5135bca8473110d5161625c819bf4a", "fusion_lat": 0.0, "rental_uris": {"ios": "https://dc.lft.to/lastmile_qr_scan", "android": "https://dc.lft.to/lastmile_qr_scan"}, "lon": -76.97312166666667, "type": "electric_scooter"}, {"bike_id": "c037fc95087fde39103ecb4da8d06902", "is_reserved": 0, "fusion_lon": 0.0, "lat": 38.93524583333333, "is_disabled": 0, "name": "c037fc95087fde39103ecb4da8d06902", "fusion_lat": 0.0, "rental_uris": {"ios": "https://dc.lft.to/lastmile_qr_scan", "android": "https://dc.lft.to/lastmile_qr_scan"}, "lon": -77.023601, "type": "electric_scooter"}, {"bike_id": "0b8bd19abc72eb6ac2c6ea87395a8740", "is_reserved": 0, "fusion_lon": 0.0, "lat": 38.95642633333333, "is_disabled": 0, "name": "0b8bd19abc72eb6ac2c6ea87395a8740", "fusion_lat": 0.0, "rental_uris": {"ios": "https://dc.lft.to/lastmile_qr_scan", "android": "https://dc.lft.to/lastmile_qr_scan"}, "lon": -76.99794816666666, "type": "electric_scooter"}, {"bike_id": "01cf3475ea2cec44321402ec6e0920ca", "is_reserved": 0, "fusion_lon": 0.0, "lat": 38.90504383333333, "is_disabled": 0, "name": "01cf3475ea2cec44321402ec6e0920ca", "fusion_lat": 0.0, "rental_uris": {"ios": "https://dc.lft.to/lastmile_qr_scan", "android": "https://dc.lft.to/lastmile_qr_scan"}, "lon": -77.03446233333334, "type": "electric_scooter"}, {"bike_id": "b93bc9f7a840a10996e6aa46bfe4c6c6", "is_reserved": 0, "fusion_lon": 0.0, "lat": 38.920158, "is_disabled": 0, "name": "b93bc9f7a840a10996e6aa46bfe4c6c6", "fusion_lat": 0.0, "rental_uris": {"ios": "https://dc.lft.to/lastmile_qr_scan", "android": "https://dc.lft.to/lastmile_qr_scan"}, "lon": -77.0250345, "type": "electric_scooter"}, {"bike_id": "2f615a06ff9f0960bbbb661cd859750a", "is_reserved": 0, "fusion_lon": 0.0, "lat": 38.898765166666664, "is_disabled": 0, "name": "2f615a06ff9f0960bbbb661cd859750a", "fusion_lat": 0.0, "rental_uris": {"ios": "https://dc.lft.to/lastmile_qr_scan", "android": "https://dc.lft.to/lastmile_qr_scan"}, "lon": -76.93161883333333, "type": "electric_scooter"}, {"bike_id": "873047e013d8e8df81bacffff827c571", "is_reserved": 0, "fusion_lon": 0.0, "lat": 38.925029333333335, "is_disabled": 0, "name": "873047e013d8e8df81bacffff827c571", "fusion_lat": 0.0, "rental_uris": {"ios": "https://dc.lft.to/lastmile_qr_scan", "android": "https://dc.lft.to/lastmile_qr_scan"}, "lon": -77.00892616666667, "type": "electric_scooter"}, {"bike_id": "712b05e98f5a8a55ec530bfc2ed18b84", "is_reserved": 0, "fusion_lon": 0.0, "lat": 38.93430133333333, "is_disabled": 0, "name": "712b05e98f5a8a55ec530bfc2ed18b84", "fusion_lat": 0.0, "rental_uris": {"ios": "https://dc.lft.to/lastmile_qr_scan", "android": "https://dc.lft.to/lastmile_qr_scan"}, "lon": -77.03452233333333, "type": "electric_scooter"}, {"bike_id": "04a9af7c9fa7835bd28e4ffd76cfffaa", "is_reserved": 0, "fusion_lon": 0.0, "lat": 38.9002105, "is_disabled": 0, "name": "04a9af7c9fa7835bd28e4ffd76cfffaa", "fusion_lat": 0.0, "rental_uris": {"ios": "https://dc.lft.to/lastmile_qr_scan", "android": "https://dc.lft.to/lastmile_qr_scan"}, "lon": -76.99871816666666, "type": "electric_scooter"}, {"bike_id": "b6e0e4e23fcf5e6d812993d3322e6e9c", "is_reserved": 0, "fusion_lon": 0.0, "lat": 38.90495833333333, "is_disabled": 0, "name": "b6e0e4e23fcf5e6d812993d3322e6e9c", "fusion_lat": 0.0, "rental_uris": {"ios": "https://dc.lft.to/lastmile_qr_scan", "android": "https://dc.lft.to/lastmile_qr_scan"}, "lon": -77.04361666666667, "type": "electric_scooter"}, {"bike_id": "e824902f9b97e8ee70b0001c0a3b2e79", "is_reserved": 0, "fusion_lon": 0.0, "lat": 38.89944283333333, "is_disabled": 0, "name": "e824902f9b97e8ee70b0001c0a3b2e79", "fusion_lat": 0.0, "rental_uris": {"ios": "https://dc.lft.to/lastmile_qr_scan", "android": "https://dc.lft.to/lastmile_qr_scan"}, "lon": -77.03356583333333, "type": "electric_scooter"}, {"bike_id": "6c6fa97a089c64a02dc6e38d604ccbe7", "is_reserved": 0, "fusion_lon": 0.0, "lat": 38.96168016666667, "is_disabled": 0, "name": "6c6fa97a089c64a02dc6e38d604ccbe7", "fusion_lat": 0.0, "rental_uris": {"ios": "https://dc.lft.to/lastmile_qr_scan", "android": "https://dc.lft.to/lastmile_qr_scan"}, "lon": -76.99592083333333, "type": "electric_bike"}, {"bike_id": "1a17cf145c344d775999906d312406d5", "is_reserved": 0, "fusion_lon": 0.0, "lat": 38.91415416666667, "is_disabled": 0, "name": "1a17cf145c344d775999906d312406d5", "fusion_lat": 0.0, "rental_uris": {"ios": "https://dc.lft.to/lastmile_qr_scan", "android": "https://dc.lft.to/lastmile_qr_scan"}, "lon": -77.03174366666667, "type": "electric_scooter"}, {"bike_id": "40b07fc01350d1e6678d6b2229969401", "is_reserved": 0, "fusion_lon": 0.0, "lat": 38.899653666666666, "is_disabled": 0, "name": "40b07fc01350d1e6678d6b2229969401", "fusion_lat": 0.0, "rental_uris": {"ios": "https://dc.lft.to/lastmile_qr_scan", "android": "https://dc.lft.to/lastmile_qr_scan"}, "lon": -76.98684233333333, "type": "electric_bike"}, {"bike_id": "505332dddba2cf65b9e9377d3b5e3b83", "is_reserved": 0, "fusion_lon": 0.0, "lat": 38.92549433333333, "is_disabled": 0, "name": "505332dddba2cf65b9e9377d3b5e3b83", "fusion_lat": 0.0, "rental_uris": {"ios": "https://dc.lft.to/lastmile_qr_scan", "android": "https://dc.lft.to/lastmile_qr_scan"}, "lon": -77.03356, "type": "electric_scooter"}, {"bike_id": "c2cb14a26ea9938d106ccf808d2af887", "is_reserved": 0, "fusion_lon": 0.0, "lat": 38.915676500000004, "is_disabled": 0, "name": "c2cb14a26ea9938d106ccf808d2af887", "fusion_lat": 0.0, "rental_uris": {"ios": "https://dc.lft.to/lastmile_qr_scan", "android": "https://dc.lft.to/lastmile_qr_scan"}, "lon": -77.0469545, "type": "electric_scooter"}, {"bike_id": "81a26239cb28aac1a97e166ef2f588ee", "is_reserved": 0, "fusion_lon": 0.0, "lat": 38.978817, "is_disabled": 0, "name": "81a26239cb28aac1a97e166ef2f588ee", "fusion_lat": 0.0, "rental_uris": {"ios": "https://dc.lft.to/lastmile_qr_scan", "android": "https://dc.lft.to/lastmile_qr_scan"}, "lon": -77.02553816666666, "type": "electric_scooter"}, {"bike_id": "4e00a19fcb8fcd1cffeeb5550e9be2b5", "is_reserved": 0, "fusion_lon": 0.0, "lat": 38.889939166666665, "is_disabled": 0, "name": "4e00a19fcb8fcd1cffeeb5550e9be2b5", "fusion_lat": 0.0, "rental_uris": {"ios": "https://dc.lft.to/lastmile_qr_scan", "android": "https://dc.lft.to/lastmile_qr_scan"}, "lon": -76.94709083333333, "type": "electric_scooter"}, {"bike_id": "ef95f5d3b1cba502299746bb023a2bff", "is_reserved": 0, "fusion_lon": 0.0, "lat": 38.864537, "is_disabled": 0, "name": "ef95f5d3b1cba502299746bb023a2bff", "fusion_lat": 0.0, "rental_uris": {"ios": "https://dc.lft.to/lastmile_qr_scan", "android": "https://dc.lft.to/lastmile_qr_scan"}, "lon": -76.9824725, "type": "electric_scooter"}, {"bike_id": "d78f7c50d3b73dd08278e98f3f5338ba", "is_reserved": 0, "fusion_lon": 0.0, "lat": 38.924416, "is_disabled": 0, "name": "d78f7c50d3b73dd08278e98f3f5338ba", "fusion_lat": 0.0, "rental_uris": {"ios": "https://dc.lft.to/lastmile_qr_scan", "android": "https://dc.lft.to/lastmile_qr_scan"}, "lon": -77.02031316666667, "type": "electric_scooter"}, {"bike_id": "606c31b1b136e3e4bc65cd5192bdcd1a", "is_reserved": 0, "fusion_lon": 0.0, "lat": 38.9363955, "is_disabled": 0, "name": "606c31b1b136e3e4bc65cd5192bdcd1a", "fusion_lat": 0.0, "rental_uris": {"ios": "https://dc.lft.to/lastmile_qr_scan", "android": "https://dc.lft.to/lastmile_qr_scan"}, "lon": -77.03667133333333, "type": "electric_scooter"}, {"bike_id": "9b8051d940a371c24676f0e34b3a0446", "is_reserved": 0, "fusion_lon": 0.0, "lat": 38.91687733333333, "is_disabled": 0, "name": "9b8051d940a371c24676f0e34b3a0446", "fusion_lat": 0.0, "rental_uris": {"ios": "https://dc.lft.to/lastmile_qr_scan", "android": "https://dc.lft.to/lastmile_qr_scan"}, "lon": -77.03484633333333, "type": "electric_scooter"}, {"bike_id": "1a2a758377fd0719ae04a099fcf88485", "is_reserved": 0, "fusion_lon": 0.0, "lat": 38.8323325, "is_disabled": 0, "name": "1a2a758377fd0719ae04a099fcf88485", "fusion_lat": 0.0, "rental_uris": {"ios": "https://dc.lft.to/lastmile_qr_scan", "android": "https://dc.lft.to/lastmile_qr_scan"}, "lon": -76.946246, "type": "electric_bike"}, {"bike_id": "e7ca799a7ad7a76db416f06c727b3e2e", "is_reserved": 0, "fusion_lon": 0.0, "lat": 38.91261733333333, "is_disabled": 0, "name": "e7ca799a7ad7a76db416f06c727b3e2e", "fusion_lat": 0.0, "rental_uris": {"ios": "https://dc.lft.to/lastmile_qr_scan", "android": "https://dc.lft.to/lastmile_qr_scan"}, "lon": -77.03178333333334, "type": "electric_scooter"}, {"bike_id": "706690aa59675ea6b2db50948be0945d", "is_reserved": 0, "fusion_lon": 0.0, "lat": 38.90915416666667, "is_disabled": 0, "name": "706690aa59675ea6b2db50948be0945d", "fusion_lat": 0.0, "rental_uris": {"ios": "https://dc.lft.to/lastmile_qr_scan", "android": "https://dc.lft.to/lastmile_qr_scan"}, "lon": -77.04399016666666, "type": "electric_scooter"}, {"bike_id": "ba02e76351ad858eb87ee3031bec5dce", "is_reserved": 0, "fusion_lon": 0.0, "lat": 38.94202683333334, "is_disabled": 0, "name": "ba02e76351ad858eb87ee3031bec5dce", "fusion_lat": 0.0, "rental_uris": {"ios": "https://dc.lft.to/lastmile_qr_scan", "android": "https://dc.lft.to/lastmile_qr_scan"}, "lon": -77.01830733333334, "type": "electric_bike"}, {"bike_id": "8d8e8524815feedc4a6726ac99572e2c", "is_reserved": 0, "fusion_lon": 0.0, "lat": 38.945079166666666, "is_disabled": 0, "name": "8d8e8524815feedc4a6726ac99572e2c", "fusion_lat": 0.0, "rental_uris": {"ios": "https://dc.lft.to/lastmile_qr_scan", "android": "https://dc.lft.to/lastmile_qr_scan"}, "lon": -77.03363766666666, "type": "electric_scooter"}, {"bike_id": "ee110fa4fbbbd01bf7c5eeb9c2d042a3", "is_reserved": 0, "fusion_lon": 0.0, "lat": 38.90794316666667, "is_disabled": 0, "name": "ee110fa4fbbbd01bf7c5eeb9c2d042a3", "fusion_lat": 0.0, "rental_uris": {"ios": "https://dc.lft.to/lastmile_qr_scan", "android": "https://dc.lft.to/lastmile_qr_scan"}, "lon": -77.04878483333333, "type": "electric_scooter"}, {"bike_id": "bbce6cac20dcbaabc9634f8cdce18c96", "is_reserved": 0, "fusion_lon": 0.0, "lat": 38.900696333333336, "is_disabled": 0, "name": "bbce6cac20dcbaabc9634f8cdce18c96", "fusion_lat": 0.0, "rental_uris": {"ios": "https://dc.lft.to/lastmile_qr_scan", "android": "https://dc.lft.to/lastmile_qr_scan"}, "lon": -76.99838233333334, "type": "electric_scooter"}, {"bike_id": "ee41ed92c3019700eebd0c85a56457dd", "is_reserved": 0, "fusion_lon": 0.0, "lat": 38.892150666666666, "is_disabled": 0, "name": "ee41ed92c3019700eebd0c85a56457dd", "fusion_lat": 0.0, "rental_uris": {"ios": "https://dc.lft.to/lastmile_qr_scan", "android": "https://dc.lft.to/lastmile_qr_scan"}, "lon": -77.04870233333334, "type": "electric_scooter"}, {"bike_id": "4a7e062bd34e7faa5c6729af02298f1b", "is_reserved": 0, "fusion_lon": 0.0, "lat": 38.9587785, "is_disabled": 0, "name": "4a7e062bd34e7faa5c6729af02298f1b", "fusion_lat": 0.0, "rental_uris": {"ios": "https://dc.lft.to/lastmile_qr_scan", "android": "https://dc.lft.to/lastmile_qr_scan"}, "lon": -76.92502566666667, "type": "electric_bike"}, {"bike_id": "87073e49d0e7ab64dfd144ce0a89c1ca", "is_reserved": 0, "fusion_lon": 0.0, "lat": 38.90323883333333, "is_disabled": 0, "name": "87073e49d0e7ab64dfd144ce0a89c1ca", "fusion_lat": 0.0, "rental_uris": {"ios": "https://dc.lft.to/lastmile_qr_scan", "android": "https://dc.lft.to/lastmile_qr_scan"}, "lon": -77.03839016666667, "type": "electric_scooter"}, {"bike_id": "88fbb603354d50a3942c1d5539c2d1ab", "is_reserved": 0, "fusion_lon": 0.0, "lat": 38.925402166666665, "is_disabled": 0, "name": "88fbb603354d50a3942c1d5539c2d1ab", "fusion_lat": 0.0, "rental_uris": {"ios": "https://dc.lft.to/lastmile_qr_scan", "android": "https://dc.lft.to/lastmile_qr_scan"}, "lon": -76.98130566666667, "type": "electric_scooter"}, {"bike_id": "d1611fad4cce8079b191933176e9e9e9", "is_reserved": 0, "fusion_lon": 0.0, "lat": 38.9732315, "is_disabled": 0, "name": "d1611fad4cce8079b191933176e9e9e9", "fusion_lat": 0.0, "rental_uris": {"ios": "https://dc.lft.to/lastmile_qr_scan", "android": "https://dc.lft.to/lastmile_qr_scan"}, "lon": -77.021506, "type": "electric_bike"}, {"bike_id": "0c4795cf291296af4b1e6e2c263574e1", "is_reserved": 0, "fusion_lon": 0.0, "lat": 38.914144666666665, "is_disabled": 0, "name": "0c4795cf291296af4b1e6e2c263574e1", "fusion_lat": 0.0, "rental_uris": {"ios": "https://dc.lft.to/lastmile_qr_scan", "android": "https://dc.lft.to/lastmile_qr_scan"}, "lon": -77.03151983333333, "type": "electric_scooter"}, {"bike_id": "b2796361952803a879bf7326a8057158", "is_reserved": 0, "fusion_lon": 0.0, "lat": 38.91129433333333, "is_disabled": 0, "name": "b2796361952803a879bf7326a8057158", "fusion_lat": 0.0, "rental_uris": {"ios": "https://dc.lft.to/lastmile_qr_scan", "android": "https://dc.lft.to/lastmile_qr_scan"}, "lon": -77.00367516666667, "type": "electric_scooter"}, {"bike_id": "225969cc5b300df70e19e6b118bc8535", "is_reserved": 0, "fusion_lon": 0.0, "lat": 38.925521833333335, "is_disabled": 0, "name": "225969cc5b300df70e19e6b118bc8535", "fusion_lat": 0.0, "rental_uris": {"ios": "https://dc.lft.to/lastmile_qr_scan", "android": "https://dc.lft.to/lastmile_qr_scan"}, "lon": -77.04255566666667, "type": "electric_scooter"}, {"bike_id": "947149c296afdfd86fc9363ab4a2bf88", "is_reserved": 0, "fusion_lon": 0.0, "lat": 38.92360033333333, "is_disabled": 0, "name": "947149c296afdfd86fc9363ab4a2bf88", "fusion_lat": 0.0, "rental_uris": {"ios": "https://dc.lft.to/lastmile_qr_scan", "android": "https://dc.lft.to/lastmile_qr_scan"}, "lon": -77.01919583333333, "type": "electric_scooter"}, {"bike_id": "888144d5479f6abf930a8c2632ae252f", "is_reserved": 0, "fusion_lon": 0.0, "lat": 38.911015166666665, "is_disabled": 0, "name": "888144d5479f6abf930a8c2632ae252f", "fusion_lat": 0.0, "rental_uris": {"ios": "https://dc.lft.to/lastmile_qr_scan", "android": "https://dc.lft.to/lastmile_qr_scan"}, "lon": -77.0383335, "type": "electric_scooter"}, {"bike_id": "d364f11a3149315b59028c0d41602ba5", "is_reserved": 0, "fusion_lon": 0.0, "lat": 38.884902, "is_disabled": 0, "name": "d364f11a3149315b59028c0d41602ba5", "fusion_lat": 0.0, "rental_uris": {"ios": "https://dc.lft.to/lastmile_qr_scan", "android": "https://dc.lft.to/lastmile_qr_scan"}, "lon": -77.02357866666667, "type": "electric_scooter"}, {"bike_id": "381a8bf8cc6cb48c56bff86035be703c", "is_reserved": 0, "fusion_lon": 0.0, "lat": 38.895959500000004, "is_disabled": 0, "name": "381a8bf8cc6cb48c56bff86035be703c", "fusion_lat": 0.0, "rental_uris": {"ios": "https://dc.lft.to/lastmile_qr_scan", "android": "https://dc.lft.to/lastmile_qr_scan"}, "lon": -76.95523983333334, "type": "electric_scooter"}, {"bike_id": "143a0a573fba81740c8765f5fd9c28a9", "is_reserved": 0, "fusion_lon": 0.0, "lat": 38.92093216666667, "is_disabled": 0, "name": "143a0a573fba81740c8765f5fd9c28a9", "fusion_lat": 0.0, "rental_uris": {"ios": "https://dc.lft.to/lastmile_qr_scan", "android": "https://dc.lft.to/lastmile_qr_scan"}, "lon": -77.043876, "type": "electric_scooter"}, {"bike_id": "8b9844090a41bcebb8d9f35daa8c89f1", "is_reserved": 0, "fusion_lon": 0.0, "lat": 38.8909175, "is_disabled": 0, "name": "8b9844090a41bcebb8d9f35daa8c89f1", "fusion_lat": 0.0, "rental_uris": {"ios": "https://dc.lft.to/lastmile_qr_scan", "android": "https://dc.lft.to/lastmile_qr_scan"}, "lon": -76.94394116666666, "type": "electric_scooter"}, {"bike_id": "e509cc92375ceda3a09ed6e2da16348c", "is_reserved": 0, "fusion_lon": 0.0, "lat": 38.9246855, "is_disabled": 0, "name": "e509cc92375ceda3a09ed6e2da16348c", "fusion_lat": 0.0, "rental_uris": {"ios": "https://dc.lft.to/lastmile_qr_scan", "android": "https://dc.lft.to/lastmile_qr_scan"}, "lon": -77.0338945, "type": "electric_scooter"}, {"bike_id": "d57ea511da11b659897741b1f1ea143e", "is_reserved": 0, "fusion_lon": 0.0, "lat": 38.89872833333333, "is_disabled": 0, "name": "d57ea511da11b659897741b1f1ea143e", "fusion_lat": 0.0, "rental_uris": {"ios": "https://dc.lft.to/lastmile_qr_scan", "android": "https://dc.lft.to/lastmile_qr_scan"}, "lon": -77.02982016666667, "type": "electric_scooter"}, {"bike_id": "071904da58915162aab00c180ad3b4b8", "is_reserved": 0, "fusion_lon": 0.0, "lat": 38.906358166666664, "is_disabled": 0, "name": "071904da58915162aab00c180ad3b4b8", "fusion_lat": 0.0, "rental_uris": {"ios": "https://dc.lft.to/lastmile_qr_scan", "android": "https://dc.lft.to/lastmile_qr_scan"}, "lon": -77.03467716666667, "type": "electric_scooter"}, {"bike_id": "6ef1c2f3ecb0be76973f0ec3646cd3be", "is_reserved": 0, "fusion_lon": 0.0, "lat": 38.898492166666664, "is_disabled": 0, "name": "6ef1c2f3ecb0be76973f0ec3646cd3be", "fusion_lat": 0.0, "rental_uris": {"ios": "https://dc.lft.to/lastmile_qr_scan", "android": "https://dc.lft.to/lastmile_qr_scan"}, "lon": -76.99500866666666, "type": "electric_scooter"}, {"bike_id": "0a6a65b48ccf0fde630dd491c37425a4", "is_reserved": 0, "fusion_lon": 0.0, "lat": 38.88883583333333, "is_disabled": 0, "name": "0a6a65b48ccf0fde630dd491c37425a4", "fusion_lat": 0.0, "rental_uris": {"ios": "https://dc.lft.to/lastmile_qr_scan", "android": "https://dc.lft.to/lastmile_qr_scan"}, "lon": -76.931489, "type": "electric_scooter"}, {"bike_id": "530c191830b748baf030bc067a957fcf", "is_reserved": 0, "fusion_lon": 0.0, "lat": 38.89537683333333, "is_disabled": 0, "name": "530c191830b748baf030bc067a957fcf", "fusion_lat": 0.0, "rental_uris": {"ios": "https://dc.lft.to/lastmile_qr_scan", "android": "https://dc.lft.to/lastmile_qr_scan"}, "lon": -77.02178166666667, "type": "electric_scooter"}, {"bike_id": "c759f7462c42e4a0b1bdef237ac79319", "is_reserved": 0, "fusion_lon": 0.0, "lat": 38.897973, "is_disabled": 0, "name": "c759f7462c42e4a0b1bdef237ac79319", "fusion_lat": 0.0, "rental_uris": {"ios": "https://dc.lft.to/lastmile_qr_scan", "android": "https://dc.lft.to/lastmile_qr_scan"}, "lon": -76.94693533333333, "type": "electric_scooter"}, {"bike_id": "f299b758725f3ae2124a6d205945df3e", "is_reserved": 0, "fusion_lon": 0.0, "lat": 38.90494266666666, "is_disabled": 0, "name": "f299b758725f3ae2124a6d205945df3e", "fusion_lat": 0.0, "rental_uris": {"ios": "https://dc.lft.to/lastmile_qr_scan", "android": "https://dc.lft.to/lastmile_qr_scan"}, "lon": -77.067702, "type": "electric_bike"}, {"bike_id": "f2f5b9ceb6ad32c34b58c2c179974e79", "is_reserved": 0, "fusion_lon": 0.0, "lat": 38.924677, "is_disabled": 0, "name": "f2f5b9ceb6ad32c34b58c2c179974e79", "fusion_lat": 0.0, "rental_uris": {"ios": "https://dc.lft.to/lastmile_qr_scan", "android": "https://dc.lft.to/lastmile_qr_scan"}, "lon": -77.0520575, "type": "electric_scooter"}, {"bike_id": "0b95a21a7e201d13056f4bcf8ff23b54", "is_reserved": 0, "fusion_lon": 0.0, "lat": 38.919998166666666, "is_disabled": 0, "name": "0b95a21a7e201d13056f4bcf8ff23b54", "fusion_lat": 0.0, "rental_uris": {"ios": "https://dc.lft.to/lastmile_qr_scan", "android": "https://dc.lft.to/lastmile_qr_scan"}, "lon": -77.0323625, "type": "electric_scooter"}, {"bike_id": "7403ec1018cac64ddcc78c14dc330b39", "is_reserved": 0, "fusion_lon": 0.0, "lat": 38.91563166666667, "is_disabled": 0, "name": "7403ec1018cac64ddcc78c14dc330b39", "fusion_lat": 0.0, "rental_uris": {"ios": "https://dc.lft.to/lastmile_qr_scan", "android": "https://dc.lft.to/lastmile_qr_scan"}, "lon": -77.03373366666666, "type": "electric_scooter"}, {"bike_id": "4231ee5ef3e799fc2c35f6c1bb143c14", "is_reserved": 0, "fusion_lon": 0.0, "lat": 38.935719166666665, "is_disabled": 0, "name": "4231ee5ef3e799fc2c35f6c1bb143c14", "fusion_lat": 0.0, "rental_uris": {"ios": "https://dc.lft.to/lastmile_qr_scan", "android": "https://dc.lft.to/lastmile_qr_scan"}, "lon": -77.03806583333333, "type": "electric_scooter"}, {"bike_id": "3115db61a06a61303ba30eb7f4718ef5", "is_reserved": 0, "fusion_lon": 0.0, "lat": 38.896064, "is_disabled": 0, "name": "3115db61a06a61303ba30eb7f4718ef5", "fusion_lat": 0.0, "rental_uris": {"ios": "https://dc.lft.to/lastmile_qr_scan", "android": "https://dc.lft.to/lastmile_qr_scan"}, "lon": -77.0316885, "type": "electric_scooter"}, {"bike_id": "ef9b5c9519f36e52dd508e7cbfb006bb", "is_reserved": 0, "fusion_lon": 0.0, "lat": 38.903648833333335, "is_disabled": 0, "name": "ef9b5c9519f36e52dd508e7cbfb006bb", "fusion_lat": 0.0, "rental_uris": {"ios": "https://dc.lft.to/lastmile_qr_scan", "android": "https://dc.lft.to/lastmile_qr_scan"}, "lon": -77.04529383333333, "type": "electric_scooter"}, {"bike_id": "6ac275ab46e2d13ad04715aa4cc29241", "is_reserved": 0, "fusion_lon": 0.0, "lat": 38.90275666666667, "is_disabled": 0, "name": "6ac275ab46e2d13ad04715aa4cc29241", "fusion_lat": 0.0, "rental_uris": {"ios": "https://dc.lft.to/lastmile_qr_scan", "android": "https://dc.lft.to/lastmile_qr_scan"}, "lon": -77.03842833333333, "type": "electric_scooter"}, {"bike_id": "747236cd7214d6c0536c752f041bf66f", "is_reserved": 0, "fusion_lon": 0.0, "lat": 38.902553, "is_disabled": 0, "name": "747236cd7214d6c0536c752f041bf66f", "fusion_lat": 0.0, "rental_uris": {"ios": "https://dc.lft.to/lastmile_qr_scan", "android": "https://dc.lft.to/lastmile_qr_scan"}, "lon": -77.039371, "type": "electric_scooter"}, {"bike_id": "b9b6117077b1980398db468df2bb58fb", "is_reserved": 0, "fusion_lon": 0.0, "lat": 38.905947, "is_disabled": 0, "name": "b9b6117077b1980398db468df2bb58fb", "fusion_lat": 0.0, "rental_uris": {"ios": "https://dc.lft.to/lastmile_qr_scan", "android": "https://dc.lft.to/lastmile_qr_scan"}, "lon": -77.00890016666666, "type": "electric_scooter"},