{"data": {"bikes": [{"fusion_lat": 0.0, "name": "18ee86f0a4b4e6360706c9c3d9335772", "is_disabled": 0, "rental_uris": {"android": "https://dc.lft.to/lastmile_qr_scan", "ios": "https://dc.lft.to/lastmile_qr_scan"}, "fusion_lon": 0.0, "lat": 38.8873275, "bike_id": "18ee86f0a4b4e6360706c9c3d9335772", "type": "electric_scooter", "is_reserved": 0, "lon": -77.0317645}, {"fusion_lat": 0.0, "name": "0292027d4bf8b52ef61d866959cec6ed", "is_disabled": 0, "rental_uris": {"android": "https://dc.lft.to/lastmile_qr_scan", "ios": "https://dc.lft.to/lastmile_qr_scan"}, "fusion_lon": 0.0, "lat": 38.907338333333335, "bike_id": "0292027d4bf8b52ef61d866959cec6ed", "type": "electric_scooter", "is_reserved": 0, "lon": -77.02949383333333}, {"fusion_lat": 0.0, "name": "b6e5834bbf518022dc14cd431d5d28a6", "is_disabled": 0, "rental_uris": {"android": "https://dc.lft.to/lastmile_qr_scan", "ios": "https://dc.lft.to/lastmile_qr_scan"}, "fusion_lon": 0.0, "lat": 38.887363666666666, "bike_id": "b6e5834bbf518022dc14cd431d5d28a6", "type": "electric_scooter", "is_reserved": 0, "lon": -77.003211}, {"fusion_lat": 0.0, "name": "a113fe310882fa41360388b2b693a8e4", "is_disabled": 0, "rental_uris": {"android": "https://dc.lft.to/lastmile_qr_scan", "ios": "https://dc.lft.to/lastmile_qr_scan"}, "fusion_lon": 0.0, "lat": 38.94464416666667, "bike_id": "a113fe310882fa41360388b2b693a8e4", "type": "electric_scooter", "is_reserved": 0, "lon": -77.0065805}, {"fusion_lat": 0.0, "name": "bbf6db8beec772b776088854704631c6", "is_disabled": 0, "rental_uris": {"android": "https://dc.lft.to/lastmile_qr_scan", "ios": "https://dc.lft.to/lastmile_qr_scan"}, "fusion_lon": 0.0, "lat": 38.924403, "bike_id": "bbf6db8beec772b776088854704631c6", "type": "electric_scooter", "is_reserved": 0, "lon": -77.00065216666667}, {"fusion_lat": 0.0, "name": "38e865af05a25131ec17eb5541e1626c", "is_disabled": 0, "rental_uris": {"android": "https://dc.lft.to/lastmile_qr_scan", "ios": "https://dc.lft.to/lastmile_qr_scan"}, "fusion_lon": 0.0, "lat": 38.9030945, "bike_id": "38e865af05a25131ec17eb5541e1626c", "type": "electric_scooter", "is_reserved": 0, "lon": -77.0393415}, {"fusion_lat": 0.0, "name": "2700e8d91acba373b5d6bcb5a3ccf095", "is_disabled": 0, "rental_uris": {"android": "https://dc.lft.to/lastmile_qr_scan", "ios": "https://dc.lft.to/lastmile_qr_scan"}, "fusion_lon": 0.0, "lat": 38.89964966666667, "bike_id": "2700e8d91acba373b5d6bcb5a3ccf095", "type": "electric_scooter", "is_reserved": 0, "lon": -77.0175675}, {"fusion_lat": 0.0, "name": "0322f90060ec53b4d3e628fae0e45915", "is_disabled": 0, "rental_uris": {"android": "https://dc.lft.to/lastmile_qr_scan", "ios": "https://dc.lft.to/lastmile_qr_scan"}, "fusion_lon": 0.0, "lat": 38.88728166666667, "bike_id": "0322f90060ec53b4d3e628fae0e45915", "type": "electric_scooter", "is_reserved": 0, "lon": -76.98353033333333}, {"fusion_lat": 0.0, "name": "0effb338103fc70abb1924f25087b049", "is_disabled": 0, "rental_uris": {"android": "https://dc.lft.to/lastmile_qr_scan", "ios": "https://dc.lft.to/lastmile_qr_scan"}, "fusion_lon": 0.0, "lat": 38.920798, "bike_id": "0effb338103fc70abb1924f25087b049", "type": "electric_bike", "is_reserved": 0, "lon": -76.98946033333333}, {"fusion_lat": 0.0, "name": "05348aef25a810178b8f8200aa8066a6", "is_disabled": 0, "rental_uris": {"android": "https://dc.lft.to/lastmile_qr_scan", "ios": "https://dc.lft.to/lastmile_qr_scan"}, "fusion_lon": 0.0, "lat": 38.89967383333333, "bike_id": "05348aef25a810178b8f8200aa8066a6", "type": "electric_scooter", "is_reserved": 0, "lon": -76.98707816666666}, {"fusion_lat": 0.0, "name": "890c7a76b2fb5ac769ac2ff50f4201be", "is_disabled": 0, "rental_uris": {"android": "https://dc.lft.to/lastmile_qr_scan", "ios": "https://dc.lft.to/lastmile_qr_scan"}, "fusion_lon": 0.0, "lat": 38.918193, "bike_id": "890c7a76b2fb5ac769ac2ff50f4201be", "type": "electric_scooter", "is_reserved": 0, "lon": -77.03681366666666}, {"fusion_lat": 0.0, "name": "ef812e71b898c1cb7e221804ccb17337", "is_disabled": 0, "rental_uris": {"android": "https://dc.lft.to/lastmile_qr_scan", "ios": "https://dc.lft.to/lastmile_qr_scan"}, "fusion_lon": 0.0, "lat": 38.90740866666667, "bike_id": "ef812e71b898c1cb7e221804ccb17337", "type": "electric_scooter", "is_reserved": 0, "lon": -77.04285716666666}, {"fusion_lat": 0.0, "name": "1960ee3395338ac8def7791eb0200805", "is_disabled": 0, "rental_uris": {"android": "https://dc.lft.to/lastmile_qr_scan", "ios": "https://dc.lft.to/lastmile_qr_scan"}, "fusion_lon": 0.0, "lat": 38.94230133333333, "bike_id": "1960ee3395338ac8def7791eb0200805", "type": "electric_scooter", "is_reserved": 0, "lon": -77.01386616666667}, {"fusion_lat": 0.0, "name": "57de09f8e92a28e0ce60ee75c3ae83c3", "is_disabled": 0, "rental_uris": {"android": "https://dc.lft.to/lastmile_qr_scan", "ios": "https://dc.lft.to/lastmile_qr_scan"}, "fusion_lon": 0.0, "lat": 38.919258, "bike_id": "57de09f8e92a28e0ce60ee75c3ae83c3", "type": "electric_scooter", "is_reserved": 0, "lon": -77.02484583333333}, {"fusion_lat": 0.0, "name": "73b5342f9b54e1796958c8c98b20b193", "is_disabled": 0, "rental_uris": {"android": "https://dc.lft.to/lastmile_qr_scan", "ios": "https://dc.lft.to/lastmile_qr_scan"}, "fusion_lon": 0.0, "lat": 38.915669333333334, "bike_id": "73b5342f9b54e1796958c8c98b20b193", "type": "electric_scooter", "is_reserved": 0, "lon": -77.04645866666667}, {"fusion_lat": 0.0, "name": "3d3339859b887deb761352222f9a19a4", "is_disabled": 0, "rental_uris": {"android": "https://dc.lft.to/lastmile_qr_scan", "ios": "https://dc.lft.to/lastmile_qr_scan"}, "fusion_lon": 0.0, "lat": 38.912610666666666, "bike_id": "3d3339859b887deb761352222f9a19a4", "type": "electric_bike", "is_reserved": 0, "lon": -77.00954983333334}, {"fusion_lat": 0.0, "name": "fde2fabf7275cd874a3a700f882a9864", "is_disabled": 0, "rental_uris": {"android": "https://dc.lft.to/lastmile_qr_scan", "ios": "https://dc.lft.to/lastmile_qr_scan"}, "fusion_lon": 0.0, "lat": 38.907347666666666, "bike_id": "fde2fabf7275cd874a3a700f882a9864", "type": "electric_scooter", "is_reserved": 0, "lon": -77.02946066666667}, {"fusion_lat": 0.0, "name": "978a8d3f6a904d0be935e75b32f93331", "is_disabled": 0, "rental_uris": {"android": "https://dc.lft.to/lastmile_qr_scan", "ios": "https://dc.lft.to/lastmile_qr_scan"}, "fusion_lon": 0.0, "lat": 38.87407816666666, "bike_id": "978a8d3f6a904d0be935e75b32f93331", "type": "electric_scooter", "is_reserved": 0, "lon": -77.00063383333334}, {"fusion_lat": 0.0, "name": "67ec69b105b38e14ccdf2a94f494899a", "is_disabled": 0, "rental_uris": {"android": "https://dc.lft.to/lastmile_qr_scan", "ios": "https://dc.lft.to/lastmile_qr_scan"}, "fusion_lon": 0.0, "lat": 38.928724833333334, "bike_id": "67ec69b105b38e14ccdf2a94f494899a", "type": "electric_scooter", "is_reserved": 0, "lon": -77.01356}, {"fusion_lat": 0.0, "name": "d6d983e0f228ef2d1854e7619a6feebb", "is_disabled": 0, "rental_uris": {"android": "https://dc.lft.to/lastmile_qr_scan", "ios": "https://dc.lft.to/lastmile_qr_scan"}, "fusion_lon": 0.0, "lat": 38.922036, "bike_id": "d6d983e0f228ef2d1854e7619a6feebb", "type": "electric_scooter", "is_reserved": 0, "lon": -77.0183705}, {"fusion_lat": 0.0, "name": "3de780f390f366937e2728acf9382c8c", "is_disabled": 0, "rental_uris": {"android": "https://dc.lft.to/lastmile_qr_scan", "ios": "https://dc.lft.to/lastmile_qr_scan"}, "fusion_lon": 0.0, "lat": 38.87852516666667, "bike_id": "3de780f390f366937e2728acf9382c8c", "type": "electric_scooter", "is_reserved": 0, "lon": -77.00780216666666}, {"fusion_lat": 0.0, "name": "fe7b57c9f3ca94c6a2a48f285d130eb1", "is_disabled": 0, "rental_uris": {"android": "https://dc.lft.to/lastmile_qr_scan", "ios": "https://dc.lft.to/lastmile_qr_scan"}, "fusion_lon": 0.0, "lat": 38.90716783333333, "bike_id": "fe7b57c9f3ca94c6a2a48f285d130eb1", "type": "electric_scooter", "is_reserved": 0, "lon": -77.04982533333333}, {"fusion_lat": 0.0, "name": "35cf8d5ab476dff89a3ef08193ed4b61", "is_disabled": 0, "rental_uris": {"android": "https://dc.lft.to/lastmile_qr_scan", "ios": "https://dc.lft.to/lastmile_qr_scan"}, "fusion_lon": 0.0, "lat": 38.90032266666667, "bike_id": "35cf8d5ab476dff89a3ef08193ed4b61", "type": "electric_scooter", "is_reserved": 0, "lon": -77.002095}, {"fusion_lat": 0.0, "name": "2f99636facfa256592ab3c2f98eb4aba", "is_disabled": 0, "rental_uris": {"android": "https://dc.lft.to/lastmile_qr_scan", "ios": "https://dc.lft.to/lastmile_qr_scan"}, "fusion_lon": 0.0, "lat": 38.871088666666665, "bike_id": "2f99636facfa256592ab3c2f98eb4aba", "type": "electric_scooter", "is_reserved": 0, "lon": -76.96575616666667}, {"fusion_lat": 0.0, "name": "2f283ef2d4b1007fe38f519311900e57", "is_disabled": 0, "rental_uris": {"android": "https://dc.lft.to/lastmile_qr_scan", "ios": "https://dc.lft.to/lastmile_qr_scan"}, "fusion_lon": 0.0, "lat": 38.91641716666667, "bike_id": "2f283ef2d4b1007fe38f519311900e57", "type": "electric_scooter", "is_reserved": 0, "lon": -77.03217383333333}, {"fusion_lat": 0.0, "name": "3bc746e8ec357090d183acb54c3ae6d2", "is_disabled": 0, "rental_uris": {"android": "https://dc.lft.to/lastmile_qr_scan", "ios": "https://dc.lft.to/lastmile_qr_scan"}, "fusion_lon": 0.0, "lat": 38.89584133333334, "bike_id": "3bc746e8ec357090d183acb54c3ae6d2", "type": "electric_scooter", "is_reserved": 0, "lon": -77.02567683333334}, {"fusion_lat": 0.0, "name": "7534262c410647674b8de125d1720e9c", "is_disabled": 0, "rental_uris": {"android": "https://dc.lft.to/lastmile_qr_scan", "ios": "https://dc.lft.to/lastmile_qr_scan"}, "fusion_lon": 0.0, "lat": 38.9212355, "bike_id": "7534262c410647674b8de125d1720e9c", "type": "electric_scooter", "is_reserved": 0, "lon": -77.01965483333333}, {"fusion_lat": 0.0, "name": "0a66e9ff659248526e01d952e913ddb5", "is_disabled": 0, "rental_uris": {"android": "https://dc.lft.to/lastmile_qr_scan", "ios": "https://dc.lft.to/lastmile_qr_scan"}, "fusion_lon": 0.0, "lat": 38.91880033333333, "bike_id": "0a66e9ff659248526e01d952e913ddb5", "type": "electric_scooter", "is_reserved": 0, "lon": -77.03504266666667}, {"fusion_lat": 0.0, "name": "b53515cfd545502209dcfff1ea1ff95f", "is_disabled": 0, "rental_uris": {"android": "https://dc.lft.to/lastmile_qr_scan", "ios": "https://dc.lft.to/lastmile_qr_scan"}, "fusion_lon": 0.0, "lat": 38.932087333333335, "bike_id": "b53515cfd545502209dcfff1ea1ff95f", "type": "electric_scooter", "is_reserved": 0, "lon": -77.0349475}, {"fusion_lat": 0.0, "name": "e1b4fca51d3dabd5ac742ded678978df", "is_disabled": 0, "rental_uris": {"android": "https://dc.lft.to/lastmile_qr_scan", "ios": "https://dc.lft.to/lastmile_qr_scan"}, "fusion_lon": 0.0, "lat": 38.87934283333333, "bike_id": "e1b4fca51d3dabd5ac742ded678978df", "type": "electric_scooter", "is_reserved": 0, "lon": -77.0079895}, {"fusion_lat": 0.0, "name": "08ce1178564022f167d0cb7c4cbf6b98", "is_disabled": 0, "rental_uris": {"android": "https://dc.lft.to/lastmile_qr_scan", "ios": "https://dc.lft.to/lastmile_qr_scan"}, "fusion_lon": 0.0, "lat": 38.88770233333334, "bike_id": "08ce1178564022f167d0cb7c4cbf6b98", "type": "electric_scooter", "is_reserved": 0, "lon": -76.97748716666666}, {"fusion_lat": 0.0, "name": "d9d9af7330b783bb1ffaee9057ccbca9", "is_disabled": 0, "rental_uris": {"android": "https://dc.lft.to/lastmile_qr_scan", "ios": "https://dc.lft.to/lastmile_qr_scan"}, "fusion_lon": 0.0, "lat": 38.898368833333336, "bike_id": "d9d9af7330b783bb1ffaee9057ccbca9", "type": "electric_scooter", "is_reserved": 0, "lon": -76.9463195}, {"fusion_lat": 0.0, "name": "b52ab9e490401532151a0d592a045235", "is_disabled": 0, "rental_uris": {"android": "https://dc.lft.to/lastmile_qr_scan", "ios": "https://dc.lft.to/lastmile_qr_scan"}, "fusion_lon": 0.0, "lat": 38.9054655, "bike_id": "b52ab9e490401532151a0d592a045235", "type": "electric_scooter", "is_reserved": 0, "lon": -77.02702433333333}, {"fusion_lat": 0.0, "name": "8e922ee827eac0f635672afb655f4509", "is_disabled": 0, "rental_uris": {"android": "https://dc.lft.to/lastmile_qr_scan", "ios": "https://dc.lft.to/lastmile_qr_scan"}, "fusion_lon": 0.0, "lat": 38.90012933333333, "bike_id": "8e922ee827eac0f635672afb655f4509", "type": "electric_scooter", "is_reserved": 0, "lon": -76.98814333333334}, {"fusion_lat": 0.0, "name": "327cac97cffc05d5fbfa3c65c070f84f", "is_disabled": 0, "rental_uris": {"android": "https://dc.lft.to/lastmile_qr_scan", "ios": "https://dc.lft.to/lastmile_qr_scan"}, "fusion_lon": 0.0, "lat": 38.93115016666667, "bike_id": "327cac97cffc05d5fbfa3c65c070f84f", "type": "electric_scooter", "is_reserved": 0, "lon": -76.996151}, {"fusion_lat": 0.0, "name": "824fd40fa85db710deb1b631535b3d52", "is_disabled": 0, "rental_uris": {"android": "https://dc.lft.to/lastmile_qr_scan", "ios": "https://dc.lft.to/lastmile_qr_scan"}, "fusion_lon": 0.0, "lat": 38.88020066666667, "bike_id": "824fd40fa85db710deb1b631535b3d52", "type": "electric_scooter", "is_reserved": 0, "lon": -76.98071466666667}, {"fusion_lat": 0.0, "name": "64e2ff91198025e7ad8171848e216dc7", "is_disabled": 0, "rental_uris": {"android": "https://dc.lft.to/lastmile_qr_scan", "ios": "https://dc.lft.to/lastmile_qr_scan"}, "fusion_lon": 0.0, "lat": 38.90243683333333, "bike_id": "64e2ff91198025e7ad8171848e216dc7", "type": "electric_scooter", "is_reserved": 0, "lon": -77.00201866666667}, {"fusion_lat": 0.0, "name": "b72f6d80b34a45544cfd7a0a90f93760", "is_disabled": 0, "rental_uris": {"android": "https://dc.lft.to/lastmile_qr_scan", "ios": "https://dc.lft.to/lastmile_qr_scan"}, "fusion_lon": 0.0, "lat": 38.92879083333333, "bike_id": "b72f6d80b34a45544cfd7a0a90f93760", "type": "electric_scooter", "is_reserved": 0, "lon": -76.99559366666666}, {"fusion_lat": 0.0, "name": "9585bbc71aec38f1b16c0258599414a2", "is_disabled": 0, "rental_uris": {"android": "https://dc.lft.to/lastmile_qr_scan", "ios": "https://dc.lft.to/lastmile_qr_scan"}, "fusion_lon": 0.0, "lat": 38.87515966666667, "bike_id": "9585bbc71aec38f1b16c0258599414a2", "type": "electric_bike", "is_reserved": 0, "lon": -77.00745933333333}, {"fusion_lat": 0.0, "name": "8bdcf20f64154d0e8be8669ddef1b8cc", "is_disabled": 0, "rental_uris": {"android": "https://dc.lft.to/lastmile_qr_scan", "ios": "https://dc.lft.to/lastmile_qr_scan"}, "fusion_lon": 0.0, "lat": 38.92574183333333, "bike_id": "8bdcf20f64154d0e8be8669ddef1b8cc", "type": "electric_scooter", "is_reserved": 0, "lon": -77.02689483333333}, {"fusion_lat": 0.0, "name": "71236eab83baa7096a67869fdf756f5d", "is_disabled": 0, "rental_uris": {"android": "https://dc.lft.to/lastmile_qr_scan", "ios": "https://dc.lft.to/lastmile_qr_scan"}, "fusion_lon": 0.0, "lat": 38.906282166666664, "bike_id": "71236eab83baa7096a67869fdf756f5d", "type": "electric_scooter", "is_reserved": 0, "lon": -77.02604733333334}, {"fusion_lat": 0.0, "name": "78785cb767f6f250b4da3070ff9f0f4d", "is_disabled": 0, "rental_uris": {"android": "https://dc.lft.to/lastmile_qr_scan", "ios": "https://dc.lft.to/lastmile_qr_scan"}, "fusion_lon": 0.0, "lat": 38.904303666666664, "bike_id": "78785cb767f6f250b4da3070ff9f0f4d", "type": "electric_scooter", "is_reserved": 0, "lon": -77.0259575}, {"fusion_lat": 0.0, "name": "a5d0819c2e7aebda6144c2057909e88b", "is_disabled": 0, "rental_uris": {"android": "https://dc.lft.to/lastmile_qr_scan", "ios": "https://dc.lft.to/lastmile_qr_scan"}, "fusion_lon": 0.0, "lat": 38.90682483333333, "bike_id": "a5d0819c2e7aebda6144c2057909e88b", "type": "electric_scooter", "is_reserved": 0, "lon": -77.0221015}, {"fusion_lat": 0.0, "name": "718f82a43750c2818f7b3843e5e58d5a", "is_disabled": 0, "rental_uris": {"android": "https://dc.lft.to/lastmile_qr_scan", "ios": "https://dc.lft.to/lastmile_qr_scan"}, "fusion_lon": 0.0, "lat": 38.812562166666666, "bike_id": "718f82a43750c2818f7b3843e5e58d5a", "type": "electric_bike", "is_reserved": 0, "lon": -77.11773016666666}, {"fusion_lat": 0.0, "name": "aa08d591e58c4c23aa054ed2e6e0f525", "is_disabled": 0, "rental_uris": {"android": "https://dc.lft.to/lastmile_qr_scan", "ios": "https://dc.lft.to/lastmile_qr_scan"}, "fusion_lon": 0.0, "lat": 38.819194333333336, "bike_id": "aa08d591e58c4c23aa054ed2e6e0f525", "type": "electric_bike", "is_reserved": 0, "lon": -77.04798233333334}, {"fusion_lat": 0.0, "name": "6c029d62cd8e1e583a71e26378b7bb11", "is_disabled": 0, "rental_uris": {"android": "https://dc.lft.to/lastmile_qr_scan", "ios": "https://dc.lft.to/lastmile_qr_scan"}, "fusion_lon": 0.0, "lat": 38.92725316666667, "bike_id": "6c029d62cd8e1e583a71e26378b7bb11", "type": "electric_scooter", "is_reserved": 0, "lon": -77.03059133333333}, {"fusion_lat": 0.0, "name": "7373907747950fb016173de96a6d84ff", "is_disabled": 0, "rental_uris": {"android": "https://dc.lft.to/lastmile_qr_scan", "ios": "https://dc.lft.to/lastmile_qr_scan"}, "fusion_lon": 0.0, "lat": 38.916419, "bike_id": "7373907747950fb016173de96a6d84ff", "type": "electric_scooter", "is_reserved": 0, "lon": -77.05056583333334}, {"fusion_lat": 0.0, "name": "3410f631110855891fb82b601f646f2c", "is_disabled": 0, "rental_uris": {"android": "https://dc.lft.to/lastmile_qr_scan", "ios": "https://dc.lft.to/lastmile_qr_scan"}, "fusion_lon": 0.0, "lat": 38.925402, "bike_id": "3410f631110855891fb82b601f646f2c", "type": "electric_scooter", "is_reserved": 0, "lon": -77.00758916666666}, {"fusion_lat": 0.0, "name": "3b68a9fa35b2569520cf028a90c67f48", "is_disabled": 0, "rental_uris": {"android": "https://dc.lft.to/lastmile_qr_scan", "ios": "https://dc.lft.to/lastmile_qr_scan"}, "fusion_lon": 0.0, "lat": 38.89105883333333, "bike_id": "3b68a9fa35b2569520cf028a90c67f48", "type": "electric_scooter", "is_reserved": 0, "lon": -76.99621266666666}, {"fusion_lat": 0.0, "name": "53571b136442bbea567fb9e76c4503ad", "is_disabled": 0, "rental_uris": {"android": "https://dc.lft.to/lastmile_qr_scan", "ios": "https://dc.lft.to/lastmile_qr_scan"}, "fusion_lon": 0.0, "lat": 38.88301766666667, "bike_id": "53571b136442bbea567fb9e76c4503ad", "type": "electric_scooter", "is_reserved": 0, "lon": -76.94856483333334}, {"fusion_lat": 0.0, "name": "68d4f396c63e287125e52380223beb4e", "is_disabled": 0, "rental_uris": {"android": "https://dc.lft.to/lastmile_qr_scan", "ios": "https://dc.lft.to/lastmile_qr_scan"}, "fusion_lon": 0.0, "lat": 38.90389566666666, "bike_id": "68d4f396c63e287125e52380223beb4e", "type": "electric_scooter", "is_reserved": 0, "lon": -77.06806366666666}, {"fusion_lat": 0.0, "name": "de69dde16f84114ad21941dda625bb1e", "is_disabled": 0, "rental_uris": {"android": "https://dc.lft.to/lastmile_qr_scan", "ios": "https://dc.lft.to/lastmile_qr_scan"}, "fusion_lon": 0.0, "lat": 38.907365666666664, "bike_id": "de69dde16f84114ad21941dda625bb1e", "type": "electric_scooter", "is_reserved": 0, "lon": -76.93545783333333}, {"fusion_lat": 0.0, "name": "b6b929e2b17c379e6748c6f534246eab", "is_disabled": 0, "rental_uris": {"android": "https://dc.lft.to/lastmile_qr_scan", "ios": "https://dc.lft.to/lastmile_qr_scan"}, "fusion_lon": 0.0, "lat": 38.80710333333333, "bike_id": "b6b929e2b17c379e6748c6f534246eab", "type": "electric_bike", "is_reserved": 0, "lon": -77.06173833333334}, {"fusion_lat": 0.0, "name": "cf544f099de0977d4320c983574ece57", "is_disabled": 0, "rental_uris": {"android": "https://dc.lft.to/lastmile_qr_scan", "ios": "https://dc.lft.to/lastmile_qr_scan"}, "fusion_lon": 0.0, "lat": 38.937081666666664, "bike_id": "cf544f099de0977d4320c983574ece57", "type": "electric_scooter", "is_reserved": 0, "lon": -77.06103433333334}, {"fusion_lat": 0.0, "name": "6a8fb3fc0ff9b0e4767f42fbb902779b", "is_disabled": 0, "rental_uris": {"android": "https://dc.lft.to/lastmile_qr_scan", "ios": "https://dc.lft.to/lastmile_qr_scan"}, "fusion_lon": 0.0, "lat": 38.900892666666664, "bike_id": "6a8fb3fc0ff9b0e4767f42fbb902779b", "type": "electric_scooter", "is_reserved": 0, "lon": -77.02020416666667}, {"fusion_lat": 0.0, "name": "0281db69673d6a9e67b45aa1a259057d", "is_disabled": 0, "rental_uris": {"android": "https://dc.lft.to/lastmile_qr_scan", "ios": "https://dc.lft.to/lastmile_qr_scan"}, "fusion_lon": 0.0, "lat": 38.876341333333336, "bike_id": "0281db69673d6a9e67b45aa1a259057d", "type": "electric_scooter", "is_reserved": 0, "lon": -77.00820233333333}, {"fusion_lat": 0.0, "name": "7af5055aa768d584448d12228b543cea", "is_disabled": 0, "rental_uris": {"android": "https://dc.lft.to/lastmile_qr_scan", "ios": "https://dc.lft.to/lastmile_qr_scan"}, "fusion_lon": 0.0, "lat": 39.0031005, "bike_id": "7af5055aa768d584448d12228b543cea", "type": "electric_bike", "is_reserved": 0, "lon": -76.90329166666666}, {"fusion_lat": 0.0, "name": "b6d71acda813cc71d0e345fd80e6ca7e", "is_disabled": 0, "rental_uris": {"android": "https://dc.lft.to/lastmile_qr_scan", "ios": "https://dc.lft.to/lastmile_qr_scan"}, "fusion_lon": 0.0, "lat": 38.919103666666665, "bike_id": "b6d71acda813cc71d0e345fd80e6ca7e", "type": "electric_scooter", "is_reserved": 0, "lon": -77.023998}, {"fusion_lat": 0.0, "name": "6981e967c984657b4f0e3355e322828c", "is_disabled": 0, "rental_uris": {"android": "https://dc.lft.to/lastmile_qr_scan", "ios": "https://dc.lft.to/lastmile_qr_scan"}, "fusion_lon": 0.0, "lat": 38.9228675, "bike_id": "6981e967c984657b4f0e3355e322828c", "type": "electric_scooter", "is_reserved": 0, "lon": -77.03659666666667}, {"fusion_lat": 0.0, "name": "733e634f95786bde0bc2578e8efbad0a", "is_disabled": 0, "rental_uris": {"android": "https://dc.lft.to/lastmile_qr_scan", "ios": "https://dc.lft.to/lastmile_qr_scan"}, "fusion_lon": 0.0, "lat": 38.9212205, "bike_id": "733e634f95786bde0bc2578e8efbad0a", "type": "electric_scooter", "is_reserved": 0, "lon": -77.01208533333333}, {"fusion_lat": 0.0, "name": "50cf5303d3ad49170b2f23817220cc47", "is_disabled": 0, "rental_uris": {"android": "https://dc.lft.to/lastmile_qr_scan", "ios": "https://dc.lft.to/lastmile_qr_scan"}, "fusion_lon": 0.0, "lat": 38.94528116666667, "bike_id": "50cf5303d3ad49170b2f23817220cc47", "type": "electric_scooter", "is_reserved": 0, "lon": -77.02082166666666}, {"fusion_lat": 0.0, "name": "1411a9d1ccb24701045a4ee31b71f477", "is_disabled": 0, "rental_uris": {"android": "https://dc.lft.to/lastmile_qr_scan", "ios": "https://dc.lft.to/lastmile_qr_scan"}, "fusion_lon": 0.0, "lat": 38.956275166666664, "bike_id": "1411a9d1ccb24701045a4ee31b71f477", "type": "electric_bike", "is_reserved": 0, "lon": -76.9386795}, {"fusion_lat": 0.0, "name": "a49f2b8ff018e8f1cd0956049a1a5cab", "is_disabled": 0, "rental_uris": {"android": "https://dc.lft.to/lastmile_qr_scan", "ios": "https://dc.lft.to/lastmile_qr_scan"}, "fusion_lon": 0.0, "lat": 38.91571833333333, "bike_id": "a49f2b8ff018e8f1cd0956049a1a5cab", "type": "electric_scooter", "is_reserved": 0, "lon": -77.03637083333334}, {"fusion_lat": 0.0, "name": "22da9c9396a1ba47e83c70a21a2a4fc4", "is_disabled": 0, "rental_uris": {"android": "https://dc.lft.to/lastmile_qr_scan", "ios": "https://dc.lft.to/lastmile_qr_scan"}, "fusion_lon": 0.0, "lat": 38.919299333333335, "bike_id": "22da9c9396a1ba47e83c70a21a2a4fc4", "type": "electric_scooter", "is_reserved": 0, "lon": -77.01211166666667}, {"fusion_lat": 0.0, "name": "f0a1bc93b9ac8953d54f6a535e2dda83", "is_disabled": 0, "rental_uris": {"android": "https://dc.lft.to/lastmile_qr_scan", "ios": "https://dc.lft.to/lastmile_qr_scan"}, "fusion_lon": 0.0, "lat": 38.923367166666665, "bike_id": "f0a1bc93b9ac8953d54f6a535e2dda83", "type": "electric_scooter", "is_reserved": 0, "lon": -77.053483}, {"fusion_lat": 0.0, "name": "8674072c3ec5ab4b5f8e6d626f56c442", "is_disabled": 0, "rental_uris": {"android": "https://dc.lft.to/lastmile_qr_scan", "ios": "https://dc.lft.to/lastmile_qr_scan"}, "fusion_lon": 0.0, "lat": 38.9028115, "bike_id": "8674072c3ec5ab4b5f8e6d626f56c442", "type": "electric_scooter", "is_reserved": 0, "lon": -77.03663416666667}, {"fusion_lat": 0.0, "name": "10c71c6457b68c813132730160d02672", "is_disabled": 0, "rental_uris": {"android": "https://dc.lft.to/lastmile_qr_scan", "ios": "https://dc.lft.to/lastmile_qr_scan"}, "fusion_lon": 0.0, "lat": 38.895665666666666, "bike_id": "10c71c6457b68c813132730160d02672", "type": "electric_bike", "is_reserved": 0, "lon": -77.12735933333333}, {"fusion_lat": 0.0, "name": "01c2f70500d1f22f1ff31c63a4df1add", "is_disabled": 0, "rental_uris": {"android": "https://dc.lft.to/lastmile_qr_scan", "ios": "https://dc.lft.to/lastmile_qr_scan"}, "fusion_lon": 0.0, "lat": 38.9300755, "bike_id": "01c2f70500d1f22f1ff31c63a4df1add", "type": "electric_bike", "is_reserved": 0, "lon": -77.0162345}, {"fusion_lat": 0.0, "name": "8f49b2fa1ccf078505283386984aeff6", "is_disabled": 0, "rental_uris": {"android": "https://dc.lft.to/lastmile_qr_scan", "ios": "https://dc.lft.to/lastmile_qr_scan"}, "fusion_lon": 0.0, "lat": 38.92249483333333, "bike_id": "8f49b2fa1ccf078505283386984aeff6", "type": "electric_scooter", "is_reserved": 0, "lon": -77.03084133333333}, {"fusion_lat": 0.0, "name": "dd70459def72a0cd80f54854ae678013", "is_disabled": 0, "rental_uris": {"android": "https://dc.lft.to/lastmile_qr_scan", "ios": "https://dc.lft.to/lastmile_qr_scan"}, "fusion_lon": 0.0, "lat": 38.90971716666667, "bike_id": "dd70459def72a0cd80f54854ae678013", "type": "electric_scooter", "is_reserved": 0, "lon": -77.04610983333333}, {"fusion_lat": 0.0, "name": "b3da519d44ca452d7da3b9e0e46724a8", "is_disabled": 0, "rental_uris": {"android": "https://dc.lft.to/lastmile_qr_scan", "ios": "https://dc.lft.to/lastmile_qr_scan"}, "fusion_lon": 0.0, "lat": 38.91516466666667, "bike_id": "b3da519d44ca452d7da3b9e0e46724a8", "type": "electric_scooter", "is_reserved": 0, "lon": -77.03250666666666}, {"fusion_lat": 0.0, "name": "6476e60feef7af756484146d0152a0b0", "is_disabled": 0, "rental_uris": {"android": "https://dc.lft.to/lastmile_qr_scan", "ios": "https://dc.lft.to/lastmile_qr_scan"}, "fusion_lon": 0.0, "lat": 38.895319666666666, "bike_id": "6476e60feef7af756484146d0152a0b0", "type": "electric_scooter", "is_reserved": 0, "lon": -76.94895683333333}, {"fusion_lat": 0.0, "name": "e529db490844f7c269c5e9d502ead817", "is_disabled": 0, "rental_uris": {"android": "https://dc.lft.to/lastmile_qr_scan", "ios": "https://dc.lft.to/lastmile_qr_scan"}, "fusion_lon": 0.0, "lat": 38.92863583333333, "bike_id": "e529db490844f7c269c5e9d502ead817", "type": "electric_scooter", "is_reserved": 0, "lon": -77.033871}, {"fusion_lat": 0.0, "name": "da130d3baf51eb9fd9e232a881d71ad6", "is_disabled": 0, "rental_uris": {"android": "https://dc.lft.to/lastmile_qr_scan", "ios": "https://dc.lft.to/lastmile_qr_scan"}, "fusion_lon": 0.0, "lat": 38.9090075, "bike_id": "da130d3baf51eb9fd9e232a881d71ad6", "type": "electric_scooter", "is_reserved": 0, "lon": -77.04288566666666}, {"fusion_lat": 0.0, "name": "1cf1445baaae49a7d45a73cbc3cbde4e", "is_disabled": 0, "rental_uris": {"android": "https://dc.lft.to/lastmile_qr_scan", "ios": "https://dc.lft.to/lastmile_qr_scan"}, "fusion_lon": 0.0, "lat": 38.90530233333333, "bike_id": "1cf1445baaae49a7d45a73cbc3cbde4e", "type": "electric_bike", "is_reserved": 0, "lon": -76.99809833333333}, {"fusion_lat": 0.0, "name": "d6408fcbe1193a6fade86476a60271d6", "is_disabled": 0, "rental_uris": {"android": "https://dc.lft.to/lastmile_qr_scan", "ios": "https://dc.lft.to/lastmile_qr_scan"}, "fusion_lon": 0.0, "lat": 38.93479216666667, "bike_id": "d6408fcbe1193a6fade86476a60271d6", "type": "electric_scooter", "is_reserved": 0, "lon": -77.07337033333333}, {"fusion_lat": 0.0, "name": "e525f96e919a3f441fe29b5d09cf5967", "is_disabled": 0, "rental_uris": {"android": "https://dc.lft.to/lastmile_qr_scan", "ios": "https://dc.lft.to/lastmile_qr_scan"}, "fusion_lon": 0.0, "lat": 38.90575616666667, "bike_id": "e525f96e919a3f441fe29b5d09cf5967", "type": "electric_scooter", "is_reserved": 0, "lon": -77.02970666666667}, {"fusion_lat": 0.0, "name": "0ce7a91ffd3b2a8201ec6dc78a95a75e", "is_disabled": 0, "rental_uris": {"android": "https://dc.lft.to/lastmile_qr_scan", "ios": "https://dc.lft.to/lastmile_qr_scan"}, "fusion_lon": 0.0, "lat": 38.892984, "bike_id": "0ce7a91ffd3b2a8201ec6dc78a95a75e", "type": "electric_scooter", "is_reserved": 0, "lon": -77.02598316666666}, {"fusion_lat": 0.0, "name": "8e470e82f1d4d7cb94d8934ce36024c4", "is_disabled": 0, "rental_uris": {"android": "https://dc.lft.to/lastmile_qr_scan", "ios": "https://dc.lft.to/lastmile_qr_scan"}, "fusion_lon": 0.0, "lat": 38.91271, "bike_id": "8e470e82f1d4d7cb94d8934ce36024c4", "type": "electric_scooter", "is_reserved": 0, "lon": -77.0193025}, {"fusion_lat": 0.0, "name": "a5a0c9b7fd37b8241b228e86c055e555", "is_disabled": 0, "rental_uris": {"android": "https://dc.lft.to/lastmile_qr_scan", "ios": "https://dc.lft.to/lastmile_qr_scan"}, "fusion_lon": 0.0, "lat": 38.907605, "bike_id": "a5a0c9b7fd37b8241b228e86c055e555", "type": "electric_scooter", "is_reserved": 0, "lon": -77.035779}, {"fusion_lat": 0.0, "name": "20629fa9206b37d9a3cec919e0779e7e", "is_disabled": 0, "rental_uris": {"android": "https://dc.lft.to/lastmile_qr_scan", "ios": "https://dc.lft.to/lastmile_qr_scan"}, "fusion_lon": 0.0, "lat": 38.87898233333333, "bike_id": "20629fa9206b37d9a3cec919e0779e7e", "type": "electric_scooter", "is_reserved": 0, "lon": -77.01367033333334}, {"fusion_lat": 0.0, "name": "e235cb9a3f79c6deb0e4dc0b7ee2e439", "is_disabled": 0, "rental_uris": {"android": "https://dc.lft.to/lastmile_qr_scan", "ios": "https://dc.lft.to/lastmile_qr_scan"}, "fusion_lon": 0.0, "lat": 38.901073833333335, "bike_id": "e235cb9a3f79c6deb0e4dc0b7ee2e439", "type": "electric_scooter", "is_reserved": 0, "lon": -77.05901066666667}, {"fusion_lat": 0.0, "name": "f888dea30466a6c70e4540277bdd7fd7", "is_disabled": 0, "rental_uris": {"android": "https://dc.lft.to/lastmile_qr_scan", "ios": "https://dc.lft.to/lastmile_qr_scan"}, "fusion_lon": 0.0, "lat": 38.93590416666667, "bike_id": "f888dea30466a6c70e4540277bdd7fd7", "type": "electric_bike", "is_reserved": 0, "lon": -77.02408716666666}, {"fusion_lat": 0.0, "name": "ed5b4b859fb69ea9d369b11e8b794177", "is_disabled": 0, "rental_uris": {"android": "https://dc.lft.to/lastmile_qr_scan", "ios": "https://dc.lft.to/lastmile_qr_scan"}, "fusion_lon": 0.0, "lat": 38.907141, "bike_id": "ed5b4b859fb69ea9d369b11e8b794177", "type": "electric_scooter", "is_reserved": 0, "lon": -77.04072566666666}, {"fusion_lat": 0.0, "name": "bb247aeceb3a89cabdcb932d2c340c16", "is_disabled": 0, "rental_uris": {"android": "https://dc.lft.to/lastmile_qr_scan", "ios": "https://dc.lft.to/lastmile_qr_scan"}, "fusion_lon": 0.0, "lat": 38.91624683333333, "bike_id": "bb247aeceb3a89cabdcb932d2c340c16", "type": "electric_scooter", "is_reserved": 0, "lon": -77.02147416666666}, {"fusion_lat": 0.0, "name": "24aba074b5423fc2fb427a82ecf7f5e9", "is_disabled": 0, "rental_uris": {"android": "https://dc.lft.to/lastmile_qr_scan", "ios": "https://dc.lft.to/lastmile_qr_scan"}, "fusion_lon": 0.0, "lat": 38.9025445, "bike_id": "24aba074b5423fc2fb427a82ecf7f5e9", "type": "electric_scooter", "is_reserved": 0, "lon": -77.0173755}, {"fusion_lat": 0.0, "name": "9c5a9fb9a3347f73d2a8f7d0ab70ed7e", "is_disabled": 0, "rental_uris": {"android": "https://dc.lft.to/lastmile_qr_scan", "ios": "https://dc.lft.to/lastmile_qr_scan"}, "fusion_lon": 0.0, "lat": 38.92403983333333, "bike_id": "9c5a9fb9a3347f73d2a8f7d0ab70ed7e", "type": "electric_scooter", "is_reserved": 0, "lon": -77.0255155}, {"fusion_lat": 0.0, "name": "b3c5717473ba36b500be48ceae266396", "is_disabled": 0, "rental_uris": {"android": "https://dc.lft.to/lastmile_qr_scan", "ios": "https://dc.lft.to/lastmile_qr_scan"}, "fusion_lon": 0.0, "lat": 38.895294, "bike_id": "b3c5717473ba36b500be48ceae266396", "type": "electric_scooter", "is_reserved": 0, "lon": -76.93410766666666}, {"fusion_lat": 0.0, "name": "a40cfd335b5f1dddb2238c5856094ee0", "is_disabled": 0, "rental_uris": {"android": "https://dc.lft.to/lastmile_qr_scan", "ios": "https://dc.lft.to/lastmile_qr_scan"}, "fusion_lon": 0.0, "lat": 38.90111483333333, "bike_id": "a40cfd335b5f1dddb2238c5856094ee0", "type": "electric_scooter", "is_reserved": 0, "lon": -77.04174233333333}, {"fusion_lat": 0.0, "name": "457a375229fb3b33dcbe8cc9e721a16f", "is_disabled": 0, "rental_uris": {"android": "https://dc.lft.to/lastmile_qr_scan", "ios": "https://dc.lft.to/lastmile_qr_scan"}, "fusion_lon": 0.0, "lat": 38.880211, "bike_id": "457a375229fb3b33dcbe8cc9e721a16f", "type": "electric_scooter", "is_reserved": 0, "lon": -76.98456266666666}, {"fusion_lat": 0.0, "name": "2404fcee542e1a97d7358a92802aefb8", "is_disabled": 0, "rental_uris": {"android": "https://dc.lft.to/lastmile_qr_scan", "ios": "https://dc.lft.to/lastmile_qr_scan"}, "fusion_lon": 0.0, "lat": 38.909535166666664, "bike_id": "2404fcee542e1a97d7358a92802aefb8", "type": "electric_scooter", "is_reserved": 0, "lon": -77.01887533333333}, {"fusion_lat": 0.0, "name": "a59976d48fc9669ee68656b84124de15", "is_disabled": 0, "rental_uris": {"android": "https://dc.lft.to/lastmile_qr_scan", "ios": "https://dc.lft.to/lastmile_qr_scan"}, "fusion_lon": 0.0, "lat": 38.853213, "bike_id": "a59976d48fc9669ee68656b84124de15", "type": "electric_scooter", "is_reserved": 0, "lon": -76.9800735}, {"fusion_lat": 0.0, "name": "224d97e39722987a1b358bb07b70359b", "is_disabled": 0, "rental_uris": {"android": "https://dc.lft.to/lastmile_qr_scan", "ios": "https://dc.lft.to/lastmile_qr_scan"}, "fusion_lon": 0.0, "lat": 38.920752, "bike_id": "224d97e39722987a1b358bb07b70359b", "type": "electric_scooter", "is_reserved": 0, "lon": -77.013873}, {"fusion_lat": 0.0, "name": "f67167c4611e77a26795e8cb0d69249c", "is_disabled": 0, "rental_uris": {"android": "https://dc.lft.to/lastmile_qr_scan", "ios": "https://dc.lft.to/lastmile_qr_scan"}, "fusion_lon": 0.0, "lat": 38.910430166666664, "bike_id": "f67167c4611e77a26795e8cb0d69249c", "type": "electric_scooter", "is_reserved": 0, "lon": -77.00827983333333}, {"fusion_lat": 0.0, "name": "28345fbc6bff15ce79ad6505e78cb92b", "is_disabled": 0, "rental_uris": {"android": "https://dc.lft.to/lastmile_qr_scan", "ios": "https://dc.lft.to/lastmile_qr_scan"}, "fusion_lon": 0.0, "lat": 38.90086566666667, "bike_id": "28345fbc6bff15ce79ad6505e78cb92b", "type": "electric_scooter", "is_reserved": 0, "lon": -76.983353}, {"fusion_lat": 0.0, "name": "c93173057b188d80600c61ee706d9d32", "is_disabled": 0, "rental_uris": {"android": "https://dc.lft.to/lastmile_qr_scan", "ios": "https://dc.lft.to/lastmile_qr_scan"}, "fusion_lon": 0.0, "lat": 38.93464983333333, "bike_id": "c93173057b188d80600c61ee706d9d32", "type": "electric_scooter", "is_reserved": 0, "lon": -77.07209866666666}, {"fusion_lat": 0.0, "name": "b42da4b65cf16365ce3070e95f7d0047", "is_disabled": 0, "rental_uris": {"android": "https://dc.lft.to/lastmile_qr_scan", "ios": "https://dc.lft.to/lastmile_qr_scan"}, "fusion_lon": 0.0, "lat": 38.89225283333333, "bike_id": "b42da4b65cf16365ce3070e95f7d0047", "type": "electric_scooter", "is_reserved": 0, "lon": -77.02508083333333}, {"fusion_lat": 0.0, "name": "c17558568aa53e0026c14a0ebab4f5f0", "is_disabled": 0, "rental_uris": {"android": "https://dc.lft.to/lastmile_qr_scan", "ios": "https://dc.lft.to/lastmile_qr_scan"}, "fusion_lon": 0.0, "lat": 38.938688166666665, "bike_id": "c17558568aa53e0026c14a0ebab4f5f0", "type": "electric_scooter", "is_reserved": 0, "lon": -77.0249025}, {"fusion_lat": 0.0, "name": "02079179df893e22a1d9a3648533b080", "is_disabled": 0, "rental_uris": {"android": "https://dc.lft.to/lastmile_qr_scan", "ios": "https://dc.lft.to/lastmile_qr_scan"}, "fusion_lon": 0.0, "lat": 38.926340833333335, "bike_id": "02079179df893e22a1d9a3648533b080", "type": "electric_scooter", "is_reserved": 0, "lon": -77.04327366666666}, {"fusion_lat": 0.0, "name": "a3dc53ea141769318094c0d45e6d727a", "is_disabled": 0, "rental_uris": {"android": "https://dc.lft.to/lastmile_qr_scan", "ios": "https://dc.lft.to/lastmile_qr_scan"}, "fusion_lon": 0.0, "lat": 38.907339, "bike_id": "a3dc53ea141769318094c0d45e6d727a", "type": "electric_scooter", "is_reserved": 0, "lon": -77.03452633333333}, {"fusion_lat": 0.0, "name": "219f8ddb7575669f5a8ecb3e3cd5dc4f", "is_disabled": 0, "rental_uris": {"android": "https://dc.lft.to/lastmile_qr_scan", "ios": "https://dc.lft.to/lastmile_qr_scan"}, "fusion_lon": 0.0, "lat": 38.9224975, "bike_id": "219f8ddb7575669f5a8ecb3e3cd5dc4f", "type": "electric_scooter", "is_reserved": 0, "lon": -77.01945583333334}, {"fusion_lat": 0.0, "name": "27064735bc093212ce04d5da95c2f2c0", "is_disabled": 0, "rental_uris": {"android": "https://dc.lft.to/lastmile_qr_scan", "ios": "https://dc.lft.to/lastmile_qr_scan"}, "fusion_lon": 0.0, "lat": 38.91910166666667, "bike_id": "27064735bc093212ce04d5da95c2f2c0", "type": "electric_scooter", "is_reserved": 0, "lon": -77.013622}, {"fusion_lat": 0.0, "name": "4b4e3eec5992a0105250407ab163c8dd", "is_disabled": 0, "rental_uris": {"android": "https://dc.lft.to/lastmile_qr_scan", "ios": "https://dc.lft.to/lastmile_qr_scan"}, "fusion_lon": 0.0, "lat": 38.918040500000004, "bike_id": "4b4e3eec5992a0105250407ab163c8dd", "type": "electric_scooter", "is_reserved": 0, "lon": -77.0344345}, {"fusion_lat": 0.0, "name": "4b3c8fac13378dcbb62543fda2bffafd", "is_disabled": 0, "rental_uris": {"android": "https://dc.lft.to/lastmile_qr_scan", "ios": "https://dc.lft.to/lastmile_qr_scan"}, "fusion_lon": 0.0, "lat": 38.913380333333336, "bike_id": "4b3c8fac13378dcbb62543fda2bffafd", "type": "electric_scooter", "is_reserved": 0, "lon": -77.047887}, {"fusion_lat": 0.0, "name": "572bc4bbd09bc8943dc700e6b9fb4996", "is_disabled": 0, "rental_uris": {"android": "https://dc.lft.to/lastmile_qr_scan", "ios": "https://dc.lft.to/lastmile_qr_scan"}, "fusion_lon": 0.0, "lat": 38.925547, "bike_id": "572bc4bbd09bc8943dc700e6b9fb4996", "type": "electric_scooter", "is_reserved": 0, "lon": -77.04292133333334}, {"fusion_lat": 0.0, "name": "4fde3a2a2ee07748789924fa1edbf88a", "is_disabled": 0, "rental_uris": {"android": "https://dc.lft.to/lastmile_qr_scan", "ios": "https://dc.lft.to/lastmile_qr_scan"}, "fusion_lon": 0.0, "lat": 38.920015, "bike_id": "4fde3a2a2ee07748789924fa1edbf88a", "type": "electric_scooter", "is_reserved": 0, "lon": -77.07134283333333}, {"fusion_lat": 0.0, "name": "b5cf0358290de80910480f138f1890d6", "is_disabled": 0, "rental_uris": {"android": "https://dc.lft.to/lastmile_qr_scan", "ios": "https://dc.lft.to/lastmile_qr_scan"}, "fusion_lon": 0.0, "lat": 38.95380433333333, "bike_id": "b5cf0358290de80910480f138f1890d6", "type": "electric_bike", "is_reserved": 0, "lon": -76.97956683333334}, {"fusion_lat": 0.0, "name": "1799e16d90cf9cea6eebda164515b67c", "is_disabled": 0, "rental_uris": {"android": "https://dc.lft.to/lastmile_qr_scan", "ios": "https://dc.lft.to/lastmile_qr_scan"}, "fusion_lon": 0.0, "lat": 38.90022883333334, "bike_id": "1799e16d90cf9cea6eebda164515b67c", "type": "electric_scooter", "is_reserved": 0, "lon": -77.04027}, {"fusion_lat": 0.0, "name": "8cb1d481497de2f767d10abf9871a1e4", "is_disabled": 0, "rental_uris": {"android": "https://dc.lft.to/lastmile_qr_scan", "ios": "https://dc.lft.to/lastmile_qr_scan"}, "fusion_lon": 0.0, "lat": 38.9319245, "bike_id": "8cb1d481497de2f767d10abf9871a1e4", "type": "electric_scooter", "is_reserved": 0, "lon": -77.03264816666666}, {"fusion_lat": 0.0, "name": "908be193f04dba19edbcbae3192a057c", "is_disabled": 0, "rental_uris": {"android": "https://dc.lft.to/lastmile_qr_scan", "ios": "https://dc.lft.to/lastmile_qr_scan"}, "fusion_lon": 0.0, "lat": 38.91060916666667, "bike_id": "908be193f04dba19edbcbae3192a057c", "type": "electric_scooter", "is_reserved": 0, "lon": -77.02655166666666}, {"fusion_lat": 0.0, "name": "097ba3a19bbef1f6026f2d994f723c9a", "is_disabled": 0, "rental_uris": {"android": "https://dc.lft.to/lastmile_qr_scan", "ios": "https://dc.lft.to/lastmile_qr_scan"}, "fusion_lon": 0.0, "lat": 38.9450095, "bike_id": "097ba3a19bbef1f6026f2d994f723c9a", "type": "electric_scooter", "is_reserved": 0, "lon": -77.03150183333334}, {"fusion_lat": 0.0, "name": "7835ef9cee1b17b3217d969a6a5d9951", "is_disabled": 0, "rental_uris": {"android": "https://dc.lft.to/lastmile_qr_scan", "ios": "https://dc.lft.to/lastmile_qr_scan"}, "fusion_lon": 0.0, "lat": 38.928899, "bike_id": "7835ef9cee1b17b3217d969a6a5d9951", "type": "electric_scooter", "is_reserved": 0, "lon": -77.02300033333333}, {"fusion_lat": 0.0, "name": "707d719389f988781449ac4d9e381672", "is_disabled": 0, "rental_uris": {"android": "https://dc.lft.to/lastmile_qr_scan", "ios": "https://dc.lft.to/lastmile_qr_scan"}, "fusion_lon": 0.0, "lat": 38.907652166666665, "bike_id": "707d719389f988781449ac4d9e381672", "type": "electric_scooter", "is_reserved": 0, "lon": -77.027977}, {"fusion_lat": 0.0, "name": "12c0442a238048c8084803e8104abb63", "is_disabled": 0, "rental_uris": {"android": "https://dc.lft.to/lastmile_qr_scan", "ios": "https://dc.lft.to/lastmile_qr_scan"}, "fusion_lon": 0.0, "lat": 38.8435575, "bike_id": "12c0442a238048c8084803e8104abb63", "type": "electric_bike", "is_reserved": 0, "lon": -76.978192}, {"fusion_lat": 0.0, "name": "698149a3c90fc7ab84d5e2288fa42f4e", "is_disabled": 0, "rental_uris": {"android": "https://dc.lft.to/lastmile_qr_scan", "ios": "https://dc.lft.to/lastmile_qr_scan"}, "fusion_lon": 0.0, "lat": 38.923432166666665, "bike_id": "698149a3c90fc7ab84d5e2288fa42f4e", "type": "electric_scooter", "is_reserved": 0, "lon": -77.052252}, {"fusion_lat": 0.0, "name": "5dd4add727537f1df03b61ed6ccf2df5", "is_disabled": 0, "rental_uris": {"android": "https://dc.lft.to/lastmile_qr_scan", "ios": "https://dc.lft.to/lastmile_qr_scan"}, "fusion_lon": 0.0, "lat": 38.883659333333334, "bike_id": "5dd4add727537f1df03b61ed6ccf2df5", "type": "electric_scooter", "is_reserved": 0, "lon": -76.94156183333334}, {"fusion_lat": 0.0, "name": "21ea7f3568e896c10b4bf092a22c87e4", "is_disabled": 0, "rental_uris": {"android": "https://dc.lft.to/lastmile_qr_scan", "ios": "https://dc.lft.to/lastmile_qr_scan"}, "fusion_lon": 0.0, "lat": 38.90097033333333, "bike_id": "21ea7f3568e896c10b4bf092a22c87e4", "type": "electric_scooter", "is_reserved": 0, "lon": -77.024444}, {"fusion_lat": 0.0, "name": "ed5b0dad4d5cb444fbc0764d8631fc2d", "is_disabled": 0, "rental_uris": {"android": "https://dc.lft.to/lastmile_qr_scan", "ios": "https://dc.lft.to/lastmile_qr_scan"}, "fusion_lon": 0.0, "lat": 38.936053, "bike_id": "ed5b0dad4d5cb444fbc0764d8631fc2d", "type": "electric_scooter", "is_reserved": 0, "lon": -77.03527616666666}, {"fusion_lat": 0.0, "name": "5b9afb7e28e0ead49ebd67f0c3d867c4", "is_disabled": 0, "rental_uris": {"android": "https://dc.lft.to/lastmile_qr_scan", "ios": "https://dc.lft.to/lastmile_qr_scan"}, "fusion_lon": 0.0, "lat": 38.8917725, "bike_id": "5b9afb7e28e0ead49ebd67f0c3d867c4", "type": "electric_scooter", "is_reserved": 0, "lon": -76.99942916666667}, {"fusion_lat": 0.0, "name": "3a456db8a77f8e4b6465957b92d536c0", "is_disabled": 0, "rental_uris": {"android": "https://dc.lft.to/lastmile_qr_scan", "ios": "https://dc.lft.to/lastmile_qr_scan"}, "fusion_lon": 0.0, "lat": 38.89223716666667, "bike_id": "3a456db8a77f8e4b6465957b92d536c0", "type": "electric_scooter", "is_reserved": 0, "lon": -77.048008}, {"fusion_lat": 0.0, "name": "c131364bd0b97812470fec3fd8aaa924", "is_disabled": 0, "rental_uris": {"android": "https://dc.lft.to/lastmile_qr_scan", "ios": "https://dc.lft.to/lastmile_qr_scan"}, "fusion_lon": 0.0, "lat": 38.89857816666667, "bike_id": "c131364bd0b97812470fec3fd8aaa924", "type": "electric_scooter", "is_reserved": 0, "lon": -76.950468}, {"fusion_lat": 0.0, "name": "99b8916a3fb5b1890a4c7453596eb2c1", "is_disabled": 0, "rental_uris": {"android": "https://dc.lft.to/lastmile_qr_scan", "ios": "https://dc.lft.to/lastmile_qr_scan"}, "fusion_lon": 0.0, "lat": 38.911076333333334, "bike_id": "99b8916a3fb5b1890a4c7453596eb2c1", "type": "electric_scooter", "is_reserved": 0, "lon": -77.041991}, {"fusion_lat": 0.0, "name": "3566cf7e44bf9fce5523d1f2f02d3b1d", "is_disabled": 0, "rental_uris": {"android": "https://dc.lft.to/lastmile_qr_scan", "ios": "https://dc.lft.to/lastmile_qr_scan"}, "fusion_lon": 0.0, "lat": 38.921785666666665, "bike_id": "3566cf7e44bf9fce5523d1f2f02d3b1d", "type": "electric_scooter", "is_reserved": 0, "lon": -77.0383465}, {"fusion_lat": 0.0, "name": "4274f44f26ce6092c22ca89cdf3dfedc", "is_disabled": 0, "rental_uris": {"android": "https://dc.lft.to/lastmile_qr_scan", "ios": "https://dc.lft.to/lastmile_qr_scan"}, "fusion_lon": 0.0, "lat": 38.900891, "bike_id": "4274f44f26ce6092c22ca89cdf3dfedc", "type": "electric_scooter", "is_reserved": 0, "lon": -76.98329766666667}, {"fusion_lat": 0.0, "name": "5a30e390b2cc9732af28c06e700039b9", "is_disabled": 0, "rental_uris": {"android": "https://dc.lft.to/lastmile_qr_scan", "ios": "https://dc.lft.to/lastmile_qr_scan"}, "fusion_lon": 0.0, "lat": 38.940745, "bike_id": "5a30e390b2cc9732af28c06e700039b9", "type": "electric_scooter", "is_reserved": 0, "lon": -77.0299755}, {"fusion_lat": 0.0, "name": "1607ce75b11d5809d49d44f2fff43945", "is_disabled": 0, "rental_uris": {"android": "https://dc.lft.to/lastmile_qr_scan", "ios": "https://dc.lft.to/lastmile_qr_scan"}, "fusion_lon": 0.0, "lat": 38.91802, "bike_id": "1607ce75b11d5809d49d44f2fff43945", "type": "electric_scooter", "is_reserved": 0, "lon": -77.033027}, {"fusion_lat": 0.0, "name": "c18c6b978e2c60d581ee09c747f3d748", "is_disabled": 0, "rental_uris": {"android": "https://dc.lft.to/lastmile_qr_scan", "ios": "https://dc.lft.to/lastmile_qr_scan"}, "fusion_lon": 0.0, "lat": 38.913221, "bike_id": "c18c6b978e2c60d581ee09c747f3d748", "type": "electric_scooter", "is_reserved": 0, "lon": -77.02149816666666}, {"fusion_lat": 0.0, "name": "aae596fe124f7cbb79f0ea835fd39215", "is_disabled": 0, "rental_uris": {"android": "https://dc.lft.to/lastmile_qr_scan", "ios": "https://dc.lft.to/lastmile_qr_scan"}, "fusion_lon": 0.0, "lat": 38.9152175, "bike_id": "aae596fe124f7cbb79f0ea835fd39215", "type": "electric_scooter", "is_reserved": 0, "lon": -77.03178266666667}, {"fusion_lat": 0.0, "name": "59d9f053a8581ed0f245473898e0b204", "is_disabled": 0, "rental_uris": {"android": "https://dc.lft.to/lastmile_qr_scan", "ios": "https://dc.lft.to/lastmile_qr_scan"}, "fusion_lon": 0.0, "lat": 38.87969966666667, "bike_id": "59d9f053a8581ed0f245473898e0b204", "type": "electric_bike", "is_reserved": 0, "lon": -76.91614466666667}, {"fusion_lat": 0.0, "name": "42704aed0a46ae6637c46c2005630e8b", "is_disabled": 0, "rental_uris": {"android": "https://dc.lft.to/lastmile_qr_scan", "ios": "https://dc.lft.to/lastmile_qr_scan"}, "fusion_lon": 0.0, "lat": 38.91356733333333, "bike_id": "42704aed0a46ae6637c46c2005630e8b", "type": "electric_scooter", "is_reserved": 0, "lon": -77.03330466666667}, {"fusion_lat": 0.0, "name": "f190e45d74136d5eba9baa97d5595d93", "is_disabled": 0, "rental_uris": {"android": "https://dc.lft.to/lastmile_qr_scan", "ios": "https://dc.lft.to/lastmile_qr_scan"}, "fusion_lon": 0.0, "lat": 38.906821, "bike_id": "f190e45d74136d5eba9baa97d5595d93", "type": "electric_scooter", "is_reserved": 0, "lon": -77.01091483333333}, {"fusion_lat": 0.0, "name": "af64254f5d45e633733917132604cb9a", "is_disabled": 0, "rental_uris": {"android": "https://dc.lft.to/lastmile_qr_scan", "ios": "https://dc.lft.to/lastmile_qr_scan"}, "fusion_lon": 0.0, "lat": 38.921987, "bike_id": "af64254f5d45e633733917132604cb9a", "type": "electric_scooter", "is_reserved": 0, "lon": -77.04020316666667}, {"fusion_lat": 0.0, "name": "80e4f7ccfc0e7b9a12dcaa301261e659", "is_disabled": 0, "rental_uris": {"android": "https://dc.lft.to/lastmile_qr_scan", "ios": "https://dc.lft.to/lastmile_qr_scan"}, "fusion_lon": 0.0, "lat": 38.900732166666664, "bike_id": "80e4f7ccfc0e7b9a12dcaa301261e659", "type": "electric_scooter", "is_reserved": 0, "lon": -77.01703316666666}, {"fusion_lat": 0.0, "name": "042cf7aae051263ef7789e4ae037d2a2", "is_disabled": 0, "rental_uris": {"android": "https://dc.lft.to/lastmile_qr_scan", "ios": "https://dc.lft.to/lastmile_qr_scan"}, "fusion_lon": 0.0, "lat": 38.928871, "bike_id": "042cf7aae051263ef7789e4ae037d2a2", "type": "electric_scooter", "is_reserved": 0, "lon": -77.0373035}, {"fusion_lat": 0.0, "name": "48bf4171779fe21d4e7a83b14e67474e", "is_disabled": 0, "rental_uris": {"android": "https://dc.lft.to/lastmile_qr_scan", "ios": "https://dc.lft.to/lastmile_qr_scan"}, "fusion_lon": 0.0, "lat": 38.91815783333333, "bike_id": "48bf4171779fe21d4e7a83b14e67474e", "type": "electric_scooter", "is_reserved": 0, "lon": -77.03677366666666}, {"fusion_lat": 0.0, "name": "48deda5fef389091c25e96d92e8580e1", "is_disabled": 0, "rental_uris": {"android": "https://dc.lft.to/lastmile_qr_scan", "ios": "https://dc.lft.to/lastmile_qr_scan"}, "fusion_lon": 0.0, "lat": 38.914863, "bike_id": "48deda5fef389091c25e96d92e8580e1", "type": "electric_scooter", "is_reserved": 0, "lon": -77.0217945}, {"fusion_lat": 0.0, "name": "284ab3a58e869c4517d51ef5d2aee979", "is_disabled": 0, "rental_uris": {"android": "https://dc.lft.to/lastmile_qr_scan", "ios": "https://dc.lft.to/lastmile_qr_scan"}, "fusion_lon": 0.0, "lat": 38.9184955, "bike_id": "284ab3a58e869c4517d51ef5d2aee979", "type": "electric_scooter", "is_reserved": 0, "lon": -76.96536883333333}, {"fusion_lat": 0.0, "name": "92b78b8446baa03c630955f5f1e4a17b", "is_disabled": 0, "rental_uris": {"android": "https://dc.lft.to/lastmile_qr_scan", "ios": "https://dc.lft.to/lastmile_qr_scan"}, "fusion_lon": 0.0, "lat": 38.914843166666664, "bike_id": "92b78b8446baa03c630955f5f1e4a17b", "type": "electric_scooter", "is_reserved": 0, "lon": -76.983923}, {"fusion_lat": 0.0, "name": "66c18aba0e048dba40fbeeba333f5d74", "is_disabled": 0, "rental_uris": {"android": "https://dc.lft.to/lastmile_qr_scan", "ios": "https://dc.lft.to/lastmile_qr_scan"}, "fusion_lon": 0.0, "lat": 38.95003083333334, "bike_id": "66c18aba0e048dba40fbeeba333f5d74", "type": "electric_scooter", "is_reserved": 0, "lon": -77.01947166666666}, {"fusion_lat": 0.0, "name": "068a300b3277806c7bec3fccb469fd37", "is_disabled": 0, "rental_uris": {"android": "https://dc.lft.to/lastmile_qr_scan", "ios": "https://dc.lft.to/lastmile_qr_scan"}, "fusion_lon": 0.0, "lat": 38.984770166666664, "bike_id": "068a300b3277806c7bec3fccb469fd37", "type": "electric_scooter", "is_reserved": 0, "lon": -77.02642083333333}, {"fusion_lat": 0.0, "name": "f7d152d9e39e3a5a6144976131dcca9a", "is_disabled": 0, "rental_uris": {"android": "https://dc.lft.to/lastmile_qr_scan", "ios": "https://dc.lft.to/lastmile_qr_scan"}, "fusion_lon": 0.0, "lat": 38.905119166666665, "bike_id": "f7d152d9e39e3a5a6144976131dcca9a", "type": "electric_scooter", "is_reserved": 0, "lon": -76.98481583333333}, {"fusion_lat": 0.0, "name": "529055a92c0f264eb13315f2fbfee960", "is_disabled": 0, "rental_uris": {"android": "https://dc.lft.to/lastmile_qr_scan", "ios": "https://dc.lft.to/lastmile_qr_scan"}, "fusion_lon": 0.0, "lat": 38.94431433333333, "bike_id": "529055a92c0f264eb13315f2fbfee960", "type": "electric_bike", "is_reserved": 0, "lon": -77.02607766666667}, {"fusion_lat": 0.0, "name": "983e74dbf8c07b091fea19b2f600e9ae", "is_disabled": 0, "rental_uris": {"android": "https://dc.lft.to/lastmile_qr_scan", "ios": "https://dc.lft.to/lastmile_qr_scan"}, "fusion_lon": 0.0, "lat": 38.890939, "bike_id": "983e74dbf8c07b091fea19b2f600e9ae", "type": "electric_scooter", "is_reserved": 0, "lon": -76.9192405}, {"fusion_lat": 0.0, "name": "bcff94a90e70eef64ded33bc9ee8a213", "is_disabled": 0, "rental_uris": {"android": "https://dc.lft.to/lastmile_qr_scan", "ios": "https://dc.lft.to/lastmile_qr_scan"}, "fusion_lon": 0.0, "lat": 38.915585166666666, "bike_id": "bcff94a90e70eef64ded33bc9ee8a213", "type": "electric_scooter", "is_reserved": 0, "lon": -77.02048833333333}, {"fusion_lat": 0.0, "name": "3c26152837e834fa8eaa5adb61c38daa", "is_disabled": 0, "rental_uris": {"android": "https://dc.lft.to/lastmile_qr_scan", "ios": "https://dc.lft.to/lastmile_qr_scan"}, "fusion_lon": 0.0, "lat": 38.95464883333333, "bike_id": "3c26152837e834fa8eaa5adb61c38daa", "type": "electric_scooter", "is_reserved": 0, "lon": -77.00786783333334}, {"fusion_lat": 0.0, "name": "7e533f944eb215e630b51e8bb3b78b48", "is_disabled": 0, "rental_uris": {"android": "https://dc.lft.to/lastmile_qr_scan", "ios": "https://dc.lft.to/lastmile_qr_scan"}, "fusion_lon": 0.0, "lat": 38.936016, "bike_id": "7e533f944eb215e630b51e8bb3b78b48", "type": "electric_scooter", "is_reserved": 0, "lon": -77.02306083333333}, {"fusion_lat": 0.0, "name": "02c7998009ac7326b4e95c6dc11969e3", "is_disabled": 0, "rental_uris": {"android": "https://dc.lft.to/lastmile_qr_scan", "ios": "https://dc.lft.to/lastmile_qr_scan"}, "fusion_lon": 0.0, "lat": 38.90503666666667, "bike_id": "02c7998009ac7326b4e95c6dc11969e3", "type": "electric_scooter", "is_reserved": 0, "lon": -77.02951866666666}, {"fusion_lat": 0.0, "name": "5fc552a4dea74b3aa3af29a97ecf1d14", "is_disabled": 0, "rental_uris": {"android": "https://dc.lft.to/lastmile_qr_scan", "ios": "https://dc.lft.to/lastmile_qr_scan"}, "fusion_lon": 0.0, "lat": 38.892294166666666, "bike_id": "5fc552a4dea74b3aa3af29a97ecf1d14", "type": "electric_scooter", "is_reserved": 0, "lon": -77.0278865}, {"fusion_lat": 0.0, "name": "e4cfa08ee1d9ecded9157f102057e048", "is_disabled": 0, "rental_uris": {"android": "https://dc.lft.to/lastmile_qr_scan", "ios": "https://dc.lft.to/lastmile_qr_scan"}, "fusion_lon": 0.0, "lat": 38.936408666666665, "bike_id": "e4cfa08ee1d9ecded9157f102057e048", "type": "electric_scooter", "is_reserved": 0, "lon": -77.03257633333334}, {"fusion_lat": 0.0, "name": "ff3eb64506e2df4db41172e9545a023a", "is_disabled": 0, "rental_uris": {"android": "https://dc.lft.to/lastmile_qr_scan", "ios": "https://dc.lft.to/lastmile_qr_scan"}, "fusion_lon": 0.0, "lat": 38.926753833333336, "bike_id": "ff3eb64506e2df4db41172e9545a023a", "type": "electric_scooter", "is_reserved": 0, "lon": -77.03046833333333}, {"fusion_lat": 0.0, "name": "e88eb970a010de9e3f9908cd3039fa98", "is_disabled": 0, "rental_uris": {"android": "https://dc.lft.to/lastmile_qr_scan", "ios": "https://dc.lft.to/lastmile_qr_scan"}, "fusion_lon": 0.0, "lat": 38.920779833333334, "bike_id": "e88eb970a010de9e3f9908cd3039fa98", "type": "electric_scooter", "is_reserved": 0, "lon": -76.9917035}, {"fusion_lat": 0.0, "name": "78af500511a03ae9b3b6952aa113b875", "is_disabled": 0, "rental_uris": {"android": "https://dc.lft.to/lastmile_qr_scan", "ios": "https://dc.lft.to/lastmile_qr_scan"}, "fusion_lon": 0.0, "lat": 38.91604516666666, "bike_id": "78af500511a03ae9b3b6952aa113b875", "type": "electric_scooter", "is_reserved": 0, "lon": -77.0456125}, {"fusion_lat": 0.0, "name": "eae6bf21e6c7ab14f94e41e054d81228", "is_disabled": 0, "rental_uris": {"android": "https://dc.lft.to/lastmile_qr_scan", "ios": "https://dc.lft.to/lastmile_qr_scan"}, "fusion_lon": 0.0, "lat": 38.8966275, "bike_id": "eae6bf21e6c7ab14f94e41e054d81228", "type": "electric_scooter", "is_reserved": 0, "lon": -77.0117395}, {"fusion_lat": 0.0, "name": "da029b029f711c260dc356df3169dc53", "is_disabled": 0, "rental_uris": {"android": "https://dc.lft.to/lastmile_qr_scan", "ios": "https://dc.lft.to/lastmile_qr_scan"}, "fusion_lon": 0.0, "lat": 38.871343, "bike_id": "da029b029f711c260dc356df3169dc53", "type": "electric_scooter", "is_reserved": 0, "lon": -77.01227016666667}, {"fusion_lat": 0.0, "name": "47f8d0272d70afaa42da5c600970a9f3", "is_disabled": 0, "rental_uris": {"android": "https://dc.lft.to/lastmile_qr_scan", "ios": "https://dc.lft.to/lastmile_qr_scan"}, "fusion_lon": 0.0, "lat": 38.91557133333333, "bike_id": "47f8d0272d70afaa42da5c600970a9f3", "type": "electric_scooter", "is_reserved": 0, "lon": -77.0386705}, {"fusion_lat": 0.0, "name": "273396359bc68adbd493959a0217699e", "is_disabled": 0, "rental_uris": {"android": "https://dc.lft.to/lastmile_qr_scan", "ios": "https://dc.lft.to/lastmile_qr_scan"}, "fusion_lon": 0.0, "lat": 38.92813433333333, "bike_id": "273396359bc68adbd493959a0217699e", "type": "electric_scooter", "is_reserved": 0, "lon": -77.04361633333333}, {"fusion_lat": 0.0, "name": "e1c632aea07ce21e2ed77d8c3addd6e9", "is_disabled": 0, "rental_uris": {"android": "https://dc.lft.to/lastmile_qr_scan", "ios": "https://dc.lft.to/lastmile_qr_scan"}, "fusion_lon": 0.0, "lat": 38.89820616666667, "bike_id": "e1c632aea07ce21e2ed77d8c3addd6e9", "type": "electric_scooter", "is_reserved": 0, "lon": -77.05022416666667}, {"fusion_lat": 0.0, "name": "17ff3666166495a1b50de25769978128", "is_disabled": 0, "rental_uris": {"android": "https://dc.lft.to/lastmile_qr_scan", "ios": "https://dc.lft.to/lastmile_qr_scan"}, "fusion_lon": 0.0, "lat": 38.901125666666665, "bike_id": "17ff3666166495a1b50de25769978128", "type": "electric_scooter", "is_reserved": 0, "lon": -76.97425183333333}, {"fusion_lat": 0.0, "name": "78a7c110aedee1d63f80f97c8da24f77", "is_disabled": 0, "rental_uris": {"android": "https://dc.lft.to/lastmile_qr_scan", "ios": "https://dc.lft.to/lastmile_qr_scan"}, "fusion_lon": 0.0, "lat": 38.904489166666664, "bike_id": "78a7c110aedee1d63f80f97c8da24f77", "type": "electric_scooter", "is_reserved": 0, "lon": -77.05848533333334}, {"fusion_lat": 0.0, "name": "d07ffcca6de483787542a523b4753eef", "is_disabled": 0, "rental_uris": {"android": "https://dc.lft.to/lastmile_qr_scan", "ios": "https://dc.lft.to/lastmile_qr_scan"}, "fusion_lon": 0.0, "lat": 38.90764216666667, "bike_id": "d07ffcca6de483787542a523b4753eef", "type": "electric_scooter", "is_reserved": 0, "lon": -77.042768}, {"fusion_lat": 0.0, "name": "1c939d33a91be6573fe80f2017187576", "is_disabled": 0, "rental_uris": {"android": "https://dc.lft.to/lastmile_qr_scan", "ios": "https://dc.lft.to/lastmile_qr_scan"}, "fusion_lon": 0.0, "lat": 38.926135, "bike_id": "1c939d33a91be6573fe80f2017187576", "type": "electric_scooter", "is_reserved": 0, "lon": -77.07566633333333}, {"fusion_lat": 0.0, "name": "62208622bd8f4116e61f6e89397edfec", "is_disabled": 0, "rental_uris": {"android": "https://dc.lft.to/lastmile_qr_scan", "ios": "https://dc.lft.to/lastmile_qr_scan"}, "fusion_lon": 0.0, "lat": 38.900029833333335, "bike_id": "62208622bd8f4116e61f6e89397edfec", "type": "electric_scooter", "is_reserved": 0, "lon": -77.00370783333334}, {"fusion_lat": 0.0, "name": "63be1a6c5b005fe5abf42862e6a1d7d8", "is_disabled": 0, "rental_uris": {"android": "https://dc.lft.to/lastmile_qr_scan", "ios": "https://dc.lft.to/lastmile_qr_scan"}, "fusion_lon": 0.0, "lat": 38.877115833333335, "bike_id": "63be1a6c5b005fe5abf42862e6a1d7d8", "type": "electric_scooter", "is_reserved": 0, "lon": -76.99379166666667}, {"fusion_lat": 0.0, "name": "3f67e32ab1b5be4473dc5fc1b1742602", "is_disabled": 0, "rental_uris": {"android": "https://dc.lft.to/lastmile_qr_scan", "ios": "https://dc.lft.to/lastmile_qr_scan"}, "fusion_lon": 0.0, "lat": 38.9043085, "bike_id": "3f67e32ab1b5be4473dc5fc1b1742602", "type": "electric_scooter", "is_reserved": 0, "lon": -77.02592416666667}, {"fusion_lat": 0.0, "name": "13dee6ee36c40c14773caaa1d2296356", "is_disabled": 0, "rental_uris": {"android": "https://dc.lft.to/lastmile_qr_scan", "ios": "https://dc.lft.to/lastmile_qr_scan"}, "fusion_lon": 0.0, "lat": 38.89879416666667, "bike_id": "13dee6ee36c40c14773caaa1d2296356", "type": "electric_scooter", "is_reserved": 0, "lon": -76.93183683333334}, {"fusion_lat": 0.0, "name": "caf248147050639c2cc73b702d3d7eb9", "is_disabled": 0, "rental_uris": {"android": "https://dc.lft.to/lastmile_qr_scan", "ios": "https://dc.lft.to/lastmile_qr_scan"}, "fusion_lon": 0.0, "lat": 38.893299166666665, "bike_id": "caf248147050639c2cc73b702d3d7eb9", "type": "electric_scooter", "is_reserved": 0, "lon": -77.03207633333334}, {"fusion_lat": 0.0, "name": "7239452b5ca00141e6e4a0b3de16703e", "is_disabled": 0, "rental_uris": {"android": "https://dc.lft.to/lastmile_qr_scan", "ios": "https://dc.lft.to/lastmile_qr_scan"}, "fusion_lon": 0.0, "lat": 38.89222, "bike_id": "7239452b5ca00141e6e4a0b3de16703e", "type": "electric_scooter", "is_reserved": 0, "lon": -77.04869416666666}, {"fusion_lat": 0.0, "name": "580e941787c676d8e21b0fdd5683f184", "is_disabled": 0, "rental_uris": {"android": "https://dc.lft.to/lastmile_qr_scan", "ios": "https://dc.lft.to/lastmile_qr_scan"}, "fusion_lon": 0.0, "lat": 38.931658666666664, "bike_id": "580e941787c676d8e21b0fdd5683f184", "type": "electric_scooter", "is_reserved": 0, "lon": -77.028771}, {"fusion_lat": 0.0, "name": "d1e3d618e2011d1a8184158227204141", "is_disabled": 0, "rental_uris": {"android": "https://dc.lft.to/lastmile_qr_scan", "ios": "https://dc.lft.to/lastmile_qr_scan"}, "fusion_lon": 0.0, "lat": 38.90013033333334, "bike_id": "d1e3d618e2011d1a8184158227204141", "type": "electric_scooter", "is_reserved": 0, "lon": -76.98812133333334}, {"fusion_lat": 0.0, "name": "61477a7fd7bc9f2be25afa9381568fab", "is_disabled": 0, "rental_uris": {"android": "https://dc.lft.to/lastmile_qr_scan", "ios": "https://dc.lft.to/lastmile_qr_scan"}, "fusion_lon": 0.0, "lat": 38.92025433333333, "bike_id": "61477a7fd7bc9f2be25afa9381568fab", "type": "electric_scooter", "is_reserved": 0, "lon": -77.013131}, {"fusion_lat": 0.0, "name": "cc12d7208aca28d7c7f32d8eaf1e858f", "is_disabled": 0, "rental_uris": {"android": "https://dc.lft.to/lastmile_qr_scan", "ios": "https://dc.lft.to/lastmile_qr_scan"}, "fusion_lon": 0.0, "lat": 38.905792, "bike_id": "cc12d7208aca28d7c7f32d8eaf1e858f", "type": "electric_scooter", "is_reserved": 0, "lon": -77.04009166666667}, {"fusion_lat": 0.0, "name": "2fbf1d5c66d2a0bd7651871b5b55d42e", "is_disabled": 0, "rental_uris": {"android": "https://dc.lft.to/lastmile_qr_scan", "ios": "https://dc.lft.to/lastmile_qr_scan"}, "fusion_lon": 0.0, "lat": 38.90975066666667, "bike_id": "2fbf1d5c66d2a0bd7651871b5b55d42e", "type": "electric_scooter", "is_reserved": 0, "lon": -77.01106916666667}, {"fusion_lat": 0.0, "name": "72aaed8dd497302e710880b33dc9dc8c", "is_disabled": 0, "rental_uris": {"android": "https://dc.lft.to/lastmile_qr_scan", "ios": "https://dc.lft.to/lastmile_qr_scan"}, "fusion_lon": 0.0, "lat": 38.873676, "bike_id": "72aaed8dd497302e710880b33dc9dc8c", "type": "electric_scooter", "is_reserved": 0, "lon": -77.00122216666666}, {"fusion_lat": 0.0, "name": "915075b1842f1adbfd93c61d769b2327", "is_disabled": 0, "rental_uris": {"android": "https://dc.lft.to/lastmile_qr_scan", "ios": "https://dc.lft.to/lastmile_qr_scan"}, "fusion_lon": 0.0, "lat": 38.941675000000004, "bike_id": "915075b1842f1adbfd93c61d769b2327", "type": "electric_bike", "is_reserved": 0, "lon": -76.96646933333334}, {"fusion_lat": 0.0, "name": "0945682e13653ba2d0dd42ac44afcf70", "is_disabled": 0, "rental_uris": {"android": "https://dc.lft.to/lastmile_qr_scan", "ios": "https://dc.lft.to/lastmile_qr_scan"}, "fusion_lon": 0.0, "lat": 38.90871716666667, "bike_id": "0945682e13653ba2d0dd42ac44afcf70", "type": "electric_scooter", "is_reserved": 0, "lon": -77.02395383333334}, {"fusion_lat": 0.0, "name": "358a5428a7c47fdb9e7df7c5d9987b3b", "is_disabled": 0, "rental_uris": {"android": "https://dc.lft.to/lastmile_qr_scan", "ios": "https://dc.lft.to/lastmile_qr_scan"}, "fusion_lon": 0.0, "lat": 38.9044065, "bike_id": "358a5428a7c47fdb9e7df7c5d9987b3b", "type": "electric_scooter", "is_reserved": 0, "lon": -77.05866916666666}, {"fusion_lat": 0.0, "name": "3b10fb100bfdcd6afb6c63c00b2b94c5", "is_disabled": 0, "rental_uris": {"android": "https://dc.lft.to/lastmile_qr_scan", "ios": "https://dc.lft.to/lastmile_qr_scan"}, "fusion_lon": 0.0, "lat": 38.895558, "bike_id": "3b10fb100bfdcd6afb6c63c00b2b94c5", "type": "electric_scooter", "is_reserved": 0, "lon": -77.02387783333333}, {"fusion_lat": 0.0, "name": "01a424e0a1a684d152bb63f49247cb13", "is_disabled": 0, "rental_uris": {"android": "https://dc.lft.to/lastmile_qr_scan", "ios": "https://dc.lft.to/lastmile_qr_scan"}, "fusion_lon": 0.0, "lat": 38.877327666666666, "bike_id": "01a424e0a1a684d152bb63f49247cb13", "type": "electric_scooter", "is_reserved": 0, "lon": -76.994811}, {"fusion_lat": 0.0, "name": "0294f2e2b7abcec4c73a1e0196aafee4", "is_disabled": 0, "rental_uris": {"android": "https://dc.lft.to/lastmile_qr_scan", "ios": "https://dc.lft.to/lastmile_qr_scan"}, "fusion_lon": 0.0, "lat": 38.923948, "bike_id": "0294f2e2b7abcec4c73a1e0196aafee4", "type": "electric_scooter", "is_reserved": 0, "lon": -77.03536366666667}, {"fusion_lat": 0.0, "name": "741eae27743b2bfa0819223389bbedd6", "is_disabled": 0, "rental_uris": {"android": "https://dc.lft.to/lastmile_qr_scan", "ios": "https://dc.lft.to/lastmile_qr_scan"}, "fusion_lon": 0.0, "lat": 38.88719716666667, "bike_id": "741eae27743b2bfa0819223389bbedd6", "type": "electric_scooter", "is_reserved": 0, "lon": -77.02580016666667}, {"fusion_lat": 0.0, "name": "25b4f4157a77360876639edff987afc3", "is_disabled": 0, "rental_uris": {"android": "https://dc.lft.to/lastmile_qr_scan", "ios": "https://dc.lft.to/lastmile_qr_scan"}, "fusion_lon": 0.0, "lat": 38.987870666666666, "bike_id": "25b4f4157a77360876639edff987afc3", "type": "electric_bike", "is_reserved": 0, "lon": -77.140951}, {"fusion_lat": 0.0, "name": "f7d1e7a68f899f3f17e68e7bc0bc4264", "is_disabled": 0, "rental_uris": {"android": "https://dc.lft.to/lastmile_qr_scan", "ios": "https://dc.lft.to/lastmile_qr_scan"}, "fusion_lon": 0.0, "lat": 38.94152666666667, "bike_id": "f7d1e7a68f899f3f17e68e7bc0bc4264", "type": "electric_bike", "is_reserved": 0, "lon": -77.00197216666666}, {"fusion_lat": 0.0, "name": "58b04efc7115863bdf06a4a62b4684cd", "is_disabled": 0, "rental_uris": {"android": "https://dc.lft.to/lastmile_qr_scan", "ios": "https://dc.lft.to/lastmile_qr_scan"}, "fusion_lon": 0.0, "lat": 38.883699666666665, "bike_id": "58b04efc7115863bdf06a4a62b4684cd", "type": "electric_scooter", "is_reserved": 0, "lon": -77.01993466666667}, {"fusion_lat": 0.0, "name": "fca1c61e3a5649887f59be0d84e223fb", "is_disabled": 0, "rental_uris": {"android": "https://dc.lft.to/lastmile_qr_scan", "ios": "https://dc.lft.to/lastmile_qr_scan"}, "fusion_lon": 0.0, "lat": 38.900331666666666, "bike_id": "fca1c61e3a5649887f59be0d84e223fb", "type": "electric_scooter", "is_reserved": 0, "lon": -77.02392566666667}, {"fusion_lat": 0.0, "name": "25c948250a7391f6a7dfee8c797d8249", "is_disabled": 0, "rental_uris": {"android": "https://dc.lft.to/lastmile_qr_scan", "ios": "https://dc.lft.to/lastmile_qr_scan"}, "fusion_lon": 0.0, "lat": 38.9184885, "bike_id": "25c948250a7391f6a7dfee8c797d8249", "type": "electric_scooter", "is_reserved": 0, "lon": -77.04026933333333}, {"fusion_lat": 0.0, "name": "ffae6f264f64cc4ee3537966dab5ad13", "is_disabled": 0, "rental_uris": {"android": "https://dc.lft.to/lastmile_qr_scan", "ios": "https://dc.lft.to/lastmile_qr_scan"}, "fusion_lon": 0.0, "lat": 38.926875, "bike_id": "ffae6f264f64cc4ee3537966dab5ad13", "type": "electric_scooter", "is_reserved": 0, "lon": -77.02963816666667}, {"fusion_lat": 0.0, "name": "eb6f298ea5ce47e26a84c9d2b8203533", "is_disabled": 0, "rental_uris": {"android": "https://dc.lft.to/lastmile_qr_scan", "ios": "https://dc.lft.to/lastmile_qr_scan"}, "fusion_lon": 0.0, "lat": 38.928718833333335, "bike_id": "eb6f298ea5ce47e26a84c9d2b8203533", "type": "electric_scooter", "is_reserved": 0, "lon": -77.027288}, {"fusion_lat": 0.0, "name": "5f705f64e172cd4646d6c539d10e8a2f", "is_disabled": 0, "rental_uris": {"android": "https://dc.lft.to/lastmile_qr_scan", "ios": "https://dc.lft.to/lastmile_qr_scan"}, "fusion_lon": 0.0, "lat": 38.90721666666666, "bike_id": "5f705f64e172cd4646d6c539d10e8a2f", "type": "electric_scooter", "is_reserved": 0, "lon": -76.99822816666666}, {"fusion_lat": 0.0, "name": "a5029a988b2872a83e781458ad1d028c", "is_disabled": 0, "rental_uris": {"android": "https://dc.lft.to/lastmile_qr_scan", "ios": "https://dc.lft.to/lastmile_qr_scan"}, "fusion_lon": 0.0, "lat": 38.921831833333336, "bike_id": "a5029a988b2872a83e781458ad1d028c", "type": "electric_scooter", "is_reserved": 0, "lon": -77.074407}, {"fusion_lat": 0.0, "name": "5d99f594654d9d0c7435ec5e7ba1f476", "is_disabled": 0, "rental_uris": {"android": "https://dc.lft.to/lastmile_qr_scan", "ios": "https://dc.lft.to/lastmile_qr_scan"}, "fusion_lon": 0.0, "lat": 38.910307, "bike_id": "5d99f594654d9d0c7435ec5e7ba1f476", "type": "electric_scooter", "is_reserved": 0, "lon": -77.00760733333334}, {"fusion_lat": 0.0, "name": "196470f5c99c082273d970e7ea037bca", "is_disabled": 0, "rental_uris": {"android": "https://dc.lft.to/lastmile_qr_scan", "ios": "https://dc.lft.to/lastmile_qr_scan"}, "fusion_lon": 0.0, "lat": 38.94125183333333, "bike_id": "196470f5c99c082273d970e7ea037bca", "type": "electric_bike", "is_reserved": 0, "lon": -76.99030883333333}, {"fusion_lat": 0.0, "name": "0f037ffaf6366b35dc623dc9ae80eb51", "is_disabled": 0, "rental_uris": {"android": "https://dc.lft.to/lastmile_qr_scan", "ios": "https://dc.lft.to/lastmile_qr_scan"}, "fusion_lon": 0.0, "lat": 38.912818333333334, "bike_id": "0f037ffaf6366b35dc623dc9ae80eb51", "type": "electric_scooter", "is_reserved": 0, "lon": -77.02246033333333}, {"fusion_lat": 0.0, "name": "43db36afb3ca352a5bc7e121be2ca6c1", "is_disabled": 0, "rental_uris": {"android": "https://dc.lft.to/lastmile_qr_scan", "ios": "https://dc.lft.to/lastmile_qr_scan"}, "fusion_lon": 0.0, "lat": 38.911951333333334, "bike_id": "43db36afb3ca352a5bc7e121be2ca6c1", "type": "electric_scooter", "is_reserved": 0, "lon": -77.03828316666667}, {"fusion_lat": 0.0, "name": "c3671e3adc575869b2914221ee97cb8e", "is_disabled": 0, "rental_uris": {"android": "https://dc.lft.to/lastmile_qr_scan", "ios": "https://dc.lft.to/lastmile_qr_scan"}, "fusion_lon": 0.0, "lat": 38.9491845, "bike_id": "c3671e3adc575869b2914221ee97cb8e", "type": "electric_bike", "is_reserved": 0, "lon": -77.00793366666667}, {"fusion_lat": 0.0, "name": "e3a613747d75452cdcb0f1e9a28a0002", "is_disabled": 0, "rental_uris": {"android": "https://dc.lft.to/lastmile_qr_scan", "ios": "https://dc.lft.to/lastmile_qr_scan"}, "fusion_lon": 0.0, "lat": 38.9165135, "bike_id": "e3a613747d75452cdcb0f1e9a28a0002", "type": "electric_bike", "is_reserved": 0, "lon": -76.98223466666667}, {"fusion_lat": 0.0, "name": "5f0c8dff06558da0f3ed1c381387dd28", "is_disabled": 0, "rental_uris": {"android": "https://dc.lft.to/lastmile_qr_scan", "ios": "https://dc.lft.to/lastmile_qr_scan"}, "fusion_lon": 0.0, "lat": 38.9247955, "bike_id": "5f0c8dff06558da0f3ed1c381387dd28", "type": "electric_scooter", "is_reserved": 0, "lon": -77.02586583333333}, {"fusion_lat": 0.0, "name": "93c73e59465e637c8d2278414e539527", "is_disabled": 0, "rental_uris": {"android": "https://dc.lft.to/lastmile_qr_scan", "ios": "https://dc.lft.to/lastmile_qr_scan"}, "fusion_lon": 0.0, "lat": 38.92894483333333, "bike_id": "93c73e59465e637c8d2278414e539527", "type": "electric_scooter", "is_reserved": 0, "lon": -77.0325945}, {"fusion_lat": 0.0, "name": "b87af83144d670954ea27b695010a5b1", "is_disabled": 0, "rental_uris": {"android": "https://dc.lft.to/lastmile_qr_scan", "ios": "https://dc.lft.to/lastmile_qr_scan"}, "fusion_lon": 0.0, "lat": 38.90522433333334, "bike_id": "b87af83144d670954ea27b695010a5b1", "type": "electric_scooter", "is_reserved": 0, "lon": -77.05138183333334}, {"fusion_lat": 0.0, "name": "6c08d83398b93cb5e608d7dce2c4f0b3", "is_disabled": 0, "rental_uris": {"android": "https://dc.lft.to/lastmile_qr_scan", "ios": "https://dc.lft.to/lastmile_qr_scan"}, "fusion_lon": 0.0, "lat": 38.93533033333333, "bike_id": "6c08d83398b93cb5e608d7dce2c4f0b3", "type": "electric_scooter", "is_reserved": 0, "lon": -77.03651283333333}, {"fusion_lat": 0.0, "name": "1b8f49fd57b4b6e1b1fdd17f1093bfa7", "is_disabled": 0, "rental_uris": {"android": "https://dc.lft.to/lastmile_qr_scan", "ios": "https://dc.lft.to/lastmile_qr_scan"}, "fusion_lon": 0.0, "lat": 38.8756855, "bike_id": "1b8f49fd57b4b6e1b1fdd17f1093bfa7", "type": "electric_scooter", "is_reserved": 0, "lon": -77.0074345}, {"fusion_lat": 0.0, "name": "dd8da4f71f7a60a9a2e55a374d625be8", "is_disabled": 0, "rental_uris": {"android": "https://dc.lft.to/lastmile_qr_scan", "ios": "https://dc.lft.to/lastmile_qr_scan"}, "fusion_lon": 0.0, "lat": 38.876666166666666, "bike_id": "dd8da4f71f7a60a9a2e55a374d625be8", "type": "electric_scooter", "is_reserved": 0, "lon": -77.00061083333334}, {"fusion_lat": 0.0, "name": "d7ab404e01ff7b1324fcabec4897f2df", "is_disabled": 0, "rental_uris": {"android": "https://dc.lft.to/lastmile_qr_scan", "ios": "https://dc.lft.to/lastmile_qr_scan"}, "fusion_lon": 0.0, "lat": 38.952798333333334, "bike_id": "d7ab404e01ff7b1324fcabec4897f2df", "type": "electric_scooter", "is_reserved": 0, "lon": -77.068863}, {"fusion_lat": 0.0, "name": "621b8cc9df603fb5b0e315c39b63477a", "is_disabled": 0, "rental_uris": {"android": "https://dc.lft.to/lastmile_qr_scan", "ios": "https://dc.lft.to/lastmile_qr_scan"}, "fusion_lon": 0.0, "lat": 38.88504566666667, "bike_id": "621b8cc9df603fb5b0e315c39b63477a", "type": "electric_scooter", "is_reserved": 0, "lon": -77.01464266666666}, {"fusion_lat": 0.0, "name": "88fd5f87ae9ebb7aee07523f5d03261c", "is_disabled": 0, "rental_uris": {"android": "https://dc.lft.to/lastmile_qr_scan", "ios": "https://dc.lft.to/lastmile_qr_scan"}, "fusion_lon": 0.0, "lat": 38.9534875, "bike_id": "88fd5f87ae9ebb7aee07523f5d03261c", "type": "electric_scooter", "is_reserved": 0, "lon": -77.07948566666667}, {"fusion_lat": 0.0, "name": "fda3f5080d334a26ac05a271b5170e6b", "is_disabled": 0, "rental_uris": {"android": "https://dc.lft.to/lastmile_qr_scan", "ios": "https://dc.lft.to/lastmile_qr_scan"}, "fusion_lon": 0.0, "lat": 38.94390933333333, "bike_id": "fda3f5080d334a26ac05a271b5170e6b", "type": "electric_scooter", "is_reserved": 0, "lon": -77.03207933333333}, {"fusion_lat": 0.0, "name": "199fb10e0b48f76ea21fb1fb0f28430e", "is_disabled": 0, "rental_uris": {"android": "https://dc.lft.to/lastmile_qr_scan", "ios": "https://dc.lft.to/lastmile_qr_scan"}, "fusion_lon": 0.0, "lat": 38.9508935, "bike_id": "199fb10e0b48f76ea21fb1fb0f28430e", "type": "electric_scooter", "is_reserved": 0, "lon": -77.02714066666667}, {"fusion_lat": 0.0, "name": "d322d0cfaa1a1352d5912ab6ddd97a09", "is_disabled": 0, "rental_uris": {"android": "https://dc.lft.to/lastmile_qr_scan", "ios": "https://dc.lft.to/lastmile_qr_scan"}, "fusion_lon": 0.0, "lat": 38.875955166666664, "bike_id": "d322d0cfaa1a1352d5912ab6ddd97a09", "type": "electric_scooter", "is_reserved": 0, "lon": -77.000984}, {"fusion_lat": 0.0, "name": "e49d31be49b67acfb8d2858dae6b005c", "is_disabled": 0, "rental_uris": {"android": "https://dc.lft.to/lastmile_qr_scan", "ios": "https://dc.lft.to/lastmile_qr_scan"}, "fusion_lon": 0.0, "lat": 38.94977983333333, "bike_id": "e49d31be49b67acfb8d2858dae6b005c", "type": "electric_scooter", "is_reserved": 0, "lon": -77.0269795}, {"fusion_lat": 0.0, "name": "2bea6d99ae1d6bdbc7c8bcb37f7dcd3d", "is_disabled": 0, "rental_uris": {"android": "https://dc.lft.to/lastmile_qr_scan", "ios": "https://dc.lft.to/lastmile_qr_scan"}, "fusion_lon": 0.0, "lat": 38.916863666666664, "bike_id": "2bea6d99ae1d6bdbc7c8bcb37f7dcd3d", "type": "electric_scooter", "is_reserved": 0, "lon": -77.02804633333334}, {"fusion_lat": 0.0, "name": "31294103dfb7bee099a73856c169d6be", "is_disabled": 0, "rental_uris": {"android": "https://dc.lft.to/lastmile_qr_scan", "ios": "https://dc.lft.to/lastmile_qr_scan"}, "fusion_lon": 0.0, "lat": 38.904560000000004, "bike_id": "31294103dfb7bee099a73856c169d6be", "type": "electric_scooter", "is_reserved": 0, "lon": -77.0200285}, {"fusion_lat": 0.0, "name": "16144218591e87c7b6cbe39996bf0be3", "is_disabled": 0, "rental_uris": {"android": "https://dc.lft.to/lastmile_qr_scan", "ios": "https://dc.lft.to/lastmile_qr_scan"}, "fusion_lon": 0.0, "lat": 38.88838633333334, "bike_id": "16144218591e87c7b6cbe39996bf0be3", "type": "electric_scooter", "is_reserved": 0, "lon": -77.04907533333333}, {"fusion_lat": 0.0, "name": "b2a0118961f50949a82ec16761c1c773", "is_disabled": 0, "rental_uris": {"android": "https://dc.lft.to/lastmile_qr_scan", "ios": "https://dc.lft.to/lastmile_qr_scan"}, "fusion_lon": 0.0, "lat": 38.85748683333333, "bike_id": "b2a0118961f50949a82ec16761c1c773", "type": "electric_bike", "is_reserved": 0, "lon": -77.05337583333333}, {"fusion_lat": 0.0, "name": "2097b54366e6f36bab95d78638984cd1", "is_disabled": 0, "rental_uris": {"android": "https://dc.lft.to/lastmile_qr_scan", "ios": "https://dc.lft.to/lastmile_qr_scan"}, "fusion_lon": 0.0, "lat": 38.931595, "bike_id": "2097b54366e6f36bab95d78638984cd1", "type": "electric_scooter", "is_reserved": 0, "lon": -77.029104}, {"fusion_lat": 0.0, "name": "7b3e7debe756335be3a4069e3d72bff8", "is_disabled": 0, "rental_uris": {"android": "https://dc.lft.to/lastmile_qr_scan", "ios": "https://dc.lft.to/lastmile_qr_scan"}, "fusion_lon": 0.0, "lat": 38.907972, "bike_id": "7b3e7debe756335be3a4069e3d72bff8", "type": "electric_scooter", "is_reserved": 0, "lon": -77.04295766666667}, {"fusion_lat": 0.0, "name": "c093c70930c6873f15d1983ce4991397", "is_disabled": 0, "rental_uris": {"android": "https://dc.lft.to/lastmile_qr_scan", "ios": "https://dc.lft.to/lastmile_qr_scan"}, "fusion_lon": 0.0, "lat": 38.842871333333335, "bike_id": "c093c70930c6873f15d1983ce4991397", "type": "electric_bike", "is_reserved": 0, "lon": -77.04492133333333}, {"fusion_lat": 0.0, "name": "4acaa99135ffdf2a3b3ec77553ad876e", "is_disabled": 0, "rental_uris": {"android": "https://dc.lft.to/lastmile_qr_scan", "ios": "https://dc.lft.to/lastmile_qr_scan"}, "fusion_lon": 0.0, "lat": 38.928179, "bike_id": "4acaa99135ffdf2a3b3ec77553ad876e", "type": "electric_scooter", "is_reserved": 0, "lon": -77.02326416666666}, {"fusion_lat": 0.0, "name": "9683ba858e8f02e8a2e27b9890d02c08", "is_disabled": 0, "rental_uris": {"android": "https://dc.lft.to/lastmile_qr_scan", "ios": "https://dc.lft.to/lastmile_qr_scan"}, "fusion_lon": 0.0, "lat": 38.907357, "bike_id": "9683ba858e8f02e8a2e27b9890d02c08", "type": "electric_scooter", "is_reserved": 0, "lon": -77.03454416666666}, {"fusion_lat": 0.0, "name": "a3085d028fea5f4fe6c49c0a66fb4647", "is_disabled": 0, "rental_uris": {"android": "https://dc.lft.to/lastmile_qr_scan", "ios": "https://dc.lft.to/lastmile_qr_scan"}, "fusion_lon": 0.0, "lat": 38.92222833333334, "bike_id": "a3085d028fea5f4fe6c49c0a66fb4647", "type": "electric_scooter", "is_reserved": 0, "lon": -76.99627133333334}, {"fusion_lat": 0.0, "name": "2d6141f3144d8ec730003f392ce56b42", "is_disabled": 0, "rental_uris": {"android": "https://dc.lft.to/lastmile_qr_scan", "ios": "https://dc.lft.to/lastmile_qr_scan"}, "fusion_lon": 0.0, "lat": 38.90336516666667, "bike_id": "2d6141f3144d8ec730003f392ce56b42", "type": "electric_bike", "is_reserved": 0, "lon": -76.97527466666666}, {"fusion_lat": 0.0, "name": "1c768b58f626fcf03c90f08599a72060", "is_disabled": 0, "rental_uris": {"android": "https://dc.lft.to/lastmile_qr_scan", "ios": "https://dc.lft.to/lastmile_qr_scan"}, "fusion_lon": 0.0, "lat": 38.927565, "bike_id": "1c768b58f626fcf03c90f08599a72060", "type": "electric_scooter", "is_reserved": 0, "lon": -77.02452683333334}, {"fusion_lat": 0.0, "name": "82e9ff4f844086baad51c74faa8ddb20", "is_disabled": 0, "rental_uris": {"android": "https://dc.lft.to/lastmile_qr_scan", "ios": "https://dc.lft.to/lastmile_qr_scan"}, "fusion_lon": 0.0, "lat": 38.86288483333333, "bike_id": "82e9ff4f844086baad51c74faa8ddb20", "type": "electric_bike", "is_reserved": 0, "lon": -77.063854}, {"fusion_lat": 0.0, "name": "0a4fa4015aa380640468eb817672f82d", "is_disabled": 0, "rental_uris": {"android": "https://dc.lft.to/lastmile_qr_scan", "ios": "https://dc.lft.to/lastmile_qr_scan"}, "fusion_lon": 0.0, "lat": 38.9043225, "bike_id": "0a4fa4015aa380640468eb817672f82d", "type": "electric_scooter", "is_reserved": 0, "lon": -77.048522}, {"fusion_lat": 0.0, "name": "8e32a5723480e2db7b06308075736318", "is_disabled": 0, "rental_uris": {"android": "https://dc.lft.to/lastmile_qr_scan", "ios": "https://dc.lft.to/lastmile_qr_scan"}, "fusion_lon": 0.0, "lat": 38.93244633333333, "bike_id": "8e32a5723480e2db7b06308075736318", "type": "electric_scooter", "is_reserved": 0, "lon": -77.03408633333333}, {"fusion_lat": 0.0, "name": "b825d9afcb6ec585c9787b5c0d345b37", "is_disabled": 0, "rental_uris": {"android": "https://dc.lft.to/lastmile_qr_scan", "ios": "https://dc.lft.to/lastmile_qr_scan"}, "fusion_lon": 0.0, "lat": 38.89733916666667, "bike_id": "b825d9afcb6ec585c9787b5c0d345b37", "type": "electric_scooter", "is_reserved": 0, "lon": -76.94701766666667}, {"fusion_lat": 0.0, "name": "ab8cf41c4460b8ee7d40d50614edb939", "is_disabled": 0, "rental_uris": {"android": "https://dc.lft.to/lastmile_qr_scan", "ios": "https://dc.lft.to/lastmile_qr_scan"}, "fusion_lon": 0.0, "lat": 38.9607175, "bike_id": "ab8cf41c4460b8ee7d40d50614edb939", "type": "electric_scooter", "is_reserved": 0, "lon": -77.00102866666667}, {"fusion_lat": 0.0, "name": "3004b16ea9596c28d50d0aed49b51648", "is_disabled": 0, "rental_uris": {"android": "https://dc.lft.to/lastmile_qr_scan", "ios": "https://dc.lft.to/lastmile_qr_scan"}, "fusion_lon": 0.0, "lat": 38.88485816666667, "bike_id": "3004b16ea9596c28d50d0aed49b51648", "type": "electric_scooter", "is_reserved": 0, "lon": -77.02369866666666}, {"fusion_lat": 0.0, "name": "ce26af1dba01e5d35c692db72569fe90", "is_disabled": 0, "rental_uris": {"android": "https://dc.lft.to/lastmile_qr_scan", "ios": "https://dc.lft.to/lastmile_qr_scan"}, "fusion_lon": 0.0, "lat": 38.914060666666664, "bike_id": "ce26af1dba01e5d35c692db72569fe90", "type": "electric_scooter", "is_reserved": 0, "lon": -77.01682383333333}, {"fusion_lat": 0.0, "name": "0ac456de508cf1b5b097983791e1f978", "is_disabled": 0, "rental_uris": {"android": "https://dc.lft.to/lastmile_qr_scan", "ios": "https://dc.lft.to/lastmile_qr_scan"}, "fusion_lon": 0.0, "lat": 38.92384116666667, "bike_id": "0ac456de508cf1b5b097983791e1f978", "type": "electric_scooter", "is_reserved": 0, "lon": -77.03182883333334}, {"fusion_lat": 0.0, "name": "b0a66362ac5dcf407d7ad7448068459d", "is_disabled": 0, "rental_uris": {"android": "https://dc.lft.to/lastmile_qr_scan", "ios": "https://dc.lft.to/lastmile_qr_scan"}, "fusion_lon": 0.0, "lat": 38.87448716666667, "bike_id": "b0a66362ac5dcf407d7ad7448068459d", "type": "electric_scooter", "is_reserved": 0, "lon": -77.00310483333334}, {"fusion_lat": 0.0, "name": "b9d4384e9bd27b42f219929e26253531", "is_disabled": 0, "rental_uris": {"android": "https://dc.lft.to/lastmile_qr_scan", "ios": "https://dc.lft.to/lastmile_qr_scan"}, "fusion_lon": 0.0, "lat": 38.902637, "bike_id": "b9d4384e9bd27b42f219929e26253531", "type": "electric_scooter", "is_reserved": 0, "lon": -76.97451933333333}, {"fusion_lat": 0.0, "name": "9f4d238ac27d58e4f7644cdf24c598a2", "is_disabled": 0, "rental_uris": {"android": "https://dc.lft.to/lastmile_qr_scan", "ios": "https://dc.lft.to/lastmile_qr_scan"}, "fusion_lon": 0.0, "lat": 38.932686, "bike_id": "9f4d238ac27d58e4f7644cdf24c598a2", "type": "electric_scooter", "is_reserved": 0, "lon": -77.01917483333334}, {"fusion_lat": 0.0, "name": "e36f50c2540d26d07291d446ee4ef3f3", "is_disabled": 0, "rental_uris": {"android": "https://dc.lft.to/lastmile_qr_scan", "ios": "https://dc.lft.to/lastmile_qr_scan"}, "fusion_lon": 0.0, "lat": 38.906089, "bike_id": "e36f50c2540d26d07291d446ee4ef3f3", "type": "electric_scooter", "is_reserved": 0, "lon": -77.025983}, {"fusion_lat": 0.0, "name": "584a10c3a4875df0c895ffe07dc8c884", "is_disabled": 0, "rental_uris": {"android": "https://dc.lft.to/lastmile_qr_scan", "ios": "https://dc.lft.to/lastmile_qr_scan"}, "fusion_lon": 0.0, "lat": 38.9015825, "bike_id": "584a10c3a4875df0c895ffe07dc8c884", "type": "electric_scooter", "is_reserved": 0, "lon": -77.0228665}, {"fusion_lat": 0.0, "name": "06bdf0226ab52a315e32e14a54d4eb6b", "is_disabled": 0, "rental_uris": {"android": "https://dc.lft.to/lastmile_qr_scan", "ios": "https://dc.lft.to/lastmile_qr_scan"}, "fusion_lon": 0.0, "lat": 38.90765866666667, "bike_id": "06bdf0226ab52a315e32e14a54d4eb6b", "type": "electric_scooter", "is_reserved": 0, "lon": -77.04238883333333}, {"fusion_lat": 0.0, "name": "6b52493bfc44b420637e9b4cf3af9954", "is_disabled": 0, "rental_uris": {"android": "https://dc.lft.to/lastmile_qr_scan", "ios": "https://dc.lft.to/lastmile_qr_scan"}, "fusion_lon": 0.0, "lat": 38.94100183333333, "bike_id": "6b52493bfc44b420637e9b4cf3af9954", "type": "electric_scooter", "is_reserved": 0, "lon": -77.0328025}, {"fusion_lat": 0.0, "name": "cd70248b4cd3d898b2554d051913ae9b", "is_disabled": 0, "rental_uris": {"android": "https://dc.lft.to/lastmile_qr_scan", "ios": "https://dc.lft.to/lastmile_qr_scan"}, "fusion_lon": 0.0, "lat": 38.957604, "bike_id": "cd70248b4cd3d898b2554d051913ae9b", "type": "electric_bike", "is_reserved": 0, "lon": -77.02053983333333}, {"fusion_lat": 0.0, "name": "0a75f405f86ad9f5d6a90e2af5f90748", "is_disabled": 0, "rental_uris": {"android": "https://dc.lft.to/lastmile_qr_scan", "ios": "https://dc.lft.to/lastmile_qr_scan"}, "fusion_lon": 0.0, "lat": 38.93086733333333, "bike_id": "0a75f405f86ad9f5d6a90e2af5f90748", "type": "electric_scooter", "is_reserved": 0, "lon": -77.0200805}, {"fusion_lat": 0.0, "name": "35818aede7b17cabb0866f58245bfbe9", "is_disabled": 0, "rental_uris": {"android": "https://dc.lft.to/lastmile_qr_scan", "ios": "https://dc.lft.to/lastmile_qr_scan"}, "fusion_lon": 0.0, "lat": 38.930782, "bike_id": "35818aede7b17cabb0866f58245bfbe9", "type": "electric_scooter", "is_reserved": 0, "lon": -77.077612}, {"fusion_lat": 0.0, "name": "848bde20490eb6f3fc7faf6898019efd", "is_disabled": 0, "rental_uris": {"android": "https://dc.lft.to/lastmile_qr_scan", "ios": "https://dc.lft.to/lastmile_qr_scan"}, "fusion_lon": 0.0, "lat": 38.8601885, "bike_id": "848bde20490eb6f3fc7faf6898019efd", "type": "electric_bike", "is_reserved": 0, "lon": -77.128061}, {"fusion_lat": 0.0, "name": "79b90a08ab4beb2465cb8d314fdf83fd", "is_disabled": 0, "rental_uris": {"android": "https://dc.lft.to/lastmile_qr_scan", "ios": "https://dc.lft.to/lastmile_qr_scan"}, "fusion_lon": 0.0, "lat": 38.91331233333333, "bike_id": "79b90a08ab4beb2465cb8d314fdf83fd", "type": "electric_scooter", "is_reserved": 0, "lon": -77.03178266666667}, {"fusion_lat": 0.0, "name": "b8156dbedec9d1714e3fced96527d5fa", "is_disabled": 0, "rental_uris": {"android": "https://dc.lft.to/lastmile_qr_scan", "ios": "https://dc.lft.to/lastmile_qr_scan"}, "fusion_lon": 0.0, "lat": 38.92087516666667, "bike_id": "b8156dbedec9d1714e3fced96527d5fa", "type": "electric_scooter", "is_reserved": 0, "lon": -77.01754166666667}, {"fusion_lat": 0.0, "name": "9896e6c4ce3f57f65686e21ffc8af55a", "is_disabled": 0, "rental_uris": {"android": "https://dc.lft.to/lastmile_qr_scan", "ios": "https://dc.lft.to/lastmile_qr_scan"}, "fusion_lon": 0.0, "lat": 38.90548883333334, "bike_id": "9896e6c4ce3f57f65686e21ffc8af55a", "type": "electric_scooter", "is_reserved": 0, "lon": -77.00709383333333}, {"fusion_lat": 0.0, "name": "222d6f3eb2ba3914748d3fc08676dd85", "is_disabled": 0, "rental_uris": {"android": "https://dc.lft.to/lastmile_qr_scan", "ios": "https://dc.lft.to/lastmile_qr_scan"}, "fusion_lon": 0.0, "lat": 38.936336, "bike_id": "222d6f3eb2ba3914748d3fc08676dd85", "type": "electric_scooter", "is_reserved": 0, "lon": -77.073058}, {"fusion_lat": 0.0, "name": "2c2dcd1f3e2a6747d579f132c25ee813", "is_disabled": 0, "rental_uris": {"android": "https://dc.lft.to/lastmile_qr_scan", "ios": "https://dc.lft.to/lastmile_qr_scan"}, "fusion_lon": 0.0, "lat": 38.93866, "bike_id": "2c2dcd1f3e2a6747d579f132c25ee813", "type": "electric_scooter", "is_reserved": 0, "lon": -77.02701033333334}, {"fusion_lat": 0.0, "name": "15829e8faa0b7397c41fa9ea675123b6", "is_disabled": 0, "rental_uris": {"android": "https://dc.lft.to/lastmile_qr_scan", "ios": "https://dc.lft.to/lastmile_qr_scan"}, "fusion_lon": 0.0, "lat": 38.883464000000004, "bike_id": "15829e8faa0b7397c41fa9ea675123b6", "type": "electric_scooter", "is_reserved": 0, "lon": -77.03167383333333}, {"fusion_lat": 0.0, "name": "2db7141b543d714c8e3a8dc5b22bafe7", "is_disabled": 0, "rental_uris": {"android": "https://dc.lft.to/lastmile_qr_scan", "ios": "https://dc.lft.to/lastmile_qr_scan"}, "fusion_lon": 0.0, "lat": 38.912704166666664, "bike_id": "2db7141b543d714c8e3a8dc5b22bafe7", "type": "electric_scooter", "is_reserved": 0, "lon": -77.01930983333334}, {"fusion_lat": 0.0, "name": "a5c6bbb4a871176ff09432e5f7084b4f", "is_disabled": 0, "rental_uris": {"android": "https://dc.lft.to/lastmile_qr_scan", "ios": "https://dc.lft.to/lastmile_qr_scan"}, "fusion_lon": 0.0, "lat": 38.93538366666667, "bike_id": "a5c6bbb4a871176ff09432e5f7084b4f", "type": "electric_scooter", "is_reserved": 0, "lon": -77.02349166666667}, {"fusion_lat": 0.0, "name": "9ef6a350b9aed3ffcb39145c183a52c7", "is_disabled": 0, "rental_uris": {"android": "https://dc.lft.to/lastmile_qr_scan", "ios": "https://dc.lft.to/lastmile_qr_scan"}, "fusion_lon": 0.0, "lat": 38.945189666666664, "bike_id": "9ef6a350b9aed3ffcb39145c183a52c7", "type": "electric_scooter", "is_reserved": 0, "lon": -77.038877}, {"fusion_lat": 0.0, "name": "ea029ac1fdb73e48e545bb3679933ee0", "is_disabled": 0, "rental_uris": {"android": "https://dc.lft.to/lastmile_qr_scan", "ios": "https://dc.lft.to/lastmile_qr_scan"}, "fusion_lon": 0.0, "lat": 38.913357166666664, "bike_id": "ea029ac1fdb73e48e545bb3679933ee0", "type": "electric_scooter", "is_reserved": 0, "lon": -77.04270883333334}, {"fusion_lat": 0.0, "name": "21d22d52ced7e7433f995aeb3c6004da", "is_disabled": 0, "rental_uris": {"android": "https://dc.lft.to/lastmile_qr_scan", "ios": "https://dc.lft.to/lastmile_qr_scan"}, "fusion_lon": 0.0, "lat": 38.90177083333333, "bike_id": "21d22d52ced7e7433f995aeb3c6004da", "type": "electric_scooter", "is_reserved": 0, "lon": -76.9925295}, {"fusion_lat": 0.0, "name": "4b6211c831ef3a82642aa12922c61e0d", "is_disabled": 0, "rental_uris": {"android": "https://dc.lft.to/lastmile_qr_scan", "ios": "https://dc.lft.to/lastmile_qr_scan"}, "fusion_lon": 0.0, "lat": 38.847587833333336, "bike_id": "4b6211c831ef3a82642aa12922c61e0d", "type": "electric_scooter", "is_reserved": 0, "lon": -76.995}, {"fusion_lat": 0.0, "name": "fb1564695a15c863791899b9c23605a3", "is_disabled": 0, "rental_uris": {"android": "https://dc.lft.to/lastmile_qr_scan", "ios": "https://dc.lft.to/lastmile_qr_scan"}, "fusion_lon": 0.0, "lat": 38.916125666666666, "bike_id": "fb1564695a15c863791899b9c23605a3", "type": "electric_scooter", "is_reserved": 0, "lon": -77.0230135}, {"fusion_lat": 0.0, "name": "10d3eb8040b0008b55900b2b3ed90499", "is_disabled": 0, "rental_uris": {"android": "https://dc.lft.to/lastmile_qr_scan", "ios": "https://dc.lft.to/lastmile_qr_scan"}, "fusion_lon": 0.0, "lat": 38.887563166666666, "bike_id": "10d3eb8040b0008b55900b2b3ed90499", "type": "electric_scooter", "is_reserved": 0, "lon": -76.99786316666666}, {"fusion_lat": 0.0, "name": "d79967ff3d4838e035ceafea96e6232b", "is_disabled": 0, "rental_uris": {"android": "https://dc.lft.to/lastmile_qr_scan", "ios": "https://dc.lft.to/lastmile_qr_scan"}, "fusion_lon": 0.0, "lat": 38.90050033333333, "bike_id": "d79967ff3d4838e035ceafea96e6232b", "type": "electric_scooter", "is_reserved": 0, "lon": -77.04488716666667}, {"fusion_lat": 0.0, "name": "a41617cdee5d7a88df90f05db545d21f", "is_disabled": 0, "rental_uris": {"android": "https://dc.lft.to/lastmile_qr_scan", "ios": "https://dc.lft.to/lastmile_qr_scan"}, "fusion_lon": 0.0, "lat": 38.878932, "bike_id": "a41617cdee5d7a88df90f05db545d21f", "type": "electric_scooter", "is_reserved": 0, "lon": -77.00569383333334}, {"fusion_lat": 0.0, "name": "0975f420248c04fa998868e8515dd6ae", "is_disabled": 0, "rental_uris": {"android": "https://dc.lft.to/lastmile_qr_scan", "ios": "https://dc.lft.to/lastmile_qr_scan"}, "fusion_lon": 0.0, "lat": 38.90391533333333, "bike_id": "0975f420248c04fa998868e8515dd6ae", "type": "electric_scooter", "is_reserved": 0, "lon": -77.051365}, {"fusion_lat": 0.0, "name": "e3ef0c3f1ab91dbe532f78043bea9fab", "is_disabled": 0, "rental_uris": {"android": "https://dc.lft.to/lastmile_qr_scan", "ios": "https://dc.lft.to/lastmile_qr_scan"}, "fusion_lon": 0.0, "lat": 38.827493833333335, "bike_id": "e3ef0c3f1ab91dbe532f78043bea9fab", "type": "electric_bike", "is_reserved": 0, "lon": -77.00113933333333}, {"fusion_lat": 0.0, "name": "5327994cef3047406581069d23ced709", "is_disabled": 0, "rental_uris": {"android": "https://dc.lft.to/lastmile_qr_scan", "ios": "https://dc.lft.to/lastmile_qr_scan"}, "fusion_lon": 0.0, "lat": 38.90215383333334, "bike_id": "5327994cef3047406581069d23ced709", "type": "electric_scooter", "is_reserved": 0, "lon": -76.98611183333334}, {"fusion_lat": 0.0, "name": "3c82783e2424c43a300d7cf4d2e78a95", "is_disabled": 0, "rental_uris": {"android": "https://dc.lft.to/lastmile_qr_scan", "ios": "https://dc.lft.to/lastmile_qr_scan"}, "fusion_lon": 0.0, "lat": 38.929221166666665, "bike_id": "3c82783e2424c43a300d7cf4d2e78a95", "type": "electric_bike", "is_reserved": 0, "lon": -77.03747516666667}, {"fusion_lat": 0.0, "name": "c10bde53fad1928e4a4b7ad41171239d", "is_disabled": 0, "rental_uris": {"android": "https://dc.lft.to/lastmile_qr_scan", "ios": "https://dc.lft.to/lastmile_qr_scan"}, "fusion_lon": 0.0, "lat": 38.90507566666667, "bike_id": "c10bde53fad1928e4a4b7ad41171239d", "type": "electric_scooter", "is_reserved": 0, "lon": -77.02944533333333}, {"fusion_lat": 0.0, "name": "3f14a79874e5a7f26fdbe9ecb5b13738", "is_disabled": 0, "rental_uris": {"android": "https://dc.lft.to/lastmile_qr_scan", "ios": "https://dc.lft.to/lastmile_qr_scan"}, "fusion_lon": 0.0, "lat": 38.88510566666667, "bike_id": "3f14a79874e5a7f26fdbe9ecb5b13738", "type": "electric_scooter", "is_reserved": 0, "lon": -77.01112583333334}, {"fusion_lat": 0.0, "name": "c667c1965210039ce27605a2f231b79a", "is_disabled": 0, "rental_uris": {"android": "https://dc.lft.to/lastmile_qr_scan", "ios": "https://dc.lft.to/lastmile_qr_scan"}, "fusion_lon": 0.0, "lat": 38.92337083333334, "bike_id": "c667c1965210039ce27605a2f231b79a", "type": "electric_scooter", "is_reserved": 0, "lon": -77.0380445}, {"fusion_lat": 0.0, "name": "ccf35a8fac7f2968fbc4f8c033e440c3", "is_disabled": 0, "rental_uris": {"android": "https://dc.lft.to/lastmile_qr_scan", "ios": "https://dc.lft.to/lastmile_qr_scan"}, "fusion_lon": 0.0, "lat": 38.908342, "bike_id": "ccf35a8fac7f2968fbc4f8c033e440c3", "type": "electric_scooter", "is_reserved": 0, "lon": -77.00239866666666}, {"fusion_lat": 0.0, "name": "52b4036a8a53e90aa69c6454fb616431", "is_disabled": 0, "rental_uris": {"android": "https://dc.lft.to/lastmile_qr_scan", "ios": "https://dc.lft.to/lastmile_qr_scan"}, "fusion_lon": 0.0, "lat": 38.939651833333336, "bike_id": "52b4036a8a53e90aa69c6454fb616431", "type": "electric_scooter", "is_reserved": 0, "lon": -77.03280166666667}, {"fusion_lat": 0.0, "name": "3352bfd57f28ba4be4ad4e4ccb22bf4b", "is_disabled": 0, "rental_uris": {"android": "https://dc.lft.to/lastmile_qr_scan", "ios": "https://dc.lft.to/lastmile_qr_scan"}, "fusion_lon": 0.0, "lat": 38.91439316666667, "bike_id": "3352bfd57f28ba4be4ad4e4ccb22bf4b", "type": "electric_scooter", "is_reserved": 0, "lon": -76.993558}, {"fusion_lat": 0.0, "name": "051dc628b64df39aa63952882c9753fa", "is_disabled": 0, "rental_uris": {"android": "https://dc.lft.to/lastmile_qr_scan", "ios": "https://dc.lft.to/lastmile_qr_scan"}, "fusion_lon": 0.0, "lat": 38.92905966666667, "bike_id": "051dc628b64df39aa63952882c9753fa", "type": "electric_scooter", "is_reserved": 0, "lon": -77.02146666666667}, {"fusion_lat": 0.0, "name": "7dffd7db213eadb52d54c8be4cfa5ac3", "is_disabled": 0, "rental_uris": {"android": "https://dc.lft.to/lastmile_qr_scan", "ios": "https://dc.lft.to/lastmile_qr_scan"}, "fusion_lon": 0.0, "lat": 38.91126966666667, "bike_id": "7dffd7db213eadb52d54c8be4cfa5ac3", "type": "electric_scooter", "is_reserved": 0, "lon": -77.02198283333334}, {"fusion_lat": 0.0, "name": "d20aed19d7c9e73b6cf68762cf4995a5", "is_disabled": 0, "rental_uris": {"android": "https://dc.lft.to/lastmile_qr_scan", "ios": "https://dc.lft.to/lastmile_qr_scan"}, "fusion_lon": 0.0, "lat": 38.92129533333333, "bike_id": "d20aed19d7c9e73b6cf68762cf4995a5", "type": "electric_scooter", "is_reserved": 0, "lon": -77.0442745}, {"fusion_lat": 0.0, "name": "204773c5d04855313654db2e41f6f822", "is_disabled": 0, "rental_uris": {"android": "https://dc.lft.to/lastmile_qr_scan", "ios": "https://dc.lft.to/lastmile_qr_scan"}, "fusion_lon": 0.0, "lat": 38.90671916666667, "bike_id": "204773c5d04855313654db2e41f6f822", "type": "electric_scooter", "is_reserved": 0, "lon": -77.02704416666667}, {"fusion_lat": 0.0, "name": "484d4e0d1f39c68ddef9f7904b76ee21", "is_disabled": 0, "rental_uris": {"android": "https://dc.lft.to/lastmile_qr_scan", "ios": "https://dc.lft.to/lastmile_qr_scan"}, "fusion_lon": 0.0, "lat": 38.919191166666664, "bike_id": "484d4e0d1f39c68ddef9f7904b76ee21", "type": "electric_scooter", "is_reserved": 0, "lon": -77.03396283333333}, {"fusion_lat": 0.0, "name": "45240c876fa9ce22131008cc8ddc00ba", "is_disabled": 0, "rental_uris": {"android": "https://dc.lft.to/lastmile_qr_scan", "ios": "https://dc.lft.to/lastmile_qr_scan"}, "fusion_lon": 0.0, "lat": 38.95892666666667, "bike_id": "45240c876fa9ce22131008cc8ddc00ba", "type": "electric_scooter", "is_reserved": 0, "lon": -77.00284233333333}, {"fusion_lat": 0.0, "name": "0eac5d885eb6efecfd3495ef23671979", "is_disabled": 0, "rental_uris": {"android": "https://dc.lft.to/lastmile_qr_scan", "ios": "https://dc.lft.to/lastmile_qr_scan"}, "fusion_lon": 0.0, "lat": 38.897137666666666, "bike_id": "0eac5d885eb6efecfd3495ef23671979", "type": "electric_bike", "is_reserved": 0, "lon": -77.01172583333333}, {"fusion_lat": 0.0, "name": "979e7e6c7d8bde170d150943fdec60a1", "is_disabled": 0, "rental_uris": {"android": "https://dc.lft.to/lastmile_qr_scan", "ios": "https://dc.lft.to/lastmile_qr_scan"}, "fusion_lon": 0.0, "lat": 38.92738633333333, "bike_id": "979e7e6c7d8bde170d150943fdec60a1", "type": "electric_scooter", "is_reserved": 0, "lon": -77.0226015}, {"fusion_lat": 0.0, "name": "0b808f5a557e1a46050a909670a99703", "is_disabled": 0, "rental_uris": {"android": "https://dc.lft.to/lastmile_qr_scan", "ios": "https://dc.lft.to/lastmile_qr_scan"}, "fusion_lon": 0.0, "lat": 38.876608, "bike_id": "0b808f5a557e1a46050a909670a99703", "type": "electric_scooter", "is_reserved": 0, "lon": -77.00465383333334}, {"fusion_lat": 0.0, "name": "4066d22b83f59ec17d0e63e17d0ec7da", "is_disabled": 0, "rental_uris": {"android": "https://dc.lft.to/lastmile_qr_scan", "ios": "https://dc.lft.to/lastmile_qr_scan"}, "fusion_lon": 0.0, "lat": 38.918467, "bike_id": "4066d22b83f59ec17d0e63e17d0ec7da", "type": "electric_scooter", "is_reserved": 0, "lon": -77.02300266666667}, {"fusion_lat": 0.0, "name": "ca66e4a499b73ae65cd7a8b9566c6742", "is_disabled": 0, "rental_uris": {"android": "https://dc.lft.to/lastmile_qr_scan", "ios": "https://dc.lft.to/lastmile_qr_scan"}, "fusion_lon": 0.0, "lat": 38.904226, "bike_id": "ca66e4a499b73ae65cd7a8b9566c6742", "type": "electric_scooter", "is_reserved": 0, "lon": -77.02677433333334}, {"fusion_lat": 0.0, "name": "e85a7d1b9fea5c7d7fad4932d0015713", "is_disabled": 0, "rental_uris": {"android": "https://dc.lft.to/lastmile_qr_scan", "ios": "https://dc.lft.to/lastmile_qr_scan"}, "fusion_lon": 0.0, "lat": 38.907158, "bike_id": "e85a7d1b9fea5c7d7fad4932d0015713", "type": "electric_scooter", "is_reserved": 0, "lon": -77.03449566666667}, {"fusion_lat": 0.0, "name": "58732aef17dbc9f958e533e736495aef", "is_disabled": 0, "rental_uris": {"android": "https://dc.lft.to/lastmile_qr_scan", "ios": "https://dc.lft.to/lastmile_qr_scan"}, "fusion_lon": 0.0, "lat": 38.910103666666664, "bike_id": "58732aef17dbc9f958e533e736495aef", "type": "electric_scooter", "is_reserved": 0, "lon": -77.07352116666667}, {"fusion_lat": 0.0, "name": "d344da0d1a9d5a78145785dbe558cf6f", "is_disabled": 0, "rental_uris": {"android": "https://dc.lft.to/lastmile_qr_scan", "ios": "https://dc.lft.to/lastmile_qr_scan"}, "fusion_lon": 0.0, "lat": 38.9172035, "bike_id": "d344da0d1a9d5a78145785dbe558cf6f", "type": "electric_scooter", "is_reserved": 0, "lon": -76.96868083333334}, {"fusion_lat": 0.0, "name": "0456fb539616eeebc2dc68bceea662ee", "is_disabled": 0, "rental_uris": {"android": "https://dc.lft.to/lastmile_qr_scan", "ios": "https://dc.lft.to/lastmile_qr_scan"}, "fusion_lon": 0.0, "lat": 38.905004, "bike_id": "0456fb539616eeebc2dc68bceea662ee", "type": "electric_scooter", "is_reserved": 0, "lon": -77.029584}, {"fusion_lat": 0.0, "name": "2f10ccdfa2c15cb2fce84ee5ee6e4b5e", "is_disabled": 0, "rental_uris": {"android": "https://dc.lft.to/lastmile_qr_scan", "ios": "https://dc.lft.to/lastmile_qr_scan"}, "fusion_lon": 0.0, "lat": 38.925750666666666, "bike_id": "2f10ccdfa2c15cb2fce84ee5ee6e4b5e", "type": "electric_scooter", "is_reserved": 0, "lon": -77.04369583333333}, {"fusion_lat": 0.0, "name": "3de3a52ba409a6007060e6ac3dd227af", "is_disabled": 0, "rental_uris": {"android": "https://dc.lft.to/lastmile_qr_scan", "ios": "https://dc.lft.to/lastmile_qr_scan"}, "fusion_lon": 0.0, "lat": 38.8882725, "bike_id": "3de3a52ba409a6007060e6ac3dd227af", "type": "electric_scooter", "is_reserved": 0, "lon": -76.986634},