{"data": {"bikes": [{"rental_uris": {"ios": "https://dc.lft.to/lastmile_qr_scan", "android": "https://dc.lft.to/lastmile_qr_scan"}, "fusion_lon": 0.0, "type": "electric_scooter", "bike_id": "2f07d6a68c2308179054beb69146d10d", "name": "2f07d6a68c2308179054beb69146d10d", "lat": 38.921084, "is_disabled": 0, "lon": -77.04217966666667, "fusion_lat": 0.0, "is_reserved": 0}, {"rental_uris": {"ios": "https://dc.lft.to/lastmile_qr_scan", "android": "https://dc.lft.to/lastmile_qr_scan"}, "fusion_lon": 0.0, "type": "electric_scooter", "bike_id": "595e3956be8a7067628fdc3c295facd4", "name": "595e3956be8a7067628fdc3c295facd4", "lat": 38.93084233333333, "is_disabled": 0, "lon": -77.027914, "fusion_lat": 0.0, "is_reserved": 0}, {"rental_uris": {"ios": "https://dc.lft.to/lastmile_qr_scan", "android": "https://dc.lft.to/lastmile_qr_scan"}, "fusion_lon": 0.0, "type": "electric_scooter", "bike_id": "033ddfdd21dc0fe451d89c177460c9f0", "name": "033ddfdd21dc0fe451d89c177460c9f0", "lat": 38.88425866666667, "is_disabled": 0, "lon": -77.0247495, "fusion_lat": 0.0, "is_reserved": 0}, {"rental_uris": {"ios": "https://dc.lft.to/lastmile_qr_scan", "android": "https://dc.lft.to/lastmile_qr_scan"}, "fusion_lon": 0.0, "type": "electric_bike", "bike_id": "64573085dd134617b98d6b977b8895f1", "name": "64573085dd134617b98d6b977b8895f1", "lat": 38.852811833333334, "is_disabled": 0, "lon": -76.98151966666667, "fusion_lat": 0.0, "is_reserved": 0}, {"rental_uris": {"ios": "https://dc.lft.to/lastmile_qr_scan", "android": "https://dc.lft.to/lastmile_qr_scan"}, "fusion_lon": 0.0, "type": "electric_scooter", "bike_id": "a74330a43add30bb29be0f199e3dfddb", "name": "a74330a43add30bb29be0f199e3dfddb", "lat": 38.90264916666667, "is_disabled": 0, "lon": -77.05404083333333, "fusion_lat": 0.0, "is_reserved": 0}, {"rental_uris": {"ios": "https://dc.lft.to/lastmile_qr_scan", "android": "https://dc.lft.to/lastmile_qr_scan"}, "fusion_lon": 0.0, "type": "electric_scooter", "bike_id": "9650cf39ab34e082a32120b3e0041b17", "name": "9650cf39ab34e082a32120b3e0041b17", "lat": 38.895407166666665, "is_disabled": 0, "lon": -77.01534416666667, "fusion_lat": 0.0, "is_reserved": 0}, {"rental_uris": {"ios": "https://dc.lft.to/lastmile_qr_scan", "android": "https://dc.lft.to/lastmile_qr_scan"}, "fusion_lon": 0.0, "type": "electric_bike", "bike_id": "4091b12477d0073d74598334b4f19732", "name": "4091b12477d0073d74598334b4f19732", "lat": 38.85835216666667, "is_disabled": 0, "lon": -76.992833, "fusion_lat": 0.0, "is_reserved": 0}, {"rental_uris": {"ios": "https://dc.lft.to/lastmile_qr_scan", "android": "https://dc.lft.to/lastmile_qr_scan"}, "fusion_lon": 0.0, "type": "electric_scooter", "bike_id": "fc1bc7328c5d7904679e8a57db725b5c", "name": "fc1bc7328c5d7904679e8a57db725b5c", "lat": 38.90027933333333, "is_disabled": 0, "lon": -76.99639983333333, "fusion_lat": 0.0, "is_reserved": 0}, {"rental_uris": {"ios": "https://dc.lft.to/lastmile_qr_scan", "android": "https://dc.lft.to/lastmile_qr_scan"}, "fusion_lon": 0.0, "type": "electric_scooter", "bike_id": "201d522d1a26282ea537fb941203e51b", "name": "201d522d1a26282ea537fb941203e51b", "lat": 38.8831815, "is_disabled": 0, "lon": -76.94939916666667, "fusion_lat": 0.0, "is_reserved": 0}, {"rental_uris": {"ios": "https://dc.lft.to/lastmile_qr_scan", "android": "https://dc.lft.to/lastmile_qr_scan"}, "fusion_lon": 0.0, "type": "electric_scooter", "bike_id": "eb149ae418f20b2b761d36fab1ed8d1b", "name": "eb149ae418f20b2b761d36fab1ed8d1b", "lat": 38.905249833333336, "is_disabled": 0, "lon": -77.05390466666667, "fusion_lat": 0.0, "is_reserved": 0}, {"rental_uris": {"ios": "https://dc.lft.to/lastmile_qr_scan", "android": "https://dc.lft.to/lastmile_qr_scan"}, "fusion_lon": 0.0, "type": "electric_scooter", "bike_id": "6ef977977efee7680d528a28a9e6569b", "name": "6ef977977efee7680d528a28a9e6569b", "lat": 38.865034666666666, "is_disabled": 0, "lon": -76.99006883333334, "fusion_lat": 0.0, "is_reserved": 0}, {"rental_uris": {"ios": "https://dc.lft.to/lastmile_qr_scan", "android": "https://dc.lft.to/lastmile_qr_scan"}, "fusion_lon": 0.0, "type": "electric_scooter", "bike_id": "291202e6653d1b8e23d803002ace2888", "name": "291202e6653d1b8e23d803002ace2888", "lat": 38.89393316666666, "is_disabled": 0, "lon": -76.9499595, "fusion_lat": 0.0, "is_reserved": 0}, {"rental_uris": {"ios": "https://dc.lft.to/lastmile_qr_scan", "android": "https://dc.lft.to/lastmile_qr_scan"}, "fusion_lon": 0.0, "type": "electric_scooter", "bike_id": "ad5a3f8a40a7fa02748e88831a606aab", "name": "ad5a3f8a40a7fa02748e88831a606aab", "lat": 38.86535816666667, "is_disabled": 0, "lon": -76.987097, "fusion_lat": 0.0, "is_reserved": 0}, {"rental_uris": {"ios": "https://dc.lft.to/lastmile_qr_scan", "android": "https://dc.lft.to/lastmile_qr_scan"}, "fusion_lon": 0.0, "type": "electric_scooter", "bike_id": "337083e3fc9356bc81f3e2cebfd72c61", "name": "337083e3fc9356bc81f3e2cebfd72c61", "lat": 38.90240283333333, "is_disabled": 0, "lon": -77.024146, "fusion_lat": 0.0, "is_reserved": 0}, {"rental_uris": {"ios": "https://dc.lft.to/lastmile_qr_scan", "android": "https://dc.lft.to/lastmile_qr_scan"}, "fusion_lon": 0.0, "type": "electric_scooter", "bike_id": "b3b0fdc11fca0d24d5160af399278d3e", "name": "b3b0fdc11fca0d24d5160af399278d3e", "lat": 38.900339, "is_disabled": 0, "lon": -77.0019715, "fusion_lat": 0.0, "is_reserved": 0}, {"rental_uris": {"ios": "https://dc.lft.to/lastmile_qr_scan", "android": "https://dc.lft.to/lastmile_qr_scan"}, "fusion_lon": 0.0, "type": "electric_scooter", "bike_id": "e701ddf82fd9711b367aa112ef71a512", "name": "e701ddf82fd9711b367aa112ef71a512", "lat": 38.9334565, "is_disabled": 0, "lon": -77.05948666666667, "fusion_lat": 0.0, "is_reserved": 0}, {"rental_uris": {"ios": "https://dc.lft.to/lastmile_qr_scan", "android": "https://dc.lft.to/lastmile_qr_scan"}, "fusion_lon": 0.0, "type": "electric_scooter", "bike_id": "473ef42b7513e4a6f2e318657a2c9e50", "name": "473ef42b7513e4a6f2e318657a2c9e50", "lat": 38.91067133333333, "is_disabled": 0, "lon": -77.0417305, "fusion_lat": 0.0, "is_reserved": 0}, {"rental_uris": {"ios": "https://dc.lft.to/lastmile_qr_scan", "android": "https://dc.lft.to/lastmile_qr_scan"}, "fusion_lon": 0.0, "type": "electric_scooter", "bike_id": "657952d10b2e0c9596f0dec7d038a3cf", "name": "657952d10b2e0c9596f0dec7d038a3cf", "lat": 38.91174316666667, "is_disabled": 0, "lon": -77.039239, "fusion_lat": 0.0, "is_reserved": 0}, {"rental_uris": {"ios": "https://dc.lft.to/lastmile_qr_scan", "android": "https://dc.lft.to/lastmile_qr_scan"}, "fusion_lon": 0.0, "type": "electric_scooter", "bike_id": "a248c620b7036ad5da44d7fcd6d80956", "name": "a248c620b7036ad5da44d7fcd6d80956", "lat": 38.91177583333333, "is_disabled": 0, "lon": -77.0414185, "fusion_lat": 0.0, "is_reserved": 0}, {"rental_uris": {"ios": "https://dc.lft.to/lastmile_qr_scan", "android": "https://dc.lft.to/lastmile_qr_scan"}, "fusion_lon": 0.0, "type": "electric_bike", "bike_id": "293d5bf40cbab3bb00016ac6f75484e3", "name": "293d5bf40cbab3bb00016ac6f75484e3", "lat": 38.82864583333333, "is_disabled": 0, "lon": -77.11220666666667, "fusion_lat": 0.0, "is_reserved": 0}, {"rental_uris": {"ios": "https://dc.lft.to/lastmile_qr_scan", "android": "https://dc.lft.to/lastmile_qr_scan"}, "fusion_lon": 0.0, "type": "electric_scooter", "bike_id": "78ca5d4d1c18426481f5ed63f8015771", "name": "78ca5d4d1c18426481f5ed63f8015771", "lat": 38.90766383333333, "is_disabled": 0, "lon": -77.03860116666667, "fusion_lat": 0.0, "is_reserved": 0}, {"rental_uris": {"ios": "https://dc.lft.to/lastmile_qr_scan", "android": "https://dc.lft.to/lastmile_qr_scan"}, "fusion_lon": 0.0, "type": "electric_scooter", "bike_id": "dd902c9a99de8774c47d295f5fdc0335", "name": "dd902c9a99de8774c47d295f5fdc0335", "lat": 38.89706983333333, "is_disabled": 0, "lon": -77.0216145, "fusion_lat": 0.0, "is_reserved": 0}, {"rental_uris": {"ios": "https://dc.lft.to/lastmile_qr_scan", "android": "https://dc.lft.to/lastmile_qr_scan"}, "fusion_lon": 0.0, "type": "electric_scooter", "bike_id": "8454c986cd838cbf311a0dcd7d0c22a7", "name": "8454c986cd838cbf311a0dcd7d0c22a7", "lat": 38.9154955, "is_disabled": 0, "lon": -77.03850716666666, "fusion_lat": 0.0, "is_reserved": 0}, {"rental_uris": {"ios": "https://dc.lft.to/lastmile_qr_scan", "android": "https://dc.lft.to/lastmile_qr_scan"}, "fusion_lon": 0.0, "type": "electric_scooter", "bike_id": "146586f4f33bf21f3a9365f9770038ad", "name": "146586f4f33bf21f3a9365f9770038ad", "lat": 38.903046, "is_disabled": 0, "lon": -77.02209833333333, "fusion_lat": 0.0, "is_reserved": 0}, {"rental_uris": {"ios": "https://dc.lft.to/lastmile_qr_scan", "android": "https://dc.lft.to/lastmile_qr_scan"}, "fusion_lon": 0.0, "type": "electric_scooter", "bike_id": "da72b4ac1d80e2a462649eaeab365329", "name": "da72b4ac1d80e2a462649eaeab365329", "lat": 38.917111166666665, "is_disabled": 0, "lon": -77.02845616666667, "fusion_lat": 0.0, "is_reserved": 0}, {"rental_uris": {"ios": "https://dc.lft.to/lastmile_qr_scan", "android": "https://dc.lft.to/lastmile_qr_scan"}, "fusion_lon": 0.0, "type": "electric_scooter", "bike_id": "a4624c201d53efe10b0764cebac209b3", "name": "a4624c201d53efe10b0764cebac209b3", "lat": 38.902401, "is_disabled": 0, "lon": -77.06105366666667, "fusion_lat": 0.0, "is_reserved": 0}, {"rental_uris": {"ios": "https://dc.lft.to/lastmile_qr_scan", "android": "https://dc.lft.to/lastmile_qr_scan"}, "fusion_lon": 0.0, "type": "electric_bike", "bike_id": "916c199ec73848fabf5eec8df2536ee5", "name": "916c199ec73848fabf5eec8df2536ee5", "lat": 39.0001575, "is_disabled": 0, "lon": -76.872822, "fusion_lat": 0.0, "is_reserved": 0}, {"rental_uris": {"ios": "https://dc.lft.to/lastmile_qr_scan", "android": "https://dc.lft.to/lastmile_qr_scan"}, "fusion_lon": 0.0, "type": "electric_scooter", "bike_id": "622dcfb35b441fa2dea7eb6ec4c6d668", "name": "622dcfb35b441fa2dea7eb6ec4c6d668", "lat": 38.922865, "is_disabled": 0, "lon": -77.07287966666667, "fusion_lat": 0.0, "is_reserved": 0}, {"rental_uris": {"ios": "https://dc.lft.to/lastmile_qr_scan", "android": "https://dc.lft.to/lastmile_qr_scan"}, "fusion_lon": 0.0, "type": "electric_scooter", "bike_id": "dcbd7cec949da8e4a7c441886aaac350", "name": "dcbd7cec949da8e4a7c441886aaac350", "lat": 38.90382733333333, "is_disabled": 0, "lon": -77.03282266666666, "fusion_lat": 0.0, "is_reserved": 0}, {"rental_uris": {"ios": "https://dc.lft.to/lastmile_qr_scan", "android": "https://dc.lft.to/lastmile_qr_scan"}, "fusion_lon": 0.0, "type": "electric_scooter", "bike_id": "ccc81e9e05a0a85416f144f3c0b587d6", "name": "ccc81e9e05a0a85416f144f3c0b587d6", "lat": 38.91851316666666, "is_disabled": 0, "lon": -77.03207116666667, "fusion_lat": 0.0, "is_reserved": 0}, {"rental_uris": {"ios": "https://dc.lft.to/lastmile_qr_scan", "android": "https://dc.lft.to/lastmile_qr_scan"}, "fusion_lon": 0.0, "type": "electric_scooter", "bike_id": "00cb61e8e3f40742684a625cfe4aeaef", "name": "00cb61e8e3f40742684a625cfe4aeaef", "lat": 38.897476166666664, "is_disabled": 0, "lon": -77.00358483333333, "fusion_lat": 0.0, "is_reserved": 0}, {"rental_uris": {"ios": "https://dc.lft.to/lastmile_qr_scan", "android": "https://dc.lft.to/lastmile_qr_scan"}, "fusion_lon": 0.0, "type": "electric_scooter", "bike_id": "48ed997de3be4a88a3823cc9527ede0f", "name": "48ed997de3be4a88a3823cc9527ede0f", "lat": 38.89858783333333, "is_disabled": 0, "lon": -77.0290865, "fusion_lat": 0.0, "is_reserved": 0}, {"rental_uris": {"ios": "https://dc.lft.to/lastmile_qr_scan", "android": "https://dc.lft.to/lastmile_qr_scan"}, "fusion_lon": 0.0, "type": "electric_scooter", "bike_id": "13243684a4935d5b17b06d0a1e901c48", "name": "13243684a4935d5b17b06d0a1e901c48", "lat": 38.916907, "is_disabled": 0, "lon": -77.02732583333334, "fusion_lat": 0.0, "is_reserved": 0}, {"rental_uris": {"ios": "https://dc.lft.to/lastmile_qr_scan", "android": "https://dc.lft.to/lastmile_qr_scan"}, "fusion_lon": 0.0, "type": "electric_bike", "bike_id": "64f7ea955760193f78da75468e6ef425", "name": "64f7ea955760193f78da75468e6ef425", "lat": 39.024946666666665, "is_disabled": 0, "lon": -77.12567533333333, "fusion_lat": 0.0, "is_reserved": 0}, {"rental_uris": {"ios": "https://dc.lft.to/lastmile_qr_scan", "android": "https://dc.lft.to/lastmile_qr_scan"}, "fusion_lon": 0.0, "type": "electric_scooter", "bike_id": "99f9e766c966bccb2fa447bab9a126ba", "name": "99f9e766c966bccb2fa447bab9a126ba", "lat": 38.943042166666665, "is_disabled": 0, "lon": -77.06168183333334, "fusion_lat": 0.0, "is_reserved": 0}, {"rental_uris": {"ios": "https://dc.lft.to/lastmile_qr_scan", "android": "https://dc.lft.to/lastmile_qr_scan"}, "fusion_lon": 0.0, "type": "electric_scooter", "bike_id": "b0544232811459b0268d321ed95f7030", "name": "b0544232811459b0268d321ed95f7030", "lat": 38.916757833333335, "is_disabled": 0, "lon": -77.02967833333334, "fusion_lat": 0.0, "is_reserved": 0}, {"rental_uris": {"ios": "https://dc.lft.to/lastmile_qr_scan", "android": "https://dc.lft.to/lastmile_qr_scan"}, "fusion_lon": 0.0, "type": "electric_scooter", "bike_id": "792805c05f65cdbe4f534a882ad718aa", "name": "792805c05f65cdbe4f534a882ad718aa", "lat": 38.92633716666667, "is_disabled": 0, "lon": -77.03508216666667, "fusion_lat": 0.0, "is_reserved": 0}, {"rental_uris": {"ios": "https://dc.lft.to/lastmile_qr_scan", "android": "https://dc.lft.to/lastmile_qr_scan"}, "fusion_lon": 0.0, "type": "electric_scooter", "bike_id": "c1fb5e327c507450b7cd5abb2d47ab2f", "name": "c1fb5e327c507450b7cd5abb2d47ab2f", "lat": 38.890079166666666, "is_disabled": 0, "lon": -76.93834716666667, "fusion_lat": 0.0, "is_reserved": 0}, {"rental_uris": {"ios": "https://dc.lft.to/lastmile_qr_scan", "android": "https://dc.lft.to/lastmile_qr_scan"}, "fusion_lon": 0.0, "type": "electric_scooter", "bike_id": "1729bcc23265e4104cf265a7d77bbd7f", "name": "1729bcc23265e4104cf265a7d77bbd7f", "lat": 38.93921433333333, "is_disabled": 0, "lon": -77.07469216666667, "fusion_lat": 0.0, "is_reserved": 0}, {"rental_uris": {"ios": "https://dc.lft.to/lastmile_qr_scan", "android": "https://dc.lft.to/lastmile_qr_scan"}, "fusion_lon": 0.0, "type": "electric_scooter", "bike_id": "e2f18303df34766df65319398ce9cf28", "name": "e2f18303df34766df65319398ce9cf28", "lat": 38.93086783333333, "is_disabled": 0, "lon": -77.03622283333333, "fusion_lat": 0.0, "is_reserved": 0}, {"rental_uris": {"ios": "https://dc.lft.to/lastmile_qr_scan", "android": "https://dc.lft.to/lastmile_qr_scan"}, "fusion_lon": 0.0, "type": "electric_scooter", "bike_id": "d44f87acfcc66f2a32b71f22fe7a8276", "name": "d44f87acfcc66f2a32b71f22fe7a8276", "lat": 38.93054816666667, "is_disabled": 0, "lon": -77.029625, "fusion_lat": 0.0, "is_reserved": 0}, {"rental_uris": {"ios": "https://dc.lft.to/lastmile_qr_scan", "android": "https://dc.lft.to/lastmile_qr_scan"}, "fusion_lon": 0.0, "type": "electric_scooter", "bike_id": "6001ed77a3f7be6a4693e294fdd983be", "name": "6001ed77a3f7be6a4693e294fdd983be", "lat": 38.89606766666667, "is_disabled": 0, "lon": -77.04541566666667, "fusion_lat": 0.0, "is_reserved": 0}, {"rental_uris": {"ios": "https://dc.lft.to/lastmile_qr_scan", "android": "https://dc.lft.to/lastmile_qr_scan"}, "fusion_lon": 0.0, "type": "electric_scooter", "bike_id": "a32b5c2a3fb107f589b87ee705cd0db6", "name": "a32b5c2a3fb107f589b87ee705cd0db6", "lat": 38.89730933333333, "is_disabled": 0, "lon": -77.04239366666667, "fusion_lat": 0.0, "is_reserved": 0}, {"rental_uris": {"ios": "https://dc.lft.to/lastmile_qr_scan", "android": "https://dc.lft.to/lastmile_qr_scan"}, "fusion_lon": 0.0, "type": "electric_bike", "bike_id": "872c38d95d16a4838a70c2b7e9f7710e", "name": "872c38d95d16a4838a70c2b7e9f7710e", "lat": 38.87882033333333, "is_disabled": 0, "lon": -77.0230705, "fusion_lat": 0.0, "is_reserved": 0}, {"rental_uris": {"ios": "https://dc.lft.to/lastmile_qr_scan", "android": "https://dc.lft.to/lastmile_qr_scan"}, "fusion_lon": 0.0, "type": "electric_scooter", "bike_id": "d591dbaaeea70f0162d75ac4eae88e19", "name": "d591dbaaeea70f0162d75ac4eae88e19", "lat": 38.85813366666667, "is_disabled": 0, "lon": -76.98963316666666, "fusion_lat": 0.0, "is_reserved": 0}, {"rental_uris": {"ios": "https://dc.lft.to/lastmile_qr_scan", "android": "https://dc.lft.to/lastmile_qr_scan"}, "fusion_lon": 0.0, "type": "electric_scooter", "bike_id": "a11b37e51a2b8c3d74f1ee1b7a3899ee", "name": "a11b37e51a2b8c3d74f1ee1b7a3899ee", "lat": 38.9095475, "is_disabled": 0, "lon": -77.02385866666667, "fusion_lat": 0.0, "is_reserved": 0}, {"rental_uris": {"ios": "https://dc.lft.to/lastmile_qr_scan", "android": "https://dc.lft.to/lastmile_qr_scan"}, "fusion_lon": 0.0, "type": "electric_scooter", "bike_id": "31092d619ff669d9d47048b37cffa0c3", "name": "31092d619ff669d9d47048b37cffa0c3", "lat": 38.90145533333333, "is_disabled": 0, "lon": -77.02893, "fusion_lat": 0.0, "is_reserved": 0}, {"rental_uris": {"ios": "https://dc.lft.to/lastmile_qr_scan", "android": "https://dc.lft.to/lastmile_qr_scan"}, "fusion_lon": 0.0, "type": "electric_scooter", "bike_id": "2c0b0276e7fdb3ea93f9987d1f2d0163", "name": "2c0b0276e7fdb3ea93f9987d1f2d0163", "lat": 38.9002995, "is_disabled": 0, "lon": -76.99631983333333, "fusion_lat": 0.0, "is_reserved": 0}, {"rental_uris": {"ios": "https://dc.lft.to/lastmile_qr_scan", "android": "https://dc.lft.to/lastmile_qr_scan"}, "fusion_lon": 0.0, "type": "electric_scooter", "bike_id": "f575ef1cb66b60dbb9b2ebf0399a1da2", "name": "f575ef1cb66b60dbb9b2ebf0399a1da2", "lat": 38.9063825, "is_disabled": 0, "lon": -77.01793633333334, "fusion_lat": 0.0, "is_reserved": 0}, {"rental_uris": {"ios": "https://dc.lft.to/lastmile_qr_scan", "android": "https://dc.lft.to/lastmile_qr_scan"}, "fusion_lon": 0.0, "type": "electric_scooter", "bike_id": "1fdb1820336fa42a1c56f7a5e17c413e", "name": "1fdb1820336fa42a1c56f7a5e17c413e", "lat": 38.956121, "is_disabled": 0, "lon": -77.027586, "fusion_lat": 0.0, "is_reserved": 0}, {"rental_uris": {"ios": "https://dc.lft.to/lastmile_qr_scan", "android": "https://dc.lft.to/lastmile_qr_scan"}, "fusion_lon": 0.0, "type": "electric_scooter", "bike_id": "f1098f3cd3d5921d6c3abfbb54a4b2da", "name": "f1098f3cd3d5921d6c3abfbb54a4b2da", "lat": 38.877646, "is_disabled": 0, "lon": -77.01790283333334, "fusion_lat": 0.0, "is_reserved": 0}, {"rental_uris": {"ios": "https://dc.lft.to/lastmile_qr_scan", "android": "https://dc.lft.to/lastmile_qr_scan"}, "fusion_lon": 0.0, "type": "electric_scooter", "bike_id": "105afbede24992dca6a11f1e216fc75b", "name": "105afbede24992dca6a11f1e216fc75b", "lat": 38.962134666666664, "is_disabled": 0, "lon": -77.02801033333333, "fusion_lat": 0.0, "is_reserved": 0}, {"rental_uris": {"ios": "https://dc.lft.to/lastmile_qr_scan", "android": "https://dc.lft.to/lastmile_qr_scan"}, "fusion_lon": 0.0, "type": "electric_scooter", "bike_id": "795c14dfc0f1259c2280eb674e0ba9df", "name": "795c14dfc0f1259c2280eb674e0ba9df", "lat": 38.866561833333336, "is_disabled": 0, "lon": -76.98886016666667, "fusion_lat": 0.0, "is_reserved": 0}, {"rental_uris": {"ios": "https://dc.lft.to/lastmile_qr_scan", "android": "https://dc.lft.to/lastmile_qr_scan"}, "fusion_lon": 0.0, "type": "electric_scooter", "bike_id": "04f2b36b48d8453ef2f2ccc487e723a7", "name": "04f2b36b48d8453ef2f2ccc487e723a7", "lat": 38.905004166666664, "is_disabled": 0, "lon": -77.02948883333333, "fusion_lat": 0.0, "is_reserved": 0}, {"rental_uris": {"ios": "https://dc.lft.to/lastmile_qr_scan", "android": "https://dc.lft.to/lastmile_qr_scan"}, "fusion_lon": 0.0, "type": "electric_scooter", "bike_id": "5184e07349cde999ea2becde2cc0bd93", "name": "5184e07349cde999ea2becde2cc0bd93", "lat": 38.893029166666665, "is_disabled": 0, "lon": -77.0212175, "fusion_lat": 0.0, "is_reserved": 0}, {"rental_uris": {"ios": "https://dc.lft.to/lastmile_qr_scan", "android": "https://dc.lft.to/lastmile_qr_scan"}, "fusion_lon": 0.0, "type": "electric_scooter", "bike_id": "4699ee39b3b99900ce8e4eec9d487821", "name": "4699ee39b3b99900ce8e4eec9d487821", "lat": 38.94225183333333, "is_disabled": 0, "lon": -77.02157766666667, "fusion_lat": 0.0, "is_reserved": 0}, {"rental_uris": {"ios": "https://dc.lft.to/lastmile_qr_scan", "android": "https://dc.lft.to/lastmile_qr_scan"}, "fusion_lon": 0.0, "type": "electric_scooter", "bike_id": "6fd59b40c307efe5388f7c56125869b6", "name": "6fd59b40c307efe5388f7c56125869b6", "lat": 38.907946833333334, "is_disabled": 0, "lon": -76.99699633333333, "fusion_lat": 0.0, "is_reserved": 0}, {"rental_uris": {"ios": "https://dc.lft.to/lastmile_qr_scan", "android": "https://dc.lft.to/lastmile_qr_scan"}, "fusion_lon": 0.0, "type": "electric_scooter", "bike_id": "d4b54ac955d6b42d793689e650381436", "name": "d4b54ac955d6b42d793689e650381436", "lat": 38.937509666666664, "is_disabled": 0, "lon": -77.024797, "fusion_lat": 0.0, "is_reserved": 0}, {"rental_uris": {"ios": "https://dc.lft.to/lastmile_qr_scan", "android": "https://dc.lft.to/lastmile_qr_scan"}, "fusion_lon": 0.0, "type": "electric_scooter", "bike_id": "b1b1a7893348d43fead6f83d8c046a60", "name": "b1b1a7893348d43fead6f83d8c046a60", "lat": 38.942779333333334, "is_disabled": 0, "lon": -77.03632383333333, "fusion_lat": 0.0, "is_reserved": 0}, {"rental_uris": {"ios": "https://dc.lft.to/lastmile_qr_scan", "android": "https://dc.lft.to/lastmile_qr_scan"}, "fusion_lon": 0.0, "type": "electric_scooter", "bike_id": "1a2cce3c0e829a3a488f8bf220469dcc", "name": "1a2cce3c0e829a3a488f8bf220469dcc", "lat": 38.94981716666667, "is_disabled": 0, "lon": -77.02701033333334, "fusion_lat": 0.0, "is_reserved": 0}, {"rental_uris": {"ios": "https://dc.lft.to/lastmile_qr_scan", "android": "https://dc.lft.to/lastmile_qr_scan"}, "fusion_lon": 0.0, "type": "electric_scooter", "bike_id": "9669cf233472696b120fb2816b32e02f", "name": "9669cf233472696b120fb2816b32e02f", "lat": 38.84795866666666, "is_disabled": 0, "lon": -76.96710816666666, "fusion_lat": 0.0, "is_reserved": 0}, {"rental_uris": {"ios": "https://dc.lft.to/lastmile_qr_scan", "android": "https://dc.lft.to/lastmile_qr_scan"}, "fusion_lon": 0.0, "type": "electric_scooter", "bike_id": "b34da336035cf5124c623c2f3be0978b", "name": "b34da336035cf5124c623c2f3be0978b", "lat": 38.909256666666664, "is_disabled": 0, "lon": -76.9920645, "fusion_lat": 0.0, "is_reserved": 0}, {"rental_uris": {"ios": "https://dc.lft.to/lastmile_qr_scan", "android": "https://dc.lft.to/lastmile_qr_scan"}, "fusion_lon": 0.0, "type": "electric_scooter", "bike_id": "98d0f5fadcb349ce2179a0c7cdd62e6b", "name": "98d0f5fadcb349ce2179a0c7cdd62e6b", "lat": 38.89781083333333, "is_disabled": 0, "lon": -76.97096883333333, "fusion_lat": 0.0, "is_reserved": 0}, {"rental_uris": {"ios": "https://dc.lft.to/lastmile_qr_scan", "android": "https://dc.lft.to/lastmile_qr_scan"}, "fusion_lon": 0.0, "type": "electric_scooter", "bike_id": "95f962484601083634213a388206d309", "name": "95f962484601083634213a388206d309", "lat": 38.900912166666664, "is_disabled": 0, "lon": -77.03929583333333, "fusion_lat": 0.0, "is_reserved": 0}, {"rental_uris": {"ios": "https://dc.lft.to/lastmile_qr_scan", "android": "https://dc.lft.to/lastmile_qr_scan"}, "fusion_lon": 0.0, "type": "electric_scooter", "bike_id": "8a2e984fcd5cb2069b796b83573643a3", "name": "8a2e984fcd5cb2069b796b83573643a3", "lat": 38.944427, "is_disabled": 0, "lon": -77.06056533333333, "fusion_lat": 0.0, "is_reserved": 0}, {"rental_uris": {"ios": "https://dc.lft.to/lastmile_qr_scan", "android": "https://dc.lft.to/lastmile_qr_scan"}, "fusion_lon": 0.0, "type": "electric_scooter", "bike_id": "c845c5101cb70d75c891943e2a63f48f", "name": "c845c5101cb70d75c891943e2a63f48f", "lat": 38.91048133333334, "is_disabled": 0, "lon": -77.02181216666666, "fusion_lat": 0.0, "is_reserved": 0}, {"rental_uris": {"ios": "https://dc.lft.to/lastmile_qr_scan", "android": "https://dc.lft.to/lastmile_qr_scan"}, "fusion_lon": 0.0, "type": "electric_scooter", "bike_id": "4f510373f89388847d0267a77e4e0c07", "name": "4f510373f89388847d0267a77e4e0c07", "lat": 38.90704, "is_disabled": 0, "lon": -77.02392666666667, "fusion_lat": 0.0, "is_reserved": 0}, {"rental_uris": {"ios": "https://dc.lft.to/lastmile_qr_scan", "android": "https://dc.lft.to/lastmile_qr_scan"}, "fusion_lon": 0.0, "type": "electric_scooter", "bike_id": "549bb9783775b85f731ff755c63657ff", "name": "549bb9783775b85f731ff755c63657ff", "lat": 38.90535, "is_disabled": 0, "lon": -77.04761783333333, "fusion_lat": 0.0, "is_reserved": 0}, {"rental_uris": {"ios": "https://dc.lft.to/lastmile_qr_scan", "android": "https://dc.lft.to/lastmile_qr_scan"}, "fusion_lon": 0.0, "type": "electric_scooter", "bike_id": "db43a4010fcd1c25bcc96a0f1551330d", "name": "db43a4010fcd1c25bcc96a0f1551330d", "lat": 38.91639033333333, "is_disabled": 0, "lon": -77.0505595, "fusion_lat": 0.0, "is_reserved": 0}, {"rental_uris": {"ios": "https://dc.lft.to/lastmile_qr_scan", "android": "https://dc.lft.to/lastmile_qr_scan"}, "fusion_lon": 0.0, "type": "electric_scooter", "bike_id": "f2acef44491bae8fb5d756a263bb15f2", "name": "f2acef44491bae8fb5d756a263bb15f2", "lat": 38.8974215, "is_disabled": 0, "lon": -77.015954, "fusion_lat": 0.0, "is_reserved": 0}, {"rental_uris": {"ios": "https://dc.lft.to/lastmile_qr_scan", "android": "https://dc.lft.to/lastmile_qr_scan"}, "fusion_lon": 0.0, "type": "electric_scooter", "bike_id": "8b6b248693c02d29d3a262eebc6a3cef", "name": "8b6b248693c02d29d3a262eebc6a3cef", "lat": 38.93184266666667, "is_disabled": 0, "lon": -77.02833216666667, "fusion_lat": 0.0, "is_reserved": 0}, {"rental_uris": {"ios": "https://dc.lft.to/lastmile_qr_scan", "android": "https://dc.lft.to/lastmile_qr_scan"}, "fusion_lon": 0.0, "type": "electric_scooter", "bike_id": "d40aabd10b6f2ddb5ce7de3f69a7d677", "name": "d40aabd10b6f2ddb5ce7de3f69a7d677", "lat": 38.92237516666667, "is_disabled": 0, "lon": -77.02786033333334, "fusion_lat": 0.0, "is_reserved": 0}, {"rental_uris": {"ios": "https://dc.lft.to/lastmile_qr_scan", "android": "https://dc.lft.to/lastmile_qr_scan"}, "fusion_lon": 0.0, "type": "electric_scooter", "bike_id": "58dbc62eff4c60e1e17a371802275396", "name": "58dbc62eff4c60e1e17a371802275396", "lat": 38.8764495, "is_disabled": 0, "lon": -77.01564766666667, "fusion_lat": 0.0, "is_reserved": 0}, {"rental_uris": {"ios": "https://dc.lft.to/lastmile_qr_scan", "android": "https://dc.lft.to/lastmile_qr_scan"}, "fusion_lon": 0.0, "type": "electric_scooter", "bike_id": "8919f4e34106cadb419e5e378e86e717", "name": "8919f4e34106cadb419e5e378e86e717", "lat": 38.9314635, "is_disabled": 0, "lon": -77.03450716666667, "fusion_lat": 0.0, "is_reserved": 0}, {"rental_uris": {"ios": "https://dc.lft.to/lastmile_qr_scan", "android": "https://dc.lft.to/lastmile_qr_scan"}, "fusion_lon": 0.0, "type": "electric_scooter", "bike_id": "4a9e02caedca9d5b1ca0db77a8f41e4b", "name": "4a9e02caedca9d5b1ca0db77a8f41e4b", "lat": 38.9039755, "is_disabled": 0, "lon": -77.028006, "fusion_lat": 0.0, "is_reserved": 0}, {"rental_uris": {"ios": "https://dc.lft.to/lastmile_qr_scan", "android": "https://dc.lft.to/lastmile_qr_scan"}, "fusion_lon": 0.0, "type": "electric_bike", "bike_id": "5f169a5987f13c6f3d327718c7f9abb9", "name": "5f169a5987f13c6f3d327718c7f9abb9", "lat": 38.8933555, "is_disabled": 0, "lon": -77.12402733333333, "fusion_lat": 0.0, "is_reserved": 0}, {"rental_uris": {"ios": "https://dc.lft.to/lastmile_qr_scan", "android": "https://dc.lft.to/lastmile_qr_scan"}, "fusion_lon": 0.0, "type": "electric_scooter", "bike_id": "42b33c2d9734b1bd0d95bb45017172c5", "name": "42b33c2d9734b1bd0d95bb45017172c5", "lat": 38.91907666666667, "is_disabled": 0, "lon": -77.02132566666667, "fusion_lat": 0.0, "is_reserved": 0}, {"rental_uris": {"ios": "https://dc.lft.to/lastmile_qr_scan", "android": "https://dc.lft.to/lastmile_qr_scan"}, "fusion_lon": 0.0, "type": "electric_scooter", "bike_id": "05ff1b8edd21207a37adc9eac0723ca0", "name": "05ff1b8edd21207a37adc9eac0723ca0", "lat": 38.8997175, "is_disabled": 0, "lon": -77.04613933333333, "fusion_lat": 0.0, "is_reserved": 0}, {"rental_uris": {"ios": "https://dc.lft.to/lastmile_qr_scan", "android": "https://dc.lft.to/lastmile_qr_scan"}, "fusion_lon": 0.0, "type": "electric_scooter", "bike_id": "1695f663dc96301a73d4fa4230c6c421", "name": "1695f663dc96301a73d4fa4230c6c421", "lat": 38.9015635, "is_disabled": 0, "lon": -77.0220105, "fusion_lat": 0.0, "is_reserved": 0}, {"rental_uris": {"ios": "https://dc.lft.to/lastmile_qr_scan", "android": "https://dc.lft.to/lastmile_qr_scan"}, "fusion_lon": 0.0, "type": "electric_scooter", "bike_id": "7fe67cd9383814be767023ae37ff6b12", "name": "7fe67cd9383814be767023ae37ff6b12", "lat": 38.893014, "is_disabled": 0, "lon": -77.012322, "fusion_lat": 0.0, "is_reserved": 0}, {"rental_uris": {"ios": "https://dc.lft.to/lastmile_qr_scan", "android": "https://dc.lft.to/lastmile_qr_scan"}, "fusion_lon": 0.0, "type": "electric_scooter", "bike_id": "c65e4cdeba1d50b8676da86b5f506150", "name": "c65e4cdeba1d50b8676da86b5f506150", "lat": 38.91212633333333, "is_disabled": 0, "lon": -77.03189533333334, "fusion_lat": 0.0, "is_reserved": 0}, {"rental_uris": {"ios": "https://dc.lft.to/lastmile_qr_scan", "android": "https://dc.lft.to/lastmile_qr_scan"}, "fusion_lon": 0.0, "type": "electric_scooter", "bike_id": "7f41a1650b43d5e87c3b37d7459cab38", "name": "7f41a1650b43d5e87c3b37d7459cab38", "lat": 38.92013, "is_disabled": 0, "lon": -77.02407633333333, "fusion_lat": 0.0, "is_reserved": 0}, {"rental_uris": {"ios": "https://dc.lft.to/lastmile_qr_scan", "android": "https://dc.lft.to/lastmile_qr_scan"}, "fusion_lon": 0.0, "type": "electric_scooter", "bike_id": "8402c065bebadb189b614cccc4ed08bd", "name": "8402c065bebadb189b614cccc4ed08bd", "lat": 38.9211965, "is_disabled": 0, "lon": -77.04685783333333, "fusion_lat": 0.0, "is_reserved": 0}, {"rental_uris": {"ios": "https://dc.lft.to/lastmile_qr_scan", "android": "https://dc.lft.to/lastmile_qr_scan"}, "fusion_lon": 0.0, "type": "electric_scooter", "bike_id": "98e56a4dd4f88faadd51ce05a3fca5ee", "name": "98e56a4dd4f88faadd51ce05a3fca5ee", "lat": 38.90240516666667, "is_disabled": 0, "lon": -77.002112, "fusion_lat": 0.0, "is_reserved": 0}, {"rental_uris": {"ios": "https://dc.lft.to/lastmile_qr_scan", "android": "https://dc.lft.to/lastmile_qr_scan"}, "fusion_lon": 0.0, "type": "electric_scooter", "bike_id": "163800149da77e441905e1d7708d0e09", "name": "163800149da77e441905e1d7708d0e09", "lat": 38.92101533333334, "is_disabled": 0, "lon": -77.03050533333334, "fusion_lat": 0.0, "is_reserved": 0}, {"rental_uris": {"ios": "https://dc.lft.to/lastmile_qr_scan", "android": "https://dc.lft.to/lastmile_qr_scan"}, "fusion_lon": 0.0, "type": "electric_scooter", "bike_id": "ba23bfa2d3a433121301ae47750dab2e", "name": "ba23bfa2d3a433121301ae47750dab2e", "lat": 38.89843533333333, "is_disabled": 0, "lon": -76.94634883333333, "fusion_lat": 0.0, "is_reserved": 0}, {"rental_uris": {"ios": "https://dc.lft.to/lastmile_qr_scan", "android": "https://dc.lft.to/lastmile_qr_scan"}, "fusion_lon": 0.0, "type": "electric_scooter", "bike_id": "b53f30243835e18c4477c263b1cc2a93", "name": "b53f30243835e18c4477c263b1cc2a93", "lat": 38.910867, "is_disabled": 0, "lon": -77.0385585, "fusion_lat": 0.0, "is_reserved": 0}, {"rental_uris": {"ios": "https://dc.lft.to/lastmile_qr_scan", "android": "https://dc.lft.to/lastmile_qr_scan"}, "fusion_lon": 0.0, "type": "electric_scooter", "bike_id": "15d14d49985aa0747d56f1f17703cad0", "name": "15d14d49985aa0747d56f1f17703cad0", "lat": 38.953103, "is_disabled": 0, "lon": -77.036002, "fusion_lat": 0.0, "is_reserved": 0}, {"rental_uris": {"ios": "https://dc.lft.to/lastmile_qr_scan", "android": "https://dc.lft.to/lastmile_qr_scan"}, "fusion_lon": 0.0, "type": "electric_scooter", "bike_id": "5a550bbf0db76ac88fa0de215fb57fd2", "name": "5a550bbf0db76ac88fa0de215fb57fd2", "lat": 38.908188333333335, "is_disabled": 0, "lon": -77.041704, "fusion_lat": 0.0, "is_reserved": 0}, {"rental_uris": {"ios": "https://dc.lft.to/lastmile_qr_scan", "android": "https://dc.lft.to/lastmile_qr_scan"}, "fusion_lon": 0.0, "type": "electric_scooter", "bike_id": "b596a148814ab716e41ca48ee9f429f1", "name": "b596a148814ab716e41ca48ee9f429f1", "lat": 38.892207, "is_disabled": 0, "lon": -77.04659666666667, "fusion_lat": 0.0, "is_reserved": 0}, {"rental_uris": {"ios": "https://dc.lft.to/lastmile_qr_scan", "android": "https://dc.lft.to/lastmile_qr_scan"}, "fusion_lon": 0.0, "type": "electric_scooter", "bike_id": "2749709d677132ba33772273ec9ebb53", "name": "2749709d677132ba33772273ec9ebb53", "lat": 38.888865333333335, "is_disabled": 0, "lon": -77.01547533333333, "fusion_lat": 0.0, "is_reserved": 0}, {"rental_uris": {"ios": "https://dc.lft.to/lastmile_qr_scan", "android": "https://dc.lft.to/lastmile_qr_scan"}, "fusion_lon": 0.0, "type": "electric_bike", "bike_id": "ddef95ff6ba325fc449b15f955c28dbf", "name": "ddef95ff6ba325fc449b15f955c28dbf", "lat": 38.905058833333335, "is_disabled": 0, "lon": -77.05693216666667, "fusion_lat": 0.0, "is_reserved": 0}, {"rental_uris": {"ios": "https://dc.lft.to/lastmile_qr_scan", "android": "https://dc.lft.to/lastmile_qr_scan"}, "fusion_lon": 0.0, "type": "electric_bike", "bike_id": "99b6efae73adf4415aaf83c56c70206e", "name": "99b6efae73adf4415aaf83c56c70206e", "lat": 38.998941, "is_disabled": 0, "lon": -77.02872783333333, "fusion_lat": 0.0, "is_reserved": 0}, {"rental_uris": {"ios": "https://dc.lft.to/lastmile_qr_scan", "android": "https://dc.lft.to/lastmile_qr_scan"}, "fusion_lon": 0.0, "type": "electric_scooter", "bike_id": "2696b7d4c3775b3d3a4867f470ab1f03", "name": "2696b7d4c3775b3d3a4867f470ab1f03", "lat": 38.901405, "is_disabled": 0, "lon": -77.0416455, "fusion_lat": 0.0, "is_reserved": 0}, {"rental_uris": {"ios": "https://dc.lft.to/lastmile_qr_scan", "android": "https://dc.lft.to/lastmile_qr_scan"}, "fusion_lon": 0.0, "type": "electric_scooter", "bike_id": "afb1c0342df277ff2554bc85693c59cd", "name": "afb1c0342df277ff2554bc85693c59cd", "lat": 38.858062333333336, "is_disabled": 0, "lon": -76.98655616666667, "fusion_lat": 0.0, "is_reserved": 0}, {"rental_uris": {"ios": "https://dc.lft.to/lastmile_qr_scan", "android": "https://dc.lft.to/lastmile_qr_scan"}, "fusion_lon": 0.0, "type": "electric_scooter", "bike_id": "eb6e3be8df095f3dca6ad6d7484f6f83", "name": "eb6e3be8df095f3dca6ad6d7484f6f83", "lat": 38.92825966666667, "is_disabled": 0, "lon": -77.02256966666667, "fusion_lat": 0.0, "is_reserved": 0}, {"rental_uris": {"ios": "https://dc.lft.to/lastmile_qr_scan", "android": "https://dc.lft.to/lastmile_qr_scan"}, "fusion_lon": 0.0, "type": "electric_scooter", "bike_id": "ec4b7db5f204007d6672d498e23476c2", "name": "ec4b7db5f204007d6672d498e23476c2", "lat": 38.89529916666667, "is_disabled": 0, "lon": -77.02938466666667, "fusion_lat": 0.0, "is_reserved": 0}, {"rental_uris": {"ios": "https://dc.lft.to/lastmile_qr_scan", "android": "https://dc.lft.to/lastmile_qr_scan"}, "fusion_lon": 0.0, "type": "electric_scooter", "bike_id": "0335f1b8408af1d2f12dd625ee4e266f", "name": "0335f1b8408af1d2f12dd625ee4e266f", "lat": 38.90127416666667, "is_disabled": 0, "lon": -77.012005, "fusion_lat": 0.0, "is_reserved": 0}, {"rental_uris": {"ios": "https://dc.lft.to/lastmile_qr_scan", "android": "https://dc.lft.to/lastmile_qr_scan"}, "fusion_lon": 0.0, "type": "electric_scooter", "bike_id": "08fd392256b81553aff5a2b8ba722358", "name": "08fd392256b81553aff5a2b8ba722358", "lat": 38.912600166666664, "is_disabled": 0, "lon": -77.0169325, "fusion_lat": 0.0, "is_reserved": 0}, {"rental_uris": {"ios": "https://dc.lft.to/lastmile_qr_scan", "android": "https://dc.lft.to/lastmile_qr_scan"}, "fusion_lon": 0.0, "type": "electric_bike", "bike_id": "26920536375184c379756f5d83aa514c", "name": "26920536375184c379756f5d83aa514c", "lat": 38.967598333333335, "is_disabled": 0, "lon": -77.09159333333334, "fusion_lat": 0.0, "is_reserved": 0}, {"rental_uris": {"ios": "https://dc.lft.to/lastmile_qr_scan", "android": "https://dc.lft.to/lastmile_qr_scan"}, "fusion_lon": 0.0, "type": "electric_scooter", "bike_id": "804ea9a80c92176c23b941e6ee3d63ce", "name": "804ea9a80c92176c23b941e6ee3d63ce", "lat": 38.90536566666667, "is_disabled": 0, "lon": -77.04178716666667, "fusion_lat": 0.0, "is_reserved": 0}, {"rental_uris": {"ios": "https://dc.lft.to/lastmile_qr_scan", "android": "https://dc.lft.to/lastmile_qr_scan"}, "fusion_lon": 0.0, "type": "electric_scooter", "bike_id": "1c1aaaca1e993e7e97b747dcb8aa5023", "name": "1c1aaaca1e993e7e97b747dcb8aa5023", "lat": 38.90124466666666, "is_disabled": 0, "lon": -77.0163135, "fusion_lat": 0.0, "is_reserved": 0}, {"rental_uris": {"ios": "https://dc.lft.to/lastmile_qr_scan", "android": "https://dc.lft.to/lastmile_qr_scan"}, "fusion_lon": 0.0, "type": "electric_scooter", "bike_id": "4372d890a79555948908372859dcfe4f", "name": "4372d890a79555948908372859dcfe4f", "lat": 38.945151333333335, "is_disabled": 0, "lon": -77.02981133333333, "fusion_lat": 0.0, "is_reserved": 0}, {"rental_uris": {"ios": "https://dc.lft.to/lastmile_qr_scan", "android": "https://dc.lft.to/lastmile_qr_scan"}, "fusion_lon": 0.0, "type": "electric_scooter", "bike_id": "6cb453956885d011a98505976c890982", "name": "6cb453956885d011a98505976c890982", "lat": 38.89848583333333, "is_disabled": 0, "lon": -77.03129783333333, "fusion_lat": 0.0, "is_reserved": 0}, {"rental_uris": {"ios": "https://dc.lft.to/lastmile_qr_scan", "android": "https://dc.lft.to/lastmile_qr_scan"}, "fusion_lon": 0.0, "type": "electric_scooter", "bike_id": "b61b7fb5df72204d224e7ba930a013fd", "name": "b61b7fb5df72204d224e7ba930a013fd", "lat": 38.905956, "is_disabled": 0, "lon": -77.063733, "fusion_lat": 0.0, "is_reserved": 0}, {"rental_uris": {"ios": "https://dc.lft.to/lastmile_qr_scan", "android": "https://dc.lft.to/lastmile_qr_scan"}, "fusion_lon": 0.0, "type": "electric_scooter", "bike_id": "27709d74e93f43a952ef95b10d74dde9", "name": "27709d74e93f43a952ef95b10d74dde9", "lat": 38.8837275, "is_disabled": 0, "lon": -76.923716, "fusion_lat": 0.0, "is_reserved": 0}, {"rental_uris": {"ios": "https://dc.lft.to/lastmile_qr_scan", "android": "https://dc.lft.to/lastmile_qr_scan"}, "fusion_lon": 0.0, "type": "electric_scooter", "bike_id": "98a0761a5f08fa3e51866406c9efdbeb", "name": "98a0761a5f08fa3e51866406c9efdbeb", "lat": 38.902821833333334, "is_disabled": 0, "lon": -77.0365495, "fusion_lat": 0.0, "is_reserved": 0}, {"rental_uris": {"ios": "https://dc.lft.to/lastmile_qr_scan", "android": "https://dc.lft.to/lastmile_qr_scan"}, "fusion_lon": 0.0, "type": "electric_scooter", "bike_id": "1db81deb64355412cadbf8a7b0e4d68e", "name": "1db81deb64355412cadbf8a7b0e4d68e", "lat": 38.905044, "is_disabled": 0, "lon": -77.04066233333333, "fusion_lat": 0.0, "is_reserved": 0}, {"rental_uris": {"ios": "https://dc.lft.to/lastmile_qr_scan", "android": "https://dc.lft.to/lastmile_qr_scan"}, "fusion_lon": 0.0, "type": "electric_scooter", "bike_id": "a4355bb2144118c1c444616c6aa37c16", "name": "a4355bb2144118c1c444616c6aa37c16", "lat": 38.92406116666667, "is_disabled": 0, "lon": -76.99731633333333, "fusion_lat": 0.0, "is_reserved": 0}, {"rental_uris": {"ios": "https://dc.lft.to/lastmile_qr_scan", "android": "https://dc.lft.to/lastmile_qr_scan"}, "fusion_lon": 0.0, "type": "electric_scooter", "bike_id": "e30c3321b9ea74ddc2d6d26e80c4188b", "name": "e30c3321b9ea74ddc2d6d26e80c4188b", "lat": 38.902050333333335, "is_disabled": 0, "lon": -76.98186166666666, "fusion_lat": 0.0, "is_reserved": 0}, {"rental_uris": {"ios": "https://dc.lft.to/lastmile_qr_scan", "android": "https://dc.lft.to/lastmile_qr_scan"}, "fusion_lon": 0.0, "type": "electric_scooter", "bike_id": "c3d2aae0b25df1686a58343e41170bba", "name": "c3d2aae0b25df1686a58343e41170bba", "lat": 38.86352483333334, "is_disabled": 0, "lon": -76.99051716666666, "fusion_lat": 0.0, "is_reserved": 0}, {"rental_uris": {"ios": "https://dc.lft.to/lastmile_qr_scan", "android": "https://dc.lft.to/lastmile_qr_scan"}, "fusion_lon": 0.0, "type": "electric_scooter", "bike_id": "948c4418e7777c156700ca693bd4cc1b", "name": "948c4418e7777c156700ca693bd4cc1b", "lat": 38.846193, "is_disabled": 0, "lon": -76.9963115, "fusion_lat": 0.0, "is_reserved": 0}, {"rental_uris": {"ios": "https://dc.lft.to/lastmile_qr_scan", "android": "https://dc.lft.to/lastmile_qr_scan"}, "fusion_lon": 0.0, "type": "electric_scooter", "bike_id": "e54492fb9c15e79fc4670d34b24793cb", "name": "e54492fb9c15e79fc4670d34b24793cb", "lat": 38.9072555, "is_disabled": 0, "lon": -77.04015166666667, "fusion_lat": 0.0, "is_reserved": 0}, {"rental_uris": {"ios": "https://dc.lft.to/lastmile_qr_scan", "android": "https://dc.lft.to/lastmile_qr_scan"}, "fusion_lon": 0.0, "type": "electric_scooter", "bike_id": "e3c6e0ce5965cb60deb5201690987e53", "name": "e3c6e0ce5965cb60deb5201690987e53", "lat": 38.89221766666667, "is_disabled": 0, "lon": -77.022641, "fusion_lat": 0.0, "is_reserved": 0}, {"rental_uris": {"ios": "https://dc.lft.to/lastmile_qr_scan", "android": "https://dc.lft.to/lastmile_qr_scan"}, "fusion_lon": 0.0, "type": "electric_scooter", "bike_id": "c133f7afbab708c6747516aed01a960d", "name": "c133f7afbab708c6747516aed01a960d", "lat": 38.918992, "is_disabled": 0, "lon": -77.00314683333333, "fusion_lat": 0.0, "is_reserved": 0}, {"rental_uris": {"ios": "https://dc.lft.to/lastmile_qr_scan", "android": "https://dc.lft.to/lastmile_qr_scan"}, "fusion_lon": 0.0, "type": "electric_scooter", "bike_id": "310751d521599387bc1f60d0051cf10f", "name": "310751d521599387bc1f60d0051cf10f", "lat": 38.9016045, "is_disabled": 0, "lon": -77.02214083333334, "fusion_lat": 0.0, "is_reserved": 0}, {"rental_uris": {"ios": "https://dc.lft.to/lastmile_qr_scan", "android": "https://dc.lft.to/lastmile_qr_scan"}, "fusion_lon": 0.0, "type": "electric_scooter", "bike_id": "5a2a0d256cae8dab4210fc6c195b2ed7", "name": "5a2a0d256cae8dab4210fc6c195b2ed7", "lat": 38.922757833333335, "is_disabled": 0, "lon": -77.0446855, "fusion_lat": 0.0, "is_reserved": 0}, {"rental_uris": {"ios": "https://dc.lft.to/lastmile_qr_scan", "android": "https://dc.lft.to/lastmile_qr_scan"}, "fusion_lon": 0.0, "type": "electric_bike", "bike_id": "53982102bfaaf3c8620d9de01bad5e46", "name": "53982102bfaaf3c8620d9de01bad5e46", "lat": 38.8278155, "is_disabled": 0, "lon": -77.11081733333333, "fusion_lat": 0.0, "is_reserved": 0}, {"rental_uris": {"ios": "https://dc.lft.to/lastmile_qr_scan", "android": "https://dc.lft.to/lastmile_qr_scan"}, "fusion_lon": 0.0, "type": "electric_scooter", "bike_id": "c67e0da2e61c1bb046079d3c632baf6a", "name": "c67e0da2e61c1bb046079d3c632baf6a", "lat": 38.86353183333333, "is_disabled": 0, "lon": -76.99056316666666, "fusion_lat": 0.0, "is_reserved": 0}, {"rental_uris": {"ios": "https://dc.lft.to/lastmile_qr_scan", "android": "https://dc.lft.to/lastmile_qr_scan"}, "fusion_lon": 0.0, "type": "electric_bike", "bike_id": "ec87ad43ef2a5bfc436de6df303b87b6", "name": "ec87ad43ef2a5bfc436de6df303b87b6", "lat": 38.865245, "is_disabled": 0, "lon": -77.12814383333334, "fusion_lat": 0.0, "is_reserved": 0}, {"rental_uris": {"ios": "https://dc.lft.to/lastmile_qr_scan", "android": "https://dc.lft.to/lastmile_qr_scan"}, "fusion_lon": 0.0, "type": "electric_scooter", "bike_id": "c400c249b916cc3e7f459bd522161f39", "name": "c400c249b916cc3e7f459bd522161f39", "lat": 38.93602633333333, "is_disabled": 0, "lon": -77.03762483333334, "fusion_lat": 0.0, "is_reserved": 0}, {"rental_uris": {"ios": "https://dc.lft.to/lastmile_qr_scan", "android": "https://dc.lft.to/lastmile_qr_scan"}, "fusion_lon": 0.0, "type": "electric_scooter", "bike_id": "23059e4d1db48a11204085c943b84df1", "name": "23059e4d1db48a11204085c943b84df1", "lat": 38.922672166666665, "is_disabled": 0, "lon": -77.0422185, "fusion_lat": 0.0, "is_reserved": 0}, {"rental_uris": {"ios": "https://dc.lft.to/lastmile_qr_scan", "android": "https://dc.lft.to/lastmile_qr_scan"}, "fusion_lon": 0.0, "type": "electric_bike", "bike_id": "61b488daad6b275f0b67457f31486178", "name": "61b488daad6b275f0b67457f31486178", "lat": 38.824440333333335, "is_disabled": 0, "lon": -77.07045233333334, "fusion_lat": 0.0, "is_reserved": 0}, {"rental_uris": {"ios": "https://dc.lft.to/lastmile_qr_scan", "android": "https://dc.lft.to/lastmile_qr_scan"}, "fusion_lon": 0.0, "type": "electric_scooter", "bike_id": "86e47290e912af25b2e782f2768537fa", "name": "86e47290e912af25b2e782f2768537fa", "lat": 38.916866166666665, "is_disabled": 0, "lon": -77.03760683333333, "fusion_lat": 0.0, "is_reserved": 0}, {"rental_uris": {"ios": "https://dc.lft.to/lastmile_qr_scan", "android": "https://dc.lft.to/lastmile_qr_scan"}, "fusion_lon": 0.0, "type": "electric_scooter", "bike_id": "4a69184879c7039814ac4faca58de32f", "name": "4a69184879c7039814ac4faca58de32f", "lat": 38.89399683333333, "is_disabled": 0, "lon": -77.03202, "fusion_lat": 0.0, "is_reserved": 0}, {"rental_uris": {"ios": "https://dc.lft.to/lastmile_qr_scan", "android": "https://dc.lft.to/lastmile_qr_scan"}, "fusion_lon": 0.0, "type": "electric_scooter", "bike_id": "c7e21ebf2238ed83e6077f91b251442c", "name": "c7e21ebf2238ed83e6077f91b251442c", "lat": 38.927924833333336, "is_disabled": 0, "lon": -77.01413683333334, "fusion_lat": 0.0, "is_reserved": 0}, {"rental_uris": {"ios": "https://dc.lft.to/lastmile_qr_scan", "android": "https://dc.lft.to/lastmile_qr_scan"}, "fusion_lon": 0.0, "type": "electric_scooter", "bike_id": "937eb807bba1cd5163a86ee2f60c10e5", "name": "937eb807bba1cd5163a86ee2f60c10e5", "lat": 38.918449, "is_disabled": 0, "lon": -77.02541266666667, "fusion_lat": 0.0, "is_reserved": 0}, {"rental_uris": {"ios": "https://dc.lft.to/lastmile_qr_scan", "android": "https://dc.lft.to/lastmile_qr_scan"}, "fusion_lon": 0.0, "type": "electric_scooter", "bike_id": "84a372e4ab5ebf90a160af93d659dc72", "name": "84a372e4ab5ebf90a160af93d659dc72", "lat": 38.90724516666667, "is_disabled": 0, "lon": -77.00381316666666, "fusion_lat": 0.0, "is_reserved": 0}, {"rental_uris": {"ios": "https://dc.lft.to/lastmile_qr_scan", "android": "https://dc.lft.to/lastmile_qr_scan"}, "fusion_lon": 0.0, "type": "electric_bike", "bike_id": "ff29ad75a4ea805644b6672620dcd93e", "name": "ff29ad75a4ea805644b6672620dcd93e", "lat": 38.854359333333335, "is_disabled": 0, "lon": -76.90969333333334, "fusion_lat": 0.0, "is_reserved": 0}, {"rental_uris": {"ios": "https://dc.lft.to/lastmile_qr_scan", "android": "https://dc.lft.to/lastmile_qr_scan"}, "fusion_lon": 0.0, "type": "electric_scooter", "bike_id": "6a5bd71bf3b3da3190125bb685723477", "name": "6a5bd71bf3b3da3190125bb685723477", "lat": 38.86157883333333, "is_disabled": 0, "lon": -76.9857715, "fusion_lat": 0.0, "is_reserved": 0}, {"rental_uris": {"ios": "https://dc.lft.to/lastmile_qr_scan", "android": "https://dc.lft.to/lastmile_qr_scan"}, "fusion_lon": 0.0, "type": "electric_scooter", "bike_id": "e5295a473928480bb7f1f2ce943e07cc", "name": "e5295a473928480bb7f1f2ce943e07cc", "lat": 38.89973616666666, "is_disabled": 0, "lon": -77.04189133333334, "fusion_lat": 0.0, "is_reserved": 0}, {"rental_uris": {"ios": "https://dc.lft.to/lastmile_qr_scan", "android": "https://dc.lft.to/lastmile_qr_scan"}, "fusion_lon": 0.0, "type": "electric_scooter", "bike_id": "0785b76837d0b096e9504ee2d6c01ed5", "name": "0785b76837d0b096e9504ee2d6c01ed5", "lat": 38.90079766666667, "is_disabled": 0, "lon": -77.05004383333333, "fusion_lat": 0.0, "is_reserved": 0}, {"rental_uris": {"ios": "https://dc.lft.to/lastmile_qr_scan", "android": "https://dc.lft.to/lastmile_qr_scan"}, "fusion_lon": 0.0, "type": "electric_scooter", "bike_id": "bdb8658aa3e106c03ce4ed20a3ee7aaa", "name": "bdb8658aa3e106c03ce4ed20a3ee7aaa", "lat": 38.930192166666664, "is_disabled": 0, "lon": -77.03806616666667, "fusion_lat": 0.0, "is_reserved": 0}, {"rental_uris": {"ios": "https://dc.lft.to/lastmile_qr_scan", "android": "https://dc.lft.to/lastmile_qr_scan"}, "fusion_lon": 0.0, "type": "electric_scooter", "bike_id": "935e63c3ad29f7f370cf88adb2ae4b24", "name": "935e63c3ad29f7f370cf88adb2ae4b24", "lat": 38.890034, "is_disabled": 0, "lon": -76.93738466666667, "fusion_lat": 0.0, "is_reserved": 0}, {"rental_uris": {"ios": "https://dc.lft.to/lastmile_qr_scan", "android": "https://dc.lft.to/lastmile_qr_scan"}, "fusion_lon": 0.0, "type": "electric_scooter", "bike_id": "0c55334e05a9d01d0741fe7134a41e14", "name": "0c55334e05a9d01d0741fe7134a41e14", "lat": 38.89386566666667, "is_disabled": 0, "lon": -76.94998683333333, "fusion_lat": 0.0, "is_reserved": 0}, {"rental_uris": {"ios": "https://dc.lft.to/lastmile_qr_scan", "android": "https://dc.lft.to/lastmile_qr_scan"}, "fusion_lon": 0.0, "type": "electric_scooter", "bike_id": "9734a99381f66ff77213fbbbe0c1a837", "name": "9734a99381f66ff77213fbbbe0c1a837", "lat": 38.92726533333333, "is_disabled": 0, "lon": -77.022394, "fusion_lat": 0.0, "is_reserved": 0}, {"rental_uris": {"ios": "https://dc.lft.to/lastmile_qr_scan", "android": "https://dc.lft.to/lastmile_qr_scan"}, "fusion_lon": 0.0, "type": "electric_bike", "bike_id": "a26d41a9e893d4ce253edbd10ae878f1", "name": "a26d41a9e893d4ce253edbd10ae878f1", "lat": 38.90682566666667, "is_disabled": 0, "lon": -76.95193983333333, "fusion_lat": 0.0, "is_reserved": 0}, {"rental_uris": {"ios": "https://dc.lft.to/lastmile_qr_scan", "android": "https://dc.lft.to/lastmile_qr_scan"}, "fusion_lon": 0.0, "type": "electric_scooter", "bike_id": "4b34bba417839d60fd9fb4bb2a114387", "name": "4b34bba417839d60fd9fb4bb2a114387", "lat": 38.9209415, "is_disabled": 0, "lon": -77.02590066666667, "fusion_lat": 0.0, "is_reserved": 0}, {"rental_uris": {"ios": "https://dc.lft.to/lastmile_qr_scan", "android": "https://dc.lft.to/lastmile_qr_scan"}, "fusion_lon": 0.0, "type": "electric_scooter", "bike_id": "89bd039c24e8fe65265d7a3b76d55581", "name": "89bd039c24e8fe65265d7a3b76d55581", "lat": 38.8770195, "is_disabled": 0, "lon": -77.01651466666667, "fusion_lat": 0.0, "is_reserved": 0}, {"rental_uris": {"ios": "https://dc.lft.to/lastmile_qr_scan", "android": "https://dc.lft.to/lastmile_qr_scan"}, "fusion_lon": 0.0, "type": "electric_scooter", "bike_id": "5cdbe78e41c0509b6014a9a5a6032f55", "name": "5cdbe78e41c0509b6014a9a5a6032f55", "lat": 38.919814333333335, "is_disabled": 0, "lon": -77.041577, "fusion_lat": 0.0, "is_reserved": 0}, {"rental_uris": {"ios": "https://dc.lft.to/lastmile_qr_scan", "android": "https://dc.lft.to/lastmile_qr_scan"}, "fusion_lon": 0.0, "type": "electric_scooter", "bike_id": "68e2265df15d0689de3915877ba0d77e", "name": "68e2265df15d0689de3915877ba0d77e", "lat": 38.90525516666666, "is_disabled": 0, "lon": -77.05016516666667, "fusion_lat": 0.0, "is_reserved": 0}, {"rental_uris": {"ios": "https://dc.lft.to/lastmile_qr_scan", "android": "https://dc.lft.to/lastmile_qr_scan"}, "fusion_lon": 0.0, "type": "electric_scooter", "bike_id": "cc4076628c1d443694519781cd977832", "name": "cc4076628c1d443694519781cd977832", "lat": 38.884483833333334, "is_disabled": 0, "lon": -76.950956, "fusion_lat": 0.0, "is_reserved": 0}, {"rental_uris": {"ios": "https://dc.lft.to/lastmile_qr_scan", "android": "https://dc.lft.to/lastmile_qr_scan"}, "fusion_lon": 0.0, "type": "electric_scooter", "bike_id": "8b0bb9e405f01d829077e9bcf359b951", "name": "8b0bb9e405f01d829077e9bcf359b951", "lat": 38.908377, "is_disabled": 0, "lon": -77.0344825, "fusion_lat": 0.0, "is_reserved": 0}, {"rental_uris": {"ios": "https://dc.lft.to/lastmile_qr_scan", "android": "https://dc.lft.to/lastmile_qr_scan"}, "fusion_lon": 0.0, "type": "electric_scooter", "bike_id": "1555fdc9ad2913d05677292292b53edb", "name": "1555fdc9ad2913d05677292292b53edb", "lat": 38.90060583333333, "is_disabled": 0, "lon": -77.04772216666667, "fusion_lat": 0.0, "is_reserved": 0}, {"rental_uris": {"ios": "https://dc.lft.to/lastmile_qr_scan", "android": "https://dc.lft.to/lastmile_qr_scan"}, "fusion_lon": 0.0, "type": "electric_scooter", "bike_id": "f5c0c704fcc4d120506dcaf1b8ce5aaa", "name": "f5c0c704fcc4d120506dcaf1b8ce5aaa", "lat": 38.90381716666667, "is_disabled": 0, "lon": -77.03442516666667, "fusion_lat": 0.0, "is_reserved": 0}, {"rental_uris": {"ios": "https://dc.lft.to/lastmile_qr_scan", "android": "https://dc.lft.to/lastmile_qr_scan"}, "fusion_lon": 0.0, "type": "electric_scooter", "bike_id": "3c8f9c9657bd847022b83032c007f6e9", "name": "3c8f9c9657bd847022b83032c007f6e9", "lat": 38.922382666666664, "is_disabled": 0, "lon": -77.03662383333334, "fusion_lat": 0.0, "is_reserved": 0}, {"rental_uris": {"ios": "https://dc.lft.to/lastmile_qr_scan", "android": "https://dc.lft.to/lastmile_qr_scan"}, "fusion_lon": 0.0, "type": "electric_scooter", "bike_id": "4279e9c9e9c68e4c58de31a2f68c2669", "name": "4279e9c9e9c68e4c58de31a2f68c2669", "lat": 38.934104166666664, "is_disabled": 0, "lon": -77.0426465, "fusion_lat": 0.0, "is_reserved": 0}, {"rental_uris": {"ios": "https://dc.lft.to/lastmile_qr_scan", "android": "https://dc.lft.to/lastmile_qr_scan"}, "fusion_lon": 0.0, "type": "electric_scooter", "bike_id": "5881ae938c2faa41f1205a45e8cce113", "name": "5881ae938c2faa41f1205a45e8cce113", "lat": 38.935585833333334, "is_disabled": 0, "lon": -77.02494216666666, "fusion_lat": 0.0, "is_reserved": 0}, {"rental_uris": {"ios": "https://dc.lft.to/lastmile_qr_scan", "android": "https://dc.lft.to/lastmile_qr_scan"}, "fusion_lon": 0.0, "type": "electric_scooter", "bike_id": "74f6870e756683df19f7314ade42d5ab", "name": "74f6870e756683df19f7314ade42d5ab", "lat": 38.882856833333335, "is_disabled": 0, "lon": -76.99504133333333, "fusion_lat": 0.0, "is_reserved": 0}, {"rental_uris": {"ios": "https://dc.lft.to/lastmile_qr_scan", "android": "https://dc.lft.to/lastmile_qr_scan"}, "fusion_lon": 0.0, "type": "electric_bike", "bike_id": "1164890bc3477b83df05f3cdd67206bd", "name": "1164890bc3477b83df05f3cdd67206bd", "lat": 38.8957545, "is_disabled": 0, "lon": -76.97618866666667, "fusion_lat": 0.0, "is_reserved": 0}, {"rental_uris": {"ios": "https://dc.lft.to/lastmile_qr_scan", "android": "https://dc.lft.to/lastmile_qr_scan"}, "fusion_lon": 0.0, "type": "electric_scooter", "bike_id": "616209a6f7f96d171928be94800ab029", "name": "616209a6f7f96d171928be94800ab029", "lat": 38.897926166666664, "is_disabled": 0, "lon": -77.0281195, "fusion_lat": 0.0, "is_reserved": 0}, {"rental_uris": {"ios": "https://dc.lft.to/lastmile_qr_scan", "android": "https://dc.lft.to/lastmile_qr_scan"}, "fusion_lon": 0.0, "type": "electric_scooter", "bike_id": "801f1d485dc18514c9577525f0829d3b", "name": "801f1d485dc18514c9577525f0829d3b", "lat": 38.915370833333334, "is_disabled": 0, "lon": -77.03204666666667, "fusion_lat": 0.0, "is_reserved": 0}, {"rental_uris": {"ios": "https://dc.lft.to/lastmile_qr_scan", "android": "https://dc.lft.to/lastmile_qr_scan"}, "fusion_lon": 0.0, "type": "electric_scooter", "bike_id": "5365edc3a5d841b9182242e1bc9d8083", "name": "5365edc3a5d841b9182242e1bc9d8083", "lat": 38.918591666666664, "is_disabled": 0, "lon": -77.0445305, "fusion_lat": 0.0, "is_reserved": 0}, {"rental_uris": {"ios": "https://dc.lft.to/lastmile_qr_scan", "android": "https://dc.lft.to/lastmile_qr_scan"}, "fusion_lon": 0.0, "type": "electric_scooter", "bike_id": "42040695dec676d65e64c0653951af50", "name": "42040695dec676d65e64c0653951af50", "lat": 38.9064155, "is_disabled": 0, "lon": -77.02954266666667, "fusion_lat": 0.0, "is_reserved": 0}, {"rental_uris": {"ios": "https://dc.lft.to/lastmile_qr_scan", "android": "https://dc.lft.to/lastmile_qr_scan"}, "fusion_lon": 0.0, "type": "electric_scooter", "bike_id": "7b687068a72d7cdbfe10775d705bd12d", "name": "7b687068a72d7cdbfe10775d705bd12d", "lat": 38.86246833333333, "is_disabled": 0, "lon": -76.9953015, "fusion_lat": 0.0, "is_reserved": 0}, {"rental_uris": {"ios": "https://dc.lft.to/lastmile_qr_scan", "android": "https://dc.lft.to/lastmile_qr_scan"}, "fusion_lon": 0.0, "type": "electric_scooter", "bike_id": "12c9f601e8c6e61c7651d6885b4dbeb5", "name": "12c9f601e8c6e61c7651d6885b4dbeb5", "lat": 38.885093833333336, "is_disabled": 0, "lon": -76.99851133333334, "fusion_lat": 0.0, "is_reserved": 0}, {"rental_uris": {"ios": "https://dc.lft.to/lastmile_qr_scan", "android": "https://dc.lft.to/lastmile_qr_scan"}, "fusion_lon": 0.0, "type": "electric_scooter", "bike_id": "0f5293fb5dca19137c9b7fe4ceac26fb", "name": "0f5293fb5dca19137c9b7fe4ceac26fb", "lat": 38.90578383333333, "is_disabled": 0, "lon": -77.02384166666667, "fusion_lat": 0.0, "is_reserved": 0}, {"rental_uris": {"ios": "https://dc.lft.to/lastmile_qr_scan", "android": "https://dc.lft.to/lastmile_qr_scan"}, "fusion_lon": 0.0, "type": "electric_bike", "bike_id": "2c100bd36fd9726bc1a33434411606cb", "name": "2c100bd36fd9726bc1a33434411606cb", "lat": 38.988244, "is_disabled": 0, "lon": -76.9875315, "fusion_lat": 0.0, "is_reserved": 0}, {"rental_uris": {"ios": "https://dc.lft.to/lastmile_qr_scan", "android": "https://dc.lft.to/lastmile_qr_scan"}, "fusion_lon": 0.0, "type": "electric_scooter", "bike_id": "30f204a24494f117b50d508d40d0949c", "name": "30f204a24494f117b50d508d40d0949c", "lat": 38.900256666666664, "is_disabled": 0, "lon": -77.0118685, "fusion_lat": 0.0, "is_reserved": 0}, {"rental_uris": {"ios": "https://dc.lft.to/lastmile_qr_scan", "android": "https://dc.lft.to/lastmile_qr_scan"}, "fusion_lon": 0.0, "type": "electric_scooter", "bike_id": "0432b236878786b50cfdee17b66992af", "name": "0432b236878786b50cfdee17b66992af", "lat": 38.880137500000004, "is_disabled": 0, "lon": -76.9311555, "fusion_lat": 0.0, "is_reserved": 0}, {"rental_uris": {"ios": "https://dc.lft.to/lastmile_qr_scan", "android": "https://dc.lft.to/lastmile_qr_scan"}, "fusion_lon": 0.0, "type": "electric_scooter", "bike_id": "1802c16c9f1d88acd778c1bb6595c1f6", "name": "1802c16c9f1d88acd778c1bb6595c1f6", "lat": 38.895263166666666, "is_disabled": 0, "lon": -77.0283685, "fusion_lat": 0.0, "is_reserved": 0}, {"rental_uris": {"ios": "https://dc.lft.to/lastmile_qr_scan", "android": "https://dc.lft.to/lastmile_qr_scan"}, "fusion_lon": 0.0, "type": "electric_scooter", "bike_id": "f4f2d0346d6e2fe06018a1dc31656a85", "name": "f4f2d0346d6e2fe06018a1dc31656a85", "lat": 38.853241, "is_disabled": 0, "lon": -76.96602116666666, "fusion_lat": 0.0, "is_reserved": 0}, {"rental_uris": {"ios": "https://dc.lft.to/lastmile_qr_scan", "android": "https://dc.lft.to/lastmile_qr_scan"}, "fusion_lon": 0.0, "type": "electric_scooter", "bike_id": "54bccc1d4243ab54d1653417fac1f5ee", "name": "54bccc1d4243ab54d1653417fac1f5ee", "lat": 38.9040055, "is_disabled": 0, "lon": -77.02800416666666, "fusion_lat": 0.0, "is_reserved": 0}, {"rental_uris": {"ios": "https://dc.lft.to/lastmile_qr_scan", "android": "https://dc.lft.to/lastmile_qr_scan"}, "fusion_lon": 0.0, "type": "electric_scooter", "bike_id": "b1ec19f696f7cb8a100e6f8465c6030a", "name": "b1ec19f696f7cb8a100e6f8465c6030a", "lat": 38.895769666666666, "is_disabled": 0, "lon": -77.02309966666667, "fusion_lat": 0.0, "is_reserved": 0}, {"rental_uris": {"ios": "https://dc.lft.to/lastmile_qr_scan", "android": "https://dc.lft.to/lastmile_qr_scan"}, "fusion_lon": 0.0, "type": "electric_bike", "bike_id": "b9b7342026912873f818d4bd2291cd55", "name": "b9b7342026912873f818d4bd2291cd55", "lat": 38.9198645, "is_disabled": 0, "lon": -76.97313733333333, "fusion_lat": 0.0, "is_reserved": 0}, {"rental_uris": {"ios": "https://dc.lft.to/lastmile_qr_scan", "android": "https://dc.lft.to/lastmile_qr_scan"}, "fusion_lon": 0.0, "type": "electric_scooter", "bike_id": "539a7bc819e8ae24b99ae2585434b0cf", "name": "539a7bc819e8ae24b99ae2585434b0cf", "lat": 38.895369, "is_disabled": 0, "lon": -77.016229, "fusion_lat": 0.0, "is_reserved": 0}, {"rental_uris": {"ios": "https://dc.lft.to/lastmile_qr_scan", "android": "https://dc.lft.to/lastmile_qr_scan"}, "fusion_lon": 0.0, "type": "electric_scooter", "bike_id": "2a271e1dc7d224a8d82f9a112c9372ac", "name": "2a271e1dc7d224a8d82f9a112c9372ac", "lat": 38.89834333333334, "is_disabled": 0, "lon": -76.94633233333333, "fusion_lat": 0.0, "is_reserved": 0}, {"rental_uris": {"ios": "https://dc.lft.to/lastmile_qr_scan", "android": "https://dc.lft.to/lastmile_qr_scan"}, "fusion_lon": 0.0, "type": "electric_scooter", "bike_id": "f2c3e0dd7f0e5ca79ae0993190c3afcf", "name": "f2c3e0dd7f0e5ca79ae0993190c3afcf", "lat": 38.93304333333333, "is_disabled": 0, "lon": -77.03265, "fusion_lat": 0.0, "is_reserved": 0}, {"rental_uris": {"ios": "https://dc.lft.to/lastmile_qr_scan", "android": "https://dc.lft.to/lastmile_qr_scan"}, "fusion_lon": 0.0, "type": "electric_bike", "bike_id": "b6f7c59afb8d4a0e92cbcc29c1e01c03", "name": "b6f7c59afb8d4a0e92cbcc29c1e01c03", "lat": 38.935512, "is_disabled": 0, "lon": -77.08182083333334, "fusion_lat": 0.0, "is_reserved": 0}, {"rental_uris": {"ios": "https://dc.lft.to/lastmile_qr_scan", "android": "https://dc.lft.to/lastmile_qr_scan"}, "fusion_lon": 0.0, "type": "electric_scooter", "bike_id": "c7b71dc7dfdf8f395f6406541399aefa", "name": "c7b71dc7dfdf8f395f6406541399aefa", "lat": 38.916012333333335, "is_disabled": 0, "lon": -77.04015983333333, "fusion_lat": 0.0, "is_reserved": 0}, {"rental_uris": {"ios": "https://dc.lft.to/lastmile_qr_scan", "android": "https://dc.lft.to/lastmile_qr_scan"}, "fusion_lon": 0.0, "type": "electric_scooter", "bike_id": "7457d333285d8cdf9af830eb7e85028b", "name": "7457d333285d8cdf9af830eb7e85028b", "lat": 38.9045555, "is_disabled": 0, "lon": -77.02814733333334, "fusion_lat": 0.0, "is_reserved": 0}, {"rental_uris": {"ios": "https://dc.lft.to/lastmile_qr_scan", "android": "https://dc.lft.to/lastmile_qr_scan"}, "fusion_lon": 0.0, "type": "electric_scooter", "bike_id": "5e87a3df5c7f82dbca0ca44b4ba4d796", "name": "5e87a3df5c7f82dbca0ca44b4ba4d796", "lat": 38.90265616666667, "is_disabled": 0, "lon": -77.02996383333333, "fusion_lat": 0.0, "is_reserved": 0}, {"rental_uris": {"ios": "https://dc.lft.to/lastmile_qr_scan", "android": "https://dc.lft.to/lastmile_qr_scan"}, "fusion_lon": 0.0, "type": "electric_bike", "bike_id": "bf1854bac514e2ffd9e7ec96b45cd311", "name": "bf1854bac514e2ffd9e7ec96b45cd311", "lat": 38.975385833333334, "is_disabled": 0, "lon": -76.9952945, "fusion_lat": 0.0, "is_reserved": 0}, {"rental_uris": {"ios": "https://dc.lft.to/lastmile_qr_scan", "android": "https://dc.lft.to/lastmile_qr_scan"}, "fusion_lon": 0.0, "type": "electric_scooter", "bike_id": "067a43e918df7ab276e45731ba044eb7", "name": "067a43e918df7ab276e45731ba044eb7", "lat": 38.92717783333333, "is_disabled": 0, "lon": -77.04193716666667, "fusion_lat": 0.0, "is_reserved": 0}, {"rental_uris": {"ios": "https://dc.lft.to/lastmile_qr_scan", "android": "https://dc.lft.to/lastmile_qr_scan"}, "fusion_lon": 0.0, "type": "electric_scooter", "bike_id": "e9a634cd7588637c18047dc4723cbb27", "name": "e9a634cd7588637c18047dc4723cbb27", "lat": 38.916912333333336, "is_disabled": 0, "lon": -77.02990433333333, "fusion_lat": 0.0, "is_reserved": 0}, {"rental_uris": {"ios": "https://dc.lft.to/lastmile_qr_scan", "android": "https://dc.lft.to/lastmile_qr_scan"}, "fusion_lon": 0.0, "type": "electric_scooter", "bike_id": "91f943ac79a71baea4a06aabf6603331", "name": "91f943ac79a71baea4a06aabf6603331", "lat": 38.89936466666666, "is_disabled": 0, "lon": -77.02946633333333, "fusion_lat": 0.0, "is_reserved": 0}, {"rental_uris": {"ios": "https://dc.lft.to/lastmile_qr_scan", "android": "https://dc.lft.to/lastmile_qr_scan"}, "fusion_lon": 0.0, "type": "electric_scooter", "bike_id": "cefb9b17356e5676731a49ae5691d8e4", "name": "cefb9b17356e5676731a49ae5691d8e4", "lat": 38.905006, "is_disabled": 0, "lon": -77.02945516666666, "fusion_lat": 0.0, "is_reserved": 0}, {"rental_uris": {"ios": "https://dc.lft.to/lastmile_qr_scan", "android": "https://dc.lft.to/lastmile_qr_scan"}, "fusion_lon": 0.0, "type": "electric_scooter", "bike_id": "93d05650d3c06faa4f91a9f3e064cce5", "name": "93d05650d3c06faa4f91a9f3e064cce5", "lat": 38.884968666666666, "is_disabled": 0, "lon": -77.0208245, "fusion_lat": 0.0, "is_reserved": 0}, {"rental_uris": {"ios": "https://dc.lft.to/lastmile_qr_scan", "android": "https://dc.lft.to/lastmile_qr_scan"}, "fusion_lon": 0.0, "type": "electric_scooter", "bike_id": "47dd9090ce71b9eab1bca5dcaff80e25", "name": "47dd9090ce71b9eab1bca5dcaff80e25", "lat": 38.900146666666664, "is_disabled": 0, "lon": -77.03325333333333, "fusion_lat": 0.0, "is_reserved": 0}, {"rental_uris": {"ios": "https://dc.lft.to/lastmile_qr_scan", "android": "https://dc.lft.to/lastmile_qr_scan"}, "fusion_lon": 0.0, "type": "electric_scooter", "bike_id": "c91698164bb0fffaf46b2ad8d18fca60", "name": "c91698164bb0fffaf46b2ad8d18fca60", "lat": 38.90951866666666, "is_disabled": 0, "lon": -77.02712433333333, "fusion_lat": 0.0, "is_reserved": 0}, {"rental_uris": {"ios": "https://dc.lft.to/lastmile_qr_scan", "android": "https://dc.lft.to/lastmile_qr_scan"}, "fusion_lon": 0.0, "type": "electric_bike", "bike_id": "9b26b33089d32f02d75a893b96061b6a", "name": "9b26b33089d32f02d75a893b96061b6a", "lat": 38.91588083333333, "is_disabled": 0, "lon": -76.97149766666666, "fusion_lat": 0.0, "is_reserved": 0}, {"rental_uris": {"ios": "https://dc.lft.to/lastmile_qr_scan", "android": "https://dc.lft.to/lastmile_qr_scan"}, "fusion_lon": 0.0, "type": "electric_scooter", "bike_id": "b7e31c0c0878fc8f7330eb4bdbce0e98", "name": "b7e31c0c0878fc8f7330eb4bdbce0e98", "lat": 38.90889833333333, "is_disabled": 0, "lon": -77.03393683333333, "fusion_lat": 0.0, "is_reserved": 0}, {"rental_uris": {"ios": "https://dc.lft.to/lastmile_qr_scan", "android": "https://dc.lft.to/lastmile_qr_scan"}, "fusion_lon": 0.0, "type": "electric_scooter", "bike_id": "986c4c8cf053d9675731122a680c02ff", "name": "986c4c8cf053d9675731122a680c02ff", "lat": 38.929969166666666, "is_disabled": 0, "lon": -77.0220665, "fusion_lat": 0.0, "is_reserved": 0}, {"rental_uris": {"ios": "https://dc.lft.to/lastmile_qr_scan", "android": "https://dc.lft.to/lastmile_qr_scan"}, "fusion_lon": 0.0, "type": "electric_bike", "bike_id": "d15925c9dde0e812003fa0e997bede7e", "name": "d15925c9dde0e812003fa0e997bede7e", "lat": 38.88384816666667, "is_disabled": 0, "lon": -77.01779883333333, "fusion_lat": 0.0, "is_reserved": 0}, {"rental_uris": {"ios": "https://dc.lft.to/lastmile_qr_scan", "android": "https://dc.lft.to/lastmile_qr_scan"}, "fusion_lon": 0.0, "type": "electric_bike", "bike_id": "bf3e193f70d0fa3eddbe463d2a6252ab", "name": "bf3e193f70d0fa3eddbe463d2a6252ab", "lat": 38.8690645, "is_disabled": 0, "lon": -77.13181833333333, "fusion_lat": 0.0, "is_reserved": 0}, {"rental_uris": {"ios": "https://dc.lft.to/lastmile_qr_scan", "android": "https://dc.lft.to/lastmile_qr_scan"}, "fusion_lon": 0.0, "type": "electric_bike", "bike_id": "9a16369438204148eb31802d6668d489", "name": "9a16369438204148eb31802d6668d489", "lat": 38.92055766666667, "is_disabled": 0, "lon": -77.075357, "fusion_lat": 0.0, "is_reserved": 0}, {"rental_uris": {"ios": "https://dc.lft.to/lastmile_qr_scan", "android": "https://dc.lft.to/lastmile_qr_scan"}, "fusion_lon": 0.0, "type": "electric_scooter", "bike_id": "45fe1d014851c28b2a4f38a648494d40", "name": "45fe1d014851c28b2a4f38a648494d40", "lat": 38.92468916666667, "is_disabled": 0, "lon": -77.02984083333334, "fusion_lat": 0.0, "is_reserved": 0}, {"rental_uris": {"ios": "https://dc.lft.to/lastmile_qr_scan", "android": "https://dc.lft.to/lastmile_qr_scan"}, "fusion_lon": 0.0, "type": "electric_scooter", "bike_id": "9056e5d93001387a2d7996159b6d58b6", "name": "9056e5d93001387a2d7996159b6d58b6", "lat": 38.92049216666667, "is_disabled": 0, "lon": -77.02612833333333, "fusion_lat": 0.0, "is_reserved": 0}, {"rental_uris": {"ios": "https://dc.lft.to/lastmile_qr_scan", "android": "https://dc.lft.to/lastmile_qr_scan"}, "fusion_lon": 0.0, "type": "electric_scooter", "bike_id": "d5834438ccc4366cde0c8558b057c79c", "name": "d5834438ccc4366cde0c8558b057c79c", "lat": 38.896294, "is_disabled": 0, "lon": -77.02788466666667, "fusion_lat": 0.0, "is_reserved": 0}, {"rental_uris": {"ios": "https://dc.lft.to/lastmile_qr_scan", "android": "https://dc.lft.to/lastmile_qr_scan"}, "fusion_lon": 0.0, "type": "electric_scooter", "bike_id": "3bd5555502a757f275444ed8a6ecdf54", "name": "3bd5555502a757f275444ed8a6ecdf54", "lat": 38.86208533333333, "is_disabled": 0, "lon": -76.99472183333333, "fusion_lat": 0.0, "is_reserved": 0}, {"rental_uris": {"ios": "https://dc.lft.to/lastmile_qr_scan", "android": "https://dc.lft.to/lastmile_qr_scan"}, "fusion_lon": 0.0, "type": "electric_scooter", "bike_id": "402f514df346c5bfa198ba91d540ac89", "name": "402f514df346c5bfa198ba91d540ac89", "lat": 38.90361133333333, "is_disabled": 0, "lon": -77.06270983333333, "fusion_lat": 0.0, "is_reserved": 0}, {"rental_uris": {"ios": "https://dc.lft.to/lastmile_qr_scan", "android": "https://dc.lft.to/lastmile_qr_scan"}, "fusion_lon": 0.0, "type": "electric_scooter", "bike_id": "ded539a5793f92a50bb03684044884bd", "name": "ded539a5793f92a50bb03684044884bd", "lat": 38.90580333333333, "is_disabled": 0, "lon": -77.00384716666667, "fusion_lat": 0.0, "is_reserved": 0}, {"rental_uris": {"ios": "https://dc.lft.to/lastmile_qr_scan", "android": "https://dc.lft.to/lastmile_qr_scan"}, "fusion_lon": 0.0, "type": "electric_scooter", "bike_id": "d058f7c3a7e5b20937fa242c414f2bc7", "name": "d058f7c3a7e5b20937fa242c414f2bc7", "lat": 38.9195165, "is_disabled": 0, "lon": -77.03207133333333, "fusion_lat": 0.0, "is_reserved": 0}, {"rental_uris": {"ios": "https://dc.lft.to/lastmile_qr_scan", "android": "https://dc.lft.to/lastmile_qr_scan"}, "fusion_lon": 0.0, "type": "electric_scooter", "bike_id": "3503d59b228cca01f3a6914decf2c238", "name": "3503d59b228cca01f3a6914decf2c238", "lat": 38.8870385, "is_disabled": 0, "lon": -77.01365466666667, "fusion_lat": 0.0, "is_reserved": 0}, {"rental_uris": {"ios": "https://dc.lft.to/lastmile_qr_scan", "android": "https://dc.lft.to/lastmile_qr_scan"}, "fusion_lon": 0.0, "type": "electric_scooter", "bike_id": "9381e2f8fa8da79c1b6ac806bbce616d", "name": "9381e2f8fa8da79c1b6ac806bbce616d", "lat": 38.9013975, "is_disabled": 0, "lon": -77.017789, "fusion_lat": 0.0, "is_reserved": 0}, {"rental_uris": {"ios": "https://dc.lft.to/lastmile_qr_scan", "android": "https://dc.lft.to/lastmile_qr_scan"}, "fusion_lon": 0.0, "type": "electric_scooter", "bike_id": "4b2165ec06583457b57ce5b040c2d8c0", "name": "4b2165ec06583457b57ce5b040c2d8c0", "lat": 38.9056475, "is_disabled": 0, "lon": -77.00545566666666, "fusion_lat": 0.0, "is_reserved": 0}, {"rental_uris": {"ios": "https://dc.lft.to/lastmile_qr_scan", "android": "https://dc.lft.to/lastmile_qr_scan"}, "fusion_lon": 0.0, "type": "electric_scooter", "bike_id": "be572a28bda0b6cb69309acf6a4d1843", "name": "be572a28bda0b6cb69309acf6a4d1843", "lat": 38.908131166666664, "is_disabled": 0, "lon": -77.0393995, "fusion_lat": 0.0, "is_reserved": 0}, {"rental_uris": {"ios": "https://dc.lft.to/lastmile_qr_scan", "android": "https://dc.lft.to/lastmile_qr_scan"}, "fusion_lon": 0.0, "type": "electric_scooter", "bike_id": "4b73f833947852d8f0f974e725c6e7d1", "name": "4b73f833947852d8f0f974e725c6e7d1", "lat": 38.908379333333336, "is_disabled": 0, "lon": -76.996999, "fusion_lat": 0.0, "is_reserved": 0}, {"rental_uris": {"ios": "https://dc.lft.to/lastmile_qr_scan", "android": "https://dc.lft.to/lastmile_qr_scan"}, "fusion_lon": 0.0, "type": "electric_scooter", "bike_id": "109be1153c345556a120db73a3069a5a", "name": "109be1153c345556a120db73a3069a5a", "lat": 38.9057815, "is_disabled": 0, "lon": -77.03860216666666, "fusion_lat": 0.0, "is_reserved": 0}, {"rental_uris": {"ios": "https://dc.lft.to/lastmile_qr_scan", "android": "https://dc.lft.to/lastmile_qr_scan"}, "fusion_lon": 0.0, "type": "electric_scooter", "bike_id": "1c8cb95bd5a4e1011bbd1e92ba6c9c30", "name": "1c8cb95bd5a4e1011bbd1e92ba6c9c30", "lat": 38.90622, "is_disabled": 0, "lon": -77.03964933333333, "fusion_lat": 0.0, "is_reserved": 0}, {"rental_uris": {"ios": "https://dc.lft.to/lastmile_qr_scan", "android": "https://dc.lft.to/lastmile_qr_scan"}, "fusion_lon": 0.0, "type": "electric_bike", "bike_id": "5770c349bb8fa76c8e1724c56c01c1f3", "name": "5770c349bb8fa76c8e1724c56c01c1f3", "lat": 38.845168, "is_disabled": 0, "lon": -77.07794416666667, "fusion_lat": 0.0, "is_reserved": 0}, {"rental_uris": {"ios": "https://dc.lft.to/lastmile_qr_scan", "android": "https://dc.lft.to/lastmile_qr_scan"}, "fusion_lon": 0.0, "type": "electric_scooter", "bike_id": "411b46abdd1c033f17113d06878f8041", "name": "411b46abdd1c033f17113d06878f8041", "lat": 38.92029433333333, "is_disabled": 0, "lon": -77.04815316666667, "fusion_lat": 0.0, "is_reserved": 0}, {"rental_uris": {"ios": "https://dc.lft.to/lastmile_qr_scan", "android": "https://dc.lft.to/lastmile_qr_scan"}, "fusion_lon": 0.0, "type": "electric_bike", "bike_id": "749fd5f8403239fa98ea60f0a77ed686", "name": "749fd5f8403239fa98ea60f0a77ed686", "lat": 38.90977816666667, "is_disabled": 0, "lon": -77.08831083333334, "fusion_lat": 0.0, "is_reserved": 0}, {"rental_uris": {"ios": "https://dc.lft.to/lastmile_qr_scan", "android": "https://dc.lft.to/lastmile_qr_scan"}, "fusion_lon": 0.0, "type": "electric_scooter", "bike_id": "e3fc023ae057da8ce80778c841d9b97f", "name": "e3fc023ae057da8ce80778c841d9b97f", "lat": 38.90235416666667, "is_disabled": 0, "lon": -77.04545516666667, "fusion_lat": 0.0, "is_reserved": 0}, {"rental_uris": {"ios": "https://dc.lft.to/lastmile_qr_scan", "android": "https://dc.lft.to/lastmile_qr_scan"}, "fusion_lon": 0.0, "type": "electric_scooter", "bike_id": "e6fc3eab89573d103f66ee8d2c6809c7", "name": "e6fc3eab89573d103f66ee8d2c6809c7", "lat": 38.881198499999996, "is_disabled": 0, "lon": -77.020712, "fusion_lat": 0.0, "is_reserved": 0}, {"rental_uris": {"ios": "https://dc.lft.to/lastmile_qr_scan", "android": "https://dc.lft.to/lastmile_qr_scan"}, "fusion_lon": 0.0, "type": "electric_bike", "bike_id": "2574546ed8f30b7619892c63b1df572e", "name": "2574546ed8f30b7619892c63b1df572e", "lat": 38.92346633333333, "is_disabled": 0, "lon": -76.99248416666667, "fusion_lat": 0.0, "is_reserved": 0}, {"rental_uris": {"ios": "https://dc.lft.to/lastmile_qr_scan", "android": "https://dc.lft.to/lastmile_qr_scan"}, "fusion_lon": 0.0, "type": "electric_scooter", "bike_id": "07706b230a135ff3b914c9225c373c37", "name": "07706b230a135ff3b914c9225c373c37", "lat": 38.8922025, "is_disabled": 0, "lon": -77.02218816666667, "fusion_lat": 0.0, "is_reserved": 0}, {"rental_uris": {"ios": "https://dc.lft.to/lastmile_qr_scan", "android": "https://dc.lft.to/lastmile_qr_scan"}, "fusion_lon": 0.0, "type": "electric_scooter", "bike_id": "1de8e71b0a45b8489370b74fedf25cfc", "name": "1de8e71b0a45b8489370b74fedf25cfc", "lat": 38.91788066666667, "is_disabled": 0, "lon": -77.04355733333334, "fusion_lat": 0.0, "is_reserved": 0}, {"rental_uris": {"ios": "https://dc.lft.to/lastmile_qr_scan", "android": "https://dc.lft.to/lastmile_qr_scan"}, "fusion_lon": 0.0, "type": "electric_bike", "bike_id": "87b7c8c9a90fb6c93bef41f8302ceda1", "name": "87b7c8c9a90fb6c93bef41f8302ceda1", "lat": 38.867918, "is_disabled": 0, "lon": -77.01455, "fusion_lat": 0.0, "is_reserved": 0}, {"rental_uris": {"ios": "https://dc.lft.to/lastmile_qr_scan", "android": "https://dc.lft.to/lastmile_qr_scan"}, "fusion_lon": 0.0, "type": "electric_scooter", "bike_id": "010914d81bd51ef1ecf45609e03a39b9", "name": "010914d81bd51ef1ecf45609e03a39b9", "lat": 38.906293833333336, "is_disabled": 0, "lon": -77.0691325, "fusion_lat": 0.0, "is_reserved": 0}, {"rental_uris": {"ios": "https://dc.lft.to/lastmile_qr_scan", "android": "https://dc.lft.to/lastmile_qr_scan"}, "fusion_lon": 0.0, "type": "electric_bike", "bike_id": "62d0d2d9814c6cb641ed33de3707ac7d", "name": "62d0d2d9814c6cb641ed33de3707ac7d", "lat": 38.990718333333334, "is_disabled": 0, "lon": -77.023823, "fusion_lat": 0.0, "is_reserved": 0}, {"rental_uris": {"ios": "https://dc.lft.to/lastmile_qr_scan", "android": "https://dc.lft.to/lastmile_qr_scan"}, "fusion_lon": 0.0, "type": "electric_scooter", "bike_id": "8bd7333bd86e7120b588ed481709b97c", "name": "8bd7333bd86e7120b588ed481709b97c", "lat": 38.90726183333334, "is_disabled": 0, "lon": -77.02984733333334, "fusion_lat": 0.0, "is_reserved": 0}, {"rental_uris": {"ios": "https://dc.lft.to/lastmile_qr_scan", "android": "https://dc.lft.to/lastmile_qr_scan"}, "fusion_lon": 0.0, "type": "electric_scooter", "bike_id": "85e8d6544d1212af0386688e05d63980", "name": "85e8d6544d1212af0386688e05d63980", "lat": 38.89753266666666, "is_disabled": 0, "lon": -77.02654966666667, "fusion_lat": 0.0, "is_reserved": 0}, {"rental_uris": {"ios": "https://dc.lft.to/lastmile_qr_scan", "android": "https://dc.lft.to/lastmile_qr_scan"}, "fusion_lon": 0.0, "type": "electric_scooter", "bike_id": "5ed5824de3d8011acf7512388c21ab78", "name": "5ed5824de3d8011acf7512388c21ab78", "lat": 38.88412783333333, "is_disabled": 0, "lon": -77.03300516666667, "fusion_lat": 0.0, "is_reserved": 0}, {"rental_uris": {"ios": "https://dc.lft.to/lastmile_qr_scan", "android": "https://dc.lft.to/lastmile_qr_scan"}, "fusion_lon": 0.0, "type": "electric_scooter", "bike_id": "4e3a67d7f7ee88a2f629d07cb7f2979c", "name": "4e3a67d7f7ee88a2f629d07cb7f2979c", "lat": 38.893535666666665, "is_disabled": 0, "lon": -77.0033465, "fusion_lat": 0.0, "is_reserved": 0}, {"rental_uris": {"ios": "https://dc.lft.to/lastmile_qr_scan", "android": "https://dc.lft.to/lastmile_qr_scan"}, "fusion_lon": 0.0, "type": "electric_bike", "bike_id": "ab20fdf4d8a6b28fbd2f1c017197f507", "name": "ab20fdf4d8a6b28fbd2f1c017197f507", "lat": 38.857115666666665, "is_disabled": 0, "lon": -76.981132, "fusion_lat": 0.0, "is_reserved": 0}, {"rental_uris": {"ios": "https://dc.lft.to/lastmile_qr_scan", "android": "https://dc.lft.to/lastmile_qr_scan"}, "fusion_lon": 0.0, "type": "electric_scooter", "bike_id": "bca3dfc80d52123f58962f080305a427", "name": "bca3dfc80d52123f58962f080305a427", "lat": 38.86239166666667, "is_disabled": 0, "lon": -76.9949305, "fusion_lat": 0.0, "is_reserved": 0}, {"rental_uris": {"ios": "https://dc.lft.to/lastmile_qr_scan", "android": "https://dc.lft.to/lastmile_qr_scan"}, "fusion_lon": 0.0, "type": "electric_bike", "bike_id": "9c131364060191e39143381c467bd920", "name": "9c131364060191e39143381c467bd920", "lat": 39.11504083333333, "is_disabled": 0, "lon": -77.19548116666667, "fusion_lat": 0.0, "is_reserved": 0}, {"rental_uris": {"ios": "https://dc.lft.to/lastmile_qr_scan", "android": "https://dc.lft.to/lastmile_qr_scan"}, "fusion_lon": 0.0, "type": "electric_scooter", "bike_id": "28d7e437688214e7a92de5ceffc90fe8", "name": "28d7e437688214e7a92de5ceffc90fe8", "lat": 38.8975605, "is_disabled": 0, "lon": -77.02185933333334, "fusion_lat": 0.0, "is_reserved": 0}, {"rental_uris": {"ios": "https://dc.lft.to/lastmile_qr_scan", "android": "https://dc.lft.to/lastmile_qr_scan"}, "fusion_lon": 0.0, "type": "electric_scooter", "bike_id": "17f4851a6993e03bfe44187598e216c2", "name": "17f4851a6993e03bfe44187598e216c2", "lat": 38.942796333333334, "is_disabled": 0, "lon": -77.02346416666667, "fusion_lat": 0.0, "is_reserved": 0}, {"rental_uris": {"ios": "https://dc.lft.to/lastmile_qr_scan", "android": "https://dc.lft.to/lastmile_qr_scan"}, "fusion_lon": 0.0, "type": "electric_scooter", "bike_id": "bbc8f858350f7a87929bea12e002c56e", "name": "bbc8f858350f7a87929bea12e002c56e", "lat": 38.9285735, "is_disabled": 0, "lon": -77.034304, "fusion_lat": 0.0, "is_reserved": 0}, {"rental_uris": {"ios": "https://dc.lft.to/lastmile_qr_scan", "android": "https://dc.lft.to/lastmile_qr_scan"}, "fusion_lon": 0.0, "type": "electric_scooter", "bike_id": "760613f0e7236bdf9a08c9a6244c3d5a", "name": "760613f0e7236bdf9a08c9a6244c3d5a", "lat": 38.838111, "is_disabled": 0, "lon": -77.00433383333333, "fusion_lat": 0.0, "is_reserved": 0}, {"rental_uris": {"ios": "https://dc.lft.to/lastmile_qr_scan", "android": "https://dc.lft.to/lastmile_qr_scan"}, "fusion_lon": 0.0, "type": "electric_scooter", "bike_id": "08e8c12f38c1cb20bb353837fb1a9141", "name": "08e8c12f38c1cb20bb353837fb1a9141", "lat": 38.930467166666666, "is_disabled": 0, "lon": -77.00413533333334, "fusion_lat": 0.0, "is_reserved": 0}, {"rental_uris": {"ios": "https://dc.lft.to/lastmile_qr_scan", "android": "https://dc.lft.to/lastmile_qr_scan"}, "fusion_lon": 0.0, "type": "electric_scooter", "bike_id": "6b6a82ab5458aca6af4e1eef590655d5", "name": "6b6a82ab5458aca6af4e1eef590655d5", "lat": 38.91558066666666, "is_disabled": 0, "lon": -77.04677816666667, "fusion_lat": 0.0, "is_reserved": 0}, {"rental_uris": {"ios": "https://dc.lft.to/lastmile_qr_scan", "android": "https://dc.lft.to/lastmile_qr_scan"}, "fusion_lon": 0.0, "type": "electric_scooter", "bike_id": "b9b60450a27f7f3075863b9962da7574", "name": "b9b60450a27f7f3075863b9962da7574", "lat": 38.9103985, "is_disabled": 0, "lon": -77.03620133333334, "fusion_lat": 0.0, "is_reserved": 0}, {"rental_uris": {"ios": "https://dc.lft.to/lastmile_qr_scan", "android": "https://dc.lft.to/lastmile_qr_scan"}, "fusion_lon": 0.0, "type": "electric_bike", "bike_id": "70be596217e2a3ad52f01c4a0c420f97", "name": "70be596217e2a3ad52f01c4a0c420f97", "lat": 38.903295, "is_disabled": 0, "lon": -76.97531783333334, "fusion_lat": 0.0, "is_reserved": 0}, {"rental_uris": {"ios": "https://dc.lft.to/lastmile_qr_scan", "android": "https://dc.lft.to/lastmile_qr_scan"}, "fusion_lon": 0.0, "type": "electric_scooter", "bike_id": "47d56ab450c262a5c9e0bcf7e904a625", "name": "47d56ab450c262a5c9e0bcf7e904a625", "lat": 38.8858285, "is_disabled": 0, "lon": -77.01225716666667, "fusion_lat": 0.0, "is_reserved": 0}, {"rental_uris": {"ios": "https://dc.lft.to/lastmile_qr_scan", "android": "https://dc.lft.to/lastmile_qr_scan"}, "fusion_lon": 0.0, "type": "electric_scooter", "bike_id": "1998b3488b5bfa0714c6a1946a6621d7", "name": "1998b3488b5bfa0714c6a1946a6621d7", "lat": 38.934932833333335, "is_disabled": 0, "lon": -77.027159, "fusion_lat": 0.0, "is_reserved": 0}, {"rental_uris": {"ios": "https://dc.lft.to/lastmile_qr_scan", "android": "https://dc.lft.to/lastmile_qr_scan"}, "fusion_lon": 0.0, "type": "electric_scooter", "bike_id": "6aadb76bdf12a167760c6c7fcc389dd3", "name": "6aadb76bdf12a167760c6c7fcc389dd3", "lat": 38.90061766666667, "is_disabled": 0, "lon": -77.0488955, "fusion_lat": 0.0, "is_reserved": 0}, {"rental_uris": {"ios": "https://dc.lft.to/lastmile_qr_scan", "android": "https://dc.lft.to/lastmile_qr_scan"}, "fusion_lon": 0.0, "type": "electric_scooter", "bike_id": "c9c39b19e301e65003db76180303497f", "name": "c9c39b19e301e65003db76180303497f", "lat": 38.91598316666666, "is_disabled": 0, "lon": -77.02337666666666, "fusion_lat": 0.0, "is_reserved": 0}, {"rental_uris": {"ios": "https://dc.lft.to/lastmile_qr_scan", "android": "https://dc.lft.to/lastmile_qr_scan"}, "fusion_lon": 0.0, "type": "electric_scooter", "bike_id": "6883d4830d1d2a98c0f807611a26206d", "name": "6883d4830d1d2a98c0f807611a26206d", "lat": 38.92052366666667, "is_disabled": 0, "lon": -76.99883383333334, "fusion_lat": 0.0, "is_reserved": 0}, {"rental_uris": {"ios": "https://dc.lft.to/lastmile_qr_scan", "android": "https://dc.lft.to/lastmile_qr_scan"}, "fusion_lon": 0.0, "type": "electric_scooter", "bike_id": "fa9c7dad44669b148fff4336534d7da5", "name": "fa9c7dad44669b148fff4336534d7da5", "lat": 38.895220333333334, "is_disabled": 0, "lon": -76.9489215, "fusion_lat": 0.0, "is_reserved": 0}, {"rental_uris": {"ios": "https://dc.lft.to/lastmile_qr_scan", "android": "https://dc.lft.to/lastmile_qr_scan"}, "fusion_lon": 0.0, "type": "electric_scooter", "bike_id": "a3b29a26c81894980eaca5a7dc2ff886", "name": "a3b29a26c81894980eaca5a7dc2ff886", "lat": 38.9324665, "is_disabled": 0, "lon": -77.029767, "fusion_lat": 0.0, "is_reserved": 0}, {"rental_uris": {"ios": "https://dc.lft.to/lastmile_qr_scan", "android": "https://dc.lft.to/lastmile_qr_scan"}, "fusion_lon": 0.0, "type": "electric_scooter", "bike_id": "5a671fd64b8742e9d5ab71b995bd6871", "name": "5a671fd64b8742e9d5ab71b995bd6871", "lat": 38.9157705, "is_disabled": 0, "lon": -77.01999833333333, "fusion_lat": 0.0, "is_reserved": 0}, {"rental_uris": {"ios": "https://dc.lft.to/lastmile_qr_scan", "android": "https://dc.lft.to/lastmile_qr_scan"}, "fusion_lon": 0.0, "type": "electric_scooter", "bike_id": "e1f85883a4ca4b87a8bbd3ff38ea5487", "name": "e1f85883a4ca4b87a8bbd3ff38ea5487", "lat": 38.939257833333336, "is_disabled": 0, "lon": -77.0247395, "fusion_lat": 0.0, "is_reserved": 0}, {"rental_uris": {"ios": "https://dc.lft.to/lastmile_qr_scan", "android": "https://dc.lft.to/lastmile_qr_scan"}, "fusion_lon": 0.0, "type": "electric_scooter", "bike_id": "0b53379a4f2e1d45704fe622a1af6067", "name": "0b53379a4f2e1d45704fe622a1af6067", "lat": 38.90244366666667, "is_disabled": 0, "lon": -77.031018, "fusion_lat": 0.0, "is_reserved": 0}, {"rental_uris": {"ios": "https://dc.lft.to/lastmile_qr_scan", "android": "https://dc.lft.to/lastmile_qr_scan"}, "fusion_lon": 0.0, "type": "electric_scooter", "bike_id": "94433255d78819f3d6c4b0b8ac5029c1", "name": "94433255d78819f3d6c4b0b8ac5029c1", "lat": 38.898863166666665, "is_disabled": 0, "lon": -77.04165733333333, "fusion_lat": 0.0, "is_reserved": 0}, {"rental_uris": {"ios": "https://dc.lft.to/lastmile_qr_scan", "android": "https://dc.lft.to/lastmile_qr_scan"}, "fusion_lon": 0.0, "type": "electric_scooter", "bike_id": "e3c35797bedb2c3f588a8e7e4d6ff1dc", "name": "e3c35797bedb2c3f588a8e7e4d6ff1dc", "lat": 38.912683333333334, "is_disabled": 0, "lon": -77.02224833333334, "fusion_lat": 0.0, "is_reserved": 0}, {"rental_uris": {"ios": "https://dc.lft.to/lastmile_qr_scan", "android": "https://dc.lft.to/lastmile_qr_scan"}, "fusion_lon": 0.0, "type": "electric_scooter", "bike_id": "551bfd6da5fceda360d5d10f94f1aab3", "name": "551bfd6da5fceda360d5d10f94f1aab3", "lat": 38.8850545, "is_disabled": 0, "lon": -77.00568, "fusion_lat": 0.0, "is_reserved": 0}, {"rental_uris": {"ios": "https://dc.lft.to/lastmile_qr_scan", "android": "https://dc.lft.to/lastmile_qr_scan"}, "fusion_lon": 0.0, "type": "electric_bike", "bike_id": "97195ca1b8e84436b356c4530d26f713", "name": "97195ca1b8e84436b356c4530d26f713", "lat": 39.003760166666666, "is_disabled": 0, "lon": -77.0128635, "fusion_lat": 0.0, "is_reserved": 0}, {"rental_uris": {"ios": "https://dc.lft.to/lastmile_qr_scan", "android": "https://dc.lft.to/lastmile_qr_scan"}, "fusion_lon": 0.0, "type": "electric_scooter", "bike_id": "c14b64ae0265a66f047295e65577fce7", "name": "c14b64ae0265a66f047295e65577fce7", "lat": 38.918199, "is_disabled": 0, "lon": -77.03174166666666, "fusion_lat": 0.0, "is_reserved": 0}, {"rental_uris": {"ios": "https://dc.lft.to/lastmile_qr_scan", "android": "https://dc.lft.to/lastmile_qr_scan"}, "fusion_lon": 0.0, "type": "electric_scooter", "bike_id": "1c1a3c3b63f8f0b681b8cf86888325d5", "name": "1c1a3c3b63f8f0b681b8cf86888325d5", "lat": 38.905763666666665, "is_disabled": 0, "lon": -77.02385716666667, "fusion_lat": 0.0, "is_reserved": 0}, {"rental_uris": {"ios": "https://dc.lft.to/lastmile_qr_scan", "android": "https://dc.lft.to/lastmile_qr_scan"}, "fusion_lon": 0.0, "type": "electric_scooter", "bike_id": "9d089aa2e77b743e78033d4f676b074a", "name": "9d089aa2e77b743e78033d4f676b074a", "lat": 38.916911999999996, "is_disabled": 0, "lon": -77.03390966666667, "fusion_lat": 0.0, "is_reserved": 0}, {"rental_uris": {"ios": "https://dc.lft.to/lastmile_qr_scan", "android": "https://dc.lft.to/lastmile_qr_scan"}, "fusion_lon": 0.0, "type": "electric_scooter", "bike_id": "e4a32a10414d68fed9fb520d298b2594", "name": "e4a32a10414d68fed9fb520d298b2594", "lat": 38.919825, "is_disabled": 0, "lon": -76.9731375, "fusion_lat": 0.0, "is_reserved": 0}, {"rental_uris": {"ios": "https://dc.lft.to/lastmile_qr_scan", "android": "https://dc.lft.to/lastmile_qr_scan"}, "fusion_lon": 0.0, "type": "electric_scooter", "bike_id": "a4b4b53c9e1d6e149b4f285a768a7a86", "name": "a4b4b53c9e1d6e149b4f285a768a7a86", "lat": 38.86704183333333, "is_disabled": 0, "lon": -76.98728266666667, "fusion_lat": 0.0, "is_reserved": 0}, {"rental_uris": {"ios": "https://dc.lft.to/lastmile_qr_scan", "android": "https://dc.lft.to/lastmile_qr_scan"}, "fusion_lon": 0.0, "type": "electric_scooter", "bike_id": "6e781a1f26c09c7de70bfca6a9365105", "name": "6e781a1f26c09c7de70bfca6a9365105", "lat": 38.902425666666666, "is_disabled": 0, "lon": -77.02150833333333, "fusion_lat": 0.0, "is_reserved": 0}, {"rental_uris": {"ios": "https://dc.lft.to/lastmile_qr_scan", "android": "https://dc.lft.to/lastmile_qr_scan"}, "fusion_lon": 0.0, "type": "electric_scooter", "bike_id": "793ed0e398cd464bd2bd00ac85aa7ff0", "name": "793ed0e398cd464bd2bd00ac85aa7ff0", "lat": 38.911019833333334, "is_disabled": 0, "lon": -77.044914, "fusion_lat": 0.0, "is_reserved": 0}, {"rental_uris": {"ios": "https://dc.lft.to/lastmile_qr_scan", "android": "https://dc.lft.to/lastmile_qr_scan"}, "fusion_lon": 0.0, "type": "electric_scooter", "bike_id": "bae11414ecc2af958407785f8da00fc5", "name": "bae11414ecc2af958407785f8da00fc5", "lat": 38.94981283333333, "is_disabled": 0, "lon": -77.02702033333334, "fusion_lat": 0.0, "is_reserved": 0}, {"rental_uris": {"ios": "https://dc.lft.to/lastmile_qr_scan", "android": "https://dc.lft.to/lastmile_qr_scan"}, "fusion_lon": 0.0, "type": "electric_scooter", "bike_id": "73dff9c5e3d16cdb434c796585d87364", "name": "73dff9c5e3d16cdb434c796585d87364", "lat": 38.891604666666666, "is_disabled": 0, "lon": -77.015456, "fusion_lat": 0.0, "is_reserved": 0}, {"rental_uris": {"ios": "https://dc.lft.to/lastmile_qr_scan", "android": "https://dc.lft.to/lastmile_qr_scan"}, "fusion_lon": 0.0, "type": "electric_scooter", "bike_id": "4cad466a08dd2b2dfb01fe287c335045", "name": "4cad466a08dd2b2dfb01fe287c335045", "lat": 38.892163833333335, "is_disabled": 0, "lon": -77.0226025, "fusion_lat": 0.0, "is_reserved": 0}, {"rental_uris": {"ios": "https://dc.lft.to/lastmile_qr_scan", "android": "https://dc.lft.to/lastmile_qr_scan"}, "fusion_lon": 0.0, "type": "electric_scooter", "bike_id": "d710f7695ebce8a8dc0be0acb84d21d9", "name": "d710f7695ebce8a8dc0be0acb84d21d9", "lat": 38.9310335, "is_disabled": 0, "lon": -77.04122283333334, "fusion_lat": 0.0, "is_reserved": 0}, {"rental_uris": {"ios": "https://dc.lft.to/lastmile_qr_scan", "android": "https://dc.lft.to/lastmile_qr_scan"}, "fusion_lon": 0.0, "type": "electric_scooter", "bike_id": "2d3b222f8f192d064b722378c370ce8e", "name": "2d3b222f8f192d064b722378c370ce8e", "lat": 38.91914116666667, "is_disabled": 0, "lon": -77.03025266666667, "fusion_lat": 0.0, "is_reserved": 0}, {"rental_uris": {"ios": "https://dc.lft.to/lastmile_qr_scan", "android": "https://dc.lft.to/lastmile_qr_scan"}, "fusion_lon": 0.0, "type": "electric_scooter", "bike_id": "3a00096151c307586aaa5c910e5a4288", "name": "3a00096151c307586aaa5c910e5a4288", "lat": 38.9103495, "is_disabled": 0, "lon": -77.013751, "fusion_lat": 0.0, "is_reserved": 0}, {"rental_uris": {"ios": "https://dc.lft.to/lastmile_qr_scan", "android": "https://dc.lft.to/lastmile_qr_scan"}, "fusion_lon": 0.0, "type": "electric_scooter", "bike_id": "4dac75793cdc9933ba2c21cb204963f2", "name": "4dac75793cdc9933ba2c21cb204963f2", "lat": 38.907786, "is_disabled": 0, "lon": -77.0451235, "fusion_lat": 0.0, "is_reserved": 0}, {"rental_uris": {"ios": "https://dc.lft.to/lastmile_qr_scan", "android": "https://dc.lft.to/lastmile_qr_scan"}, "fusion_lon": 0.0, "type": "electric_scooter", "bike_id": "714f6457518fdc89999e957ec104bf61", "name": "714f6457518fdc89999e957ec104bf61", "lat": 38.89732583333333, "is_disabled": 0, "lon": -77.01318266666667, "fusion_lat": 0.0, "is_reserved": 0}, {"rental_uris": {"ios": "https://dc.lft.to/lastmile_qr_scan", "android": "https://dc.lft.to/lastmile_qr_scan"}, "fusion_lon": 0.0, "type": "electric_scooter", "bike_id": "58827cbf6c386a153c8cb895bb781a51", "name": "58827cbf6c386a153c8cb895bb781a51", "lat": 38.916790666666664, "is_disabled": 0, "lon": -77.03175816666666, "fusion_lat": 0.0, "is_reserved": 0}, {"rental_uris": {"ios": "https://dc.lft.to/lastmile_qr_scan", "android": "https://dc.lft.to/lastmile_qr_scan"}, "fusion_lon": 0.0, "type": "electric_scooter", "bike_id": "32b43927df9cbbd3323b80815c839bbd", "name": "32b43927df9cbbd3323b80815c839bbd", "lat": 38.91419416666667, "is_disabled": 0, "lon": -77.03906633333334, "fusion_lat": 0.0, "is_reserved": 0}, {"rental_uris": {"ios": "https://dc.lft.to/lastmile_qr_scan", "android": "https://dc.lft.to/lastmile_qr_scan"}, "fusion_lon": 0.0, "type": "electric_scooter", "bike_id": "ee329c80c325a5167b0fe93014fe1770", "name": "ee329c80c325a5167b0fe93014fe1770", "lat": 38.9190595, "is_disabled": 0, "lon": -77.0416345, "fusion_lat": 0.0, "is_reserved": 0}, {"rental_uris": {"ios": "https://dc.lft.to/lastmile_qr_scan", "android": "https://dc.lft.to/lastmile_qr_scan"}, "fusion_lon": 0.0, "type": "electric_scooter", "bike_id": "d828ccfaa6dd4329c8488b38bc889c59", "name": "d828ccfaa6dd4329c8488b38bc889c59", "lat": 38.918190333333335, "is_disabled": 0, "lon": -77.034538, "fusion_lat": 0.0, "is_reserved": 0}, {"rental_uris": {"ios": "https://dc.lft.to/lastmile_qr_scan", "android": "https://dc.lft.to/lastmile_qr_scan"}, "fusion_lon": 0.0, "type": "electric_scooter", "bike_id": "49fee24e84580562a3729e49acefdb3f", "name": "49fee24e84580562a3729e49acefdb3f", "lat": 38.8974615, "is_disabled": 0, "lon": -77.033428, "fusion_lat": 0.0, "is_reserved": 0}, {"rental_uris": {"ios": "https://dc.lft.to/lastmile_qr_scan", "android": "https://dc.lft.to/lastmile_qr_scan"}, "fusion_lon": 0.0, "type": "electric_bike", "bike_id": "e8d9d06439abaf8610dc07699a706915", "name": "e8d9d06439abaf8610dc07699a706915", "lat": 38.91445483333333, "is_disabled": 0, "lon": -77.0046515, "fusion_lat": 0.0, "is_reserved": 0}, {"rental_uris": {"ios": "https://dc.lft.to/lastmile_qr_scan", "android": "https://dc.lft.to/lastmile_qr_scan"}, "fusion_lon": 0.0, "type": "electric_scooter", "bike_id": "8cf7614470a48b476a6e1500d890b8ad", "name": "8cf7614470a48b476a6e1500d890b8ad", "lat": 38.898801666666664, "is_disabled": 0, "lon": -77.0334605, "fusion_lat": 0.0, "is_reserved": 0}, {"rental_uris": {"ios": "https://dc.lft.to/lastmile_qr_scan", "android": "https://dc.lft.to/lastmile_qr_scan"}, "fusion_lon": 0.0, "type": "electric_scooter", "bike_id": "bf714d36eb49d6729bb93b65f32ec8e3", "name": "bf714d36eb49d6729bb93b65f32ec8e3", "lat": 38.905717, "is_disabled": 0, "lon": -77.03856166666667, "fusion_lat": 0.0, "is_reserved": 0}, {"rental_uris": {"ios": "https://dc.lft.to/lastmile_qr_scan", "android": "https://dc.lft.to/lastmile_qr_scan"}, "fusion_lon": 0.0, "type": "electric_scooter", "bike_id": "9c2c2fb971e41fd29fd5ccf39f9a661b", "name": "9c2c2fb971e41fd29fd5ccf39f9a661b", "lat": 38.8847375, "is_disabled": 0, "lon": -77.01511533333333, "fusion_lat": 0.0, "is_reserved": 0}, {"rental_uris": {"ios": "https://dc.lft.to/lastmile_qr_scan", "android": "https://dc.lft.to/lastmile_qr_scan"}, "fusion_lon": 0.0, "type": "electric_scooter", "bike_id": "cb30033269278cc42c816b4adf884fc2", "name": "cb30033269278cc42c816b4adf884fc2", "lat": 38.90948983333333, "is_disabled": 0, "lon": -77.0238115, "fusion_lat": 0.0, "is_reserved": 0}, {"rental_uris": {"ios": "https://dc.lft.to/lastmile_qr_scan", "android": "https://dc.lft.to/lastmile_qr_scan"}, "fusion_lon": 0.0, "type": "electric_scooter", "bike_id": "2ee423bc748acf0fafd211779e94ae24", "name": "2ee423bc748acf0fafd211779e94ae24", "lat": 38.90128333333333, "is_disabled": 0, "lon": -77.03249883333334, "fusion_lat": 0.0, "is_reserved": 0}, {"rental_uris": {"ios": "https://dc.lft.to/lastmile_qr_scan", "android": "https://dc.lft.to/lastmile_qr_scan"}, "fusion_lon": 0.0, "type": "electric_scooter", "bike_id": "6a08d21bf5e07e32597b5f9f10f84ea9", "name": "6a08d21bf5e07e32597b5f9f10f84ea9", "lat": 38.92231566666667, "is_disabled": 0, "lon": -76.975323, "fusion_lat": 0.0, "is_reserved": 0}, {"rental_uris": {"ios": "https://dc.lft.to/lastmile_qr_scan", "android": "https://dc.lft.to/lastmile_qr_scan"}, "fusion_lon": 0.0, "type": "electric_scooter", "bike_id": "7634e5e34cb0cbc07428edc83ae1d175", "name": "7634e5e34cb0cbc07428edc83ae1d175", "lat": 38.91187816666667, "is_disabled": 0, "lon": -77.03969133333334, "fusion_lat": 0.0, "is_reserved": 0}, {"rental_uris": {"ios": "https://dc.lft.to/lastmile_qr_scan", "android": "https://dc.lft.to/lastmile_qr_scan"}, "fusion_lon": 0.0, "type": "electric_scooter", "bike_id": "737148aa539fba29c21fdf1a2cd3989f", "name": "737148aa539fba29c21fdf1a2cd3989f", "lat": 38.927447666666666, "is_disabled": 0, "lon": -77.03474016666667, "fusion_lat": 0.0, "is_reserved": 0}, {"rental_uris": {"ios": "https://dc.lft.to/lastmile_qr_scan", "android": "https://dc.lft.to/lastmile_qr_scan"}, "fusion_lon": 0.0, "type": "electric_scooter", "bike_id": "0f0a1c3d7734d7055de693cb8eed9e2f", "name": "0f0a1c3d7734d7055de693cb8eed9e2f", "lat": 38.90770833333333, "is_disabled": 0, "lon": -77.02701333333333, "fusion_lat": 0.0, "is_reserved": 0}, {"rental_uris": {"ios": "https://dc.lft.to/lastmile_qr_scan", "android": "https://dc.lft.to/lastmile_qr_scan"}, "fusion_lon": 0.0, "type": "electric_scooter", "bike_id": "7a0f141a2b2343069531794e4666079b", "name": "7a0f141a2b2343069531794e4666079b", "lat": 38.87896083333333, "is_disabled": 0, "lon": -76.93524183333334, "fusion_lat": 0.0, "is_reserved": 0}, {"rental_uris": {"ios": "https://dc.lft.to/lastmile_qr_scan", "android": "https://dc.lft.to/lastmile_qr_scan"}, "fusion_lon": 0.0, "type": "electric_scooter", "bike_id": "4a8c3ec54207add54b1aebab50f606a5", "name": "4a8c3ec54207add54b1aebab50f606a5", "lat": 38.8981885, "is_disabled": 0, "lon": -77.05211616666666, "fusion_lat": 0.0, "is_reserved": 0}, {"rental_uris": {"ios": "https://dc.lft.to/lastmile_qr_scan", "android": "https://dc.lft.to/lastmile_qr_scan"}, "fusion_lon": 0.0, "type": "electric_scooter", "bike_id": "265ba08067cfc12d842a7fc673736e0c", "name": "265ba08067cfc12d842a7fc673736e0c", "lat": 38.9112865, "is_disabled": 0, "lon": -77.0219345, "fusion_lat": 0.0, "is_reserved": 0}, {"rental_uris": {"ios": "https://dc.lft.to/lastmile_qr_scan", "android": "https://dc.lft.to/lastmile_qr_scan"}, "fusion_lon": 0.0, "type": "electric_bike", "bike_id": "d72347e896be1b2e75afef66940c6e13", "name": "d72347e896be1b2e75afef66940c6e13", "lat": 38.9739815, "is_disabled": 0, "lon": -77.02489516666667, "fusion_lat": 0.0, "is_reserved": 0}, {"rental_uris": {"ios": "https://dc.lft.to/lastmile_qr_scan", "android": "https://dc.lft.to/lastmile_qr_scan"}, "fusion_lon": 0.0, "type": "electric_scooter", "bike_id": "13a4b00bece7412a7b4655dac22ea111", "name": "13a4b00bece7412a7b4655dac22ea111", "lat": 38.900577, "is_disabled": 0, "lon": -76.93384383333333, "fusion_lat": 0.0, "is_reserved": 0}, {"rental_uris": {"ios": "https://dc.lft.to/lastmile_qr_scan", "android": "https://dc.lft.to/lastmile_qr_scan"}, "fusion_lon": 0.0, "type": "electric_scooter", "bike_id": "0c605ea006c6bbe4e8af98c00ea6a9f3", "name": "0c605ea006c6bbe4e8af98c00ea6a9f3", "lat": 38.900234166666664, "is_disabled": 0, "lon": -77.00208016666667, "fusion_lat": 0.0, "is_reserved": 0}, {"rental_uris": {"ios": "https://dc.lft.to/lastmile_qr_scan", "android": "https://dc.lft.to/lastmile_qr_scan"}, "fusion_lon": 0.0, "type": "electric_scooter", "bike_id": "a1f355ed6509b0c52328c9a66e82f40f", "name": "a1f355ed6509b0c52328c9a66e82f40f", "lat": 38.91010216666667, "is_disabled": 0, "lon": -77.03191666666666, "fusion_lat": 0.0, "is_reserved": 0}, {"rental_uris": {"ios": "https://dc.lft.to/lastmile_qr_scan", "android": "https://dc.lft.to/lastmile_qr_scan"}, "fusion_lon": 0.0, "type": "electric_scooter", "bike_id": "9964bad971cccbf3f0d557575a226bcf", "name": "9964bad971cccbf3f0d557575a226bcf", "lat": 38.90560983333334, "is_disabled": 0, "lon": -77.043535, "fusion_lat": 0.0, "is_reserved": 0}, {"rental_uris": {"ios": "https://dc.lft.to/lastmile_qr_scan", "android": "https://dc.lft.to/lastmile_qr_scan"}, "fusion_lon": 0.0, "type": "electric_scooter", "bike_id": "59f2f758e22f85ff8162df27d3998ffd", "name": "59f2f758e22f85ff8162df27d3998ffd", "lat": 38.893606166666665, "is_disabled": 0, "lon": -77.03966983333333, "fusion_lat": 0.0, "is_reserved": 0}, {"rental_uris": {"ios": "https://dc.lft.to/lastmile_qr_scan", "android": "https://dc.lft.to/lastmile_qr_scan"}, "fusion_lon": 0.0, "type": "electric_scooter", "bike_id": "b1b9c2c350d764a4d5e1e3d3d4734bb7", "name": "b1b9c2c350d764a4d5e1e3d3d4734bb7", "lat": 38.892158, "is_disabled": 0, "lon": -77.02260983333333, "fusion_lat": 0.0, "is_reserved": 0}, {"rental_uris": {"ios": "https://dc.lft.to/lastmile_qr_scan", "android": "https://dc.lft.to/lastmile_qr_scan"}, "fusion_lon": 0.0, "type": "electric_scooter", "bike_id": "a7677c0c3a69bd3fa12a2cd0a4a4266f", "name": "a7677c0c3a69bd3fa12a2cd0a4a4266f", "lat": 38.927553833333334, "is_disabled": 0, "lon": -77.0328005, "fusion_lat": 0.0, "is_reserved": 0}, {"rental_uris": {"ios": "https://dc.lft.to/lastmile_qr_scan", "android": "https://dc.lft.to/lastmile_qr_scan"}, "fusion_lon": 0.0, "type": "electric_scooter", "bike_id": "d217b8178bf25e7c70920042436d45a9", "name": "d217b8178bf25e7c70920042436d45a9", "lat": 38.90761633333334, "is_disabled": 0, "lon": -77.03845983333333, "fusion_lat": 0.0, "is_reserved": 0}, {"rental_uris": {"ios": "https://dc.lft.to/lastmile_qr_scan", "android": "https://dc.lft.to/lastmile_qr_scan"},