{"data": {"bikes": [{"lat": 38.91719833333333, "is_disabled": 0, "type": "electric_scooter", "lon": -77.041033, "bike_id": "3974b1417a5bdaf2aaa1da0f0c347f26", "fusion_lat": 0.0, "name": "3974b1417a5bdaf2aaa1da0f0c347f26", "is_reserved": 0, "rental_uris": {"android": "https://dc.lft.to/lastmile_qr_scan", "ios": "https://dc.lft.to/lastmile_qr_scan"}, "fusion_lon": 0.0}, {"lat": 38.91980383333333, "is_disabled": 0, "type": "electric_scooter", "lon": -76.973083, "bike_id": "8ea1c3f3db4c3eb1650f1560e8ce86bf", "fusion_lat": 0.0, "name": "8ea1c3f3db4c3eb1650f1560e8ce86bf", "is_reserved": 0, "rental_uris": {"android": "https://dc.lft.to/lastmile_qr_scan", "ios": "https://dc.lft.to/lastmile_qr_scan"}, "fusion_lon": 0.0}, {"lat": 38.8846965, "is_disabled": 0, "type": "electric_scooter", "lon": -76.99259683333334, "bike_id": "1be1c376b006fde187b7f2e3d296ce86", "fusion_lat": 0.0, "name": "1be1c376b006fde187b7f2e3d296ce86", "is_reserved": 0, "rental_uris": {"android": "https://dc.lft.to/lastmile_qr_scan", "ios": "https://dc.lft.to/lastmile_qr_scan"}, "fusion_lon": 0.0}, {"lat": 38.908560666666666, "is_disabled": 0, "type": "electric_bike", "lon": -77.0807575, "bike_id": "12d9496f55829ce14c1b803941eb5148", "fusion_lat": 0.0, "name": "12d9496f55829ce14c1b803941eb5148", "is_reserved": 0, "rental_uris": {"android": "https://dc.lft.to/lastmile_qr_scan", "ios": "https://dc.lft.to/lastmile_qr_scan"}, "fusion_lon": 0.0}, {"lat": 38.880806166666666, "is_disabled": 0, "type": "electric_scooter", "lon": -76.98536733333333, "bike_id": "4477475c3aa0ae52ed3ff2a7ddfea60a", "fusion_lat": 0.0, "name": "4477475c3aa0ae52ed3ff2a7ddfea60a", "is_reserved": 0, "rental_uris": {"android": "https://dc.lft.to/lastmile_qr_scan", "ios": "https://dc.lft.to/lastmile_qr_scan"}, "fusion_lon": 0.0}, {"lat": 38.950735333333334, "is_disabled": 0, "type": "electric_scooter", "lon": -77.00876883333333, "bike_id": "03a1bd3b4e166c689770241aa1271455", "fusion_lat": 0.0, "name": "03a1bd3b4e166c689770241aa1271455", "is_reserved": 0, "rental_uris": {"android": "https://dc.lft.to/lastmile_qr_scan", "ios": "https://dc.lft.to/lastmile_qr_scan"}, "fusion_lon": 0.0}, {"lat": 38.96017783333333, "is_disabled": 0, "type": "electric_bike", "lon": -77.01727616666666, "bike_id": "b24a14861376c776bb7a7286607b84f0", "fusion_lat": 0.0, "name": "b24a14861376c776bb7a7286607b84f0", "is_reserved": 0, "rental_uris": {"android": "https://dc.lft.to/lastmile_qr_scan", "ios": "https://dc.lft.to/lastmile_qr_scan"}, "fusion_lon": 0.0}, {"lat": 38.91267716666667, "is_disabled": 0, "type": "electric_scooter", "lon": -77.03170133333333, "bike_id": "0be56f5c45fc23ac7c9711755e569e66", "fusion_lat": 0.0, "name": "0be56f5c45fc23ac7c9711755e569e66", "is_reserved": 0, "rental_uris": {"android": "https://dc.lft.to/lastmile_qr_scan", "ios": "https://dc.lft.to/lastmile_qr_scan"}, "fusion_lon": 0.0}, {"lat": 38.89968866666667, "is_disabled": 0, "type": "electric_scooter", "lon": -77.02295666666667, "bike_id": "1f4904e5402c440395992d5eaa629662", "fusion_lat": 0.0, "name": "1f4904e5402c440395992d5eaa629662", "is_reserved": 0, "rental_uris": {"android": "https://dc.lft.to/lastmile_qr_scan", "ios": "https://dc.lft.to/lastmile_qr_scan"}, "fusion_lon": 0.0}, {"lat": 38.954035166666664, "is_disabled": 0, "type": "electric_scooter", "lon": -77.02751966666666, "bike_id": "4db5d7816fe13451ac6eb63ba149cd62", "fusion_lat": 0.0, "name": "4db5d7816fe13451ac6eb63ba149cd62", "is_reserved": 0, "rental_uris": {"android": "https://dc.lft.to/lastmile_qr_scan", "ios": "https://dc.lft.to/lastmile_qr_scan"}, "fusion_lon": 0.0}, {"lat": 39.029315, "is_disabled": 0, "type": "electric_bike", "lon": -77.04927483333333, "bike_id": "b7fc949d6516eaefeec1d025fe39b57a", "fusion_lat": 0.0, "name": "b7fc949d6516eaefeec1d025fe39b57a", "is_reserved": 0, "rental_uris": {"android": "https://dc.lft.to/lastmile_qr_scan", "ios": "https://dc.lft.to/lastmile_qr_scan"}, "fusion_lon": 0.0}, {"lat": 38.87665633333334, "is_disabled": 0, "type": "electric_scooter", "lon": -77.00409133333334, "bike_id": "fadbf6bec1a9386797e0d8270ea4d574", "fusion_lat": 0.0, "name": "fadbf6bec1a9386797e0d8270ea4d574", "is_reserved": 0, "rental_uris": {"android": "https://dc.lft.to/lastmile_qr_scan", "ios": "https://dc.lft.to/lastmile_qr_scan"}, "fusion_lon": 0.0}, {"lat": 38.959261, "is_disabled": 0, "type": "electric_bike", "lon": -77.03124416666667, "bike_id": "3e0adc7cd3704865cd8bfb5e648c0884", "fusion_lat": 0.0, "name": "3e0adc7cd3704865cd8bfb5e648c0884", "is_reserved": 0, "rental_uris": {"android": "https://dc.lft.to/lastmile_qr_scan", "ios": "https://dc.lft.to/lastmile_qr_scan"}, "fusion_lon": 0.0}, {"lat": 38.90548916666667, "is_disabled": 0, "type": "electric_scooter", "lon": -77.00602483333333, "bike_id": "900850c658dfaa9dec9e9705fdc620d6", "fusion_lat": 0.0, "name": "900850c658dfaa9dec9e9705fdc620d6", "is_reserved": 0, "rental_uris": {"android": "https://dc.lft.to/lastmile_qr_scan", "ios": "https://dc.lft.to/lastmile_qr_scan"}, "fusion_lon": 0.0}, {"lat": 38.92464833333333, "is_disabled": 0, "type": "electric_scooter", "lon": -77.05231566666667, "bike_id": "d34e8b010fbb766443ab94a1d1ec3f2f", "fusion_lat": 0.0, "name": "d34e8b010fbb766443ab94a1d1ec3f2f", "is_reserved": 0, "rental_uris": {"android": "https://dc.lft.to/lastmile_qr_scan", "ios": "https://dc.lft.to/lastmile_qr_scan"}, "fusion_lon": 0.0}, {"lat": 38.9013575, "is_disabled": 0, "type": "electric_scooter", "lon": -77.0007175, "bike_id": "e457ef2988bd828952157c0d6ae3bb47", "fusion_lat": 0.0, "name": "e457ef2988bd828952157c0d6ae3bb47", "is_reserved": 0, "rental_uris": {"android": "https://dc.lft.to/lastmile_qr_scan", "ios": "https://dc.lft.to/lastmile_qr_scan"}, "fusion_lon": 0.0}, {"lat": 38.88513866666667, "is_disabled": 0, "type": "electric_scooter", "lon": -77.00275416666666, "bike_id": "2afcb3602a2d05ac5613c3cd423eef96", "fusion_lat": 0.0, "name": "2afcb3602a2d05ac5613c3cd423eef96", "is_reserved": 0, "rental_uris": {"android": "https://dc.lft.to/lastmile_qr_scan", "ios": "https://dc.lft.to/lastmile_qr_scan"}, "fusion_lon": 0.0}, {"lat": 38.900388166666666, "is_disabled": 0, "type": "electric_scooter", "lon": -76.98836466666667, "bike_id": "00f0c03725c5c6f3f4b39bc002dc8e5d", "fusion_lat": 0.0, "name": "00f0c03725c5c6f3f4b39bc002dc8e5d", "is_reserved": 0, "rental_uris": {"android": "https://dc.lft.to/lastmile_qr_scan", "ios": "https://dc.lft.to/lastmile_qr_scan"}, "fusion_lon": 0.0}, {"lat": 38.897706166666666, "is_disabled": 0, "type": "electric_bike", "lon": -76.90433533333334, "bike_id": "5dff6690f7a48aaf484d7d2b132a816d", "fusion_lat": 0.0, "name": "5dff6690f7a48aaf484d7d2b132a816d", "is_reserved": 0, "rental_uris": {"android": "https://dc.lft.to/lastmile_qr_scan", "ios": "https://dc.lft.to/lastmile_qr_scan"}, "fusion_lon": 0.0}, {"lat": 38.90614516666667, "is_disabled": 0, "type": "electric_scooter", "lon": -77.0128445, "bike_id": "b8ab116a013511b51ef016467f427ba4", "fusion_lat": 0.0, "name": "b8ab116a013511b51ef016467f427ba4", "is_reserved": 0, "rental_uris": {"android": "https://dc.lft.to/lastmile_qr_scan", "ios": "https://dc.lft.to/lastmile_qr_scan"}, "fusion_lon": 0.0}, {"lat": 38.84273366666667, "is_disabled": 0, "type": "electric_bike", "lon": -76.988462, "bike_id": "eab274709bcdc48967ecaf59eac3c316", "fusion_lat": 0.0, "name": "eab274709bcdc48967ecaf59eac3c316", "is_reserved": 0, "rental_uris": {"android": "https://dc.lft.to/lastmile_qr_scan", "ios": "https://dc.lft.to/lastmile_qr_scan"}, "fusion_lon": 0.0}, {"lat": 38.866245166666666, "is_disabled": 0, "type": "electric_scooter", "lon": -76.98717766666667, "bike_id": "2b8cf7843b90e5fcb8235f89ec524458", "fusion_lat": 0.0, "name": "2b8cf7843b90e5fcb8235f89ec524458", "is_reserved": 0, "rental_uris": {"android": "https://dc.lft.to/lastmile_qr_scan", "ios": "https://dc.lft.to/lastmile_qr_scan"}, "fusion_lon": 0.0}, {"lat": 38.89995666666667, "is_disabled": 0, "type": "electric_scooter", "lon": -77.05087866666666, "bike_id": "013a024e239a8758ed1041df2873fbac", "fusion_lat": 0.0, "name": "013a024e239a8758ed1041df2873fbac", "is_reserved": 0, "rental_uris": {"android": "https://dc.lft.to/lastmile_qr_scan", "ios": "https://dc.lft.to/lastmile_qr_scan"}, "fusion_lon": 0.0}, {"lat": 38.892344, "is_disabled": 0, "type": "electric_scooter", "lon": -77.02810383333333, "bike_id": "34a9a9d110490503cfc9f2a5439f3d66", "fusion_lat": 0.0, "name": "34a9a9d110490503cfc9f2a5439f3d66", "is_reserved": 0, "rental_uris": {"android": "https://dc.lft.to/lastmile_qr_scan", "ios": "https://dc.lft.to/lastmile_qr_scan"}, "fusion_lon": 0.0}, {"lat": 38.91515733333333, "is_disabled": 0, "type": "electric_scooter", "lon": -77.01365033333333, "bike_id": "642ce5e08e5d89a25f7b5f474890ab37", "fusion_lat": 0.0, "name": "642ce5e08e5d89a25f7b5f474890ab37", "is_reserved": 0, "rental_uris": {"android": "https://dc.lft.to/lastmile_qr_scan", "ios": "https://dc.lft.to/lastmile_qr_scan"}, "fusion_lon": 0.0}, {"lat": 38.956377333333336, "is_disabled": 0, "type": "electric_bike", "lon": -76.93884333333334, "bike_id": "66ab8f3104b03dd2c936ec57fe48302a", "fusion_lat": 0.0, "name": "66ab8f3104b03dd2c936ec57fe48302a", "is_reserved": 0, "rental_uris": {"android": "https://dc.lft.to/lastmile_qr_scan", "ios": "https://dc.lft.to/lastmile_qr_scan"}, "fusion_lon": 0.0}, {"lat": 38.90958366666667, "is_disabled": 0, "type": "electric_scooter", "lon": -77.023164, "bike_id": "3d9a917794d6c62a3992ae3c3b5f5b72", "fusion_lat": 0.0, "name": "3d9a917794d6c62a3992ae3c3b5f5b72", "is_reserved": 0, "rental_uris": {"android": "https://dc.lft.to/lastmile_qr_scan", "ios": "https://dc.lft.to/lastmile_qr_scan"}, "fusion_lon": 0.0}, {"lat": 38.9577705, "is_disabled": 0, "type": "electric_scooter", "lon": -77.02466366666667, "bike_id": "438e03d1c78132249e7ee3a4394cb984", "fusion_lat": 0.0, "name": "438e03d1c78132249e7ee3a4394cb984", "is_reserved": 0, "rental_uris": {"android": "https://dc.lft.to/lastmile_qr_scan", "ios": "https://dc.lft.to/lastmile_qr_scan"}, "fusion_lon": 0.0}, {"lat": 38.926781, "is_disabled": 0, "type": "electric_scooter", "lon": -77.0510495, "bike_id": "1796ffd95e7ecc4e179dbc4fca873439", "fusion_lat": 0.0, "name": "1796ffd95e7ecc4e179dbc4fca873439", "is_reserved": 0, "rental_uris": {"android": "https://dc.lft.to/lastmile_qr_scan", "ios": "https://dc.lft.to/lastmile_qr_scan"}, "fusion_lon": 0.0}, {"lat": 38.8991755, "is_disabled": 0, "type": "electric_scooter", "lon": -76.93382316666667, "bike_id": "c57fc9f2d3d2a3b3831549e4512b4057", "fusion_lat": 0.0, "name": "c57fc9f2d3d2a3b3831549e4512b4057", "is_reserved": 0, "rental_uris": {"android": "https://dc.lft.to/lastmile_qr_scan", "ios": "https://dc.lft.to/lastmile_qr_scan"}, "fusion_lon": 0.0}, {"lat": 38.906564833333334, "is_disabled": 0, "type": "electric_scooter", "lon": -77.03864583333333, "bike_id": "95377d7804832125ae9e6a0ca43ace78", "fusion_lat": 0.0, "name": "95377d7804832125ae9e6a0ca43ace78", "is_reserved": 0, "rental_uris": {"android": "https://dc.lft.to/lastmile_qr_scan", "ios": "https://dc.lft.to/lastmile_qr_scan"}, "fusion_lon": 0.0}, {"lat": 38.91269666666667, "is_disabled": 0, "type": "electric_scooter", "lon": -77.01302883333334, "bike_id": "f81ac1a78624ddf0f281468ce6bf19c7", "fusion_lat": 0.0, "name": "f81ac1a78624ddf0f281468ce6bf19c7", "is_reserved": 0, "rental_uris": {"android": "https://dc.lft.to/lastmile_qr_scan", "ios": "https://dc.lft.to/lastmile_qr_scan"}, "fusion_lon": 0.0}, {"lat": 38.9554055, "is_disabled": 0, "type": "electric_bike", "lon": -76.93536583333334, "bike_id": "0af1780d84c533787bd09397947ac96a", "fusion_lat": 0.0, "name": "0af1780d84c533787bd09397947ac96a", "is_reserved": 0, "rental_uris": {"android": "https://dc.lft.to/lastmile_qr_scan", "ios": "https://dc.lft.to/lastmile_qr_scan"}, "fusion_lon": 0.0}, {"lat": 38.902307666666665, "is_disabled": 0, "type": "electric_scooter", "lon": -77.01635283333333, "bike_id": "a5e733b477d13452c6c341318b2e500b", "fusion_lat": 0.0, "name": "a5e733b477d13452c6c341318b2e500b", "is_reserved": 0, "rental_uris": {"android": "https://dc.lft.to/lastmile_qr_scan", "ios": "https://dc.lft.to/lastmile_qr_scan"}, "fusion_lon": 0.0}, {"lat": 38.88162283333333, "is_disabled": 0, "type": "electric_bike", "lon": -77.02702583333334, "bike_id": "332b8165223b9aa16ea338215841a423", "fusion_lat": 0.0, "name": "332b8165223b9aa16ea338215841a423", "is_reserved": 0, "rental_uris": {"android": "https://dc.lft.to/lastmile_qr_scan", "ios": "https://dc.lft.to/lastmile_qr_scan"}, "fusion_lon": 0.0}, {"lat": 38.84294233333333, "is_disabled": 0, "type": "electric_scooter", "lon": -76.9994835, "bike_id": "177e1416311f75cac39eed8b624ed65b", "fusion_lat": 0.0, "name": "177e1416311f75cac39eed8b624ed65b", "is_reserved": 0, "rental_uris": {"android": "https://dc.lft.to/lastmile_qr_scan", "ios": "https://dc.lft.to/lastmile_qr_scan"}, "fusion_lon": 0.0}, {"lat": 38.863437833333336, "is_disabled": 0, "type": "electric_scooter", "lon": -76.99008616666667, "bike_id": "432ef303d61e42d586df38357a034ead", "fusion_lat": 0.0, "name": "432ef303d61e42d586df38357a034ead", "is_reserved": 0, "rental_uris": {"android": "https://dc.lft.to/lastmile_qr_scan", "ios": "https://dc.lft.to/lastmile_qr_scan"}, "fusion_lon": 0.0}, {"lat": 38.89656983333333, "is_disabled": 0, "type": "electric_scooter", "lon": -77.01974066666666, "bike_id": "308763172a5145858cfedfcc559e7156", "fusion_lat": 0.0, "name": "308763172a5145858cfedfcc559e7156", "is_reserved": 0, "rental_uris": {"android": "https://dc.lft.to/lastmile_qr_scan", "ios": "https://dc.lft.to/lastmile_qr_scan"}, "fusion_lon": 0.0}, {"lat": 38.9108315, "is_disabled": 0, "type": "electric_scooter", "lon": -77.07641533333333, "bike_id": "199848103a6167673b0739e99efa4c31", "fusion_lat": 0.0, "name": "199848103a6167673b0739e99efa4c31", "is_reserved": 0, "rental_uris": {"android": "https://dc.lft.to/lastmile_qr_scan", "ios": "https://dc.lft.to/lastmile_qr_scan"}, "fusion_lon": 0.0}, {"lat": 38.94805133333333, "is_disabled": 0, "type": "electric_scooter", "lon": -77.079079, "bike_id": "69545b0d6ffa594216463be8f74f87bc", "fusion_lat": 0.0, "name": "69545b0d6ffa594216463be8f74f87bc", "is_reserved": 0, "rental_uris": {"android": "https://dc.lft.to/lastmile_qr_scan", "ios": "https://dc.lft.to/lastmile_qr_scan"}, "fusion_lon": 0.0}, {"lat": 38.91952833333333, "is_disabled": 0, "type": "electric_scooter", "lon": -77.04314416666666, "bike_id": "01310c9bd7de88ca94bc5ae9e2f88614", "fusion_lat": 0.0, "name": "01310c9bd7de88ca94bc5ae9e2f88614", "is_reserved": 0, "rental_uris": {"android": "https://dc.lft.to/lastmile_qr_scan", "ios": "https://dc.lft.to/lastmile_qr_scan"}, "fusion_lon": 0.0}, {"lat": 38.891235333333334, "is_disabled": 0, "type": "electric_scooter", "lon": -76.940917, "bike_id": "4afc39d8721462f1805f07a7cd94a3be", "fusion_lat": 0.0, "name": "4afc39d8721462f1805f07a7cd94a3be", "is_reserved": 0, "rental_uris": {"android": "https://dc.lft.to/lastmile_qr_scan", "ios": "https://dc.lft.to/lastmile_qr_scan"}, "fusion_lon": 0.0}, {"lat": 38.9000305, "is_disabled": 0, "type": "electric_scooter", "lon": -76.99850983333333, "bike_id": "3fbaccfbe86e030bd02b9b410228ae99", "fusion_lat": 0.0, "name": "3fbaccfbe86e030bd02b9b410228ae99", "is_reserved": 0, "rental_uris": {"android": "https://dc.lft.to/lastmile_qr_scan", "ios": "https://dc.lft.to/lastmile_qr_scan"}, "fusion_lon": 0.0}, {"lat": 38.91752566666667, "is_disabled": 0, "type": "electric_bike", "lon": -77.04766333333333, "bike_id": "31ebe79b3466343202c592da8ecc9698", "fusion_lat": 0.0, "name": "31ebe79b3466343202c592da8ecc9698", "is_reserved": 0, "rental_uris": {"android": "https://dc.lft.to/lastmile_qr_scan", "ios": "https://dc.lft.to/lastmile_qr_scan"}, "fusion_lon": 0.0}, {"lat": 38.90514916666667, "is_disabled": 0, "type": "electric_scooter", "lon": -77.06878966666666, "bike_id": "176ce8d18582e805cfef6125ce645c02", "fusion_lat": 0.0, "name": "176ce8d18582e805cfef6125ce645c02", "is_reserved": 0, "rental_uris": {"android": "https://dc.lft.to/lastmile_qr_scan", "ios": "https://dc.lft.to/lastmile_qr_scan"}, "fusion_lon": 0.0}, {"lat": 38.9047875, "is_disabled": 0, "type": "electric_scooter", "lon": -77.032312, "bike_id": "37fbf33dc0cf5beea0ee1b9ebc3ce80d", "fusion_lat": 0.0, "name": "37fbf33dc0cf5beea0ee1b9ebc3ce80d", "is_reserved": 0, "rental_uris": {"android": "https://dc.lft.to/lastmile_qr_scan", "ios": "https://dc.lft.to/lastmile_qr_scan"}, "fusion_lon": 0.0}, {"lat": 38.93545183333333, "is_disabled": 0, "type": "electric_scooter", "lon": -77.03410283333334, "bike_id": "b3390cade72dd39f197ee48a4aa69f1e", "fusion_lat": 0.0, "name": "b3390cade72dd39f197ee48a4aa69f1e", "is_reserved": 0, "rental_uris": {"android": "https://dc.lft.to/lastmile_qr_scan", "ios": "https://dc.lft.to/lastmile_qr_scan"}, "fusion_lon": 0.0}, {"lat": 38.933336833333335, "is_disabled": 0, "type": "electric_scooter", "lon": -77.0570615, "bike_id": "043f38dc6c90e3a282e419af50a5078b", "fusion_lat": 0.0, "name": "043f38dc6c90e3a282e419af50a5078b", "is_reserved": 0, "rental_uris": {"android": "https://dc.lft.to/lastmile_qr_scan", "ios": "https://dc.lft.to/lastmile_qr_scan"}, "fusion_lon": 0.0}, {"lat": 38.9167655, "is_disabled": 0, "type": "electric_scooter", "lon": -77.02282466666666, "bike_id": "037781d41ce7bf601b84b70900bfefd1", "fusion_lat": 0.0, "name": "037781d41ce7bf601b84b70900bfefd1", "is_reserved": 0, "rental_uris": {"android": "https://dc.lft.to/lastmile_qr_scan", "ios": "https://dc.lft.to/lastmile_qr_scan"}, "fusion_lon": 0.0}, {"lat": 38.9012695, "is_disabled": 0, "type": "electric_scooter", "lon": -77.01812666666666, "bike_id": "62bff42d3704abb40d0df849c67739e8", "fusion_lat": 0.0, "name": "62bff42d3704abb40d0df849c67739e8", "is_reserved": 0, "rental_uris": {"android": "https://dc.lft.to/lastmile_qr_scan", "ios": "https://dc.lft.to/lastmile_qr_scan"}, "fusion_lon": 0.0}, {"lat": 39.01593733333333, "is_disabled": 0, "type": "electric_bike", "lon": -77.04423316666667, "bike_id": "8fa3472ad5370b427c6a1a979e04a23e", "fusion_lat": 0.0, "name": "8fa3472ad5370b427c6a1a979e04a23e", "is_reserved": 0, "rental_uris": {"android": "https://dc.lft.to/lastmile_qr_scan", "ios": "https://dc.lft.to/lastmile_qr_scan"}, "fusion_lon": 0.0}, {"lat": 38.8841755, "is_disabled": 0, "type": "electric_scooter", "lon": -77.030449, "bike_id": "4788c414f89a88031cc0949516f01338", "fusion_lat": 0.0, "name": "4788c414f89a88031cc0949516f01338", "is_reserved": 0, "rental_uris": {"android": "https://dc.lft.to/lastmile_qr_scan", "ios": "https://dc.lft.to/lastmile_qr_scan"}, "fusion_lon": 0.0}, {"lat": 38.89652, "is_disabled": 0, "type": "electric_scooter", "lon": -77.023137, "bike_id": "7fcc4176c4191e71fe3f0533a230f972", "fusion_lat": 0.0, "name": "7fcc4176c4191e71fe3f0533a230f972", "is_reserved": 0, "rental_uris": {"android": "https://dc.lft.to/lastmile_qr_scan", "ios": "https://dc.lft.to/lastmile_qr_scan"}, "fusion_lon": 0.0}, {"lat": 38.855034833333335, "is_disabled": 0, "type": "electric_bike", "lon": -77.1205145, "bike_id": "f053975cddce811dc02bd142d0308855", "fusion_lat": 0.0, "name": "f053975cddce811dc02bd142d0308855", "is_reserved": 0, "rental_uris": {"android": "https://dc.lft.to/lastmile_qr_scan", "ios": "https://dc.lft.to/lastmile_qr_scan"}, "fusion_lon": 0.0}, {"lat": 38.916075166666666, "is_disabled": 0, "type": "electric_scooter", "lon": -77.04877916666666, "bike_id": "c244f8b567c078640724f9b8e12308f8", "fusion_lat": 0.0, "name": "c244f8b567c078640724f9b8e12308f8", "is_reserved": 0, "rental_uris": {"android": "https://dc.lft.to/lastmile_qr_scan", "ios": "https://dc.lft.to/lastmile_qr_scan"}, "fusion_lon": 0.0}, {"lat": 38.90963033333333, "is_disabled": 0, "type": "electric_scooter", "lon": -77.0237775, "bike_id": "90269cb7f0ffc877a4343e27ada899f2", "fusion_lat": 0.0, "name": "90269cb7f0ffc877a4343e27ada899f2", "is_reserved": 0, "rental_uris": {"android": "https://dc.lft.to/lastmile_qr_scan", "ios": "https://dc.lft.to/lastmile_qr_scan"}, "fusion_lon": 0.0}, {"lat": 38.897594166666664, "is_disabled": 0, "type": "electric_scooter", "lon": -77.02591033333333, "bike_id": "cf621b9dfc869db836bd87679ef45c28", "fusion_lat": 0.0, "name": "cf621b9dfc869db836bd87679ef45c28", "is_reserved": 0, "rental_uris": {"android": "https://dc.lft.to/lastmile_qr_scan", "ios": "https://dc.lft.to/lastmile_qr_scan"}, "fusion_lon": 0.0}, {"lat": 39.00387, "is_disabled": 0, "type": "electric_bike", "lon": -77.01290733333333, "bike_id": "1e7563aba6bfb4309c897d8a03fd0980", "fusion_lat": 0.0, "name": "1e7563aba6bfb4309c897d8a03fd0980", "is_reserved": 0, "rental_uris": {"android": "https://dc.lft.to/lastmile_qr_scan", "ios": "https://dc.lft.to/lastmile_qr_scan"}, "fusion_lon": 0.0}, {"lat": 38.86623766666666, "is_disabled": 0, "type": "electric_scooter", "lon": -76.98697183333333, "bike_id": "b9c121e8a1ad2bdf3c18e97f1a60063b", "fusion_lat": 0.0, "name": "b9c121e8a1ad2bdf3c18e97f1a60063b", "is_reserved": 0, "rental_uris": {"android": "https://dc.lft.to/lastmile_qr_scan", "ios": "https://dc.lft.to/lastmile_qr_scan"}, "fusion_lon": 0.0}, {"lat": 38.893747833333336, "is_disabled": 0, "type": "electric_scooter", "lon": -76.9499155, "bike_id": "53bf4fb6f5641833615eada6fbf8d283", "fusion_lat": 0.0, "name": "53bf4fb6f5641833615eada6fbf8d283", "is_reserved": 0, "rental_uris": {"android": "https://dc.lft.to/lastmile_qr_scan", "ios": "https://dc.lft.to/lastmile_qr_scan"}, "fusion_lon": 0.0}, {"lat": 38.92406733333333, "is_disabled": 0, "type": "electric_scooter", "lon": -77.025583, "bike_id": "b159489217ae2fd5ad531e48a7e7c807", "fusion_lat": 0.0, "name": "b159489217ae2fd5ad531e48a7e7c807", "is_reserved": 0, "rental_uris": {"android": "https://dc.lft.to/lastmile_qr_scan", "ios": "https://dc.lft.to/lastmile_qr_scan"}, "fusion_lon": 0.0}, {"lat": 38.9213055, "is_disabled": 0, "type": "electric_scooter", "lon": -77.01038266666667, "bike_id": "e920bf025d4b67877d9f9e8c441c9e75", "fusion_lat": 0.0, "name": "e920bf025d4b67877d9f9e8c441c9e75", "is_reserved": 0, "rental_uris": {"android": "https://dc.lft.to/lastmile_qr_scan", "ios": "https://dc.lft.to/lastmile_qr_scan"}, "fusion_lon": 0.0}, {"lat": 38.909891333333334, "is_disabled": 0, "type": "electric_scooter", "lon": -77.03301216666667, "bike_id": "dc72421c8b5943b67f023e4324fb6118", "fusion_lat": 0.0, "name": "dc72421c8b5943b67f023e4324fb6118", "is_reserved": 0, "rental_uris": {"android": "https://dc.lft.to/lastmile_qr_scan", "ios": "https://dc.lft.to/lastmile_qr_scan"}, "fusion_lon": 0.0}, {"lat": 38.909666666666666, "is_disabled": 0, "type": "electric_scooter", "lon": -77.04811516666666, "bike_id": "0152ac7af147ebfe39df8626b6aecc0e", "fusion_lat": 0.0, "name": "0152ac7af147ebfe39df8626b6aecc0e", "is_reserved": 0, "rental_uris": {"android": "https://dc.lft.to/lastmile_qr_scan", "ios": "https://dc.lft.to/lastmile_qr_scan"}, "fusion_lon": 0.0}, {"lat": 38.88493616666667, "is_disabled": 0, "type": "electric_scooter", "lon": -77.00712783333333, "bike_id": "efcce6959ec975ce6cdbd9a6cac86e6b", "fusion_lat": 0.0, "name": "efcce6959ec975ce6cdbd9a6cac86e6b", "is_reserved": 0, "rental_uris": {"android": "https://dc.lft.to/lastmile_qr_scan", "ios": "https://dc.lft.to/lastmile_qr_scan"}, "fusion_lon": 0.0}, {"lat": 38.9326545, "is_disabled": 0, "type": "electric_scooter", "lon": -77.038875, "bike_id": "564ead23aa9f5be258f142ea41a7a3b1", "fusion_lat": 0.0, "name": "564ead23aa9f5be258f142ea41a7a3b1", "is_reserved": 0, "rental_uris": {"android": "https://dc.lft.to/lastmile_qr_scan", "ios": "https://dc.lft.to/lastmile_qr_scan"}, "fusion_lon": 0.0}, {"lat": 38.842991166666664, "is_disabled": 0, "type": "electric_scooter", "lon": -76.999528, "bike_id": "3cb7328cc7d358152608c20b3b158766", "fusion_lat": 0.0, "name": "3cb7328cc7d358152608c20b3b158766", "is_reserved": 0, "rental_uris": {"android": "https://dc.lft.to/lastmile_qr_scan", "ios": "https://dc.lft.to/lastmile_qr_scan"}, "fusion_lon": 0.0}, {"lat": 38.84275, "is_disabled": 0, "type": "electric_bike", "lon": -76.98844466666667, "bike_id": "d9ca926c240bc0a856aacd9a7d5d7c5e", "fusion_lat": 0.0, "name": "d9ca926c240bc0a856aacd9a7d5d7c5e", "is_reserved": 0, "rental_uris": {"android": "https://dc.lft.to/lastmile_qr_scan", "ios": "https://dc.lft.to/lastmile_qr_scan"}, "fusion_lon": 0.0}, {"lat": 38.931129, "is_disabled": 0, "type": "electric_scooter", "lon": -77.03813316666667, "bike_id": "a7e4d223106d04c2d1c64490faf59540", "fusion_lat": 0.0, "name": "a7e4d223106d04c2d1c64490faf59540", "is_reserved": 0, "rental_uris": {"android": "https://dc.lft.to/lastmile_qr_scan", "ios": "https://dc.lft.to/lastmile_qr_scan"}, "fusion_lon": 0.0}, {"lat": 38.90964366666667, "is_disabled": 0, "type": "electric_scooter", "lon": -77.02280183333333, "bike_id": "3ecdefeef3818f858673273776d5e22b", "fusion_lat": 0.0, "name": "3ecdefeef3818f858673273776d5e22b", "is_reserved": 0, "rental_uris": {"android": "https://dc.lft.to/lastmile_qr_scan", "ios": "https://dc.lft.to/lastmile_qr_scan"}, "fusion_lon": 0.0}, {"lat": 38.8766815, "is_disabled": 0, "type": "electric_scooter", "lon": -77.01760266666666, "bike_id": "97539d6b1e4aca562d0d0d7a89bb1d2e", "fusion_lat": 0.0, "name": "97539d6b1e4aca562d0d0d7a89bb1d2e", "is_reserved": 0, "rental_uris": {"android": "https://dc.lft.to/lastmile_qr_scan", "ios": "https://dc.lft.to/lastmile_qr_scan"}, "fusion_lon": 0.0}, {"lat": 38.88548683333333, "is_disabled": 0, "type": "electric_bike", "lon": -77.117867, "bike_id": "0dd1a9c8e3cd8b5d419c7ec365291d1c", "fusion_lat": 0.0, "name": "0dd1a9c8e3cd8b5d419c7ec365291d1c", "is_reserved": 0, "rental_uris": {"android": "https://dc.lft.to/lastmile_qr_scan", "ios": "https://dc.lft.to/lastmile_qr_scan"}, "fusion_lon": 0.0}, {"lat": 38.877184166666666, "is_disabled": 0, "type": "electric_scooter", "lon": -77.0175665, "bike_id": "8d1c36cb20440c88f70279f31ea553ff", "fusion_lat": 0.0, "name": "8d1c36cb20440c88f70279f31ea553ff", "is_reserved": 0, "rental_uris": {"android": "https://dc.lft.to/lastmile_qr_scan", "ios": "https://dc.lft.to/lastmile_qr_scan"}, "fusion_lon": 0.0}, {"lat": 38.884507, "is_disabled": 0, "type": "electric_scooter", "lon": -76.92962416666667, "bike_id": "f05e791d350c10195d31f809b1f3745d", "fusion_lat": 0.0, "name": "f05e791d350c10195d31f809b1f3745d", "is_reserved": 0, "rental_uris": {"android": "https://dc.lft.to/lastmile_qr_scan", "ios": "https://dc.lft.to/lastmile_qr_scan"}, "fusion_lon": 0.0}, {"lat": 38.92898916666667, "is_disabled": 0, "type": "electric_scooter", "lon": -77.0164885, "bike_id": "237fc63e8aa9ae48a4d30c3c4ccaf656", "fusion_lat": 0.0, "name": "237fc63e8aa9ae48a4d30c3c4ccaf656", "is_reserved": 0, "rental_uris": {"android": "https://dc.lft.to/lastmile_qr_scan", "ios": "https://dc.lft.to/lastmile_qr_scan"}, "fusion_lon": 0.0}, {"lat": 38.934307833333335, "is_disabled": 0, "type": "electric_scooter", "lon": -76.96510133333334, "bike_id": "08c4782729ccce278e49e7a7b8104e0c", "fusion_lat": 0.0, "name": "08c4782729ccce278e49e7a7b8104e0c", "is_reserved": 0, "rental_uris": {"android": "https://dc.lft.to/lastmile_qr_scan", "ios": "https://dc.lft.to/lastmile_qr_scan"}, "fusion_lon": 0.0}, {"lat": 38.9571315, "is_disabled": 0, "type": "electric_scooter", "lon": -77.02401666666667, "bike_id": "dbe038838c8f0a6ccd76ad851d2b1c6f", "fusion_lat": 0.0, "name": "dbe038838c8f0a6ccd76ad851d2b1c6f", "is_reserved": 0, "rental_uris": {"android": "https://dc.lft.to/lastmile_qr_scan", "ios": "https://dc.lft.to/lastmile_qr_scan"}, "fusion_lon": 0.0}, {"lat": 38.93376383333333, "is_disabled": 0, "type": "electric_scooter", "lon": -77.03553983333333, "bike_id": "3f26374949fdb00b92dfdd208107f560", "fusion_lat": 0.0, "name": "3f26374949fdb00b92dfdd208107f560", "is_reserved": 0, "rental_uris": {"android": "https://dc.lft.to/lastmile_qr_scan", "ios": "https://dc.lft.to/lastmile_qr_scan"}, "fusion_lon": 0.0}, {"lat": 38.898287, "is_disabled": 0, "type": "electric_scooter", "lon": -77.03324266666667, "bike_id": "9a69d2e7a9c456623756068d3c8140cd", "fusion_lat": 0.0, "name": "9a69d2e7a9c456623756068d3c8140cd", "is_reserved": 0, "rental_uris": {"android": "https://dc.lft.to/lastmile_qr_scan", "ios": "https://dc.lft.to/lastmile_qr_scan"}, "fusion_lon": 0.0}, {"lat": 38.998385999999996, "is_disabled": 0, "type": "electric_bike", "lon": -77.02866366666667, "bike_id": "f7e3de8f3a1f87cf8c8372ad7e509486", "fusion_lat": 0.0, "name": "f7e3de8f3a1f87cf8c8372ad7e509486", "is_reserved": 0, "rental_uris": {"android": "https://dc.lft.to/lastmile_qr_scan", "ios": "https://dc.lft.to/lastmile_qr_scan"}, "fusion_lon": 0.0}, {"lat": 38.887154, "is_disabled": 0, "type": "electric_bike", "lon": -77.1330395, "bike_id": "f7422785a7edafb93ae0babaf3a01256", "fusion_lat": 0.0, "name": "f7422785a7edafb93ae0babaf3a01256", "is_reserved": 0, "rental_uris": {"android": "https://dc.lft.to/lastmile_qr_scan", "ios": "https://dc.lft.to/lastmile_qr_scan"}, "fusion_lon": 0.0}, {"lat": 38.9004035, "is_disabled": 0, "type": "electric_scooter", "lon": -77.00197316666667, "bike_id": "b726b0528aa20b6e74cf835157681862", "fusion_lat": 0.0, "name": "b726b0528aa20b6e74cf835157681862", "is_reserved": 0, "rental_uris": {"android": "https://dc.lft.to/lastmile_qr_scan", "ios": "https://dc.lft.to/lastmile_qr_scan"}, "fusion_lon": 0.0}, {"lat": 38.90702683333333, "is_disabled": 0, "type": "electric_scooter", "lon": -77.043554, "bike_id": "7a65006fbe2cd36e196cfe9c1acef4e9", "fusion_lat": 0.0, "name": "7a65006fbe2cd36e196cfe9c1acef4e9", "is_reserved": 0, "rental_uris": {"android": "https://dc.lft.to/lastmile_qr_scan", "ios": "https://dc.lft.to/lastmile_qr_scan"}, "fusion_lon": 0.0}, {"lat": 38.87151633333333, "is_disabled": 0, "type": "electric_bike", "lon": -76.93669466666667, "bike_id": "0cc42f22186ea77e4042a53d0dcfed5d", "fusion_lat": 0.0, "name": "0cc42f22186ea77e4042a53d0dcfed5d", "is_reserved": 0, "rental_uris": {"android": "https://dc.lft.to/lastmile_qr_scan", "ios": "https://dc.lft.to/lastmile_qr_scan"}, "fusion_lon": 0.0}, {"lat": 38.90227816666667, "is_disabled": 0, "type": "electric_scooter", "lon": -77.02057866666667, "bike_id": "94f2771b62dae40d3d1b0f09f9c87763", "fusion_lat": 0.0, "name": "94f2771b62dae40d3d1b0f09f9c87763", "is_reserved": 0, "rental_uris": {"android": "https://dc.lft.to/lastmile_qr_scan", "ios": "https://dc.lft.to/lastmile_qr_scan"}, "fusion_lon": 0.0}, {"lat": 38.96625216666666, "is_disabled": 0, "type": "electric_bike", "lon": -76.97668383333334, "bike_id": "9362e3ae37d804146251c5c2df1e8151", "fusion_lat": 0.0, "name": "9362e3ae37d804146251c5c2df1e8151", "is_reserved": 0, "rental_uris": {"android": "https://dc.lft.to/lastmile_qr_scan", "ios": "https://dc.lft.to/lastmile_qr_scan"}, "fusion_lon": 0.0}, {"lat": 38.95079616666666, "is_disabled": 0, "type": "electric_bike", "lon": -77.01198516666666, "bike_id": "c8137017b4a13d72cbed6b0166c94234", "fusion_lat": 0.0, "name": "c8137017b4a13d72cbed6b0166c94234", "is_reserved": 0, "rental_uris": {"android": "https://dc.lft.to/lastmile_qr_scan", "ios": "https://dc.lft.to/lastmile_qr_scan"}, "fusion_lon": 0.0}, {"lat": 38.92362933333333, "is_disabled": 0, "type": "electric_scooter", "lon": -77.05097116666667, "bike_id": "c043c0e356857e98a331a5737570048b", "fusion_lat": 0.0, "name": "c043c0e356857e98a331a5737570048b", "is_reserved": 0, "rental_uris": {"android": "https://dc.lft.to/lastmile_qr_scan", "ios": "https://dc.lft.to/lastmile_qr_scan"}, "fusion_lon": 0.0}, {"lat": 38.9413885, "is_disabled": 0, "type": "electric_scooter", "lon": -77.0761655, "bike_id": "b9bee13ab63502cf385d8264512865aa", "fusion_lat": 0.0, "name": "b9bee13ab63502cf385d8264512865aa", "is_reserved": 0, "rental_uris": {"android": "https://dc.lft.to/lastmile_qr_scan", "ios": "https://dc.lft.to/lastmile_qr_scan"}, "fusion_lon": 0.0}, {"lat": 38.93175083333333, "is_disabled": 0, "type": "electric_scooter", "lon": -77.0281645, "bike_id": "25ff0d84f5565e9401eef5d98909622a", "fusion_lat": 0.0, "name": "25ff0d84f5565e9401eef5d98909622a", "is_reserved": 0, "rental_uris": {"android": "https://dc.lft.to/lastmile_qr_scan", "ios": "https://dc.lft.to/lastmile_qr_scan"}, "fusion_lon": 0.0}, {"lat": 38.90813816666667, "is_disabled": 0, "type": "electric_scooter", "lon": -76.99712716666667, "bike_id": "d6538f994fe1e4098c8572ec8bdf4c25", "fusion_lat": 0.0, "name": "d6538f994fe1e4098c8572ec8bdf4c25", "is_reserved": 0, "rental_uris": {"android": "https://dc.lft.to/lastmile_qr_scan", "ios": "https://dc.lft.to/lastmile_qr_scan"}, "fusion_lon": 0.0}, {"lat": 38.93407416666667, "is_disabled": 0, "type": "electric_scooter", "lon": -77.02035866666667, "bike_id": "e53449a3df45cf528de4d8267308cb75", "fusion_lat": 0.0, "name": "e53449a3df45cf528de4d8267308cb75", "is_reserved": 0, "rental_uris": {"android": "https://dc.lft.to/lastmile_qr_scan", "ios": "https://dc.lft.to/lastmile_qr_scan"}, "fusion_lon": 0.0}, {"lat": 38.905147666666664, "is_disabled": 0, "type": "electric_scooter", "lon": -77.064454, "bike_id": "7ac15ee15111e66346abfe6aa1a4ddcb", "fusion_lat": 0.0, "name": "7ac15ee15111e66346abfe6aa1a4ddcb", "is_reserved": 0, "rental_uris": {"android": "https://dc.lft.to/lastmile_qr_scan", "ios": "https://dc.lft.to/lastmile_qr_scan"}, "fusion_lon": 0.0}, {"lat": 38.919785166666664, "is_disabled": 0, "type": "electric_scooter", "lon": -77.01205816666666, "bike_id": "059bf57c0b1bf7288e3e127f166bad4d", "fusion_lat": 0.0, "name": "059bf57c0b1bf7288e3e127f166bad4d", "is_reserved": 0, "rental_uris": {"android": "https://dc.lft.to/lastmile_qr_scan", "ios": "https://dc.lft.to/lastmile_qr_scan"}, "fusion_lon": 0.0}, {"lat": 38.922523166666664, "is_disabled": 0, "type": "electric_scooter", "lon": -77.0197475, "bike_id": "2ca8e95e8fbb31bc2e80bfc21785848b", "fusion_lat": 0.0, "name": "2ca8e95e8fbb31bc2e80bfc21785848b", "is_reserved": 0, "rental_uris": {"android": "https://dc.lft.to/lastmile_qr_scan", "ios": "https://dc.lft.to/lastmile_qr_scan"}, "fusion_lon": 0.0}, {"lat": 38.888877, "is_disabled": 0, "type": "electric_scooter", "lon": -76.93155566666667, "bike_id": "4c3de22a797d0d3678666c79780e41e2", "fusion_lat": 0.0, "name": "4c3de22a797d0d3678666c79780e41e2", "is_reserved": 0, "rental_uris": {"android": "https://dc.lft.to/lastmile_qr_scan", "ios": "https://dc.lft.to/lastmile_qr_scan"}, "fusion_lon": 0.0}, {"lat": 38.905577, "is_disabled": 0, "type": "electric_scooter", "lon": -76.98377833333333, "bike_id": "d42e7a102f63720d1bab20374248a211", "fusion_lat": 0.0, "name": "d42e7a102f63720d1bab20374248a211", "is_reserved": 0, "rental_uris": {"android": "https://dc.lft.to/lastmile_qr_scan", "ios": "https://dc.lft.to/lastmile_qr_scan"}, "fusion_lon": 0.0}, {"lat": 38.92349983333333, "is_disabled": 0, "type": "electric_scooter", "lon": -77.04148766666667, "bike_id": "2847963dcbd3c4d7a0509ca7d5ba5e82", "fusion_lat": 0.0, "name": "2847963dcbd3c4d7a0509ca7d5ba5e82", "is_reserved": 0, "rental_uris": {"android": "https://dc.lft.to/lastmile_qr_scan", "ios": "https://dc.lft.to/lastmile_qr_scan"}, "fusion_lon": 0.0}, {"lat": 38.9443495, "is_disabled": 0, "type": "electric_scooter", "lon": -77.06304616666667, "bike_id": "24415b24f9ebb2dc3aed54b206dd81f7", "fusion_lat": 0.0, "name": "24415b24f9ebb2dc3aed54b206dd81f7", "is_reserved": 0, "rental_uris": {"android": "https://dc.lft.to/lastmile_qr_scan", "ios": "https://dc.lft.to/lastmile_qr_scan"}, "fusion_lon": 0.0}, {"lat": 38.914084833333334, "is_disabled": 0, "type": "electric_scooter", "lon": -77.0322215, "bike_id": "aef67484700fbc36c4258531b14db127", "fusion_lat": 0.0, "name": "aef67484700fbc36c4258531b14db127", "is_reserved": 0, "rental_uris": {"android": "https://dc.lft.to/lastmile_qr_scan", "ios": "https://dc.lft.to/lastmile_qr_scan"}, "fusion_lon": 0.0}, {"lat": 38.915839166666665, "is_disabled": 0, "type": "electric_scooter", "lon": -77.04660083333333, "bike_id": "c70bf62b2d97f5796f92562975f477a6", "fusion_lat": 0.0, "name": "c70bf62b2d97f5796f92562975f477a6", "is_reserved": 0, "rental_uris": {"android": "https://dc.lft.to/lastmile_qr_scan", "ios": "https://dc.lft.to/lastmile_qr_scan"}, "fusion_lon": 0.0}, {"lat": 38.935813, "is_disabled": 0, "type": "electric_bike", "lon": -77.1068365, "bike_id": "5e9ebf28c6f72e3fb6ff6e281cb5506d", "fusion_lat": 0.0, "name": "5e9ebf28c6f72e3fb6ff6e281cb5506d", "is_reserved": 0, "rental_uris": {"android": "https://dc.lft.to/lastmile_qr_scan", "ios": "https://dc.lft.to/lastmile_qr_scan"}, "fusion_lon": 0.0}, {"lat": 38.884577666666665, "is_disabled": 0, "type": "electric_scooter", "lon": -76.926205, "bike_id": "9014eebc7e39f99a344d9ec7ab8ba041", "fusion_lat": 0.0, "name": "9014eebc7e39f99a344d9ec7ab8ba041", "is_reserved": 0, "rental_uris": {"android": "https://dc.lft.to/lastmile_qr_scan", "ios": "https://dc.lft.to/lastmile_qr_scan"}, "fusion_lon": 0.0}, {"lat": 38.9002775, "is_disabled": 0, "type": "electric_scooter", "lon": -76.9981335, "bike_id": "107c740622541fc028e9d58a50b5bba3", "fusion_lat": 0.0, "name": "107c740622541fc028e9d58a50b5bba3", "is_reserved": 0, "rental_uris": {"android": "https://dc.lft.to/lastmile_qr_scan", "ios": "https://dc.lft.to/lastmile_qr_scan"}, "fusion_lon": 0.0}, {"lat": 38.896237666666664, "is_disabled": 0, "type": "electric_scooter", "lon": -77.04479, "bike_id": "352bb0e745fe0474cdaa4d8045a30ec6", "fusion_lat": 0.0, "name": "352bb0e745fe0474cdaa4d8045a30ec6", "is_reserved": 0, "rental_uris": {"android": "https://dc.lft.to/lastmile_qr_scan", "ios": "https://dc.lft.to/lastmile_qr_scan"}, "fusion_lon": 0.0}, {"lat": 38.925028, "is_disabled": 0, "type": "electric_scooter", "lon": -77.037893, "bike_id": "3195dd26173f2f5b1a8cfa776052c7f2", "fusion_lat": 0.0, "name": "3195dd26173f2f5b1a8cfa776052c7f2", "is_reserved": 0, "rental_uris": {"android": "https://dc.lft.to/lastmile_qr_scan", "ios": "https://dc.lft.to/lastmile_qr_scan"}, "fusion_lon": 0.0}, {"lat": 38.937593166666666, "is_disabled": 0, "type": "electric_scooter", "lon": -77.03143266666666, "bike_id": "97d8a89982825e638f6f26fc58fd26be", "fusion_lat": 0.0, "name": "97d8a89982825e638f6f26fc58fd26be", "is_reserved": 0, "rental_uris": {"android": "https://dc.lft.to/lastmile_qr_scan", "ios": "https://dc.lft.to/lastmile_qr_scan"}, "fusion_lon": 0.0}, {"lat": 38.938737833333334, "is_disabled": 0, "type": "electric_scooter", "lon": -77.024439, "bike_id": "9615ae2cd616ce3db15100fd93c4ad22", "fusion_lat": 0.0, "name": "9615ae2cd616ce3db15100fd93c4ad22", "is_reserved": 0, "rental_uris": {"android": "https://dc.lft.to/lastmile_qr_scan", "ios": "https://dc.lft.to/lastmile_qr_scan"}, "fusion_lon": 0.0}, {"lat": 38.90911583333333, "is_disabled": 0, "type": "electric_scooter", "lon": -77.03639933333334, "bike_id": "acfe71599e5fe4f805156cb4a12baf52", "fusion_lat": 0.0, "name": "acfe71599e5fe4f805156cb4a12baf52", "is_reserved": 0, "rental_uris": {"android": "https://dc.lft.to/lastmile_qr_scan", "ios": "https://dc.lft.to/lastmile_qr_scan"}, "fusion_lon": 0.0}, {"lat": 38.90889983333334, "is_disabled": 0, "type": "electric_scooter", "lon": -77.06444483333334, "bike_id": "26965dc328e028d50cdf8c47e1382aaf", "fusion_lat": 0.0, "name": "26965dc328e028d50cdf8c47e1382aaf", "is_reserved": 0, "rental_uris": {"android": "https://dc.lft.to/lastmile_qr_scan", "ios": "https://dc.lft.to/lastmile_qr_scan"}, "fusion_lon": 0.0}, {"lat": 38.931820333333334, "is_disabled": 0, "type": "electric_scooter", "lon": -77.03153466666667, "bike_id": "7e6a3fcb60a0c96959c771a3de02ccec", "fusion_lat": 0.0, "name": "7e6a3fcb60a0c96959c771a3de02ccec", "is_reserved": 0, "rental_uris": {"android": "https://dc.lft.to/lastmile_qr_scan", "ios": "https://dc.lft.to/lastmile_qr_scan"}, "fusion_lon": 0.0}, {"lat": 38.91017433333333, "is_disabled": 0, "type": "electric_scooter", "lon": -77.03842483333334, "bike_id": "0e39a5b255b5c78822f3404577f4b1e2", "fusion_lat": 0.0, "name": "0e39a5b255b5c78822f3404577f4b1e2", "is_reserved": 0, "rental_uris": {"android": "https://dc.lft.to/lastmile_qr_scan", "ios": "https://dc.lft.to/lastmile_qr_scan"}, "fusion_lon": 0.0}, {"lat": 38.928533, "is_disabled": 0, "type": "electric_bike", "lon": -77.10677033333333, "bike_id": "00054f721aa8b87efcb6d2e249e0f484", "fusion_lat": 0.0, "name": "00054f721aa8b87efcb6d2e249e0f484", "is_reserved": 0, "rental_uris": {"android": "https://dc.lft.to/lastmile_qr_scan", "ios": "https://dc.lft.to/lastmile_qr_scan"}, "fusion_lon": 0.0}, {"lat": 38.906123, "is_disabled": 0, "type": "electric_scooter", "lon": -77.06518083333333, "bike_id": "bb98324ae0dedbeab14b25290716b56b", "fusion_lat": 0.0, "name": "bb98324ae0dedbeab14b25290716b56b", "is_reserved": 0, "rental_uris": {"android": "https://dc.lft.to/lastmile_qr_scan", "ios": "https://dc.lft.to/lastmile_qr_scan"}, "fusion_lon": 0.0}, {"lat": 38.807437666666665, "is_disabled": 0, "type": "electric_bike", "lon": -77.094289, "bike_id": "ff48087434706c9c7498525fa75094ca", "fusion_lat": 0.0, "name": "ff48087434706c9c7498525fa75094ca", "is_reserved": 0, "rental_uris": {"android": "https://dc.lft.to/lastmile_qr_scan", "ios": "https://dc.lft.to/lastmile_qr_scan"}, "fusion_lon": 0.0}, {"lat": 38.913892, "is_disabled": 0, "type": "electric_scooter", "lon": -77.03668983333333, "bike_id": "6ba3f90168fba809d88ab6b5d2c1141f", "fusion_lat": 0.0, "name": "6ba3f90168fba809d88ab6b5d2c1141f", "is_reserved": 0, "rental_uris": {"android": "https://dc.lft.to/lastmile_qr_scan", "ios": "https://dc.lft.to/lastmile_qr_scan"}, "fusion_lon": 0.0}, {"lat": 38.90610566666667, "is_disabled": 0, "type": "electric_scooter", "lon": -77.063006, "bike_id": "a6af109b6f189a4d9d93de92af8ff753", "fusion_lat": 0.0, "name": "a6af109b6f189a4d9d93de92af8ff753", "is_reserved": 0, "rental_uris": {"android": "https://dc.lft.to/lastmile_qr_scan", "ios": "https://dc.lft.to/lastmile_qr_scan"}, "fusion_lon": 0.0}, {"lat": 38.93337733333333, "is_disabled": 0, "type": "electric_scooter", "lon": -77.023991, "bike_id": "8cd8d5cf1e5d2ab93c3d6e251fb77b8d", "fusion_lat": 0.0, "name": "8cd8d5cf1e5d2ab93c3d6e251fb77b8d", "is_reserved": 0, "rental_uris": {"android": "https://dc.lft.to/lastmile_qr_scan", "ios": "https://dc.lft.to/lastmile_qr_scan"}, "fusion_lon": 0.0}, {"lat": 38.91410783333333, "is_disabled": 0, "type": "electric_scooter", "lon": -77.0223315, "bike_id": "9a86a588dd2947791dc7853213e55ca6", "fusion_lat": 0.0, "name": "9a86a588dd2947791dc7853213e55ca6", "is_reserved": 0, "rental_uris": {"android": "https://dc.lft.to/lastmile_qr_scan", "ios": "https://dc.lft.to/lastmile_qr_scan"}, "fusion_lon": 0.0}, {"lat": 38.918337333333334, "is_disabled": 0, "type": "electric_scooter", "lon": -77.0455475, "bike_id": "3ded9fd4c9907ca420a4d79e7dbe2794", "fusion_lat": 0.0, "name": "3ded9fd4c9907ca420a4d79e7dbe2794", "is_reserved": 0, "rental_uris": {"android": "https://dc.lft.to/lastmile_qr_scan", "ios": "https://dc.lft.to/lastmile_qr_scan"}, "fusion_lon": 0.0}, {"lat": 38.90952583333333, "is_disabled": 0, "type": "electric_scooter", "lon": -77.04046133333334, "bike_id": "079a06f52cef65942366891677d46542", "fusion_lat": 0.0, "name": "079a06f52cef65942366891677d46542", "is_reserved": 0, "rental_uris": {"android": "https://dc.lft.to/lastmile_qr_scan", "ios": "https://dc.lft.to/lastmile_qr_scan"}, "fusion_lon": 0.0}, {"lat": 38.917146833333334, "is_disabled": 0, "type": "electric_scooter", "lon": -77.030891, "bike_id": "06bbacb6a555cab3487b018471d13ae3", "fusion_lat": 0.0, "name": "06bbacb6a555cab3487b018471d13ae3", "is_reserved": 0, "rental_uris": {"android": "https://dc.lft.to/lastmile_qr_scan", "ios": "https://dc.lft.to/lastmile_qr_scan"}, "fusion_lon": 0.0}, {"lat": 38.95405266666667, "is_disabled": 0, "type": "electric_scooter", "lon": -77.027511, "bike_id": "c6c8223f0d219941ffe786faebc588af", "fusion_lat": 0.0, "name": "c6c8223f0d219941ffe786faebc588af", "is_reserved": 0, "rental_uris": {"android": "https://dc.lft.to/lastmile_qr_scan", "ios": "https://dc.lft.to/lastmile_qr_scan"}, "fusion_lon": 0.0}, {"lat": 38.918207, "is_disabled": 0, "type": "electric_scooter", "lon": -77.02611266666666, "bike_id": "d364e9606984952f24b04245a2582366", "fusion_lat": 0.0, "name": "d364e9606984952f24b04245a2582366", "is_reserved": 0, "rental_uris": {"android": "https://dc.lft.to/lastmile_qr_scan", "ios": "https://dc.lft.to/lastmile_qr_scan"}, "fusion_lon": 0.0}, {"lat": 38.905582833333334, "is_disabled": 0, "type": "electric_scooter", "lon": -77.056922, "bike_id": "0095102ebdea88bd9bde085673a9e7c9", "fusion_lat": 0.0, "name": "0095102ebdea88bd9bde085673a9e7c9", "is_reserved": 0, "rental_uris": {"android": "https://dc.lft.to/lastmile_qr_scan", "ios": "https://dc.lft.to/lastmile_qr_scan"}, "fusion_lon": 0.0}, {"lat": 38.90378283333333, "is_disabled": 0, "type": "electric_bike", "lon": -77.01593166666666, "bike_id": "8928a29f9a7b1bd51f943fac3052f0cb", "fusion_lat": 0.0, "name": "8928a29f9a7b1bd51f943fac3052f0cb", "is_reserved": 0, "rental_uris": {"android": "https://dc.lft.to/lastmile_qr_scan", "ios": "https://dc.lft.to/lastmile_qr_scan"}, "fusion_lon": 0.0}, {"lat": 38.802664, "is_disabled": 0, "type": "electric_bike", "lon": -77.08113366666667, "bike_id": "c25045e04ea091b3a17da803264be41e", "fusion_lat": 0.0, "name": "c25045e04ea091b3a17da803264be41e", "is_reserved": 0, "rental_uris": {"android": "https://dc.lft.to/lastmile_qr_scan", "ios": "https://dc.lft.to/lastmile_qr_scan"}, "fusion_lon": 0.0}, {"lat": 38.934801666666665, "is_disabled": 0, "type": "electric_scooter", "lon": -77.03399333333333, "bike_id": "0116b239e2a31be01e491b30ca5634bf", "fusion_lat": 0.0, "name": "0116b239e2a31be01e491b30ca5634bf", "is_reserved": 0, "rental_uris": {"android": "https://dc.lft.to/lastmile_qr_scan", "ios": "https://dc.lft.to/lastmile_qr_scan"}, "fusion_lon": 0.0}, {"lat": 38.85318016666667, "is_disabled": 0, "type": "electric_scooter", "lon": -76.98024116666667, "bike_id": "a3a2d859faf631035f07241e58112404", "fusion_lat": 0.0, "name": "a3a2d859faf631035f07241e58112404", "is_reserved": 0, "rental_uris": {"android": "https://dc.lft.to/lastmile_qr_scan", "ios": "https://dc.lft.to/lastmile_qr_scan"}, "fusion_lon": 0.0}, {"lat": 38.87403333333334, "is_disabled": 0, "type": "electric_scooter", "lon": -77.0145285, "bike_id": "9e397d4645819e184bf2c81113589202", "fusion_lat": 0.0, "name": "9e397d4645819e184bf2c81113589202", "is_reserved": 0, "rental_uris": {"android": "https://dc.lft.to/lastmile_qr_scan", "ios": "https://dc.lft.to/lastmile_qr_scan"}, "fusion_lon": 0.0}, {"lat": 38.90140366666667, "is_disabled": 0, "type": "electric_scooter", "lon": -77.00345533333333, "bike_id": "1f2fd365999c097708e5e3d649270240", "fusion_lat": 0.0, "name": "1f2fd365999c097708e5e3d649270240", "is_reserved": 0, "rental_uris": {"android": "https://dc.lft.to/lastmile_qr_scan", "ios": "https://dc.lft.to/lastmile_qr_scan"}, "fusion_lon": 0.0}, {"lat": 38.93749783333333, "is_disabled": 0, "type": "electric_scooter", "lon": -77.03501833333333, "bike_id": "aab7ac7ee072b29a38bd44af81211bcf", "fusion_lat": 0.0, "name": "aab7ac7ee072b29a38bd44af81211bcf", "is_reserved": 0, "rental_uris": {"android": "https://dc.lft.to/lastmile_qr_scan", "ios": "https://dc.lft.to/lastmile_qr_scan"}, "fusion_lon": 0.0}, {"lat": 38.872334333333335, "is_disabled": 0, "type": "electric_scooter", "lon": -77.01192916666666, "bike_id": "857c23ca7274edf8eac75aee9578bac2", "fusion_lat": 0.0, "name": "857c23ca7274edf8eac75aee9578bac2", "is_reserved": 0, "rental_uris": {"android": "https://dc.lft.to/lastmile_qr_scan", "ios": "https://dc.lft.to/lastmile_qr_scan"}, "fusion_lon": 0.0}, {"lat": 38.907168166666665, "is_disabled": 0, "type": "electric_scooter", "lon": -77.02980166666667, "bike_id": "4023a656ce028ed84e818778315af001", "fusion_lat": 0.0, "name": "4023a656ce028ed84e818778315af001", "is_reserved": 0, "rental_uris": {"android": "https://dc.lft.to/lastmile_qr_scan", "ios": "https://dc.lft.to/lastmile_qr_scan"}, "fusion_lon": 0.0}, {"lat": 38.881118, "is_disabled": 0, "type": "electric_scooter", "lon": -77.01971383333333, "bike_id": "b6bc1cd726d5dce3a45d88b2642c74dc", "fusion_lat": 0.0, "name": "b6bc1cd726d5dce3a45d88b2642c74dc", "is_reserved": 0, "rental_uris": {"android": "https://dc.lft.to/lastmile_qr_scan", "ios": "https://dc.lft.to/lastmile_qr_scan"}, "fusion_lon": 0.0}, {"lat": 38.9261485, "is_disabled": 0, "type": "electric_scooter", "lon": -77.0441845, "bike_id": "48c58031fa4faba75ce43ab41fe5bb8a", "fusion_lat": 0.0, "name": "48c58031fa4faba75ce43ab41fe5bb8a", "is_reserved": 0, "rental_uris": {"android": "https://dc.lft.to/lastmile_qr_scan", "ios": "https://dc.lft.to/lastmile_qr_scan"}, "fusion_lon": 0.0}, {"lat": 38.89611883333333, "is_disabled": 0, "type": "electric_scooter", "lon": -76.9566425, "bike_id": "8a7fba5415f89cb7fbfa766ebf92778f", "fusion_lat": 0.0, "name": "8a7fba5415f89cb7fbfa766ebf92778f", "is_reserved": 0, "rental_uris": {"android": "https://dc.lft.to/lastmile_qr_scan", "ios": "https://dc.lft.to/lastmile_qr_scan"}, "fusion_lon": 0.0}, {"lat": 38.909727333333336, "is_disabled": 0, "type": "electric_scooter", "lon": -77.03215683333333, "bike_id": "e66a4acdb59093c72d74948f5bf19abc", "fusion_lat": 0.0, "name": "e66a4acdb59093c72d74948f5bf19abc", "is_reserved": 0, "rental_uris": {"android": "https://dc.lft.to/lastmile_qr_scan", "ios": "https://dc.lft.to/lastmile_qr_scan"}, "fusion_lon": 0.0}, {"lat": 38.92760583333333, "is_disabled": 0, "type": "electric_scooter", "lon": -77.032395, "bike_id": "8510324af2b11f2595b030d205dfad5d", "fusion_lat": 0.0, "name": "8510324af2b11f2595b030d205dfad5d", "is_reserved": 0, "rental_uris": {"android": "https://dc.lft.to/lastmile_qr_scan", "ios": "https://dc.lft.to/lastmile_qr_scan"}, "fusion_lon": 0.0}, {"lat": 38.906433, "is_disabled": 0, "type": "electric_scooter", "lon": -77.00585983333333, "bike_id": "ca8b06240472929d55e037722d3881e8", "fusion_lat": 0.0, "name": "ca8b06240472929d55e037722d3881e8", "is_reserved": 0, "rental_uris": {"android": "https://dc.lft.to/lastmile_qr_scan", "ios": "https://dc.lft.to/lastmile_qr_scan"}, "fusion_lon": 0.0}, {"lat": 38.909678, "is_disabled": 0, "type": "electric_scooter", "lon": -77.03857416666666, "bike_id": "6d2f9220aa081c11a32c67946e668df2", "fusion_lat": 0.0, "name": "6d2f9220aa081c11a32c67946e668df2", "is_reserved": 0, "rental_uris": {"android": "https://dc.lft.to/lastmile_qr_scan", "ios": "https://dc.lft.to/lastmile_qr_scan"}, "fusion_lon": 0.0}, {"lat": 38.88738883333333, "is_disabled": 0, "type": "electric_scooter", "lon": -77.0207405, "bike_id": "1dcfc93fa926b911e03d9865f94b9f7d", "fusion_lat": 0.0, "name": "1dcfc93fa926b911e03d9865f94b9f7d", "is_reserved": 0, "rental_uris": {"android": "https://dc.lft.to/lastmile_qr_scan", "ios": "https://dc.lft.to/lastmile_qr_scan"}, "fusion_lon": 0.0}, {"lat": 38.897744333333335, "is_disabled": 0, "type": "electric_scooter", "lon": -77.04363233333333, "bike_id": "d40d3b3dc12c5d9947c0b0ba5f5c0f22", "fusion_lat": 0.0, "name": "d40d3b3dc12c5d9947c0b0ba5f5c0f22", "is_reserved": 0, "rental_uris": {"android": "https://dc.lft.to/lastmile_qr_scan", "ios": "https://dc.lft.to/lastmile_qr_scan"}, "fusion_lon": 0.0}, {"lat": 38.95613433333333, "is_disabled": 0, "type": "electric_scooter", "lon": -77.02779016666666, "bike_id": "d5f06f7f5c871f78deac36e6d9ad49c6", "fusion_lat": 0.0, "name": "d5f06f7f5c871f78deac36e6d9ad49c6", "is_reserved": 0, "rental_uris": {"android": "https://dc.lft.to/lastmile_qr_scan", "ios": "https://dc.lft.to/lastmile_qr_scan"}, "fusion_lon": 0.0}, {"lat": 38.962854, "is_disabled": 0, "type": "electric_bike", "lon": -77.03248416666666, "bike_id": "090a3cbce0af774b150089ea44e469e9", "fusion_lat": 0.0, "name": "090a3cbce0af774b150089ea44e469e9", "is_reserved": 0, "rental_uris": {"android": "https://dc.lft.to/lastmile_qr_scan", "ios": "https://dc.lft.to/lastmile_qr_scan"}, "fusion_lon": 0.0}, {"lat": 38.917714333333336, "is_disabled": 0, "type": "electric_scooter", "lon": -77.0230545, "bike_id": "9e7485eca51a9036e8f975c1f21daa8a", "fusion_lat": 0.0, "name": "9e7485eca51a9036e8f975c1f21daa8a", "is_reserved": 0, "rental_uris": {"android": "https://dc.lft.to/lastmile_qr_scan", "ios": "https://dc.lft.to/lastmile_qr_scan"}, "fusion_lon": 0.0}, {"lat": 38.923299666666665, "is_disabled": 0, "type": "electric_bike", "lon": -77.05681666666666, "bike_id": "f90b16b8cdf7970c909ce1da9f7eff77", "fusion_lat": 0.0, "name": "f90b16b8cdf7970c909ce1da9f7eff77", "is_reserved": 0, "rental_uris": {"android": "https://dc.lft.to/lastmile_qr_scan", "ios": "https://dc.lft.to/lastmile_qr_scan"}, "fusion_lon": 0.0}, {"lat": 38.91297516666667, "is_disabled": 0, "type": "electric_scooter", "lon": -77.0363805, "bike_id": "051476e1aa46e9aa7fb4e57f1f17cf1e", "fusion_lat": 0.0, "name": "051476e1aa46e9aa7fb4e57f1f17cf1e", "is_reserved": 0, "rental_uris": {"android": "https://dc.lft.to/lastmile_qr_scan", "ios": "https://dc.lft.to/lastmile_qr_scan"}, "fusion_lon": 0.0}, {"lat": 38.8984975, "is_disabled": 0, "type": "electric_scooter", "lon": -76.99034216666666, "bike_id": "38b260ee5bd833cc468d265506ddb73d", "fusion_lat": 0.0, "name": "38b260ee5bd833cc468d265506ddb73d", "is_reserved": 0, "rental_uris": {"android": "https://dc.lft.to/lastmile_qr_scan", "ios": "https://dc.lft.to/lastmile_qr_scan"}, "fusion_lon": 0.0}, {"lat": 38.95534883333333, "is_disabled": 0, "type": "electric_bike", "lon": -77.01780933333333, "bike_id": "8d3ddde6a5100663015566a6ddf7c47f", "fusion_lat": 0.0, "name": "8d3ddde6a5100663015566a6ddf7c47f", "is_reserved": 0, "rental_uris": {"android": "https://dc.lft.to/lastmile_qr_scan", "ios": "https://dc.lft.to/lastmile_qr_scan"}, "fusion_lon": 0.0}, {"lat": 38.9156955, "is_disabled": 0, "type": "electric_scooter", "lon": -77.04669933333334, "bike_id": "45a49492400cd44107ac637504580484", "fusion_lat": 0.0, "name": "45a49492400cd44107ac637504580484", "is_reserved": 0, "rental_uris": {"android": "https://dc.lft.to/lastmile_qr_scan", "ios": "https://dc.lft.to/lastmile_qr_scan"}, "fusion_lon": 0.0}, {"lat": 38.930103833333334, "is_disabled": 0, "type": "electric_bike", "lon": -77.2164865, "bike_id": "50fc8b95c12fdec301a2274e9c64418e", "fusion_lat": 0.0, "name": "50fc8b95c12fdec301a2274e9c64418e", "is_reserved": 0, "rental_uris": {"android": "https://dc.lft.to/lastmile_qr_scan", "ios": "https://dc.lft.to/lastmile_qr_scan"}, "fusion_lon": 0.0}, {"lat": 38.902148333333336, "is_disabled": 0, "type": "electric_scooter", "lon": -76.94590866666667, "bike_id": "c91735575e46c7a3cd71285f6cf977f1", "fusion_lat": 0.0, "name": "c91735575e46c7a3cd71285f6cf977f1", "is_reserved": 0, "rental_uris": {"android": "https://dc.lft.to/lastmile_qr_scan", "ios": "https://dc.lft.to/lastmile_qr_scan"}, "fusion_lon": 0.0}, {"lat": 38.828737833333335, "is_disabled": 0, "type": "electric_bike", "lon": -77.11221333333333, "bike_id": "86d2ac9c191fe62fec9637db8bb8cc91", "fusion_lat": 0.0, "name": "86d2ac9c191fe62fec9637db8bb8cc91", "is_reserved": 0, "rental_uris": {"android": "https://dc.lft.to/lastmile_qr_scan", "ios": "https://dc.lft.to/lastmile_qr_scan"}, "fusion_lon": 0.0}, {"lat": 38.91919333333333, "is_disabled": 0, "type": "electric_scooter", "lon": -77.03179383333334, "bike_id": "4c93ff86307fdfb5d993ec66efbc50f2", "fusion_lat": 0.0, "name": "4c93ff86307fdfb5d993ec66efbc50f2", "is_reserved": 0, "rental_uris": {"android": "https://dc.lft.to/lastmile_qr_scan", "ios": "https://dc.lft.to/lastmile_qr_scan"}, "fusion_lon": 0.0}, {"lat": 38.91558366666667, "is_disabled": 0, "type": "electric_scooter", "lon": -77.03858616666666, "bike_id": "be42e2e277a5e8eeb4305ad13735267c", "fusion_lat": 0.0, "name": "be42e2e277a5e8eeb4305ad13735267c", "is_reserved": 0, "rental_uris": {"android": "https://dc.lft.to/lastmile_qr_scan", "ios": "https://dc.lft.to/lastmile_qr_scan"}, "fusion_lon": 0.0}, {"lat": 38.905526, "is_disabled": 0, "type": "electric_scooter", "lon": -77.005983, "bike_id": "24db61f9fc9d2b65db87ced9fd1e22d1", "fusion_lat": 0.0, "name": "24db61f9fc9d2b65db87ced9fd1e22d1", "is_reserved": 0, "rental_uris": {"android": "https://dc.lft.to/lastmile_qr_scan", "ios": "https://dc.lft.to/lastmile_qr_scan"}, "fusion_lon": 0.0}, {"lat": 38.90365466666667, "is_disabled": 0, "type": "electric_scooter", "lon": -77.03872883333334, "bike_id": "8cf287d7568b0c4189984e56b7271a54", "fusion_lat": 0.0, "name": "8cf287d7568b0c4189984e56b7271a54", "is_reserved": 0, "rental_uris": {"android": "https://dc.lft.to/lastmile_qr_scan", "ios": "https://dc.lft.to/lastmile_qr_scan"}, "fusion_lon": 0.0}, {"lat": 38.909849333333334, "is_disabled": 0, "type": "electric_scooter", "lon": -76.99742583333334, "bike_id": "4f8ac82db3808a9fd66f7056c88a32b7", "fusion_lat": 0.0, "name": "4f8ac82db3808a9fd66f7056c88a32b7", "is_reserved": 0, "rental_uris": {"android": "https://dc.lft.to/lastmile_qr_scan", "ios": "https://dc.lft.to/lastmile_qr_scan"}, "fusion_lon": 0.0}, {"lat": 38.903865333333336, "is_disabled": 0, "type": "electric_scooter", "lon": -77.02163116666667, "bike_id": "5ef1d9aa72de88b1aa0acbb729d72090", "fusion_lat": 0.0, "name": "5ef1d9aa72de88b1aa0acbb729d72090", "is_reserved": 0, "rental_uris": {"android": "https://dc.lft.to/lastmile_qr_scan", "ios": "https://dc.lft.to/lastmile_qr_scan"}, "fusion_lon": 0.0}, {"lat": 38.87132733333333, "is_disabled": 0, "type": "electric_scooter", "lon": -77.00781266666667, "bike_id": "15742dd7c775fe94f476239ccade8fb1", "fusion_lat": 0.0, "name": "15742dd7c775fe94f476239ccade8fb1", "is_reserved": 0, "rental_uris": {"android": "https://dc.lft.to/lastmile_qr_scan", "ios": "https://dc.lft.to/lastmile_qr_scan"}, "fusion_lon": 0.0}, {"lat": 39.00015366666667, "is_disabled": 0, "type": "electric_bike", "lon": -76.91081383333334, "bike_id": "6dcbd17b4d250640db990d9d7e14aaf9", "fusion_lat": 0.0, "name": "6dcbd17b4d250640db990d9d7e14aaf9", "is_reserved": 0, "rental_uris": {"android": "https://dc.lft.to/lastmile_qr_scan", "ios": "https://dc.lft.to/lastmile_qr_scan"}, "fusion_lon": 0.0}, {"lat": 38.956165166666665, "is_disabled": 0, "type": "electric_scooter", "lon": -77.02783683333334, "bike_id": "c3445fd10ec6cc44a147a36596bd31fa", "fusion_lat": 0.0, "name": "c3445fd10ec6cc44a147a36596bd31fa", "is_reserved": 0, "rental_uris": {"android": "https://dc.lft.to/lastmile_qr_scan", "ios": "https://dc.lft.to/lastmile_qr_scan"}, "fusion_lon": 0.0}, {"lat": 38.866578833333335, "is_disabled": 0, "type": "electric_scooter", "lon": -76.98890433333334, "bike_id": "3158c69111757c358e9637afc94de286", "fusion_lat": 0.0, "name": "3158c69111757c358e9637afc94de286", "is_reserved": 0, "rental_uris": {"android": "https://dc.lft.to/lastmile_qr_scan", "ios": "https://dc.lft.to/lastmile_qr_scan"}, "fusion_lon": 0.0}, {"lat": 38.90192533333333, "is_disabled": 0, "type": "electric_scooter", "lon": -77.02414783333333, "bike_id": "6edc37d870a7fbf79573abe298c58f13", "fusion_lat": 0.0, "name": "6edc37d870a7fbf79573abe298c58f13", "is_reserved": 0, "rental_uris": {"android": "https://dc.lft.to/lastmile_qr_scan", "ios": "https://dc.lft.to/lastmile_qr_scan"}, "fusion_lon": 0.0}, {"lat": 38.9020845, "is_disabled": 0, "type": "electric_scooter", "lon": -77.02320566666667, "bike_id": "47c747274f3012575b97cb10ba1ee878", "fusion_lat": 0.0, "name": "47c747274f3012575b97cb10ba1ee878", "is_reserved": 0, "rental_uris": {"android": "https://dc.lft.to/lastmile_qr_scan", "ios": "https://dc.lft.to/lastmile_qr_scan"}, "fusion_lon": 0.0}, {"lat": 38.897344, "is_disabled": 0, "type": "electric_scooter", "lon": -76.94721616666666, "bike_id": "7e763cae0425753c406e41beb1bf73ce", "fusion_lat": 0.0, "name": "7e763cae0425753c406e41beb1bf73ce", "is_reserved": 0, "rental_uris": {"android": "https://dc.lft.to/lastmile_qr_scan", "ios": "https://dc.lft.to/lastmile_qr_scan"}, "fusion_lon": 0.0}, {"lat": 38.89893, "is_disabled": 0, "type": "electric_scooter", "lon": -76.98425683333333, "bike_id": "c649ec7730fbf9b2fe5726cc0b911de8", "fusion_lat": 0.0, "name": "c649ec7730fbf9b2fe5726cc0b911de8", "is_reserved": 0, "rental_uris": {"android": "https://dc.lft.to/lastmile_qr_scan", "ios": "https://dc.lft.to/lastmile_qr_scan"}, "fusion_lon": 0.0}, {"lat": 38.904034833333334, "is_disabled": 0, "type": "electric_scooter", "lon": -76.99289716666667, "bike_id": "8a0945e092635fcc4ddbbede40b56c41", "fusion_lat": 0.0, "name": "8a0945e092635fcc4ddbbede40b56c41", "is_reserved": 0, "rental_uris": {"android": "https://dc.lft.to/lastmile_qr_scan", "ios": "https://dc.lft.to/lastmile_qr_scan"}, "fusion_lon": 0.0}, {"lat": 38.903044333333334, "is_disabled": 0, "type": "electric_scooter", "lon": -77.05138466666666, "bike_id": "fa45b365af5b4b97fb5c6203e9e2dd86", "fusion_lat": 0.0, "name": "fa45b365af5b4b97fb5c6203e9e2dd86", "is_reserved": 0, "rental_uris": {"android": "https://dc.lft.to/lastmile_qr_scan", "ios": "https://dc.lft.to/lastmile_qr_scan"}, "fusion_lon": 0.0}, {"lat": 38.927094333333336, "is_disabled": 0, "type": "electric_scooter", "lon": -77.02408016666666, "bike_id": "69357dbd51c2afb69970a38bda45f3b5", "fusion_lat": 0.0, "name": "69357dbd51c2afb69970a38bda45f3b5", "is_reserved": 0, "rental_uris": {"android": "https://dc.lft.to/lastmile_qr_scan", "ios": "https://dc.lft.to/lastmile_qr_scan"}, "fusion_lon": 0.0}, {"lat": 38.90366916666667, "is_disabled": 0, "type": "electric_scooter", "lon": -77.0579015, "bike_id": "9b04d9fc56f46d9b85a15a5cda1bd0b4", "fusion_lat": 0.0, "name": "9b04d9fc56f46d9b85a15a5cda1bd0b4", "is_reserved": 0, "rental_uris": {"android": "https://dc.lft.to/lastmile_qr_scan", "ios": "https://dc.lft.to/lastmile_qr_scan"}, "fusion_lon": 0.0}, {"lat": 38.914169, "is_disabled": 0, "type": "electric_scooter", "lon": -77.035276, "bike_id": "0d0b7128c9031ec759fe4ec8b3e8f150", "fusion_lat": 0.0, "name": "0d0b7128c9031ec759fe4ec8b3e8f150", "is_reserved": 0, "rental_uris": {"android": "https://dc.lft.to/lastmile_qr_scan", "ios": "https://dc.lft.to/lastmile_qr_scan"}, "fusion_lon": 0.0}, {"lat": 38.909453166666665, "is_disabled": 0, "type": "electric_scooter", "lon": -77.04293216666667, "bike_id": "3a6447d4efda81f2223a9e43de7b09f1", "fusion_lat": 0.0, "name": "3a6447d4efda81f2223a9e43de7b09f1", "is_reserved": 0, "rental_uris": {"android": "https://dc.lft.to/lastmile_qr_scan", "ios": "https://dc.lft.to/lastmile_qr_scan"}, "fusion_lon": 0.0}, {"lat": 38.921763, "is_disabled": 0, "type": "electric_scooter", "lon": -77.038046, "bike_id": "a99a272295d2a7dd2a5f021f06ecd0cd", "fusion_lat": 0.0, "name": "a99a272295d2a7dd2a5f021f06ecd0cd", "is_reserved": 0, "rental_uris": {"android": "https://dc.lft.to/lastmile_qr_scan", "ios": "https://dc.lft.to/lastmile_qr_scan"}, "fusion_lon": 0.0}, {"lat": 38.91561466666667, "is_disabled": 0, "type": "electric_scooter", "lon": -77.03166716666667, "bike_id": "4340065583cd61f1f817f7378ae849e6", "fusion_lat": 0.0, "name": "4340065583cd61f1f817f7378ae849e6", "is_reserved": 0, "rental_uris": {"android": "https://dc.lft.to/lastmile_qr_scan", "ios": "https://dc.lft.to/lastmile_qr_scan"}, "fusion_lon": 0.0}, {"lat": 38.9096285, "is_disabled": 0, "type": "electric_scooter", "lon": -77.04511716666667, "bike_id": "010597849ab07cf7eecc9459499a333c", "fusion_lat": 0.0, "name": "010597849ab07cf7eecc9459499a333c", "is_reserved": 0, "rental_uris": {"android": "https://dc.lft.to/lastmile_qr_scan", "ios": "https://dc.lft.to/lastmile_qr_scan"}, "fusion_lon": 0.0}, {"lat": 38.953576, "is_disabled": 0, "type": "electric_bike", "lon": -76.98093116666666, "bike_id": "8fa4ffe40c8b8e31b202ddea04b16730", "fusion_lat": 0.0, "name": "8fa4ffe40c8b8e31b202ddea04b16730", "is_reserved": 0, "rental_uris": {"android": "https://dc.lft.to/lastmile_qr_scan", "ios": "https://dc.lft.to/lastmile_qr_scan"}, "fusion_lon": 0.0}, {"lat": 38.920410333333336, "is_disabled": 0, "type": "electric_scooter", "lon": -77.03389433333334, "bike_id": "9b0daa64ef0eaa36d1ac8862538dd161", "fusion_lat": 0.0, "name": "9b0daa64ef0eaa36d1ac8862538dd161", "is_reserved": 0, "rental_uris": {"android": "https://dc.lft.to/lastmile_qr_scan", "ios": "https://dc.lft.to/lastmile_qr_scan"}, "fusion_lon": 0.0}, {"lat": 38.87629866666666, "is_disabled": 0, "type": "electric_scooter", "lon": -76.96524533333333, "bike_id": "3693b9cb00bd51073fff966e5e968c98", "fusion_lat": 0.0, "name": "3693b9cb00bd51073fff966e5e968c98", "is_reserved": 0, "rental_uris": {"android": "https://dc.lft.to/lastmile_qr_scan", "ios": "https://dc.lft.to/lastmile_qr_scan"}, "fusion_lon": 0.0}, {"lat": 38.83811983333333, "is_disabled": 0, "type": "electric_bike", "lon": -77.09522816666667, "bike_id": "daf787eb60e2ff1c25d6ac43ef0d87be", "fusion_lat": 0.0, "name": "daf787eb60e2ff1c25d6ac43ef0d87be", "is_reserved": 0, "rental_uris": {"android": "https://dc.lft.to/lastmile_qr_scan", "ios": "https://dc.lft.to/lastmile_qr_scan"}, "fusion_lon": 0.0}, {"lat": 38.909690166666664, "is_disabled": 0, "type": "electric_scooter", "lon": -77.03267183333334, "bike_id": "0e51245d1c9b0ed1b3a164ed2b8cf782", "fusion_lat": 0.0, "name": "0e51245d1c9b0ed1b3a164ed2b8cf782", "is_reserved": 0, "rental_uris": {"android": "https://dc.lft.to/lastmile_qr_scan", "ios": "https://dc.lft.to/lastmile_qr_scan"}, "fusion_lon": 0.0}, {"lat": 38.85923583333334, "is_disabled": 0, "type": "electric_scooter", "lon": -76.99715916666666, "bike_id": "98dcb21ba03151310751ba03f27df6dc", "fusion_lat": 0.0, "name": "98dcb21ba03151310751ba03f27df6dc", "is_reserved": 0, "rental_uris": {"android": "https://dc.lft.to/lastmile_qr_scan", "ios": "https://dc.lft.to/lastmile_qr_scan"}, "fusion_lon": 0.0}, {"lat": 38.907876, "is_disabled": 0, "type": "electric_scooter", "lon": -77.03856033333334, "bike_id": "5b950dd128f6a27ed094117008b0e246", "fusion_lat": 0.0, "name": "5b950dd128f6a27ed094117008b0e246", "is_reserved": 0, "rental_uris": {"android": "https://dc.lft.to/lastmile_qr_scan", "ios": "https://dc.lft.to/lastmile_qr_scan"}, "fusion_lon": 0.0}, {"lat": 38.91652916666666, "is_disabled": 0, "type": "electric_scooter", "lon": -77.0191455, "bike_id": "20a730a2a4e9ef2898298ce6174e03ff", "fusion_lat": 0.0, "name": "20a730a2a4e9ef2898298ce6174e03ff", "is_reserved": 0, "rental_uris": {"android": "https://dc.lft.to/lastmile_qr_scan", "ios": "https://dc.lft.to/lastmile_qr_scan"}, "fusion_lon": 0.0}, {"lat": 38.946287833333336, "is_disabled": 0, "type": "electric_scooter", "lon": -77.01844883333334, "bike_id": "35179d0462725fcc19442103d82a01fc", "fusion_lat": 0.0, "name": "35179d0462725fcc19442103d82a01fc", "is_reserved": 0, "rental_uris": {"android": "https://dc.lft.to/lastmile_qr_scan", "ios": "https://dc.lft.to/lastmile_qr_scan"}, "fusion_lon": 0.0}, {"lat": 38.9034505, "is_disabled": 0, "type": "electric_scooter", "lon": -77.04269516666666, "bike_id": "4af1b5c9e5d041f74039997e7d12984c", "fusion_lat": 0.0, "name": "4af1b5c9e5d041f74039997e7d12984c", "is_reserved": 0, "rental_uris": {"android": "https://dc.lft.to/lastmile_qr_scan", "ios": "https://dc.lft.to/lastmile_qr_scan"}, "fusion_lon": 0.0}, {"lat": 38.924084666666666, "is_disabled": 0, "type": "electric_scooter", "lon": -77.0274435, "bike_id": "49e52df6c3e63947f87e945d2428bc99", "fusion_lat": 0.0, "name": "49e52df6c3e63947f87e945d2428bc99", "is_reserved": 0, "rental_uris": {"android": "https://dc.lft.to/lastmile_qr_scan", "ios": "https://dc.lft.to/lastmile_qr_scan"}, "fusion_lon": 0.0}, {"lat": 38.89051933333333, "is_disabled": 0, "type": "electric_scooter", "lon": -76.93761766666667, "bike_id": "39fbe5cc8d4ae86acab423e9aaa70e8a", "fusion_lat": 0.0, "name": "39fbe5cc8d4ae86acab423e9aaa70e8a", "is_reserved": 0, "rental_uris": {"android": "https://dc.lft.to/lastmile_qr_scan", "ios": "https://dc.lft.to/lastmile_qr_scan"}, "fusion_lon": 0.0}, {"lat": 38.95402516666667, "is_disabled": 0, "type": "electric_scooter", "lon": -77.02749883333334, "bike_id": "21a461e99aeeba1a37f2b066f25ee524", "fusion_lat": 0.0, "name": "21a461e99aeeba1a37f2b066f25ee524", "is_reserved": 0, "rental_uris": {"android": "https://dc.lft.to/lastmile_qr_scan", "ios": "https://dc.lft.to/lastmile_qr_scan"}, "fusion_lon": 0.0}, {"lat": 38.90242583333333, "is_disabled": 0, "type": "electric_scooter", "lon": -77.01766283333333, "bike_id": "c6b67d133f88c848ef2b7593fa2918e2", "fusion_lat": 0.0, "name": "c6b67d133f88c848ef2b7593fa2918e2", "is_reserved": 0, "rental_uris": {"android": "https://dc.lft.to/lastmile_qr_scan", "ios": "https://dc.lft.to/lastmile_qr_scan"}, "fusion_lon": 0.0}, {"lat": 38.869959, "is_disabled": 0, "type": "electric_bike", "lon": -77.06563716666666, "bike_id": "99989f47e0dd75533af104e793b0fd27", "fusion_lat": 0.0, "name": "99989f47e0dd75533af104e793b0fd27", "is_reserved": 0, "rental_uris": {"android": "https://dc.lft.to/lastmile_qr_scan", "ios": "https://dc.lft.to/lastmile_qr_scan"}, "fusion_lon": 0.0}, {"lat": 38.902882, "is_disabled": 0, "type": "electric_scooter", "lon": -77.04048266666666, "bike_id": "869823c491580ab8a605a382a4bb3162", "fusion_lat": 0.0, "name": "869823c491580ab8a605a382a4bb3162", "is_reserved": 0, "rental_uris": {"android": "https://dc.lft.to/lastmile_qr_scan", "ios": "https://dc.lft.to/lastmile_qr_scan"}, "fusion_lon": 0.0}, {"lat": 38.86525666666667, "is_disabled": 0, "type": "electric_scooter", "lon": -76.99028516666667, "bike_id": "8ea7315505f840a3ca0a82e490fbc747", "fusion_lat": 0.0, "name": "8ea7315505f840a3ca0a82e490fbc747", "is_reserved": 0, "rental_uris": {"android": "https://dc.lft.to/lastmile_qr_scan", "ios": "https://dc.lft.to/lastmile_qr_scan"}, "fusion_lon": 0.0}, {"lat": 38.914991, "is_disabled": 0, "type": "electric_scooter", "lon": -77.0185565, "bike_id": "70c0ea169c61b400a53dd39ca4db41e4", "fusion_lat": 0.0, "name": "70c0ea169c61b400a53dd39ca4db41e4", "is_reserved": 0, "rental_uris": {"android": "https://dc.lft.to/lastmile_qr_scan", "ios": "https://dc.lft.to/lastmile_qr_scan"}, "fusion_lon": 0.0}, {"lat": 38.946406833333334, "is_disabled": 0, "type": "electric_scooter", "lon": -77.01927383333333, "bike_id": "d0da8345d98550f1a7232c18b8e1a855", "fusion_lat": 0.0, "name": "d0da8345d98550f1a7232c18b8e1a855", "is_reserved": 0, "rental_uris": {"android": "https://dc.lft.to/lastmile_qr_scan", "ios": "https://dc.lft.to/lastmile_qr_scan"}, "fusion_lon": 0.0}, {"lat": 38.89218566666667, "is_disabled": 0, "type": "electric_scooter", "lon": -77.0436085, "bike_id": "ca525f0693b26d1abb195230d356bfc6", "fusion_lat": 0.0, "name": "ca525f0693b26d1abb195230d356bfc6", "is_reserved": 0, "rental_uris": {"android": "https://dc.lft.to/lastmile_qr_scan", "ios": "https://dc.lft.to/lastmile_qr_scan"}, "fusion_lon": 0.0}, {"lat": 39.034112666666665, "is_disabled": 0, "type": "electric_bike", "lon": -77.042084, "bike_id": "e000733298037f13e768839e0e6ca6bd", "fusion_lat": 0.0, "name": "e000733298037f13e768839e0e6ca6bd", "is_reserved": 0, "rental_uris": {"android": "https://dc.lft.to/lastmile_qr_scan", "ios": "https://dc.lft.to/lastmile_qr_scan"}, "fusion_lon": 0.0}, {"lat": 38.90315283333333, "is_disabled": 0, "type": "electric_scooter", "lon": -77.02060183333333, "bike_id": "ecbb05115322868a7094c3ec6221d790", "fusion_lat": 0.0, "name": "ecbb05115322868a7094c3ec6221d790", "is_reserved": 0, "rental_uris": {"android": "https://dc.lft.to/lastmile_qr_scan", "ios": "https://dc.lft.to/lastmile_qr_scan"}, "fusion_lon": 0.0}, {"lat": 38.909665833333335, "is_disabled": 0, "type": "electric_scooter", "lon": -76.98471166666667, "bike_id": "7091dc384107ccb7c9a9972db23f37cf", "fusion_lat": 0.0, "name": "7091dc384107ccb7c9a9972db23f37cf", "is_reserved": 0, "rental_uris": {"android": "https://dc.lft.to/lastmile_qr_scan", "ios": "https://dc.lft.to/lastmile_qr_scan"}, "fusion_lon": 0.0}, {"lat": 38.91731933333333, "is_disabled": 0, "type": "electric_bike", "lon": -77.00804883333333, "bike_id": "e855ed623f742aa9b9011e5e564bc596", "fusion_lat": 0.0, "name": "e855ed623f742aa9b9011e5e564bc596", "is_reserved": 0, "rental_uris": {"android": "https://dc.lft.to/lastmile_qr_scan", "ios": "https://dc.lft.to/lastmile_qr_scan"}, "fusion_lon": 0.0}, {"lat": 38.89617416666667, "is_disabled": 0, "type": "electric_scooter", "lon": -76.99842366666667, "bike_id": "0b71d41244fdadb002056b74f51c05a2", "fusion_lat": 0.0, "name": "0b71d41244fdadb002056b74f51c05a2", "is_reserved": 0, "rental_uris": {"android": "https://dc.lft.to/lastmile_qr_scan", "ios": "https://dc.lft.to/lastmile_qr_scan"}, "fusion_lon": 0.0}, {"lat": 38.898331666666664, "is_disabled": 0, "type": "electric_scooter", "lon": -77.043344, "bike_id": "3a87eee9c26060a4ea61b17386d3ba93", "fusion_lat": 0.0, "name": "3a87eee9c26060a4ea61b17386d3ba93", "is_reserved": 0, "rental_uris": {"android": "https://dc.lft.to/lastmile_qr_scan", "ios": "https://dc.lft.to/lastmile_qr_scan"}, "fusion_lon": 0.0}, {"lat": 38.87629316666667, "is_disabled": 0, "type": "electric_scooter", "lon": -76.96524933333333, "bike_id": "5f8973841dfbe2e2b888699314d1ff74", "fusion_lat": 0.0, "name": "5f8973841dfbe2e2b888699314d1ff74", "is_reserved": 0, "rental_uris": {"android": "https://dc.lft.to/lastmile_qr_scan", "ios": "https://dc.lft.to/lastmile_qr_scan"}, "fusion_lon": 0.0}, {"lat": 38.902429, "is_disabled": 0, "type": "electric_scooter", "lon": -77.02361383333333, "bike_id": "2836745e8475bb20a8998a6701fab899", "fusion_lat": 0.0, "name": "2836745e8475bb20a8998a6701fab899", "is_reserved": 0, "rental_uris": {"android": "https://dc.lft.to/lastmile_qr_scan", "ios": "https://dc.lft.to/lastmile_qr_scan"}, "fusion_lon": 0.0}, {"lat": 38.9009845, "is_disabled": 0, "type": "electric_scooter", "lon": -77.01358766666667, "bike_id": "12e03235698393f451d71d84ba569fc8", "fusion_lat": 0.0, "name": "12e03235698393f451d71d84ba569fc8", "is_reserved": 0, "rental_uris": {"android": "https://dc.lft.to/lastmile_qr_scan", "ios": "https://dc.lft.to/lastmile_qr_scan"}, "fusion_lon": 0.0}, {"lat": 38.893261333333335, "is_disabled": 0, "type": "electric_scooter", "lon": -76.92989466666667, "bike_id": "c6601889f86361f15d2d23e7128a30cb", "fusion_lat": 0.0, "name": "c6601889f86361f15d2d23e7128a30cb", "is_reserved": 0, "rental_uris": {"android": "https://dc.lft.to/lastmile_qr_scan", "ios": "https://dc.lft.to/lastmile_qr_scan"}, "fusion_lon": 0.0}, {"lat": 38.889247166666664, "is_disabled": 0, "type": "electric_scooter", "lon": -77.02166916666667, "bike_id": "8ca488b50ae61b355cd34a1cb94b39f0", "fusion_lat": 0.0, "name": "8ca488b50ae61b355cd34a1cb94b39f0", "is_reserved": 0, "rental_uris": {"android": "https://dc.lft.to/lastmile_qr_scan", "ios": "https://dc.lft.to/lastmile_qr_scan"}, "fusion_lon": 0.0}, {"lat": 38.929766, "is_disabled": 0, "type": "electric_scooter", "lon": -77.03833983333334, "bike_id": "59616358e0b68f29fd53029e530451fa", "fusion_lat": 0.0, "name": "59616358e0b68f29fd53029e530451fa", "is_reserved": 0, "rental_uris": {"android": "https://dc.lft.to/lastmile_qr_scan", "ios": "https://dc.lft.to/lastmile_qr_scan"}, "fusion_lon": 0.0}, {"lat": 38.87704816666667, "is_disabled": 0, "type": "electric_scooter", "lon": -77.016822, "bike_id": "0ce3c4d57bef3b9d2d7bd443cee4a310", "fusion_lat": 0.0, "name": "0ce3c4d57bef3b9d2d7bd443cee4a310", "is_reserved": 0, "rental_uris": {"android": "https://dc.lft.to/lastmile_qr_scan", "ios": "https://dc.lft.to/lastmile_qr_scan"}, "fusion_lon": 0.0}, {"lat": 38.88384716666667, "is_disabled": 0, "type": "electric_scooter", "lon": -77.0244055, "bike_id": "9b538fb5b6bb88db2e87c4f023b5568d", "fusion_lat": 0.0, "name": "9b538fb5b6bb88db2e87c4f023b5568d", "is_reserved": 0, "rental_uris": {"android": "https://dc.lft.to/lastmile_qr_scan", "ios": "https://dc.lft.to/lastmile_qr_scan"}, "fusion_lon": 0.0}, {"lat": 38.88265633333334, "is_disabled": 0, "type": "electric_scooter", "lon": -76.98824583333334, "bike_id": "79cbc21e6759258d4b936f4b022db4a0", "fusion_lat": 0.0, "name": "79cbc21e6759258d4b936f4b022db4a0", "is_reserved": 0, "rental_uris": {"android": "https://dc.lft.to/lastmile_qr_scan", "ios": "https://dc.lft.to/lastmile_qr_scan"}, "fusion_lon": 0.0}, {"lat": 38.85645866666667, "is_disabled": 0, "type": "electric_bike", "lon": -77.11247466666667, "bike_id": "98c559172a48f88b738896afd82f44dd", "fusion_lat": 0.0, "name": "98c559172a48f88b738896afd82f44dd", "is_reserved": 0, "rental_uris": {"android": "https://dc.lft.to/lastmile_qr_scan", "ios": "https://dc.lft.to/lastmile_qr_scan"}, "fusion_lon": 0.0}, {"lat": 38.935962, "is_disabled": 0, "type": "electric_scooter", "lon": -77.0563605, "bike_id": "df06174c0f711bd7429b0c4c36675752", "fusion_lat": 0.0, "name": "df06174c0f711bd7429b0c4c36675752", "is_reserved": 0, "rental_uris": {"android": "https://dc.lft.to/lastmile_qr_scan", "ios": "https://dc.lft.to/lastmile_qr_scan"}, "fusion_lon": 0.0}, {"lat": 38.905138666666666, "is_disabled": 0, "type": "electric_scooter", "lon": -77.0448945, "bike_id": "8db8abd5c28b55382d40b4bda4a6b696", "fusion_lat": 0.0, "name": "8db8abd5c28b55382d40b4bda4a6b696", "is_reserved": 0, "rental_uris": {"android": "https://dc.lft.to/lastmile_qr_scan", "ios": "https://dc.lft.to/lastmile_qr_scan"}, "fusion_lon": 0.0}, {"lat": 38.9172635, "is_disabled": 0, "type": "electric_scooter", "lon": -77.04162016666666, "bike_id": "15c271e175aaffcf94ee8eddeddd4668", "fusion_lat": 0.0, "name": "15c271e175aaffcf94ee8eddeddd4668", "is_reserved": 0, "rental_uris": {"android": "https://dc.lft.to/lastmile_qr_scan", "ios": "https://dc.lft.to/lastmile_qr_scan"}, "fusion_lon": 0.0}, {"lat": 38.90376033333333, "is_disabled": 0, "type": "electric_scooter", "lon": -77.04117583333333, "bike_id": "30bace03661e440a9e38d6fcccde514b", "fusion_lat": 0.0, "name": "30bace03661e440a9e38d6fcccde514b", "is_reserved": 0, "rental_uris": {"android": "https://dc.lft.to/lastmile_qr_scan", "ios": "https://dc.lft.to/lastmile_qr_scan"}, "fusion_lon": 0.0}, {"lat": 38.919035666666666, "is_disabled": 0, "type": "electric_scooter", "lon": -77.03194483333333, "bike_id": "8c9663dfedaf5bd79baef488d820a4a6", "fusion_lat": 0.0, "name": "8c9663dfedaf5bd79baef488d820a4a6", "is_reserved": 0, "rental_uris": {"android": "https://dc.lft.to/lastmile_qr_scan", "ios": "https://dc.lft.to/lastmile_qr_scan"}, "fusion_lon": 0.0}, {"lat": 38.917065666666666, "is_disabled": 0, "type": "electric_scooter", "lon": -77.04027483333333, "bike_id": "294b6247bf3ee458464e85a930449de2", "fusion_lat": 0.0, "name": "294b6247bf3ee458464e85a930449de2", "is_reserved": 0, "rental_uris": {"android": "https://dc.lft.to/lastmile_qr_scan", "ios": "https://dc.lft.to/lastmile_qr_scan"}, "fusion_lon": 0.0}, {"lat": 38.90727916666667, "is_disabled": 0, "type": "electric_scooter", "lon": -77.02373966666667, "bike_id": "eecc4e6a5606923c8d03ad8fda2ed8f8", "fusion_lat": 0.0, "name": "eecc4e6a5606923c8d03ad8fda2ed8f8", "is_reserved": 0, "rental_uris": {"android": "https://dc.lft.to/lastmile_qr_scan", "ios": "https://dc.lft.to/lastmile_qr_scan"}, "fusion_lon": 0.0}, {"lat": 38.9117765, "is_disabled": 0, "type": "electric_scooter", "lon": -77.03861133333334, "bike_id": "a6aa6ab6144ef7ffb6f1154418eecc97", "fusion_lat": 0.0, "name": "a6aa6ab6144ef7ffb6f1154418eecc97", "is_reserved": 0, "rental_uris": {"android": "https://dc.lft.to/lastmile_qr_scan", "ios": "https://dc.lft.to/lastmile_qr_scan"}, "fusion_lon": 0.0}, {"lat": 38.92128233333333, "is_disabled": 0, "type": "electric_scooter", "lon": -77.04005633333334, "bike_id": "da80f0ba25ea030d317107108fc1bdae", "fusion_lat": 0.0, "name": "da80f0ba25ea030d317107108fc1bdae", "is_reserved": 0, "rental_uris": {"android": "https://dc.lft.to/lastmile_qr_scan", "ios": "https://dc.lft.to/lastmile_qr_scan"}, "fusion_lon": 0.0}, {"lat": 38.91064016666667, "is_disabled": 0, "type": "electric_scooter", "lon": -77.02921283333333, "bike_id": "c3b8ea561d0a3164e04401f77d243f6e", "fusion_lat": 0.0, "name": "c3b8ea561d0a3164e04401f77d243f6e", "is_reserved": 0, "rental_uris": {"android": "https://dc.lft.to/lastmile_qr_scan", "ios": "https://dc.lft.to/lastmile_qr_scan"}, "fusion_lon": 0.0}, {"lat": 38.919384666666666, "is_disabled": 0, "type": "electric_scooter", "lon": -77.0813015, "bike_id": "409956d59ab7316f19db459c2b1afab3", "fusion_lat": 0.0, "name": "409956d59ab7316f19db459c2b1afab3", "is_reserved": 0, "rental_uris": {"android": "https://dc.lft.to/lastmile_qr_scan", "ios": "https://dc.lft.to/lastmile_qr_scan"}, "fusion_lon": 0.0}, {"lat": 38.91679166666667, "is_disabled": 0, "type": "electric_scooter", "lon": -77.02961916666666, "bike_id": "d72dec4ee124d649dbf5a08dc82478a3", "fusion_lat": 0.0, "name": "d72dec4ee124d649dbf5a08dc82478a3", "is_reserved": 0, "rental_uris": {"android": "https://dc.lft.to/lastmile_qr_scan", "ios": "https://dc.lft.to/lastmile_qr_scan"}, "fusion_lon": 0.0}, {"lat": 38.91927233333333, "is_disabled": 0, "type": "electric_scooter", "lon": -77.033961, "bike_id": "7586063cbd8ae4f0b3cfc641a55116c4", "fusion_lat": 0.0, "name": "7586063cbd8ae4f0b3cfc641a55116c4", "is_reserved": 0, "rental_uris": {"android": "https://dc.lft.to/lastmile_qr_scan", "ios": "https://dc.lft.to/lastmile_qr_scan"}, "fusion_lon": 0.0}, {"lat": 38.93654033333333, "is_disabled": 0, "type": "electric_scooter", "lon": -77.02395133333333, "bike_id": "3aaf9c424e4af99e72c99c41e5f6e37c", "fusion_lat": 0.0, "name": "3aaf9c424e4af99e72c99c41e5f6e37c", "is_reserved": 0, "rental_uris": {"android": "https://dc.lft.to/lastmile_qr_scan", "ios": "https://dc.lft.to/lastmile_qr_scan"}, "fusion_lon": 0.0}, {"lat": 38.93180483333333, "is_disabled": 0, "type": "electric_scooter", "lon": -77.02830783333333, "bike_id": "3317d57f75fc6fc37b8481d5fdaa890d", "fusion_lat": 0.0, "name": "3317d57f75fc6fc37b8481d5fdaa890d", "is_reserved": 0, "rental_uris": {"android": "https://dc.lft.to/lastmile_qr_scan", "ios": "https://dc.lft.to/lastmile_qr_scan"}, "fusion_lon": 0.0}, {"lat": 38.900810166666666, "is_disabled": 0, "type": "electric_scooter", "lon": -77.05009216666667, "bike_id": "fcb49cd0cf483a675c2d298944a24759", "fusion_lat": 0.0, "name": "fcb49cd0cf483a675c2d298944a24759", "is_reserved": 0, "rental_uris": {"android": "https://dc.lft.to/lastmile_qr_scan", "ios": "https://dc.lft.to/lastmile_qr_scan"}, "fusion_lon": 0.0}, {"lat": 38.94290733333333, "is_disabled": 0, "type": "electric_scooter", "lon": -77.07703133333334, "bike_id": "32b69e699fdf0dc662f433a25d49481e", "fusion_lat": 0.0, "name": "32b69e699fdf0dc662f433a25d49481e", "is_reserved": 0, "rental_uris": {"android": "https://dc.lft.to/lastmile_qr_scan", "ios": "https://dc.lft.to/lastmile_qr_scan"}, "fusion_lon": 0.0}, {"lat": 38.99999316666667, "is_disabled": 0, "type": "electric_bike", "lon": -76.92493283333333, "bike_id": "c71f927f163e6dc49423017b5f654d38", "fusion_lat": 0.0, "name": "c71f927f163e6dc49423017b5f654d38", "is_reserved": 0, "rental_uris": {"android": "https://dc.lft.to/lastmile_qr_scan", "ios": "https://dc.lft.to/lastmile_qr_scan"}, "fusion_lon": 0.0}, {"lat": 38.90064016666667, "is_disabled": 0, "type": "electric_scooter", "lon": -76.933856, "bike_id": "daa904727041587ebaf61cccf40f89f2", "fusion_lat": 0.0, "name": "daa904727041587ebaf61cccf40f89f2", "is_reserved": 0, "rental_uris": {"android": "https://dc.lft.to/lastmile_qr_scan", "ios": "https://dc.lft.to/lastmile_qr_scan"}, "fusion_lon": 0.0}, {"lat": 38.890995, "is_disabled": 0, "type": "electric_scooter", "lon": -76.95237683333333, "bike_id": "bae2732fec2cdcb745e103b1c1cafc4f", "fusion_lat": 0.0, "name": "bae2732fec2cdcb745e103b1c1cafc4f", "is_reserved": 0, "rental_uris": {"android": "https://dc.lft.to/lastmile_qr_scan", "ios": "https://dc.lft.to/lastmile_qr_scan"}, "fusion_lon": 0.0}, {"lat": 38.90641083333333, "is_disabled": 0, "type": "electric_scooter", "lon": -77.00598683333334, "bike_id": "fd11ab2115314c9d9c024b06edbeb959", "fusion_lat": 0.0, "name": "fd11ab2115314c9d9c024b06edbeb959", "is_reserved": 0, "rental_uris": {"android": "https://dc.lft.to/lastmile_qr_scan", "ios": "https://dc.lft.to/lastmile_qr_scan"}, "fusion_lon": 0.0}, {"lat": 38.932638833333336, "is_disabled": 0, "type": "electric_scooter", "lon": -77.03268333333334, "bike_id": "96b8500cb6fc95ca88509e0ba04974ad", "fusion_lat": 0.0, "name": "96b8500cb6fc95ca88509e0ba04974ad", "is_reserved": 0, "rental_uris": {"android": "https://dc.lft.to/lastmile_qr_scan", "ios": "https://dc.lft.to/lastmile_qr_scan"}, "fusion_lon": 0.0}, {"lat": 38.915638666666666, "is_disabled": 0, "type": "electric_scooter", "lon": -77.03153733333333, "bike_id": "7374fe35799b7f7f9a3c97ba22552d0d", "fusion_lat": 0.0, "name": "7374fe35799b7f7f9a3c97ba22552d0d", "is_reserved": 0, "rental_uris": {"android": "https://dc.lft.to/lastmile_qr_scan", "ios": "https://dc.lft.to/lastmile_qr_scan"}, "fusion_lon": 0.0}, {"lat": 38.86720483333333, "is_disabled": 0, "type": "electric_scooter", "lon": -77.01017166666666, "bike_id": "42e25be7385ef200cc27ddafde6bdede", "fusion_lat": 0.0, "name": "42e25be7385ef200cc27ddafde6bdede", "is_reserved": 0, "rental_uris": {"android": "https://dc.lft.to/lastmile_qr_scan", "ios": "https://dc.lft.to/lastmile_qr_scan"}, "fusion_lon": 0.0}, {"lat": 38.911058833333335, "is_disabled": 0, "type": "electric_scooter", "lon": -77.03083516666666, "bike_id": "0ce3b104fd04e74f285638a9ce0a74fb", "fusion_lat": 0.0, "name": "0ce3b104fd04e74f285638a9ce0a74fb", "is_reserved": 0, "rental_uris": {"android": "https://dc.lft.to/lastmile_qr_scan", "ios": "https://dc.lft.to/lastmile_qr_scan"}, "fusion_lon": 0.0}, {"lat": 38.923610333333336, "is_disabled": 0, "type": "electric_scooter", "lon": -77.0509875, "bike_id": "42867779f7630e500630a874f63d180e", "fusion_lat": 0.0, "name": "42867779f7630e500630a874f63d180e", "is_reserved": 0, "rental_uris": {"android": "https://dc.lft.to/lastmile_qr_scan", "ios": "https://dc.lft.to/lastmile_qr_scan"}, "fusion_lon": 0.0}, {"lat": 38.85788383333333, "is_disabled": 0, "type": "electric_bike", "lon": -77.09957833333333, "bike_id": "fd79f5ea77e6aa42f0ef733224d7dd50", "fusion_lat": 0.0, "name": "fd79f5ea77e6aa42f0ef733224d7dd50", "is_reserved": 0, "rental_uris": {"android": "https://dc.lft.to/lastmile_qr_scan", "ios": "https://dc.lft.to/lastmile_qr_scan"}, "fusion_lon": 0.0}, {"lat": 38.9169565, "is_disabled": 0, "type": "electric_scooter", "lon": -77.02290733333334, "bike_id": "eb43203a84d531888a548333494dba3f", "fusion_lat": 0.0, "name": "eb43203a84d531888a548333494dba3f", "is_reserved": 0, "rental_uris": {"android": "https://dc.lft.to/lastmile_qr_scan", "ios": "https://dc.lft.to/lastmile_qr_scan"}, "fusion_lon": 0.0}, {"lat": 38.876797833333335, "is_disabled": 0, "type": "electric_scooter", "lon": -77.01791583333333, "bike_id": "0a5c332428f47d8a365c558585b8a3d5", "fusion_lat": 0.0, "name": "0a5c332428f47d8a365c558585b8a3d5", "is_reserved": 0, "rental_uris": {"android": "https://dc.lft.to/lastmile_qr_scan", "ios": "https://dc.lft.to/lastmile_qr_scan"}, "fusion_lon": 0.0}, {"lat": 38.9169165, "is_disabled": 0, "type": "electric_scooter", "lon": -77.04595583333334, "bike_id": "1207feb53e5e2d5ceb7ee40cc00ff596", "fusion_lat": 0.0, "name": "1207feb53e5e2d5ceb7ee40cc00ff596", "is_reserved": 0, "rental_uris": {"android": "https://dc.lft.to/lastmile_qr_scan", "ios": "https://dc.lft.to/lastmile_qr_scan"}, "fusion_lon": 0.0}, {"lat": 38.90135316666667, "is_disabled": 0, "type": "electric_scooter", "lon": -77.01811266666667, "bike_id": "eb4065826552c315e1fcb900a6a28302", "fusion_lat": 0.0, "name": "eb4065826552c315e1fcb900a6a28302", "is_reserved": 0, "rental_uris": {"android": "https://dc.lft.to/lastmile_qr_scan", "ios": "https://dc.lft.to/lastmile_qr_scan"}, "fusion_lon": 0.0}, {"lat": 38.928772, "is_disabled": 0, "type": "electric_scooter", "lon": -77.03336633333333, "bike_id": "7b9e00f151590ceed143af6617a27ea6", "fusion_lat": 0.0, "name": "7b9e00f151590ceed143af6617a27ea6", "is_reserved": 0, "rental_uris": {"android": "https://dc.lft.to/lastmile_qr_scan", "ios": "https://dc.lft.to/lastmile_qr_scan"}, "fusion_lon": 0.0}, {"lat": 38.876277, "is_disabled": 0, "type": "electric_scooter", "lon": -76.96524583333333, "bike_id": "3b01418a2506cd3fef954d22a452d992", "fusion_lat": 0.0, "name": "3b01418a2506cd3fef954d22a452d992", "is_reserved": 0, "rental_uris": {"android": "https://dc.lft.to/lastmile_qr_scan", "ios": "https://dc.lft.to/lastmile_qr_scan"}, "fusion_lon": 0.0}, {"lat": 38.940947333333334, "is_disabled": 0, "type": "electric_scooter", "lon": -77.0327965, "bike_id": "014cd5ba7092b7cb25a5629ad57a1ffe", "fusion_lat": 0.0, "name": "014cd5ba7092b7cb25a5629ad57a1ffe", "is_reserved": 0, "rental_uris": {"android": "https://dc.lft.to/lastmile_qr_scan", "ios": "https://dc.lft.to/lastmile_qr_scan"}, "fusion_lon": 0.0}, {"lat": 38.89617466666667, "is_disabled": 0, "type": "electric_scooter", "lon": -77.04492283333333, "bike_id": "74ab7323e45c92a46553f00ce7911943", "fusion_lat": 0.0, "name": "74ab7323e45c92a46553f00ce7911943", "is_reserved": 0, "rental_uris": {"android": "https://dc.lft.to/lastmile_qr_scan", "ios": "https://dc.lft.to/lastmile_qr_scan"}, "fusion_lon": 0.0}, {"lat": 38.925158, "is_disabled": 0, "type": "electric_scooter", "lon": -77.02358366666667, "bike_id": "362bde4505ffdb88bbbfa957d5ce9cd2", "fusion_lat": 0.0, "name": "362bde4505ffdb88bbbfa957d5ce9cd2", "is_reserved": 0, "rental_uris": {"android": "https://dc.lft.to/lastmile_qr_scan", "ios": "https://dc.lft.to/lastmile_qr_scan"}, "fusion_lon": 0.0}, {"lat": 38.90729816666666, "is_disabled": 0, "type": "electric_scooter", "lon": -77.04791516666667, "bike_id": "b60fa6446de004cab256399b7ebe5630", "fusion_lat": 0.0, "name": "b60fa6446de004cab256399b7ebe5630", "is_reserved": 0, "rental_uris": {"android": "https://dc.lft.to/lastmile_qr_scan", "ios": "https://dc.lft.to/lastmile_qr_scan"}, "fusion_lon": 0.0}, {"lat": 38.843, "is_disabled": 0, "type": "electric_scooter", "lon": -76.99948966666666, "bike_id": "fa49e2147a2567c099095bab2251960d", "fusion_lat": 0.0, "name": "fa49e2147a2567c099095bab2251960d", "is_reserved": 0, "rental_uris": {"android": "https://dc.lft.to/lastmile_qr_scan", "ios": "https://dc.lft.to/lastmile_qr_scan"}, "fusion_lon": 0.0}, {"lat": 38.900799166666665, "is_disabled": 0, "type": "electric_scooter", "lon": -77.048781, "bike_id": "a951b3bdbd9c39ec1590c159b7c7e15b", "fusion_lat": 0.0, "name": "a951b3bdbd9c39ec1590c159b7c7e15b", "is_reserved": 0, "rental_uris": {"android": "https://dc.lft.to/lastmile_qr_scan", "ios": "https://dc.lft.to/lastmile_qr_scan"}, "fusion_lon": 0.0}, {"lat": 38.89829016666667, "is_disabled": 0, "type": "electric_scooter", "lon": -77.024319, "bike_id": "381c232f0f80d7f7ea93ecb417b6af10", "fusion_lat": 0.0, "name": "381c232f0f80d7f7ea93ecb417b6af10", "is_reserved": 0, "rental_uris": {"android": "https://dc.lft.to/lastmile_qr_scan", "ios": "https://dc.lft.to/lastmile_qr_scan"}, "fusion_lon": 0.0}, {"lat": 38.85998266666667, "is_disabled": 0, "type": "electric_scooter", "lon": -76.985475, "bike_id": "f16f940a93f837104c315bd7dbdbb7c7", "fusion_lat": 0.0, "name": "f16f940a93f837104c315bd7dbdbb7c7", "is_reserved": 0, "rental_uris": {"android": "https://dc.lft.to/lastmile_qr_scan", "ios": "https://dc.lft.to/lastmile_qr_scan"}, "fusion_lon": 0.0}, {"lat": 38.9122465, "is_disabled": 0, "type": "electric_scooter", "lon": -77.03442533333333, "bike_id": "5c80f19dcc8ddf5f8c5c50a38432a7fd", "fusion_lat": 0.0, "name": "5c80f19dcc8ddf5f8c5c50a38432a7fd", "is_reserved": 0, "rental_uris": {"android": "https://dc.lft.to/lastmile_qr_scan", "ios": "https://dc.lft.to/lastmile_qr_scan"}, "fusion_lon": 0.0}, {"lat": 38.90039633333333, "is_disabled": 0, "type": "electric_scooter", "lon": -77.00202616666667, "bike_id": "b8b7f1c0fc63ef544874e3fd1ed4dc1c", "fusion_lat": 0.0, "name": "b8b7f1c0fc63ef544874e3fd1ed4dc1c", "is_reserved": 0, "rental_uris": {"android": "https://dc.lft.to/lastmile_qr_scan", "ios": "https://dc.lft.to/lastmile_qr_scan"}, "fusion_lon": 0.0}, {"lat": 38.950698333333335, "is_disabled": 0, "type": "electric_scooter", "lon": -77.06653666666666, "bike_id": "49314f3e7f31338524b50956c2dcd24f", "fusion_lat": 0.0, "name": "49314f3e7f31338524b50956c2dcd24f", "is_reserved": 0, "rental_uris": {"android": "https://dc.lft.to/lastmile_qr_scan", "ios": "https://dc.lft.to/lastmile_qr_scan"}, "fusion_lon": 0.0}, {"lat": 38.9056535, "is_disabled": 0, "type": "electric_scooter", "lon": -77.02203416666667, "bike_id": "5d4d15f8855d1ec1d6dd4bb8be068c7c", "fusion_lat": 0.0, "name": "5d4d15f8855d1ec1d6dd4bb8be068c7c", "is_reserved": 0, "rental_uris": {"android": "https://dc.lft.to/lastmile_qr_scan", "ios": "https://dc.lft.to/lastmile_qr_scan"}, "fusion_lon": 0.0}, {"lat": 38.94442883333333, "is_disabled": 0, "type": "electric_scooter", "lon": -77.063509, "bike_id": "bec5a74ea47e980ba743285f60b183c4", "fusion_lat": 0.0, "name": "bec5a74ea47e980ba743285f60b183c4", "is_reserved": 0, "rental_uris": {"android": "https://dc.lft.to/lastmile_qr_scan", "ios": "https://dc.lft.to/lastmile_qr_scan"}, "fusion_lon": 0.0}, {"lat": 38.915534666666666, "is_disabled": 0, "type": "electric_scooter", "lon": -77.04153933333333, "bike_id": "6f41be518ba66063537061ffe0e2cc78", "fusion_lat": 0.0, "name": "6f41be518ba66063537061ffe0e2cc78", "is_reserved": 0, "rental_uris": {"android": "https://dc.lft.to/lastmile_qr_scan", "ios": "https://dc.lft.to/lastmile_qr_scan"}, "fusion_lon": 0.0}, {"lat": 38.904844, "is_disabled": 0, "type": "electric_scooter", "lon": -77.019853, "bike_id": "5b070f2a99b8a0ba2d6c8e79e735494a", "fusion_lat": 0.0, "name": "5b070f2a99b8a0ba2d6c8e79e735494a", "is_reserved": 0, "rental_uris": {"android": "https://dc.lft.to/lastmile_qr_scan", "ios": "https://dc.lft.to/lastmile_qr_scan"}, "fusion_lon": 0.0}, {"lat": 38.90916166666667, "is_disabled": 0, "type": "electric_scooter", "lon": -77.03642266666667, "bike_id": "73db20b28a226763cb5f8edc28f86429", "fusion_lat": 0.0, "name": "73db20b28a226763cb5f8edc28f86429", "is_reserved": 0, "rental_uris": {"android": "https://dc.lft.to/lastmile_qr_scan", "ios": "https://dc.lft.to/lastmile_qr_scan"}, "fusion_lon": 0.0}, {"lat": 38.8837785, "is_disabled": 0, "type": "electric_scooter", "lon": -77.01890233333333, "bike_id": "4fc3742808c1c4a4327894e9e0bc4cee", "fusion_lat": 0.0, "name": "4fc3742808c1c4a4327894e9e0bc4cee", "is_reserved": 0, "rental_uris": {"android": "https://dc.lft.to/lastmile_qr_scan", "ios": "https://dc.lft.to/lastmile_qr_scan"}, "fusion_lon": 0.0}, {"lat": 38.904887333333335, "is_disabled": 0, "type": "electric_scooter", "lon": -76.987116, "bike_id": "0e8df25d951aee7df60fc8d1a3be39cd", "fusion_lat": 0.0, "name": "0e8df25d951aee7df60fc8d1a3be39cd", "is_reserved": 0, "rental_uris": {"android": "https://dc.lft.to/lastmile_qr_scan", "ios": "https://dc.lft.to/lastmile_qr_scan"}, "fusion_lon": 0.0}, {"lat": 38.924800833333336, "is_disabled": 0, "type": "electric_scooter", "lon": -77.026542, "bike_id": "7ad97b1b72e43dae493bd1742e4c098d", "fusion_lat": 0.0, "name": "7ad97b1b72e43dae493bd1742e4c098d", "is_reserved": 0, "rental_uris": {"android": "https://dc.lft.to/lastmile_qr_scan", "ios": "https://dc.lft.to/lastmile_qr_scan"}, "fusion_lon": 0.0}, {"lat": 38.9122845, "is_disabled": 0, "type": "electric_scooter", "lon": -77.00197083333333, "bike_id": "96e61c44ccc25815f27663913abdaa57", "fusion_lat": 0.0, "name": "96e61c44ccc25815f27663913abdaa57", "is_reserved": 0, "rental_uris": {"android": "https://dc.lft.to/lastmile_qr_scan", "ios": "https://dc.lft.to/lastmile_qr_scan"}, "fusion_lon": 0.0}, {"lat": 38.900716333333335, "is_disabled": 0, "type": "electric_scooter", "lon": -77.0486025, "bike_id": "c12be6892423db8e2c0247f9bc8bacc1", "fusion_lat": 0.0, "name": "c12be6892423db8e2c0247f9bc8bacc1", "is_reserved": 0, "rental_uris": {"android": "https://dc.lft.to/lastmile_qr_scan", "ios": "https://dc.lft.to/lastmile_qr_scan"}, "fusion_lon": 0.0}, {"lat": 38.86887266666667, "is_disabled": 0, "type": "electric_scooter", "lon": -76.98314566666667, "bike_id": "5238bf1eed85d0a64edbe3807acb0b4f", "fusion_lat": 0.0, "name": "5238bf1eed85d0a64edbe3807acb0b4f", "is_reserved": 0, "rental_uris": {"android": "https://dc.lft.to/lastmile_qr_scan", "ios": "https://dc.lft.to/lastmile_qr_scan"}, "fusion_lon": 0.0}, {"lat": 38.93892183333333, "is_disabled": 0, "type": "electric_scooter", "lon": -77.02823466666666, "bike_id": "d51cd18d34748e27909318ad8f608cca", "fusion_lat": 0.0, "name": "d51cd18d34748e27909318ad8f608cca", "is_reserved": 0, "rental_uris": {"android": "https://dc.lft.to/lastmile_qr_scan", "ios": "https://dc.lft.to/lastmile_qr_scan"}, "fusion_lon": 0.0}, {"lat": 38.873409, "is_disabled": 0, "type": "electric_scooter", "lon": -76.99166566666666, "bike_id": "2b5d7777ed03fd85beb3679db0bddd82", "fusion_lat": 0.0, "name": "2b5d7777ed03fd85beb3679db0bddd82", "is_reserved": 0, "rental_uris": {"android": "https://dc.lft.to/lastmile_qr_scan", "ios": "https://dc.lft.to/lastmile_qr_scan"}, "fusion_lon": 0.0}, {"lat": 38.9225175, "is_disabled": 0, "type": "electric_scooter", "lon": -77.01975466666667, "bike_id": "991e43bca609578b005ab9d3dabbd6f4", "fusion_lat": 0.0, "name": "991e43bca609578b005ab9d3dabbd6f4", "is_reserved": 0, "rental_uris": {"android": "https://dc.lft.to/lastmile_qr_scan", "ios": "https://dc.lft.to/lastmile_qr_scan"}, "fusion_lon": 0.0}, {"lat": 38.9389145, "is_disabled": 0, "type": "electric_scooter", "lon": -77.03318066666667, "bike_id": "063670a520afa35486f5a57f3ba13e6a", "fusion_lat": 0.0, "name": "063670a520afa35486f5a57f3ba13e6a", "is_reserved": 0, "rental_uris": {"android": "https://dc.lft.to/lastmile_qr_scan", "ios": "https://dc.lft.to/lastmile_qr_scan"}, "fusion_lon": 0.0}, {"lat": 38.984278833333335, "is_disabled": 0, "type": "electric_scooter", "lon": -77.02671266666667, "bike_id": "cdc3efb2ee014064260a35296e3f2b00", "fusion_lat": 0.0, "name": "cdc3efb2ee014064260a35296e3f2b00", "is_reserved": 0, "rental_uris": {"android": "https://dc.lft.to/lastmile_qr_scan", "ios": "https://dc.lft.to/lastmile_qr_scan"}, "fusion_lon": 0.0}, {"lat": 38.90049483333333, "is_disabled": 0, "type": "electric_scooter", "lon": -77.00744583333334, "bike_id": "a440a98ab3b39347d2b7461084edc215", "fusion_lat": 0.0, "name": "a440a98ab3b39347d2b7461084edc215", "is_reserved": 0, "rental_uris": {"android": "https://dc.lft.to/lastmile_qr_scan", "ios": "https://dc.lft.to/lastmile_qr_scan"}, "fusion_lon": 0.0}, {"lat": 38.82776783333333, "is_disabled": 0, "type": "electric_bike", "lon": -77.00916333333333, "bike_id": "87bbe49db848f0e988cc59067dc57406", "fusion_lat": 0.0, "name": "87bbe49db848f0e988cc59067dc57406", "is_reserved": 0, "rental_uris": {"android": "https://dc.lft.to/lastmile_qr_scan", "ios": "https://dc.lft.to/lastmile_qr_scan"}, "fusion_lon": 0.0}, {"lat": 38.931899333333334, "is_disabled": 0, "type": "electric_scooter", "lon": -77.0256585, "bike_id": "74125f38318ead79bf9c14adf403d908", "fusion_lat": 0.0, "name": "74125f38318ead79bf9c14adf403d908", "is_reserved": 0, "rental_uris": {"android": "https://dc.lft.to/lastmile_qr_scan", "ios": "https://dc.lft.to/lastmile_qr_scan"}, "fusion_lon": 0.0}, {"lat": 38.90976666666667, "is_disabled": 0, "type": "electric_scooter", "lon": -77.04808933333334, "bike_id": "cbb268849a1291ed848d9b348e7c3d37", "fusion_lat": 0.0, "name": "cbb268849a1291ed848d9b348e7c3d37", "is_reserved": 0, "rental_uris": {"android": "https://dc.lft.to/lastmile_qr_scan", "ios": "https://dc.lft.to/lastmile_qr_scan"}, "fusion_lon": 0.0}, {"lat": 38.883644333333336, "is_disabled": 0, "type": "electric_scooter", "lon": -76.994979, "bike_id": "99e47d4677b52666a2539a4c171b174f", "fusion_lat": 0.0, "name": "99e47d4677b52666a2539a4c171b174f", "is_reserved": 0, "rental_uris": {"android": "https://dc.lft.to/lastmile_qr_scan", "ios": "https://dc.lft.to/lastmile_qr_scan"}, "fusion_lon": 0.0}, {"lat": 38.909652, "is_disabled": 0, "type": "electric_scooter", "lon": -77.03862833333334, "bike_id": "1bc15bbd2b13905472cc19c1ec436186", "fusion_lat": 0.0, "name": "1bc15bbd2b13905472cc19c1ec436186", "is_reserved": 0, "rental_uris": {"android": "https://dc.lft.to/lastmile_qr_scan", "ios": "https://dc.lft.to/lastmile_qr_scan"}, "fusion_lon": 0.0}, {"lat": 38.8962655, "is_disabled": 0, "type": "electric_scooter", "lon": -77.03305083333333, "bike_id": "ce30711a40f964aae9adfbe7f678f961", "fusion_lat": 0.0, "name": "ce30711a40f964aae9adfbe7f678f961", "is_reserved": 0, "rental_uris": {"android": "https://dc.lft.to/lastmile_qr_scan", "ios": "https://dc.lft.to/lastmile_qr_scan"}, "fusion_lon": 0.0}, {"lat": 38.887995333333336, "is_disabled": 0, "type": "electric_scooter", "lon": -76.93363616666667, "bike_id": "14bd99ac9e651d13a3dbfb6b26aa2d7e", "fusion_lat": 0.0, "name": "14bd99ac9e651d13a3dbfb6b26aa2d7e", "is_reserved": 0, "rental_uris": {"android": "https://dc.lft.to/lastmile_qr_scan", "ios": "https://dc.lft.to/lastmile_qr_scan"}, "fusion_lon": 0.0}, {"lat": 38.8971305, "is_disabled": 0, "type": "electric_scooter", "lon": -77.02788566666666, "bike_id": "f5e5681c5960c7aa93cee7453f7ab2c1", "fusion_lat": 0.0, "name": "f5e5681c5960c7aa93cee7453f7ab2c1", "is_reserved": 0, "rental_uris": {"android": "https://dc.lft.to/lastmile_qr_scan", "ios": "https://dc.lft.to/lastmile_qr_scan"}, "fusion_lon": 0.0},