{"data": {"bikes": [{"fusion_lat": 0.0, "name": "eec4782441f077079a5769aeaf333b91", "is_disabled": 0, "rental_uris": {"android": "https://dc.lft.to/lastmile_qr_scan", "ios": "https://dc.lft.to/lastmile_qr_scan"}, "fusion_lon": 0.0, "lat": 38.883602, "bike_id": "eec4782441f077079a5769aeaf333b91", "type": "electric_scooter", "is_reserved": 0, "lon": -77.01987}, {"fusion_lat": 0.0, "name": "e3b5357facee4fcd0daa3e8930552ccb", "is_disabled": 0, "rental_uris": {"android": "https://dc.lft.to/lastmile_qr_scan", "ios": "https://dc.lft.to/lastmile_qr_scan"}, "fusion_lon": 0.0, "lat": 39.0360875, "bike_id": "e3b5357facee4fcd0daa3e8930552ccb", "type": "electric_bike", "is_reserved": 0, "lon": -77.05539266666666}, {"fusion_lat": 0.0, "name": "cffc125530008733dd64aae4775d827a", "is_disabled": 0, "rental_uris": {"android": "https://dc.lft.to/lastmile_qr_scan", "ios": "https://dc.lft.to/lastmile_qr_scan"}, "fusion_lon": 0.0, "lat": 38.92086166666667, "bike_id": "cffc125530008733dd64aae4775d827a", "type": "electric_bike", "is_reserved": 0, "lon": -77.07169216666667}, {"fusion_lat": 0.0, "name": "c531c53589cd88636b861b92ef3b1a8a", "is_disabled": 0, "rental_uris": {"android": "https://dc.lft.to/lastmile_qr_scan", "ios": "https://dc.lft.to/lastmile_qr_scan"}, "fusion_lon": 0.0, "lat": 38.935341333333334, "bike_id": "c531c53589cd88636b861b92ef3b1a8a", "type": "electric_scooter", "is_reserved": 0, "lon": -77.0234975}, {"fusion_lat": 0.0, "name": "603ee14aa272ce22316645fbac6dea62", "is_disabled": 0, "rental_uris": {"android": "https://dc.lft.to/lastmile_qr_scan", "ios": "https://dc.lft.to/lastmile_qr_scan"}, "fusion_lon": 0.0, "lat": 38.926489, "bike_id": "603ee14aa272ce22316645fbac6dea62", "type": "electric_scooter", "is_reserved": 0, "lon": -77.03853883333333}, {"fusion_lat": 0.0, "name": "008ce7cf0f99d6fbc67957e8f2f3e590", "is_disabled": 0, "rental_uris": {"android": "https://dc.lft.to/lastmile_qr_scan", "ios": "https://dc.lft.to/lastmile_qr_scan"}, "fusion_lon": 0.0, "lat": 38.9164555, "bike_id": "008ce7cf0f99d6fbc67957e8f2f3e590", "type": "electric_scooter", "is_reserved": 0, "lon": -77.04802666666667}, {"fusion_lat": 0.0, "name": "75f75a56ed260180d581c073236bd937", "is_disabled": 0, "rental_uris": {"android": "https://dc.lft.to/lastmile_qr_scan", "ios": "https://dc.lft.to/lastmile_qr_scan"}, "fusion_lon": 0.0, "lat": 38.91044866666667, "bike_id": "75f75a56ed260180d581c073236bd937", "type": "electric_scooter", "is_reserved": 0, "lon": -77.03333766666667}, {"fusion_lat": 0.0, "name": "6643b3d6e0c642556071f10a612c24d2", "is_disabled": 0, "rental_uris": {"android": "https://dc.lft.to/lastmile_qr_scan", "ios": "https://dc.lft.to/lastmile_qr_scan"}, "fusion_lon": 0.0, "lat": 38.91134266666667, "bike_id": "6643b3d6e0c642556071f10a612c24d2", "type": "electric_scooter", "is_reserved": 0, "lon": -77.04410533333333}, {"fusion_lat": 0.0, "name": "db314ec2806ccd25bec5d62c1ed23e2d", "is_disabled": 0, "rental_uris": {"android": "https://dc.lft.to/lastmile_qr_scan", "ios": "https://dc.lft.to/lastmile_qr_scan"}, "fusion_lon": 0.0, "lat": 38.899933, "bike_id": "db314ec2806ccd25bec5d62c1ed23e2d", "type": "electric_scooter", "is_reserved": 0, "lon": -77.05497816666667}, {"fusion_lat": 0.0, "name": "f550475b5949b026cd3f20af1ea3dba1", "is_disabled": 0, "rental_uris": {"android": "https://dc.lft.to/lastmile_qr_scan", "ios": "https://dc.lft.to/lastmile_qr_scan"}, "fusion_lon": 0.0, "lat": 38.93523866666666, "bike_id": "f550475b5949b026cd3f20af1ea3dba1", "type": "electric_scooter", "is_reserved": 0, "lon": -77.03263333333334}, {"fusion_lat": 0.0, "name": "8f8c994f0623f9d325c5cb9460d75106", "is_disabled": 0, "rental_uris": {"android": "https://dc.lft.to/lastmile_qr_scan", "ios": "https://dc.lft.to/lastmile_qr_scan"}, "fusion_lon": 0.0, "lat": 38.90259533333333, "bike_id": "8f8c994f0623f9d325c5cb9460d75106", "type": "electric_scooter", "is_reserved": 0, "lon": -76.97453466666667}, {"fusion_lat": 0.0, "name": "f45163ba1df866bb84c6054f01576b1b", "is_disabled": 0, "rental_uris": {"android": "https://dc.lft.to/lastmile_qr_scan", "ios": "https://dc.lft.to/lastmile_qr_scan"}, "fusion_lon": 0.0, "lat": 38.901439833333335, "bike_id": "f45163ba1df866bb84c6054f01576b1b", "type": "electric_scooter", "is_reserved": 0, "lon": -77.02281483333333}, {"fusion_lat": 0.0, "name": "b2e95092b667ce5b93c7411d1db3fe03", "is_disabled": 0, "rental_uris": {"android": "https://dc.lft.to/lastmile_qr_scan", "ios": "https://dc.lft.to/lastmile_qr_scan"}, "fusion_lon": 0.0, "lat": 38.908476666666665, "bike_id": "b2e95092b667ce5b93c7411d1db3fe03", "type": "electric_scooter", "is_reserved": 0, "lon": -77.00281733333334}, {"fusion_lat": 0.0, "name": "38e8817dd5f221ec30af644f48e2116c", "is_disabled": 0, "rental_uris": {"android": "https://dc.lft.to/lastmile_qr_scan", "ios": "https://dc.lft.to/lastmile_qr_scan"}, "fusion_lon": 0.0, "lat": 38.9039785, "bike_id": "38e8817dd5f221ec30af644f48e2116c", "type": "electric_scooter", "is_reserved": 0, "lon": -76.990086}, {"fusion_lat": 0.0, "name": "0bfc29bf83581b96983fe91dc84ddcd0", "is_disabled": 0, "rental_uris": {"android": "https://dc.lft.to/lastmile_qr_scan", "ios": "https://dc.lft.to/lastmile_qr_scan"}, "fusion_lon": 0.0, "lat": 38.93076333333333, "bike_id": "0bfc29bf83581b96983fe91dc84ddcd0", "type": "electric_scooter", "is_reserved": 0, "lon": -77.07761116666667}, {"fusion_lat": 0.0, "name": "4399631cbb84839f3a107092696fd7fa", "is_disabled": 0, "rental_uris": {"android": "https://dc.lft.to/lastmile_qr_scan", "ios": "https://dc.lft.to/lastmile_qr_scan"}, "fusion_lon": 0.0, "lat": 38.919164333333335, "bike_id": "4399631cbb84839f3a107092696fd7fa", "type": "electric_scooter", "is_reserved": 0, "lon": -77.04148466666666}, {"fusion_lat": 0.0, "name": "9b96f4a0a1f968d971b9b1bea32e20b9", "is_disabled": 0, "rental_uris": {"android": "https://dc.lft.to/lastmile_qr_scan", "ios": "https://dc.lft.to/lastmile_qr_scan"}, "fusion_lon": 0.0, "lat": 38.92317283333333, "bike_id": "9b96f4a0a1f968d971b9b1bea32e20b9", "type": "electric_scooter", "is_reserved": 0, "lon": -77.02042783333333}, {"fusion_lat": 0.0, "name": "9ab4c640eaa4a4eda0c46174e7f10d85", "is_disabled": 0, "rental_uris": {"android": "https://dc.lft.to/lastmile_qr_scan", "ios": "https://dc.lft.to/lastmile_qr_scan"}, "fusion_lon": 0.0, "lat": 38.93075566666667, "bike_id": "9ab4c640eaa4a4eda0c46174e7f10d85", "type": "electric_scooter", "is_reserved": 0, "lon": -77.03165016666667}, {"fusion_lat": 0.0, "name": "bb0b4a4a4410bead4a7c35142602215f", "is_disabled": 0, "rental_uris": {"android": "https://dc.lft.to/lastmile_qr_scan", "ios": "https://dc.lft.to/lastmile_qr_scan"}, "fusion_lon": 0.0, "lat": 38.916934833333336, "bike_id": "bb0b4a4a4410bead4a7c35142602215f", "type": "electric_scooter", "is_reserved": 0, "lon": -77.02593766666666}, {"fusion_lat": 0.0, "name": "b6d0d48afe5229219846974a34869235", "is_disabled": 0, "rental_uris": {"android": "https://dc.lft.to/lastmile_qr_scan", "ios": "https://dc.lft.to/lastmile_qr_scan"}, "fusion_lon": 0.0, "lat": 38.898562166666665, "bike_id": "b6d0d48afe5229219846974a34869235", "type": "electric_scooter", "is_reserved": 0, "lon": -77.02217133333333}, {"fusion_lat": 0.0, "name": "778314b016c0e8e92e7cd533ea51c740", "is_disabled": 0, "rental_uris": {"android": "https://dc.lft.to/lastmile_qr_scan", "ios": "https://dc.lft.to/lastmile_qr_scan"}, "fusion_lon": 0.0, "lat": 38.906447, "bike_id": "778314b016c0e8e92e7cd533ea51c740", "type": "electric_scooter", "is_reserved": 0, "lon": -77.04872016666667}, {"fusion_lat": 0.0, "name": "48e7d93d944f7b69c721206ed0d8bcdf", "is_disabled": 0, "rental_uris": {"android": "https://dc.lft.to/lastmile_qr_scan", "ios": "https://dc.lft.to/lastmile_qr_scan"}, "fusion_lon": 0.0, "lat": 38.896217, "bike_id": "48e7d93d944f7b69c721206ed0d8bcdf", "type": "electric_scooter", "is_reserved": 0, "lon": -77.02665866666666}, {"fusion_lat": 0.0, "name": "400023ab659462c75d2658e6671ff083", "is_disabled": 0, "rental_uris": {"android": "https://dc.lft.to/lastmile_qr_scan", "ios": "https://dc.lft.to/lastmile_qr_scan"}, "fusion_lon": 0.0, "lat": 38.91154, "bike_id": "400023ab659462c75d2658e6671ff083", "type": "electric_scooter", "is_reserved": 0, "lon": -76.987265}, {"fusion_lat": 0.0, "name": "86051480518461f38b0d6b2670de57b7", "is_disabled": 0, "rental_uris": {"android": "https://dc.lft.to/lastmile_qr_scan", "ios": "https://dc.lft.to/lastmile_qr_scan"}, "fusion_lon": 0.0, "lat": 38.9149505, "bike_id": "86051480518461f38b0d6b2670de57b7", "type": "electric_scooter", "is_reserved": 0, "lon": -77.01414866666667}, {"fusion_lat": 0.0, "name": "18a2778f3f3f9cb3c64764e2bc3dfff8", "is_disabled": 0, "rental_uris": {"android": "https://dc.lft.to/lastmile_qr_scan", "ios": "https://dc.lft.to/lastmile_qr_scan"}, "fusion_lon": 0.0, "lat": 38.93399466666666, "bike_id": "18a2778f3f3f9cb3c64764e2bc3dfff8", "type": "electric_scooter", "is_reserved": 0, "lon": -77.05743383333333}, {"fusion_lat": 0.0, "name": "04e2138606ad726dec82584578145f45", "is_disabled": 0, "rental_uris": {"android": "https://dc.lft.to/lastmile_qr_scan", "ios": "https://dc.lft.to/lastmile_qr_scan"}, "fusion_lon": 0.0, "lat": 38.895058166666665, "bike_id": "04e2138606ad726dec82584578145f45", "type": "electric_scooter", "is_reserved": 0, "lon": -77.04162733333334}, {"fusion_lat": 0.0, "name": "3f322a7e52466a08e1b5568bde2681c0", "is_disabled": 0, "rental_uris": {"android": "https://dc.lft.to/lastmile_qr_scan", "ios": "https://dc.lft.to/lastmile_qr_scan"}, "fusion_lon": 0.0, "lat": 38.879949, "bike_id": "3f322a7e52466a08e1b5568bde2681c0", "type": "electric_scooter", "is_reserved": 0, "lon": -76.9854675}, {"fusion_lat": 0.0, "name": "c79565ea69c98f59e5dffd2fd14b1eed", "is_disabled": 0, "rental_uris": {"android": "https://dc.lft.to/lastmile_qr_scan", "ios": "https://dc.lft.to/lastmile_qr_scan"}, "fusion_lon": 0.0, "lat": 38.9295265, "bike_id": "c79565ea69c98f59e5dffd2fd14b1eed", "type": "electric_scooter", "is_reserved": 0, "lon": -77.034678}, {"fusion_lat": 0.0, "name": "e77ca42d9aca9363b861162eb32e5380", "is_disabled": 0, "rental_uris": {"android": "https://dc.lft.to/lastmile_qr_scan", "ios": "https://dc.lft.to/lastmile_qr_scan"}, "fusion_lon": 0.0, "lat": 38.895650833333335, "bike_id": "e77ca42d9aca9363b861162eb32e5380", "type": "electric_bike", "is_reserved": 0, "lon": -77.12737366666667}, {"fusion_lat": 0.0, "name": "d1628ba365d3fc8621e5456132210a48", "is_disabled": 0, "rental_uris": {"android": "https://dc.lft.to/lastmile_qr_scan", "ios": "https://dc.lft.to/lastmile_qr_scan"}, "fusion_lon": 0.0, "lat": 38.911328, "bike_id": "d1628ba365d3fc8621e5456132210a48", "type": "electric_scooter", "is_reserved": 0, "lon": -77.01051583333333}, {"fusion_lat": 0.0, "name": "34c4de102eec6d05300b2d745a82c2b7", "is_disabled": 0, "rental_uris": {"android": "https://dc.lft.to/lastmile_qr_scan", "ios": "https://dc.lft.to/lastmile_qr_scan"}, "fusion_lon": 0.0, "lat": 38.85315166666667, "bike_id": "34c4de102eec6d05300b2d745a82c2b7", "type": "electric_bike", "is_reserved": 0, "lon": -77.04592916666667}, {"fusion_lat": 0.0, "name": "f69f920ef6fb35a20731dc4f0424ed8b", "is_disabled": 0, "rental_uris": {"android": "https://dc.lft.to/lastmile_qr_scan", "ios": "https://dc.lft.to/lastmile_qr_scan"}, "fusion_lon": 0.0, "lat": 38.917074666666664, "bike_id": "f69f920ef6fb35a20731dc4f0424ed8b", "type": "electric_scooter", "is_reserved": 0, "lon": -77.03472083333334}, {"fusion_lat": 0.0, "name": "2235c79a75b97910b731433065397b32", "is_disabled": 0, "rental_uris": {"android": "https://dc.lft.to/lastmile_qr_scan", "ios": "https://dc.lft.to/lastmile_qr_scan"}, "fusion_lon": 0.0, "lat": 38.926893, "bike_id": "2235c79a75b97910b731433065397b32", "type": "electric_scooter", "is_reserved": 0, "lon": -77.00774416666667}, {"fusion_lat": 0.0, "name": "2704b6ecfc37c8187402a5a2941b44f9", "is_disabled": 0, "rental_uris": {"android": "https://dc.lft.to/lastmile_qr_scan", "ios": "https://dc.lft.to/lastmile_qr_scan"}, "fusion_lon": 0.0, "lat": 38.842836, "bike_id": "2704b6ecfc37c8187402a5a2941b44f9", "type": "electric_bike", "is_reserved": 0, "lon": -77.04488416666666}, {"fusion_lat": 0.0, "name": "b028b2a774122a323b8a0d37a600ad45", "is_disabled": 0, "rental_uris": {"android": "https://dc.lft.to/lastmile_qr_scan", "ios": "https://dc.lft.to/lastmile_qr_scan"}, "fusion_lon": 0.0, "lat": 38.93612816666667, "bike_id": "b028b2a774122a323b8a0d37a600ad45", "type": "electric_scooter", "is_reserved": 0, "lon": -77.03191766666667}, {"fusion_lat": 0.0, "name": "feb74da6640d8d88fbf968dd330cce14", "is_disabled": 0, "rental_uris": {"android": "https://dc.lft.to/lastmile_qr_scan", "ios": "https://dc.lft.to/lastmile_qr_scan"}, "fusion_lon": 0.0, "lat": 38.92887433333333, "bike_id": "feb74da6640d8d88fbf968dd330cce14", "type": "electric_scooter", "is_reserved": 0, "lon": -77.03307033333333}, {"fusion_lat": 0.0, "name": "41f78e051b8aac67ae33ed39c8c46206", "is_disabled": 0, "rental_uris": {"android": "https://dc.lft.to/lastmile_qr_scan", "ios": "https://dc.lft.to/lastmile_qr_scan"}, "fusion_lon": 0.0, "lat": 38.927047, "bike_id": "41f78e051b8aac67ae33ed39c8c46206", "type": "electric_scooter", "is_reserved": 0, "lon": -77.02426083333333}, {"fusion_lat": 0.0, "name": "6d6a6d29251cdf0c58aae918ab70a946", "is_disabled": 0, "rental_uris": {"android": "https://dc.lft.to/lastmile_qr_scan", "ios": "https://dc.lft.to/lastmile_qr_scan"}, "fusion_lon": 0.0, "lat": 38.89234716666667, "bike_id": "6d6a6d29251cdf0c58aae918ab70a946", "type": "electric_scooter", "is_reserved": 0, "lon": -77.03175916666666}, {"fusion_lat": 0.0, "name": "b67b8d1128d6f3daa8e909dfd8cd163f", "is_disabled": 0, "rental_uris": {"android": "https://dc.lft.to/lastmile_qr_scan", "ios": "https://dc.lft.to/lastmile_qr_scan"}, "fusion_lon": 0.0, "lat": 38.887442, "bike_id": "b67b8d1128d6f3daa8e909dfd8cd163f", "type": "electric_scooter", "is_reserved": 0, "lon": -77.02449016666667}, {"fusion_lat": 0.0, "name": "971d4cd2be01ac02c6edc48f7076c0be", "is_disabled": 0, "rental_uris": {"android": "https://dc.lft.to/lastmile_qr_scan", "ios": "https://dc.lft.to/lastmile_qr_scan"}, "fusion_lon": 0.0, "lat": 38.90482183333334, "bike_id": "971d4cd2be01ac02c6edc48f7076c0be", "type": "electric_scooter", "is_reserved": 0, "lon": -77.046867}, {"fusion_lat": 0.0, "name": "8cc1519937c18e90feb3298f263c2868", "is_disabled": 0, "rental_uris": {"android": "https://dc.lft.to/lastmile_qr_scan", "ios": "https://dc.lft.to/lastmile_qr_scan"}, "fusion_lon": 0.0, "lat": 38.9507405, "bike_id": "8cc1519937c18e90feb3298f263c2868", "type": "electric_bike", "is_reserved": 0, "lon": -77.01197883333333}, {"fusion_lat": 0.0, "name": "261e729ab74c795f9fb193265fcd6e08", "is_disabled": 0, "rental_uris": {"android": "https://dc.lft.to/lastmile_qr_scan", "ios": "https://dc.lft.to/lastmile_qr_scan"}, "fusion_lon": 0.0, "lat": 38.957384833333336, "bike_id": "261e729ab74c795f9fb193265fcd6e08", "type": "electric_bike", "is_reserved": 0, "lon": -76.980791}, {"fusion_lat": 0.0, "name": "acd4bf2bd4c8e0b0cf6538994699bbfb", "is_disabled": 0, "rental_uris": {"android": "https://dc.lft.to/lastmile_qr_scan", "ios": "https://dc.lft.to/lastmile_qr_scan"}, "fusion_lon": 0.0, "lat": 38.905297833333336, "bike_id": "acd4bf2bd4c8e0b0cf6538994699bbfb", "type": "electric_scooter", "is_reserved": 0, "lon": -77.059364}, {"fusion_lat": 0.0, "name": "e464f9163b1e2136b7becc3dc3868ede", "is_disabled": 0, "rental_uris": {"android": "https://dc.lft.to/lastmile_qr_scan", "ios": "https://dc.lft.to/lastmile_qr_scan"}, "fusion_lon": 0.0, "lat": 38.899039333333334, "bike_id": "e464f9163b1e2136b7becc3dc3868ede", "type": "electric_scooter", "is_reserved": 0, "lon": -76.93351733333333}, {"fusion_lat": 0.0, "name": "cde1aedcffec7c772ab75d5178f9d55e", "is_disabled": 0, "rental_uris": {"android": "https://dc.lft.to/lastmile_qr_scan", "ios": "https://dc.lft.to/lastmile_qr_scan"}, "fusion_lon": 0.0, "lat": 38.91109333333333, "bike_id": "cde1aedcffec7c772ab75d5178f9d55e", "type": "electric_scooter", "is_reserved": 0, "lon": -77.04172683333333}, {"fusion_lat": 0.0, "name": "3049d431765f9c3f0efac57c0ed0aa0f", "is_disabled": 0, "rental_uris": {"android": "https://dc.lft.to/lastmile_qr_scan", "ios": "https://dc.lft.to/lastmile_qr_scan"}, "fusion_lon": 0.0, "lat": 38.9220235, "bike_id": "3049d431765f9c3f0efac57c0ed0aa0f", "type": "electric_scooter", "is_reserved": 0, "lon": -77.08083666666667}, {"fusion_lat": 0.0, "name": "ca726b0498fb408ff5400a10fcf2e769", "is_disabled": 0, "rental_uris": {"android": "https://dc.lft.to/lastmile_qr_scan", "ios": "https://dc.lft.to/lastmile_qr_scan"}, "fusion_lon": 0.0, "lat": 38.900188666666665, "bike_id": "ca726b0498fb408ff5400a10fcf2e769", "type": "electric_scooter", "is_reserved": 0, "lon": -77.00389433333333}, {"fusion_lat": 0.0, "name": "f19cbedd15c746d3331801693815bb08", "is_disabled": 0, "rental_uris": {"android": "https://dc.lft.to/lastmile_qr_scan", "ios": "https://dc.lft.to/lastmile_qr_scan"}, "fusion_lon": 0.0, "lat": 38.928162, "bike_id": "f19cbedd15c746d3331801693815bb08", "type": "electric_scooter", "is_reserved": 0, "lon": -77.043542}, {"fusion_lat": 0.0, "name": "f473b44beba331c2cc3e416e024b6e47", "is_disabled": 0, "rental_uris": {"android": "https://dc.lft.to/lastmile_qr_scan", "ios": "https://dc.lft.to/lastmile_qr_scan"}, "fusion_lon": 0.0, "lat": 38.907221, "bike_id": "f473b44beba331c2cc3e416e024b6e47", "type": "electric_scooter", "is_reserved": 0, "lon": -77.00068416666667}, {"fusion_lat": 0.0, "name": "7cdd4a1fb443386ee2db69e261441cf5", "is_disabled": 0, "rental_uris": {"android": "https://dc.lft.to/lastmile_qr_scan", "ios": "https://dc.lft.to/lastmile_qr_scan"}, "fusion_lon": 0.0, "lat": 38.905118333333334, "bike_id": "7cdd4a1fb443386ee2db69e261441cf5", "type": "electric_scooter", "is_reserved": 0, "lon": -77.0481835}, {"fusion_lat": 0.0, "name": "5f9301843bc9dbf92ec86c2f710e2635", "is_disabled": 0, "rental_uris": {"android": "https://dc.lft.to/lastmile_qr_scan", "ios": "https://dc.lft.to/lastmile_qr_scan"}, "fusion_lon": 0.0, "lat": 38.87920866666666, "bike_id": "5f9301843bc9dbf92ec86c2f710e2635", "type": "electric_scooter", "is_reserved": 0, "lon": -77.00711183333334}, {"fusion_lat": 0.0, "name": "ed39a17439f2cf62d5a7fc2cb3191df0", "is_disabled": 0, "rental_uris": {"android": "https://dc.lft.to/lastmile_qr_scan", "ios": "https://dc.lft.to/lastmile_qr_scan"}, "fusion_lon": 0.0, "lat": 38.9077675, "bike_id": "ed39a17439f2cf62d5a7fc2cb3191df0", "type": "electric_scooter", "is_reserved": 0, "lon": -77.04267116666666}, {"fusion_lat": 0.0, "name": "0f3febfc6e681e2c1502aeb42d448822", "is_disabled": 0, "rental_uris": {"android": "https://dc.lft.to/lastmile_qr_scan", "ios": "https://dc.lft.to/lastmile_qr_scan"}, "fusion_lon": 0.0, "lat": 38.921021833333334, "bike_id": "0f3febfc6e681e2c1502aeb42d448822", "type": "electric_scooter", "is_reserved": 0, "lon": -77.07469083333334}, {"fusion_lat": 0.0, "name": "9769bf84cbb78d75387cf69fb5b88c25", "is_disabled": 0, "rental_uris": {"android": "https://dc.lft.to/lastmile_qr_scan", "ios": "https://dc.lft.to/lastmile_qr_scan"}, "fusion_lon": 0.0, "lat": 38.89224133333333, "bike_id": "9769bf84cbb78d75387cf69fb5b88c25", "type": "electric_scooter", "is_reserved": 0, "lon": -77.0468555}, {"fusion_lat": 0.0, "name": "7ae2d72aec2e559e6c92714f35b46f35", "is_disabled": 0, "rental_uris": {"android": "https://dc.lft.to/lastmile_qr_scan", "ios": "https://dc.lft.to/lastmile_qr_scan"}, "fusion_lon": 0.0, "lat": 38.89879883333333, "bike_id": "7ae2d72aec2e559e6c92714f35b46f35", "type": "electric_scooter", "is_reserved": 0, "lon": -77.02035966666666}, {"fusion_lat": 0.0, "name": "cc7029a771065f40cf663b5e23fcf9df", "is_disabled": 0, "rental_uris": {"android": "https://dc.lft.to/lastmile_qr_scan", "ios": "https://dc.lft.to/lastmile_qr_scan"}, "fusion_lon": 0.0, "lat": 38.900983333333336, "bike_id": "cc7029a771065f40cf663b5e23fcf9df", "type": "electric_scooter", "is_reserved": 0, "lon": -76.98329683333333}, {"fusion_lat": 0.0, "name": "d47d223e1fa6e1597898db1d9d3c07e5", "is_disabled": 0, "rental_uris": {"android": "https://dc.lft.to/lastmile_qr_scan", "ios": "https://dc.lft.to/lastmile_qr_scan"}, "fusion_lon": 0.0, "lat": 38.910397, "bike_id": "d47d223e1fa6e1597898db1d9d3c07e5", "type": "electric_scooter", "is_reserved": 0, "lon": -77.0082825}, {"fusion_lat": 0.0, "name": "aa92ed28a658e6dbd7d77950da3d2e1c", "is_disabled": 0, "rental_uris": {"android": "https://dc.lft.to/lastmile_qr_scan", "ios": "https://dc.lft.to/lastmile_qr_scan"}, "fusion_lon": 0.0, "lat": 38.922212, "bike_id": "aa92ed28a658e6dbd7d77950da3d2e1c", "type": "electric_scooter", "is_reserved": 0, "lon": -77.042364}, {"fusion_lat": 0.0, "name": "4e7bddfae79d86cdb7c9b8fe15283b07", "is_disabled": 0, "rental_uris": {"android": "https://dc.lft.to/lastmile_qr_scan", "ios": "https://dc.lft.to/lastmile_qr_scan"}, "fusion_lon": 0.0, "lat": 38.91579016666667, "bike_id": "4e7bddfae79d86cdb7c9b8fe15283b07", "type": "electric_scooter", "is_reserved": 0, "lon": -77.03852533333334}, {"fusion_lat": 0.0, "name": "a11861b61e17bbef81e1980fb9f9f24c", "is_disabled": 0, "rental_uris": {"android": "https://dc.lft.to/lastmile_qr_scan", "ios": "https://dc.lft.to/lastmile_qr_scan"}, "fusion_lon": 0.0, "lat": 38.9061695, "bike_id": "a11861b61e17bbef81e1980fb9f9f24c", "type": "electric_scooter", "is_reserved": 0, "lon": -77.03711216666666}, {"fusion_lat": 0.0, "name": "cd353e5df8aa40725101a44d9857e80e", "is_disabled": 0, "rental_uris": {"android": "https://dc.lft.to/lastmile_qr_scan", "ios": "https://dc.lft.to/lastmile_qr_scan"}, "fusion_lon": 0.0, "lat": 38.925497, "bike_id": "cd353e5df8aa40725101a44d9857e80e", "type": "electric_scooter", "is_reserved": 0, "lon": -77.03824866666666}, {"fusion_lat": 0.0, "name": "28a2b7c1aa9659d4684fd3d21b82b0a3", "is_disabled": 0, "rental_uris": {"android": "https://dc.lft.to/lastmile_qr_scan", "ios": "https://dc.lft.to/lastmile_qr_scan"}, "fusion_lon": 0.0, "lat": 38.938717833333335, "bike_id": "28a2b7c1aa9659d4684fd3d21b82b0a3", "type": "electric_scooter", "is_reserved": 0, "lon": -77.02472616666667}, {"fusion_lat": 0.0, "name": "0379a7da534ba915e3ddf46ca5dcc06a", "is_disabled": 0, "rental_uris": {"android": "https://dc.lft.to/lastmile_qr_scan", "ios": "https://dc.lft.to/lastmile_qr_scan"}, "fusion_lon": 0.0, "lat": 38.89890716666667, "bike_id": "0379a7da534ba915e3ddf46ca5dcc06a", "type": "electric_scooter", "is_reserved": 0, "lon": -77.01511266666667}, {"fusion_lat": 0.0, "name": "ab47c18b8cd9d8b43c39d1212898f4a6", "is_disabled": 0, "rental_uris": {"android": "https://dc.lft.to/lastmile_qr_scan", "ios": "https://dc.lft.to/lastmile_qr_scan"}, "fusion_lon": 0.0, "lat": 38.89218016666667, "bike_id": "ab47c18b8cd9d8b43c39d1212898f4a6", "type": "electric_scooter", "is_reserved": 0, "lon": -77.03149916666666}, {"fusion_lat": 0.0, "name": "58d0ce2341338a0b7e8863a67527daab", "is_disabled": 0, "rental_uris": {"android": "https://dc.lft.to/lastmile_qr_scan", "ios": "https://dc.lft.to/lastmile_qr_scan"}, "fusion_lon": 0.0, "lat": 38.886081833333336, "bike_id": "58d0ce2341338a0b7e8863a67527daab", "type": "electric_scooter", "is_reserved": 0, "lon": -77.00339166666667}, {"fusion_lat": 0.0, "name": "da3af31305c9c7a2be675ab2135b0543", "is_disabled": 0, "rental_uris": {"android": "https://dc.lft.to/lastmile_qr_scan", "ios": "https://dc.lft.to/lastmile_qr_scan"}, "fusion_lon": 0.0, "lat": 38.896768333333334, "bike_id": "da3af31305c9c7a2be675ab2135b0543", "type": "electric_scooter", "is_reserved": 0, "lon": -77.00549966666667}, {"fusion_lat": 0.0, "name": "a046b0f08a7e4647e953451e85291a19", "is_disabled": 0, "rental_uris": {"android": "https://dc.lft.to/lastmile_qr_scan", "ios": "https://dc.lft.to/lastmile_qr_scan"}, "fusion_lon": 0.0, "lat": 38.914103833333336, "bike_id": "a046b0f08a7e4647e953451e85291a19", "type": "electric_scooter", "is_reserved": 0, "lon": -77.0409585}, {"fusion_lat": 0.0, "name": "ea91a68ad8509296522c20748bc05487", "is_disabled": 0, "rental_uris": {"android": "https://dc.lft.to/lastmile_qr_scan", "ios": "https://dc.lft.to/lastmile_qr_scan"}, "fusion_lon": 0.0, "lat": 38.906486, "bike_id": "ea91a68ad8509296522c20748bc05487", "type": "electric_scooter", "is_reserved": 0, "lon": -77.0066125}, {"fusion_lat": 0.0, "name": "890efd4fb1f517895c8e32a1f52a4f82", "is_disabled": 0, "rental_uris": {"android": "https://dc.lft.to/lastmile_qr_scan", "ios": "https://dc.lft.to/lastmile_qr_scan"}, "fusion_lon": 0.0, "lat": 38.905324, "bike_id": "890efd4fb1f517895c8e32a1f52a4f82", "type": "electric_scooter", "is_reserved": 0, "lon": -77.0587675}, {"fusion_lat": 0.0, "name": "fa8ab353e58ca521572c52d69cf44f73", "is_disabled": 0, "rental_uris": {"android": "https://dc.lft.to/lastmile_qr_scan", "ios": "https://dc.lft.to/lastmile_qr_scan"}, "fusion_lon": 0.0, "lat": 38.96670816666666, "bike_id": "fa8ab353e58ca521572c52d69cf44f73", "type": "electric_scooter", "is_reserved": 0, "lon": -77.0254815}, {"fusion_lat": 0.0, "name": "728ee639210219f91a36273375a083d0", "is_disabled": 0, "rental_uris": {"android": "https://dc.lft.to/lastmile_qr_scan", "ios": "https://dc.lft.to/lastmile_qr_scan"}, "fusion_lon": 0.0, "lat": 38.9131925, "bike_id": "728ee639210219f91a36273375a083d0", "type": "electric_scooter", "is_reserved": 0, "lon": -77.03651216666667}, {"fusion_lat": 0.0, "name": "2733566eafe0a48900aa97e854c78080", "is_disabled": 0, "rental_uris": {"android": "https://dc.lft.to/lastmile_qr_scan", "ios": "https://dc.lft.to/lastmile_qr_scan"}, "fusion_lon": 0.0, "lat": 38.90066933333333, "bike_id": "2733566eafe0a48900aa97e854c78080", "type": "electric_scooter", "is_reserved": 0, "lon": -77.05682383333334}, {"fusion_lat": 0.0, "name": "ca7007937ff55f899f5fda4c4a8f2f45", "is_disabled": 0, "rental_uris": {"android": "https://dc.lft.to/lastmile_qr_scan", "ios": "https://dc.lft.to/lastmile_qr_scan"}, "fusion_lon": 0.0, "lat": 38.88145016666667, "bike_id": "ca7007937ff55f899f5fda4c4a8f2f45", "type": "electric_scooter", "is_reserved": 0, "lon": -76.99504366666666}, {"fusion_lat": 0.0, "name": "09394377abbee2f4e75b24bd981b56f2", "is_disabled": 0, "rental_uris": {"android": "https://dc.lft.to/lastmile_qr_scan", "ios": "https://dc.lft.to/lastmile_qr_scan"}, "fusion_lon": 0.0, "lat": 38.917314166666664, "bike_id": "09394377abbee2f4e75b24bd981b56f2", "type": "electric_scooter", "is_reserved": 0, "lon": -77.04178583333334}, {"fusion_lat": 0.0, "name": "4768da252ac3d19900e069f7e2a4cba0", "is_disabled": 0, "rental_uris": {"android": "https://dc.lft.to/lastmile_qr_scan", "ios": "https://dc.lft.to/lastmile_qr_scan"}, "fusion_lon": 0.0, "lat": 38.89486316666667, "bike_id": "4768da252ac3d19900e069f7e2a4cba0", "type": "electric_scooter", "is_reserved": 0, "lon": -77.02178283333333}, {"fusion_lat": 0.0, "name": "2aec6f32275318c5ccf5f328098f60e7", "is_disabled": 0, "rental_uris": {"android": "https://dc.lft.to/lastmile_qr_scan", "ios": "https://dc.lft.to/lastmile_qr_scan"}, "fusion_lon": 0.0, "lat": 38.9009525, "bike_id": "2aec6f32275318c5ccf5f328098f60e7", "type": "electric_scooter", "is_reserved": 0, "lon": -77.01947033333333}, {"fusion_lat": 0.0, "name": "1010e170a372249c45da60e5f5f8695e", "is_disabled": 0, "rental_uris": {"android": "https://dc.lft.to/lastmile_qr_scan", "ios": "https://dc.lft.to/lastmile_qr_scan"}, "fusion_lon": 0.0, "lat": 38.86265933333333, "bike_id": "1010e170a372249c45da60e5f5f8695e", "type": "electric_bike", "is_reserved": 0, "lon": -76.98350233333333}, {"fusion_lat": 0.0, "name": "1364dacee641bf338f7e27c20f2e451f", "is_disabled": 0, "rental_uris": {"android": "https://dc.lft.to/lastmile_qr_scan", "ios": "https://dc.lft.to/lastmile_qr_scan"}, "fusion_lon": 0.0, "lat": 38.85792216666667, "bike_id": "1364dacee641bf338f7e27c20f2e451f", "type": "electric_bike", "is_reserved": 0, "lon": -76.98720383333334}, {"fusion_lat": 0.0, "name": "edcc185a09f71e844179ca6c4c1e96a6", "is_disabled": 0, "rental_uris": {"android": "https://dc.lft.to/lastmile_qr_scan", "ios": "https://dc.lft.to/lastmile_qr_scan"}, "fusion_lon": 0.0, "lat": 38.9236145, "bike_id": "edcc185a09f71e844179ca6c4c1e96a6", "type": "electric_scooter", "is_reserved": 0, "lon": -77.04238233333334}, {"fusion_lat": 0.0, "name": "0fc51682799d27d19e715f2c57fce9c4", "is_disabled": 0, "rental_uris": {"android": "https://dc.lft.to/lastmile_qr_scan", "ios": "https://dc.lft.to/lastmile_qr_scan"}, "fusion_lon": 0.0, "lat": 38.92065183333333, "bike_id": "0fc51682799d27d19e715f2c57fce9c4", "type": "electric_scooter", "is_reserved": 0, "lon": -76.9985985}, {"fusion_lat": 0.0, "name": "623a230788c7244cf7ddc6007399cbc3", "is_disabled": 0, "rental_uris": {"android": "https://dc.lft.to/lastmile_qr_scan", "ios": "https://dc.lft.to/lastmile_qr_scan"}, "fusion_lon": 0.0, "lat": 38.91725616666667, "bike_id": "623a230788c7244cf7ddc6007399cbc3", "type": "electric_scooter", "is_reserved": 0, "lon": -77.00817583333334}, {"fusion_lat": 0.0, "name": "06a8e7b91990d3009d17087c2b995ada", "is_disabled": 0, "rental_uris": {"android": "https://dc.lft.to/lastmile_qr_scan", "ios": "https://dc.lft.to/lastmile_qr_scan"}, "fusion_lon": 0.0, "lat": 38.91018433333333, "bike_id": "06a8e7b91990d3009d17087c2b995ada", "type": "electric_scooter", "is_reserved": 0, "lon": -77.0077435}, {"fusion_lat": 0.0, "name": "7291dc9bc1937683446481ed9a66797c", "is_disabled": 0, "rental_uris": {"android": "https://dc.lft.to/lastmile_qr_scan", "ios": "https://dc.lft.to/lastmile_qr_scan"}, "fusion_lon": 0.0, "lat": 38.924669, "bike_id": "7291dc9bc1937683446481ed9a66797c", "type": "electric_scooter", "is_reserved": 0, "lon": -76.99333816666666}, {"fusion_lat": 0.0, "name": "617c57716ab252e4908e879fb0f69d47", "is_disabled": 0, "rental_uris": {"android": "https://dc.lft.to/lastmile_qr_scan", "ios": "https://dc.lft.to/lastmile_qr_scan"}, "fusion_lon": 0.0, "lat": 38.9226595, "bike_id": "617c57716ab252e4908e879fb0f69d47", "type": "electric_scooter", "is_reserved": 0, "lon": -77.03640666666666}, {"fusion_lat": 0.0, "name": "f21814b8b6a040c3c54fb725be7924a2", "is_disabled": 0, "rental_uris": {"android": "https://dc.lft.to/lastmile_qr_scan", "ios": "https://dc.lft.to/lastmile_qr_scan"}, "fusion_lon": 0.0, "lat": 38.8974525, "bike_id": "f21814b8b6a040c3c54fb725be7924a2", "type": "electric_scooter", "is_reserved": 0, "lon": -77.0265795}, {"fusion_lat": 0.0, "name": "25c9735c8cb10282883c023a330348cd", "is_disabled": 0, "rental_uris": {"android": "https://dc.lft.to/lastmile_qr_scan", "ios": "https://dc.lft.to/lastmile_qr_scan"}, "fusion_lon": 0.0, "lat": 38.90554566666667, "bike_id": "25c9735c8cb10282883c023a330348cd", "type": "electric_scooter", "is_reserved": 0, "lon": -77.0346175}, {"fusion_lat": 0.0, "name": "97e8f56d73869a1f0ec757038128b6e5", "is_disabled": 0, "rental_uris": {"android": "https://dc.lft.to/lastmile_qr_scan", "ios": "https://dc.lft.to/lastmile_qr_scan"}, "fusion_lon": 0.0, "lat": 38.92023483333333, "bike_id": "97e8f56d73869a1f0ec757038128b6e5", "type": "electric_scooter", "is_reserved": 0, "lon": -76.99576333333333}, {"fusion_lat": 0.0, "name": "8939c445f45883c5d9e537b874c1977d", "is_disabled": 0, "rental_uris": {"android": "https://dc.lft.to/lastmile_qr_scan", "ios": "https://dc.lft.to/lastmile_qr_scan"}, "fusion_lon": 0.0, "lat": 38.9068635, "bike_id": "8939c445f45883c5d9e537b874c1977d", "type": "electric_scooter", "is_reserved": 0, "lon": -77.0604615}, {"fusion_lat": 0.0, "name": "db32eb00d7f94ad0dc4ce3f0b3bb36f3", "is_disabled": 0, "rental_uris": {"android": "https://dc.lft.to/lastmile_qr_scan", "ios": "https://dc.lft.to/lastmile_qr_scan"}, "fusion_lon": 0.0, "lat": 38.978819666666666, "bike_id": "db32eb00d7f94ad0dc4ce3f0b3bb36f3", "type": "electric_bike", "is_reserved": 0, "lon": -77.06030466666667}, {"fusion_lat": 0.0, "name": "7c0badc03138682f9eda5c641ec6beff", "is_disabled": 0, "rental_uris": {"android": "https://dc.lft.to/lastmile_qr_scan", "ios": "https://dc.lft.to/lastmile_qr_scan"}, "fusion_lon": 0.0, "lat": 38.9089685, "bike_id": "7c0badc03138682f9eda5c641ec6beff", "type": "electric_scooter", "is_reserved": 0, "lon": -77.04424933333334}, {"fusion_lat": 0.0, "name": "5388492121a2393beeaed5b4225492c1", "is_disabled": 0, "rental_uris": {"android": "https://dc.lft.to/lastmile_qr_scan", "ios": "https://dc.lft.to/lastmile_qr_scan"}, "fusion_lon": 0.0, "lat": 38.92158516666667, "bike_id": "5388492121a2393beeaed5b4225492c1", "type": "electric_scooter", "is_reserved": 0, "lon": -77.03443216666666}, {"fusion_lat": 0.0, "name": "3ba9a02aea751ce232f975b2bdf318d8", "is_disabled": 0, "rental_uris": {"android": "https://dc.lft.to/lastmile_qr_scan", "ios": "https://dc.lft.to/lastmile_qr_scan"}, "fusion_lon": 0.0, "lat": 38.839324500000004, "bike_id": "3ba9a02aea751ce232f975b2bdf318d8", "type": "electric_bike", "is_reserved": 0, "lon": -77.07903883333333}, {"fusion_lat": 0.0, "name": "997f855a5ac98a2d8e74e4ac6f9d6430", "is_disabled": 0, "rental_uris": {"android": "https://dc.lft.to/lastmile_qr_scan", "ios": "https://dc.lft.to/lastmile_qr_scan"}, "fusion_lon": 0.0, "lat": 38.895159666666665, "bike_id": "997f855a5ac98a2d8e74e4ac6f9d6430", "type": "electric_scooter", "is_reserved": 0, "lon": -76.99958466666666}, {"fusion_lat": 0.0, "name": "77a0e26fcd60b7c2df59c44f3ed4d833", "is_disabled": 0, "rental_uris": {"android": "https://dc.lft.to/lastmile_qr_scan", "ios": "https://dc.lft.to/lastmile_qr_scan"}, "fusion_lon": 0.0, "lat": 38.92621483333333, "bike_id": "77a0e26fcd60b7c2df59c44f3ed4d833", "type": "electric_scooter", "is_reserved": 0, "lon": -77.04327233333333}, {"fusion_lat": 0.0, "name": "609f4fa72b9aed49646ac67356767806", "is_disabled": 0, "rental_uris": {"android": "https://dc.lft.to/lastmile_qr_scan", "ios": "https://dc.lft.to/lastmile_qr_scan"}, "fusion_lon": 0.0, "lat": 38.94204583333333, "bike_id": "609f4fa72b9aed49646ac67356767806", "type": "electric_scooter", "is_reserved": 0, "lon": -77.02589683333333}, {"fusion_lat": 0.0, "name": "b3ba4fe02d9012e8f030436ac9b8ce1a", "is_disabled": 0, "rental_uris": {"android": "https://dc.lft.to/lastmile_qr_scan", "ios": "https://dc.lft.to/lastmile_qr_scan"}, "fusion_lon": 0.0, "lat": 38.927448166666665, "bike_id": "b3ba4fe02d9012e8f030436ac9b8ce1a", "type": "electric_scooter", "is_reserved": 0, "lon": -77.03636483333334}, {"fusion_lat": 0.0, "name": "c011da24fc2073b3b3d3376788e57b74", "is_disabled": 0, "rental_uris": {"android": "https://dc.lft.to/lastmile_qr_scan", "ios": "https://dc.lft.to/lastmile_qr_scan"}, "fusion_lon": 0.0, "lat": 38.890941833333336, "bike_id": "c011da24fc2073b3b3d3376788e57b74", "type": "electric_bike", "is_reserved": 0, "lon": -77.0026285}, {"fusion_lat": 0.0, "name": "d90b9085d051a4fb6a7b21fde35d4d59", "is_disabled": 0, "rental_uris": {"android": "https://dc.lft.to/lastmile_qr_scan", "ios": "https://dc.lft.to/lastmile_qr_scan"}, "fusion_lon": 0.0, "lat": 39.07053783333333, "bike_id": "d90b9085d051a4fb6a7b21fde35d4d59", "type": "electric_bike", "is_reserved": 0, "lon": -77.1147985}, {"fusion_lat": 0.0, "name": "97f31689eb46a7d4a328c6f88e583561", "is_disabled": 0, "rental_uris": {"android": "https://dc.lft.to/lastmile_qr_scan", "ios": "https://dc.lft.to/lastmile_qr_scan"}, "fusion_lon": 0.0, "lat": 38.91404816666667, "bike_id": "97f31689eb46a7d4a328c6f88e583561", "type": "electric_scooter", "is_reserved": 0, "lon": -77.03175433333334}, {"fusion_lat": 0.0, "name": "52c19bdd5853a0f553bd9d7f4f443c5e", "is_disabled": 0, "rental_uris": {"android": "https://dc.lft.to/lastmile_qr_scan", "ios": "https://dc.lft.to/lastmile_qr_scan"}, "fusion_lon": 0.0, "lat": 38.93552483333333, "bike_id": "52c19bdd5853a0f553bd9d7f4f443c5e", "type": "electric_scooter", "is_reserved": 0, "lon": -77.03470233333333}, {"fusion_lat": 0.0, "name": "f1bc490930a878e68ec9dd45041eb357", "is_disabled": 0, "rental_uris": {"android": "https://dc.lft.to/lastmile_qr_scan", "ios": "https://dc.lft.to/lastmile_qr_scan"}, "fusion_lon": 0.0, "lat": 38.9002665, "bike_id": "f1bc490930a878e68ec9dd45041eb357", "type": "electric_scooter", "is_reserved": 0, "lon": -76.98696133333334}, {"fusion_lat": 0.0, "name": "ba78bf3f3464e04438e982704ad77afe", "is_disabled": 0, "rental_uris": {"android": "https://dc.lft.to/lastmile_qr_scan", "ios": "https://dc.lft.to/lastmile_qr_scan"}, "fusion_lon": 0.0, "lat": 38.899962, "bike_id": "ba78bf3f3464e04438e982704ad77afe", "type": "electric_scooter", "is_reserved": 0, "lon": -77.02745166666666}, {"fusion_lat": 0.0, "name": "054de4c8dbea9bda109b2fb80bd83209", "is_disabled": 0, "rental_uris": {"android": "https://dc.lft.to/lastmile_qr_scan", "ios": "https://dc.lft.to/lastmile_qr_scan"}, "fusion_lon": 0.0, "lat": 38.91119116666667, "bike_id": "054de4c8dbea9bda109b2fb80bd83209", "type": "electric_scooter", "is_reserved": 0, "lon": -77.0446345}, {"fusion_lat": 0.0, "name": "17d75cf97a05f789541d5442d51c56d7", "is_disabled": 0, "rental_uris": {"android": "https://dc.lft.to/lastmile_qr_scan", "ios": "https://dc.lft.to/lastmile_qr_scan"}, "fusion_lon": 0.0, "lat": 38.915698, "bike_id": "17d75cf97a05f789541d5442d51c56d7", "type": "electric_scooter", "is_reserved": 0, "lon": -77.03189166666667}, {"fusion_lat": 0.0, "name": "9d8e9657aa546aaa16f22bbd7734ce52", "is_disabled": 0, "rental_uris": {"android": "https://dc.lft.to/lastmile_qr_scan", "ios": "https://dc.lft.to/lastmile_qr_scan"}, "fusion_lon": 0.0, "lat": 38.908469333333336, "bike_id": "9d8e9657aa546aaa16f22bbd7734ce52", "type": "electric_scooter", "is_reserved": 0, "lon": -77.00371666666666}, {"fusion_lat": 0.0, "name": "67f4d11e14417fa135e5de0736bc19d4", "is_disabled": 0, "rental_uris": {"android": "https://dc.lft.to/lastmile_qr_scan", "ios": "https://dc.lft.to/lastmile_qr_scan"}, "fusion_lon": 0.0, "lat": 38.9618505, "bike_id": "67f4d11e14417fa135e5de0736bc19d4", "type": "electric_bike", "is_reserved": 0, "lon": -77.0526515}, {"fusion_lat": 0.0, "name": "d423f7f98ebf39a801be79783176337a", "is_disabled": 0, "rental_uris": {"android": "https://dc.lft.to/lastmile_qr_scan", "ios": "https://dc.lft.to/lastmile_qr_scan"}, "fusion_lon": 0.0, "lat": 38.9125265, "bike_id": "d423f7f98ebf39a801be79783176337a", "type": "electric_scooter", "is_reserved": 0, "lon": -77.02955616666667}, {"fusion_lat": 0.0, "name": "afebc0d60309295fddec8de004ba5899", "is_disabled": 0, "rental_uris": {"android": "https://dc.lft.to/lastmile_qr_scan", "ios": "https://dc.lft.to/lastmile_qr_scan"}, "fusion_lon": 0.0, "lat": 38.89709216666667, "bike_id": "afebc0d60309295fddec8de004ba5899", "type": "electric_scooter", "is_reserved": 0, "lon": -77.013051}, {"fusion_lat": 0.0, "name": "3dc912120d4a8092975d8479d5bd290a", "is_disabled": 0, "rental_uris": {"android": "https://dc.lft.to/lastmile_qr_scan", "ios": "https://dc.lft.to/lastmile_qr_scan"}, "fusion_lon": 0.0, "lat": 38.90417016666667, "bike_id": "3dc912120d4a8092975d8479d5bd290a", "type": "electric_scooter", "is_reserved": 0, "lon": -77.01889}, {"fusion_lat": 0.0, "name": "3b68f6db5602867a46ce8d9f8a10fd23", "is_disabled": 0, "rental_uris": {"android": "https://dc.lft.to/lastmile_qr_scan", "ios": "https://dc.lft.to/lastmile_qr_scan"}, "fusion_lon": 0.0, "lat": 38.891226, "bike_id": "3b68f6db5602867a46ce8d9f8a10fd23", "type": "electric_scooter", "is_reserved": 0, "lon": -76.94379016666667}, {"fusion_lat": 0.0, "name": "22cc5c7fdf136021f216f0396efbe7bb", "is_disabled": 0, "rental_uris": {"android": "https://dc.lft.to/lastmile_qr_scan", "ios": "https://dc.lft.to/lastmile_qr_scan"}, "fusion_lon": 0.0, "lat": 38.97376783333333, "bike_id": "22cc5c7fdf136021f216f0396efbe7bb", "type": "electric_scooter", "is_reserved": 0, "lon": -77.012804}, {"fusion_lat": 0.0, "name": "e8214410760b0faff2426c4e37eb0f87", "is_disabled": 0, "rental_uris": {"android": "https://dc.lft.to/lastmile_qr_scan", "ios": "https://dc.lft.to/lastmile_qr_scan"}, "fusion_lon": 0.0, "lat": 38.92437133333333, "bike_id": "e8214410760b0faff2426c4e37eb0f87", "type": "electric_scooter", "is_reserved": 0, "lon": -77.04471216666667}, {"fusion_lat": 0.0, "name": "bcc8867c26eaf529e3208b0d977bfa33", "is_disabled": 0, "rental_uris": {"android": "https://dc.lft.to/lastmile_qr_scan", "ios": "https://dc.lft.to/lastmile_qr_scan"}, "fusion_lon": 0.0, "lat": 38.9111655, "bike_id": "bcc8867c26eaf529e3208b0d977bfa33", "type": "electric_scooter", "is_reserved": 0, "lon": -77.034668}, {"fusion_lat": 0.0, "name": "0aa37242ee68e5f3f9c25f7ceff68f5a", "is_disabled": 0, "rental_uris": {"android": "https://dc.lft.to/lastmile_qr_scan", "ios": "https://dc.lft.to/lastmile_qr_scan"}, "fusion_lon": 0.0, "lat": 38.919889, "bike_id": "0aa37242ee68e5f3f9c25f7ceff68f5a", "type": "electric_scooter", "is_reserved": 0, "lon": -77.03320816666667}, {"fusion_lat": 0.0, "name": "34eda2a31c618047477b5a0208a02133", "is_disabled": 0, "rental_uris": {"android": "https://dc.lft.to/lastmile_qr_scan", "ios": "https://dc.lft.to/lastmile_qr_scan"}, "fusion_lon": 0.0, "lat": 38.95634, "bike_id": "34eda2a31c618047477b5a0208a02133", "type": "electric_scooter", "is_reserved": 0, "lon": -77.033059}, {"fusion_lat": 0.0, "name": "63f6f138a9f49d7b96fe066b98b296db", "is_disabled": 0, "rental_uris": {"android": "https://dc.lft.to/lastmile_qr_scan", "ios": "https://dc.lft.to/lastmile_qr_scan"}, "fusion_lon": 0.0, "lat": 38.9557445, "bike_id": "63f6f138a9f49d7b96fe066b98b296db", "type": "electric_bike", "is_reserved": 0, "lon": -77.01005316666667}, {"fusion_lat": 0.0, "name": "83ac4bbf1bc679cb1e012681859d6720", "is_disabled": 0, "rental_uris": {"android": "https://dc.lft.to/lastmile_qr_scan", "ios": "https://dc.lft.to/lastmile_qr_scan"}, "fusion_lon": 0.0, "lat": 38.903602166666666, "bike_id": "83ac4bbf1bc679cb1e012681859d6720", "type": "electric_scooter", "is_reserved": 0, "lon": -77.0503645}, {"fusion_lat": 0.0, "name": "cf52f808bed092e1a0bb18fabf52ebcc", "is_disabled": 0, "rental_uris": {"android": "https://dc.lft.to/lastmile_qr_scan", "ios": "https://dc.lft.to/lastmile_qr_scan"}, "fusion_lon": 0.0, "lat": 38.921853, "bike_id": "cf52f808bed092e1a0bb18fabf52ebcc", "type": "electric_scooter", "is_reserved": 0, "lon": -77.0434945}, {"fusion_lat": 0.0, "name": "ae9e98e26532eb0a7cc1081183661d7a", "is_disabled": 0, "rental_uris": {"android": "https://dc.lft.to/lastmile_qr_scan", "ios": "https://dc.lft.to/lastmile_qr_scan"}, "fusion_lon": 0.0, "lat": 38.92602816666667, "bike_id": "ae9e98e26532eb0a7cc1081183661d7a", "type": "electric_scooter", "is_reserved": 0, "lon": -77.02154566666667}, {"fusion_lat": 0.0, "name": "da51dc51df9931d64eb6c6cb87bf3e4f", "is_disabled": 0, "rental_uris": {"android": "https://dc.lft.to/lastmile_qr_scan", "ios": "https://dc.lft.to/lastmile_qr_scan"}, "fusion_lon": 0.0, "lat": 38.930475666666666, "bike_id": "da51dc51df9931d64eb6c6cb87bf3e4f", "type": "electric_scooter", "is_reserved": 0, "lon": -77.03283516666667}, {"fusion_lat": 0.0, "name": "f807619467a2898e3134d1abfae7ecbb", "is_disabled": 0, "rental_uris": {"android": "https://dc.lft.to/lastmile_qr_scan", "ios": "https://dc.lft.to/lastmile_qr_scan"}, "fusion_lon": 0.0, "lat": 38.88828266666667, "bike_id": "f807619467a2898e3134d1abfae7ecbb", "type": "electric_scooter", "is_reserved": 0, "lon": -76.986599}, {"fusion_lat": 0.0, "name": "a05400d71036683ebaa8907f5e4f0c04", "is_disabled": 0, "rental_uris": {"android": "https://dc.lft.to/lastmile_qr_scan", "ios": "https://dc.lft.to/lastmile_qr_scan"}, "fusion_lon": 0.0, "lat": 38.9149895, "bike_id": "a05400d71036683ebaa8907f5e4f0c04", "type": "electric_scooter", "is_reserved": 0, "lon": -76.98368883333333}, {"fusion_lat": 0.0, "name": "9c18eab5ccf164b6920e568db2dfdb24", "is_disabled": 0, "rental_uris": {"android": "https://dc.lft.to/lastmile_qr_scan", "ios": "https://dc.lft.to/lastmile_qr_scan"}, "fusion_lon": 0.0, "lat": 38.907934833333336, "bike_id": "9c18eab5ccf164b6920e568db2dfdb24", "type": "electric_scooter", "is_reserved": 0, "lon": -76.99424733333333}, {"fusion_lat": 0.0, "name": "422aa204180784dbc4955567236b0773", "is_disabled": 0, "rental_uris": {"android": "https://dc.lft.to/lastmile_qr_scan", "ios": "https://dc.lft.to/lastmile_qr_scan"}, "fusion_lon": 0.0, "lat": 38.9149805, "bike_id": "422aa204180784dbc4955567236b0773", "type": "electric_scooter", "is_reserved": 0, "lon": -77.0672725}, {"fusion_lat": 0.0, "name": "48cd7300f922b7fe2578b52c33bf1809", "is_disabled": 0, "rental_uris": {"android": "https://dc.lft.to/lastmile_qr_scan", "ios": "https://dc.lft.to/lastmile_qr_scan"}, "fusion_lon": 0.0, "lat": 38.90564416666667, "bike_id": "48cd7300f922b7fe2578b52c33bf1809", "type": "electric_scooter", "is_reserved": 0, "lon": -76.98198783333333}, {"fusion_lat": 0.0, "name": "f472d7712c741268c7d8ecba7857d285", "is_disabled": 0, "rental_uris": {"android": "https://dc.lft.to/lastmile_qr_scan", "ios": "https://dc.lft.to/lastmile_qr_scan"}, "fusion_lon": 0.0, "lat": 38.91402883333333, "bike_id": "f472d7712c741268c7d8ecba7857d285", "type": "electric_scooter", "is_reserved": 0, "lon": -77.03181}, {"fusion_lat": 0.0, "name": "cfaf425c7524894dbc968db549bba504", "is_disabled": 0, "rental_uris": {"android": "https://dc.lft.to/lastmile_qr_scan", "ios": "https://dc.lft.to/lastmile_qr_scan"}, "fusion_lon": 0.0, "lat": 38.9225445, "bike_id": "cfaf425c7524894dbc968db549bba504", "type": "electric_scooter", "is_reserved": 0, "lon": -77.07449283333334}, {"fusion_lat": 0.0, "name": "c711ce7ea6698ef19c4f4ee24076b19a", "is_disabled": 0, "rental_uris": {"android": "https://dc.lft.to/lastmile_qr_scan", "ios": "https://dc.lft.to/lastmile_qr_scan"}, "fusion_lon": 0.0, "lat": 38.91988516666667, "bike_id": "c711ce7ea6698ef19c4f4ee24076b19a", "type": "electric_scooter", "is_reserved": 0, "lon": -77.02167433333334}, {"fusion_lat": 0.0, "name": "6a3e6c7d089df9909d57dabf43d7a08b", "is_disabled": 0, "rental_uris": {"android": "https://dc.lft.to/lastmile_qr_scan", "ios": "https://dc.lft.to/lastmile_qr_scan"}, "fusion_lon": 0.0, "lat": 38.903041333333334, "bike_id": "6a3e6c7d089df9909d57dabf43d7a08b", "type": "electric_scooter", "is_reserved": 0, "lon": -77.02907466666667}, {"fusion_lat": 0.0, "name": "8e5f42082ec5b38b01b390783ec742ba", "is_disabled": 0, "rental_uris": {"android": "https://dc.lft.to/lastmile_qr_scan", "ios": "https://dc.lft.to/lastmile_qr_scan"}, "fusion_lon": 0.0, "lat": 38.894827, "bike_id": "8e5f42082ec5b38b01b390783ec742ba", "type": "electric_scooter", "is_reserved": 0, "lon": -77.02127816666666}, {"fusion_lat": 0.0, "name": "d910c64a90c45fe47a728f97d8f4927d", "is_disabled": 0, "rental_uris": {"android": "https://dc.lft.to/lastmile_qr_scan", "ios": "https://dc.lft.to/lastmile_qr_scan"}, "fusion_lon": 0.0, "lat": 38.9160695, "bike_id": "d910c64a90c45fe47a728f97d8f4927d", "type": "electric_scooter", "is_reserved": 0, "lon": -77.02313916666667}, {"fusion_lat": 0.0, "name": "86b4d1732be0d9d0290f32363e5b0e2d", "is_disabled": 0, "rental_uris": {"android": "https://dc.lft.to/lastmile_qr_scan", "ios": "https://dc.lft.to/lastmile_qr_scan"}, "fusion_lon": 0.0, "lat": 38.884903666666666, "bike_id": "86b4d1732be0d9d0290f32363e5b0e2d", "type": "electric_scooter", "is_reserved": 0, "lon": -77.010851}, {"fusion_lat": 0.0, "name": "e474f4988eadba18e1fc01dc4109b092", "is_disabled": 0, "rental_uris": {"android": "https://dc.lft.to/lastmile_qr_scan", "ios": "https://dc.lft.to/lastmile_qr_scan"}, "fusion_lon": 0.0, "lat": 38.8874545, "bike_id": "e474f4988eadba18e1fc01dc4109b092", "type": "electric_scooter", "is_reserved": 0, "lon": -77.0152865}, {"fusion_lat": 0.0, "name": "53194f52426d7026bac278f03bda7358", "is_disabled": 0, "rental_uris": {"android": "https://dc.lft.to/lastmile_qr_scan", "ios": "https://dc.lft.to/lastmile_qr_scan"}, "fusion_lon": 0.0, "lat": 38.90886733333333, "bike_id": "53194f52426d7026bac278f03bda7358", "type": "electric_scooter", "is_reserved": 0, "lon": -77.03660233333333}, {"fusion_lat": 0.0, "name": "2516459b7fa195ddbbf2e08a0e8c0f39", "is_disabled": 0, "rental_uris": {"android": "https://dc.lft.to/lastmile_qr_scan", "ios": "https://dc.lft.to/lastmile_qr_scan"}, "fusion_lon": 0.0, "lat": 38.888480666666666, "bike_id": "2516459b7fa195ddbbf2e08a0e8c0f39", "type": "electric_scooter", "is_reserved": 0, "lon": -76.926817}, {"fusion_lat": 0.0, "name": "86eb465cd5208b29c8cc1eeba6a3944a", "is_disabled": 0, "rental_uris": {"android": "https://dc.lft.to/lastmile_qr_scan", "ios": "https://dc.lft.to/lastmile_qr_scan"}, "fusion_lon": 0.0, "lat": 38.938747666666664, "bike_id": "86eb465cd5208b29c8cc1eeba6a3944a", "type": "electric_bike", "is_reserved": 0, "lon": -77.029161}, {"fusion_lat": 0.0, "name": "e30d023651f106622463539fbcf79181", "is_disabled": 0, "rental_uris": {"android": "https://dc.lft.to/lastmile_qr_scan", "ios": "https://dc.lft.to/lastmile_qr_scan"}, "fusion_lon": 0.0, "lat": 38.897336, "bike_id": "e30d023651f106622463539fbcf79181", "type": "electric_scooter", "is_reserved": 0, "lon": -77.00755983333333}, {"fusion_lat": 0.0, "name": "f4d6bd819ede8aeec8ba0f0f0396cd93", "is_disabled": 0, "rental_uris": {"android": "https://dc.lft.to/lastmile_qr_scan", "ios": "https://dc.lft.to/lastmile_qr_scan"}, "fusion_lon": 0.0, "lat": 38.897051166666664, "bike_id": "f4d6bd819ede8aeec8ba0f0f0396cd93", "type": "electric_scooter", "is_reserved": 0, "lon": -77.02456966666666}, {"fusion_lat": 0.0, "name": "6b919dbf37358a974b2d805b7c7ea70e", "is_disabled": 0, "rental_uris": {"android": "https://dc.lft.to/lastmile_qr_scan", "ios": "https://dc.lft.to/lastmile_qr_scan"}, "fusion_lon": 0.0, "lat": 38.92111233333333, "bike_id": "6b919dbf37358a974b2d805b7c7ea70e", "type": "electric_scooter", "is_reserved": 0, "lon": -77.017983}, {"fusion_lat": 0.0, "name": "db62148c92fea641e1d71ca5cd169ba1", "is_disabled": 0, "rental_uris": {"android": "https://dc.lft.to/lastmile_qr_scan", "ios": "https://dc.lft.to/lastmile_qr_scan"}, "fusion_lon": 0.0, "lat": 38.93635183333333, "bike_id": "db62148c92fea641e1d71ca5cd169ba1", "type": "electric_scooter", "is_reserved": 0, "lon": -77.03661033333333}, {"fusion_lat": 0.0, "name": "3e82722df2aea2473e826b7d347a7258", "is_disabled": 0, "rental_uris": {"android": "https://dc.lft.to/lastmile_qr_scan", "ios": "https://dc.lft.to/lastmile_qr_scan"}, "fusion_lon": 0.0, "lat": 38.91034466666667, "bike_id": "3e82722df2aea2473e826b7d347a7258", "type": "electric_scooter", "is_reserved": 0, "lon": -77.02907583333334}, {"fusion_lat": 0.0, "name": "c85300e919c355e590654dafc2627187", "is_disabled": 0, "rental_uris": {"android": "https://dc.lft.to/lastmile_qr_scan", "ios": "https://dc.lft.to/lastmile_qr_scan"}, "fusion_lon": 0.0, "lat": 38.9248295, "bike_id": "c85300e919c355e590654dafc2627187", "type": "electric_scooter", "is_reserved": 0, "lon": -77.020746}, {"fusion_lat": 0.0, "name": "41b80ceefca6c4f7419ee81817ae77f9", "is_disabled": 0, "rental_uris": {"android": "https://dc.lft.to/lastmile_qr_scan", "ios": "https://dc.lft.to/lastmile_qr_scan"}, "fusion_lon": 0.0, "lat": 38.9072345, "bike_id": "41b80ceefca6c4f7419ee81817ae77f9", "type": "electric_scooter", "is_reserved": 0, "lon": -77.04761033333334}, {"fusion_lat": 0.0, "name": "ba0a779043f1449d92e7c2fec6c9b2f7", "is_disabled": 0, "rental_uris": {"android": "https://dc.lft.to/lastmile_qr_scan", "ios": "https://dc.lft.to/lastmile_qr_scan"}, "fusion_lon": 0.0, "lat": 38.92579283333333, "bike_id": "ba0a779043f1449d92e7c2fec6c9b2f7", "type": "electric_scooter", "is_reserved": 0, "lon": -77.02556766666666}, {"fusion_lat": 0.0, "name": "80db0c88b5fc625e4b262ef76704cdf0", "is_disabled": 0, "rental_uris": {"android": "https://dc.lft.to/lastmile_qr_scan", "ios": "https://dc.lft.to/lastmile_qr_scan"}, "fusion_lon": 0.0, "lat": 38.9010405, "bike_id": "80db0c88b5fc625e4b262ef76704cdf0", "type": "electric_scooter", "is_reserved": 0, "lon": -76.93045666666667}, {"fusion_lat": 0.0, "name": "6d9f247bf85ee9f3a7d0a7cf0cc1f76d", "is_disabled": 0, "rental_uris": {"android": "https://dc.lft.to/lastmile_qr_scan", "ios": "https://dc.lft.to/lastmile_qr_scan"}, "fusion_lon": 0.0, "lat": 38.909099833333336, "bike_id": "6d9f247bf85ee9f3a7d0a7cf0cc1f76d", "type": "electric_scooter", "is_reserved": 0, "lon": -76.99929333333333}, {"fusion_lat": 0.0, "name": "f89ee420369fa38b33cc5559fcfd149a", "is_disabled": 0, "rental_uris": {"android": "https://dc.lft.to/lastmile_qr_scan", "ios": "https://dc.lft.to/lastmile_qr_scan"}, "fusion_lon": 0.0, "lat": 38.916754, "bike_id": "f89ee420369fa38b33cc5559fcfd149a", "type": "electric_scooter", "is_reserved": 0, "lon": -77.03211333333333}, {"fusion_lat": 0.0, "name": "e38ba09353c35b05fddb09771dc29263", "is_disabled": 0, "rental_uris": {"android": "https://dc.lft.to/lastmile_qr_scan", "ios": "https://dc.lft.to/lastmile_qr_scan"}, "fusion_lon": 0.0, "lat": 38.9055135, "bike_id": "e38ba09353c35b05fddb09771dc29263", "type": "electric_scooter", "is_reserved": 0, "lon": -77.00485966666666}, {"fusion_lat": 0.0, "name": "ad4f39525d45fbf4da5c955a4c659017", "is_disabled": 0, "rental_uris": {"android": "https://dc.lft.to/lastmile_qr_scan", "ios": "https://dc.lft.to/lastmile_qr_scan"}, "fusion_lon": 0.0, "lat": 38.899954, "bike_id": "ad4f39525d45fbf4da5c955a4c659017", "type": "electric_scooter", "is_reserved": 0, "lon": -76.99699033333333}, {"fusion_lat": 0.0, "name": "96f90684f82bd41f28c70b9afc85292f", "is_disabled": 0, "rental_uris": {"android": "https://dc.lft.to/lastmile_qr_scan", "ios": "https://dc.lft.to/lastmile_qr_scan"}, "fusion_lon": 0.0, "lat": 38.89446616666667, "bike_id": "96f90684f82bd41f28c70b9afc85292f", "type": "electric_scooter", "is_reserved": 0, "lon": -77.04547533333333}, {"fusion_lat": 0.0, "name": "3202a444dc6b6dd9bc4c311a0b63917a", "is_disabled": 0, "rental_uris": {"android": "https://dc.lft.to/lastmile_qr_scan", "ios": "https://dc.lft.to/lastmile_qr_scan"}, "fusion_lon": 0.0, "lat": 38.903143, "bike_id": "3202a444dc6b6dd9bc4c311a0b63917a", "type": "electric_scooter", "is_reserved": 0, "lon": -76.97801666666666}, {"fusion_lat": 0.0, "name": "f512984c53651938aaea5116cb5baa3d", "is_disabled": 0, "rental_uris": {"android": "https://dc.lft.to/lastmile_qr_scan", "ios": "https://dc.lft.to/lastmile_qr_scan"}, "fusion_lon": 0.0, "lat": 38.93929416666667, "bike_id": "f512984c53651938aaea5116cb5baa3d", "type": "electric_scooter", "is_reserved": 0, "lon": -77.074773}, {"fusion_lat": 0.0, "name": "03cc404cbcbab39b6bd31eff94bda736", "is_disabled": 0, "rental_uris": {"android": "https://dc.lft.to/lastmile_qr_scan", "ios": "https://dc.lft.to/lastmile_qr_scan"}, "fusion_lon": 0.0, "lat": 38.8818735, "bike_id": "03cc404cbcbab39b6bd31eff94bda736", "type": "electric_scooter", "is_reserved": 0, "lon": -77.00356133333334}, {"fusion_lat": 0.0, "name": "a8a1f455309edf8281fe8c24ced58a32", "is_disabled": 0, "rental_uris": {"android": "https://dc.lft.to/lastmile_qr_scan", "ios": "https://dc.lft.to/lastmile_qr_scan"}, "fusion_lon": 0.0, "lat": 38.8923525, "bike_id": "a8a1f455309edf8281fe8c24ced58a32", "type": "electric_scooter", "is_reserved": 0, "lon": -77.03178266666667}, {"fusion_lat": 0.0, "name": "2d3eec46a37e29b366acd844953d3122", "is_disabled": 0, "rental_uris": {"android": "https://dc.lft.to/lastmile_qr_scan", "ios": "https://dc.lft.to/lastmile_qr_scan"}, "fusion_lon": 0.0, "lat": 38.905296, "bike_id": "2d3eec46a37e29b366acd844953d3122", "type": "electric_scooter", "is_reserved": 0, "lon": -77.05680016666666}, {"fusion_lat": 0.0, "name": "bb6bf9207cee77aa1b80cf015e3cdc0b", "is_disabled": 0, "rental_uris": {"android": "https://dc.lft.to/lastmile_qr_scan", "ios": "https://dc.lft.to/lastmile_qr_scan"}, "fusion_lon": 0.0, "lat": 38.902467333333334, "bike_id": "bb6bf9207cee77aa1b80cf015e3cdc0b", "type": "electric_scooter", "is_reserved": 0, "lon": -77.01655666666667}, {"fusion_lat": 0.0, "name": "c3d7ec4227849fd36a0c57fb4ba4fac1", "is_disabled": 0, "rental_uris": {"android": "https://dc.lft.to/lastmile_qr_scan", "ios": "https://dc.lft.to/lastmile_qr_scan"}, "fusion_lon": 0.0, "lat": 38.80295733333333, "bike_id": "c3d7ec4227849fd36a0c57fb4ba4fac1", "type": "electric_bike", "is_reserved": 0, "lon": -77.05935183333334}, {"fusion_lat": 0.0, "name": "7dd909d4211a7f5e15e16c0fce8d6d20", "is_disabled": 0, "rental_uris": {"android": "https://dc.lft.to/lastmile_qr_scan", "ios": "https://dc.lft.to/lastmile_qr_scan"}, "fusion_lon": 0.0, "lat": 38.92719783333333, "bike_id": "7dd909d4211a7f5e15e16c0fce8d6d20", "type": "electric_scooter", "is_reserved": 0, "lon": -77.041943}, {"fusion_lat": 0.0, "name": "afcdab001a24bcaa8f01324e57b898a1", "is_disabled": 0, "rental_uris": {"android": "https://dc.lft.to/lastmile_qr_scan", "ios": "https://dc.lft.to/lastmile_qr_scan"}, "fusion_lon": 0.0, "lat": 38.939072, "bike_id": "afcdab001a24bcaa8f01324e57b898a1", "type": "electric_scooter", "is_reserved": 0, "lon": -77.03255366666667}, {"fusion_lat": 0.0, "name": "2475824cc00ff9c36a6595daf5cc8d82", "is_disabled": 0, "rental_uris": {"android": "https://dc.lft.to/lastmile_qr_scan", "ios": "https://dc.lft.to/lastmile_qr_scan"}, "fusion_lon": 0.0, "lat": 38.923880833333335, "bike_id": "2475824cc00ff9c36a6595daf5cc8d82", "type": "electric_scooter", "is_reserved": 0, "lon": -77.04314033333333}, {"fusion_lat": 0.0, "name": "0955f85a422924c11a1b3dc39b627b9b", "is_disabled": 0, "rental_uris": {"android": "https://dc.lft.to/lastmile_qr_scan", "ios": "https://dc.lft.to/lastmile_qr_scan"}, "fusion_lon": 0.0, "lat": 38.8968415, "bike_id": "0955f85a422924c11a1b3dc39b627b9b", "type": "electric_scooter", "is_reserved": 0, "lon": -76.93715716666667}, {"fusion_lat": 0.0, "name": "8792cd537f6b54123c4323ddee626f92", "is_disabled": 0, "rental_uris": {"android": "https://dc.lft.to/lastmile_qr_scan", "ios": "https://dc.lft.to/lastmile_qr_scan"}, "fusion_lon": 0.0, "lat": 38.88768233333333, "bike_id": "8792cd537f6b54123c4323ddee626f92", "type": "electric_scooter", "is_reserved": 0, "lon": -76.97745483333334}, {"fusion_lat": 0.0, "name": "f038066fb3f2922d89fd0ad24dc80cfb", "is_disabled": 0, "rental_uris": {"android": "https://dc.lft.to/lastmile_qr_scan", "ios": "https://dc.lft.to/lastmile_qr_scan"}, "fusion_lon": 0.0, "lat": 38.906854, "bike_id": "f038066fb3f2922d89fd0ad24dc80cfb", "type": "electric_bike", "is_reserved": 0, "lon": -76.94491683333334}, {"fusion_lat": 0.0, "name": "339dcb751c00574df2fe406389660b27", "is_disabled": 0, "rental_uris": {"android": "https://dc.lft.to/lastmile_qr_scan", "ios": "https://dc.lft.to/lastmile_qr_scan"}, "fusion_lon": 0.0, "lat": 38.928689, "bike_id": "339dcb751c00574df2fe406389660b27", "type": "electric_scooter", "is_reserved": 0, "lon": -77.03044116666666}, {"fusion_lat": 0.0, "name": "1f49705811a2288bb882bfa921348f9b", "is_disabled": 0, "rental_uris": {"android": "https://dc.lft.to/lastmile_qr_scan", "ios": "https://dc.lft.to/lastmile_qr_scan"}, "fusion_lon": 0.0, "lat": 38.928078666666664, "bike_id": "1f49705811a2288bb882bfa921348f9b", "type": "electric_scooter", "is_reserved": 0, "lon": -77.04368883333333}, {"fusion_lat": 0.0, "name": "4e1243c1dfb1682d53ef872cd36b4ee7", "is_disabled": 0, "rental_uris": {"android": "https://dc.lft.to/lastmile_qr_scan", "ios": "https://dc.lft.to/lastmile_qr_scan"}, "fusion_lon": 0.0, "lat": 38.90149983333333, "bike_id": "4e1243c1dfb1682d53ef872cd36b4ee7", "type": "electric_scooter", "is_reserved": 0, "lon": -76.93067133333334}, {"fusion_lat": 0.0, "name": "1d7a32dcd4ea37f5cc7282b7625908d9", "is_disabled": 0, "rental_uris": {"android": "https://dc.lft.to/lastmile_qr_scan", "ios": "https://dc.lft.to/lastmile_qr_scan"}, "fusion_lon": 0.0, "lat": 38.917038833333336, "bike_id": "1d7a32dcd4ea37f5cc7282b7625908d9", "type": "electric_scooter", "is_reserved": 0, "lon": -77.02478433333333}, {"fusion_lat": 0.0, "name": "daecabbe4c0663ddbe935d25aeee97be", "is_disabled": 0, "rental_uris": {"android": "https://dc.lft.to/lastmile_qr_scan", "ios": "https://dc.lft.to/lastmile_qr_scan"}, "fusion_lon": 0.0, "lat": 38.8875535, "bike_id": "daecabbe4c0663ddbe935d25aeee97be", "type": "electric_scooter", "is_reserved": 0, "lon": -77.03151683333333}, {"fusion_lat": 0.0, "name": "00133362d24d5777e0ee376f321b737b", "is_disabled": 0, "rental_uris": {"android": "https://dc.lft.to/lastmile_qr_scan", "ios": "https://dc.lft.to/lastmile_qr_scan"}, "fusion_lon": 0.0, "lat": 38.869199, "bike_id": "00133362d24d5777e0ee376f321b737b", "type": "electric_bike", "is_reserved": 0, "lon": -76.97501516666667}, {"fusion_lat": 0.0, "name": "1a3fcba6c45b99cdd090db3ebff54997", "is_disabled": 0, "rental_uris": {"android": "https://dc.lft.to/lastmile_qr_scan", "ios": "https://dc.lft.to/lastmile_qr_scan"}, "fusion_lon": 0.0, "lat": 38.9093755, "bike_id": "1a3fcba6c45b99cdd090db3ebff54997", "type": "electric_scooter", "is_reserved": 0, "lon": -77.0184325}, {"fusion_lat": 0.0, "name": "b9129a2d05ab3f35b4987ed19000d1ae", "is_disabled": 0, "rental_uris": {"android": "https://dc.lft.to/lastmile_qr_scan", "ios": "https://dc.lft.to/lastmile_qr_scan"}, "fusion_lon": 0.0, "lat": 38.9181815, "bike_id": "b9129a2d05ab3f35b4987ed19000d1ae", "type": "electric_scooter", "is_reserved": 0, "lon": -77.02528383333333}, {"fusion_lat": 0.0, "name": "d07ffebf912d66b77cd30acd18c89ad5", "is_disabled": 0, "rental_uris": {"android": "https://dc.lft.to/lastmile_qr_scan", "ios": "https://dc.lft.to/lastmile_qr_scan"}, "fusion_lon": 0.0, "lat": 38.861397333333336, "bike_id": "d07ffebf912d66b77cd30acd18c89ad5", "type": "electric_bike", "is_reserved": 0, "lon": -76.97166316666667}, {"fusion_lat": 0.0, "name": "c684ea6f8f259bdded27e4398281264e", "is_disabled": 0, "rental_uris": {"android": "https://dc.lft.to/lastmile_qr_scan", "ios": "https://dc.lft.to/lastmile_qr_scan"}, "fusion_lon": 0.0, "lat": 38.9449685, "bike_id": "c684ea6f8f259bdded27e4398281264e", "type": "electric_bike", "is_reserved": 0, "lon": -77.0054235}, {"fusion_lat": 0.0, "name": "5ebdddfa5ef56ccb3613a028b69ca57c", "is_disabled": 0, "rental_uris": {"android": "https://dc.lft.to/lastmile_qr_scan", "ios": "https://dc.lft.to/lastmile_qr_scan"}, "fusion_lon": 0.0, "lat": 38.87644433333333, "bike_id": "5ebdddfa5ef56ccb3613a028b69ca57c", "type": "electric_scooter", "is_reserved": 0, "lon": -77.008331}, {"fusion_lat": 0.0, "name": "408fad2997c4407d7b2c0ccce73cfeb4", "is_disabled": 0, "rental_uris": {"android": "https://dc.lft.to/lastmile_qr_scan", "ios": "https://dc.lft.to/lastmile_qr_scan"}, "fusion_lon": 0.0, "lat": 38.934055666666666, "bike_id": "408fad2997c4407d7b2c0ccce73cfeb4", "type": "electric_scooter", "is_reserved": 0, "lon": -77.03271383333333}, {"fusion_lat": 0.0, "name": "e83cc0e36066495054fa1c0b6ebb6da7", "is_disabled": 0, "rental_uris": {"android": "https://dc.lft.to/lastmile_qr_scan", "ios": "https://dc.lft.to/lastmile_qr_scan"}, "fusion_lon": 0.0, "lat": 38.927174666666666, "bike_id": "e83cc0e36066495054fa1c0b6ebb6da7", "type": "electric_scooter", "is_reserved": 0, "lon": -77.02085066666666}, {"fusion_lat": 0.0, "name": "3452ef0a3b620f7bdeaf6a69bdbeeef8", "is_disabled": 0, "rental_uris": {"android": "https://dc.lft.to/lastmile_qr_scan", "ios": "https://dc.lft.to/lastmile_qr_scan"}, "fusion_lon": 0.0, "lat": 38.928760833333335, "bike_id": "3452ef0a3b620f7bdeaf6a69bdbeeef8", "type": "electric_scooter", "is_reserved": 0, "lon": -77.03278666666667}, {"fusion_lat": 0.0, "name": "21c8dc11ee71f395ee19bd1a6553ebff", "is_disabled": 0, "rental_uris": {"android": "https://dc.lft.to/lastmile_qr_scan", "ios": "https://dc.lft.to/lastmile_qr_scan"}, "fusion_lon": 0.0, "lat": 38.93124733333333, "bike_id": "21c8dc11ee71f395ee19bd1a6553ebff", "type": "electric_scooter", "is_reserved": 0, "lon": -77.0352105}, {"fusion_lat": 0.0, "name": "9547beda1187933440d4fe872cd60ed5", "is_disabled": 0, "rental_uris": {"android": "https://dc.lft.to/lastmile_qr_scan", "ios": "https://dc.lft.to/lastmile_qr_scan"}, "fusion_lon": 0.0, "lat": 38.893085666666664, "bike_id": "9547beda1187933440d4fe872cd60ed5", "type": "electric_scooter", "is_reserved": 0, "lon": -77.0558855}, {"fusion_lat": 0.0, "name": "f659f4655d8fe3f322c8cf712d39f60b", "is_disabled": 0, "rental_uris": {"android": "https://dc.lft.to/lastmile_qr_scan", "ios": "https://dc.lft.to/lastmile_qr_scan"}, "fusion_lon": 0.0, "lat": 38.94982733333333, "bike_id": "f659f4655d8fe3f322c8cf712d39f60b", "type": "electric_scooter", "is_reserved": 0, "lon": -77.02697366666666}, {"fusion_lat": 0.0, "name": "9d79eadd9c6967596b786d10e1fb9c56", "is_disabled": 0, "rental_uris": {"android": "https://dc.lft.to/lastmile_qr_scan", "ios": "https://dc.lft.to/lastmile_qr_scan"}, "fusion_lon": 0.0, "lat": 38.918611166666665, "bike_id": "9d79eadd9c6967596b786d10e1fb9c56", "type": "electric_scooter", "is_reserved": 0, "lon": -77.04582316666666}, {"fusion_lat": 0.0, "name": "619901a8e20eb465d32983b90f58a448", "is_disabled": 0, "rental_uris": {"android": "https://dc.lft.to/lastmile_qr_scan", "ios": "https://dc.lft.to/lastmile_qr_scan"}, "fusion_lon": 0.0, "lat": 38.911724166666666, "bike_id": "619901a8e20eb465d32983b90f58a448", "type": "electric_scooter", "is_reserved": 0, "lon": -77.06866616666667}, {"fusion_lat": 0.0, "name": "54f73661ab38a7a779930909de2a4811", "is_disabled": 0, "rental_uris": {"android": "https://dc.lft.to/lastmile_qr_scan", "ios": "https://dc.lft.to/lastmile_qr_scan"}, "fusion_lon": 0.0, "lat": 39.0525515, "bike_id": "54f73661ab38a7a779930909de2a4811", "type": "electric_bike", "is_reserved": 0, "lon": -77.08067966666667}, {"fusion_lat": 0.0, "name": "33dde46bba1e427dd2c45cf1346d8b2a", "is_disabled": 0, "rental_uris": {"android": "https://dc.lft.to/lastmile_qr_scan", "ios": "https://dc.lft.to/lastmile_qr_scan"}, "fusion_lon": 0.0, "lat": 38.9352135, "bike_id": "33dde46bba1e427dd2c45cf1346d8b2a", "type": "electric_scooter", "is_reserved": 0, "lon": -77.0725975}, {"fusion_lat": 0.0, "name": "a9d7aea1fbeac0de4bb956cf2c71e9ea", "is_disabled": 0, "rental_uris": {"android": "https://dc.lft.to/lastmile_qr_scan", "ios": "https://dc.lft.to/lastmile_qr_scan"}, "fusion_lon": 0.0, "lat": 38.9141505, "bike_id": "a9d7aea1fbeac0de4bb956cf2c71e9ea", "type": "electric_scooter", "is_reserved": 0, "lon": -77.02828866666667}, {"fusion_lat": 0.0, "name": "91106997ba039d7aa14d0e805f0bb9a1", "is_disabled": 0, "rental_uris": {"android": "https://dc.lft.to/lastmile_qr_scan", "ios": "https://dc.lft.to/lastmile_qr_scan"}, "fusion_lon": 0.0, "lat": 38.84755716666667, "bike_id": "91106997ba039d7aa14d0e805f0bb9a1", "type": "electric_scooter", "is_reserved": 0, "lon": -76.994998}, {"fusion_lat": 0.0, "name": "e56a9a26baa32d9ef512c36509ff9bbd", "is_disabled": 0, "rental_uris": {"android": "https://dc.lft.to/lastmile_qr_scan", "ios": "https://dc.lft.to/lastmile_qr_scan"}, "fusion_lon": 0.0, "lat": 38.89443516666667, "bike_id": "e56a9a26baa32d9ef512c36509ff9bbd", "type": "electric_scooter", "is_reserved": 0, "lon": -76.9367715}, {"fusion_lat": 0.0, "name": "2d0e1457e0b2cfe04741432f0f2ef4cd", "is_disabled": 0, "rental_uris": {"android": "https://dc.lft.to/lastmile_qr_scan", "ios": "https://dc.lft.to/lastmile_qr_scan"}, "fusion_lon": 0.0, "lat": 38.907367, "bike_id": "2d0e1457e0b2cfe04741432f0f2ef4cd", "type": "electric_scooter", "is_reserved": 0, "lon": -77.04551266666667}, {"fusion_lat": 0.0, "name": "2f3db76b6e0170f5d7811d6c8454a92c", "is_disabled": 0, "rental_uris": {"android": "https://dc.lft.to/lastmile_qr_scan", "ios": "https://dc.lft.to/lastmile_qr_scan"}, "fusion_lon": 0.0, "lat": 38.8985055, "bike_id": "2f3db76b6e0170f5d7811d6c8454a92c", "type": "electric_scooter", "is_reserved": 0, "lon": -76.9903435}, {"fusion_lat": 0.0, "name": "f6a11fe352a92651d75a99d7424b1c6c", "is_disabled": 0, "rental_uris": {"android": "https://dc.lft.to/lastmile_qr_scan", "ios": "https://dc.lft.to/lastmile_qr_scan"}, "fusion_lon": 0.0, "lat": 38.90766416666666, "bike_id": "f6a11fe352a92651d75a99d7424b1c6c", "type": "electric_scooter", "is_reserved": 0, "lon": -77.05012833333333}, {"fusion_lat": 0.0, "name": "f20ab9909ca81195b295f85e0807d7bc", "is_disabled": 0, "rental_uris": {"android": "https://dc.lft.to/lastmile_qr_scan", "ios": "https://dc.lft.to/lastmile_qr_scan"}, "fusion_lon": 0.0, "lat": 38.898753166666665, "bike_id": "f20ab9909ca81195b295f85e0807d7bc", "type": "electric_scooter", "is_reserved": 0, "lon": -76.93187683333333}, {"fusion_lat": 0.0, "name": "46871daf10373cd3d1d3280a8cdd3236", "is_disabled": 0, "rental_uris": {"android": "https://dc.lft.to/lastmile_qr_scan", "ios": "https://dc.lft.to/lastmile_qr_scan"}, "fusion_lon": 0.0, "lat": 38.89983616666667, "bike_id": "46871daf10373cd3d1d3280a8cdd3236", "type": "electric_scooter", "is_reserved": 0, "lon": -77.05471733333333}, {"fusion_lat": 0.0, "name": "fc492eac0e3751c86338e43b56804209", "is_disabled": 0, "rental_uris": {"android": "https://dc.lft.to/lastmile_qr_scan", "ios": "https://dc.lft.to/lastmile_qr_scan"}, "fusion_lon": 0.0, "lat": 38.94309466666667, "bike_id": "fc492eac0e3751c86338e43b56804209", "type": "electric_scooter", "is_reserved": 0, "lon": -77.02007033333334}, {"fusion_lat": 0.0, "name": "e3adef50a644bee94ee79fa73ee2267f", "is_disabled": 0, "rental_uris": {"android": "https://dc.lft.to/lastmile_qr_scan", "ios": "https://dc.lft.to/lastmile_qr_scan"}, "fusion_lon": 0.0, "lat": 38.903032333333336, "bike_id": "e3adef50a644bee94ee79fa73ee2267f", "type": "electric_scooter", "is_reserved": 0, "lon": -76.9925515}, {"fusion_lat": 0.0, "name": "1e275709132ff7716dacb78772257ead", "is_disabled": 0, "rental_uris": {"android": "https://dc.lft.to/lastmile_qr_scan", "ios": "https://dc.lft.to/lastmile_qr_scan"}, "fusion_lon": 0.0, "lat": 38.91344516666667, "bike_id": "1e275709132ff7716dacb78772257ead", "type": "electric_bike", "is_reserved": 0, "lon": -76.9889425}, {"fusion_lat": 0.0, "name": "7d3f66a361199567ad2167f8fca78f59", "is_disabled": 0, "rental_uris": {"android": "https://dc.lft.to/lastmile_qr_scan", "ios": "https://dc.lft.to/lastmile_qr_scan"}, "fusion_lon": 0.0, "lat": 38.9241885, "bike_id": "7d3f66a361199567ad2167f8fca78f59", "type": "electric_scooter", "is_reserved": 0, "lon": -77.020086}, {"fusion_lat": 0.0, "name": "83fc4388e2db36513aa64eef635ad208", "is_disabled": 0, "rental_uris": {"android": "https://dc.lft.to/lastmile_qr_scan", "ios": "https://dc.lft.to/lastmile_qr_scan"}, "fusion_lon": 0.0, "lat": 38.888108333333335, "bike_id": "83fc4388e2db36513aa64eef635ad208", "type": "electric_scooter", "is_reserved": 0, "lon": -76.983529}, {"fusion_lat": 0.0, "name": "be8a1850d7f9735bfb2ca9992a4e11e1", "is_disabled": 0, "rental_uris": {"android": "https://dc.lft.to/lastmile_qr_scan", "ios": "https://dc.lft.to/lastmile_qr_scan"}, "fusion_lon": 0.0, "lat": 38.926809, "bike_id": "be8a1850d7f9735bfb2ca9992a4e11e1", "type": "electric_scooter", "is_reserved": 0, "lon": -77.03138183333333}, {"fusion_lat": 0.0, "name": "f7e672eb210173cfda8fdfa0b4ee309e", "is_disabled": 0, "rental_uris": {"android": "https://dc.lft.to/lastmile_qr_scan", "ios": "https://dc.lft.to/lastmile_qr_scan"}, "fusion_lon": 0.0, "lat": 38.88745316666667, "bike_id": "f7e672eb210173cfda8fdfa0b4ee309e", "type": "electric_scooter", "is_reserved": 0, "lon": -76.98359283333333}, {"fusion_lat": 0.0, "name": "9dce81243c1cffa8d9eb2612e65f8f6e", "is_disabled": 0, "rental_uris": {"android": "https://dc.lft.to/lastmile_qr_scan", "ios": "https://dc.lft.to/lastmile_qr_scan"}, "fusion_lon": 0.0, "lat": 38.92330183333333, "bike_id": "9dce81243c1cffa8d9eb2612e65f8f6e", "type": "electric_scooter", "is_reserved": 0, "lon": -77.04194966666667}, {"fusion_lat": 0.0, "name": "6e33ef3685778dc13632243e3e00f20f", "is_disabled": 0, "rental_uris": {"android": "https://dc.lft.to/lastmile_qr_scan", "ios": "https://dc.lft.to/lastmile_qr_scan"}, "fusion_lon": 0.0, "lat": 38.89244983333333, "bike_id": "6e33ef3685778dc13632243e3e00f20f", "type": "electric_scooter", "is_reserved": 0, "lon": -77.039548}, {"fusion_lat": 0.0, "name": "c6f62f2c8feb9a06420d665e42f443a0", "is_disabled": 0, "rental_uris": {"android": "https://dc.lft.to/lastmile_qr_scan", "ios": "https://dc.lft.to/lastmile_qr_scan"}, "fusion_lon": 0.0, "lat": 38.928836, "bike_id": "c6f62f2c8feb9a06420d665e42f443a0", "type": "electric_scooter", "is_reserved": 0, "lon": -77.03352416666667}, {"fusion_lat": 0.0, "name": "a269494222aee4bc0b44e05c726f9ce3", "is_disabled": 0, "rental_uris": {"android": "https://dc.lft.to/lastmile_qr_scan", "ios": "https://dc.lft.to/lastmile_qr_scan"}, "fusion_lon": 0.0, "lat": 38.874642, "bike_id": "a269494222aee4bc0b44e05c726f9ce3", "type": "electric_scooter", "is_reserved": 0, "lon": -77.0170295}, {"fusion_lat": 0.0, "name": "4b91313e5e5b7902d95dd4f5f4c92c08", "is_disabled": 0, "rental_uris": {"android": "https://dc.lft.to/lastmile_qr_scan", "ios": "https://dc.lft.to/lastmile_qr_scan"}, "fusion_lon": 0.0, "lat": 38.92224183333333, "bike_id": "4b91313e5e5b7902d95dd4f5f4c92c08", "type": "electric_scooter", "is_reserved": 0, "lon": -77.0433265}, {"fusion_lat": 0.0, "name": "7c5d6160acdabdf2ede645f615817594", "is_disabled": 0, "rental_uris": {"android": "https://dc.lft.to/lastmile_qr_scan", "ios": "https://dc.lft.to/lastmile_qr_scan"}, "fusion_lon": 0.0, "lat": 38.9002655, "bike_id": "7c5d6160acdabdf2ede645f615817594", "type": "electric_scooter", "is_reserved": 0, "lon": -77.00183683333333}, {"fusion_lat": 0.0, "name": "a3af206afe75b15a5fdec8d87c276553", "is_disabled": 0, "rental_uris": {"android": "https://dc.lft.to/lastmile_qr_scan", "ios": "https://dc.lft.to/lastmile_qr_scan"}, "fusion_lon": 0.0, "lat": 38.86513516666667, "bike_id": "a3af206afe75b15a5fdec8d87c276553", "type": "electric_bike", "is_reserved": 0, "lon": -77.1293925}, {"fusion_lat": 0.0, "name": "94c68e0f49bacc08b010a189bd837e66", "is_disabled": 0, "rental_uris": {"android": "https://dc.lft.to/lastmile_qr_scan", "ios": "https://dc.lft.to/lastmile_qr_scan"}, "fusion_lon": 0.0, "lat": 38.927399666666666, "bike_id": "94c68e0f49bacc08b010a189bd837e66", "type": "electric_scooter", "is_reserved": 0, "lon": -77.02710266666666}, {"fusion_lat": 0.0, "name": "c476cf6d1711de0dc9ba4e12050a49db", "is_disabled": 0, "rental_uris": {"android": "https://dc.lft.to/lastmile_qr_scan", "ios": "https://dc.lft.to/lastmile_qr_scan"}, "fusion_lon": 0.0, "lat": 38.8845205, "bike_id": "c476cf6d1711de0dc9ba4e12050a49db", "type": "electric_scooter", "is_reserved": 0, "lon": -77.03354216666666}, {"fusion_lat": 0.0, "name": "e20fd7d5d3dd20a6d9be505445afb6b3", "is_disabled": 0, "rental_uris": {"android": "https://dc.lft.to/lastmile_qr_scan", "ios": "https://dc.lft.to/lastmile_qr_scan"}, "fusion_lon": 0.0, "lat": 38.95281666666666, "bike_id": "e20fd7d5d3dd20a6d9be505445afb6b3", "type": "electric_scooter", "is_reserved": 0, "lon": -77.06880583333333}, {"fusion_lat": 0.0, "name": "0e2326a8da8c8b07590883c1064a9c36", "is_disabled": 0, "rental_uris": {"android": "https://dc.lft.to/lastmile_qr_scan", "ios": "https://dc.lft.to/lastmile_qr_scan"}, "fusion_lon": 0.0, "lat": 38.90431683333333, "bike_id": "0e2326a8da8c8b07590883c1064a9c36", "type": "electric_scooter", "is_reserved": 0, "lon": -76.9828125}, {"fusion_lat": 0.0, "name": "1c8f2a7c5a2489e3704d89b6791bed1c", "is_disabled": 0, "rental_uris": {"android": "https://dc.lft.to/lastmile_qr_scan", "ios": "https://dc.lft.to/lastmile_qr_scan"}, "fusion_lon": 0.0, "lat": 38.91912416666667, "bike_id": "1c8f2a7c5a2489e3704d89b6791bed1c", "type": "electric_scooter", "is_reserved": 0, "lon": -77.03121716666666}, {"fusion_lat": 0.0, "name": "d80ac2e4a8bf69189e7e5b140d4187c6", "is_disabled": 0, "rental_uris": {"android": "https://dc.lft.to/lastmile_qr_scan", "ios": "https://dc.lft.to/lastmile_qr_scan"}, "fusion_lon": 0.0, "lat": 38.90944833333333, "bike_id": "d80ac2e4a8bf69189e7e5b140d4187c6", "type": "electric_scooter", "is_reserved": 0, "lon": -77.04669683333333}, {"fusion_lat": 0.0, "name": "f9c776d5d093ef621f5f061d81aeb546", "is_disabled": 0, "rental_uris": {"android": "https://dc.lft.to/lastmile_qr_scan", "ios": "https://dc.lft.to/lastmile_qr_scan"}, "fusion_lon": 0.0, "lat": 38.913868, "bike_id": "f9c776d5d093ef621f5f061d81aeb546", "type": "electric_scooter", "is_reserved": 0, "lon": -77.03211316666666}, {"fusion_lat": 0.0, "name": "b01bce0be16b8dfcd167efcb8032f320", "is_disabled": 0, "rental_uris": {"android": "https://dc.lft.to/lastmile_qr_scan", "ios": "https://dc.lft.to/lastmile_qr_scan"}, "fusion_lon": 0.0, "lat": 38.91610216666667, "bike_id": "b01bce0be16b8dfcd167efcb8032f320", "type": "electric_scooter", "is_reserved": 0, "lon": -77.02305183333333}, {"fusion_lat": 0.0, "name": "af06444ebff93e69797934d7c446eb45", "is_disabled": 0, "rental_uris": {"android": "https://dc.lft.to/lastmile_qr_scan", "ios": "https://dc.lft.to/lastmile_qr_scan"}, "fusion_lon": 0.0, "lat": 38.8193895, "bike_id": "af06444ebff93e69797934d7c446eb45", "type": "electric_bike", "is_reserved": 0, "lon": -77.00201066666666}, {"fusion_lat": 0.0, "name": "341847cec97b7853a5d9f314352cb546", "is_disabled": 0, "rental_uris": {"android": "https://dc.lft.to/lastmile_qr_scan", "ios": "https://dc.lft.to/lastmile_qr_scan"}, "fusion_lon": 0.0, "lat": 38.887061833333334, "bike_id": "341847cec97b7853a5d9f314352cb546", "type": "electric_scooter", "is_reserved": 0, "lon": -76.99601916666667}, {"fusion_lat": 0.0, "name": "b6e22cbda45560c8f4e1dba64ba9ab0d", "is_disabled": 0, "rental_uris": {"android": "https://dc.lft.to/lastmile_qr_scan", "ios": "https://dc.lft.to/lastmile_qr_scan"}, "fusion_lon": 0.0, "lat": 38.919091, "bike_id": "b6e22cbda45560c8f4e1dba64ba9ab0d", "type": "electric_scooter", "is_reserved": 0, "lon": -77.0344415}, {"fusion_lat": 0.0, "name": "f6a85728e491977de39e1f48987d16d0", "is_disabled": 0, "rental_uris": {"android": "https://dc.lft.to/lastmile_qr_scan", "ios": "https://dc.lft.to/lastmile_qr_scan"}, "fusion_lon": 0.0, "lat": 38.907239, "bike_id": "f6a85728e491977de39e1f48987d16d0", "type": "electric_scooter", "is_reserved": 0, "lon": -77.02541016666666}, {"fusion_lat": 0.0, "name": "23e946dd3af0817399db775858ae21b2", "is_disabled": 0, "rental_uris": {"android": "https://dc.lft.to/lastmile_qr_scan", "ios": "https://dc.lft.to/lastmile_qr_scan"}, "fusion_lon": 0.0, "lat": 38.95264816666667, "bike_id": "23e946dd3af0817399db775858ae21b2", "type": "electric_bike", "is_reserved": 0, "lon": -76.99965766666666}, {"fusion_lat": 0.0, "name": "9d0654cbc53e3cdbc55fa6c12c7fcce3", "is_disabled": 0, "rental_uris": {"android": "https://dc.lft.to/lastmile_qr_scan", "ios": "https://dc.lft.to/lastmile_qr_scan"}, "fusion_lon": 0.0, "lat": 38.931546, "bike_id": "9d0654cbc53e3cdbc55fa6c12c7fcce3", "type": "electric_scooter", "is_reserved": 0, "lon": -77.03970283333334}, {"fusion_lat": 0.0, "name": "ea1c510288df8443e04a79dddec73d44", "is_disabled": 0, "rental_uris": {"android": "https://dc.lft.to/lastmile_qr_scan", "ios": "https://dc.lft.to/lastmile_qr_scan"}, "fusion_lon": 0.0, "lat": 38.917299166666666, "bike_id": "ea1c510288df8443e04a79dddec73d44", "type": "electric_scooter", "is_reserved": 0, "lon": -77.03661633333333}, {"fusion_lat": 0.0, "name": "db45d3e85ba6b8b6d7842a7709eaeb98", "is_disabled": 0, "rental_uris": {"android": "https://dc.lft.to/lastmile_qr_scan", "ios": "https://dc.lft.to/lastmile_qr_scan"}, "fusion_lon": 0.0, "lat": 38.922710333333335, "bike_id": "db45d3e85ba6b8b6d7842a7709eaeb98", "type": "electric_scooter", "is_reserved": 0, "lon": -77.04236016666667}, {"fusion_lat": 0.0, "name": "b8a176f4126d096594281e4c2f84496e", "is_disabled": 0, "rental_uris": {"android": "https://dc.lft.to/lastmile_qr_scan", "ios": "https://dc.lft.to/lastmile_qr_scan"}, "fusion_lon": 0.0, "lat": 38.91312716666667, "bike_id": "b8a176f4126d096594281e4c2f84496e", "type": "electric_scooter", "is_reserved": 0, "lon": -77.0235515}, {"fusion_lat": 0.0, "name": "4c7ae995cce8e11d1643764fc0074566", "is_disabled": 0, "rental_uris": {"android": "https://dc.lft.to/lastmile_qr_scan", "ios": "https://dc.lft.to/lastmile_qr_scan"}, "fusion_lon": 0.0, "lat": 38.9108825, "bike_id": "4c7ae995cce8e11d1643764fc0074566", "type": "electric_scooter", "is_reserved": 0, "lon": -77.02096833333333}, {"fusion_lat": 0.0, "name": "0c6d829d2fda65bec310ddcb7d8879f8", "is_disabled": 0, "rental_uris": {"android": "https://dc.lft.to/lastmile_qr_scan", "ios": "https://dc.lft.to/lastmile_qr_scan"}, "fusion_lon": 0.0, "lat": 38.84757466666667, "bike_id": "0c6d829d2fda65bec310ddcb7d8879f8", "type": "electric_scooter", "is_reserved": 0, "lon": -76.995021}, {"fusion_lat": 0.0, "name": "89d969b7fee8b70c3ca51848f23e8090", "is_disabled": 0, "rental_uris": {"android": "https://dc.lft.to/lastmile_qr_scan", "ios": "https://dc.lft.to/lastmile_qr_scan"}, "fusion_lon": 0.0, "lat": 38.887345, "bike_id": "89d969b7fee8b70c3ca51848f23e8090", "type": "electric_scooter", "is_reserved": 0, "lon": -77.02273833333334}, {"fusion_lat": 0.0, "name": "16bac426c26d30719c568f48c8d0dc19", "is_disabled": 0, "rental_uris": {"android": "https://dc.lft.to/lastmile_qr_scan", "ios": "https://dc.lft.to/lastmile_qr_scan"}, "fusion_lon": 0.0, "lat": 38.92153966666667, "bike_id": "16bac426c26d30719c568f48c8d0dc19", "type": "electric_scooter", "is_reserved": 0, "lon": -77.0338965}, {"fusion_lat": 0.0, "name": "ace640ad39ec70dd97cd8ef1260b9467", "is_disabled": 0, "rental_uris": {"android": "https://dc.lft.to/lastmile_qr_scan", "ios": "https://dc.lft.to/lastmile_qr_scan"}, "fusion_lon": 0.0, "lat": 38.92070316666667, "bike_id": "ace640ad39ec70dd97cd8ef1260b9467", "type": "electric_scooter", "is_reserved": 0, "lon": -77.03202716666667}, {"fusion_lat": 0.0, "name": "5e0826163db2a2525124c70da2e2bea5", "is_disabled": 0, "rental_uris": {"android": "https://dc.lft.to/lastmile_qr_scan", "ios": "https://dc.lft.to/lastmile_qr_scan"}, "fusion_lon": 0.0, "lat": 38.9148515, "bike_id": "5e0826163db2a2525124c70da2e2bea5", "type": "electric_scooter", "is_reserved": 0, "lon": -77.01326483333334}, {"fusion_lat": 0.0, "name": "aed3c2133af503a4904259abf4720c15", "is_disabled": 0, "rental_uris": {"android": "https://dc.lft.to/lastmile_qr_scan", "ios": "https://dc.lft.to/lastmile_qr_scan"}, "fusion_lon": 0.0, "lat": 38.91401666666667, "bike_id": "aed3c2133af503a4904259abf4720c15", "type": "electric_scooter", "is_reserved": 0, "lon": -77.03175333333333}, {"fusion_lat": 0.0, "name": "c66ce99f3ee1d825d699519995023f0d", "is_disabled": 0, "rental_uris": {"android": "https://dc.lft.to/lastmile_qr_scan", "ios": "https://dc.lft.to/lastmile_qr_scan"}, "fusion_lon": 0.0, "lat": 38.88529116666667, "bike_id": "c66ce99f3ee1d825d699519995023f0d", "type": "electric_scooter", "is_reserved": 0, "lon": -76.996182}, {"fusion_lat": 0.0, "name": "bad5d3c27b1420d42bb979f24b85ec22", "is_disabled": 0, "rental_uris": {"android": "https://dc.lft.to/lastmile_qr_scan", "ios": "https://dc.lft.to/lastmile_qr_scan"}, "fusion_lon": 0.0, "lat": 38.90723633333333, "bike_id": "bad5d3c27b1420d42bb979f24b85ec22", "type": "electric_scooter", "is_reserved": 0, "lon": -77.0481595}, {"fusion_lat": 0.0, "name": "ca6638eddae5dc97e27685f942c6fdcd", "is_disabled": 0, "rental_uris": {"android": "https://dc.lft.to/lastmile_qr_scan", "ios": "https://dc.lft.to/lastmile_qr_scan"}, "fusion_lon": 0.0, "lat": 38.93685083333333, "bike_id": "ca6638eddae5dc97e27685f942c6fdcd", "type": "electric_scooter", "is_reserved": 0, "lon": -77.03623916666666}, {"fusion_lat": 0.0, "name": "cb631223e4b17abf71ff6b985711cb53", "is_disabled": 0, "rental_uris": {"android": "https://dc.lft.to/lastmile_qr_scan", "ios": "https://dc.lft.to/lastmile_qr_scan"}, "fusion_lon": 0.0, "lat": 38.92329016666667, "bike_id": "cb631223e4b17abf71ff6b985711cb53", "type": "electric_scooter", "is_reserved": 0, "lon": -77.020737}, {"fusion_lat": 0.0, "name": "2c125a929cc54450d5b432b5c5b42711", "is_disabled": 0, "rental_uris": {"android": "https://dc.lft.to/lastmile_qr_scan", "ios": "https://dc.lft.to/lastmile_qr_scan"}, "fusion_lon": 0.0, "lat": 38.902824333333335, "bike_id": "2c125a929cc54450d5b432b5c5b42711", "type": "electric_scooter", "is_reserved": 0, "lon": -77.04372066666667}, {"fusion_lat": 0.0, "name": "69427047d45acd13f70b6126b32d6450", "is_disabled": 0, "rental_uris": {"android": "https://dc.lft.to/lastmile_qr_scan", "ios": "https://dc.lft.to/lastmile_qr_scan"}, "fusion_lon": 0.0, "lat": 38.93143033333333, "bike_id": "69427047d45acd13f70b6126b32d6450", "type": "electric_scooter", "is_reserved": 0, "lon": -77.07853616666667}, {"fusion_lat": 0.0, "name": "06694a1aaf4dd99eb9211b7364fd51b5", "is_disabled": 0, "rental_uris": {"android": "https://dc.lft.to/lastmile_qr_scan", "ios": "https://dc.lft.to/lastmile_qr_scan"}, "fusion_lon": 0.0, "lat": 38.94072366666666, "bike_id": "06694a1aaf4dd99eb9211b7364fd51b5", "type": "electric_bike", "is_reserved": 0, "lon": -76.99457833333334}, {"fusion_lat": 0.0, "name": "945943dcb316bef66e8f1e13e14ec84e", "is_disabled": 0, "rental_uris": {"android": "https://dc.lft.to/lastmile_qr_scan", "ios": "https://dc.lft.to/lastmile_qr_scan"}, "fusion_lon": 0.0, "lat": 38.92556016666666, "bike_id": "945943dcb316bef66e8f1e13e14ec84e", "type": "electric_scooter", "is_reserved": 0, "lon": -77.02285933333333}, {"fusion_lat": 0.0, "name": "89adb02663d6307984c9f1cbb0d075a6", "is_disabled": 0, "rental_uris": {"android": "https://dc.lft.to/lastmile_qr_scan", "ios": "https://dc.lft.to/lastmile_qr_scan"}, "fusion_lon": 0.0, "lat": 38.99446066666667, "bike_id": "89adb02663d6307984c9f1cbb0d075a6", "type": "electric_bike", "is_reserved": 0, "lon": -76.99588033333333}, {"fusion_lat": 0.0, "name": "1db55c5165070f9db43691fd7696c228", "is_disabled": 0, "rental_uris": {"android": "https://dc.lft.to/lastmile_qr_scan", "ios": "https://dc.lft.to/lastmile_qr_scan"}, "fusion_lon": 0.0, "lat": 38.9406065, "bike_id": "1db55c5165070f9db43691fd7696c228", "type": "electric_bike", "is_reserved": 0, "lon": -76.90416866666666}, {"fusion_lat": 0.0, "name": "3d2e1ba46f85bfcc00d29361acd2daa1", "is_disabled": 0, "rental_uris": {"android": "https://dc.lft.to/lastmile_qr_scan", "ios": "https://dc.lft.to/lastmile_qr_scan"}, "fusion_lon": 0.0, "lat": 38.916746833333335, "bike_id": "3d2e1ba46f85bfcc00d29361acd2daa1", "type": "electric_scooter", "is_reserved": 0, "lon": -77.041746}, {"fusion_lat": 0.0, "name": "143cccf34c4f4875d2c3ea5ae45d10d8", "is_disabled": 0, "rental_uris": {"android": "https://dc.lft.to/lastmile_qr_scan", "ios": "https://dc.lft.to/lastmile_qr_scan"}, "fusion_lon": 0.0, "lat": 38.9010215, "bike_id": "143cccf34c4f4875d2c3ea5ae45d10d8", "type": "electric_scooter", "is_reserved": 0, "lon": -77.02569566666666}, {"fusion_lat": 0.0, "name": "f97837f1a000c40d7995cf1a250165f8", "is_disabled": 0, "rental_uris": {"android": "https://dc.lft.to/lastmile_qr_scan", "ios": "https://dc.lft.to/lastmile_qr_scan"}, "fusion_lon": 0.0, "lat": 38.9012905, "bike_id": "f97837f1a000c40d7995cf1a250165f8", "type": "electric_scooter", "is_reserved": 0, "lon": -77.01686183333334}, {"fusion_lat": 0.0, "name": "5429b538c4b47cee0226803e8f9c0107", "is_disabled": 0, "rental_uris": {"android": "https://dc.lft.to/lastmile_qr_scan", "ios": "https://dc.lft.to/lastmile_qr_scan"}, "fusion_lon": 0.0, "lat": 38.918767333333335, "bike_id": "5429b538c4b47cee0226803e8f9c0107", "type": "electric_scooter", "is_reserved": 0, "lon": -77.02590933333333}, {"fusion_lat": 0.0, "name": "a6145a9c570d42e97faf50d1420af274", "is_disabled": 0, "rental_uris": {"android": "https://dc.lft.to/lastmile_qr_scan", "ios": "https://dc.lft.to/lastmile_qr_scan"}, "fusion_lon": 0.0, "lat": 38.8867395, "bike_id": "a6145a9c570d42e97faf50d1420af274", "type": "electric_scooter", "is_reserved": 0, "lon": -77.02832483333333}, {"fusion_lat": 0.0, "name": "ca518a75399eceb9588e4f9da811b106", "is_disabled": 0, "rental_uris": {"android": "https://dc.lft.to/lastmile_qr_scan", "ios": "https://dc.lft.to/lastmile_qr_scan"}, "fusion_lon": 0.0, "lat": 38.905780666666665, "bike_id": "ca518a75399eceb9588e4f9da811b106", "type": "electric_scooter", "is_reserved": 0, "lon": -77.04079083333333}, {"fusion_lat": 0.0, "name": "7385ad6753c39e1bdd5005402b91ed5b", "is_disabled": 0, "rental_uris": {"android": "https://dc.lft.to/lastmile_qr_scan", "ios": "https://dc.lft.to/lastmile_qr_scan"}, "fusion_lon": 0.0, "lat": 38.9056885, "bike_id": "7385ad6753c39e1bdd5005402b91ed5b", "type": "electric_scooter", "is_reserved": 0, "lon": -77.0060035}, {"fusion_lat": 0.0, "name": "1b33df18605c630af2254463f9bb913d", "is_disabled": 0, "rental_uris": {"android": "https://dc.lft.to/lastmile_qr_scan", "ios": "https://dc.lft.to/lastmile_qr_scan"}, "fusion_lon": 0.0, "lat": 38.903074833333335, "bike_id": "1b33df18605c630af2254463f9bb913d", "type": "electric_scooter", "is_reserved": 0, "lon": -76.97654333333334}, {"fusion_lat": 0.0, "name": "2bb5af1a5044a3c85e60e7b0abe69f6a", "is_disabled": 0, "rental_uris": {"android": "https://dc.lft.to/lastmile_qr_scan", "ios": "https://dc.lft.to/lastmile_qr_scan"}, "fusion_lon": 0.0, "lat": 38.91194983333333, "bike_id": "2bb5af1a5044a3c85e60e7b0abe69f6a", "type": "electric_scooter", "is_reserved": 0, "lon": -77.04544133333333}, {"fusion_lat": 0.0, "name": "da4aa188e758d67b5ef15f37c5d4786c", "is_disabled": 0, "rental_uris": {"android": "https://dc.lft.to/lastmile_qr_scan", "ios": "https://dc.lft.to/lastmile_qr_scan"}, "fusion_lon": 0.0, "lat": 38.879449666666666, "bike_id": "da4aa188e758d67b5ef15f37c5d4786c", "type": "electric_bike", "is_reserved": 0, "lon": -77.01008483333334}, {"fusion_lat": 0.0, "name": "560abeb8d002608b74615abd5b96fa35", "is_disabled": 0, "rental_uris": {"android": "https://dc.lft.to/lastmile_qr_scan", "ios": "https://dc.lft.to/lastmile_qr_scan"}, "fusion_lon": 0.0, "lat": 38.9225745, "bike_id": "560abeb8d002608b74615abd5b96fa35", "type": "electric_scooter", "is_reserved": 0, "lon": -77.0749195}, {"fusion_lat": 0.0, "name": "b3beb96922436f0f030bd8147c7d8efe", "is_disabled": 0, "rental_uris": {"android": "https://dc.lft.to/lastmile_qr_scan", "ios": "https://dc.lft.to/lastmile_qr_scan"}, "fusion_lon": 0.0, "lat": 38.866240833333336, "bike_id": "b3beb96922436f0f030bd8147c7d8efe", "type": "electric_bike", "is_reserved": 0, "lon": -76.9456915}, {"fusion_lat": 0.0, "name": "39d72ed6219f95647767d98cb428eabb", "is_disabled": 0, "rental_uris": {"android": "https://dc.lft.to/lastmile_qr_scan", "ios": "https://dc.lft.to/lastmile_qr_scan"}, "fusion_lon": 0.0, "lat": 38.93256066666667, "bike_id": "39d72ed6219f95647767d98cb428eabb", "type": "electric_scooter", "is_reserved": 0, "lon": -77.04005766666667}, {"fusion_lat": 0.0, "name": "84b735a05ebf210b3cfd15e09e515e73", "is_disabled": 0, "rental_uris": {"android": "https://dc.lft.to/lastmile_qr_scan", "ios": "https://dc.lft.to/lastmile_qr_scan"}, "fusion_lon": 0.0, "lat": 38.92968483333333, "bike_id": "84b735a05ebf210b3cfd15e09e515e73", "type": "electric_scooter", "is_reserved": 0, "lon": -77.03186633333334}, {"fusion_lat": 0.0, "name": "7a7bf62fefe14138e346b72ec89ef102", "is_disabled": 0, "rental_uris": {"android": "https://dc.lft.to/lastmile_qr_scan", "ios": "https://dc.lft.to/lastmile_qr_scan"}, "fusion_lon": 0.0, "lat": 38.902125166666664, "bike_id": "7a7bf62fefe14138e346b72ec89ef102", "type": "electric_scooter", "is_reserved": 0, "lon": -77.04658716666667}, {"fusion_lat": 0.0, "name": "ae295bc64cfc49808fa7c305b8caa313", "is_disabled": 0, "rental_uris": {"android": "https://dc.lft.to/lastmile_qr_scan", "ios": "https://dc.lft.to/lastmile_qr_scan"}, "fusion_lon": 0.0, "lat": 38.92111, "bike_id": "ae295bc64cfc49808fa7c305b8caa313", "type": "electric_scooter", "is_reserved": 0, "lon": -77.04206533333333}, {"fusion_lat": 0.0, "name": "d9e41df5497b5d284febc0f61220d165", "is_disabled": 0, "rental_uris": {"android": "https://dc.lft.to/lastmile_qr_scan", "ios": "https://dc.lft.to/lastmile_qr_scan"}, "fusion_lon": 0.0, "lat": 38.898983, "bike_id": "d9e41df5497b5d284febc0f61220d165", "type": "electric_scooter", "is_reserved": 0, "lon": -77.01512966666667}, {"fusion_lat": 0.0, "name": "4f99ad2667c65dd6a2d26bc25f3c7285", "is_disabled": 0, "rental_uris": {"android": "https://dc.lft.to/lastmile_qr_scan", "ios": "https://dc.lft.to/lastmile_qr_scan"}, "fusion_lon": 0.0, "lat": 38.90537483333333, "bike_id": "4f99ad2667c65dd6a2d26bc25f3c7285", "type": "electric_scooter", "is_reserved": 0, "lon": -77.05627933333334}, {"fusion_lat": 0.0, "name": "54d2c9e12c9d5d828405039f14cff377", "is_disabled": 0, "rental_uris": {"android": "https://dc.lft.to/lastmile_qr_scan", "ios": "https://dc.lft.to/lastmile_qr_scan"}, "fusion_lon": 0.0, "lat": 38.918245666666664, "bike_id": "54d2c9e12c9d5d828405039f14cff377", "type": "electric_scooter", "is_reserved": 0, "lon": -77.03843133333334}, {"fusion_lat": 0.0, "name": "e40696d8f31983ee47cf3a49281abdec", "is_disabled": 0, "rental_uris": {"android": "https://dc.lft.to/lastmile_qr_scan", "ios": "https://dc.lft.to/lastmile_qr_scan"}, "fusion_lon": 0.0, "lat": 38.933746666666664, "bike_id": "e40696d8f31983ee47cf3a49281abdec", "type": "electric_scooter", "is_reserved": 0, "lon": -77.03874233333333}, {"fusion_lat": 0.0, "name": "009902df1790a4f81a4def752e908379", "is_disabled": 0, "rental_uris": {"android": "https://dc.lft.to/lastmile_qr_scan", "ios": "https://dc.lft.to/lastmile_qr_scan"}, "fusion_lon": 0.0, "lat": 38.90338916666666, "bike_id": "009902df1790a4f81a4def752e908379", "type": "electric_scooter", "is_reserved": 0, "lon": -76.97252433333334}, {"fusion_lat": 0.0, "name": "c2e56a3aa848093250f2ea6bd915a1cd", "is_disabled": 0, "rental_uris": {"android": "https://dc.lft.to/lastmile_qr_scan", "ios": "https://dc.lft.to/lastmile_qr_scan"}, "fusion_lon": 0.0, "lat": 38.941401, "bike_id": "c2e56a3aa848093250f2ea6bd915a1cd", "type": "electric_scooter", "is_reserved": 0, "lon": -77.00608916666667}, {"fusion_lat": 0.0, "name": "f3b7ccacd1fa9c6d3ed01895330f503c", "is_disabled": 0, "rental_uris": {"android": "https://dc.lft.to/lastmile_qr_scan", "ios": "https://dc.lft.to/lastmile_qr_scan"}, "fusion_lon": 0.0, "lat": 38.89723216666667, "bike_id": "f3b7ccacd1fa9c6d3ed01895330f503c", "type": "electric_scooter", "is_reserved": 0, "lon": -77.03236883333334}, {"fusion_lat": 0.0, "name": "1759a99203605735fde7635422d29acf", "is_disabled": 0, "rental_uris": {"android": "https://dc.lft.to/lastmile_qr_scan", "ios": "https://dc.lft.to/lastmile_qr_scan"}, "fusion_lon": 0.0, "lat": 38.90975983333333, "bike_id": "1759a99203605735fde7635422d29acf", "type": "electric_scooter", "is_reserved": 0, "lon": -77.00895883333334}, {"fusion_lat": 0.0, "name": "272d1aecfdf48916e8a50f42afa4c202", "is_disabled": 0, "rental_uris": {"android": "https://dc.lft.to/lastmile_qr_scan", "ios": "https://dc.lft.to/lastmile_qr_scan"}, "fusion_lon": 0.0, "lat": 38.83936416666667, "bike_id": "272d1aecfdf48916e8a50f42afa4c202", "type": "electric_bike", "is_reserved": 0, "lon": -77.0790055}, {"fusion_lat": 0.0, "name": "89b171847d350279e7b61f62428ce1fc", "is_disabled": 0, "rental_uris": {"android": "https://dc.lft.to/lastmile_qr_scan", "ios": "https://dc.lft.to/lastmile_qr_scan"}, "fusion_lon": 0.0, "lat": 38.905926, "bike_id": "89b171847d350279e7b61f62428ce1fc", "type": "electric_scooter", "is_reserved": 0, "lon": -77.0419525}, {"fusion_lat": 0.0, "name": "ba92394ffb2fb60aba01b8c701e070be", "is_disabled": 0, "rental_uris": {"android": "https://dc.lft.to/lastmile_qr_scan", "ios": "https://dc.lft.to/lastmile_qr_scan"}, "fusion_lon": 0.0, "lat": 38.92515183333333, "bike_id": "ba92394ffb2fb60aba01b8c701e070be", "type": "electric_scooter", "is_reserved": 0, "lon": -77.022565}, {"fusion_lat": 0.0, "name": "313c0ad9aed157a8e1a8b8f294988802", "is_disabled": 0, "rental_uris": {"android": "https://dc.lft.to/lastmile_qr_scan", "ios": "https://dc.lft.to/lastmile_qr_scan"}, "fusion_lon": 0.0, "lat": 38.91597816666667, "bike_id": "313c0ad9aed157a8e1a8b8f294988802", "type": "electric_scooter", "is_reserved": 0, "lon": -77.0320285}, {"fusion_lat": 0.0, "name": "822496c5e697443813967089212ae2a9", "is_disabled": 0, "rental_uris": {"android": "https://dc.lft.to/lastmile_qr_scan", "ios": "https://dc.lft.to/lastmile_qr_scan"}, "fusion_lon": 0.0, "lat": 38.877197833333334, "bike_id": "822496c5e697443813967089212ae2a9", "type": "electric_scooter", "is_reserved": 0, "lon": -77.01766166666667}, {"fusion_lat": 0.0, "name": "9e9e190cace6c23b6a6736ac7cc9a70b", "is_disabled": 0, "rental_uris": {"android": "https://dc.lft.to/lastmile_qr_scan", "ios": "https://dc.lft.to/lastmile_qr_scan"}, "fusion_lon": 0.0, "lat": 38.80679, "bike_id": "9e9e190cace6c23b6a6736ac7cc9a70b", "type": "electric_bike", "is_reserved": 0, "lon": -77.06914516666667}, {"fusion_lat": 0.0, "name": "8a01a5c0cc194c81b84fbc96a6fdd4a2", "is_disabled": 0, "rental_uris": {"android": "https://dc.lft.to/lastmile_qr_scan", "ios": "https://dc.lft.to/lastmile_qr_scan"}, "fusion_lon": 0.0, "lat": 38.884508, "bike_id": "8a01a5c0cc194c81b84fbc96a6fdd4a2", "type": "electric_scooter", "is_reserved": 0, "lon": -76.99392}, {"fusion_lat": 0.0, "name": "80bf5fe2e035afeb4bd54d4f0e6c3267", "is_disabled": 0, "rental_uris": {"android": "https://dc.lft.to/lastmile_qr_scan", "ios": "https://dc.lft.to/lastmile_qr_scan"}, "fusion_lon": 0.0, "lat": 38.93743766666667, "bike_id": "80bf5fe2e035afeb4bd54d4f0e6c3267", "type": "electric_scooter", "is_reserved": 0, "lon": -77.03591283333333}, {"fusion_lat": 0.0, "name": "293d960eca2a51c327b9246bfbd4bd14", "is_disabled": 0, "rental_uris": {"android": "https://dc.lft.to/lastmile_qr_scan", "ios": "https://dc.lft.to/lastmile_qr_scan"}, "fusion_lon": 0.0, "lat": 38.913335833333335, "bike_id": "293d960eca2a51c327b9246bfbd4bd14", "type": "electric_scooter", "is_reserved": 0, "lon": -77.01030016666667}, {"fusion_lat": 0.0, "name": "ccb1fa46622705c3db6298cc488d3438", "is_disabled": 0, "rental_uris": {"android": "https://dc.lft.to/lastmile_qr_scan", "ios": "https://dc.lft.to/lastmile_qr_scan"}, "fusion_lon": 0.0, "lat": 38.907275, "bike_id": "ccb1fa46622705c3db6298cc488d3438", "type": "electric_scooter", "is_reserved": 0, "lon": -77.05043466666666}, {"fusion_lat": 0.0, "name": "2a9ed228e6e5e55991cc832615e14a76", "is_disabled": 0, "rental_uris": {"android": "https://dc.lft.to/lastmile_qr_scan", "ios": "https://dc.lft.to/lastmile_qr_scan"}, "fusion_lon": 0.0, "lat": 38.905027, "bike_id": "2a9ed228e6e5e55991cc832615e14a76", "type": "electric_scooter", "is_reserved": 0, "lon": -77.0092875}, {"fusion_lat": 0.0, "name": "e3d1dca11367b01f1fac4f0e1dcf5179", "is_disabled": 0, "rental_uris": {"android": "https://dc.lft.to/lastmile_qr_scan", "ios": "https://dc.lft.to/lastmile_qr_scan"}, "fusion_lon": 0.0, "lat": 38.909355166666664, "bike_id": "e3d1dca11367b01f1fac4f0e1dcf5179", "type": "electric_scooter", "is_reserved": 0, "lon": -77.06416783333333}, {"fusion_lat": 0.0, "name": "3988797eee8cb448041480641f399a1f", "is_disabled": 0, "rental_uris": {"android": "https://dc.lft.to/lastmile_qr_scan", "ios": "https://dc.lft.to/lastmile_qr_scan"}, "fusion_lon": 0.0, "lat": 38.896210333333336, "bike_id": "3988797eee8cb448041480641f399a1f", "type": "electric_scooter", "is_reserved": 0, "lon": -77.045084}, {"fusion_lat": 0.0, "name": "72d2081c4841973aef278307772d9d00", "is_disabled": 0, "rental_uris": {"android": "https://dc.lft.to/lastmile_qr_scan", "ios": "https://dc.lft.to/lastmile_qr_scan"}, "fusion_lon": 0.0, "lat": 38.922132833333336, "bike_id": "72d2081c4841973aef278307772d9d00", "type": "electric_scooter", "is_reserved": 0, "lon": -77.04322533333334}, {"fusion_lat": 0.0, "name": "3ca863e89bca7b64c56b9b79f552d15a", "is_disabled": 0, "rental_uris": {"android": "https://dc.lft.to/lastmile_qr_scan", "ios": "https://dc.lft.to/lastmile_qr_scan"}, "fusion_lon": 0.0, "lat": 38.8944955, "bike_id": "3ca863e89bca7b64c56b9b79f552d15a", "type": "electric_scooter", "is_reserved": 0, "lon": -77.0454435}, {"fusion_lat": 0.0, "name": "b281f6262356c93fdb431e537d5b10e8", "is_disabled": 0, "rental_uris": {"android": "https://dc.lft.to/lastmile_qr_scan", "ios": "https://dc.lft.to/lastmile_qr_scan"}, "fusion_lon": 0.0, "lat": 38.90080433333333, "bike_id": "b281f6262356c93fdb431e537d5b10e8", "type": "electric_scooter", "is_reserved": 0, "lon": -77.0271325}, {"fusion_lat": 0.0, "name": "356bc877a6ce4b01cf6d2226f4a7902d", "is_disabled": 0, "rental_uris": {"android": "https://dc.lft.to/lastmile_qr_scan", "ios": "https://dc.lft.to/lastmile_qr_scan"}, "fusion_lon": 0.0, "lat": 38.897299833333335, "bike_id": "356bc877a6ce4b01cf6d2226f4a7902d", "type": "electric_scooter", "is_reserved": 0, "lon": -76.94701716666667}, {"fusion_lat": 0.0, "name": "2695e4216970530b7e440ba75b91e747", "is_disabled": 0, "rental_uris": {"android": "https://dc.lft.to/lastmile_qr_scan", "ios": "https://dc.lft.to/lastmile_qr_scan"}, "fusion_lon": 0.0, "lat": 38.9085435, "bike_id": "2695e4216970530b7e440ba75b91e747", "type": "electric_scooter", "is_reserved": 0, "lon": -77.06396966666667}, {"fusion_lat": 0.0, "name": "2f720724f2b7ec7799572728d7841edc", "is_disabled": 0, "rental_uris": {"android": "https://dc.lft.to/lastmile_qr_scan", "ios": "https://dc.lft.to/lastmile_qr_scan"},