{"data": {"bikes": [{"is_reserved": 0, "type": "electric_scooter", "bike_id": "103a8ef798c68102b494dfa0c5694a53", "lat": 38.887799666666666, "lon": -77.00336783333333, "rental_uris": {"android": "https://dc.lft.to/lastmile_qr_scan", "ios": "https://dc.lft.to/lastmile_qr_scan"}, "is_disabled": 0, "fusion_lat": 0.0, "name": "103a8ef798c68102b494dfa0c5694a53", "fusion_lon": 0.0}, {"is_reserved": 0, "type": "electric_scooter", "bike_id": "8a1fb9982317c7783597812973bc982b", "lat": 38.906349, "lon": -77.0250075, "rental_uris": {"android": "https://dc.lft.to/lastmile_qr_scan", "ios": "https://dc.lft.to/lastmile_qr_scan"}, "is_disabled": 0, "fusion_lat": 0.0, "name": "8a1fb9982317c7783597812973bc982b", "fusion_lon": 0.0}, {"is_reserved": 0, "type": "electric_scooter", "bike_id": "ca534a7ae4b3d70e56f514ae51691467", "lat": 38.911502, "lon": -77.02693316666667, "rental_uris": {"android": "https://dc.lft.to/lastmile_qr_scan", "ios": "https://dc.lft.to/lastmile_qr_scan"}, "is_disabled": 0, "fusion_lat": 0.0, "name": "ca534a7ae4b3d70e56f514ae51691467", "fusion_lon": 0.0}, {"is_reserved": 0, "type": "electric_bike", "bike_id": "ac2247475a3eacf34b1098f300b3bd7f", "lat": 38.974441166666665, "lon": -77.095949, "rental_uris": {"android": "https://dc.lft.to/lastmile_qr_scan", "ios": "https://dc.lft.to/lastmile_qr_scan"}, "is_disabled": 0, "fusion_lat": 0.0, "name": "ac2247475a3eacf34b1098f300b3bd7f", "fusion_lon": 0.0}, {"is_reserved": 0, "type": "electric_scooter", "bike_id": "913bdfed449a7c7ff2052458a3d23ee4", "lat": 38.924809833333335, "lon": -77.02725966666667, "rental_uris": {"android": "https://dc.lft.to/lastmile_qr_scan", "ios": "https://dc.lft.to/lastmile_qr_scan"}, "is_disabled": 0, "fusion_lat": 0.0, "name": "913bdfed449a7c7ff2052458a3d23ee4", "fusion_lon": 0.0}, {"is_reserved": 0, "type": "electric_bike", "bike_id": "e68affe77e614e8e75c3a7e78c03b014", "lat": 38.920996333333335, "lon": -76.99933766666666, "rental_uris": {"android": "https://dc.lft.to/lastmile_qr_scan", "ios": "https://dc.lft.to/lastmile_qr_scan"}, "is_disabled": 0, "fusion_lat": 0.0, "name": "e68affe77e614e8e75c3a7e78c03b014", "fusion_lon": 0.0}, {"is_reserved": 0, "type": "electric_scooter", "bike_id": "8a872b333ce7977de9a0bd5502c219a8", "lat": 38.922507333333336, "lon": -77.02997666666667, "rental_uris": {"android": "https://dc.lft.to/lastmile_qr_scan", "ios": "https://dc.lft.to/lastmile_qr_scan"}, "is_disabled": 0, "fusion_lat": 0.0, "name": "8a872b333ce7977de9a0bd5502c219a8", "fusion_lon": 0.0}, {"is_reserved": 0, "type": "electric_scooter", "bike_id": "19bfbd881a86d87ccd7dc8cca5574841", "lat": 38.92933566666667, "lon": -77.03763383333333, "rental_uris": {"android": "https://dc.lft.to/lastmile_qr_scan", "ios": "https://dc.lft.to/lastmile_qr_scan"}, "is_disabled": 0, "fusion_lat": 0.0, "name": "19bfbd881a86d87ccd7dc8cca5574841", "fusion_lon": 0.0}, {"is_reserved": 0, "type": "electric_scooter", "bike_id": "4614f1f1ac78889f32d161910f15c4f4", "lat": 38.920277666666664, "lon": -77.01030016666667, "rental_uris": {"android": "https://dc.lft.to/lastmile_qr_scan", "ios": "https://dc.lft.to/lastmile_qr_scan"}, "is_disabled": 0, "fusion_lat": 0.0, "name": "4614f1f1ac78889f32d161910f15c4f4", "fusion_lon": 0.0}, {"is_reserved": 0, "type": "electric_scooter", "bike_id": "b9803aa80b532bc848e48d2dd4b03290", "lat": 38.934414833333335, "lon": -77.07259266666667, "rental_uris": {"android": "https://dc.lft.to/lastmile_qr_scan", "ios": "https://dc.lft.to/lastmile_qr_scan"}, "is_disabled": 0, "fusion_lat": 0.0, "name": "b9803aa80b532bc848e48d2dd4b03290", "fusion_lon": 0.0}, {"is_reserved": 0, "type": "electric_scooter", "bike_id": "7db6e132f41cdf0c006b5e95161052f0", "lat": 38.91117066666666, "lon": -77.02334483333334, "rental_uris": {"android": "https://dc.lft.to/lastmile_qr_scan", "ios": "https://dc.lft.to/lastmile_qr_scan"}, "is_disabled": 0, "fusion_lat": 0.0, "name": "7db6e132f41cdf0c006b5e95161052f0", "fusion_lon": 0.0}, {"is_reserved": 0, "type": "electric_scooter", "bike_id": "725b000678ccb739f1c00f920cc50240", "lat": 38.92073233333333, "lon": -77.07458583333333, "rental_uris": {"android": "https://dc.lft.to/lastmile_qr_scan", "ios": "https://dc.lft.to/lastmile_qr_scan"}, "is_disabled": 0, "fusion_lat": 0.0, "name": "725b000678ccb739f1c00f920cc50240", "fusion_lon": 0.0}, {"is_reserved": 0, "type": "electric_scooter", "bike_id": "1b8bca8e99aaac5c6407a5cc8364fb7f", "lat": 38.913447166666664, "lon": -77.03197, "rental_uris": {"android": "https://dc.lft.to/lastmile_qr_scan", "ios": "https://dc.lft.to/lastmile_qr_scan"}, "is_disabled": 0, "fusion_lat": 0.0, "name": "1b8bca8e99aaac5c6407a5cc8364fb7f", "fusion_lon": 0.0}, {"is_reserved": 0, "type": "electric_scooter", "bike_id": "f6803d18b4dc481aceaa0fe7a9b8a432", "lat": 38.884991166666666, "lon": -77.01587783333333, "rental_uris": {"android": "https://dc.lft.to/lastmile_qr_scan", "ios": "https://dc.lft.to/lastmile_qr_scan"}, "is_disabled": 0, "fusion_lat": 0.0, "name": "f6803d18b4dc481aceaa0fe7a9b8a432", "fusion_lon": 0.0}, {"is_reserved": 0, "type": "electric_scooter", "bike_id": "460f70aab32a2f584a263ccaa1c0aaca", "lat": 38.895231333333335, "lon": -77.01099883333333, "rental_uris": {"android": "https://dc.lft.to/lastmile_qr_scan", "ios": "https://dc.lft.to/lastmile_qr_scan"}, "is_disabled": 0, "fusion_lat": 0.0, "name": "460f70aab32a2f584a263ccaa1c0aaca", "fusion_lon": 0.0}, {"is_reserved": 0, "type": "electric_scooter", "bike_id": "bed899a337324d923f874a0ddb92c8a0", "lat": 38.92528216666667, "lon": -77.05553983333333, "rental_uris": {"android": "https://dc.lft.to/lastmile_qr_scan", "ios": "https://dc.lft.to/lastmile_qr_scan"}, "is_disabled": 0, "fusion_lat": 0.0, "name": "bed899a337324d923f874a0ddb92c8a0", "fusion_lon": 0.0}, {"is_reserved": 0, "type": "electric_scooter", "bike_id": "9ea5611488b02b85fdb21ae099f78b0a", "lat": 38.92105083333333, "lon": -77.03009016666667, "rental_uris": {"android": "https://dc.lft.to/lastmile_qr_scan", "ios": "https://dc.lft.to/lastmile_qr_scan"}, "is_disabled": 0, "fusion_lat": 0.0, "name": "9ea5611488b02b85fdb21ae099f78b0a", "fusion_lon": 0.0}, {"is_reserved": 0, "type": "electric_scooter", "bike_id": "ab5ca479eb623bb49b29a6f428ccc8c4", "lat": 38.902500333333336, "lon": -77.05397116666667, "rental_uris": {"android": "https://dc.lft.to/lastmile_qr_scan", "ios": "https://dc.lft.to/lastmile_qr_scan"}, "is_disabled": 0, "fusion_lat": 0.0, "name": "ab5ca479eb623bb49b29a6f428ccc8c4", "fusion_lon": 0.0}, {"is_reserved": 0, "type": "electric_scooter", "bike_id": "c022c1023436e37aa174097e159f7e8d", "lat": 38.89935916666667, "lon": -77.02673616666667, "rental_uris": {"android": "https://dc.lft.to/lastmile_qr_scan", "ios": "https://dc.lft.to/lastmile_qr_scan"}, "is_disabled": 0, "fusion_lat": 0.0, "name": "c022c1023436e37aa174097e159f7e8d", "fusion_lon": 0.0}, {"is_reserved": 0, "type": "electric_scooter", "bike_id": "8dd277546a23edf70627f3e750982322", "lat": 38.884041, "lon": -76.985868, "rental_uris": {"android": "https://dc.lft.to/lastmile_qr_scan", "ios": "https://dc.lft.to/lastmile_qr_scan"}, "is_disabled": 0, "fusion_lat": 0.0, "name": "8dd277546a23edf70627f3e750982322", "fusion_lon": 0.0}, {"is_reserved": 0, "type": "electric_bike", "bike_id": "a52148e8408ce0ef2bf558cee25d5e1f", "lat": 38.985009833333336, "lon": -76.982064, "rental_uris": {"android": "https://dc.lft.to/lastmile_qr_scan", "ios": "https://dc.lft.to/lastmile_qr_scan"}, "is_disabled": 0, "fusion_lat": 0.0, "name": "a52148e8408ce0ef2bf558cee25d5e1f", "fusion_lon": 0.0}, {"is_reserved": 0, "type": "electric_scooter", "bike_id": "62e2321e049f941a6b66cc1323324e9e", "lat": 38.9002775, "lon": -77.00193016666667, "rental_uris": {"android": "https://dc.lft.to/lastmile_qr_scan", "ios": "https://dc.lft.to/lastmile_qr_scan"}, "is_disabled": 0, "fusion_lat": 0.0, "name": "62e2321e049f941a6b66cc1323324e9e", "fusion_lon": 0.0}, {"is_reserved": 0, "type": "electric_scooter", "bike_id": "a48b590c956ede50665c975549fd9464", "lat": 38.91936166666667, "lon": -77.08133033333333, "rental_uris": {"android": "https://dc.lft.to/lastmile_qr_scan", "ios": "https://dc.lft.to/lastmile_qr_scan"}, "is_disabled": 0, "fusion_lat": 0.0, "name": "a48b590c956ede50665c975549fd9464", "fusion_lon": 0.0}, {"is_reserved": 0, "type": "electric_scooter", "bike_id": "1d7570edf15f087b950c272edb42e95e", "lat": 38.917021, "lon": -77.0283895, "rental_uris": {"android": "https://dc.lft.to/lastmile_qr_scan", "ios": "https://dc.lft.to/lastmile_qr_scan"}, "is_disabled": 0, "fusion_lat": 0.0, "name": "1d7570edf15f087b950c272edb42e95e", "fusion_lon": 0.0}, {"is_reserved": 0, "type": "electric_scooter", "bike_id": "9ef7760590f4c3694e51ad73f1434861", "lat": 38.894932, "lon": -77.01759316666667, "rental_uris": {"android": "https://dc.lft.to/lastmile_qr_scan", "ios": "https://dc.lft.to/lastmile_qr_scan"}, "is_disabled": 0, "fusion_lat": 0.0, "name": "9ef7760590f4c3694e51ad73f1434861", "fusion_lon": 0.0}, {"is_reserved": 0, "type": "electric_scooter", "bike_id": "4a0ca4518b0df9be46546973ecb743ab", "lat": 38.908728333333336, "lon": -76.99807866666667, "rental_uris": {"android": "https://dc.lft.to/lastmile_qr_scan", "ios": "https://dc.lft.to/lastmile_qr_scan"}, "is_disabled": 0, "fusion_lat": 0.0, "name": "4a0ca4518b0df9be46546973ecb743ab", "fusion_lon": 0.0}, {"is_reserved": 0, "type": "electric_scooter", "bike_id": "604529366fd1a1f7a789a077380a623c", "lat": 38.989887333333336, "lon": -77.03361716666667, "rental_uris": {"android": "https://dc.lft.to/lastmile_qr_scan", "ios": "https://dc.lft.to/lastmile_qr_scan"}, "is_disabled": 0, "fusion_lat": 0.0, "name": "604529366fd1a1f7a789a077380a623c", "fusion_lon": 0.0}, {"is_reserved": 0, "type": "electric_scooter", "bike_id": "5b18d510862bbe589fa54d1474b3b9a9", "lat": 38.89467533333333, "lon": -76.92743283333333, "rental_uris": {"android": "https://dc.lft.to/lastmile_qr_scan", "ios": "https://dc.lft.to/lastmile_qr_scan"}, "is_disabled": 0, "fusion_lat": 0.0, "name": "5b18d510862bbe589fa54d1474b3b9a9", "fusion_lon": 0.0}, {"is_reserved": 0, "type": "electric_scooter", "bike_id": "53f0b3149ef623e01059f6517c89fc7c", "lat": 38.924387833333334, "lon": -77.020234, "rental_uris": {"android": "https://dc.lft.to/lastmile_qr_scan", "ios": "https://dc.lft.to/lastmile_qr_scan"}, "is_disabled": 0, "fusion_lat": 0.0, "name": "53f0b3149ef623e01059f6517c89fc7c", "fusion_lon": 0.0}, {"is_reserved": 0, "type": "electric_scooter", "bike_id": "b6de4af85a4ffd18f61e88e6055c2c6c", "lat": 38.902676666666665, "lon": -77.02763783333333, "rental_uris": {"android": "https://dc.lft.to/lastmile_qr_scan", "ios": "https://dc.lft.to/lastmile_qr_scan"}, "is_disabled": 0, "fusion_lat": 0.0, "name": "b6de4af85a4ffd18f61e88e6055c2c6c", "fusion_lon": 0.0}, {"is_reserved": 0, "type": "electric_scooter", "bike_id": "b4b6415c6b9c9998fedf76728b7e90ff", "lat": 38.8763445, "lon": -77.01474116666667, "rental_uris": {"android": "https://dc.lft.to/lastmile_qr_scan", "ios": "https://dc.lft.to/lastmile_qr_scan"}, "is_disabled": 0, "fusion_lat": 0.0, "name": "b4b6415c6b9c9998fedf76728b7e90ff", "fusion_lon": 0.0}, {"is_reserved": 0, "type": "electric_scooter", "bike_id": "b6246fd64a32da1a71b47de0a590e6d1", "lat": 38.898753166666665, "lon": -76.931853, "rental_uris": {"android": "https://dc.lft.to/lastmile_qr_scan", "ios": "https://dc.lft.to/lastmile_qr_scan"}, "is_disabled": 0, "fusion_lat": 0.0, "name": "b6246fd64a32da1a71b47de0a590e6d1", "fusion_lon": 0.0}, {"is_reserved": 0, "type": "electric_bike", "bike_id": "ca57ee06a9702a779defcba84d35b7c9", "lat": 38.9052325, "lon": -77.04181383333334, "rental_uris": {"android": "https://dc.lft.to/lastmile_qr_scan", "ios": "https://dc.lft.to/lastmile_qr_scan"}, "is_disabled": 0, "fusion_lat": 0.0, "name": "ca57ee06a9702a779defcba84d35b7c9", "fusion_lon": 0.0}, {"is_reserved": 0, "type": "electric_scooter", "bike_id": "8b99c8d7d486958d96eba99318191f40", "lat": 38.936097833333335, "lon": -77.03200766666667, "rental_uris": {"android": "https://dc.lft.to/lastmile_qr_scan", "ios": "https://dc.lft.to/lastmile_qr_scan"}, "is_disabled": 0, "fusion_lat": 0.0, "name": "8b99c8d7d486958d96eba99318191f40", "fusion_lon": 0.0}, {"is_reserved": 0, "type": "electric_scooter", "bike_id": "f12316401ffa49140bd2b71145a2ae32", "lat": 38.9199545, "lon": -77.01771866666667, "rental_uris": {"android": "https://dc.lft.to/lastmile_qr_scan", "ios": "https://dc.lft.to/lastmile_qr_scan"}, "is_disabled": 0, "fusion_lat": 0.0, "name": "f12316401ffa49140bd2b71145a2ae32", "fusion_lon": 0.0}, {"is_reserved": 0, "type": "electric_scooter", "bike_id": "9acdddc17b8bf6d28737811b8037e520", "lat": 38.9060905, "lon": -77.00907316666667, "rental_uris": {"android": "https://dc.lft.to/lastmile_qr_scan", "ios": "https://dc.lft.to/lastmile_qr_scan"}, "is_disabled": 0, "fusion_lat": 0.0, "name": "9acdddc17b8bf6d28737811b8037e520", "fusion_lon": 0.0}, {"is_reserved": 0, "type": "electric_scooter", "bike_id": "c020bf9c506bad950abf057803429bac", "lat": 38.8873695, "lon": -77.01351716666667, "rental_uris": {"android": "https://dc.lft.to/lastmile_qr_scan", "ios": "https://dc.lft.to/lastmile_qr_scan"}, "is_disabled": 0, "fusion_lat": 0.0, "name": "c020bf9c506bad950abf057803429bac", "fusion_lon": 0.0}, {"is_reserved": 0, "type": "electric_scooter", "bike_id": "41e9ddcc242c2aebb4deb8208c93adb6", "lat": 38.91475583333333, "lon": -77.00215716666666, "rental_uris": {"android": "https://dc.lft.to/lastmile_qr_scan", "ios": "https://dc.lft.to/lastmile_qr_scan"}, "is_disabled": 0, "fusion_lat": 0.0, "name": "41e9ddcc242c2aebb4deb8208c93adb6", "fusion_lon": 0.0}, {"is_reserved": 0, "type": "electric_scooter", "bike_id": "8e402951312c9e1d12ca3e296418c6cf", "lat": 38.904526833333335, "lon": -77.05255166666667, "rental_uris": {"android": "https://dc.lft.to/lastmile_qr_scan", "ios": "https://dc.lft.to/lastmile_qr_scan"}, "is_disabled": 0, "fusion_lat": 0.0, "name": "8e402951312c9e1d12ca3e296418c6cf", "fusion_lon": 0.0}, {"is_reserved": 0, "type": "electric_bike", "bike_id": "a7c1873275cdef1b141b664c200a1a8a", "lat": 38.95105216666666, "lon": -77.020073, "rental_uris": {"android": "https://dc.lft.to/lastmile_qr_scan", "ios": "https://dc.lft.to/lastmile_qr_scan"}, "is_disabled": 0, "fusion_lat": 0.0, "name": "a7c1873275cdef1b141b664c200a1a8a", "fusion_lon": 0.0}, {"is_reserved": 0, "type": "electric_scooter", "bike_id": "aafb890e705067aa18a27c2194cfd92c", "lat": 38.89359983333333, "lon": -76.9867795, "rental_uris": {"android": "https://dc.lft.to/lastmile_qr_scan", "ios": "https://dc.lft.to/lastmile_qr_scan"}, "is_disabled": 0, "fusion_lat": 0.0, "name": "aafb890e705067aa18a27c2194cfd92c", "fusion_lon": 0.0}, {"is_reserved": 0, "type": "electric_scooter", "bike_id": "6128283df2db27f7d99be3b74a9a7a2b", "lat": 38.899642, "lon": -76.9902375, "rental_uris": {"android": "https://dc.lft.to/lastmile_qr_scan", "ios": "https://dc.lft.to/lastmile_qr_scan"}, "is_disabled": 0, "fusion_lat": 0.0, "name": "6128283df2db27f7d99be3b74a9a7a2b", "fusion_lon": 0.0}, {"is_reserved": 0, "type": "electric_scooter", "bike_id": "36913250364fd6a067143f1730513704", "lat": 38.904346, "lon": -77.06015866666667, "rental_uris": {"android": "https://dc.lft.to/lastmile_qr_scan", "ios": "https://dc.lft.to/lastmile_qr_scan"}, "is_disabled": 0, "fusion_lat": 0.0, "name": "36913250364fd6a067143f1730513704", "fusion_lon": 0.0}, {"is_reserved": 0, "type": "electric_bike", "bike_id": "7dbd6287892ed50280c9b45360d7b85c", "lat": 38.935526, "lon": -77.03698883333334, "rental_uris": {"android": "https://dc.lft.to/lastmile_qr_scan", "ios": "https://dc.lft.to/lastmile_qr_scan"}, "is_disabled": 0, "fusion_lat": 0.0, "name": "7dbd6287892ed50280c9b45360d7b85c", "fusion_lon": 0.0}, {"is_reserved": 0, "type": "electric_scooter", "bike_id": "ce2f72c10472596fae7091da9b926669", "lat": 38.92822066666667, "lon": -77.02322616666666, "rental_uris": {"android": "https://dc.lft.to/lastmile_qr_scan", "ios": "https://dc.lft.to/lastmile_qr_scan"}, "is_disabled": 0, "fusion_lat": 0.0, "name": "ce2f72c10472596fae7091da9b926669", "fusion_lon": 0.0}, {"is_reserved": 0, "type": "electric_scooter", "bike_id": "adabfbc53ea17c6b06b53a249b87a253", "lat": 38.921789, "lon": -77.01037816666667, "rental_uris": {"android": "https://dc.lft.to/lastmile_qr_scan", "ios": "https://dc.lft.to/lastmile_qr_scan"}, "is_disabled": 0, "fusion_lat": 0.0, "name": "adabfbc53ea17c6b06b53a249b87a253", "fusion_lon": 0.0}, {"is_reserved": 0, "type": "electric_scooter", "bike_id": "d81d3c1e97e3f8037cdbbbf875a98ff4", "lat": 38.922653, "lon": -77.041916, "rental_uris": {"android": "https://dc.lft.to/lastmile_qr_scan", "ios": "https://dc.lft.to/lastmile_qr_scan"}, "is_disabled": 0, "fusion_lat": 0.0, "name": "d81d3c1e97e3f8037cdbbbf875a98ff4", "fusion_lon": 0.0}, {"is_reserved": 0, "type": "electric_scooter", "bike_id": "0b85de8ebd17b02bbaaa7ef47a14a495", "lat": 38.933096, "lon": -77.029059, "rental_uris": {"android": "https://dc.lft.to/lastmile_qr_scan", "ios": "https://dc.lft.to/lastmile_qr_scan"}, "is_disabled": 0, "fusion_lat": 0.0, "name": "0b85de8ebd17b02bbaaa7ef47a14a495", "fusion_lon": 0.0}, {"is_reserved": 0, "type": "electric_scooter", "bike_id": "4703a3ba27d6ddbefbdb20a0185e01bb", "lat": 38.88658483333333, "lon": -77.00204433333333, "rental_uris": {"android": "https://dc.lft.to/lastmile_qr_scan", "ios": "https://dc.lft.to/lastmile_qr_scan"}, "is_disabled": 0, "fusion_lat": 0.0, "name": "4703a3ba27d6ddbefbdb20a0185e01bb", "fusion_lon": 0.0}, {"is_reserved": 0, "type": "electric_scooter", "bike_id": "a42ebe12a84e58772b781b7a367208ee", "lat": 38.92487966666667, "lon": -77.0319575, "rental_uris": {"android": "https://dc.lft.to/lastmile_qr_scan", "ios": "https://dc.lft.to/lastmile_qr_scan"}, "is_disabled": 0, "fusion_lat": 0.0, "name": "a42ebe12a84e58772b781b7a367208ee", "fusion_lon": 0.0}, {"is_reserved": 0, "type": "electric_scooter", "bike_id": "3cdac5a1df44d1baed590a39cd0e7aa3", "lat": 38.90553, "lon": -77.03250016666667, "rental_uris": {"android": "https://dc.lft.to/lastmile_qr_scan", "ios": "https://dc.lft.to/lastmile_qr_scan"}, "is_disabled": 0, "fusion_lat": 0.0, "name": "3cdac5a1df44d1baed590a39cd0e7aa3", "fusion_lon": 0.0}, {"is_reserved": 0, "type": "electric_scooter", "bike_id": "549cece7c20c3f87606dc323700e634a", "lat": 38.92279533333333, "lon": -77.03667483333334, "rental_uris": {"android": "https://dc.lft.to/lastmile_qr_scan", "ios": "https://dc.lft.to/lastmile_qr_scan"}, "is_disabled": 0, "fusion_lat": 0.0, "name": "549cece7c20c3f87606dc323700e634a", "fusion_lon": 0.0}, {"is_reserved": 0, "type": "electric_scooter", "bike_id": "2c27f21d02c5a61cb6b954432cff91e7", "lat": 38.911786, "lon": -77.01994433333333, "rental_uris": {"android": "https://dc.lft.to/lastmile_qr_scan", "ios": "https://dc.lft.to/lastmile_qr_scan"}, "is_disabled": 0, "fusion_lat": 0.0, "name": "2c27f21d02c5a61cb6b954432cff91e7", "fusion_lon": 0.0}, {"is_reserved": 0, "type": "electric_bike", "bike_id": "fdc202f9991d75ae7de3b1760741636f", "lat": 38.89253733333334, "lon": -76.97050383333334, "rental_uris": {"android": "https://dc.lft.to/lastmile_qr_scan", "ios": "https://dc.lft.to/lastmile_qr_scan"}, "is_disabled": 0, "fusion_lat": 0.0, "name": "fdc202f9991d75ae7de3b1760741636f", "fusion_lon": 0.0}, {"is_reserved": 0, "type": "electric_scooter", "bike_id": "71bd68d8883794cdcbc5f8a34a638203", "lat": 38.91135766666667, "lon": -76.98463983333333, "rental_uris": {"android": "https://dc.lft.to/lastmile_qr_scan", "ios": "https://dc.lft.to/lastmile_qr_scan"}, "is_disabled": 0, "fusion_lat": 0.0, "name": "71bd68d8883794cdcbc5f8a34a638203", "fusion_lon": 0.0}, {"is_reserved": 0, "type": "electric_scooter", "bike_id": "645bb39097c09596d4cf516f57c8e169", "lat": 38.932423, "lon": -77.03847566666667, "rental_uris": {"android": "https://dc.lft.to/lastmile_qr_scan", "ios": "https://dc.lft.to/lastmile_qr_scan"}, "is_disabled": 0, "fusion_lat": 0.0, "name": "645bb39097c09596d4cf516f57c8e169", "fusion_lon": 0.0}, {"is_reserved": 0, "type": "electric_scooter", "bike_id": "105a4363007c77ccd82d16015975f709", "lat": 38.89954266666667, "lon": -77.0258285, "rental_uris": {"android": "https://dc.lft.to/lastmile_qr_scan", "ios": "https://dc.lft.to/lastmile_qr_scan"}, "is_disabled": 0, "fusion_lat": 0.0, "name": "105a4363007c77ccd82d16015975f709", "fusion_lon": 0.0}, {"is_reserved": 0, "type": "electric_scooter", "bike_id": "2dac209cc1f7900e497c3ab32d2e75a6", "lat": 38.900779166666666, "lon": -76.98008766666666, "rental_uris": {"android": "https://dc.lft.to/lastmile_qr_scan", "ios": "https://dc.lft.to/lastmile_qr_scan"}, "is_disabled": 0, "fusion_lat": 0.0, "name": "2dac209cc1f7900e497c3ab32d2e75a6", "fusion_lon": 0.0}, {"is_reserved": 0, "type": "electric_scooter", "bike_id": "c6db2e311d321bdb09a99dab81f19538", "lat": 38.87360783333333, "lon": -77.000964, "rental_uris": {"android": "https://dc.lft.to/lastmile_qr_scan", "ios": "https://dc.lft.to/lastmile_qr_scan"}, "is_disabled": 0, "fusion_lat": 0.0, "name": "c6db2e311d321bdb09a99dab81f19538", "fusion_lon": 0.0}, {"is_reserved": 0, "type": "electric_bike", "bike_id": "0894442cc1f9301f586a60b60042ec66", "lat": 39.042354, "lon": -76.997345, "rental_uris": {"android": "https://dc.lft.to/lastmile_qr_scan", "ios": "https://dc.lft.to/lastmile_qr_scan"}, "is_disabled": 0, "fusion_lat": 0.0, "name": "0894442cc1f9301f586a60b60042ec66", "fusion_lon": 0.0}, {"is_reserved": 0, "type": "electric_bike", "bike_id": "9fb0ce5481ab2010b88b039f0c298a57", "lat": 38.9733895, "lon": -76.99591133333334, "rental_uris": {"android": "https://dc.lft.to/lastmile_qr_scan", "ios": "https://dc.lft.to/lastmile_qr_scan"}, "is_disabled": 0, "fusion_lat": 0.0, "name": "9fb0ce5481ab2010b88b039f0c298a57", "fusion_lon": 0.0}, {"is_reserved": 0, "type": "electric_scooter", "bike_id": "6f026bb28c78ce19984a4399d595b146", "lat": 38.89504316666667, "lon": -76.9347565, "rental_uris": {"android": "https://dc.lft.to/lastmile_qr_scan", "ios": "https://dc.lft.to/lastmile_qr_scan"}, "is_disabled": 0, "fusion_lat": 0.0, "name": "6f026bb28c78ce19984a4399d595b146", "fusion_lon": 0.0}, {"is_reserved": 0, "type": "electric_scooter", "bike_id": "cdb218738f8c15fd6eec7b0554d87fb1", "lat": 38.918383, "lon": -77.02294533333334, "rental_uris": {"android": "https://dc.lft.to/lastmile_qr_scan", "ios": "https://dc.lft.to/lastmile_qr_scan"}, "is_disabled": 0, "fusion_lat": 0.0, "name": "cdb218738f8c15fd6eec7b0554d87fb1", "fusion_lon": 0.0}, {"is_reserved": 0, "type": "electric_scooter", "bike_id": "1499d2a8cace0642f417115b67d25ade", "lat": 38.913919166666666, "lon": -77.043367, "rental_uris": {"android": "https://dc.lft.to/lastmile_qr_scan", "ios": "https://dc.lft.to/lastmile_qr_scan"}, "is_disabled": 0, "fusion_lat": 0.0, "name": "1499d2a8cace0642f417115b67d25ade", "fusion_lon": 0.0}, {"is_reserved": 0, "type": "electric_scooter", "bike_id": "2e50f31352be363de15ac32ba850f509", "lat": 38.9151595, "lon": -77.01330033333333, "rental_uris": {"android": "https://dc.lft.to/lastmile_qr_scan", "ios": "https://dc.lft.to/lastmile_qr_scan"}, "is_disabled": 0, "fusion_lat": 0.0, "name": "2e50f31352be363de15ac32ba850f509", "fusion_lon": 0.0}, {"is_reserved": 0, "type": "electric_scooter", "bike_id": "1220873814ea5c8d1bec604577c420b8", "lat": 38.90020483333333, "lon": -77.01182616666667, "rental_uris": {"android": "https://dc.lft.to/lastmile_qr_scan", "ios": "https://dc.lft.to/lastmile_qr_scan"}, "is_disabled": 0, "fusion_lat": 0.0, "name": "1220873814ea5c8d1bec604577c420b8", "fusion_lon": 0.0}, {"is_reserved": 0, "type": "electric_scooter", "bike_id": "b3269a7d8bdd239cd1fcee9582082e8e", "lat": 38.8768275, "lon": -76.99625333333333, "rental_uris": {"android": "https://dc.lft.to/lastmile_qr_scan", "ios": "https://dc.lft.to/lastmile_qr_scan"}, "is_disabled": 0, "fusion_lat": 0.0, "name": "b3269a7d8bdd239cd1fcee9582082e8e", "fusion_lon": 0.0}, {"is_reserved": 0, "type": "electric_scooter", "bike_id": "56b207be1001988d182d7d693ca4e8c7", "lat": 38.926737333333335, "lon": -77.01511466666666, "rental_uris": {"android": "https://dc.lft.to/lastmile_qr_scan", "ios": "https://dc.lft.to/lastmile_qr_scan"}, "is_disabled": 0, "fusion_lat": 0.0, "name": "56b207be1001988d182d7d693ca4e8c7", "fusion_lon": 0.0}, {"is_reserved": 0, "type": "electric_scooter", "bike_id": "ae3b751ad40b5ef206998787095275a7", "lat": 38.939323333333334, "lon": -77.03675333333334, "rental_uris": {"android": "https://dc.lft.to/lastmile_qr_scan", "ios": "https://dc.lft.to/lastmile_qr_scan"}, "is_disabled": 0, "fusion_lat": 0.0, "name": "ae3b751ad40b5ef206998787095275a7", "fusion_lon": 0.0}, {"is_reserved": 0, "type": "electric_scooter", "bike_id": "b485ade547e6fb8543768a9a6dc06410", "lat": 38.90483316666667, "lon": -77.0685855, "rental_uris": {"android": "https://dc.lft.to/lastmile_qr_scan", "ios": "https://dc.lft.to/lastmile_qr_scan"}, "is_disabled": 0, "fusion_lat": 0.0, "name": "b485ade547e6fb8543768a9a6dc06410", "fusion_lon": 0.0}, {"is_reserved": 0, "type": "electric_scooter", "bike_id": "3b9a744e96469f55e356e647a202ff51", "lat": 38.9134075, "lon": -77.041794, "rental_uris": {"android": "https://dc.lft.to/lastmile_qr_scan", "ios": "https://dc.lft.to/lastmile_qr_scan"}, "is_disabled": 0, "fusion_lat": 0.0, "name": "3b9a744e96469f55e356e647a202ff51", "fusion_lon": 0.0}, {"is_reserved": 0, "type": "electric_scooter", "bike_id": "6a08e38921c4735eb90b6153d8deaaeb", "lat": 38.8877205, "lon": -76.93260516666666, "rental_uris": {"android": "https://dc.lft.to/lastmile_qr_scan", "ios": "https://dc.lft.to/lastmile_qr_scan"}, "is_disabled": 0, "fusion_lat": 0.0, "name": "6a08e38921c4735eb90b6153d8deaaeb", "fusion_lon": 0.0}, {"is_reserved": 0, "type": "electric_scooter", "bike_id": "482a817b03daef916d4453ef578d4d4e", "lat": 38.9318255, "lon": -77.02631583333333, "rental_uris": {"android": "https://dc.lft.to/lastmile_qr_scan", "ios": "https://dc.lft.to/lastmile_qr_scan"}, "is_disabled": 0, "fusion_lat": 0.0, "name": "482a817b03daef916d4453ef578d4d4e", "fusion_lon": 0.0}, {"is_reserved": 0, "type": "electric_scooter", "bike_id": "21951a1187b41e34731f8f5e8bb98cff", "lat": 38.916943333333336, "lon": -77.03239416666666, "rental_uris": {"android": "https://dc.lft.to/lastmile_qr_scan", "ios": "https://dc.lft.to/lastmile_qr_scan"}, "is_disabled": 0, "fusion_lat": 0.0, "name": "21951a1187b41e34731f8f5e8bb98cff", "fusion_lon": 0.0}, {"is_reserved": 0, "type": "electric_scooter", "bike_id": "6001bd8ed82ac59160f488182e1231c3", "lat": 38.93048566666667, "lon": -77.023347, "rental_uris": {"android": "https://dc.lft.to/lastmile_qr_scan", "ios": "https://dc.lft.to/lastmile_qr_scan"}, "is_disabled": 0, "fusion_lat": 0.0, "name": "6001bd8ed82ac59160f488182e1231c3", "fusion_lon": 0.0}, {"is_reserved": 0, "type": "electric_scooter", "bike_id": "c85196007d4555edd8c41e41209962d4", "lat": 38.8868445, "lon": -76.99018383333333, "rental_uris": {"android": "https://dc.lft.to/lastmile_qr_scan", "ios": "https://dc.lft.to/lastmile_qr_scan"}, "is_disabled": 0, "fusion_lat": 0.0, "name": "c85196007d4555edd8c41e41209962d4", "fusion_lon": 0.0}, {"is_reserved": 0, "type": "electric_scooter", "bike_id": "84367a7fb2149458d5e23ab68af236de", "lat": 38.917038833333336, "lon": -77.033995, "rental_uris": {"android": "https://dc.lft.to/lastmile_qr_scan", "ios": "https://dc.lft.to/lastmile_qr_scan"}, "is_disabled": 0, "fusion_lat": 0.0, "name": "84367a7fb2149458d5e23ab68af236de", "fusion_lon": 0.0}, {"is_reserved": 0, "type": "electric_scooter", "bike_id": "c86d866a01594b2df7492f1b3acd7af2", "lat": 38.93061816666667, "lon": -77.036913, "rental_uris": {"android": "https://dc.lft.to/lastmile_qr_scan", "ios": "https://dc.lft.to/lastmile_qr_scan"}, "is_disabled": 0, "fusion_lat": 0.0, "name": "c86d866a01594b2df7492f1b3acd7af2", "fusion_lon": 0.0}, {"is_reserved": 0, "type": "electric_scooter", "bike_id": "cf844ad06bfcd6afc9aa73b15149626e", "lat": 38.92142416666667, "lon": -77.01218066666667, "rental_uris": {"android": "https://dc.lft.to/lastmile_qr_scan", "ios": "https://dc.lft.to/lastmile_qr_scan"}, "is_disabled": 0, "fusion_lat": 0.0, "name": "cf844ad06bfcd6afc9aa73b15149626e", "fusion_lon": 0.0}, {"is_reserved": 0, "type": "electric_scooter", "bike_id": "2739e0de86cc11e5d2bfa2af110d1d33", "lat": 38.907174, "lon": -77.04473566666667, "rental_uris": {"android": "https://dc.lft.to/lastmile_qr_scan", "ios": "https://dc.lft.to/lastmile_qr_scan"}, "is_disabled": 0, "fusion_lat": 0.0, "name": "2739e0de86cc11e5d2bfa2af110d1d33", "fusion_lon": 0.0}, {"is_reserved": 0, "type": "electric_scooter", "bike_id": "ec53524a2b66501a7fa0d0f234d57419", "lat": 38.880440166666666, "lon": -77.0256775, "rental_uris": {"android": "https://dc.lft.to/lastmile_qr_scan", "ios": "https://dc.lft.to/lastmile_qr_scan"}, "is_disabled": 0, "fusion_lat": 0.0, "name": "ec53524a2b66501a7fa0d0f234d57419", "fusion_lon": 0.0}, {"is_reserved": 0, "type": "electric_scooter", "bike_id": "d75aa5fedf0d5b06cadbf6e09097549a", "lat": 38.89480866666667, "lon": -76.99558016666667, "rental_uris": {"android": "https://dc.lft.to/lastmile_qr_scan", "ios": "https://dc.lft.to/lastmile_qr_scan"}, "is_disabled": 0, "fusion_lat": 0.0, "name": "d75aa5fedf0d5b06cadbf6e09097549a", "fusion_lon": 0.0}, {"is_reserved": 0, "type": "electric_scooter", "bike_id": "6299f46afb59d75c2cf11bd8ba195c45", "lat": 38.8983325, "lon": -77.02827716666667, "rental_uris": {"android": "https://dc.lft.to/lastmile_qr_scan", "ios": "https://dc.lft.to/lastmile_qr_scan"}, "is_disabled": 0, "fusion_lat": 0.0, "name": "6299f46afb59d75c2cf11bd8ba195c45", "fusion_lon": 0.0}, {"is_reserved": 0, "type": "electric_scooter", "bike_id": "6965d2e35c081f2743eae2d4f2bce026", "lat": 38.9005325, "lon": -77.04428983333334, "rental_uris": {"android": "https://dc.lft.to/lastmile_qr_scan", "ios": "https://dc.lft.to/lastmile_qr_scan"}, "is_disabled": 0, "fusion_lat": 0.0, "name": "6965d2e35c081f2743eae2d4f2bce026", "fusion_lon": 0.0}, {"is_reserved": 0, "type": "electric_scooter", "bike_id": "2df9bdbecba805eb697190c365fd48b8", "lat": 38.90387966666667, "lon": -77.0532515, "rental_uris": {"android": "https://dc.lft.to/lastmile_qr_scan", "ios": "https://dc.lft.to/lastmile_qr_scan"}, "is_disabled": 0, "fusion_lat": 0.0, "name": "2df9bdbecba805eb697190c365fd48b8", "fusion_lon": 0.0}, {"is_reserved": 0, "type": "electric_scooter", "bike_id": "dad6d966972cddd1c49ebf8212aa6101", "lat": 38.89788333333333, "lon": -77.05041266666667, "rental_uris": {"android": "https://dc.lft.to/lastmile_qr_scan", "ios": "https://dc.lft.to/lastmile_qr_scan"}, "is_disabled": 0, "fusion_lat": 0.0, "name": "dad6d966972cddd1c49ebf8212aa6101", "fusion_lon": 0.0}, {"is_reserved": 0, "type": "electric_bike", "bike_id": "46226bfb4f945ca143a49b9fa03e0b46", "lat": 38.899009, "lon": -76.9335695, "rental_uris": {"android": "https://dc.lft.to/lastmile_qr_scan", "ios": "https://dc.lft.to/lastmile_qr_scan"}, "is_disabled": 0, "fusion_lat": 0.0, "name": "46226bfb4f945ca143a49b9fa03e0b46", "fusion_lon": 0.0}, {"is_reserved": 0, "type": "electric_scooter", "bike_id": "da35496cacaa80b0d55910c4d6d1ebb8", "lat": 38.910063666666666, "lon": -77.04006866666667, "rental_uris": {"android": "https://dc.lft.to/lastmile_qr_scan", "ios": "https://dc.lft.to/lastmile_qr_scan"}, "is_disabled": 0, "fusion_lat": 0.0, "name": "da35496cacaa80b0d55910c4d6d1ebb8", "fusion_lon": 0.0}, {"is_reserved": 0, "type": "electric_bike", "bike_id": "e18a54a8919041fa16424328c1ba84e3", "lat": 38.916105333333334, "lon": -77.00284216666667, "rental_uris": {"android": "https://dc.lft.to/lastmile_qr_scan", "ios": "https://dc.lft.to/lastmile_qr_scan"}, "is_disabled": 0, "fusion_lat": 0.0, "name": "e18a54a8919041fa16424328c1ba84e3", "fusion_lon": 0.0}, {"is_reserved": 0, "type": "electric_scooter", "bike_id": "771b7bfafada6db1010fd5699e58deab", "lat": 38.89753116666667, "lon": -77.0020055, "rental_uris": {"android": "https://dc.lft.to/lastmile_qr_scan", "ios": "https://dc.lft.to/lastmile_qr_scan"}, "is_disabled": 0, "fusion_lat": 0.0, "name": "771b7bfafada6db1010fd5699e58deab", "fusion_lon": 0.0}, {"is_reserved": 0, "type": "electric_scooter", "bike_id": "29bd4df38045f4ae41a35aa0d963e1d6", "lat": 38.878177666666666, "lon": -77.022344, "rental_uris": {"android": "https://dc.lft.to/lastmile_qr_scan", "ios": "https://dc.lft.to/lastmile_qr_scan"}, "is_disabled": 0, "fusion_lat": 0.0, "name": "29bd4df38045f4ae41a35aa0d963e1d6", "fusion_lon": 0.0}, {"is_reserved": 0, "type": "electric_scooter", "bike_id": "7ded1375db4a582f9bc92b2904374d0b", "lat": 38.931233666666664, "lon": -77.03614933333333, "rental_uris": {"android": "https://dc.lft.to/lastmile_qr_scan", "ios": "https://dc.lft.to/lastmile_qr_scan"}, "is_disabled": 0, "fusion_lat": 0.0, "name": "7ded1375db4a582f9bc92b2904374d0b", "fusion_lon": 0.0}, {"is_reserved": 0, "type": "electric_scooter", "bike_id": "2b6df6bb914fb2c123bdd2a7b4083231", "lat": 38.923323333333336, "lon": -77.053924, "rental_uris": {"android": "https://dc.lft.to/lastmile_qr_scan", "ios": "https://dc.lft.to/lastmile_qr_scan"}, "is_disabled": 0, "fusion_lat": 0.0, "name": "2b6df6bb914fb2c123bdd2a7b4083231", "fusion_lon": 0.0}, {"is_reserved": 0, "type": "electric_scooter", "bike_id": "88cb93a9c1a6352ad2544ee768feed4d", "lat": 38.9388065, "lon": -77.02456066666667, "rental_uris": {"android": "https://dc.lft.to/lastmile_qr_scan", "ios": "https://dc.lft.to/lastmile_qr_scan"}, "is_disabled": 0, "fusion_lat": 0.0, "name": "88cb93a9c1a6352ad2544ee768feed4d", "fusion_lon": 0.0}, {"is_reserved": 0, "type": "electric_scooter", "bike_id": "0b9855e58f38b77b220fb0ce7cb39243", "lat": 38.901826166666666, "lon": -77.02457083333333, "rental_uris": {"android": "https://dc.lft.to/lastmile_qr_scan", "ios": "https://dc.lft.to/lastmile_qr_scan"}, "is_disabled": 0, "fusion_lat": 0.0, "name": "0b9855e58f38b77b220fb0ce7cb39243", "fusion_lon": 0.0}, {"is_reserved": 0, "type": "electric_scooter", "bike_id": "08ef526da5b6bb0aea93549ac41063fc", "lat": 38.92362283333333, "lon": -77.04116966666666, "rental_uris": {"android": "https://dc.lft.to/lastmile_qr_scan", "ios": "https://dc.lft.to/lastmile_qr_scan"}, "is_disabled": 0, "fusion_lat": 0.0, "name": "08ef526da5b6bb0aea93549ac41063fc", "fusion_lon": 0.0}, {"is_reserved": 0, "type": "electric_scooter", "bike_id": "2077a3806765ceb082645f86cb38fd0e", "lat": 38.9240415, "lon": -77.02968133333333, "rental_uris": {"android": "https://dc.lft.to/lastmile_qr_scan", "ios": "https://dc.lft.to/lastmile_qr_scan"}, "is_disabled": 0, "fusion_lat": 0.0, "name": "2077a3806765ceb082645f86cb38fd0e", "fusion_lon": 0.0}, {"is_reserved": 0, "type": "electric_scooter", "bike_id": "f134773070a48e559d691ada4cffda61", "lat": 38.876597833333335, "lon": -77.00745183333333, "rental_uris": {"android": "https://dc.lft.to/lastmile_qr_scan", "ios": "https://dc.lft.to/lastmile_qr_scan"}, "is_disabled": 0, "fusion_lat": 0.0, "name": "f134773070a48e559d691ada4cffda61", "fusion_lon": 0.0}, {"is_reserved": 0, "type": "electric_scooter", "bike_id": "d489a64570487dbfeccb5d5397dd6a14", "lat": 38.92018783333333, "lon": -77.01063066666667, "rental_uris": {"android": "https://dc.lft.to/lastmile_qr_scan", "ios": "https://dc.lft.to/lastmile_qr_scan"}, "is_disabled": 0, "fusion_lat": 0.0, "name": "d489a64570487dbfeccb5d5397dd6a14", "fusion_lon": 0.0}, {"is_reserved": 0, "type": "electric_scooter", "bike_id": "6db763b869081133082a8757e9520d93", "lat": 38.93462783333333, "lon": -77.05805066666667, "rental_uris": {"android": "https://dc.lft.to/lastmile_qr_scan", "ios": "https://dc.lft.to/lastmile_qr_scan"}, "is_disabled": 0, "fusion_lat": 0.0, "name": "6db763b869081133082a8757e9520d93", "fusion_lon": 0.0}, {"is_reserved": 0, "type": "electric_scooter", "bike_id": "746f36504fa5f8b53cae2124d379983e", "lat": 38.922443666666666, "lon": -77.035161, "rental_uris": {"android": "https://dc.lft.to/lastmile_qr_scan", "ios": "https://dc.lft.to/lastmile_qr_scan"}, "is_disabled": 0, "fusion_lat": 0.0, "name": "746f36504fa5f8b53cae2124d379983e", "fusion_lon": 0.0}, {"is_reserved": 0, "type": "electric_scooter", "bike_id": "44c0abb9210c5e2a5f4abf7debc24cbb", "lat": 38.921246, "lon": -77.0180675, "rental_uris": {"android": "https://dc.lft.to/lastmile_qr_scan", "ios": "https://dc.lft.to/lastmile_qr_scan"}, "is_disabled": 0, "fusion_lat": 0.0, "name": "44c0abb9210c5e2a5f4abf7debc24cbb", "fusion_lon": 0.0}, {"is_reserved": 0, "type": "electric_scooter", "bike_id": "c3f2114c1e8ad6616f1f007e35ee57e1", "lat": 38.91084, "lon": -77.02195166666667, "rental_uris": {"android": "https://dc.lft.to/lastmile_qr_scan", "ios": "https://dc.lft.to/lastmile_qr_scan"}, "is_disabled": 0, "fusion_lat": 0.0, "name": "c3f2114c1e8ad6616f1f007e35ee57e1", "fusion_lon": 0.0}, {"is_reserved": 0, "type": "electric_scooter", "bike_id": "ae39d1cdb84198d7abdcc4677162281f", "lat": 38.926787833333336, "lon": -77.0073585, "rental_uris": {"android": "https://dc.lft.to/lastmile_qr_scan", "ios": "https://dc.lft.to/lastmile_qr_scan"}, "is_disabled": 0, "fusion_lat": 0.0, "name": "ae39d1cdb84198d7abdcc4677162281f", "fusion_lon": 0.0}, {"is_reserved": 0, "type": "electric_scooter", "bike_id": "726aa52b97137d12928c812ecc440409", "lat": 38.90602066666667, "lon": -77.0067195, "rental_uris": {"android": "https://dc.lft.to/lastmile_qr_scan", "ios": "https://dc.lft.to/lastmile_qr_scan"}, "is_disabled": 0, "fusion_lat": 0.0, "name": "726aa52b97137d12928c812ecc440409", "fusion_lon": 0.0}, {"is_reserved": 0, "type": "electric_scooter", "bike_id": "013c1a0b215e952bb8af29b712f367b8", "lat": 38.925525666666665, "lon": -77.04325, "rental_uris": {"android": "https://dc.lft.to/lastmile_qr_scan", "ios": "https://dc.lft.to/lastmile_qr_scan"}, "is_disabled": 0, "fusion_lat": 0.0, "name": "013c1a0b215e952bb8af29b712f367b8", "fusion_lon": 0.0}, {"is_reserved": 0, "type": "electric_scooter", "bike_id": "44148ce865371f43eb09e5e8c7d72e4e", "lat": 38.897307, "lon": -77.04991166666667, "rental_uris": {"android": "https://dc.lft.to/lastmile_qr_scan", "ios": "https://dc.lft.to/lastmile_qr_scan"}, "is_disabled": 0, "fusion_lat": 0.0, "name": "44148ce865371f43eb09e5e8c7d72e4e", "fusion_lon": 0.0}, {"is_reserved": 0, "type": "electric_scooter", "bike_id": "340300eaea2e89dcfc9a6794f98649e1", "lat": 38.8996595, "lon": -77.03920316666667, "rental_uris": {"android": "https://dc.lft.to/lastmile_qr_scan", "ios": "https://dc.lft.to/lastmile_qr_scan"}, "is_disabled": 0, "fusion_lat": 0.0, "name": "340300eaea2e89dcfc9a6794f98649e1", "fusion_lon": 0.0}, {"is_reserved": 0, "type": "electric_scooter", "bike_id": "368ba3c7820d202225d7b65a03cdeb9f", "lat": 38.90368633333333, "lon": -77.02571266666666, "rental_uris": {"android": "https://dc.lft.to/lastmile_qr_scan", "ios": "https://dc.lft.to/lastmile_qr_scan"}, "is_disabled": 0, "fusion_lat": 0.0, "name": "368ba3c7820d202225d7b65a03cdeb9f", "fusion_lon": 0.0}, {"is_reserved": 0, "type": "electric_scooter", "bike_id": "9aa2caec0bf93d7acc17f5e16561d70c", "lat": 38.920085, "lon": -77.031828, "rental_uris": {"android": "https://dc.lft.to/lastmile_qr_scan", "ios": "https://dc.lft.to/lastmile_qr_scan"}, "is_disabled": 0, "fusion_lat": 0.0, "name": "9aa2caec0bf93d7acc17f5e16561d70c", "fusion_lon": 0.0}, {"is_reserved": 0, "type": "electric_scooter", "bike_id": "c3002415bf143340492fd237b63168e4", "lat": 38.896104333333334, "lon": -76.97680066666666, "rental_uris": {"android": "https://dc.lft.to/lastmile_qr_scan", "ios": "https://dc.lft.to/lastmile_qr_scan"}, "is_disabled": 0, "fusion_lat": 0.0, "name": "c3002415bf143340492fd237b63168e4", "fusion_lon": 0.0}, {"is_reserved": 0, "type": "electric_scooter", "bike_id": "0150ebd1c5e5e6347814db9cb0f7092c", "lat": 38.896689, "lon": -76.93211816666667, "rental_uris": {"android": "https://dc.lft.to/lastmile_qr_scan", "ios": "https://dc.lft.to/lastmile_qr_scan"}, "is_disabled": 0, "fusion_lat": 0.0, "name": "0150ebd1c5e5e6347814db9cb0f7092c", "fusion_lon": 0.0}, {"is_reserved": 0, "type": "electric_scooter", "bike_id": "1107e6ae0f12e3d3eebb892c8b3a1609", "lat": 38.88395583333333, "lon": -76.93041633333333, "rental_uris": {"android": "https://dc.lft.to/lastmile_qr_scan", "ios": "https://dc.lft.to/lastmile_qr_scan"}, "is_disabled": 0, "fusion_lat": 0.0, "name": "1107e6ae0f12e3d3eebb892c8b3a1609", "fusion_lon": 0.0}, {"is_reserved": 0, "type": "electric_scooter", "bike_id": "5a9719193f970fea461dcf19aa342acb", "lat": 38.89269483333333, "lon": -76.93000883333333, "rental_uris": {"android": "https://dc.lft.to/lastmile_qr_scan", "ios": "https://dc.lft.to/lastmile_qr_scan"}, "is_disabled": 0, "fusion_lat": 0.0, "name": "5a9719193f970fea461dcf19aa342acb", "fusion_lon": 0.0}, {"is_reserved": 0, "type": "electric_scooter", "bike_id": "63091dab46db26370b8b1d378639b2c1", "lat": 38.91480516666667, "lon": -77.00231733333334, "rental_uris": {"android": "https://dc.lft.to/lastmile_qr_scan", "ios": "https://dc.lft.to/lastmile_qr_scan"}, "is_disabled": 0, "fusion_lat": 0.0, "name": "63091dab46db26370b8b1d378639b2c1", "fusion_lon": 0.0}, {"is_reserved": 0, "type": "electric_scooter", "bike_id": "dd63ea6fa59f2f9879e2bc0394c539e5", "lat": 38.900262, "lon": -77.00196266666667, "rental_uris": {"android": "https://dc.lft.to/lastmile_qr_scan", "ios": "https://dc.lft.to/lastmile_qr_scan"}, "is_disabled": 0, "fusion_lat": 0.0, "name": "dd63ea6fa59f2f9879e2bc0394c539e5", "fusion_lon": 0.0}, {"is_reserved": 0, "type": "electric_scooter", "bike_id": "51d49090b3fb4e83023dd76c0a1390cc", "lat": 38.91571883333334, "lon": -77.03641816666666, "rental_uris": {"android": "https://dc.lft.to/lastmile_qr_scan", "ios": "https://dc.lft.to/lastmile_qr_scan"}, "is_disabled": 0, "fusion_lat": 0.0, "name": "51d49090b3fb4e83023dd76c0a1390cc", "fusion_lon": 0.0}, {"is_reserved": 0, "type": "electric_scooter", "bike_id": "dbb97bdd395ad8bdbdc35c800bacf0a3", "lat": 38.92181716666666, "lon": -76.99836, "rental_uris": {"android": "https://dc.lft.to/lastmile_qr_scan", "ios": "https://dc.lft.to/lastmile_qr_scan"}, "is_disabled": 0, "fusion_lat": 0.0, "name": "dbb97bdd395ad8bdbdc35c800bacf0a3", "fusion_lon": 0.0}, {"is_reserved": 0, "type": "electric_scooter", "bike_id": "f9006cc9f5240a36768bb0ff00e67180", "lat": 38.86573883333333, "lon": -76.9903555, "rental_uris": {"android": "https://dc.lft.to/lastmile_qr_scan", "ios": "https://dc.lft.to/lastmile_qr_scan"}, "is_disabled": 0, "fusion_lat": 0.0, "name": "f9006cc9f5240a36768bb0ff00e67180", "fusion_lon": 0.0}, {"is_reserved": 0, "type": "electric_scooter", "bike_id": "5e982bf33a0f78309c4e4a3180c823dd", "lat": 38.915942, "lon": -77.02192916666667, "rental_uris": {"android": "https://dc.lft.to/lastmile_qr_scan", "ios": "https://dc.lft.to/lastmile_qr_scan"}, "is_disabled": 0, "fusion_lat": 0.0, "name": "5e982bf33a0f78309c4e4a3180c823dd", "fusion_lon": 0.0}, {"is_reserved": 0, "type": "electric_scooter", "bike_id": "9de2224f14d2244e31e071ecd195870d", "lat": 38.92435033333334, "lon": -77.02030416666666, "rental_uris": {"android": "https://dc.lft.to/lastmile_qr_scan", "ios": "https://dc.lft.to/lastmile_qr_scan"}, "is_disabled": 0, "fusion_lat": 0.0, "name": "9de2224f14d2244e31e071ecd195870d", "fusion_lon": 0.0}, {"is_reserved": 0, "type": "electric_scooter", "bike_id": "580d68ce04b48465a01e80dad892f7ec", "lat": 38.956269, "lon": -77.03559933333334, "rental_uris": {"android": "https://dc.lft.to/lastmile_qr_scan", "ios": "https://dc.lft.to/lastmile_qr_scan"}, "is_disabled": 0, "fusion_lat": 0.0, "name": "580d68ce04b48465a01e80dad892f7ec", "fusion_lon": 0.0}, {"is_reserved": 0, "type": "electric_scooter", "bike_id": "a759e3befb6de90f9196e67841cb2a73", "lat": 38.90016383333333, "lon": -77.00675033333333, "rental_uris": {"android": "https://dc.lft.to/lastmile_qr_scan", "ios": "https://dc.lft.to/lastmile_qr_scan"}, "is_disabled": 0, "fusion_lat": 0.0, "name": "a759e3befb6de90f9196e67841cb2a73", "fusion_lon": 0.0}, {"is_reserved": 0, "type": "electric_scooter", "bike_id": "d8bc18cf7b0cdf00fd0dfccc1b34adec", "lat": 38.898447, "lon": -77.02277316666667, "rental_uris": {"android": "https://dc.lft.to/lastmile_qr_scan", "ios": "https://dc.lft.to/lastmile_qr_scan"}, "is_disabled": 0, "fusion_lat": 0.0, "name": "d8bc18cf7b0cdf00fd0dfccc1b34adec", "fusion_lon": 0.0}, {"is_reserved": 0, "type": "electric_scooter", "bike_id": "2616f73d480804d724e4003091c1171c", "lat": 38.917672833333334, "lon": -77.040431, "rental_uris": {"android": "https://dc.lft.to/lastmile_qr_scan", "ios": "https://dc.lft.to/lastmile_qr_scan"}, "is_disabled": 0, "fusion_lat": 0.0, "name": "2616f73d480804d724e4003091c1171c", "fusion_lon": 0.0}, {"is_reserved": 0, "type": "electric_scooter", "bike_id": "fee1abd97f87ef2aeed13ee7c2b7052c", "lat": 38.92445983333333, "lon": -77.02133483333333, "rental_uris": {"android": "https://dc.lft.to/lastmile_qr_scan", "ios": "https://dc.lft.to/lastmile_qr_scan"}, "is_disabled": 0, "fusion_lat": 0.0, "name": "fee1abd97f87ef2aeed13ee7c2b7052c", "fusion_lon": 0.0}, {"is_reserved": 0, "type": "electric_bike", "bike_id": "5cbd4a7081e8cc67667c7e669d33566b", "lat": 38.931034333333336, "lon": -77.0382395, "rental_uris": {"android": "https://dc.lft.to/lastmile_qr_scan", "ios": "https://dc.lft.to/lastmile_qr_scan"}, "is_disabled": 0, "fusion_lat": 0.0, "name": "5cbd4a7081e8cc67667c7e669d33566b", "fusion_lon": 0.0}, {"is_reserved": 0, "type": "electric_scooter", "bike_id": "9532c2fabf5c913e5121a2e76e2db9b7", "lat": 38.92334866666667, "lon": -77.02964933333334, "rental_uris": {"android": "https://dc.lft.to/lastmile_qr_scan", "ios": "https://dc.lft.to/lastmile_qr_scan"}, "is_disabled": 0, "fusion_lat": 0.0, "name": "9532c2fabf5c913e5121a2e76e2db9b7", "fusion_lon": 0.0}, {"is_reserved": 0, "type": "electric_scooter", "bike_id": "a7076371a4a78fad7e1d18d39a6e79a4", "lat": 38.9273175, "lon": -77.05246566666666, "rental_uris": {"android": "https://dc.lft.to/lastmile_qr_scan", "ios": "https://dc.lft.to/lastmile_qr_scan"}, "is_disabled": 0, "fusion_lat": 0.0, "name": "a7076371a4a78fad7e1d18d39a6e79a4", "fusion_lon": 0.0}, {"is_reserved": 0, "type": "electric_bike", "bike_id": "a7a2225457a6f30b381fe0e82d9d87ad", "lat": 38.91684633333333, "lon": -77.00062183333333, "rental_uris": {"android": "https://dc.lft.to/lastmile_qr_scan", "ios": "https://dc.lft.to/lastmile_qr_scan"}, "is_disabled": 0, "fusion_lat": 0.0, "name": "a7a2225457a6f30b381fe0e82d9d87ad", "fusion_lon": 0.0}, {"is_reserved": 0, "type": "electric_scooter", "bike_id": "3a9dde785b40afd4644a69331ab2007a", "lat": 38.91909233333333, "lon": -77.03386216666667, "rental_uris": {"android": "https://dc.lft.to/lastmile_qr_scan", "ios": "https://dc.lft.to/lastmile_qr_scan"}, "is_disabled": 0, "fusion_lat": 0.0, "name": "3a9dde785b40afd4644a69331ab2007a", "fusion_lon": 0.0}, {"is_reserved": 0, "type": "electric_scooter", "bike_id": "1b13170598af08653a4723b036b5c3f8", "lat": 38.927769166666664, "lon": -77.05255183333334, "rental_uris": {"android": "https://dc.lft.to/lastmile_qr_scan", "ios": "https://dc.lft.to/lastmile_qr_scan"}, "is_disabled": 0, "fusion_lat": 0.0, "name": "1b13170598af08653a4723b036b5c3f8", "fusion_lon": 0.0}, {"is_reserved": 0, "type": "electric_scooter", "bike_id": "7aedbb57d07482247f9f5f5c6745adf0", "lat": 38.90783883333334, "lon": -77.00004716666666, "rental_uris": {"android": "https://dc.lft.to/lastmile_qr_scan", "ios": "https://dc.lft.to/lastmile_qr_scan"}, "is_disabled": 0, "fusion_lat": 0.0, "name": "7aedbb57d07482247f9f5f5c6745adf0", "fusion_lon": 0.0}, {"is_reserved": 0, "type": "electric_scooter", "bike_id": "fa486ce90984db5b7b52e73a843bdd87", "lat": 38.932438166666664, "lon": -76.9950095, "rental_uris": {"android": "https://dc.lft.to/lastmile_qr_scan", "ios": "https://dc.lft.to/lastmile_qr_scan"}, "is_disabled": 0, "fusion_lat": 0.0, "name": "fa486ce90984db5b7b52e73a843bdd87", "fusion_lon": 0.0}, {"is_reserved": 0, "type": "electric_scooter", "bike_id": "87eaa8f39937790661dbcebf54a6b11c", "lat": 38.9497845, "lon": -77.02015116666666, "rental_uris": {"android": "https://dc.lft.to/lastmile_qr_scan", "ios": "https://dc.lft.to/lastmile_qr_scan"}, "is_disabled": 0, "fusion_lat": 0.0, "name": "87eaa8f39937790661dbcebf54a6b11c", "fusion_lon": 0.0}, {"is_reserved": 0, "type": "electric_scooter", "bike_id": "420975d762fc97962036cf9707ee4abd", "lat": 38.92084783333333, "lon": -77.01365, "rental_uris": {"android": "https://dc.lft.to/lastmile_qr_scan", "ios": "https://dc.lft.to/lastmile_qr_scan"}, "is_disabled": 0, "fusion_lat": 0.0, "name": "420975d762fc97962036cf9707ee4abd", "fusion_lon": 0.0}, {"is_reserved": 0, "type": "electric_scooter", "bike_id": "a15f4342dbb346348a0aaa39eb848c5b", "lat": 38.925757, "lon": -76.9951, "rental_uris": {"android": "https://dc.lft.to/lastmile_qr_scan", "ios": "https://dc.lft.to/lastmile_qr_scan"}, "is_disabled": 0, "fusion_lat": 0.0, "name": "a15f4342dbb346348a0aaa39eb848c5b", "fusion_lon": 0.0}, {"is_reserved": 0, "type": "electric_scooter", "bike_id": "337e4c145f698fd059c407e4f25c4c12", "lat": 38.91651066666667, "lon": -77.02277166666667, "rental_uris": {"android": "https://dc.lft.to/lastmile_qr_scan", "ios": "https://dc.lft.to/lastmile_qr_scan"}, "is_disabled": 0, "fusion_lat": 0.0, "name": "337e4c145f698fd059c407e4f25c4c12", "fusion_lon": 0.0}, {"is_reserved": 0, "type": "electric_scooter", "bike_id": "1f4e96459ddbc5dc8697fb69d0c81eab", "lat": 38.92318916666667, "lon": -77.04131016666666, "rental_uris": {"android": "https://dc.lft.to/lastmile_qr_scan", "ios": "https://dc.lft.to/lastmile_qr_scan"}, "is_disabled": 0, "fusion_lat": 0.0, "name": "1f4e96459ddbc5dc8697fb69d0c81eab", "fusion_lon": 0.0}, {"is_reserved": 0, "type": "electric_scooter", "bike_id": "ef403090b08d760792673ee8e4641fa6", "lat": 38.91268766666666, "lon": -77.03713933333333, "rental_uris": {"android": "https://dc.lft.to/lastmile_qr_scan", "ios": "https://dc.lft.to/lastmile_qr_scan"}, "is_disabled": 0, "fusion_lat": 0.0, "name": "ef403090b08d760792673ee8e4641fa6", "fusion_lon": 0.0}, {"is_reserved": 0, "type": "electric_bike", "bike_id": "32f3484ee6464c59013e275c072860b0", "lat": 38.8824245, "lon": -76.96257116666666, "rental_uris": {"android": "https://dc.lft.to/lastmile_qr_scan", "ios": "https://dc.lft.to/lastmile_qr_scan"}, "is_disabled": 0, "fusion_lat": 0.0, "name": "32f3484ee6464c59013e275c072860b0", "fusion_lon": 0.0}, {"is_reserved": 0, "type": "electric_scooter", "bike_id": "108fab36f880f460bdad894311d031f1", "lat": 38.890111833333336, "lon": -77.03320683333334, "rental_uris": {"android": "https://dc.lft.to/lastmile_qr_scan", "ios": "https://dc.lft.to/lastmile_qr_scan"}, "is_disabled": 0, "fusion_lat": 0.0, "name": "108fab36f880f460bdad894311d031f1", "fusion_lon": 0.0}, {"is_reserved": 0, "type": "electric_scooter", "bike_id": "20eb2f3e9fd2b955162e3fe523e2737a", "lat": 38.889874666666664, "lon": -77.00071666666666, "rental_uris": {"android": "https://dc.lft.to/lastmile_qr_scan", "ios": "https://dc.lft.to/lastmile_qr_scan"}, "is_disabled": 0, "fusion_lat": 0.0, "name": "20eb2f3e9fd2b955162e3fe523e2737a", "fusion_lon": 0.0}, {"is_reserved": 0, "type": "electric_bike", "bike_id": "82d040e5330c06efef78d89e19f3974b", "lat": 38.91859566666667, "lon": -76.960862, "rental_uris": {"android": "https://dc.lft.to/lastmile_qr_scan", "ios": "https://dc.lft.to/lastmile_qr_scan"}, "is_disabled": 0, "fusion_lat": 0.0, "name": "82d040e5330c06efef78d89e19f3974b", "fusion_lon": 0.0}, {"is_reserved": 0, "type": "electric_scooter", "bike_id": "c1d684d9045bdfb503edfb84b1e2dff7", "lat": 38.90401766666667, "lon": -77.067807, "rental_uris": {"android": "https://dc.lft.to/lastmile_qr_scan", "ios": "https://dc.lft.to/lastmile_qr_scan"}, "is_disabled": 0, "fusion_lat": 0.0, "name": "c1d684d9045bdfb503edfb84b1e2dff7", "fusion_lon": 0.0}, {"is_reserved": 0, "type": "electric_bike", "bike_id": "00fc2eb4bd15ddb2dde16a6e92007442", "lat": 38.85419483333333, "lon": -77.08363033333333, "rental_uris": {"android": "https://dc.lft.to/lastmile_qr_scan", "ios": "https://dc.lft.to/lastmile_qr_scan"}, "is_disabled": 0, "fusion_lat": 0.0, "name": "00fc2eb4bd15ddb2dde16a6e92007442", "fusion_lon": 0.0}, {"is_reserved": 0, "type": "electric_scooter", "bike_id": "69e6b4cf015c96f5a17dd0051e56aabd", "lat": 38.92411333333333, "lon": -77.02007266666666, "rental_uris": {"android": "https://dc.lft.to/lastmile_qr_scan", "ios": "https://dc.lft.to/lastmile_qr_scan"}, "is_disabled": 0, "fusion_lat": 0.0, "name": "69e6b4cf015c96f5a17dd0051e56aabd", "fusion_lon": 0.0}, {"is_reserved": 0, "type": "electric_scooter", "bike_id": "d822213ba402d522d39cfb5be402e028", "lat": 38.9295755, "lon": -77.0324515, "rental_uris": {"android": "https://dc.lft.to/lastmile_qr_scan", "ios": "https://dc.lft.to/lastmile_qr_scan"}, "is_disabled": 0, "fusion_lat": 0.0, "name": "d822213ba402d522d39cfb5be402e028", "fusion_lon": 0.0}, {"is_reserved": 0, "type": "electric_scooter", "bike_id": "55059f3d4e83ff7e50f7baf76c591e76", "lat": 38.925211166666664, "lon": -77.05055683333333, "rental_uris": {"android": "https://dc.lft.to/lastmile_qr_scan", "ios": "https://dc.lft.to/lastmile_qr_scan"}, "is_disabled": 0, "fusion_lat": 0.0, "name": "55059f3d4e83ff7e50f7baf76c591e76", "fusion_lon": 0.0}, {"is_reserved": 0, "type": "electric_bike", "bike_id": "9407e527d3a5553230939dd521fffb2a", "lat": 38.863328333333335, "lon": -76.98721766666667, "rental_uris": {"android": "https://dc.lft.to/lastmile_qr_scan", "ios": "https://dc.lft.to/lastmile_qr_scan"}, "is_disabled": 0, "fusion_lat": 0.0, "name": "9407e527d3a5553230939dd521fffb2a", "fusion_lon": 0.0}, {"is_reserved": 0, "type": "electric_bike", "bike_id": "46924195e4600d756532d2864fba0771", "lat": 38.86998966666667, "lon": -77.22986066666667, "rental_uris": {"android": "https://dc.lft.to/lastmile_qr_scan", "ios": "https://dc.lft.to/lastmile_qr_scan"}, "is_disabled": 0, "fusion_lat": 0.0, "name": "46924195e4600d756532d2864fba0771", "fusion_lon": 0.0}, {"is_reserved": 0, "type": "electric_scooter", "bike_id": "c1fa6f257f031f4211223d4bbf2cb8b7", "lat": 38.902596, "lon": -77.0277845, "rental_uris": {"android": "https://dc.lft.to/lastmile_qr_scan", "ios": "https://dc.lft.to/lastmile_qr_scan"}, "is_disabled": 0, "fusion_lat": 0.0, "name": "c1fa6f257f031f4211223d4bbf2cb8b7", "fusion_lon": 0.0}, {"is_reserved": 0, "type": "electric_scooter", "bike_id": "fb3c297e252a5f1b27697aceadb24a63", "lat": 38.911006, "lon": -77.04349466666666, "rental_uris": {"android": "https://dc.lft.to/lastmile_qr_scan", "ios": "https://dc.lft.to/lastmile_qr_scan"}, "is_disabled": 0, "fusion_lat": 0.0, "name": "fb3c297e252a5f1b27697aceadb24a63", "fusion_lon": 0.0}, {"is_reserved": 0, "type": "electric_scooter", "bike_id": "7b2495ec0e49c0e45c843faf219253ff", "lat": 38.901568166666664, "lon": -76.98068866666667, "rental_uris": {"android": "https://dc.lft.to/lastmile_qr_scan", "ios": "https://dc.lft.to/lastmile_qr_scan"}, "is_disabled": 0, "fusion_lat": 0.0, "name": "7b2495ec0e49c0e45c843faf219253ff", "fusion_lon": 0.0}, {"is_reserved": 0, "type": "electric_scooter", "bike_id": "9dfd018d222a811590632f0b24c49574", "lat": 38.89945266666667, "lon": -76.97923016666667, "rental_uris": {"android": "https://dc.lft.to/lastmile_qr_scan", "ios": "https://dc.lft.to/lastmile_qr_scan"}, "is_disabled": 0, "fusion_lat": 0.0, "name": "9dfd018d222a811590632f0b24c49574", "fusion_lon": 0.0}, {"is_reserved": 0, "type": "electric_scooter", "bike_id": "a9af336a1286bc5dd62ff7f6cd65d58e", "lat": 38.90691783333333, "lon": -76.98353683333333, "rental_uris": {"android": "https://dc.lft.to/lastmile_qr_scan", "ios": "https://dc.lft.to/lastmile_qr_scan"}, "is_disabled": 0, "fusion_lat": 0.0, "name": "a9af336a1286bc5dd62ff7f6cd65d58e", "fusion_lon": 0.0}, {"is_reserved": 0, "type": "electric_scooter", "bike_id": "7111c8204d4ca09c46539e30c6554cf0", "lat": 38.911738666666665, "lon": -77.03865516666667, "rental_uris": {"android": "https://dc.lft.to/lastmile_qr_scan", "ios": "https://dc.lft.to/lastmile_qr_scan"}, "is_disabled": 0, "fusion_lat": 0.0, "name": "7111c8204d4ca09c46539e30c6554cf0", "fusion_lon": 0.0}, {"is_reserved": 0, "type": "electric_scooter", "bike_id": "97b3b3e766929fa842a410cfdb1f2cee", "lat": 38.928203333333336, "lon": -77.023228, "rental_uris": {"android": "https://dc.lft.to/lastmile_qr_scan", "ios": "https://dc.lft.to/lastmile_qr_scan"}, "is_disabled": 0, "fusion_lat": 0.0, "name": "97b3b3e766929fa842a410cfdb1f2cee", "fusion_lon": 0.0}, {"is_reserved": 0, "type": "electric_scooter", "bike_id": "087df55fc78987cdc8880904e13c32ec", "lat": 38.9202725, "lon": -77.03111383333334, "rental_uris": {"android": "https://dc.lft.to/lastmile_qr_scan", "ios": "https://dc.lft.to/lastmile_qr_scan"}, "is_disabled": 0, "fusion_lat": 0.0, "name": "087df55fc78987cdc8880904e13c32ec", "fusion_lon": 0.0}, {"is_reserved": 0, "type": "electric_scooter", "bike_id": "5fe760362098a8e7d1812943bc2c2d9a", "lat": 38.9205965, "lon": -77.03413966666666, "rental_uris": {"android": "https://dc.lft.to/lastmile_qr_scan", "ios": "https://dc.lft.to/lastmile_qr_scan"}, "is_disabled": 0, "fusion_lat": 0.0, "name": "5fe760362098a8e7d1812943bc2c2d9a", "fusion_lon": 0.0}, {"is_reserved": 0, "type": "electric_scooter", "bike_id": "b5ba530a3533381df84b62c289c67548", "lat": 38.9352955, "lon": -77.01939533333334, "rental_uris": {"android": "https://dc.lft.to/lastmile_qr_scan", "ios": "https://dc.lft.to/lastmile_qr_scan"}, "is_disabled": 0, "fusion_lat": 0.0, "name": "b5ba530a3533381df84b62c289c67548", "fusion_lon": 0.0}, {"is_reserved": 0, "type": "electric_scooter", "bike_id": "30cca3cc164ce03656a3d8b81728d4f7", "lat": 38.871355, "lon": -77.01354916666666, "rental_uris": {"android": "https://dc.lft.to/lastmile_qr_scan", "ios": "https://dc.lft.to/lastmile_qr_scan"}, "is_disabled": 0, "fusion_lat": 0.0, "name": "30cca3cc164ce03656a3d8b81728d4f7", "fusion_lon": 0.0}, {"is_reserved": 0, "type": "electric_scooter", "bike_id": "e7ca030e7176ec92f49066455231e0f1", "lat": 38.912705, "lon": -77.035028, "rental_uris": {"android": "https://dc.lft.to/lastmile_qr_scan", "ios": "https://dc.lft.to/lastmile_qr_scan"}, "is_disabled": 0, "fusion_lat": 0.0, "name": "e7ca030e7176ec92f49066455231e0f1", "fusion_lon": 0.0}, {"is_reserved": 0, "type": "electric_bike", "bike_id": "439d47d9775a187486c707c04a890e34", "lat": 38.92760033333333, "lon": -77.0451705, "rental_uris": {"android": "https://dc.lft.to/lastmile_qr_scan", "ios": "https://dc.lft.to/lastmile_qr_scan"}, "is_disabled": 0, "fusion_lat": 0.0, "name": "439d47d9775a187486c707c04a890e34", "fusion_lon": 0.0}, {"is_reserved": 0, "type": "electric_scooter", "bike_id": "be33cba3e8c9a089c8bbe023ed0b01f9", "lat": 38.9407645, "lon": -77.02908333333333, "rental_uris": {"android": "https://dc.lft.to/lastmile_qr_scan", "ios": "https://dc.lft.to/lastmile_qr_scan"}, "is_disabled": 0, "fusion_lat": 0.0, "name": "be33cba3e8c9a089c8bbe023ed0b01f9", "fusion_lon": 0.0}, {"is_reserved": 0, "type": "electric_scooter", "bike_id": "688aafe8cc6cd24932c70d75fe6e1edd", "lat": 38.905454666666664, "lon": -76.98466183333333, "rental_uris": {"android": "https://dc.lft.to/lastmile_qr_scan", "ios": "https://dc.lft.to/lastmile_qr_scan"}, "is_disabled": 0, "fusion_lat": 0.0, "name": "688aafe8cc6cd24932c70d75fe6e1edd", "fusion_lon": 0.0}, {"is_reserved": 0, "type": "electric_scooter", "bike_id": "b920a0e2cd37bb2852d83ae2287bca63", "lat": 38.914786166666666, "lon": -77.0183065, "rental_uris": {"android": "https://dc.lft.to/lastmile_qr_scan", "ios": "https://dc.lft.to/lastmile_qr_scan"}, "is_disabled": 0, "fusion_lat": 0.0, "name": "b920a0e2cd37bb2852d83ae2287bca63", "fusion_lon": 0.0}, {"is_reserved": 0, "type": "electric_scooter", "bike_id": "140e85dd0474b0fa10242aaa908da495", "lat": 38.887226166666665, "lon": -77.0138065, "rental_uris": {"android": "https://dc.lft.to/lastmile_qr_scan", "ios": "https://dc.lft.to/lastmile_qr_scan"}, "is_disabled": 0, "fusion_lat": 0.0, "name": "140e85dd0474b0fa10242aaa908da495", "fusion_lon": 0.0}, {"is_reserved": 0, "type": "electric_bike", "bike_id": "d7dfea68be1e19596e342eff7bf5bbe7", "lat": 38.845598833333334, "lon": -76.9705575, "rental_uris": {"android": "https://dc.lft.to/lastmile_qr_scan", "ios": "https://dc.lft.to/lastmile_qr_scan"}, "is_disabled": 0, "fusion_lat": 0.0, "name": "d7dfea68be1e19596e342eff7bf5bbe7", "fusion_lon": 0.0}, {"is_reserved": 0, "type": "electric_scooter", "bike_id": "260094ca5ed74dc7141d626d8168864b", "lat": 38.91902366666667, "lon": -77.0281545, "rental_uris": {"android": "https://dc.lft.to/lastmile_qr_scan", "ios": "https://dc.lft.to/lastmile_qr_scan"}, "is_disabled": 0, "fusion_lat": 0.0, "name": "260094ca5ed74dc7141d626d8168864b", "fusion_lon": 0.0}, {"is_reserved": 0, "type": "electric_scooter", "bike_id": "0f77291039d0ceab6c9b9e088975039d", "lat": 38.88291566666667, "lon": -77.031338, "rental_uris": {"android": "https://dc.lft.to/lastmile_qr_scan", "ios": "https://dc.lft.to/lastmile_qr_scan"}, "is_disabled": 0, "fusion_lat": 0.0, "name": "0f77291039d0ceab6c9b9e088975039d", "fusion_lon": 0.0}, {"is_reserved": 0, "type": "electric_scooter", "bike_id": "1592a2f2f1d43405bc7ff17de945108e", "lat": 38.871712333333335, "lon": -77.00625516666666, "rental_uris": {"android": "https://dc.lft.to/lastmile_qr_scan", "ios": "https://dc.lft.to/lastmile_qr_scan"}, "is_disabled": 0, "fusion_lat": 0.0, "name": "1592a2f2f1d43405bc7ff17de945108e", "fusion_lon": 0.0}, {"is_reserved": 0, "type": "electric_scooter", "bike_id": "24ae08f62a730af3cb0321e592c2aee1", "lat": 38.87626216666666, "lon": -77.01250233333333, "rental_uris": {"android": "https://dc.lft.to/lastmile_qr_scan", "ios": "https://dc.lft.to/lastmile_qr_scan"}, "is_disabled": 0, "fusion_lat": 0.0, "name": "24ae08f62a730af3cb0321e592c2aee1", "fusion_lon": 0.0}, {"is_reserved": 0, "type": "electric_scooter", "bike_id": "7fbda31a99ad8ccb164a057d63f3ca19", "lat": 38.9004715, "lon": -77.013243, "rental_uris": {"android": "https://dc.lft.to/lastmile_qr_scan", "ios": "https://dc.lft.to/lastmile_qr_scan"}, "is_disabled": 0, "fusion_lat": 0.0, "name": "7fbda31a99ad8ccb164a057d63f3ca19", "fusion_lon": 0.0}, {"is_reserved": 0, "type": "electric_scooter", "bike_id": "d4d97ef58483ecacd3fbee1a6fd0d94f", "lat": 38.9068485, "lon": -77.04197983333333, "rental_uris": {"android": "https://dc.lft.to/lastmile_qr_scan", "ios": "https://dc.lft.to/lastmile_qr_scan"}, "is_disabled": 0, "fusion_lat": 0.0, "name": "d4d97ef58483ecacd3fbee1a6fd0d94f", "fusion_lon": 0.0}, {"is_reserved": 0, "type": "electric_scooter", "bike_id": "9c522d24c0fd9561119b020840054497", "lat": 38.920604, "lon": -77.029435, "rental_uris": {"android": "https://dc.lft.to/lastmile_qr_scan", "ios": "https://dc.lft.to/lastmile_qr_scan"}, "is_disabled": 0, "fusion_lat": 0.0, "name": "9c522d24c0fd9561119b020840054497", "fusion_lon": 0.0}, {"is_reserved": 0, "type": "electric_scooter", "bike_id": "8cb507fe86136251de378437b4e150a6", "lat": 38.89649933333333, "lon": -77.03302183333334, "rental_uris": {"android": "https://dc.lft.to/lastmile_qr_scan", "ios": "https://dc.lft.to/lastmile_qr_scan"}, "is_disabled": 0, "fusion_lat": 0.0, "name": "8cb507fe86136251de378437b4e150a6", "fusion_lon": 0.0}, {"is_reserved": 0, "type": "electric_scooter", "bike_id": "234f958b0a902806b149f19a7ac17d61", "lat": 38.95957333333333, "lon": -77.072622, "rental_uris": {"android": "https://dc.lft.to/lastmile_qr_scan", "ios": "https://dc.lft.to/lastmile_qr_scan"}, "is_disabled": 0, "fusion_lat": 0.0, "name": "234f958b0a902806b149f19a7ac17d61", "fusion_lon": 0.0}, {"is_reserved": 0, "type": "electric_scooter", "bike_id": "315c31aa729a832d00d0c7eb1b60246c", "lat": 38.94029333333334, "lon": -77.02516166666666, "rental_uris": {"android": "https://dc.lft.to/lastmile_qr_scan", "ios": "https://dc.lft.to/lastmile_qr_scan"}, "is_disabled": 0, "fusion_lat": 0.0, "name": "315c31aa729a832d00d0c7eb1b60246c", "fusion_lon": 0.0}, {"is_reserved": 0, "type": "electric_scooter", "bike_id": "ae22852f6a4ffd80ef677bd65404d9bb", "lat": 38.939700333333334, "lon": -77.0546855, "rental_uris": {"android": "https://dc.lft.to/lastmile_qr_scan", "ios": "https://dc.lft.to/lastmile_qr_scan"}, "is_disabled": 0, "fusion_lat": 0.0, "name": "ae22852f6a4ffd80ef677bd65404d9bb", "fusion_lon": 0.0}, {"is_reserved": 0, "type": "electric_bike", "bike_id": "19fa212bfcc54ae08d2a49a86b4a2858", "lat": 38.90692416666667, "lon": -76.95245283333334, "rental_uris": {"android": "https://dc.lft.to/lastmile_qr_scan", "ios": "https://dc.lft.to/lastmile_qr_scan"}, "is_disabled": 0, "fusion_lat": 0.0, "name": "19fa212bfcc54ae08d2a49a86b4a2858", "fusion_lon": 0.0}, {"is_reserved": 0, "type": "electric_scooter", "bike_id": "54e6ead75362afcd8affdadae939ef46", "lat": 38.91948166666667, "lon": -77.02882683333333, "rental_uris": {"android": "https://dc.lft.to/lastmile_qr_scan", "ios": "https://dc.lft.to/lastmile_qr_scan"}, "is_disabled": 0, "fusion_lat": 0.0, "name": "54e6ead75362afcd8affdadae939ef46", "fusion_lon": 0.0}, {"is_reserved": 0, "type": "electric_scooter", "bike_id": "484986c2be79e80ebdbd2e2c462b0751", "lat": 38.932608, "lon": -77.03255666666666, "rental_uris": {"android": "https://dc.lft.to/lastmile_qr_scan", "ios": "https://dc.lft.to/lastmile_qr_scan"}, "is_disabled": 0, "fusion_lat": 0.0, "name": "484986c2be79e80ebdbd2e2c462b0751", "fusion_lon": 0.0}, {"is_reserved": 0, "type": "electric_scooter", "bike_id": "c327264b21b9b0b6f8e2a1f3270b6f87", "lat": 38.94978916666667, "lon": -76.99333383333334, "rental_uris": {"android": "https://dc.lft.to/lastmile_qr_scan", "ios": "https://dc.lft.to/lastmile_qr_scan"}, "is_disabled": 0, "fusion_lat": 0.0, "name": "c327264b21b9b0b6f8e2a1f3270b6f87", "fusion_lon": 0.0}, {"is_reserved": 0, "type": "electric_scooter", "bike_id": "4127d6f3bbb3bebb2c8a55189696c3de", "lat": 38.89446733333333, "lon": -77.00196883333334, "rental_uris": {"android": "https://dc.lft.to/lastmile_qr_scan", "ios": "https://dc.lft.to/lastmile_qr_scan"}, "is_disabled": 0, "fusion_lat": 0.0, "name": "4127d6f3bbb3bebb2c8a55189696c3de", "fusion_lon": 0.0}, {"is_reserved": 0, "type": "electric_scooter", "bike_id": "7ee9e18962c58bda8759d57b4b4a8ca0", "lat": 38.9179585, "lon": -77.02707133333334, "rental_uris": {"android": "https://dc.lft.to/lastmile_qr_scan", "ios": "https://dc.lft.to/lastmile_qr_scan"}, "is_disabled": 0, "fusion_lat": 0.0, "name": "7ee9e18962c58bda8759d57b4b4a8ca0", "fusion_lon": 0.0}, {"is_reserved": 0, "type": "electric_scooter", "bike_id": "959690c3a537cc0306553084909e80d9", "lat": 38.924752166666664, "lon": -77.0224875, "rental_uris": {"android": "https://dc.lft.to/lastmile_qr_scan", "ios": "https://dc.lft.to/lastmile_qr_scan"}, "is_disabled": 0, "fusion_lat": 0.0, "name": "959690c3a537cc0306553084909e80d9", "fusion_lon": 0.0}, {"is_reserved": 0, "type": "electric_scooter", "bike_id": "952796dc69999457f0050b9e1e4e99d8", "lat": 38.92865166666667, "lon": -77.0565735, "rental_uris": {"android": "https://dc.lft.to/lastmile_qr_scan", "ios": "https://dc.lft.to/lastmile_qr_scan"}, "is_disabled": 0, "fusion_lat": 0.0, "name": "952796dc69999457f0050b9e1e4e99d8", "fusion_lon": 0.0}, {"is_reserved": 0, "type": "electric_scooter", "bike_id": "a3b55850439f4b86ca22953fb0eefe0e", "lat": 38.934569333333336, "lon": -77.07235883333334, "rental_uris": {"android": "https://dc.lft.to/lastmile_qr_scan", "ios": "https://dc.lft.to/lastmile_qr_scan"}, "is_disabled": 0, "fusion_lat": 0.0, "name": "a3b55850439f4b86ca22953fb0eefe0e", "fusion_lon": 0.0}, {"is_reserved": 0, "type": "electric_scooter", "bike_id": "ede7a8e90fbc9ae4cd995d7e4e0c376b", "lat": 38.9148335, "lon": -77.0312005, "rental_uris": {"android": "https://dc.lft.to/lastmile_qr_scan", "ios": "https://dc.lft.to/lastmile_qr_scan"}, "is_disabled": 0, "fusion_lat": 0.0, "name": "ede7a8e90fbc9ae4cd995d7e4e0c376b", "fusion_lon": 0.0}, {"is_reserved": 0, "type": "electric_scooter", "bike_id": "c3e74e7a316897ffc659a748ff41dabb", "lat": 38.92237566666667, "lon": -77.0425995, "rental_uris": {"android": "https://dc.lft.to/lastmile_qr_scan", "ios": "https://dc.lft.to/lastmile_qr_scan"}, "is_disabled": 0, "fusion_lat": 0.0, "name": "c3e74e7a316897ffc659a748ff41dabb", "fusion_lon": 0.0}, {"is_reserved": 0, "type": "electric_scooter", "bike_id": "65ea302d428121e14622cba3ea6c4a68", "lat": 38.8876465, "lon": -76.9915735, "rental_uris": {"android": "https://dc.lft.to/lastmile_qr_scan", "ios": "https://dc.lft.to/lastmile_qr_scan"}, "is_disabled": 0, "fusion_lat": 0.0, "name": "65ea302d428121e14622cba3ea6c4a68", "fusion_lon": 0.0}, {"is_reserved": 0, "type": "electric_scooter", "bike_id": "59033189ad4632af46b32697c8c07a76", "lat": 38.898616833333335, "lon": -76.94699516666667, "rental_uris": {"android": "https://dc.lft.to/lastmile_qr_scan", "ios": "https://dc.lft.to/lastmile_qr_scan"}, "is_disabled": 0, "fusion_lat": 0.0, "name": "59033189ad4632af46b32697c8c07a76", "fusion_lon": 0.0}, {"is_reserved": 0, "type": "electric_scooter", "bike_id": "50ada695fe6d8e6054c4e1474b2ec943", "lat": 38.922342666666665, "lon": -77.042446, "rental_uris": {"android": "https://dc.lft.to/lastmile_qr_scan", "ios": "https://dc.lft.to/lastmile_qr_scan"}, "is_disabled": 0, "fusion_lat": 0.0, "name": "50ada695fe6d8e6054c4e1474b2ec943", "fusion_lon": 0.0}, {"is_reserved": 0, "type": "electric_scooter", "bike_id": "cc09fbebadc98a2c363073017c7e78ba", "lat": 38.896158, "lon": -76.9966995, "rental_uris": {"android": "https://dc.lft.to/lastmile_qr_scan", "ios": "https://dc.lft.to/lastmile_qr_scan"}, "is_disabled": 0, "fusion_lat": 0.0, "name": "cc09fbebadc98a2c363073017c7e78ba", "fusion_lon": 0.0}, {"is_reserved": 0, "type": "electric_scooter", "bike_id": "cb7e1e6f68b864c342a06928224b8cff", "lat": 38.87940016666667, "lon": -77.01662633333333, "rental_uris": {"android": "https://dc.lft.to/lastmile_qr_scan", "ios": "https://dc.lft.to/lastmile_qr_scan"}, "is_disabled": 0, "fusion_lat": 0.0, "name": "cb7e1e6f68b864c342a06928224b8cff", "fusion_lon": 0.0}, {"is_reserved": 0, "type": "electric_scooter", "bike_id": "75f266adebeb8721a8ac1d49271b7a39", "lat": 38.90789566666667, "lon": -77.02811733333333, "rental_uris": {"android": "https://dc.lft.to/lastmile_qr_scan", "ios": "https://dc.lft.to/lastmile_qr_scan"}, "is_disabled": 0, "fusion_lat": 0.0, "name": "75f266adebeb8721a8ac1d49271b7a39", "fusion_lon": 0.0}, {"is_reserved": 0, "type": "electric_scooter", "bike_id": "6877c74fafe3a799084c4ef4edc9465e", "lat": 38.90119133333334, "lon": -77.03198133333333, "rental_uris": {"android": "https://dc.lft.to/lastmile_qr_scan", "ios": "https://dc.lft.to/lastmile_qr_scan"}, "is_disabled": 0, "fusion_lat": 0.0, "name": "6877c74fafe3a799084c4ef4edc9465e", "fusion_lon": 0.0}, {"is_reserved": 0, "type": "electric_bike", "bike_id": "a8c3fcf14b5dacee6c3ba379e40a575c", "lat": 38.841007166666664, "lon": -77.08948266666667, "rental_uris": {"android": "https://dc.lft.to/lastmile_qr_scan", "ios": "https://dc.lft.to/lastmile_qr_scan"}, "is_disabled": 0, "fusion_lat": 0.0, "name": "a8c3fcf14b5dacee6c3ba379e40a575c", "fusion_lon": 0.0}, {"is_reserved": 0, "type": "electric_scooter", "bike_id": "e6c6b181b2bea79f8aaa1429f7cec80e", "lat": 38.90219783333333, "lon": -77.0511805, "rental_uris": {"android": "https://dc.lft.to/lastmile_qr_scan", "ios": "https://dc.lft.to/lastmile_qr_scan"}, "is_disabled": 0, "fusion_lat": 0.0, "name": "e6c6b181b2bea79f8aaa1429f7cec80e", "fusion_lon": 0.0}, {"is_reserved": 0, "type": "electric_scooter", "bike_id": "588aee9e19c63ed9ea55af36009dad3e", "lat": 38.8829815, "lon": -76.948536, "rental_uris": {"android": "https://dc.lft.to/lastmile_qr_scan", "ios": "https://dc.lft.to/lastmile_qr_scan"}, "is_disabled": 0, "fusion_lat": 0.0, "name": "588aee9e19c63ed9ea55af36009dad3e", "fusion_lon": 0.0}, {"is_reserved": 0, "type": "electric_bike", "bike_id": "ba7104a6837f36bca032af10c3c80a3f", "lat": 38.958711, "lon": -76.97053933333333, "rental_uris": {"android": "https://dc.lft.to/lastmile_qr_scan", "ios": "https://dc.lft.to/lastmile_qr_scan"}, "is_disabled": 0, "fusion_lat": 0.0, "name": "ba7104a6837f36bca032af10c3c80a3f", "fusion_lon": 0.0}, {"is_reserved": 0, "type": "electric_bike", "bike_id": "1d3c4a46a4a97a83aa1ba05b48ffaf31", "lat": 38.94563216666667, "lon": -76.95839533333333, "rental_uris": {"android": "https://dc.lft.to/lastmile_qr_scan", "ios": "https://dc.lft.to/lastmile_qr_scan"}, "is_disabled": 0, "fusion_lat": 0.0, "name": "1d3c4a46a4a97a83aa1ba05b48ffaf31", "fusion_lon": 0.0}, {"is_reserved": 0, "type": "electric_scooter", "bike_id": "58eefaf9edb1550de0055cc2c2e07410", "lat": 38.88416983333333, "lon": -77.016097, "rental_uris": {"android": "https://dc.lft.to/lastmile_qr_scan", "ios": "https://dc.lft.to/lastmile_qr_scan"}, "is_disabled": 0, "fusion_lat": 0.0, "name": "58eefaf9edb1550de0055cc2c2e07410", "fusion_lon": 0.0}, {"is_reserved": 0, "type": "electric_scooter", "bike_id": "e5659d054a4d15616194f7bee166b7fe", "lat": 38.93039366666667, "lon": -77.07771833333334, "rental_uris": {"android": "https://dc.lft.to/lastmile_qr_scan", "ios": "https://dc.lft.to/lastmile_qr_scan"}, "is_disabled": 0, "fusion_lat": 0.0, "name": "e5659d054a4d15616194f7bee166b7fe", "fusion_lon": 0.0}, {"is_reserved": 0, "type": "electric_scooter", "bike_id": "b4fbd252778f09620616452eff6c8eb4", "lat": 38.91005966666667, "lon": -76.9940625, "rental_uris": {"android": "https://dc.lft.to/lastmile_qr_scan", "ios": "https://dc.lft.to/lastmile_qr_scan"}, "is_disabled": 0, "fusion_lat": 0.0, "name": "b4fbd252778f09620616452eff6c8eb4", "fusion_lon": 0.0}, {"is_reserved": 0, "type": "electric_scooter", "bike_id": "9cf30ee1e9ccc4af9e7894ac2ac052ac", "lat": 38.89921733333333, "lon": -77.00334366666667, "rental_uris": {"android": "https://dc.lft.to/lastmile_qr_scan", "ios": "https://dc.lft.to/lastmile_qr_scan"}, "is_disabled": 0, "fusion_lat": 0.0, "name": "9cf30ee1e9ccc4af9e7894ac2ac052ac", "fusion_lon": 0.0}, {"is_reserved": 0, "type": "electric_scooter", "bike_id": "ed911bd3b39340da9a4da4decfa7659e", "lat": 38.90389016666666, "lon": -77.0507885, "rental_uris": {"android": "https://dc.lft.to/lastmile_qr_scan", "ios": "https://dc.lft.to/lastmile_qr_scan"}, "is_disabled": 0, "fusion_lat": 0.0, "name": "ed911bd3b39340da9a4da4decfa7659e", "fusion_lon": 0.0}, {"is_reserved": 0, "type": "electric_bike", "bike_id": "103ecf77b8a982ea88d7c6ea20063e15", "lat": 38.945432333333336, "lon": -77.34461133333333, "rental_uris": {"android": "https://dc.lft.to/lastmile_qr_scan", "ios": "https://dc.lft.to/lastmile_qr_scan"}, "is_disabled": 0, "fusion_lat": 0.0, "name": "103ecf77b8a982ea88d7c6ea20063e15", "fusion_lon": 0.0}, {"is_reserved": 0, "type": "electric_bike", "bike_id": "5824d858e3ab263dbdefd47d5d75bc98", "lat": 39.084314166666665, "lon": -76.95147333333334, "rental_uris": {"android": "https://dc.lft.to/lastmile_qr_scan", "ios": "https://dc.lft.to/lastmile_qr_scan"}, "is_disabled": 0, "fusion_lat": 0.0, "name": "5824d858e3ab263dbdefd47d5d75bc98", "fusion_lon": 0.0}, {"is_reserved": 0, "type": "electric_scooter", "bike_id": "796f86c4a80b523f136fcdbe176c0637", "lat": 38.91264666666667, "lon": -77.02520433333333, "rental_uris": {"android": "https://dc.lft.to/lastmile_qr_scan", "ios": "https://dc.lft.to/lastmile_qr_scan"}, "is_disabled": 0, "fusion_lat": 0.0, "name": "796f86c4a80b523f136fcdbe176c0637", "fusion_lon": 0.0}, {"is_reserved": 0, "type": "electric_scooter", "bike_id": "de6d1e960e9c8ba5381b25baa5ff219f", "lat": 38.900835666666666, "lon": -77.02563716666667, "rental_uris": {"android": "https://dc.lft.to/lastmile_qr_scan", "ios": "https://dc.lft.to/lastmile_qr_scan"}, "is_disabled": 0, "fusion_lat": 0.0, "name": "de6d1e960e9c8ba5381b25baa5ff219f", "fusion_lon": 0.0}, {"is_reserved": 0, "type": "electric_scooter", "bike_id": "f90502756ca557d5b6fd7360520affbc", "lat": 38.90030933333333, "lon": -76.987624, "rental_uris": {"android": "https://dc.lft.to/lastmile_qr_scan", "ios": "https://dc.lft.to/lastmile_qr_scan"}, "is_disabled": 0, "fusion_lat": 0.0, "name": "f90502756ca557d5b6fd7360520affbc", "fusion_lon": 0.0}, {"is_reserved": 0, "type": "electric_scooter", "bike_id": "3cb5a43353d82a54ed79f2da49caaeb8", "lat": 38.908337833333334, "lon": -76.9918485, "rental_uris": {"android": "https://dc.lft.to/lastmile_qr_scan", "ios": "https://dc.lft.to/lastmile_qr_scan"}, "is_disabled": 0, "fusion_lat": 0.0, "name": "3cb5a43353d82a54ed79f2da49caaeb8", "fusion_lon": 0.0}, {"is_reserved": 0, "type": "electric_scooter", "bike_id": "10a4575670a9904708a219f89af7c936", "lat": 38.88992116666667, "lon": -76.99299533333334, "rental_uris": {"android": "https://dc.lft.to/lastmile_qr_scan", "ios": "https://dc.lft.to/lastmile_qr_scan"}, "is_disabled": 0, "fusion_lat": 0.0, "name": "10a4575670a9904708a219f89af7c936", "fusion_lon": 0.0}, {"is_reserved": 0, "type": "electric_scooter", "bike_id": "0bc839e4dcc2e0ffea78d17fc79608d4", "lat": 38.921067, "lon": -77.03196233333334, "rental_uris": {"android": "https://dc.lft.to/lastmile_qr_scan", "ios": "https://dc.lft.to/lastmile_qr_scan"}, "is_disabled": 0, "fusion_lat": 0.0, "name": "0bc839e4dcc2e0ffea78d17fc79608d4", "fusion_lon": 0.0}, {"is_reserved": 0, "type": "electric_scooter", "bike_id": "c9b5f70412b751501d574e3c8bd18205", "lat": 38.915883666666666, "lon": -77.04165416666666, "rental_uris": {"android": "https://dc.lft.to/lastmile_qr_scan", "ios": "https://dc.lft.to/lastmile_qr_scan"}, "is_disabled": 0, "fusion_lat": 0.0, "name": "c9b5f70412b751501d574e3c8bd18205", "fusion_lon": 0.0}, {"is_reserved": 0, "type": "electric_scooter", "bike_id": "7d2bbdcbaf4e313ecd0405a57ec2c01c", "lat": 38.882812666666666, "lon": -76.99483833333333, "rental_uris": {"android": "https://dc.lft.to/lastmile_qr_scan", "ios": "https://dc.lft.to/lastmile_qr_scan"}, "is_disabled": 0, "fusion_lat": 0.0, "name": "7d2bbdcbaf4e313ecd0405a57ec2c01c", "fusion_lon": 0.0}, {"is_reserved": 0, "type": "electric_scooter", "bike_id": "32806e8e4327c1ee3e7db15064eb0bd7", "lat": 38.8985055, "lon": -76.990318, "rental_uris": {"android": "https://dc.lft.to/lastmile_qr_scan", "ios": "https://dc.lft.to/lastmile_qr_scan"}, "is_disabled": 0, "fusion_lat": 0.0, "name": "32806e8e4327c1ee3e7db15064eb0bd7", "fusion_lon": 0.0}, {"is_reserved": 0, "type": "electric_scooter", "bike_id": "1f48d7453e6006fb1f42bc00ad81d8e3", "lat": 38.94231033333333, "lon": -77.07153083333333, "rental_uris": {"android": "https://dc.lft.to/lastmile_qr_scan", "ios": "https://dc.lft.to/lastmile_qr_scan"}, "is_disabled": 0, "fusion_lat": 0.0, "name": "1f48d7453e6006fb1f42bc00ad81d8e3", "fusion_lon": 0.0}, {"is_reserved": 0, "type": "electric_scooter", "bike_id": "c6fa47d2fab45855ae9aa7f7eb95d373", "lat": 38.95475116666667, "lon": -77.06986866666666, "rental_uris": {"android": "https://dc.lft.to/lastmile_qr_scan", "ios": "https://dc.lft.to/lastmile_qr_scan"}, "is_disabled": 0, "fusion_lat": 0.0, "name": "c6fa47d2fab45855ae9aa7f7eb95d373", "fusion_lon": 0.0}, {"is_reserved": 0, "type": "electric_scooter", "bike_id": "eebc248772182dc3920ef819277e5345", "lat": 38.92243416666667, "lon": -77.04351033333333, "rental_uris": {"android": "https://dc.lft.to/lastmile_qr_scan", "ios": "https://dc.lft.to/lastmile_qr_scan"}, "is_disabled": 0, "fusion_lat": 0.0, "name": "eebc248772182dc3920ef819277e5345", "fusion_lon": 0.0}, {"is_reserved": 0, "type": "electric_bike", "bike_id": "c161eb798e3c39d3cc771d1ffe362544", "lat": 38.85788616666667, "lon": -77.0996045, "rental_uris": {"android": "https://dc.lft.to/lastmile_qr_scan", "ios": "https://dc.lft.to/lastmile_qr_scan"}, "is_disabled": 0, "fusion_lat": 0.0, "name": "c161eb798e3c39d3cc771d1ffe362544", "fusion_lon": 0.0}, {"is_reserved": 0, "type": "electric_bike", "bike_id": "315dc3215c18f8c724ca0f53cb0c388d", "lat": 38.965562, "lon": -77.01625466666667, "rental_uris": {"android": "https://dc.lft.to/lastmile_qr_scan", "ios": "https://dc.lft.to/lastmile_qr_scan"}, "is_disabled": 0, "fusion_lat": 0.0, "name": "315dc3215c18f8c724ca0f53cb0c388d", "fusion_lon": 0.0}, {"is_reserved": 0, "type": "electric_scooter", "bike_id": "dd86b8c23a7cfba0e4f19b5b8ca18de7", "lat": 38.915921, "lon": -76.98376016666667, "rental_uris": {"android": "https://dc.lft.to/lastmile_qr_scan", "ios": "https://dc.lft.to/lastmile_qr_scan"}, "is_disabled": 0, "fusion_lat": 0.0, "name": "dd86b8c23a7cfba0e4f19b5b8ca18de7", "fusion_lon": 0.0}, {"is_reserved": 0, "type": "electric_scooter", "bike_id": "cb092cdf484904ba2cb7e8c015b5f928", "lat": 38.911244333333336, "lon": -77.016753, "rental_uris": {"android": "https://dc.lft.to/lastmile_qr_scan", "ios": "https://dc.lft.to/lastmile_qr_scan"}, "is_disabled": 0, "fusion_lat": 0.0, "name": "cb092cdf484904ba2cb7e8c015b5f928", "fusion_lon": 0.0}, {"is_reserved": 0, "type": "electric_scooter", "bike_id": "493f707172d4633eb44ee585251444a8", "lat": 38.9025915, "lon": -77.036379, "rental_uris": {"android": "https://dc.lft.to/lastmile_qr_scan", "ios": "https://dc.lft.to/lastmile_qr_scan"}, "is_disabled": 0, "fusion_lat": 0.0, "name": "493f707172d4633eb44ee585251444a8", "fusion_lon": 0.0}, {"is_reserved": 0, "type": "electric_scooter", "bike_id": "70704b4f612d310cbcd21afcefe077f1", "lat": 38.897386833333336, "lon": -77.05009733333333, "rental_uris": {"android": "https://dc.lft.to/lastmile_qr_scan", "ios": "https://dc.lft.to/lastmile_qr_scan"}, "is_disabled": 0, "fusion_lat": 0.0, "name": "70704b4f612d310cbcd21afcefe077f1", "fusion_lon": 0.0}, {"is_reserved": 0, "type": "electric_bike", "bike_id": "621a0c7dc151d9da834a83770b4a291d", "lat": 38.920357333333335, "lon": -76.97954733333333, "rental_uris": {"android": "https://dc.lft.to/lastmile_qr_scan", "ios": "https://dc.lft.to/lastmile_qr_scan"}, "is_disabled": 0, "fusion_lat": 0.0, "name": "621a0c7dc151d9da834a83770b4a291d", "fusion_lon": 0.0}, {"is_reserved": 0, "type": "electric_scooter", "bike_id": "78559d4293c41ab0b1cba394af58c697", "lat": 38.91753666666666, "lon": -77.00448883333334, "rental_uris": {"android": "https://dc.lft.to/lastmile_qr_scan", "ios": "https://dc.lft.to/lastmile_qr_scan"}, "is_disabled": 0, "fusion_lat": 0.0, "name": "78559d4293c41ab0b1cba394af58c697", "fusion_lon": 0.0}, {"is_reserved": 0, "type": "electric_scooter", "bike_id": "6e5bdac6fef61ea7281be680fb8026cb", "lat": 38.90319916666667, "lon": -77.01082883333333, "rental_uris": {"android": "https://dc.lft.to/lastmile_qr_scan", "ios": "https://dc.lft.to/lastmile_qr_scan"}, "is_disabled": 0, "fusion_lat": 0.0, "name": "6e5bdac6fef61ea7281be680fb8026cb", "fusion_lon": 0.0}, {"is_reserved": 0, "type": "electric_scooter", "bike_id": "0f965df138bafe214f1ac48513e464d4", "lat": 38.91251183333333, "lon": -77.04535933333334, "rental_uris": {"android": "https://dc.lft.to/lastmile_qr_scan", "ios": "https://dc.lft.to/lastmile_qr_scan"}, "is_disabled": 0, "fusion_lat": 0.0, "name": "0f965df138bafe214f1ac48513e464d4", "fusion_lon": 0.0}, {"is_reserved": 0, "type": "electric_scooter", "bike_id": "47a7a4adaba71899c41034b4f536cb37", "lat": 38.91394666666667, "lon": -77.0433795, "rental_uris": {"android": "https://dc.lft.to/lastmile_qr_scan", "ios": "https://dc.lft.to/lastmile_qr_scan"}, "is_disabled": 0, "fusion_lat": 0.0, "name": "47a7a4adaba71899c41034b4f536cb37", "fusion_lon": 0.0}, {"is_reserved": 0, "type": "electric_bike", "bike_id": "9bf94e7cd630c8e47459476343553386", "lat": 38.91700983333333, "lon": -77.05716216666667, "rental_uris": {"android": "https://dc.lft.to/lastmile_qr_scan", "ios": "https://dc.lft.to/lastmile_qr_scan"}, "is_disabled": 0, "fusion_lat": 0.0, "name": "9bf94e7cd630c8e47459476343553386", "fusion_lon": 0.0}, {"is_reserved": 0, "type": "electric_bike", "bike_id": "5a7d3cde2c542c2e1046de0a031c23b6", "lat": 38.920699, "lon": -76.99588733333333, "rental_uris": {"android": "https://dc.lft.to/lastmile_qr_scan", "ios": "https://dc.lft.to/lastmile_qr_scan"}, "is_disabled": 0, "fusion_lat": 0.0, "name": "5a7d3cde2c542c2e1046de0a031c23b6", "fusion_lon": 0.0}, {"is_reserved": 0, "type": "electric_scooter", "bike_id": "c13e50b3a21c586549bef312f684dce9", "lat": 38.883106166666664, "lon": -77.02411383333333, "rental_uris": {"android": "https://dc.lft.to/lastmile_qr_scan", "ios": "https://dc.lft.to/lastmile_qr_scan"}, "is_disabled": 0, "fusion_lat": 0.0, "name": "c13e50b3a21c586549bef312f684dce9", "fusion_lon": 0.0}, {"is_reserved": 0, "type": "electric_scooter", "bike_id": "261378c9537436fbde0729d9555fc95c", "lat": 38.90353233333333, "lon": -77.010539, "rental_uris": {"android": "https://dc.lft.to/lastmile_qr_scan", "ios": "https://dc.lft.to/lastmile_qr_scan"}, "is_disabled": 0, "fusion_lat": 0.0, "name": "261378c9537436fbde0729d9555fc95c", "fusion_lon": 0.0}, {"is_reserved": 0, "type": "electric_scooter", "bike_id": "1be99102fb5bf7326bf1306e327068e0", "lat": 38.9403175, "lon": -77.02640566666666, "rental_uris": {"android": "https://dc.lft.to/lastmile_qr_scan", "ios": "https://dc.lft.to/lastmile_qr_scan"}, "is_disabled": 0, "fusion_lat": 0.0, "name": "1be99102fb5bf7326bf1306e327068e0", "fusion_lon": 0.0}, {"is_reserved": 0, "type": "electric_scooter", "bike_id": "806e1ea8df862f6c626a68c4016589c2", "lat": 38.909686, "lon": -77.04501766666667, "rental_uris": {"android": "https://dc.lft.to/lastmile_qr_scan", "ios": "https://dc.lft.to/lastmile_qr_scan"}, "is_disabled": 0, "fusion_lat": 0.0, "name": "806e1ea8df862f6c626a68c4016589c2", "fusion_lon": 0.0}, {"is_reserved": 0, "type": "electric_scooter", "bike_id": "46bfe08ed64468e257e522d49ca947fe", "lat": 38.94182383333333, "lon": -77.02527866666667, "rental_uris": {"android": "https://dc.lft.to/lastmile_qr_scan", "ios": "https://dc.lft.to/lastmile_qr_scan"}, "is_disabled": 0, "fusion_lat": 0.0, "name": "46bfe08ed64468e257e522d49ca947fe", "fusion_lon": 0.0}, {"is_reserved": 0, "type": "electric_scooter", "bike_id": "2896623889ad226998c2d69df3aa6041", "lat": 38.917032, "lon": -77.0314555, "rental_uris": {"android": "https://dc.lft.to/lastmile_qr_scan", "ios": "https://dc.lft.to/lastmile_qr_scan"}, "is_disabled": 0, "fusion_lat": 0.0, "name": "2896623889ad226998c2d69df3aa6041", "fusion_lon": 0.0}, {"is_reserved": 0, "type": "electric_bike", "bike_id": "4773ca7572bafbb1232a0f8741b84cae", "lat": 38.89567433333333, "lon": -77.12737166666666, "rental_uris": {"android": "https://dc.lft.to/lastmile_qr_scan", "ios": "https://dc.lft.to/lastmile_qr_scan"}, "is_disabled": 0, "fusion_lat": 0.0, "name": "4773ca7572bafbb1232a0f8741b84cae", "fusion_lon": 0.0}, {"is_reserved": 0, "type": "electric_scooter", "bike_id": "83b543d5b82d7f362750bdbfa5e9ea50", "lat": 38.922948166666664, "lon": -76.98359183333334, "rental_uris": {"android": "https://dc.lft.to/lastmile_qr_scan", "ios": "https://dc.lft.to/lastmile_qr_scan"}, "is_disabled": 0, "fusion_lat": 0.0, "name": "83b543d5b82d7f362750bdbfa5e9ea50", "fusion_lon": 0.0}, {"is_reserved": 0, "type": "electric_scooter", "bike_id": "b0b543e7ecbef9ad2d9e454d72522491", "lat": 38.9181815, "lon": -77.02707766666667, "rental_uris": {"android": "https://dc.lft.to/lastmile_qr_scan", "ios": "https://dc.lft.to/lastmile_qr_scan"}, "is_disabled": 0, "fusion_lat": 0.0, "name": "b0b543e7ecbef9ad2d9e454d72522491", "fusion_lon": 0.0}, {"is_reserved": 0, "type": "electric_scooter", "bike_id": "240943eedeb7aa399c46325cd7898b5a", "lat": 38.92096933333333, "lon": -77.01792483333334, "rental_uris": {"android": "https://dc.lft.to/lastmile_qr_scan", "ios": "https://dc.lft.to/lastmile_qr_scan"}, "is_disabled": 0, "fusion_lat": 0.0, "name": "240943eedeb7aa399c46325cd7898b5a", "fusion_lon": 0.0}, {"is_reserved": 0, "type": "electric_scooter", "bike_id": "8b3a0521ac192fcc1cba487084251484", "lat": 38.9062165, "lon": -77.0514835, "rental_uris": {"android": "https://dc.lft.to/lastmile_qr_scan", "ios": "https://dc.lft.to/lastmile_qr_scan"}, "is_disabled": 0, "fusion_lat": 0.0, "name": "8b3a0521ac192fcc1cba487084251484", "fusion_lon": 0.0}, {"is_reserved": 0, "type": "electric_scooter", "bike_id": "a75f34db4e4a89359d883aef781205c5", "lat": 38.896880833333334, "lon": -77.00491283333334, "rental_uris": {"android": "https://dc.lft.to/lastmile_qr_scan", "ios": "https://dc.lft.to/lastmile_qr_scan"}, "is_disabled": 0, "fusion_lat": 0.0, "name": "a75f34db4e4a89359d883aef781205c5", "fusion_lon": 0.0}, {"is_reserved": 0, "type": "electric_scooter", "bike_id": "bf543f5ae6eadc79cca04a76f9c8b207", "lat": 38.92235, "lon": -77.0471025, "rental_uris": {"android": "https://dc.lft.to/lastmile_qr_scan", "ios": "https://dc.lft.to/lastmile_qr_scan"}, "is_disabled": 0, "fusion_lat": 0.0, "name": "bf543f5ae6eadc79cca04a76f9c8b207", "fusion_lon": 0.0}, {"is_reserved": 0, "type": "electric_scooter", "bike_id": "638887cb5f21160198d2aff90715432f", "lat": 38.9054945, "lon": -77.0339635, "rental_uris": {"android": "https://dc.lft.to/lastmile_qr_scan", "ios": "https://dc.lft.to/lastmile_qr_scan"}, "is_disabled": 0, "fusion_lat": 0.0, "name": "638887cb5f21160198d2aff90715432f", "fusion_lon": 0.0}, {"is_reserved": 0, "type": "electric_scooter", "bike_id": "482cfc52bb44277ee27394d8e2ca76ce", "lat": 38.90714883333333, "lon": -77.03176266666667, "rental_uris": {"android": "https://dc.lft.to/lastmile_qr_scan", "ios": "https://dc.lft.to/lastmile_qr_scan"}, "is_disabled": 0, "fusion_lat": 0.0, "name": "482cfc52bb44277ee27394d8e2ca76ce", "fusion_lon": 0.0}, {"is_reserved": 0, "type": "electric_scooter", "bike_id": "266332de346251758875ba73587d5a81", "lat": 38.926171833333335, "lon": -77.03774266666667, "rental_uris": {"android": "https://dc.lft.to/lastmile_qr_scan", "ios": "https://dc.lft.to/lastmile_qr_scan"}, "is_disabled": 0, "fusion_lat": 0.0, "name": "266332de346251758875ba73587d5a81", "fusion_lon": 0.0}, {"is_reserved": 0, "type": "electric_scooter", "bike_id": "59d728f93913750284f1f30ee2f5efdd", "lat": 38.847997, "lon": -76.97828383333334, "rental_uris": {"android": "https://dc.lft.to/lastmile_qr_scan", "ios": "https://dc.lft.to/lastmile_qr_scan"}, "is_disabled": 0, "fusion_lat": 0.0, "name": "59d728f93913750284f1f30ee2f5efdd", "fusion_lon": 0.0}, {"is_reserved": 0, "type": "electric_scooter", "bike_id": "9e18658f7ce0b563390836f9dfd4058c", "lat": 38.93196983333333, "lon": -77.03857383333333, "rental_uris": {"android": "https://dc.lft.to/lastmile_qr_scan", "ios": "https://dc.lft.to/lastmile_qr_scan"}, "is_disabled": 0, "fusion_lat": 0.0, "name": "9e18658f7ce0b563390836f9dfd4058c", "fusion_lon": 0.0}, {"is_reserved": 0, "type": "electric_bike", "bike_id": "6cccba1130e9d71c3b4902d9c7f06528", "lat": 38.803798666666665, "lon": -76.98816233333334, "rental_uris": {"android": "https://dc.lft.to/lastmile_qr_scan", "ios": "https://dc.lft.to/lastmile_qr_scan"}, "is_disabled": 0, "fusion_lat": 0.0, "name": "6cccba1130e9d71c3b4902d9c7f06528", "fusion_lon": 0.0}, {"is_reserved": 0, "type": "electric_scooter", "bike_id": "4d080e82319ecd38cebcd2058ee8769e", "lat": 38.91766766666667, "lon": -77.031888, "rental_uris": {"android": "https://dc.lft.to/lastmile_qr_scan", "ios": "https://dc.lft.to/lastmile_qr_scan"}, "is_disabled": 0, "fusion_lat": 0.0, "name": "4d080e82319ecd38cebcd2058ee8769e", "fusion_lon": 0.0}, {"is_reserved": 0, "type": "electric_scooter", "bike_id": "6188b4eb3e3d1279b4d71373985d66a6", "lat": 38.92442416666667, "lon": -77.0202485, "rental_uris": {"android": "https://dc.lft.to/lastmile_qr_scan", "ios": "https://dc.lft.to/lastmile_qr_scan"}, "is_disabled": 0, "fusion_lat": 0.0, "name": "6188b4eb3e3d1279b4d71373985d66a6", "fusion_lon": 0.0}, {"is_reserved": 0, "type": "electric_scooter", "bike_id": "172bac4646faa8d3917be2b1126ac4f4", "lat": 38.904104833333335, "lon": -77.068921, "rental_uris": {"android": "https://dc.lft.to/lastmile_qr_scan", "ios": "https://dc.lft.to/lastmile_qr_scan"}, "is_disabled": 0, "fusion_lat": 0.0, "name": "172bac4646faa8d3917be2b1126ac4f4", "fusion_lon": 0.0}, {"is_reserved": 0, "type": "electric_scooter", "bike_id": "c0a22c07651760aa8fe13f547269af50", "lat": 38.8924955, "lon": -77.01847433333333, "rental_uris": {"android": "https://dc.lft.to/lastmile_qr_scan", "ios": "https://dc.lft.to/lastmile_qr_scan"}, "is_disabled": 0, "fusion_lat": 0.0, "name": "c0a22c07651760aa8fe13f547269af50", "fusion_lon": 0.0}, {"is_reserved": 0, "type": "electric_bike", "bike_id": "164fce3ce4ef5bb468ac23ed9fe0ef0f", "lat": 38.9220785, "lon": -77.08185733333333, "rental_uris": {"android": "https://dc.lft.to/lastmile_qr_scan", "ios": "https://dc.lft.to/lastmile_qr_scan"}, "is_disabled": 0, "fusion_lat": 0.0, "name": "164fce3ce4ef5bb468ac23ed9fe0ef0f", "fusion_lon": 0.0}, {"is_reserved": 0, "type": "electric_scooter", "bike_id": "cd83e402f5604e53d65469841bb74cb4", "lat": 38.925300166666666, "lon": -77.02277516666666, "rental_uris": {"android": "https://dc.lft.to/lastmile_qr_scan", "ios": "https://dc.lft.to/lastmile_qr_scan"}, "is_disabled": 0, "fusion_lat": 0.0, "name": "cd83e402f5604e53d65469841bb74cb4", "fusion_lon": 0.0}, {"is_reserved": 0, "type": "electric_scooter", "bike_id": "317c2faeafa0825b36d4605845c341fc", "lat": 38.909414, "lon": -77.032017, "rental_uris": {"android": "https://dc.lft.to/lastmile_qr_scan", "ios": "https://dc.lft.to/lastmile_qr_scan"}, "is_disabled": 0, "fusion_lat": 0.0, "name": "317c2faeafa0825b36d4605845c341fc", "fusion_lon": 0.0}, {"is_reserved": 0, "type": "electric_scooter", "bike_id": "6d663f7a21846e9a9a78417da17cf2d3", "lat": 38.9037425, "lon": -77.04646233333334, "rental_uris": {"android": "https://dc.lft.to/lastmile_qr_scan", "ios": "https://dc.lft.to/lastmile_qr_scan"}, "is_disabled": 0, "fusion_lat": 0.0, "name": "6d663f7a21846e9a9a78417da17cf2d3", "fusion_lon": 0.0}, {"is_reserved": 0, "type": "electric_scooter", "bike_id": "31c8a121519a95dc3946c2ffb45efb85", "lat": 38.934617, "lon": -77.02764483333333, "rental_uris": {"android": "https://dc.lft.to/lastmile_qr_scan", "ios": "https://dc.lft.to/lastmile_qr_scan"}, "is_disabled": 0, "fusion_lat": 0.0, "name": "31c8a121519a95dc3946c2ffb45efb85", "fusion_lon": 0.0}, {"is_reserved": 0, "type": "electric_scooter", "bike_id": "b8271d3a34271d3812e66acdb0b49460", "lat": 38.90239316666667, "lon": -77.03446, "rental_uris": {"android": "https://dc.lft.to/lastmile_qr_scan", "ios": "https://dc.lft.to/lastmile_qr_scan"}, "is_disabled": 0, "fusion_lat": 0.0, "name": "b8271d3a34271d3812e66acdb0b49460", "fusion_lon": 0.0}, {"is_reserved": 0, "type": "electric_bike", "bike_id": "5a56cbd50cb4d0356aa0391f5551231a", "lat": 38.90420133333333, "lon": -77.06113433333333, "rental_uris": {"android": "https://dc.lft.to/lastmile_qr_scan", "ios": "https://dc.lft.to/lastmile_qr_scan"}, "is_disabled": 0, "fusion_lat": 0.0, "name": "5a56cbd50cb4d0356aa0391f5551231a", "fusion_lon": 0.0}, {"is_reserved": 0, "type": "electric_scooter", "bike_id": "d007358c4cee7449d759aad2ddf7c036", "lat": 38.9155415, "lon": -77.0310205, "rental_uris": {"android": "https://dc.lft.to/lastmile_qr_scan", "ios": "https://dc.lft.to/lastmile_qr_scan"}, "is_disabled": 0, "fusion_lat": 0.0, "name": "d007358c4cee7449d759aad2ddf7c036", "fusion_lon": 0.0}, {"is_reserved": 0, "type": "electric_scooter", "bike_id": "561518cd4d3eefc60ab7e605450c8755", "lat": 38.934028833333336, "lon": -77.03986216666667, "rental_uris": {"android": "https://dc.lft.to/lastmile_qr_scan", "ios": "https://dc.lft.to/lastmile_qr_scan"}, "is_disabled": 0, "fusion_lat": 0.0, "name": "561518cd4d3eefc60ab7e605450c8755", "fusion_lon": 0.0}, {"is_reserved": 0, "type": "electric_bike", "bike_id": "7824575a75306234f9f12382cee40fb1", "lat": 38.839315166666665, "lon": -77.07899933333333, "rental_uris": {"android": "https://dc.lft.to/lastmile_qr_scan", "ios": "https://dc.lft.to/lastmile_qr_scan"}, "is_disabled": 0, "fusion_lat": 0.0, "name": "7824575a75306234f9f12382cee40fb1", "fusion_lon": 0.0}, {"is_reserved": 0, "type": "electric_scooter", "bike_id": "d6156795ece40f1b142ec3c453d49390", "lat": 38.88727683333333, "lon": -76.98375483333334, "rental_uris": {"android": "https://dc.lft.to/lastmile_qr_scan", "ios": "https://dc.lft.to/lastmile_qr_scan"}, "is_disabled": 0, "fusion_lat": 0.0, "name": "d6156795ece40f1b142ec3c453d49390", "fusion_lon": 0.0}, {"is_reserved": 0, "type": "electric_scooter", "bike_id": "5f546f9f9bd2e7d81ba8ff6d4912ce1f", "lat": 38.920754, "lon": -77.0319535, "rental_uris": {"android": "https://dc.lft.to/lastmile_qr_scan", "ios": "https://dc.lft.to/lastmile_qr_scan"}, "is_disabled": 0, "fusion_lat": 0.0, "name": "5f546f9f9bd2e7d81ba8ff6d4912ce1f", "fusion_lon": 0.0}, {"is_reserved": 0, "type": "electric_scooter", "bike_id": "259197f46c060594ac18b86729618343", "lat": 38.916331, "lon": -77.0019335, "rental_uris": {"android": "https://dc.lft.to/lastmile_qr_scan", "ios": "https://dc.lft.to/lastmile_qr_scan"}, "is_disabled": 0, "fusion_lat": 0.0, "name": "259197f46c060594ac18b86729618343", "fusion_lon": 0.0}, {"is_reserved": 0, "type": "electric_scooter", "bike_id": "9ee5a0e37cf04ae9c8eec2a035327e62", "lat": 38.93003733333333, "lon": -77.023529, "rental_uris": {"android": "https://dc.lft.to/lastmile_qr_scan", "ios": "https://dc.lft.to/lastmile_qr_scan"}, "is_disabled": 0, "fusion_lat": 0.0, "name": "9ee5a0e37cf04ae9c8eec2a035327e62", "fusion_lon": 0.0}, {"is_reserved": 0, "type": "electric_scooter", "bike_id": "48402f3499d6cb8f356cc7b50933e42d", "lat": 38.919284166666664, "lon": -77.04812166666666, "rental_uris": {"android": "https://dc.lft.to/lastmile_qr_scan", "ios": "https://dc.lft.to/lastmile_qr_scan"}, "is_disabled": 0, "fusion_lat": 0.0, "name": "48402f3499d6cb8f356cc7b50933e42d", "fusion_lon": 0.0}, {"is_reserved": 0, "type": "electric_scooter", "bike_id": "b93c6cd0a4c0a28259c5dd46da5236bf", "lat": 38.9059835, "lon": -77.0668185, "rental_uris": {"android": "https://dc.lft.to/lastmile_qr_scan", "ios": "https://dc.lft.to/lastmile_qr_scan"}, "is_disabled": 0, "fusion_lat": 0.0, "name": "b93c6cd0a4c0a28259c5dd46da5236bf", "fusion_lon": 0.0}, {"is_reserved": 0, "type": "electric_scooter", "bike_id": "33a26d4092d8feb367f6cbbc9ae65fc1", "lat": 38.9244805, "lon": -77.02032733333333, "rental_uris": {"android": "https://dc.lft.to/lastmile_qr_scan", "ios": "https://dc.lft.to/lastmile_qr_scan"}, "is_disabled": 0, "fusion_lat": 0.0, "name": "33a26d4092d8feb367f6cbbc9ae65fc1", "fusion_lon": 0.0}, {"is_reserved": 0, "type": "electric_scooter", "bike_id": "a00e2459b18ba62e3ea17ce96f918d50", "lat": 38.912048666666664, "lon": -77.0320275, "rental_uris": {"android": "https://dc.lft.to/lastmile_qr_scan", "ios": "https://dc.lft.to/lastmile_qr_scan"}, "is_disabled": 0, "fusion_lat": 0.0, "name": "a00e2459b18ba62e3ea17ce96f918d50", "fusion_lon": 0.0}, {"is_reserved": 0, "type": "electric_scooter", "bike_id": "34f2b77eec0eaa64a0aeb6727c7b364b", "lat": 38.93099266666667, "lon": -77.02657083333334, "rental_uris": {"android": "https://dc.lft.to/lastmile_qr_scan", "ios": "https://dc.lft.to/lastmile_qr_scan"}, "is_disabled": 0, "fusion_lat": 0.0, "name": "34f2b77eec0eaa64a0aeb6727c7b364b", "fusion_lon": 0.0}, {"is_reserved": 0, "type": "electric_scooter", "bike_id": "b0d53d2fb190c538d4237f4a709f098e", "lat": 38.91945533333333, "lon": -77.04150616666666, "rental_uris": {"android": "https://dc.lft.to/lastmile_qr_scan", "ios": "https://dc.lft.to/lastmile_qr_scan"}, "is_disabled": 0, "fusion_lat": 0.0, "name": "b0d53d2fb190c538d4237f4a709f098e", "fusion_lon": 0.0}, {"is_reserved": 0, "type": "electric_scooter", "bike_id": "352e29b9837da9259ce62a58eededb87", "lat": 38.89480533333333, "lon": -77.0499395, "rental_uris": {"android": "https://dc.lft.to/lastmile_qr_scan", "ios": "https://dc.lft.to/lastmile_qr_scan"}, "is_disabled": 0, "fusion_lat": 0.0, "name": "352e29b9837da9259ce62a58eededb87", "fusion_lon": 0.0}, {"is_reserved": 0, "type": "electric_bike", "bike_id": "cbd6077133987f081413d33918776a2b", "lat": 38.87947716666667, "lon": -77.00785116666667, "rental_uris": {"android": "https://dc.lft.to/lastmile_qr_scan", "ios": "https://dc.lft.to/lastmile_qr_scan"}, "is_disabled": 0, "fusion_lat": 0.0, "name": "cbd6077133987f081413d33918776a2b", "fusion_lon": 0.0}, {"is_reserved": 0, "type": "electric_scooter", "bike_id": "eb00ec3e55b9c85702fce16d3e3a1372", "lat": 38.92277633333333, "lon": -77.03667666666666, "rental_uris": {"android": "https://dc.lft.to/lastmile_qr_scan", "ios": "https://dc.lft.to/lastmile_qr_scan"}, "is_disabled": 0, "fusion_lat": 0.0, "name": "eb00ec3e55b9c85702fce16d3e3a1372", "fusion_lon": 0.0}, {"is_reserved": 0, "type": "electric_scooter", "bike_id": "4dac4d4057d0d17c4cb6cf5f2e6d1cb7", "lat": 38.8852005, "lon": -77.021774, "rental_uris": {"android": "https://dc.lft.to/lastmile_qr_scan", "ios": "https://dc.lft.to/lastmile_qr_scan"}, "is_disabled": 0, "fusion_lat": 0.0, "name": "4dac4d4057d0d17c4cb6cf5f2e6d1cb7", "fusion_lon": 0.0},