{"data": {"bikes": [{"lat": 38.88525416666667, "is_disabled": 0, "type": "electric_scooter", "lon": -77.01133483333334, "bike_id": "bb0bf3f87446a566abc1e3ded4c841f6", "fusion_lat": 0.0, "name": "bb0bf3f87446a566abc1e3ded4c841f6", "is_reserved": 0, "rental_uris": {"android": "https://dc.lft.to/lastmile_qr_scan", "ios": "https://dc.lft.to/lastmile_qr_scan"}, "fusion_lon": 0.0}, {"lat": 38.917776833333335, "is_disabled": 0, "type": "electric_scooter", "lon": -77.04148083333334, "bike_id": "141b6dd8c35b7040f57d3740ce6831d8", "fusion_lat": 0.0, "name": "141b6dd8c35b7040f57d3740ce6831d8", "is_reserved": 0, "rental_uris": {"android": "https://dc.lft.to/lastmile_qr_scan", "ios": "https://dc.lft.to/lastmile_qr_scan"}, "fusion_lon": 0.0}, {"lat": 38.917449833333336, "is_disabled": 0, "type": "electric_scooter", "lon": -77.03184016666667, "bike_id": "7fabe10c10f3ececa448a81679bf1555", "fusion_lat": 0.0, "name": "7fabe10c10f3ececa448a81679bf1555", "is_reserved": 0, "rental_uris": {"android": "https://dc.lft.to/lastmile_qr_scan", "ios": "https://dc.lft.to/lastmile_qr_scan"}, "fusion_lon": 0.0}, {"lat": 38.921022666666666, "is_disabled": 0, "type": "electric_scooter", "lon": -77.03923933333333, "bike_id": "2bf33a7b2221e069f04975c7d6939f9e", "fusion_lat": 0.0, "name": "2bf33a7b2221e069f04975c7d6939f9e", "is_reserved": 0, "rental_uris": {"android": "https://dc.lft.to/lastmile_qr_scan", "ios": "https://dc.lft.to/lastmile_qr_scan"}, "fusion_lon": 0.0}, {"lat": 38.86171266666667, "is_disabled": 0, "type": "electric_bike", "lon": -77.13144683333333, "bike_id": "3fc6d306034ecd265560966bea604476", "fusion_lat": 0.0, "name": "3fc6d306034ecd265560966bea604476", "is_reserved": 0, "rental_uris": {"android": "https://dc.lft.to/lastmile_qr_scan", "ios": "https://dc.lft.to/lastmile_qr_scan"}, "fusion_lon": 0.0}, {"lat": 38.931127833333335, "is_disabled": 0, "type": "electric_scooter", "lon": -77.02096983333334, "bike_id": "5bdf231cfb043a430ab59accd256c286", "fusion_lat": 0.0, "name": "5bdf231cfb043a430ab59accd256c286", "is_reserved": 0, "rental_uris": {"android": "https://dc.lft.to/lastmile_qr_scan", "ios": "https://dc.lft.to/lastmile_qr_scan"}, "fusion_lon": 0.0}, {"lat": 38.9178945, "is_disabled": 0, "type": "electric_bike", "lon": -76.97187133333334, "bike_id": "74434e0bffde6813d92c3af045d971e3", "fusion_lat": 0.0, "name": "74434e0bffde6813d92c3af045d971e3", "is_reserved": 0, "rental_uris": {"android": "https://dc.lft.to/lastmile_qr_scan", "ios": "https://dc.lft.to/lastmile_qr_scan"}, "fusion_lon": 0.0}, {"lat": 38.86700233333333, "is_disabled": 0, "type": "electric_scooter", "lon": -76.98708416666666, "bike_id": "984d406b104a11dd373f7f2f722a0e55", "fusion_lat": 0.0, "name": "984d406b104a11dd373f7f2f722a0e55", "is_reserved": 0, "rental_uris": {"android": "https://dc.lft.to/lastmile_qr_scan", "ios": "https://dc.lft.to/lastmile_qr_scan"}, "fusion_lon": 0.0}, {"lat": 38.90563216666666, "is_disabled": 0, "type": "electric_scooter", "lon": -77.01766416666666, "bike_id": "c343af7dcc98768a7b606dd33ad48806", "fusion_lat": 0.0, "name": "c343af7dcc98768a7b606dd33ad48806", "is_reserved": 0, "rental_uris": {"android": "https://dc.lft.to/lastmile_qr_scan", "ios": "https://dc.lft.to/lastmile_qr_scan"}, "fusion_lon": 0.0}, {"lat": 38.90676116666667, "is_disabled": 0, "type": "electric_scooter", "lon": -77.0271205, "bike_id": "c8b96a1687ec89d2931e3e277cd1dd24", "fusion_lat": 0.0, "name": "c8b96a1687ec89d2931e3e277cd1dd24", "is_reserved": 0, "rental_uris": {"android": "https://dc.lft.to/lastmile_qr_scan", "ios": "https://dc.lft.to/lastmile_qr_scan"}, "fusion_lon": 0.0}, {"lat": 38.891178833333335, "is_disabled": 0, "type": "electric_scooter", "lon": -76.94381633333333, "bike_id": "42d812f832298a6ba6f623459173133d", "fusion_lat": 0.0, "name": "42d812f832298a6ba6f623459173133d", "is_reserved": 0, "rental_uris": {"android": "https://dc.lft.to/lastmile_qr_scan", "ios": "https://dc.lft.to/lastmile_qr_scan"}, "fusion_lon": 0.0}, {"lat": 38.93898166666666, "is_disabled": 0, "type": "electric_bike", "lon": -76.99504400000001, "bike_id": "f7ca2ed89cd2fe8f4450ce374b333ddd", "fusion_lat": 0.0, "name": "f7ca2ed89cd2fe8f4450ce374b333ddd", "is_reserved": 0, "rental_uris": {"android": "https://dc.lft.to/lastmile_qr_scan", "ios": "https://dc.lft.to/lastmile_qr_scan"}, "fusion_lon": 0.0}, {"lat": 38.900485833333335, "is_disabled": 0, "type": "electric_scooter", "lon": -76.99363566666666, "bike_id": "7efeb7a4897fe816fda1b98d81242258", "fusion_lat": 0.0, "name": "7efeb7a4897fe816fda1b98d81242258", "is_reserved": 0, "rental_uris": {"android": "https://dc.lft.to/lastmile_qr_scan", "ios": "https://dc.lft.to/lastmile_qr_scan"}, "fusion_lon": 0.0}, {"lat": 38.86647833333333, "is_disabled": 0, "type": "electric_scooter", "lon": -76.98882333333333, "bike_id": "a035f2f78c3c6182c44b0b685446ecb8", "fusion_lat": 0.0, "name": "a035f2f78c3c6182c44b0b685446ecb8", "is_reserved": 0, "rental_uris": {"android": "https://dc.lft.to/lastmile_qr_scan", "ios": "https://dc.lft.to/lastmile_qr_scan"}, "fusion_lon": 0.0}, {"lat": 38.9528325, "is_disabled": 0, "type": "electric_scooter", "lon": -77.06880533333333, "bike_id": "1ed6de0df1d644ef9745f8724c1fe367", "fusion_lat": 0.0, "name": "1ed6de0df1d644ef9745f8724c1fe367", "is_reserved": 0, "rental_uris": {"android": "https://dc.lft.to/lastmile_qr_scan", "ios": "https://dc.lft.to/lastmile_qr_scan"}, "fusion_lon": 0.0}, {"lat": 39.05194, "is_disabled": 0, "type": "electric_bike", "lon": -77.10913666666667, "bike_id": "a279b3fd1cbf0c8c403b6e93027e2cc2", "fusion_lat": 0.0, "name": "a279b3fd1cbf0c8c403b6e93027e2cc2", "is_reserved": 0, "rental_uris": {"android": "https://dc.lft.to/lastmile_qr_scan", "ios": "https://dc.lft.to/lastmile_qr_scan"}, "fusion_lon": 0.0}, {"lat": 38.8990755, "is_disabled": 0, "type": "electric_scooter", "lon": -76.93347733333333, "bike_id": "16b37567d3077f7ddce0aea5fb278bf2", "fusion_lat": 0.0, "name": "16b37567d3077f7ddce0aea5fb278bf2", "is_reserved": 0, "rental_uris": {"android": "https://dc.lft.to/lastmile_qr_scan", "ios": "https://dc.lft.to/lastmile_qr_scan"}, "fusion_lon": 0.0}, {"lat": 38.90008866666667, "is_disabled": 0, "type": "electric_scooter", "lon": -77.0021545, "bike_id": "77665e6f751caa184a693a70ab13e5e6", "fusion_lat": 0.0, "name": "77665e6f751caa184a693a70ab13e5e6", "is_reserved": 0, "rental_uris": {"android": "https://dc.lft.to/lastmile_qr_scan", "ios": "https://dc.lft.to/lastmile_qr_scan"}, "fusion_lon": 0.0}, {"lat": 38.896128, "is_disabled": 0, "type": "electric_scooter", "lon": -77.0449585, "bike_id": "5c36653f69d43ea72081a58b122b2187", "fusion_lat": 0.0, "name": "5c36653f69d43ea72081a58b122b2187", "is_reserved": 0, "rental_uris": {"android": "https://dc.lft.to/lastmile_qr_scan", "ios": "https://dc.lft.to/lastmile_qr_scan"}, "fusion_lon": 0.0}, {"lat": 38.915518, "is_disabled": 0, "type": "electric_scooter", "lon": -77.05321466666666, "bike_id": "356060018e11a4d0d451683ba1578164", "fusion_lat": 0.0, "name": "356060018e11a4d0d451683ba1578164", "is_reserved": 0, "rental_uris": {"android": "https://dc.lft.to/lastmile_qr_scan", "ios": "https://dc.lft.to/lastmile_qr_scan"}, "fusion_lon": 0.0}, {"lat": 38.91047783333333, "is_disabled": 0, "type": "electric_scooter", "lon": -77.0275655, "bike_id": "f154c31f3466cbf9f3088a9dab614df6", "fusion_lat": 0.0, "name": "f154c31f3466cbf9f3088a9dab614df6", "is_reserved": 0, "rental_uris": {"android": "https://dc.lft.to/lastmile_qr_scan", "ios": "https://dc.lft.to/lastmile_qr_scan"}, "fusion_lon": 0.0}, {"lat": 38.859107, "is_disabled": 0, "type": "electric_scooter", "lon": -76.99148516666666, "bike_id": "312f8f24137e3e15a6d103e5a51011ab", "fusion_lat": 0.0, "name": "312f8f24137e3e15a6d103e5a51011ab", "is_reserved": 0, "rental_uris": {"android": "https://dc.lft.to/lastmile_qr_scan", "ios": "https://dc.lft.to/lastmile_qr_scan"}, "fusion_lon": 0.0}, {"lat": 38.89729766666667, "is_disabled": 0, "type": "electric_scooter", "lon": -76.97476233333333, "bike_id": "7ef2bf8ced87cb331510c18a6dd33d3e", "fusion_lat": 0.0, "name": "7ef2bf8ced87cb331510c18a6dd33d3e", "is_reserved": 0, "rental_uris": {"android": "https://dc.lft.to/lastmile_qr_scan", "ios": "https://dc.lft.to/lastmile_qr_scan"}, "fusion_lon": 0.0}, {"lat": 38.908592666666664, "is_disabled": 0, "type": "electric_scooter", "lon": -76.9916455, "bike_id": "c2ab31ce7fccdf8cdefb059c4b434c62", "fusion_lat": 0.0, "name": "c2ab31ce7fccdf8cdefb059c4b434c62", "is_reserved": 0, "rental_uris": {"android": "https://dc.lft.to/lastmile_qr_scan", "ios": "https://dc.lft.to/lastmile_qr_scan"}, "fusion_lon": 0.0}, {"lat": 38.897602166666665, "is_disabled": 0, "type": "electric_scooter", "lon": -77.0549645, "bike_id": "0a654bccfdbf795f5a4af89dcb1cdc1a", "fusion_lat": 0.0, "name": "0a654bccfdbf795f5a4af89dcb1cdc1a", "is_reserved": 0, "rental_uris": {"android": "https://dc.lft.to/lastmile_qr_scan", "ios": "https://dc.lft.to/lastmile_qr_scan"}, "fusion_lon": 0.0}, {"lat": 38.93212783333333, "is_disabled": 0, "type": "electric_scooter", "lon": -77.03518733333334, "bike_id": "49b159b0d0559cb6f91d578ebaaf7b58", "fusion_lat": 0.0, "name": "49b159b0d0559cb6f91d578ebaaf7b58", "is_reserved": 0, "rental_uris": {"android": "https://dc.lft.to/lastmile_qr_scan", "ios": "https://dc.lft.to/lastmile_qr_scan"}, "fusion_lon": 0.0}, {"lat": 38.922110833333335, "is_disabled": 0, "type": "electric_bike", "lon": -76.98794633333333, "bike_id": "62b5e032c37d8398c460aa517afe36e4", "fusion_lat": 0.0, "name": "62b5e032c37d8398c460aa517afe36e4", "is_reserved": 0, "rental_uris": {"android": "https://dc.lft.to/lastmile_qr_scan", "ios": "https://dc.lft.to/lastmile_qr_scan"}, "fusion_lon": 0.0}, {"lat": 38.87626933333333, "is_disabled": 0, "type": "electric_scooter", "lon": -76.96529716666667, "bike_id": "35ad826ae139446b329bcab7b065d4ed", "fusion_lat": 0.0, "name": "35ad826ae139446b329bcab7b065d4ed", "is_reserved": 0, "rental_uris": {"android": "https://dc.lft.to/lastmile_qr_scan", "ios": "https://dc.lft.to/lastmile_qr_scan"}, "fusion_lon": 0.0}, {"lat": 38.914854, "is_disabled": 0, "type": "electric_scooter", "lon": -76.98361933333334, "bike_id": "7af08bda4d443b4d1b151a1358443dc9", "fusion_lat": 0.0, "name": "7af08bda4d443b4d1b151a1358443dc9", "is_reserved": 0, "rental_uris": {"android": "https://dc.lft.to/lastmile_qr_scan", "ios": "https://dc.lft.to/lastmile_qr_scan"}, "fusion_lon": 0.0}, {"lat": 38.932055166666665, "is_disabled": 0, "type": "electric_scooter", "lon": -77.044175, "bike_id": "82a6a3e05052e275d3f71c5b5cbaa1fd", "fusion_lat": 0.0, "name": "82a6a3e05052e275d3f71c5b5cbaa1fd", "is_reserved": 0, "rental_uris": {"android": "https://dc.lft.to/lastmile_qr_scan", "ios": "https://dc.lft.to/lastmile_qr_scan"}, "fusion_lon": 0.0}, {"lat": 38.9141965, "is_disabled": 0, "type": "electric_scooter", "lon": -77.02408366666667, "bike_id": "c41b13a38129d6654131985190268e76", "fusion_lat": 0.0, "name": "c41b13a38129d6654131985190268e76", "is_reserved": 0, "rental_uris": {"android": "https://dc.lft.to/lastmile_qr_scan", "ios": "https://dc.lft.to/lastmile_qr_scan"}, "fusion_lon": 0.0}, {"lat": 38.862547, "is_disabled": 0, "type": "electric_scooter", "lon": -76.98697383333334, "bike_id": "50d3f599595f88904a83855b97aaf2d0", "fusion_lat": 0.0, "name": "50d3f599595f88904a83855b97aaf2d0", "is_reserved": 0, "rental_uris": {"android": "https://dc.lft.to/lastmile_qr_scan", "ios": "https://dc.lft.to/lastmile_qr_scan"}, "fusion_lon": 0.0}, {"lat": 38.909279, "is_disabled": 0, "type": "electric_scooter", "lon": -77.0801765, "bike_id": "82f2cb17ff1948aa8cdb27994dab4e0d", "fusion_lat": 0.0, "name": "82f2cb17ff1948aa8cdb27994dab4e0d", "is_reserved": 0, "rental_uris": {"android": "https://dc.lft.to/lastmile_qr_scan", "ios": "https://dc.lft.to/lastmile_qr_scan"}, "fusion_lon": 0.0}, {"lat": 38.95182483333333, "is_disabled": 0, "type": "electric_bike", "lon": -76.9354555, "bike_id": "991f49d9c36e538ab00df12eebdc58f6", "fusion_lat": 0.0, "name": "991f49d9c36e538ab00df12eebdc58f6", "is_reserved": 0, "rental_uris": {"android": "https://dc.lft.to/lastmile_qr_scan", "ios": "https://dc.lft.to/lastmile_qr_scan"}, "fusion_lon": 0.0}, {"lat": 38.89214, "is_disabled": 0, "type": "electric_scooter", "lon": -76.99570983333334, "bike_id": "aca061a41c031efee18d4b8e0b599442", "fusion_lat": 0.0, "name": "aca061a41c031efee18d4b8e0b599442", "is_reserved": 0, "rental_uris": {"android": "https://dc.lft.to/lastmile_qr_scan", "ios": "https://dc.lft.to/lastmile_qr_scan"}, "fusion_lon": 0.0}, {"lat": 38.907068833333334, "is_disabled": 0, "type": "electric_scooter", "lon": -76.98695816666667, "bike_id": "79441bb32429b1840e23cf709e66616a", "fusion_lat": 0.0, "name": "79441bb32429b1840e23cf709e66616a", "is_reserved": 0, "rental_uris": {"android": "https://dc.lft.to/lastmile_qr_scan", "ios": "https://dc.lft.to/lastmile_qr_scan"}, "fusion_lon": 0.0}, {"lat": 38.9462855, "is_disabled": 0, "type": "electric_scooter", "lon": -77.0184825, "bike_id": "ee8a66fd49a19a2cc6b6332f603f29ee", "fusion_lat": 0.0, "name": "ee8a66fd49a19a2cc6b6332f603f29ee", "is_reserved": 0, "rental_uris": {"android": "https://dc.lft.to/lastmile_qr_scan", "ios": "https://dc.lft.to/lastmile_qr_scan"}, "fusion_lon": 0.0}, {"lat": 38.867482, "is_disabled": 0, "type": "electric_scooter", "lon": -76.97661283333333, "bike_id": "383fb91c8c36f9d65a0d2b2db261c8e1", "fusion_lat": 0.0, "name": "383fb91c8c36f9d65a0d2b2db261c8e1", "is_reserved": 0, "rental_uris": {"android": "https://dc.lft.to/lastmile_qr_scan", "ios": "https://dc.lft.to/lastmile_qr_scan"}, "fusion_lon": 0.0}, {"lat": 38.87731016666667, "is_disabled": 0, "type": "electric_bike", "lon": -77.118503, "bike_id": "2e5bede2590552266843d88206cad790", "fusion_lat": 0.0, "name": "2e5bede2590552266843d88206cad790", "is_reserved": 0, "rental_uris": {"android": "https://dc.lft.to/lastmile_qr_scan", "ios": "https://dc.lft.to/lastmile_qr_scan"}, "fusion_lon": 0.0}, {"lat": 38.91680866666667, "is_disabled": 0, "type": "electric_scooter", "lon": -77.029729, "bike_id": "0e454e365bc09a981e112ec869b29188", "fusion_lat": 0.0, "name": "0e454e365bc09a981e112ec869b29188", "is_reserved": 0, "rental_uris": {"android": "https://dc.lft.to/lastmile_qr_scan", "ios": "https://dc.lft.to/lastmile_qr_scan"}, "fusion_lon": 0.0}, {"lat": 38.87065716666667, "is_disabled": 0, "type": "electric_scooter", "lon": -77.00836666666666, "bike_id": "03ccde483bb2f8bfb90c140b0947cbd7", "fusion_lat": 0.0, "name": "03ccde483bb2f8bfb90c140b0947cbd7", "is_reserved": 0, "rental_uris": {"android": "https://dc.lft.to/lastmile_qr_scan", "ios": "https://dc.lft.to/lastmile_qr_scan"}, "fusion_lon": 0.0}, {"lat": 38.919269666666665, "is_disabled": 0, "type": "electric_scooter", "lon": -77.0342865, "bike_id": "57365f3c6899d56fcf6c96d7a7cde804", "fusion_lat": 0.0, "name": "57365f3c6899d56fcf6c96d7a7cde804", "is_reserved": 0, "rental_uris": {"android": "https://dc.lft.to/lastmile_qr_scan", "ios": "https://dc.lft.to/lastmile_qr_scan"}, "fusion_lon": 0.0}, {"lat": 38.866744, "is_disabled": 0, "type": "electric_scooter", "lon": -76.98538583333334, "bike_id": "99339e3a321bc698be6da5e4d3815fc6", "fusion_lat": 0.0, "name": "99339e3a321bc698be6da5e4d3815fc6", "is_reserved": 0, "rental_uris": {"android": "https://dc.lft.to/lastmile_qr_scan", "ios": "https://dc.lft.to/lastmile_qr_scan"}, "fusion_lon": 0.0}, {"lat": 38.86212033333334, "is_disabled": 0, "type": "electric_bike", "lon": -76.99775833333334, "bike_id": "221423b5a65c53050496ed07a171ec44", "fusion_lat": 0.0, "name": "221423b5a65c53050496ed07a171ec44", "is_reserved": 0, "rental_uris": {"android": "https://dc.lft.to/lastmile_qr_scan", "ios": "https://dc.lft.to/lastmile_qr_scan"}, "fusion_lon": 0.0}, {"lat": 38.897067166666666, "is_disabled": 0, "type": "electric_scooter", "lon": -77.0071515, "bike_id": "c999618c57fea8cc9a7f52549c96e6c0", "fusion_lat": 0.0, "name": "c999618c57fea8cc9a7f52549c96e6c0", "is_reserved": 0, "rental_uris": {"android": "https://dc.lft.to/lastmile_qr_scan", "ios": "https://dc.lft.to/lastmile_qr_scan"}, "fusion_lon": 0.0}, {"lat": 38.91538366666666, "is_disabled": 0, "type": "electric_scooter", "lon": -77.02202466666667, "bike_id": "1e4c88647fa49e098c8eb11c3d3ece26", "fusion_lat": 0.0, "name": "1e4c88647fa49e098c8eb11c3d3ece26", "is_reserved": 0, "rental_uris": {"android": "https://dc.lft.to/lastmile_qr_scan", "ios": "https://dc.lft.to/lastmile_qr_scan"}, "fusion_lon": 0.0}, {"lat": 38.920146333333335, "is_disabled": 0, "type": "electric_scooter", "lon": -77.03232033333333, "bike_id": "6dbd8c93f054307f18f34dfcde342c61", "fusion_lat": 0.0, "name": "6dbd8c93f054307f18f34dfcde342c61", "is_reserved": 0, "rental_uris": {"android": "https://dc.lft.to/lastmile_qr_scan", "ios": "https://dc.lft.to/lastmile_qr_scan"}, "fusion_lon": 0.0}, {"lat": 38.90407016666666, "is_disabled": 0, "type": "electric_scooter", "lon": -77.05330666666667, "bike_id": "91fb3da5b1dbb18e0a8f0cd1227acc79", "fusion_lat": 0.0, "name": "91fb3da5b1dbb18e0a8f0cd1227acc79", "is_reserved": 0, "rental_uris": {"android": "https://dc.lft.to/lastmile_qr_scan", "ios": "https://dc.lft.to/lastmile_qr_scan"}, "fusion_lon": 0.0}, {"lat": 38.93551133333333, "is_disabled": 0, "type": "electric_bike", "lon": -77.03695433333333, "bike_id": "5707260d7700874ae34414b64c7adf8b", "fusion_lat": 0.0, "name": "5707260d7700874ae34414b64c7adf8b", "is_reserved": 0, "rental_uris": {"android": "https://dc.lft.to/lastmile_qr_scan", "ios": "https://dc.lft.to/lastmile_qr_scan"}, "fusion_lon": 0.0}, {"lat": 38.90140516666666, "is_disabled": 0, "type": "electric_scooter", "lon": -77.00071633333333, "bike_id": "8d9d675ee9ba6bd555fdda5251c1e6e7", "fusion_lat": 0.0, "name": "8d9d675ee9ba6bd555fdda5251c1e6e7", "is_reserved": 0, "rental_uris": {"android": "https://dc.lft.to/lastmile_qr_scan", "ios": "https://dc.lft.to/lastmile_qr_scan"}, "fusion_lon": 0.0}, {"lat": 38.96095733333333, "is_disabled": 0, "type": "electric_scooter", "lon": -77.08281483333333, "bike_id": "4c559c7e634a1cd83b9972a65e057592", "fusion_lat": 0.0, "name": "4c559c7e634a1cd83b9972a65e057592", "is_reserved": 0, "rental_uris": {"android": "https://dc.lft.to/lastmile_qr_scan", "ios": "https://dc.lft.to/lastmile_qr_scan"}, "fusion_lon": 0.0}, {"lat": 38.90221283333333, "is_disabled": 0, "type": "electric_scooter", "lon": -77.04857966666667, "bike_id": "57fd4b269756aef9b3a9c20f2083834a", "fusion_lat": 0.0, "name": "57fd4b269756aef9b3a9c20f2083834a", "is_reserved": 0, "rental_uris": {"android": "https://dc.lft.to/lastmile_qr_scan", "ios": "https://dc.lft.to/lastmile_qr_scan"}, "fusion_lon": 0.0}, {"lat": 38.922110833333335, "is_disabled": 0, "type": "electric_scooter", "lon": -77.03289216666667, "bike_id": "84d8135ca61a828bfcbb7bbe4634675d", "fusion_lat": 0.0, "name": "84d8135ca61a828bfcbb7bbe4634675d", "is_reserved": 0, "rental_uris": {"android": "https://dc.lft.to/lastmile_qr_scan", "ios": "https://dc.lft.to/lastmile_qr_scan"}, "fusion_lon": 0.0}, {"lat": 38.92467083333333, "is_disabled": 0, "type": "electric_bike", "lon": -77.03915916666666, "bike_id": "7427a126d8bcf45ceb52395a85fa0c28", "fusion_lat": 0.0, "name": "7427a126d8bcf45ceb52395a85fa0c28", "is_reserved": 0, "rental_uris": {"android": "https://dc.lft.to/lastmile_qr_scan", "ios": "https://dc.lft.to/lastmile_qr_scan"}, "fusion_lon": 0.0}, {"lat": 38.84431983333333, "is_disabled": 0, "type": "electric_scooter", "lon": -76.99654166666667, "bike_id": "96537c7f8d3de9acc4baec5a67ec07d8", "fusion_lat": 0.0, "name": "96537c7f8d3de9acc4baec5a67ec07d8", "is_reserved": 0, "rental_uris": {"android": "https://dc.lft.to/lastmile_qr_scan", "ios": "https://dc.lft.to/lastmile_qr_scan"}, "fusion_lon": 0.0}, {"lat": 38.905081333333335, "is_disabled": 0, "type": "electric_scooter", "lon": -77.06181083333334, "bike_id": "d45c666ddcef9d78d5b04b1dd7f81a55", "fusion_lat": 0.0, "name": "d45c666ddcef9d78d5b04b1dd7f81a55", "is_reserved": 0, "rental_uris": {"android": "https://dc.lft.to/lastmile_qr_scan", "ios": "https://dc.lft.to/lastmile_qr_scan"}, "fusion_lon": 0.0}, {"lat": 38.90121416666667, "is_disabled": 0, "type": "electric_scooter", "lon": -77.04353933333333, "bike_id": "896b2c50c2e1473f2a68a0506908a5f6", "fusion_lat": 0.0, "name": "896b2c50c2e1473f2a68a0506908a5f6", "is_reserved": 0, "rental_uris": {"android": "https://dc.lft.to/lastmile_qr_scan", "ios": "https://dc.lft.to/lastmile_qr_scan"}, "fusion_lon": 0.0}, {"lat": 38.945515666666665, "is_disabled": 0, "type": "electric_bike", "lon": -76.89535416666666, "bike_id": "8bbafc1519d28539d60ddf237f48199a", "fusion_lat": 0.0, "name": "8bbafc1519d28539d60ddf237f48199a", "is_reserved": 0, "rental_uris": {"android": "https://dc.lft.to/lastmile_qr_scan", "ios": "https://dc.lft.to/lastmile_qr_scan"}, "fusion_lon": 0.0}, {"lat": 38.900740166666665, "is_disabled": 0, "type": "electric_scooter", "lon": -77.04902833333334, "bike_id": "e57cd51c24a6ed4428fe067b423eb649", "fusion_lat": 0.0, "name": "e57cd51c24a6ed4428fe067b423eb649", "is_reserved": 0, "rental_uris": {"android": "https://dc.lft.to/lastmile_qr_scan", "ios": "https://dc.lft.to/lastmile_qr_scan"}, "fusion_lon": 0.0}, {"lat": 39.034242166666665, "is_disabled": 0, "type": "electric_bike", "lon": -77.04309283333333, "bike_id": "ca6621d4ef2809131cbdb214f7b419cf", "fusion_lat": 0.0, "name": "ca6621d4ef2809131cbdb214f7b419cf", "is_reserved": 0, "rental_uris": {"android": "https://dc.lft.to/lastmile_qr_scan", "ios": "https://dc.lft.to/lastmile_qr_scan"}, "fusion_lon": 0.0}, {"lat": 38.936568333333334, "is_disabled": 0, "type": "electric_bike", "lon": -76.95221433333333, "bike_id": "942780f55e82224e357f242347e33995", "fusion_lat": 0.0, "name": "942780f55e82224e357f242347e33995", "is_reserved": 0, "rental_uris": {"android": "https://dc.lft.to/lastmile_qr_scan", "ios": "https://dc.lft.to/lastmile_qr_scan"}, "fusion_lon": 0.0}, {"lat": 38.9925865, "is_disabled": 0, "type": "electric_scooter", "lon": -77.03654966666667, "bike_id": "b3ba0dcd1370a8b2cf11d3f3d5af91bb", "fusion_lat": 0.0, "name": "b3ba0dcd1370a8b2cf11d3f3d5af91bb", "is_reserved": 0, "rental_uris": {"android": "https://dc.lft.to/lastmile_qr_scan", "ios": "https://dc.lft.to/lastmile_qr_scan"}, "fusion_lon": 0.0}, {"lat": 38.85713766666667, "is_disabled": 0, "type": "electric_scooter", "lon": -76.98673083333334, "bike_id": "c5f33b23d912b9d4a6b46466af5c0f90", "fusion_lat": 0.0, "name": "c5f33b23d912b9d4a6b46466af5c0f90", "is_reserved": 0, "rental_uris": {"android": "https://dc.lft.to/lastmile_qr_scan", "ios": "https://dc.lft.to/lastmile_qr_scan"}, "fusion_lon": 0.0}, {"lat": 38.893525833333335, "is_disabled": 0, "type": "electric_scooter", "lon": -77.04144633333334, "bike_id": "ddf8ce6e381714816d1271ad344bd23e", "fusion_lat": 0.0, "name": "ddf8ce6e381714816d1271ad344bd23e", "is_reserved": 0, "rental_uris": {"android": "https://dc.lft.to/lastmile_qr_scan", "ios": "https://dc.lft.to/lastmile_qr_scan"}, "fusion_lon": 0.0}, {"lat": 38.92581716666667, "is_disabled": 0, "type": "electric_scooter", "lon": -77.0441445, "bike_id": "6348d79be1ba4fe988cff8f44230216a", "fusion_lat": 0.0, "name": "6348d79be1ba4fe988cff8f44230216a", "is_reserved": 0, "rental_uris": {"android": "https://dc.lft.to/lastmile_qr_scan", "ios": "https://dc.lft.to/lastmile_qr_scan"}, "fusion_lon": 0.0}, {"lat": 38.93106266666667, "is_disabled": 0, "type": "electric_scooter", "lon": -77.02472016666667, "bike_id": "77f7e0ae889ebd8b0b1e88f9a096aa1e", "fusion_lat": 0.0, "name": "77f7e0ae889ebd8b0b1e88f9a096aa1e", "is_reserved": 0, "rental_uris": {"android": "https://dc.lft.to/lastmile_qr_scan", "ios": "https://dc.lft.to/lastmile_qr_scan"}, "fusion_lon": 0.0}, {"lat": 38.90975616666667, "is_disabled": 0, "type": "electric_scooter", "lon": -77.04610333333333, "bike_id": "0e993c6fcf9de4c5f406f1c88c9318f9", "fusion_lat": 0.0, "name": "0e993c6fcf9de4c5f406f1c88c9318f9", "is_reserved": 0, "rental_uris": {"android": "https://dc.lft.to/lastmile_qr_scan", "ios": "https://dc.lft.to/lastmile_qr_scan"}, "fusion_lon": 0.0}, {"lat": 38.93734083333333, "is_disabled": 0, "type": "electric_scooter", "lon": -77.03615083333334, "bike_id": "42a2d75d6387ec1b6697811f1699d724", "fusion_lat": 0.0, "name": "42a2d75d6387ec1b6697811f1699d724", "is_reserved": 0, "rental_uris": {"android": "https://dc.lft.to/lastmile_qr_scan", "ios": "https://dc.lft.to/lastmile_qr_scan"}, "fusion_lon": 0.0}, {"lat": 38.91116133333333, "is_disabled": 0, "type": "electric_scooter", "lon": -77.04361, "bike_id": "fd47790257434d9e9ad25b23572d6e89", "fusion_lat": 0.0, "name": "fd47790257434d9e9ad25b23572d6e89", "is_reserved": 0, "rental_uris": {"android": "https://dc.lft.to/lastmile_qr_scan", "ios": "https://dc.lft.to/lastmile_qr_scan"}, "fusion_lon": 0.0}, {"lat": 38.85184783333333, "is_disabled": 0, "type": "electric_scooter", "lon": -76.9761905, "bike_id": "34a7d0675297b395c7cdfbb281460d5d", "fusion_lat": 0.0, "name": "34a7d0675297b395c7cdfbb281460d5d", "is_reserved": 0, "rental_uris": {"android": "https://dc.lft.to/lastmile_qr_scan", "ios": "https://dc.lft.to/lastmile_qr_scan"}, "fusion_lon": 0.0}, {"lat": 38.89074166666666, "is_disabled": 0, "type": "electric_scooter", "lon": -76.98834683333334, "bike_id": "f13c143cab3bdd6ec5107d6aa2b34619", "fusion_lat": 0.0, "name": "f13c143cab3bdd6ec5107d6aa2b34619", "is_reserved": 0, "rental_uris": {"android": "https://dc.lft.to/lastmile_qr_scan", "ios": "https://dc.lft.to/lastmile_qr_scan"}, "fusion_lon": 0.0}, {"lat": 38.90838816666667, "is_disabled": 0, "type": "electric_scooter", "lon": -76.99695166666666, "bike_id": "4b8fd65213a549e9734062cca9107e2f", "fusion_lat": 0.0, "name": "4b8fd65213a549e9734062cca9107e2f", "is_reserved": 0, "rental_uris": {"android": "https://dc.lft.to/lastmile_qr_scan", "ios": "https://dc.lft.to/lastmile_qr_scan"}, "fusion_lon": 0.0}, {"lat": 38.933142, "is_disabled": 0, "type": "electric_scooter", "lon": -77.04527316666666, "bike_id": "11e8e104701a4a5c727a23c195ea8539", "fusion_lat": 0.0, "name": "11e8e104701a4a5c727a23c195ea8539", "is_reserved": 0, "rental_uris": {"android": "https://dc.lft.to/lastmile_qr_scan", "ios": "https://dc.lft.to/lastmile_qr_scan"}, "fusion_lon": 0.0}, {"lat": 38.94895966666667, "is_disabled": 0, "type": "electric_scooter", "lon": -77.0304525, "bike_id": "bd743fd49fd95934cb017be67a0ae2df", "fusion_lat": 0.0, "name": "bd743fd49fd95934cb017be67a0ae2df", "is_reserved": 0, "rental_uris": {"android": "https://dc.lft.to/lastmile_qr_scan", "ios": "https://dc.lft.to/lastmile_qr_scan"}, "fusion_lon": 0.0}, {"lat": 38.902955166666665, "is_disabled": 0, "type": "electric_scooter", "lon": -77.03762433333333, "bike_id": "f5fcaf9813df423d025fa2fe4b93638f", "fusion_lat": 0.0, "name": "f5fcaf9813df423d025fa2fe4b93638f", "is_reserved": 0, "rental_uris": {"android": "https://dc.lft.to/lastmile_qr_scan", "ios": "https://dc.lft.to/lastmile_qr_scan"}, "fusion_lon": 0.0}, {"lat": 38.97224283333333, "is_disabled": 0, "type": "electric_bike", "lon": -76.99343433333334, "bike_id": "4d40048ea490c7a16eb3155e727e3bbc", "fusion_lat": 0.0, "name": "4d40048ea490c7a16eb3155e727e3bbc", "is_reserved": 0, "rental_uris": {"android": "https://dc.lft.to/lastmile_qr_scan", "ios": "https://dc.lft.to/lastmile_qr_scan"}, "fusion_lon": 0.0}, {"lat": 38.92236783333333, "is_disabled": 0, "type": "electric_scooter", "lon": -77.04573566666667, "bike_id": "02272ed064f3a158cb80ecfa21e3f0ea", "fusion_lat": 0.0, "name": "02272ed064f3a158cb80ecfa21e3f0ea", "is_reserved": 0, "rental_uris": {"android": "https://dc.lft.to/lastmile_qr_scan", "ios": "https://dc.lft.to/lastmile_qr_scan"}, "fusion_lon": 0.0}, {"lat": 38.92768516666667, "is_disabled": 0, "type": "electric_scooter", "lon": -77.026145, "bike_id": "347359b63133a4fccb53830be91789ed", "fusion_lat": 0.0, "name": "347359b63133a4fccb53830be91789ed", "is_reserved": 0, "rental_uris": {"android": "https://dc.lft.to/lastmile_qr_scan", "ios": "https://dc.lft.to/lastmile_qr_scan"}, "fusion_lon": 0.0}, {"lat": 38.913932833333334, "is_disabled": 0, "type": "electric_scooter", "lon": -77.031831, "bike_id": "6786ed26fcea86364d48cf285ecfcb1c", "fusion_lat": 0.0, "name": "6786ed26fcea86364d48cf285ecfcb1c", "is_reserved": 0, "rental_uris": {"android": "https://dc.lft.to/lastmile_qr_scan", "ios": "https://dc.lft.to/lastmile_qr_scan"}, "fusion_lon": 0.0}, {"lat": 38.91327783333333, "is_disabled": 0, "type": "electric_scooter", "lon": -77.031851, "bike_id": "58ad97e3d9a7ca1fa6ce9d8145f79af7", "fusion_lat": 0.0, "name": "58ad97e3d9a7ca1fa6ce9d8145f79af7", "is_reserved": 0, "rental_uris": {"android": "https://dc.lft.to/lastmile_qr_scan", "ios": "https://dc.lft.to/lastmile_qr_scan"}, "fusion_lon": 0.0}, {"lat": 38.9814325, "is_disabled": 0, "type": "electric_bike", "lon": -77.00769716666667, "bike_id": "eea0cc4793d446b90c518c36f4bb5890", "fusion_lat": 0.0, "name": "eea0cc4793d446b90c518c36f4bb5890", "is_reserved": 0, "rental_uris": {"android": "https://dc.lft.to/lastmile_qr_scan", "ios": "https://dc.lft.to/lastmile_qr_scan"}, "fusion_lon": 0.0}, {"lat": 38.9037335, "is_disabled": 0, "type": "electric_scooter", "lon": -77.04804816666666, "bike_id": "4676a538561c70fa7a982caa4ef6e69c", "fusion_lat": 0.0, "name": "4676a538561c70fa7a982caa4ef6e69c", "is_reserved": 0, "rental_uris": {"android": "https://dc.lft.to/lastmile_qr_scan", "ios": "https://dc.lft.to/lastmile_qr_scan"}, "fusion_lon": 0.0}, {"lat": 38.85737, "is_disabled": 0, "type": "electric_scooter", "lon": -76.9943685, "bike_id": "649e889660cd959a4fe5306785ec3171", "fusion_lat": 0.0, "name": "649e889660cd959a4fe5306785ec3171", "is_reserved": 0, "rental_uris": {"android": "https://dc.lft.to/lastmile_qr_scan", "ios": "https://dc.lft.to/lastmile_qr_scan"}, "fusion_lon": 0.0}, {"lat": 38.9171975, "is_disabled": 0, "type": "electric_scooter", "lon": -77.03661516666666, "bike_id": "956364884afc217be5e48707f6a079e8", "fusion_lat": 0.0, "name": "956364884afc217be5e48707f6a079e8", "is_reserved": 0, "rental_uris": {"android": "https://dc.lft.to/lastmile_qr_scan", "ios": "https://dc.lft.to/lastmile_qr_scan"}, "fusion_lon": 0.0}, {"lat": 38.94437683333334, "is_disabled": 0, "type": "electric_scooter", "lon": -77.02339416666666, "bike_id": "04a4081b7ac25828346523c0fc7d0d31", "fusion_lat": 0.0, "name": "04a4081b7ac25828346523c0fc7d0d31", "is_reserved": 0, "rental_uris": {"android": "https://dc.lft.to/lastmile_qr_scan", "ios": "https://dc.lft.to/lastmile_qr_scan"}, "fusion_lon": 0.0}, {"lat": 38.9045455, "is_disabled": 0, "type": "electric_scooter", "lon": -77.06289083333333, "bike_id": "2f2c51d9b6f08fd4f4d6617b139059d1", "fusion_lat": 0.0, "name": "2f2c51d9b6f08fd4f4d6617b139059d1", "is_reserved": 0, "rental_uris": {"android": "https://dc.lft.to/lastmile_qr_scan", "ios": "https://dc.lft.to/lastmile_qr_scan"}, "fusion_lon": 0.0}, {"lat": 38.94950466666667, "is_disabled": 0, "type": "electric_scooter", "lon": -77.0158075, "bike_id": "b45f57c2c364228b0ebb8ab4317f6da7", "fusion_lat": 0.0, "name": "b45f57c2c364228b0ebb8ab4317f6da7", "is_reserved": 0, "rental_uris": {"android": "https://dc.lft.to/lastmile_qr_scan", "ios": "https://dc.lft.to/lastmile_qr_scan"}, "fusion_lon": 0.0}, {"lat": 38.9357955, "is_disabled": 0, "type": "electric_bike", "lon": -77.10683666666667, "bike_id": "127893bd693751713ac2c7fa9e136186", "fusion_lat": 0.0, "name": "127893bd693751713ac2c7fa9e136186", "is_reserved": 0, "rental_uris": {"android": "https://dc.lft.to/lastmile_qr_scan", "ios": "https://dc.lft.to/lastmile_qr_scan"}, "fusion_lon": 0.0}, {"lat": 38.912767833333334, "is_disabled": 0, "type": "electric_scooter", "lon": -77.02248383333334, "bike_id": "274e978438c1ee5d70c39a18792470f2", "fusion_lat": 0.0, "name": "274e978438c1ee5d70c39a18792470f2", "is_reserved": 0, "rental_uris": {"android": "https://dc.lft.to/lastmile_qr_scan", "ios": "https://dc.lft.to/lastmile_qr_scan"}, "fusion_lon": 0.0}, {"lat": 38.9174135, "is_disabled": 0, "type": "electric_scooter", "lon": -77.031847, "bike_id": "291496fd0d7fc94a12004e6f700f0bd1", "fusion_lat": 0.0, "name": "291496fd0d7fc94a12004e6f700f0bd1", "is_reserved": 0, "rental_uris": {"android": "https://dc.lft.to/lastmile_qr_scan", "ios": "https://dc.lft.to/lastmile_qr_scan"}, "fusion_lon": 0.0}, {"lat": 38.9087855, "is_disabled": 0, "type": "electric_scooter", "lon": -76.98521583333333, "bike_id": "41e79146dac4c771b72065bc06d74854", "fusion_lat": 0.0, "name": "41e79146dac4c771b72065bc06d74854", "is_reserved": 0, "rental_uris": {"android": "https://dc.lft.to/lastmile_qr_scan", "ios": "https://dc.lft.to/lastmile_qr_scan"}, "fusion_lon": 0.0}, {"lat": 38.9500205, "is_disabled": 0, "type": "electric_scooter", "lon": -77.08191533333333, "bike_id": "6c6c8f9ee1fde3a943539bafc3080bf0", "fusion_lat": 0.0, "name": "6c6c8f9ee1fde3a943539bafc3080bf0", "is_reserved": 0, "rental_uris": {"android": "https://dc.lft.to/lastmile_qr_scan", "ios": "https://dc.lft.to/lastmile_qr_scan"}, "fusion_lon": 0.0}, {"lat": 38.91875433333333, "is_disabled": 0, "type": "electric_scooter", "lon": -76.96550983333333, "bike_id": "345fad2b0cb006554f50349841f903b4", "fusion_lat": 0.0, "name": "345fad2b0cb006554f50349841f903b4", "is_reserved": 0, "rental_uris": {"android": "https://dc.lft.to/lastmile_qr_scan", "ios": "https://dc.lft.to/lastmile_qr_scan"}, "fusion_lon": 0.0}, {"lat": 38.9057015, "is_disabled": 0, "type": "electric_scooter", "lon": -77.00595866666667, "bike_id": "6433e585536031b6b84feca08d99996f", "fusion_lat": 0.0, "name": "6433e585536031b6b84feca08d99996f", "is_reserved": 0, "rental_uris": {"android": "https://dc.lft.to/lastmile_qr_scan", "ios": "https://dc.lft.to/lastmile_qr_scan"}, "fusion_lon": 0.0}, {"lat": 38.920910666666664, "is_disabled": 0, "type": "electric_scooter", "lon": -77.02521866666666, "bike_id": "79fdaaacd97a704f1d18b49224a6c4dd", "fusion_lat": 0.0, "name": "79fdaaacd97a704f1d18b49224a6c4dd", "is_reserved": 0, "rental_uris": {"android": "https://dc.lft.to/lastmile_qr_scan", "ios": "https://dc.lft.to/lastmile_qr_scan"}, "fusion_lon": 0.0}, {"lat": 38.9052605, "is_disabled": 0, "type": "electric_scooter", "lon": -77.02946083333333, "bike_id": "b60dda2837f3327ca94ad792662574c6", "fusion_lat": 0.0, "name": "b60dda2837f3327ca94ad792662574c6", "is_reserved": 0, "rental_uris": {"android": "https://dc.lft.to/lastmile_qr_scan", "ios": "https://dc.lft.to/lastmile_qr_scan"}, "fusion_lon": 0.0}, {"lat": 38.92249533333333, "is_disabled": 0, "type": "electric_scooter", "lon": -77.03084083333333, "bike_id": "9814154d28e0a37541c81105c4b49082", "fusion_lat": 0.0, "name": "9814154d28e0a37541c81105c4b49082", "is_reserved": 0, "rental_uris": {"android": "https://dc.lft.to/lastmile_qr_scan", "ios": "https://dc.lft.to/lastmile_qr_scan"}, "fusion_lon": 0.0}, {"lat": 38.85865233333333, "is_disabled": 0, "type": "electric_bike", "lon": -77.0606575, "bike_id": "52665c3561c06ce65d430aa2d8bf11a2", "fusion_lat": 0.0, "name": "52665c3561c06ce65d430aa2d8bf11a2", "is_reserved": 0, "rental_uris": {"android": "https://dc.lft.to/lastmile_qr_scan", "ios": "https://dc.lft.to/lastmile_qr_scan"}, "fusion_lon": 0.0}, {"lat": 38.93092866666667, "is_disabled": 0, "type": "electric_scooter", "lon": -77.02352733333333, "bike_id": "f731a5ae704f992b0e7e22e9745c190d", "fusion_lat": 0.0, "name": "f731a5ae704f992b0e7e22e9745c190d", "is_reserved": 0, "rental_uris": {"android": "https://dc.lft.to/lastmile_qr_scan", "ios": "https://dc.lft.to/lastmile_qr_scan"}, "fusion_lon": 0.0}, {"lat": 38.8636465, "is_disabled": 0, "type": "electric_scooter", "lon": -76.99024566666667, "bike_id": "3c14221898599d0ce18241600b480e21", "fusion_lat": 0.0, "name": "3c14221898599d0ce18241600b480e21", "is_reserved": 0, "rental_uris": {"android": "https://dc.lft.to/lastmile_qr_scan", "ios": "https://dc.lft.to/lastmile_qr_scan"}, "fusion_lon": 0.0}, {"lat": 38.87155083333333, "is_disabled": 0, "type": "electric_bike", "lon": -76.93671983333333, "bike_id": "145902381fa16efe9e9473434ca9924a", "fusion_lat": 0.0, "name": "145902381fa16efe9e9473434ca9924a", "is_reserved": 0, "rental_uris": {"android": "https://dc.lft.to/lastmile_qr_scan", "ios": "https://dc.lft.to/lastmile_qr_scan"}, "fusion_lon": 0.0}, {"lat": 38.92313266666667, "is_disabled": 0, "type": "electric_scooter", "lon": -77.0421405, "bike_id": "59316c812ceb97e968dae70713f5f676", "fusion_lat": 0.0, "name": "59316c812ceb97e968dae70713f5f676", "is_reserved": 0, "rental_uris": {"android": "https://dc.lft.to/lastmile_qr_scan", "ios": "https://dc.lft.to/lastmile_qr_scan"}, "fusion_lon": 0.0}, {"lat": 38.92128983333333, "is_disabled": 0, "type": "electric_scooter", "lon": -77.036602, "bike_id": "af2e5bfa340f1e74a221bd626805b642", "fusion_lat": 0.0, "name": "af2e5bfa340f1e74a221bd626805b642", "is_reserved": 0, "rental_uris": {"android": "https://dc.lft.to/lastmile_qr_scan", "ios": "https://dc.lft.to/lastmile_qr_scan"}, "fusion_lon": 0.0}, {"lat": 38.904080666666665, "is_disabled": 0, "type": "electric_scooter", "lon": -76.98098183333333, "bike_id": "1047e47e55702f9e9b623b4bb40458c9", "fusion_lat": 0.0, "name": "1047e47e55702f9e9b623b4bb40458c9", "is_reserved": 0, "rental_uris": {"android": "https://dc.lft.to/lastmile_qr_scan", "ios": "https://dc.lft.to/lastmile_qr_scan"}, "fusion_lon": 0.0}, {"lat": 38.90949633333334, "is_disabled": 0, "type": "electric_scooter", "lon": -77.046573, "bike_id": "51181b835f07a9465ad0e4fe49a641f8", "fusion_lat": 0.0, "name": "51181b835f07a9465ad0e4fe49a641f8", "is_reserved": 0, "rental_uris": {"android": "https://dc.lft.to/lastmile_qr_scan", "ios": "https://dc.lft.to/lastmile_qr_scan"}, "fusion_lon": 0.0}, {"lat": 38.89378, "is_disabled": 0, "type": "electric_scooter", "lon": -77.02211483333333, "bike_id": "f93024dc883ff9a03cd329ca0f09f08b", "fusion_lat": 0.0, "name": "f93024dc883ff9a03cd329ca0f09f08b", "is_reserved": 0, "rental_uris": {"android": "https://dc.lft.to/lastmile_qr_scan", "ios": "https://dc.lft.to/lastmile_qr_scan"}, "fusion_lon": 0.0}, {"lat": 38.881595833333336, "is_disabled": 0, "type": "electric_scooter", "lon": -77.02735866666667, "bike_id": "413d26e6ac183ec360cc5e493f4eecd8", "fusion_lat": 0.0, "name": "413d26e6ac183ec360cc5e493f4eecd8", "is_reserved": 0, "rental_uris": {"android": "https://dc.lft.to/lastmile_qr_scan", "ios": "https://dc.lft.to/lastmile_qr_scan"}, "fusion_lon": 0.0}, {"lat": 38.933585, "is_disabled": 0, "type": "electric_bike", "lon": -77.09959933333333, "bike_id": "75aeb3ad7194b7cad1ae1c397b24f478", "fusion_lat": 0.0, "name": "75aeb3ad7194b7cad1ae1c397b24f478", "is_reserved": 0, "rental_uris": {"android": "https://dc.lft.to/lastmile_qr_scan", "ios": "https://dc.lft.to/lastmile_qr_scan"}, "fusion_lon": 0.0}, {"lat": 38.92858966666667, "is_disabled": 0, "type": "electric_scooter", "lon": -77.01377066666667, "bike_id": "a2956dcdfb1deb1b187179c348c0c2ab", "fusion_lat": 0.0, "name": "a2956dcdfb1deb1b187179c348c0c2ab", "is_reserved": 0, "rental_uris": {"android": "https://dc.lft.to/lastmile_qr_scan", "ios": "https://dc.lft.to/lastmile_qr_scan"}, "fusion_lon": 0.0}, {"lat": 38.95165083333333, "is_disabled": 0, "type": "electric_bike", "lon": -76.96889816666666, "bike_id": "a41c34a510797f0deed141f00351a5cc", "fusion_lat": 0.0, "name": "a41c34a510797f0deed141f00351a5cc", "is_reserved": 0, "rental_uris": {"android": "https://dc.lft.to/lastmile_qr_scan", "ios": "https://dc.lft.to/lastmile_qr_scan"}, "fusion_lon": 0.0}, {"lat": 38.91877566666667, "is_disabled": 0, "type": "electric_scooter", "lon": -77.01210116666667, "bike_id": "c7c71afcb3007260ce9fbf614ce8b474", "fusion_lat": 0.0, "name": "c7c71afcb3007260ce9fbf614ce8b474", "is_reserved": 0, "rental_uris": {"android": "https://dc.lft.to/lastmile_qr_scan", "ios": "https://dc.lft.to/lastmile_qr_scan"}, "fusion_lon": 0.0}, {"lat": 38.900715, "is_disabled": 0, "type": "electric_scooter", "lon": -77.00211183333333, "bike_id": "7dd1d8243c312f20e81ddb1b88f04a1b", "fusion_lat": 0.0, "name": "7dd1d8243c312f20e81ddb1b88f04a1b", "is_reserved": 0, "rental_uris": {"android": "https://dc.lft.to/lastmile_qr_scan", "ios": "https://dc.lft.to/lastmile_qr_scan"}, "fusion_lon": 0.0}, {"lat": 38.9129835, "is_disabled": 0, "type": "electric_scooter", "lon": -77.02391983333334, "bike_id": "2be7eefba82446f10b79630d4dc95370", "fusion_lat": 0.0, "name": "2be7eefba82446f10b79630d4dc95370", "is_reserved": 0, "rental_uris": {"android": "https://dc.lft.to/lastmile_qr_scan", "ios": "https://dc.lft.to/lastmile_qr_scan"}, "fusion_lon": 0.0}, {"lat": 38.90735633333333, "is_disabled": 0, "type": "electric_scooter", "lon": -77.03481066666667, "bike_id": "b3a72e4f959293a6fb8327c9116a7415", "fusion_lat": 0.0, "name": "b3a72e4f959293a6fb8327c9116a7415", "is_reserved": 0, "rental_uris": {"android": "https://dc.lft.to/lastmile_qr_scan", "ios": "https://dc.lft.to/lastmile_qr_scan"}, "fusion_lon": 0.0}, {"lat": 38.903606833333335, "is_disabled": 0, "type": "electric_scooter", "lon": -77.04455866666666, "bike_id": "0b69b967f84dfc3d22bb7d78fb213744", "fusion_lat": 0.0, "name": "0b69b967f84dfc3d22bb7d78fb213744", "is_reserved": 0, "rental_uris": {"android": "https://dc.lft.to/lastmile_qr_scan", "ios": "https://dc.lft.to/lastmile_qr_scan"}, "fusion_lon": 0.0}, {"lat": 38.90273916666666, "is_disabled": 0, "type": "electric_scooter", "lon": -77.03970116666666, "bike_id": "9fd6d5b5a6dcc94bbd69407882b8f9e7", "fusion_lat": 0.0, "name": "9fd6d5b5a6dcc94bbd69407882b8f9e7", "is_reserved": 0, "rental_uris": {"android": "https://dc.lft.to/lastmile_qr_scan", "ios": "https://dc.lft.to/lastmile_qr_scan"}, "fusion_lon": 0.0}, {"lat": 38.89584933333333, "is_disabled": 0, "type": "electric_bike", "lon": -77.12682183333334, "bike_id": "a6874481217ca98b26f70b48d4ebb9ac", "fusion_lat": 0.0, "name": "a6874481217ca98b26f70b48d4ebb9ac", "is_reserved": 0, "rental_uris": {"android": "https://dc.lft.to/lastmile_qr_scan", "ios": "https://dc.lft.to/lastmile_qr_scan"}, "fusion_lon": 0.0}, {"lat": 38.9232945, "is_disabled": 0, "type": "electric_scooter", "lon": -77.03544016666666, "bike_id": "c84dfbc20681cb2c7557942b0aa4b427", "fusion_lat": 0.0, "name": "c84dfbc20681cb2c7557942b0aa4b427", "is_reserved": 0, "rental_uris": {"android": "https://dc.lft.to/lastmile_qr_scan", "ios": "https://dc.lft.to/lastmile_qr_scan"}, "fusion_lon": 0.0}, {"lat": 38.9097555, "is_disabled": 0, "type": "electric_scooter", "lon": -77.0387075, "bike_id": "20455f605a85923b3db8f3f10e53ee89", "fusion_lat": 0.0, "name": "20455f605a85923b3db8f3f10e53ee89", "is_reserved": 0, "rental_uris": {"android": "https://dc.lft.to/lastmile_qr_scan", "ios": "https://dc.lft.to/lastmile_qr_scan"}, "fusion_lon": 0.0}, {"lat": 38.9335875, "is_disabled": 0, "type": "electric_bike", "lon": -77.09960933333333, "bike_id": "9f9a5e8f9509dae05610778d56721cb5", "fusion_lat": 0.0, "name": "9f9a5e8f9509dae05610778d56721cb5", "is_reserved": 0, "rental_uris": {"android": "https://dc.lft.to/lastmile_qr_scan", "ios": "https://dc.lft.to/lastmile_qr_scan"}, "fusion_lon": 0.0}, {"lat": 38.92125016666667, "is_disabled": 0, "type": "electric_scooter", "lon": -77.03664683333334, "bike_id": "2f2c87d1c1362262481cb81bae6fa49f", "fusion_lat": 0.0, "name": "2f2c87d1c1362262481cb81bae6fa49f", "is_reserved": 0, "rental_uris": {"android": "https://dc.lft.to/lastmile_qr_scan", "ios": "https://dc.lft.to/lastmile_qr_scan"}, "fusion_lon": 0.0}, {"lat": 38.91015016666667, "is_disabled": 0, "type": "electric_scooter", "lon": -77.04441616666666, "bike_id": "f790cf9d3b131f8b429b3cdbbcb1b562", "fusion_lat": 0.0, "name": "f790cf9d3b131f8b429b3cdbbcb1b562", "is_reserved": 0, "rental_uris": {"android": "https://dc.lft.to/lastmile_qr_scan", "ios": "https://dc.lft.to/lastmile_qr_scan"}, "fusion_lon": 0.0}, {"lat": 38.9096645, "is_disabled": 0, "type": "electric_scooter", "lon": -77.022779, "bike_id": "793998bdca18c87edc7d6820d9ce25ca", "fusion_lat": 0.0, "name": "793998bdca18c87edc7d6820d9ce25ca", "is_reserved": 0, "rental_uris": {"android": "https://dc.lft.to/lastmile_qr_scan", "ios": "https://dc.lft.to/lastmile_qr_scan"}, "fusion_lon": 0.0}, {"lat": 38.901559, "is_disabled": 0, "type": "electric_scooter", "lon": -77.0395115, "bike_id": "ef542d86eb156e7d865dbed9b2a7c2da", "fusion_lat": 0.0, "name": "ef542d86eb156e7d865dbed9b2a7c2da", "is_reserved": 0, "rental_uris": {"android": "https://dc.lft.to/lastmile_qr_scan", "ios": "https://dc.lft.to/lastmile_qr_scan"}, "fusion_lon": 0.0}, {"lat": 38.90297283333334, "is_disabled": 0, "type": "electric_scooter", "lon": -77.03659366666666, "bike_id": "67728ee47ec595e64b4fe1c888fca5c1", "fusion_lat": 0.0, "name": "67728ee47ec595e64b4fe1c888fca5c1", "is_reserved": 0, "rental_uris": {"android": "https://dc.lft.to/lastmile_qr_scan", "ios": "https://dc.lft.to/lastmile_qr_scan"}, "fusion_lon": 0.0}, {"lat": 38.865186666666666, "is_disabled": 0, "type": "electric_scooter", "lon": -76.9903, "bike_id": "f2a9d019e68ada15cc1db4b4effd4297", "fusion_lat": 0.0, "name": "f2a9d019e68ada15cc1db4b4effd4297", "is_reserved": 0, "rental_uris": {"android": "https://dc.lft.to/lastmile_qr_scan", "ios": "https://dc.lft.to/lastmile_qr_scan"}, "fusion_lon": 0.0}, {"lat": 38.93211066666667, "is_disabled": 0, "type": "electric_scooter", "lon": -76.977686, "bike_id": "1f328a7d557c78c2962e854480599c8c", "fusion_lat": 0.0, "name": "1f328a7d557c78c2962e854480599c8c", "is_reserved": 0, "rental_uris": {"android": "https://dc.lft.to/lastmile_qr_scan", "ios": "https://dc.lft.to/lastmile_qr_scan"}, "fusion_lon": 0.0}, {"lat": 38.914213333333336, "is_disabled": 0, "type": "electric_scooter", "lon": -77.0318535, "bike_id": "8cb6849beaf40147e0a36b1ba0c61f85", "fusion_lat": 0.0, "name": "8cb6849beaf40147e0a36b1ba0c61f85", "is_reserved": 0, "rental_uris": {"android": "https://dc.lft.to/lastmile_qr_scan", "ios": "https://dc.lft.to/lastmile_qr_scan"}, "fusion_lon": 0.0}, {"lat": 38.92287683333333, "is_disabled": 0, "type": "electric_scooter", "lon": -77.04259266666666, "bike_id": "94fe74b052df3d2a61a66b1b5ffe4487", "fusion_lat": 0.0, "name": "94fe74b052df3d2a61a66b1b5ffe4487", "is_reserved": 0, "rental_uris": {"android": "https://dc.lft.to/lastmile_qr_scan", "ios": "https://dc.lft.to/lastmile_qr_scan"}, "fusion_lon": 0.0}, {"lat": 38.905298, "is_disabled": 0, "type": "electric_scooter", "lon": -77.06240283333334, "bike_id": "e800d29e7943d7f68f90d03c6b613263", "fusion_lat": 0.0, "name": "e800d29e7943d7f68f90d03c6b613263", "is_reserved": 0, "rental_uris": {"android": "https://dc.lft.to/lastmile_qr_scan", "ios": "https://dc.lft.to/lastmile_qr_scan"}, "fusion_lon": 0.0}, {"lat": 38.93325183333333, "is_disabled": 0, "type": "electric_scooter", "lon": -77.04366716666667, "bike_id": "12ed8baf70ba6378f99ab8f073c22bae", "fusion_lat": 0.0, "name": "12ed8baf70ba6378f99ab8f073c22bae", "is_reserved": 0, "rental_uris": {"android": "https://dc.lft.to/lastmile_qr_scan", "ios": "https://dc.lft.to/lastmile_qr_scan"}, "fusion_lon": 0.0}, {"lat": 38.902206166666666, "is_disabled": 0, "type": "electric_scooter", "lon": -77.06052733333334, "bike_id": "364f7389d91c6a66fb598b3eeccfd971", "fusion_lat": 0.0, "name": "364f7389d91c6a66fb598b3eeccfd971", "is_reserved": 0, "rental_uris": {"android": "https://dc.lft.to/lastmile_qr_scan", "ios": "https://dc.lft.to/lastmile_qr_scan"}, "fusion_lon": 0.0}, {"lat": 38.919519, "is_disabled": 0, "type": "electric_scooter", "lon": -76.9807795, "bike_id": "24e344b04cbb5fa07729db3957a15616", "fusion_lat": 0.0, "name": "24e344b04cbb5fa07729db3957a15616", "is_reserved": 0, "rental_uris": {"android": "https://dc.lft.to/lastmile_qr_scan", "ios": "https://dc.lft.to/lastmile_qr_scan"}, "fusion_lon": 0.0}, {"lat": 38.85563483333333, "is_disabled": 0, "type": "electric_bike", "lon": -77.1113625, "bike_id": "d2d39300caa9d39856d5f6cbb457b697", "fusion_lat": 0.0, "name": "d2d39300caa9d39856d5f6cbb457b697", "is_reserved": 0, "rental_uris": {"android": "https://dc.lft.to/lastmile_qr_scan", "ios": "https://dc.lft.to/lastmile_qr_scan"}, "fusion_lon": 0.0}, {"lat": 38.897385, "is_disabled": 0, "type": "electric_scooter", "lon": -77.00780866666666, "bike_id": "67a21a2ce884c3163859d13a27572ff1", "fusion_lat": 0.0, "name": "67a21a2ce884c3163859d13a27572ff1", "is_reserved": 0, "rental_uris": {"android": "https://dc.lft.to/lastmile_qr_scan", "ios": "https://dc.lft.to/lastmile_qr_scan"}, "fusion_lon": 0.0}, {"lat": 38.91683733333333, "is_disabled": 0, "type": "electric_scooter", "lon": -77.001974, "bike_id": "79c212d6599ed8665f5423c95d09cb63", "fusion_lat": 0.0, "name": "79c212d6599ed8665f5423c95d09cb63", "is_reserved": 0, "rental_uris": {"android": "https://dc.lft.to/lastmile_qr_scan", "ios": "https://dc.lft.to/lastmile_qr_scan"}, "fusion_lon": 0.0}, {"lat": 38.92537516666667, "is_disabled": 0, "type": "electric_scooter", "lon": -77.0263105, "bike_id": "db098098ad4bb1df0c61b86f3836bad5", "fusion_lat": 0.0, "name": "db098098ad4bb1df0c61b86f3836bad5", "is_reserved": 0, "rental_uris": {"android": "https://dc.lft.to/lastmile_qr_scan", "ios": "https://dc.lft.to/lastmile_qr_scan"}, "fusion_lon": 0.0}, {"lat": 38.958849, "is_disabled": 0, "type": "electric_bike", "lon": -76.92490716666667, "bike_id": "fd839952e7a81db39922c527dbe752d6", "fusion_lat": 0.0, "name": "fd839952e7a81db39922c527dbe752d6", "is_reserved": 0, "rental_uris": {"android": "https://dc.lft.to/lastmile_qr_scan", "ios": "https://dc.lft.to/lastmile_qr_scan"}, "fusion_lon": 0.0}, {"lat": 38.883618166666665, "is_disabled": 0, "type": "electric_scooter", "lon": -76.941543, "bike_id": "982b34e542d567457cea5a14e106aa46", "fusion_lat": 0.0, "name": "982b34e542d567457cea5a14e106aa46", "is_reserved": 0, "rental_uris": {"android": "https://dc.lft.to/lastmile_qr_scan", "ios": "https://dc.lft.to/lastmile_qr_scan"}, "fusion_lon": 0.0}, {"lat": 38.9341055, "is_disabled": 0, "type": "electric_scooter", "lon": -77.03289766666667, "bike_id": "61bc92e0bb025f3bd9364119e7fce4f0", "fusion_lat": 0.0, "name": "61bc92e0bb025f3bd9364119e7fce4f0", "is_reserved": 0, "rental_uris": {"android": "https://dc.lft.to/lastmile_qr_scan", "ios": "https://dc.lft.to/lastmile_qr_scan"}, "fusion_lon": 0.0}, {"lat": 38.941228833333334, "is_disabled": 0, "type": "electric_scooter", "lon": -77.00060283333333, "bike_id": "e3630c16a19da255e32c89e61216a5e2", "fusion_lat": 0.0, "name": "e3630c16a19da255e32c89e61216a5e2", "is_reserved": 0, "rental_uris": {"android": "https://dc.lft.to/lastmile_qr_scan", "ios": "https://dc.lft.to/lastmile_qr_scan"}, "fusion_lon": 0.0}, {"lat": 38.91885833333333, "is_disabled": 0, "type": "electric_scooter", "lon": -77.044732, "bike_id": "f19152ae92e4ed38cde717cbf9bd5741", "fusion_lat": 0.0, "name": "f19152ae92e4ed38cde717cbf9bd5741", "is_reserved": 0, "rental_uris": {"android": "https://dc.lft.to/lastmile_qr_scan", "ios": "https://dc.lft.to/lastmile_qr_scan"}, "fusion_lon": 0.0}, {"lat": 38.90093616666667, "is_disabled": 0, "type": "electric_scooter", "lon": -77.05602116666667, "bike_id": "a3d7b5b71f531952c6bd291ab03a3c92", "fusion_lat": 0.0, "name": "a3d7b5b71f531952c6bd291ab03a3c92", "is_reserved": 0, "rental_uris": {"android": "https://dc.lft.to/lastmile_qr_scan", "ios": "https://dc.lft.to/lastmile_qr_scan"}, "fusion_lon": 0.0}, {"lat": 38.915673, "is_disabled": 0, "type": "electric_scooter", "lon": -77.022911, "bike_id": "95e614dfe9907a89c0d147aae414ff0a", "fusion_lat": 0.0, "name": "95e614dfe9907a89c0d147aae414ff0a", "is_reserved": 0, "rental_uris": {"android": "https://dc.lft.to/lastmile_qr_scan", "ios": "https://dc.lft.to/lastmile_qr_scan"}, "fusion_lon": 0.0}, {"lat": 38.91351083333333, "is_disabled": 0, "type": "electric_scooter", "lon": -77.03364083333334, "bike_id": "ebafe2e0af79de9c632db5c4149f716e", "fusion_lat": 0.0, "name": "ebafe2e0af79de9c632db5c4149f716e", "is_reserved": 0, "rental_uris": {"android": "https://dc.lft.to/lastmile_qr_scan", "ios": "https://dc.lft.to/lastmile_qr_scan"}, "fusion_lon": 0.0}, {"lat": 38.90489433333333, "is_disabled": 0, "type": "electric_scooter", "lon": -77.04853983333334, "bike_id": "f3fd1121b7eee23f1af548e815da46f1", "fusion_lat": 0.0, "name": "f3fd1121b7eee23f1af548e815da46f1", "is_reserved": 0, "rental_uris": {"android": "https://dc.lft.to/lastmile_qr_scan", "ios": "https://dc.lft.to/lastmile_qr_scan"}, "fusion_lon": 0.0}, {"lat": 38.902207833333335, "is_disabled": 0, "type": "electric_scooter", "lon": -77.0591135, "bike_id": "c4fdc2bc052b43e2ae5e02a49b979bea", "fusion_lat": 0.0, "name": "c4fdc2bc052b43e2ae5e02a49b979bea", "is_reserved": 0, "rental_uris": {"android": "https://dc.lft.to/lastmile_qr_scan", "ios": "https://dc.lft.to/lastmile_qr_scan"}, "fusion_lon": 0.0}, {"lat": 38.917485166666665, "is_disabled": 0, "type": "electric_scooter", "lon": -77.035938, "bike_id": "dc48d6ee09861740878a941a233fe5cc", "fusion_lat": 0.0, "name": "dc48d6ee09861740878a941a233fe5cc", "is_reserved": 0, "rental_uris": {"android": "https://dc.lft.to/lastmile_qr_scan", "ios": "https://dc.lft.to/lastmile_qr_scan"}, "fusion_lon": 0.0}, {"lat": 38.865062, "is_disabled": 0, "type": "electric_scooter", "lon": -76.99004816666667, "bike_id": "16177e5a86b5b38c26cd47783a383251", "fusion_lat": 0.0, "name": "16177e5a86b5b38c26cd47783a383251", "is_reserved": 0, "rental_uris": {"android": "https://dc.lft.to/lastmile_qr_scan", "ios": "https://dc.lft.to/lastmile_qr_scan"}, "fusion_lon": 0.0}, {"lat": 38.892221, "is_disabled": 0, "type": "electric_scooter", "lon": -76.93291983333333, "bike_id": "3deba6f12513f8c6b2685335bd54f709", "fusion_lat": 0.0, "name": "3deba6f12513f8c6b2685335bd54f709", "is_reserved": 0, "rental_uris": {"android": "https://dc.lft.to/lastmile_qr_scan", "ios": "https://dc.lft.to/lastmile_qr_scan"}, "fusion_lon": 0.0}, {"lat": 38.900390333333334, "is_disabled": 0, "type": "electric_scooter", "lon": -77.0331605, "bike_id": "041b98969e659ffcf0b6fc52db1597b0", "fusion_lat": 0.0, "name": "041b98969e659ffcf0b6fc52db1597b0", "is_reserved": 0, "rental_uris": {"android": "https://dc.lft.to/lastmile_qr_scan", "ios": "https://dc.lft.to/lastmile_qr_scan"}, "fusion_lon": 0.0}, {"lat": 38.926117166666664, "is_disabled": 0, "type": "electric_scooter", "lon": -76.996047, "bike_id": "9c54403dbbc6f6f310bb1a2545344103", "fusion_lat": 0.0, "name": "9c54403dbbc6f6f310bb1a2545344103", "is_reserved": 0, "rental_uris": {"android": "https://dc.lft.to/lastmile_qr_scan", "ios": "https://dc.lft.to/lastmile_qr_scan"}, "fusion_lon": 0.0}, {"lat": 38.94288066666667, "is_disabled": 0, "type": "electric_scooter", "lon": -77.02166516666666, "bike_id": "fd8eb0abb35d8e7f3ec889a02ac3c85e", "fusion_lat": 0.0, "name": "fd8eb0abb35d8e7f3ec889a02ac3c85e", "is_reserved": 0, "rental_uris": {"android": "https://dc.lft.to/lastmile_qr_scan", "ios": "https://dc.lft.to/lastmile_qr_scan"}, "fusion_lon": 0.0}, {"lat": 38.8757965, "is_disabled": 0, "type": "electric_bike", "lon": -77.105627, "bike_id": "2210acf64f236c95e9385a8ba36d4e91", "fusion_lat": 0.0, "name": "2210acf64f236c95e9385a8ba36d4e91", "is_reserved": 0, "rental_uris": {"android": "https://dc.lft.to/lastmile_qr_scan", "ios": "https://dc.lft.to/lastmile_qr_scan"}, "fusion_lon": 0.0}, {"lat": 38.884879833333336, "is_disabled": 0, "type": "electric_scooter", "lon": -77.00714233333333, "bike_id": "c5a89841eaa90cd70b683ac8d6201925", "fusion_lat": 0.0, "name": "c5a89841eaa90cd70b683ac8d6201925", "is_reserved": 0, "rental_uris": {"android": "https://dc.lft.to/lastmile_qr_scan", "ios": "https://dc.lft.to/lastmile_qr_scan"}, "fusion_lon": 0.0}, {"lat": 38.8662355, "is_disabled": 0, "type": "electric_scooter", "lon": -76.986964, "bike_id": "b01a67303e15cf619655f6df427ddb50", "fusion_lat": 0.0, "name": "b01a67303e15cf619655f6df427ddb50", "is_reserved": 0, "rental_uris": {"android": "https://dc.lft.to/lastmile_qr_scan", "ios": "https://dc.lft.to/lastmile_qr_scan"}, "fusion_lon": 0.0}, {"lat": 38.90732633333333, "is_disabled": 0, "type": "electric_scooter", "lon": -77.0371685, "bike_id": "6ef9df2b052d1a51fe2af9ef5505fb44", "fusion_lat": 0.0, "name": "6ef9df2b052d1a51fe2af9ef5505fb44", "is_reserved": 0, "rental_uris": {"android": "https://dc.lft.to/lastmile_qr_scan", "ios": "https://dc.lft.to/lastmile_qr_scan"}, "fusion_lon": 0.0}, {"lat": 38.895276833333334, "is_disabled": 0, "type": "electric_scooter", "lon": -77.0020125, "bike_id": "8e5d7043527ffdac07bca80cf3f7b05a", "fusion_lat": 0.0, "name": "8e5d7043527ffdac07bca80cf3f7b05a", "is_reserved": 0, "rental_uris": {"android": "https://dc.lft.to/lastmile_qr_scan", "ios": "https://dc.lft.to/lastmile_qr_scan"}, "fusion_lon": 0.0}, {"lat": 38.889958666666665, "is_disabled": 0, "type": "electric_scooter", "lon": -76.95415883333334, "bike_id": "fd62634dab74fb388ae4469bed93b9ba", "fusion_lat": 0.0, "name": "fd62634dab74fb388ae4469bed93b9ba", "is_reserved": 0, "rental_uris": {"android": "https://dc.lft.to/lastmile_qr_scan", "ios": "https://dc.lft.to/lastmile_qr_scan"}, "fusion_lon": 0.0}, {"lat": 38.8996935, "is_disabled": 0, "type": "electric_scooter", "lon": -77.02395416666667, "bike_id": "a67c211b69eae1071bc8c1cc1e94cda5", "fusion_lat": 0.0, "name": "a67c211b69eae1071bc8c1cc1e94cda5", "is_reserved": 0, "rental_uris": {"android": "https://dc.lft.to/lastmile_qr_scan", "ios": "https://dc.lft.to/lastmile_qr_scan"}, "fusion_lon": 0.0}, {"lat": 38.84276366666667, "is_disabled": 0, "type": "electric_bike", "lon": -76.9883745, "bike_id": "264b83ae25fd7f9e794e751ed461c7f0", "fusion_lat": 0.0, "name": "264b83ae25fd7f9e794e751ed461c7f0", "is_reserved": 0, "rental_uris": {"android": "https://dc.lft.to/lastmile_qr_scan", "ios": "https://dc.lft.to/lastmile_qr_scan"}, "fusion_lon": 0.0}, {"lat": 38.905332333333334, "is_disabled": 0, "type": "electric_scooter", "lon": -77.0294255, "bike_id": "13037ced4564fca20ba58c21bb1aeafc", "fusion_lat": 0.0, "name": "13037ced4564fca20ba58c21bb1aeafc", "is_reserved": 0, "rental_uris": {"android": "https://dc.lft.to/lastmile_qr_scan", "ios": "https://dc.lft.to/lastmile_qr_scan"}, "fusion_lon": 0.0}, {"lat": 38.91185333333333, "is_disabled": 0, "type": "electric_scooter", "lon": -77.00445133333334, "bike_id": "f18baf137f175b12416f53a8ba121251", "fusion_lat": 0.0, "name": "f18baf137f175b12416f53a8ba121251", "is_reserved": 0, "rental_uris": {"android": "https://dc.lft.to/lastmile_qr_scan", "ios": "https://dc.lft.to/lastmile_qr_scan"}, "fusion_lon": 0.0}, {"lat": 38.91558916666666, "is_disabled": 0, "type": "electric_scooter", "lon": -77.03859116666666, "bike_id": "54f77e5cb26012e4bfef5e1a1d57f8b2", "fusion_lat": 0.0, "name": "54f77e5cb26012e4bfef5e1a1d57f8b2", "is_reserved": 0, "rental_uris": {"android": "https://dc.lft.to/lastmile_qr_scan", "ios": "https://dc.lft.to/lastmile_qr_scan"}, "fusion_lon": 0.0}, {"lat": 38.886658, "is_disabled": 0, "type": "electric_bike", "lon": -77.16246266666667, "bike_id": "6f6cb679f1684dad3c002f4966f0f7f8", "fusion_lat": 0.0, "name": "6f6cb679f1684dad3c002f4966f0f7f8", "is_reserved": 0, "rental_uris": {"android": "https://dc.lft.to/lastmile_qr_scan", "ios": "https://dc.lft.to/lastmile_qr_scan"}, "fusion_lon": 0.0}, {"lat": 38.90395566666667, "is_disabled": 0, "type": "electric_scooter", "lon": -76.99003433333333, "bike_id": "17248bcca22229fd857f617836c523b6", "fusion_lat": 0.0, "name": "17248bcca22229fd857f617836c523b6", "is_reserved": 0, "rental_uris": {"android": "https://dc.lft.to/lastmile_qr_scan", "ios": "https://dc.lft.to/lastmile_qr_scan"}, "fusion_lon": 0.0}, {"lat": 38.886132, "is_disabled": 0, "type": "electric_scooter", "lon": -77.01892633333334, "bike_id": "4feb23e99ba574bc67b2598eafc17ffc", "fusion_lat": 0.0, "name": "4feb23e99ba574bc67b2598eafc17ffc", "is_reserved": 0, "rental_uris": {"android": "https://dc.lft.to/lastmile_qr_scan", "ios": "https://dc.lft.to/lastmile_qr_scan"}, "fusion_lon": 0.0}, {"lat": 38.920045333333334, "is_disabled": 0, "type": "electric_bike", "lon": -77.07147216666667, "bike_id": "8a2446fa3d86341a97ae479476ca8f43", "fusion_lat": 0.0, "name": "8a2446fa3d86341a97ae479476ca8f43", "is_reserved": 0, "rental_uris": {"android": "https://dc.lft.to/lastmile_qr_scan", "ios": "https://dc.lft.to/lastmile_qr_scan"}, "fusion_lon": 0.0}, {"lat": 38.9482495, "is_disabled": 0, "type": "electric_scooter", "lon": -76.99903416666666, "bike_id": "5a217e322cd6a9a4a8f7cd7e42f72cd9", "fusion_lat": 0.0, "name": "5a217e322cd6a9a4a8f7cd7e42f72cd9", "is_reserved": 0, "rental_uris": {"android": "https://dc.lft.to/lastmile_qr_scan", "ios": "https://dc.lft.to/lastmile_qr_scan"}, "fusion_lon": 0.0}, {"lat": 38.91959833333333, "is_disabled": 0, "type": "electric_scooter", "lon": -77.01439133333334, "bike_id": "99fdd88f82b66933ee0d02f458191772", "fusion_lat": 0.0, "name": "99fdd88f82b66933ee0d02f458191772", "is_reserved": 0, "rental_uris": {"android": "https://dc.lft.to/lastmile_qr_scan", "ios": "https://dc.lft.to/lastmile_qr_scan"}, "fusion_lon": 0.0}, {"lat": 38.88546866666667, "is_disabled": 0, "type": "electric_bike", "lon": -77.1178535, "bike_id": "d8d20097458e73b6ce840203289146c1", "fusion_lat": 0.0, "name": "d8d20097458e73b6ce840203289146c1", "is_reserved": 0, "rental_uris": {"android": "https://dc.lft.to/lastmile_qr_scan", "ios": "https://dc.lft.to/lastmile_qr_scan"}, "fusion_lon": 0.0}, {"lat": 38.901383833333334, "is_disabled": 0, "type": "electric_scooter", "lon": -77.03986516666667, "bike_id": "1140531f1c1bd9d06276bd4681b2d1e3", "fusion_lat": 0.0, "name": "1140531f1c1bd9d06276bd4681b2d1e3", "is_reserved": 0, "rental_uris": {"android": "https://dc.lft.to/lastmile_qr_scan", "ios": "https://dc.lft.to/lastmile_qr_scan"}, "fusion_lon": 0.0}, {"lat": 38.95705933333333, "is_disabled": 0, "type": "electric_scooter", "lon": -77.02401583333334, "bike_id": "4131c1c77ab962a02105538b0a92d6c4", "fusion_lat": 0.0, "name": "4131c1c77ab962a02105538b0a92d6c4", "is_reserved": 0, "rental_uris": {"android": "https://dc.lft.to/lastmile_qr_scan", "ios": "https://dc.lft.to/lastmile_qr_scan"}, "fusion_lon": 0.0}, {"lat": 38.9039955, "is_disabled": 0, "type": "electric_scooter", "lon": -77.05047883333333, "bike_id": "88652b15ff57c18c9d300246e22984d1", "fusion_lat": 0.0, "name": "88652b15ff57c18c9d300246e22984d1", "is_reserved": 0, "rental_uris": {"android": "https://dc.lft.to/lastmile_qr_scan", "ios": "https://dc.lft.to/lastmile_qr_scan"}, "fusion_lon": 0.0}, {"lat": 38.908323833333334, "is_disabled": 0, "type": "electric_scooter", "lon": -77.02005816666667, "bike_id": "01654dcc84a55687507d0f34acd1debd", "fusion_lat": 0.0, "name": "01654dcc84a55687507d0f34acd1debd", "is_reserved": 0, "rental_uris": {"android": "https://dc.lft.to/lastmile_qr_scan", "ios": "https://dc.lft.to/lastmile_qr_scan"}, "fusion_lon": 0.0}, {"lat": 38.906284, "is_disabled": 0, "type": "electric_scooter", "lon": -77.00823483333333, "bike_id": "160ad46a0bd712ce202b2b677fdfc023", "fusion_lat": 0.0, "name": "160ad46a0bd712ce202b2b677fdfc023", "is_reserved": 0, "rental_uris": {"android": "https://dc.lft.to/lastmile_qr_scan", "ios": "https://dc.lft.to/lastmile_qr_scan"}, "fusion_lon": 0.0}, {"lat": 38.9170775, "is_disabled": 0, "type": "electric_scooter", "lon": -77.04046816666667, "bike_id": "c31a9fae7c07b6f49e28fd7697e8a44d", "fusion_lat": 0.0, "name": "c31a9fae7c07b6f49e28fd7697e8a44d", "is_reserved": 0, "rental_uris": {"android": "https://dc.lft.to/lastmile_qr_scan", "ios": "https://dc.lft.to/lastmile_qr_scan"}, "fusion_lon": 0.0}, {"lat": 38.90712033333333, "is_disabled": 0, "type": "electric_scooter", "lon": -77.031986, "bike_id": "982309a57683387eec9c36b4382ebb6b", "fusion_lat": 0.0, "name": "982309a57683387eec9c36b4382ebb6b", "is_reserved": 0, "rental_uris": {"android": "https://dc.lft.to/lastmile_qr_scan", "ios": "https://dc.lft.to/lastmile_qr_scan"}, "fusion_lon": 0.0}, {"lat": 38.91436383333333, "is_disabled": 0, "type": "electric_scooter", "lon": -77.023444, "bike_id": "c2715fe87b38384fc26d552ddf9c04ba", "fusion_lat": 0.0, "name": "c2715fe87b38384fc26d552ddf9c04ba", "is_reserved": 0, "rental_uris": {"android": "https://dc.lft.to/lastmile_qr_scan", "ios": "https://dc.lft.to/lastmile_qr_scan"}, "fusion_lon": 0.0}, {"lat": 38.910391, "is_disabled": 0, "type": "electric_scooter", "lon": -77.0386905, "bike_id": "37dd66eccbc8aee46f51401d30e76c40", "fusion_lat": 0.0, "name": "37dd66eccbc8aee46f51401d30e76c40", "is_reserved": 0, "rental_uris": {"android": "https://dc.lft.to/lastmile_qr_scan", "ios": "https://dc.lft.to/lastmile_qr_scan"}, "fusion_lon": 0.0}, {"lat": 38.896085166666666, "is_disabled": 0, "type": "electric_scooter", "lon": -77.0546895, "bike_id": "90e7d8e3dc38258d06ee4df8ae206467", "fusion_lat": 0.0, "name": "90e7d8e3dc38258d06ee4df8ae206467", "is_reserved": 0, "rental_uris": {"android": "https://dc.lft.to/lastmile_qr_scan", "ios": "https://dc.lft.to/lastmile_qr_scan"}, "fusion_lon": 0.0}, {"lat": 38.911899166666664, "is_disabled": 0, "type": "electric_scooter", "lon": -77.04453316666667, "bike_id": "0be231642e2b74630d255730dbe79efa", "fusion_lat": 0.0, "name": "0be231642e2b74630d255730dbe79efa", "is_reserved": 0, "rental_uris": {"android": "https://dc.lft.to/lastmile_qr_scan", "ios": "https://dc.lft.to/lastmile_qr_scan"}, "fusion_lon": 0.0}, {"lat": 38.9073575, "is_disabled": 0, "type": "electric_scooter", "lon": -77.03467183333333, "bike_id": "530ae8df32ac2d9b81abfa2e766bfca5", "fusion_lat": 0.0, "name": "530ae8df32ac2d9b81abfa2e766bfca5", "is_reserved": 0, "rental_uris": {"android": "https://dc.lft.to/lastmile_qr_scan", "ios": "https://dc.lft.to/lastmile_qr_scan"}, "fusion_lon": 0.0}, {"lat": 38.901457, "is_disabled": 0, "type": "electric_scooter", "lon": -77.00065016666667, "bike_id": "4bba8969d218e08a8ed4384f603cd29f", "fusion_lat": 0.0, "name": "4bba8969d218e08a8ed4384f603cd29f", "is_reserved": 0, "rental_uris": {"android": "https://dc.lft.to/lastmile_qr_scan", "ios": "https://dc.lft.to/lastmile_qr_scan"}, "fusion_lon": 0.0}, {"lat": 38.878903666666666, "is_disabled": 0, "type": "electric_scooter", "lon": -77.02201766666667, "bike_id": "cb00c3696d8cdc4ed50234e7c08c0f0e", "fusion_lat": 0.0, "name": "cb00c3696d8cdc4ed50234e7c08c0f0e", "is_reserved": 0, "rental_uris": {"android": "https://dc.lft.to/lastmile_qr_scan", "ios": "https://dc.lft.to/lastmile_qr_scan"}, "fusion_lon": 0.0}, {"lat": 38.90267383333333, "is_disabled": 0, "type": "electric_scooter", "lon": -77.0624105, "bike_id": "53fd6925de368e7d6f31e828af6863c7", "fusion_lat": 0.0, "name": "53fd6925de368e7d6f31e828af6863c7", "is_reserved": 0, "rental_uris": {"android": "https://dc.lft.to/lastmile_qr_scan", "ios": "https://dc.lft.to/lastmile_qr_scan"}, "fusion_lon": 0.0}, {"lat": 38.92114983333333, "is_disabled": 0, "type": "electric_scooter", "lon": -77.01802566666667, "bike_id": "78b5d245d5bce2105c58e112230ddacb", "fusion_lat": 0.0, "name": "78b5d245d5bce2105c58e112230ddacb", "is_reserved": 0, "rental_uris": {"android": "https://dc.lft.to/lastmile_qr_scan", "ios": "https://dc.lft.to/lastmile_qr_scan"}, "fusion_lon": 0.0}, {"lat": 38.90867933333333, "is_disabled": 0, "type": "electric_scooter", "lon": -77.0458675, "bike_id": "4282c9bdfc71b13b9f7dbbe4fb8ce960", "fusion_lat": 0.0, "name": "4282c9bdfc71b13b9f7dbbe4fb8ce960", "is_reserved": 0, "rental_uris": {"android": "https://dc.lft.to/lastmile_qr_scan", "ios": "https://dc.lft.to/lastmile_qr_scan"}, "fusion_lon": 0.0}, {"lat": 38.9082055, "is_disabled": 0, "type": "electric_scooter", "lon": -77.01790916666667, "bike_id": "5b8057649bc8dfe96c3423aaad0f69df", "fusion_lat": 0.0, "name": "5b8057649bc8dfe96c3423aaad0f69df", "is_reserved": 0, "rental_uris": {"android": "https://dc.lft.to/lastmile_qr_scan", "ios": "https://dc.lft.to/lastmile_qr_scan"}, "fusion_lon": 0.0}, {"lat": 38.90855666666667, "is_disabled": 0, "type": "electric_scooter", "lon": -77.0476815, "bike_id": "faa48792079cf0221cdb7e961fdc5dc6", "fusion_lat": 0.0, "name": "faa48792079cf0221cdb7e961fdc5dc6", "is_reserved": 0, "rental_uris": {"android": "https://dc.lft.to/lastmile_qr_scan", "ios": "https://dc.lft.to/lastmile_qr_scan"}, "fusion_lon": 0.0}, {"lat": 38.89992733333333, "is_disabled": 0, "type": "electric_scooter", "lon": -76.994824, "bike_id": "96dd5d9e507579688a10e38202d1fa6c", "fusion_lat": 0.0, "name": "96dd5d9e507579688a10e38202d1fa6c", "is_reserved": 0, "rental_uris": {"android": "https://dc.lft.to/lastmile_qr_scan", "ios": "https://dc.lft.to/lastmile_qr_scan"}, "fusion_lon": 0.0}, {"lat": 38.9156865, "is_disabled": 0, "type": "electric_scooter", "lon": -77.03186683333334, "bike_id": "08e4a765ca1f4c6e88a609e90daa79f8", "fusion_lat": 0.0, "name": "08e4a765ca1f4c6e88a609e90daa79f8", "is_reserved": 0, "rental_uris": {"android": "https://dc.lft.to/lastmile_qr_scan", "ios": "https://dc.lft.to/lastmile_qr_scan"}, "fusion_lon": 0.0}, {"lat": 38.912526666666665, "is_disabled": 0, "type": "electric_scooter", "lon": -77.02208633333333, "bike_id": "2b3d0ea7c799ea4c11505375c8bf9141", "fusion_lat": 0.0, "name": "2b3d0ea7c799ea4c11505375c8bf9141", "is_reserved": 0, "rental_uris": {"android": "https://dc.lft.to/lastmile_qr_scan", "ios": "https://dc.lft.to/lastmile_qr_scan"}, "fusion_lon": 0.0}, {"lat": 38.900377166666665, "is_disabled": 0, "type": "electric_scooter", "lon": -77.00212666666667, "bike_id": "61e5cad1353dbe4c584ffe1a1c02a1aa", "fusion_lat": 0.0, "name": "61e5cad1353dbe4c584ffe1a1c02a1aa", "is_reserved": 0, "rental_uris": {"android": "https://dc.lft.to/lastmile_qr_scan", "ios": "https://dc.lft.to/lastmile_qr_scan"}, "fusion_lon": 0.0}, {"lat": 38.917817, "is_disabled": 0, "type": "electric_scooter", "lon": -77.02409266666666, "bike_id": "858c85d604332989bd54676c6090a834", "fusion_lat": 0.0, "name": "858c85d604332989bd54676c6090a834", "is_reserved": 0, "rental_uris": {"android": "https://dc.lft.to/lastmile_qr_scan", "ios": "https://dc.lft.to/lastmile_qr_scan"}, "fusion_lon": 0.0}, {"lat": 38.83669316666667, "is_disabled": 0, "type": "electric_scooter", "lon": -77.005739, "bike_id": "3cd69bed5763d38102d3b2343b3908c5", "fusion_lat": 0.0, "name": "3cd69bed5763d38102d3b2343b3908c5", "is_reserved": 0, "rental_uris": {"android": "https://dc.lft.to/lastmile_qr_scan", "ios": "https://dc.lft.to/lastmile_qr_scan"}, "fusion_lon": 0.0}, {"lat": 38.90510483333333, "is_disabled": 0, "type": "electric_scooter", "lon": -77.04819166666667, "bike_id": "ad6f2d072f1f3e4b43ada59e0ea99382", "fusion_lat": 0.0, "name": "ad6f2d072f1f3e4b43ada59e0ea99382", "is_reserved": 0, "rental_uris": {"android": "https://dc.lft.to/lastmile_qr_scan", "ios": "https://dc.lft.to/lastmile_qr_scan"}, "fusion_lon": 0.0}, {"lat": 38.9350225, "is_disabled": 0, "type": "electric_scooter", "lon": -77.02723966666667, "bike_id": "0c49ad6d943b857c31d1c2d9418208b9", "fusion_lat": 0.0, "name": "0c49ad6d943b857c31d1c2d9418208b9", "is_reserved": 0, "rental_uris": {"android": "https://dc.lft.to/lastmile_qr_scan", "ios": "https://dc.lft.to/lastmile_qr_scan"}, "fusion_lon": 0.0}, {"lat": 38.92276, "is_disabled": 0, "type": "electric_scooter", "lon": -77.029738, "bike_id": "f030d0435fcdec5a6fee825482d16f2c", "fusion_lat": 0.0, "name": "f030d0435fcdec5a6fee825482d16f2c", "is_reserved": 0, "rental_uris": {"android": "https://dc.lft.to/lastmile_qr_scan", "ios": "https://dc.lft.to/lastmile_qr_scan"}, "fusion_lon": 0.0}, {"lat": 38.930498166666666, "is_disabled": 0, "type": "electric_scooter", "lon": -77.036348, "bike_id": "7e97ea0cb84150659e8889068e739806", "fusion_lat": 0.0, "name": "7e97ea0cb84150659e8889068e739806", "is_reserved": 0, "rental_uris": {"android": "https://dc.lft.to/lastmile_qr_scan", "ios": "https://dc.lft.to/lastmile_qr_scan"}, "fusion_lon": 0.0}, {"lat": 38.912090166666665, "is_disabled": 0, "type": "electric_scooter", "lon": -77.01463666666666, "bike_id": "c5c67bb1a329f6dfc7b777d8df36503d", "fusion_lat": 0.0, "name": "c5c67bb1a329f6dfc7b777d8df36503d", "is_reserved": 0, "rental_uris": {"android": "https://dc.lft.to/lastmile_qr_scan", "ios": "https://dc.lft.to/lastmile_qr_scan"}, "fusion_lon": 0.0}, {"lat": 38.89351333333333, "is_disabled": 0, "type": "electric_scooter", "lon": -77.04154416666667, "bike_id": "e0b5a2a1df4e65c68e6b79730152a9dd", "fusion_lat": 0.0, "name": "e0b5a2a1df4e65c68e6b79730152a9dd", "is_reserved": 0, "rental_uris": {"android": "https://dc.lft.to/lastmile_qr_scan", "ios": "https://dc.lft.to/lastmile_qr_scan"}, "fusion_lon": 0.0}, {"lat": 38.9027315, "is_disabled": 0, "type": "electric_scooter", "lon": -77.0367, "bike_id": "00ba0f3f9e898c3ed1c98748034802e7", "fusion_lat": 0.0, "name": "00ba0f3f9e898c3ed1c98748034802e7", "is_reserved": 0, "rental_uris": {"android": "https://dc.lft.to/lastmile_qr_scan", "ios": "https://dc.lft.to/lastmile_qr_scan"}, "fusion_lon": 0.0}, {"lat": 38.918739, "is_disabled": 0, "type": "electric_scooter", "lon": -77.03169366666667, "bike_id": "9298c3ffb2f9d3cf2b550a241f13ec18", "fusion_lat": 0.0, "name": "9298c3ffb2f9d3cf2b550a241f13ec18", "is_reserved": 0, "rental_uris": {"android": "https://dc.lft.to/lastmile_qr_scan", "ios": "https://dc.lft.to/lastmile_qr_scan"}, "fusion_lon": 0.0}, {"lat": 38.954838, "is_disabled": 0, "type": "electric_scooter", "lon": -77.06560933333333, "bike_id": "8d7aef6e04fe83aef4dbef4f1aa41a75", "fusion_lat": 0.0, "name": "8d7aef6e04fe83aef4dbef4f1aa41a75", "is_reserved": 0, "rental_uris": {"android": "https://dc.lft.to/lastmile_qr_scan", "ios": "https://dc.lft.to/lastmile_qr_scan"}, "fusion_lon": 0.0}, {"lat": 38.9119205, "is_disabled": 0, "type": "electric_scooter", "lon": -77.03427833333333, "bike_id": "0829f7184e67ac2e6bfd5a3d71b4e9f5", "fusion_lat": 0.0, "name": "0829f7184e67ac2e6bfd5a3d71b4e9f5", "is_reserved": 0, "rental_uris": {"android": "https://dc.lft.to/lastmile_qr_scan", "ios": "https://dc.lft.to/lastmile_qr_scan"}, "fusion_lon": 0.0}, {"lat": 38.900802, "is_disabled": 0, "type": "electric_scooter", "lon": -77.05025133333334, "bike_id": "3b117d2da5006c5b153b8331aa3351bc", "fusion_lat": 0.0, "name": "3b117d2da5006c5b153b8331aa3351bc", "is_reserved": 0, "rental_uris": {"android": "https://dc.lft.to/lastmile_qr_scan", "ios": "https://dc.lft.to/lastmile_qr_scan"}, "fusion_lon": 0.0}, {"lat": 38.916279, "is_disabled": 0, "type": "electric_scooter", "lon": -77.02549216666667, "bike_id": "c3eb794dc8f31718b6c5e78297610b94", "fusion_lat": 0.0, "name": "c3eb794dc8f31718b6c5e78297610b94", "is_reserved": 0, "rental_uris": {"android": "https://dc.lft.to/lastmile_qr_scan", "ios": "https://dc.lft.to/lastmile_qr_scan"}, "fusion_lon": 0.0}, {"lat": 38.916206333333335, "is_disabled": 0, "type": "electric_scooter", "lon": -77.02275616666667, "bike_id": "2b0a57cd0b90691ec885ca8e2d5b13b2", "fusion_lat": 0.0, "name": "2b0a57cd0b90691ec885ca8e2d5b13b2", "is_reserved": 0, "rental_uris": {"android": "https://dc.lft.to/lastmile_qr_scan", "ios": "https://dc.lft.to/lastmile_qr_scan"}, "fusion_lon": 0.0}, {"lat": 38.89224516666667, "is_disabled": 0, "type": "electric_bike", "lon": -77.03445916666666, "bike_id": "0ce4e6e82b46708668a285644535bd2d", "fusion_lat": 0.0, "name": "0ce4e6e82b46708668a285644535bd2d", "is_reserved": 0, "rental_uris": {"android": "https://dc.lft.to/lastmile_qr_scan", "ios": "https://dc.lft.to/lastmile_qr_scan"}, "fusion_lon": 0.0}, {"lat": 38.9060665, "is_disabled": 0, "type": "electric_scooter", "lon": -77.03407466666667, "bike_id": "f4288021ae9e2042efbc4a2a351b6b5b", "fusion_lat": 0.0, "name": "f4288021ae9e2042efbc4a2a351b6b5b", "is_reserved": 0, "rental_uris": {"android": "https://dc.lft.to/lastmile_qr_scan", "ios": "https://dc.lft.to/lastmile_qr_scan"}, "fusion_lon": 0.0}, {"lat": 38.918149, "is_disabled": 0, "type": "electric_scooter", "lon": -77.0138855, "bike_id": "fa427522c8fbf706b268ceeb58e70f6d", "fusion_lat": 0.0, "name": "fa427522c8fbf706b268ceeb58e70f6d", "is_reserved": 0, "rental_uris": {"android": "https://dc.lft.to/lastmile_qr_scan", "ios": "https://dc.lft.to/lastmile_qr_scan"}, "fusion_lon": 0.0}, {"lat": 38.91327033333334, "is_disabled": 0, "type": "electric_scooter", "lon": -77.03179466666667, "bike_id": "61d6c07c9756bcfc9f4aead8bec93568", "fusion_lat": 0.0, "name": "61d6c07c9756bcfc9f4aead8bec93568", "is_reserved": 0, "rental_uris": {"android": "https://dc.lft.to/lastmile_qr_scan", "ios": "https://dc.lft.to/lastmile_qr_scan"}, "fusion_lon": 0.0}, {"lat": 38.923343, "is_disabled": 0, "type": "electric_scooter", "lon": -77.0430485, "bike_id": "f9718a6d491df96de5deb2829e2166ae", "fusion_lat": 0.0, "name": "f9718a6d491df96de5deb2829e2166ae", "is_reserved": 0, "rental_uris": {"android": "https://dc.lft.to/lastmile_qr_scan", "ios": "https://dc.lft.to/lastmile_qr_scan"}, "fusion_lon": 0.0}, {"lat": 38.80761283333333, "is_disabled": 0, "type": "electric_bike", "lon": -77.0946895, "bike_id": "a87e3f97245ab5d1e805e42f2f07fad0", "fusion_lat": 0.0, "name": "a87e3f97245ab5d1e805e42f2f07fad0", "is_reserved": 0, "rental_uris": {"android": "https://dc.lft.to/lastmile_qr_scan", "ios": "https://dc.lft.to/lastmile_qr_scan"}, "fusion_lon": 0.0}, {"lat": 38.91271183333333, "is_disabled": 0, "type": "electric_bike", "lon": -77.04551133333334, "bike_id": "fba2387fe9a55688445ace087e3487e0", "fusion_lat": 0.0, "name": "fba2387fe9a55688445ace087e3487e0", "is_reserved": 0, "rental_uris": {"android": "https://dc.lft.to/lastmile_qr_scan", "ios": "https://dc.lft.to/lastmile_qr_scan"}, "fusion_lon": 0.0}, {"lat": 38.9085115, "is_disabled": 0, "type": "electric_scooter", "lon": -77.00623683333333, "bike_id": "5ad45aaefc93a506d7064bce96584423", "fusion_lat": 0.0, "name": "5ad45aaefc93a506d7064bce96584423", "is_reserved": 0, "rental_uris": {"android": "https://dc.lft.to/lastmile_qr_scan", "ios": "https://dc.lft.to/lastmile_qr_scan"}, "fusion_lon": 0.0}, {"lat": 38.937651833333334, "is_disabled": 0, "type": "electric_scooter", "lon": -77.0212965, "bike_id": "fdbac015024bbba02ad13ccd36c1d281", "fusion_lat": 0.0, "name": "fdbac015024bbba02ad13ccd36c1d281", "is_reserved": 0, "rental_uris": {"android": "https://dc.lft.to/lastmile_qr_scan", "ios": "https://dc.lft.to/lastmile_qr_scan"}, "fusion_lon": 0.0}, {"lat": 38.9287775, "is_disabled": 0, "type": "electric_scooter", "lon": -77.0333295, "bike_id": "46a16a03a1d2c5604443f6f9a0d7ca3e", "fusion_lat": 0.0, "name": "46a16a03a1d2c5604443f6f9a0d7ca3e", "is_reserved": 0, "rental_uris": {"android": "https://dc.lft.to/lastmile_qr_scan", "ios": "https://dc.lft.to/lastmile_qr_scan"}, "fusion_lon": 0.0}, {"lat": 38.89680466666667, "is_disabled": 0, "type": "electric_scooter", "lon": -77.05125433333333, "bike_id": "4c1224a3d6ceefd3b048a10b2b1593be", "fusion_lat": 0.0, "name": "4c1224a3d6ceefd3b048a10b2b1593be", "is_reserved": 0, "rental_uris": {"android": "https://dc.lft.to/lastmile_qr_scan", "ios": "https://dc.lft.to/lastmile_qr_scan"}, "fusion_lon": 0.0}, {"lat": 38.917134833333336, "is_disabled": 0, "type": "electric_scooter", "lon": -77.0241585, "bike_id": "31ba0778cea070e1119c9b8c859ab9f7", "fusion_lat": 0.0, "name": "31ba0778cea070e1119c9b8c859ab9f7", "is_reserved": 0, "rental_uris": {"android": "https://dc.lft.to/lastmile_qr_scan", "ios": "https://dc.lft.to/lastmile_qr_scan"}, "fusion_lon": 0.0}, {"lat": 38.9588075, "is_disabled": 0, "type": "electric_bike", "lon": -77.01033266666667, "bike_id": "50fb68cf9aaf4d58068ad5c6fcb64fb2", "fusion_lat": 0.0, "name": "50fb68cf9aaf4d58068ad5c6fcb64fb2", "is_reserved": 0, "rental_uris": {"android": "https://dc.lft.to/lastmile_qr_scan", "ios": "https://dc.lft.to/lastmile_qr_scan"}, "fusion_lon": 0.0}, {"lat": 38.91797716666667, "is_disabled": 0, "type": "electric_bike", "lon": -77.22343483333333, "bike_id": "10fd4eff1eca41c6abc913931ed0773d", "fusion_lat": 0.0, "name": "10fd4eff1eca41c6abc913931ed0773d", "is_reserved": 0, "rental_uris": {"android": "https://dc.lft.to/lastmile_qr_scan", "ios": "https://dc.lft.to/lastmile_qr_scan"}, "fusion_lon": 0.0}, {"lat": 38.914925833333335, "is_disabled": 0, "type": "electric_scooter", "lon": -77.02181883333333, "bike_id": "6d5b59a563deb4139d7fb96cf14afae4", "fusion_lat": 0.0, "name": "6d5b59a563deb4139d7fb96cf14afae4", "is_reserved": 0, "rental_uris": {"android": "https://dc.lft.to/lastmile_qr_scan", "ios": "https://dc.lft.to/lastmile_qr_scan"}, "fusion_lon": 0.0}, {"lat": 38.894822166666664, "is_disabled": 0, "type": "electric_scooter", "lon": -77.00224133333333, "bike_id": "02b0de14d9883dca94bbff2edc29a734", "fusion_lat": 0.0, "name": "02b0de14d9883dca94bbff2edc29a734", "is_reserved": 0, "rental_uris": {"android": "https://dc.lft.to/lastmile_qr_scan", "ios": "https://dc.lft.to/lastmile_qr_scan"}, "fusion_lon": 0.0}, {"lat": 38.892244166666664, "is_disabled": 0, "type": "electric_scooter", "lon": -77.0486275, "bike_id": "350ff0ba627b82b5fac0856ed8b11dc9", "fusion_lat": 0.0, "name": "350ff0ba627b82b5fac0856ed8b11dc9", "is_reserved": 0, "rental_uris": {"android": "https://dc.lft.to/lastmile_qr_scan", "ios": "https://dc.lft.to/lastmile_qr_scan"}, "fusion_lon": 0.0}, {"lat": 38.92165816666667, "is_disabled": 0, "type": "electric_scooter", "lon": -77.04017783333333, "bike_id": "0d2b719cf983cc27be8b5f7780ff186c", "fusion_lat": 0.0, "name": "0d2b719cf983cc27be8b5f7780ff186c", "is_reserved": 0, "rental_uris": {"android": "https://dc.lft.to/lastmile_qr_scan", "ios": "https://dc.lft.to/lastmile_qr_scan"}, "fusion_lon": 0.0}, {"lat": 38.9048375, "is_disabled": 0, "type": "electric_scooter", "lon": -76.97328416666667, "bike_id": "21dce01521093ead18c45d2688ad01d0", "fusion_lat": 0.0, "name": "21dce01521093ead18c45d2688ad01d0", "is_reserved": 0, "rental_uris": {"android": "https://dc.lft.to/lastmile_qr_scan", "ios": "https://dc.lft.to/lastmile_qr_scan"}, "fusion_lon": 0.0}, {"lat": 38.9211245, "is_disabled": 0, "type": "electric_scooter", "lon": -77.04179833333333, "bike_id": "2a7aa2b70ce7c5e93d9c296073f0a90d", "fusion_lat": 0.0, "name": "2a7aa2b70ce7c5e93d9c296073f0a90d", "is_reserved": 0, "rental_uris": {"android": "https://dc.lft.to/lastmile_qr_scan", "ios": "https://dc.lft.to/lastmile_qr_scan"}, "fusion_lon": 0.0}, {"lat": 38.927195166666664, "is_disabled": 0, "type": "electric_scooter", "lon": -77.01473466666667, "bike_id": "4de2f239df6006d9b6c717d57570d9f4", "fusion_lat": 0.0, "name": "4de2f239df6006d9b6c717d57570d9f4", "is_reserved": 0, "rental_uris": {"android": "https://dc.lft.to/lastmile_qr_scan", "ios": "https://dc.lft.to/lastmile_qr_scan"}, "fusion_lon": 0.0}, {"lat": 38.886320833333336, "is_disabled": 0, "type": "electric_scooter", "lon": -76.955132, "bike_id": "d4a4c55a5163f0c7de27d9f34e6070ca", "fusion_lat": 0.0, "name": "d4a4c55a5163f0c7de27d9f34e6070ca", "is_reserved": 0, "rental_uris": {"android": "https://dc.lft.to/lastmile_qr_scan", "ios": "https://dc.lft.to/lastmile_qr_scan"}, "fusion_lon": 0.0}, {"lat": 38.943145666666666, "is_disabled": 0, "type": "electric_scooter", "lon": -77.06132783333334, "bike_id": "03f10d9976ab412e8725db24ca10d431", "fusion_lat": 0.0, "name": "03f10d9976ab412e8725db24ca10d431", "is_reserved": 0, "rental_uris": {"android": "https://dc.lft.to/lastmile_qr_scan", "ios": "https://dc.lft.to/lastmile_qr_scan"}, "fusion_lon": 0.0}, {"lat": 38.915759, "is_disabled": 0, "type": "electric_scooter", "lon": -77.05023833333334, "bike_id": "fd6da2a4cbe7564020e5bda66c267f74", "fusion_lat": 0.0, "name": "fd6da2a4cbe7564020e5bda66c267f74", "is_reserved": 0, "rental_uris": {"android": "https://dc.lft.to/lastmile_qr_scan", "ios": "https://dc.lft.to/lastmile_qr_scan"}, "fusion_lon": 0.0}, {"lat": 38.922506166666665, "is_disabled": 0, "type": "electric_scooter", "lon": -77.01936666666667, "bike_id": "e7fca9ebf77680fb836b3a7d4db334ee", "fusion_lat": 0.0, "name": "e7fca9ebf77680fb836b3a7d4db334ee", "is_reserved": 0, "rental_uris": {"android": "https://dc.lft.to/lastmile_qr_scan", "ios": "https://dc.lft.to/lastmile_qr_scan"}, "fusion_lon": 0.0}, {"lat": 38.92480283333333, "is_disabled": 0, "type": "electric_scooter", "lon": -77.03481483333333, "bike_id": "2cbe3c6871f20b3d8a275f2140e6beb5", "fusion_lat": 0.0, "name": "2cbe3c6871f20b3d8a275f2140e6beb5", "is_reserved": 0, "rental_uris": {"android": "https://dc.lft.to/lastmile_qr_scan", "ios": "https://dc.lft.to/lastmile_qr_scan"}, "fusion_lon": 0.0}, {"lat": 38.98228233333333, "is_disabled": 0, "type": "electric_scooter", "lon": -77.026435, "bike_id": "13a0422f61aa75cb71b4dc9c7b4f34fa", "fusion_lat": 0.0, "name": "13a0422f61aa75cb71b4dc9c7b4f34fa", "is_reserved": 0, "rental_uris": {"android": "https://dc.lft.to/lastmile_qr_scan", "ios": "https://dc.lft.to/lastmile_qr_scan"}, "fusion_lon": 0.0}, {"lat": 38.9027055, "is_disabled": 0, "type": "electric_scooter", "lon": -77.03679066666666, "bike_id": "5bfb9bd9fa03176c1d71c9387755f012", "fusion_lat": 0.0, "name": "5bfb9bd9fa03176c1d71c9387755f012", "is_reserved": 0, "rental_uris": {"android": "https://dc.lft.to/lastmile_qr_scan", "ios": "https://dc.lft.to/lastmile_qr_scan"}, "fusion_lon": 0.0}, {"lat": 38.904432166666666, "is_disabled": 0, "type": "electric_scooter", "lon": -77.0611245, "bike_id": "17736d904708064e0946efa08430c3cd", "fusion_lat": 0.0, "name": "17736d904708064e0946efa08430c3cd", "is_reserved": 0, "rental_uris": {"android": "https://dc.lft.to/lastmile_qr_scan", "ios": "https://dc.lft.to/lastmile_qr_scan"}, "fusion_lon": 0.0}, {"lat": 38.90586016666666, "is_disabled": 0, "type": "electric_scooter", "lon": -76.98620266666667, "bike_id": "d62b2df5f69e8a6a40583d3cfa3175ad", "fusion_lat": 0.0, "name": "d62b2df5f69e8a6a40583d3cfa3175ad", "is_reserved": 0, "rental_uris": {"android": "https://dc.lft.to/lastmile_qr_scan", "ios": "https://dc.lft.to/lastmile_qr_scan"}, "fusion_lon": 0.0}, {"lat": 38.917181666666664, "is_disabled": 0, "type": "electric_scooter", "lon": -77.03348966666667, "bike_id": "e77a555eab4bcc94f52f439fe7521e79", "fusion_lat": 0.0, "name": "e77a555eab4bcc94f52f439fe7521e79", "is_reserved": 0, "rental_uris": {"android": "https://dc.lft.to/lastmile_qr_scan", "ios": "https://dc.lft.to/lastmile_qr_scan"}, "fusion_lon": 0.0}, {"lat": 38.91268, "is_disabled": 0, "type": "electric_scooter", "lon": -77.02251933333334, "bike_id": "429a659ae2d79daabc5eceead790ca94", "fusion_lat": 0.0, "name": "429a659ae2d79daabc5eceead790ca94", "is_reserved": 0, "rental_uris": {"android": "https://dc.lft.to/lastmile_qr_scan", "ios": "https://dc.lft.to/lastmile_qr_scan"}, "fusion_lon": 0.0}, {"lat": 38.89655366666667, "is_disabled": 0, "type": "electric_scooter", "lon": -77.00520616666667, "bike_id": "51307e9547d7e90e3e60d652a93c2dc8", "fusion_lat": 0.0, "name": "51307e9547d7e90e3e60d652a93c2dc8", "is_reserved": 0, "rental_uris": {"android": "https://dc.lft.to/lastmile_qr_scan", "ios": "https://dc.lft.to/lastmile_qr_scan"}, "fusion_lon": 0.0}, {"lat": 38.84506066666667, "is_disabled": 0, "type": "electric_bike", "lon": -76.99353116666667, "bike_id": "b55b38cb47396fd3b55b4d7e50c26304", "fusion_lat": 0.0, "name": "b55b38cb47396fd3b55b4d7e50c26304", "is_reserved": 0, "rental_uris": {"android": "https://dc.lft.to/lastmile_qr_scan", "ios": "https://dc.lft.to/lastmile_qr_scan"}, "fusion_lon": 0.0}, {"lat": 38.91256216666667, "is_disabled": 0, "type": "electric_scooter", "lon": -77.05137283333333, "bike_id": "2d543c5221141cee248fd927e45980a7", "fusion_lat": 0.0, "name": "2d543c5221141cee248fd927e45980a7", "is_reserved": 0, "rental_uris": {"android": "https://dc.lft.to/lastmile_qr_scan", "ios": "https://dc.lft.to/lastmile_qr_scan"}, "fusion_lon": 0.0}, {"lat": 38.86710266666667, "is_disabled": 0, "type": "electric_scooter", "lon": -76.9872585, "bike_id": "3e471aaa41c8cdb3dedbb8d542ef0747", "fusion_lat": 0.0, "name": "3e471aaa41c8cdb3dedbb8d542ef0747", "is_reserved": 0, "rental_uris": {"android": "https://dc.lft.to/lastmile_qr_scan", "ios": "https://dc.lft.to/lastmile_qr_scan"}, "fusion_lon": 0.0}, {"lat": 38.9187695, "is_disabled": 0, "type": "electric_scooter", "lon": -77.035034, "bike_id": "3df3bf37da1fdd54728ec939df1ede3c", "fusion_lat": 0.0, "name": "3df3bf37da1fdd54728ec939df1ede3c", "is_reserved": 0, "rental_uris": {"android": "https://dc.lft.to/lastmile_qr_scan", "ios": "https://dc.lft.to/lastmile_qr_scan"}, "fusion_lon": 0.0}, {"lat": 38.90863233333334, "is_disabled": 0, "type": "electric_bike", "lon": -76.94007366666666, "bike_id": "a1e0aca341c03ff614c15993617f9a80", "fusion_lat": 0.0, "name": "a1e0aca341c03ff614c15993617f9a80", "is_reserved": 0, "rental_uris": {"android": "https://dc.lft.to/lastmile_qr_scan", "ios": "https://dc.lft.to/lastmile_qr_scan"}, "fusion_lon": 0.0}, {"lat": 38.90073616666667, "is_disabled": 0, "type": "electric_scooter", "lon": -77.00215116666666, "bike_id": "7a3fd6f78856ed7a2349db73e88ccd9f", "fusion_lat": 0.0, "name": "7a3fd6f78856ed7a2349db73e88ccd9f", "is_reserved": 0, "rental_uris": {"android": "https://dc.lft.to/lastmile_qr_scan", "ios": "https://dc.lft.to/lastmile_qr_scan"}, "fusion_lon": 0.0}, {"lat": 38.899691833333335, "is_disabled": 0, "type": "electric_scooter", "lon": -77.02644883333333, "bike_id": "93cf41cb389a8ce06ec492c61c0533da", "fusion_lat": 0.0, "name": "93cf41cb389a8ce06ec492c61c0533da", "is_reserved": 0, "rental_uris": {"android": "https://dc.lft.to/lastmile_qr_scan", "ios": "https://dc.lft.to/lastmile_qr_scan"}, "fusion_lon": 0.0}, {"lat": 38.99482733333333, "is_disabled": 0, "type": "electric_bike", "lon": -77.02905733333333, "bike_id": "696cdab675ed05ed70b37e2ccfd11b8c", "fusion_lat": 0.0, "name": "696cdab675ed05ed70b37e2ccfd11b8c", "is_reserved": 0, "rental_uris": {"android": "https://dc.lft.to/lastmile_qr_scan", "ios": "https://dc.lft.to/lastmile_qr_scan"}, "fusion_lon": 0.0}, {"lat": 38.89992, "is_disabled": 0, "type": "electric_scooter", "lon": -77.05254916666667, "bike_id": "073d572dcf19d149c55dd59d351eae42", "fusion_lat": 0.0, "name": "073d572dcf19d149c55dd59d351eae42", "is_reserved": 0, "rental_uris": {"android": "https://dc.lft.to/lastmile_qr_scan", "ios": "https://dc.lft.to/lastmile_qr_scan"}, "fusion_lon": 0.0}, {"lat": 38.92538833333333, "is_disabled": 0, "type": "electric_scooter", "lon": -77.0412645, "bike_id": "13c03a1077e4442f1c428c886bf28c46", "fusion_lat": 0.0, "name": "13c03a1077e4442f1c428c886bf28c46", "is_reserved": 0, "rental_uris": {"android": "https://dc.lft.to/lastmile_qr_scan", "ios": "https://dc.lft.to/lastmile_qr_scan"}, "fusion_lon": 0.0}, {"lat": 38.89515566666667, "is_disabled": 0, "type": "electric_scooter", "lon": -76.97734683333333, "bike_id": "1f1cccf9246aa942da4c54f22e4e8e36", "fusion_lat": 0.0, "name": "1f1cccf9246aa942da4c54f22e4e8e36", "is_reserved": 0, "rental_uris": {"android": "https://dc.lft.to/lastmile_qr_scan", "ios": "https://dc.lft.to/lastmile_qr_scan"}, "fusion_lon": 0.0}, {"lat": 38.9117675, "is_disabled": 0, "type": "electric_scooter", "lon": -77.03200666666666, "bike_id": "efe821006ac6f8b1a6ead8015fa2372b", "fusion_lat": 0.0, "name": "efe821006ac6f8b1a6ead8015fa2372b", "is_reserved": 0, "rental_uris": {"android": "https://dc.lft.to/lastmile_qr_scan", "ios": "https://dc.lft.to/lastmile_qr_scan"}, "fusion_lon": 0.0}, {"lat": 38.91750666666667, "is_disabled": 0, "type": "electric_scooter", "lon": -77.03201, "bike_id": "62c09d0e2f900d7840d36383eb6fada7", "fusion_lat": 0.0, "name": "62c09d0e2f900d7840d36383eb6fada7", "is_reserved": 0, "rental_uris": {"android": "https://dc.lft.to/lastmile_qr_scan", "ios": "https://dc.lft.to/lastmile_qr_scan"}, "fusion_lon": 0.0}, {"lat": 38.89460316666667, "is_disabled": 0, "type": "electric_scooter", "lon": -77.02687733333333, "bike_id": "7b6a2bf127e55acc6777fdc7cd1fb204", "fusion_lat": 0.0, "name": "7b6a2bf127e55acc6777fdc7cd1fb204", "is_reserved": 0, "rental_uris": {"android": "https://dc.lft.to/lastmile_qr_scan", "ios": "https://dc.lft.to/lastmile_qr_scan"}, "fusion_lon": 0.0}, {"lat": 38.906393333333334, "is_disabled": 0, "type": "electric_scooter", "lon": -76.985675, "bike_id": "3ece558a9fd5647b6d7b02bd8e8a825c", "fusion_lat": 0.0, "name": "3ece558a9fd5647b6d7b02bd8e8a825c", "is_reserved": 0, "rental_uris": {"android": "https://dc.lft.to/lastmile_qr_scan", "ios": "https://dc.lft.to/lastmile_qr_scan"}, "fusion_lon": 0.0}, {"lat": 38.83214383333333, "is_disabled": 0, "type": "electric_bike", "lon": -76.946166, "bike_id": "0654589be5cb779e4163badabfe1229c", "fusion_lat": 0.0, "name": "0654589be5cb779e4163badabfe1229c", "is_reserved": 0, "rental_uris": {"android": "https://dc.lft.to/lastmile_qr_scan", "ios": "https://dc.lft.to/lastmile_qr_scan"}, "fusion_lon": 0.0}, {"lat": 38.85380266666667, "is_disabled": 0, "type": "electric_bike", "lon": -77.1242885, "bike_id": "8f56ba6c5818668f01f85d62f1d95110", "fusion_lat": 0.0, "name": "8f56ba6c5818668f01f85d62f1d95110", "is_reserved": 0, "rental_uris": {"android": "https://dc.lft.to/lastmile_qr_scan", "ios": "https://dc.lft.to/lastmile_qr_scan"}, "fusion_lon": 0.0}, {"lat": 38.85031383333333, "is_disabled": 0, "type": "electric_bike", "lon": -76.972937, "bike_id": "7a7e8afb5049c78fd97585c0a073bf2c", "fusion_lat": 0.0, "name": "7a7e8afb5049c78fd97585c0a073bf2c", "is_reserved": 0, "rental_uris": {"android": "https://dc.lft.to/lastmile_qr_scan", "ios": "https://dc.lft.to/lastmile_qr_scan"}, "fusion_lon": 0.0}, {"lat": 38.90268583333334, "is_disabled": 0, "type": "electric_scooter", "lon": -77.05263766666667, "bike_id": "5e5e2fe026b5d3fc4da0b4d1821836e1", "fusion_lat": 0.0, "name": "5e5e2fe026b5d3fc4da0b4d1821836e1", "is_reserved": 0, "rental_uris": {"android": "https://dc.lft.to/lastmile_qr_scan", "ios": "https://dc.lft.to/lastmile_qr_scan"}, "fusion_lon": 0.0}, {"lat": 38.922435666666665, "is_disabled": 0, "type": "electric_scooter", "lon": -77.0457385, "bike_id": "4073238037699cc4c2af19f463b338fc", "fusion_lat": 0.0, "name": "4073238037699cc4c2af19f463b338fc", "is_reserved": 0, "rental_uris": {"android": "https://dc.lft.to/lastmile_qr_scan", "ios": "https://dc.lft.to/lastmile_qr_scan"}, "fusion_lon": 0.0}, {"lat": 38.908268166666666, "is_disabled": 0, "type": "electric_scooter", "lon": -77.0638105, "bike_id": "debfcd7915b50cf6b0522a99da7c0c8c", "fusion_lat": 0.0, "name": "debfcd7915b50cf6b0522a99da7c0c8c", "is_reserved": 0, "rental_uris": {"android": "https://dc.lft.to/lastmile_qr_scan", "ios": "https://dc.lft.to/lastmile_qr_scan"}, "fusion_lon": 0.0}, {"lat": 38.91776933333333, "is_disabled": 0, "type": "electric_scooter", "lon": -77.0414795, "bike_id": "c7a2b1abbc7ad2aa3ae9ca7ec070c0e3", "fusion_lat": 0.0, "name": "c7a2b1abbc7ad2aa3ae9ca7ec070c0e3", "is_reserved": 0, "rental_uris": {"android": "https://dc.lft.to/lastmile_qr_scan", "ios": "https://dc.lft.to/lastmile_qr_scan"}, "fusion_lon": 0.0}, {"lat": 38.91932383333334, "is_disabled": 0, "type": "electric_scooter", "lon": -77.022999, "bike_id": "65263b8177067ea90dee9ac365711046", "fusion_lat": 0.0, "name": "65263b8177067ea90dee9ac365711046", "is_reserved": 0, "rental_uris": {"android": "https://dc.lft.to/lastmile_qr_scan", "ios": "https://dc.lft.to/lastmile_qr_scan"}, "fusion_lon": 0.0}, {"lat": 38.904408333333336, "is_disabled": 0, "type": "electric_scooter", "lon": -77.03449983333333, "bike_id": "84617e578dd462b88468284ff1fde1ab", "fusion_lat": 0.0, "name": "84617e578dd462b88468284ff1fde1ab", "is_reserved": 0, "rental_uris": {"android": "https://dc.lft.to/lastmile_qr_scan", "ios": "https://dc.lft.to/lastmile_qr_scan"}, "fusion_lon": 0.0}, {"lat": 38.903453999999996, "is_disabled": 0, "type": "electric_scooter", "lon": -77.053217, "bike_id": "db69f67e6b36ba4a773cfd63713d98a7", "fusion_lat": 0.0, "name": "db69f67e6b36ba4a773cfd63713d98a7", "is_reserved": 0, "rental_uris": {"android": "https://dc.lft.to/lastmile_qr_scan", "ios": "https://dc.lft.to/lastmile_qr_scan"}, "fusion_lon": 0.0}, {"lat": 38.8971605, "is_disabled": 0, "type": "electric_scooter", "lon": -77.00796483333333, "bike_id": "125110496692234e9ea77b9702a78ae4", "fusion_lat": 0.0, "name": "125110496692234e9ea77b9702a78ae4", "is_reserved": 0, "rental_uris": {"android": "https://dc.lft.to/lastmile_qr_scan", "ios": "https://dc.lft.to/lastmile_qr_scan"}, "fusion_lon": 0.0}, {"lat": 38.924138166666665, "is_disabled": 0, "type": "electric_bike", "lon": -77.050413, "bike_id": "4906406af4bbf28fa126f29697a9ffc5", "fusion_lat": 0.0, "name": "4906406af4bbf28fa126f29697a9ffc5", "is_reserved": 0, "rental_uris": {"android": "https://dc.lft.to/lastmile_qr_scan", "ios": "https://dc.lft.to/lastmile_qr_scan"}, "fusion_lon": 0.0}, {"lat": 38.89737, "is_disabled": 0, "type": "electric_scooter", "lon": -77.04767066666666, "bike_id": "c08f3ddbc5bd86e74ae63997cea46857", "fusion_lat": 0.0, "name": "c08f3ddbc5bd86e74ae63997cea46857", "is_reserved": 0, "rental_uris": {"android": "https://dc.lft.to/lastmile_qr_scan", "ios": "https://dc.lft.to/lastmile_qr_scan"}, "fusion_lon": 0.0}, {"lat": 38.90534816666667, "is_disabled": 0, "type": "electric_scooter", "lon": -77.057149, "bike_id": "d7a8786d40742929e6d092e8faf6ba20", "fusion_lat": 0.0, "name": "d7a8786d40742929e6d092e8faf6ba20", "is_reserved": 0, "rental_uris": {"android": "https://dc.lft.to/lastmile_qr_scan", "ios": "https://dc.lft.to/lastmile_qr_scan"}, "fusion_lon": 0.0}, {"lat": 38.9331955, "is_disabled": 0, "type": "electric_scooter", "lon": -77.04523483333334, "bike_id": "3950bda5ea313c31122db28be719071c", "fusion_lat": 0.0, "name": "3950bda5ea313c31122db28be719071c", "is_reserved": 0, "rental_uris": {"android": "https://dc.lft.to/lastmile_qr_scan", "ios": "https://dc.lft.to/lastmile_qr_scan"}, "fusion_lon": 0.0}, {"lat": 38.89881033333333, "is_disabled": 0, "type": "electric_scooter", "lon": -77.02020033333334, "bike_id": "a9ed2d4e5a0591c95209cfd60c1963b1", "fusion_lat": 0.0, "name": "a9ed2d4e5a0591c95209cfd60c1963b1", "is_reserved": 0, "rental_uris": {"android": "https://dc.lft.to/lastmile_qr_scan", "ios": "https://dc.lft.to/lastmile_qr_scan"}, "fusion_lon": 0.0}, {"lat": 38.878791166666666, "is_disabled": 0, "type": "electric_scooter", "lon": -77.00734333333334, "bike_id": "ffadf5565de72776461c76d3986e4cc1", "fusion_lat": 0.0, "name": "ffadf5565de72776461c76d3986e4cc1", "is_reserved": 0, "rental_uris": {"android": "https://dc.lft.to/lastmile_qr_scan", "ios": "https://dc.lft.to/lastmile_qr_scan"}, "fusion_lon": 0.0}, {"lat": 38.90619866666667, "is_disabled": 0, "type": "electric_scooter", "lon": -77.03986383333333, "bike_id": "d2c0e0a2f1a07213db9a0ebe6968a5e3", "fusion_lat": 0.0, "name": "d2c0e0a2f1a07213db9a0ebe6968a5e3", "is_reserved": 0, "rental_uris": {"android": "https://dc.lft.to/lastmile_qr_scan", "ios": "https://dc.lft.to/lastmile_qr_scan"}, "fusion_lon": 0.0}, {"lat": 38.86678283333333, "is_disabled": 0, "type": "electric_scooter", "lon": -76.98540333333334, "bike_id": "46cf7468a6f866fde3122072829d5f89", "fusion_lat": 0.0, "name": "46cf7468a6f866fde3122072829d5f89", "is_reserved": 0, "rental_uris": {"android": "https://dc.lft.to/lastmile_qr_scan", "ios": "https://dc.lft.to/lastmile_qr_scan"}, "fusion_lon": 0.0}, {"lat": 38.89583583333334, "is_disabled": 0, "type": "electric_scooter", "lon": -77.02571333333333, "bike_id": "7499d0468ec602a28705ff7a8d8f7191", "fusion_lat": 0.0, "name": "7499d0468ec602a28705ff7a8d8f7191", "is_reserved": 0, "rental_uris": {"android": "https://dc.lft.to/lastmile_qr_scan", "ios": "https://dc.lft.to/lastmile_qr_scan"}, "fusion_lon": 0.0}, {"lat": 38.89742616666667, "is_disabled": 0, "type": "electric_scooter", "lon": -77.00076116666666, "bike_id": "36fb2e2cb4c64a119000c09fc17228c9", "fusion_lat": 0.0, "name": "36fb2e2cb4c64a119000c09fc17228c9", "is_reserved": 0, "rental_uris": {"android": "https://dc.lft.to/lastmile_qr_scan", "ios": "https://dc.lft.to/lastmile_qr_scan"}, "fusion_lon": 0.0}, {"lat": 38.9178455, "is_disabled": 0, "type": "electric_scooter", "lon": -77.036581, "bike_id": "419b7c08e7b0a8d96162d33e489fa8d3", "fusion_lat": 0.0, "name": "419b7c08e7b0a8d96162d33e489fa8d3", "is_reserved": 0, "rental_uris": {"android": "https://dc.lft.to/lastmile_qr_scan", "ios": "https://dc.lft.to/lastmile_qr_scan"}, "fusion_lon": 0.0}, {"lat": 38.91762333333333, "is_disabled": 0, "type": "electric_scooter", "lon": -77.02813883333333, "bike_id": "f0453719f1b632a3c752c4a71982d43f", "fusion_lat": 0.0, "name": "f0453719f1b632a3c752c4a71982d43f", "is_reserved": 0, "rental_uris": {"android": "https://dc.lft.to/lastmile_qr_scan", "ios": "https://dc.lft.to/lastmile_qr_scan"}, "fusion_lon": 0.0}, {"lat": 38.877301833333334, "is_disabled": 0, "type": "electric_bike", "lon": -76.981082, "bike_id": "1e3d0dcfc128048d5f38c4a2f40e00c6", "fusion_lat": 0.0, "name": "1e3d0dcfc128048d5f38c4a2f40e00c6", "is_reserved": 0, "rental_uris": {"android": "https://dc.lft.to/lastmile_qr_scan", "ios": "https://dc.lft.to/lastmile_qr_scan"}, "fusion_lon": 0.0}, {"lat": 38.9221475, "is_disabled": 0, "type": "electric_scooter", "lon": -77.0401545, "bike_id": "2dcd860636b131aa873e223536dea4ef", "fusion_lat": 0.0, "name": "2dcd860636b131aa873e223536dea4ef", "is_reserved": 0, "rental_uris": {"android": "https://dc.lft.to/lastmile_qr_scan", "ios": "https://dc.lft.to/lastmile_qr_scan"}, "fusion_lon": 0.0},