{"data": {"bikes": [{"name": "206fbae51bad211bb41b0c95eab2a4a0", "type": "electric_scooter", "lat": 38.88750116666667, "is_reserved": 0, "lon": -77.02026066666667, "fusion_lon": 0.0, "is_disabled": 0, "fusion_lat": 0.0, "bike_id": "206fbae51bad211bb41b0c95eab2a4a0", "rental_uris": {"ios": "https://dc.lft.to/lastmile_qr_scan", "android": "https://dc.lft.to/lastmile_qr_scan"}}, {"name": "a7771709cc378e0f098382e565bbda64", "type": "electric_scooter", "lat": 38.9357575, "is_reserved": 0, "lon": -77.03731883333333, "fusion_lon": 0.0, "is_disabled": 0, "fusion_lat": 0.0, "bike_id": "a7771709cc378e0f098382e565bbda64", "rental_uris": {"ios": "https://dc.lft.to/lastmile_qr_scan", "android": "https://dc.lft.to/lastmile_qr_scan"}}, {"name": "f28c6751c03079d334a29ec167cf247b", "type": "electric_bike", "lat": 38.930611666666664, "is_reserved": 0, "lon": -76.97330683333334, "fusion_lon": 0.0, "is_disabled": 0, "fusion_lat": 0.0, "bike_id": "f28c6751c03079d334a29ec167cf247b", "rental_uris": {"ios": "https://dc.lft.to/lastmile_qr_scan", "android": "https://dc.lft.to/lastmile_qr_scan"}}, {"name": "f2f92a46a18be763929e3f3027355e47", "type": "electric_bike", "lat": 38.945877, "is_reserved": 0, "lon": -77.0027205, "fusion_lon": 0.0, "is_disabled": 0, "fusion_lat": 0.0, "bike_id": "f2f92a46a18be763929e3f3027355e47", "rental_uris": {"ios": "https://dc.lft.to/lastmile_qr_scan", "android": "https://dc.lft.to/lastmile_qr_scan"}}, {"name": "28a7b30bf1fb8e7e5396d4e561a0aef9", "type": "electric_scooter", "lat": 38.952511333333334, "is_reserved": 0, "lon": -77.00193266666666, "fusion_lon": 0.0, "is_disabled": 0, "fusion_lat": 0.0, "bike_id": "28a7b30bf1fb8e7e5396d4e561a0aef9", "rental_uris": {"ios": "https://dc.lft.to/lastmile_qr_scan", "android": "https://dc.lft.to/lastmile_qr_scan"}}, {"name": "e41873c2c34682d3a4afaaf9cc78b7b7", "type": "electric_scooter", "lat": 38.8849615, "is_reserved": 0, "lon": -77.00729083333333, "fusion_lon": 0.0, "is_disabled": 0, "fusion_lat": 0.0, "bike_id": "e41873c2c34682d3a4afaaf9cc78b7b7", "rental_uris": {"ios": "https://dc.lft.to/lastmile_qr_scan", "android": "https://dc.lft.to/lastmile_qr_scan"}}, {"name": "5c332dc66dbb27d240f235044ccfed28", "type": "electric_scooter", "lat": 38.89861883333333, "is_reserved": 0, "lon": -77.02681716666666, "fusion_lon": 0.0, "is_disabled": 0, "fusion_lat": 0.0, "bike_id": "5c332dc66dbb27d240f235044ccfed28", "rental_uris": {"ios": "https://dc.lft.to/lastmile_qr_scan", "android": "https://dc.lft.to/lastmile_qr_scan"}}, {"name": "989788ae270b9089f41c159aa91be792", "type": "electric_scooter", "lat": 38.881337333333335, "is_reserved": 0, "lon": -77.00244583333334, "fusion_lon": 0.0, "is_disabled": 0, "fusion_lat": 0.0, "bike_id": "989788ae270b9089f41c159aa91be792", "rental_uris": {"ios": "https://dc.lft.to/lastmile_qr_scan", "android": "https://dc.lft.to/lastmile_qr_scan"}}, {"name": "6528f988e79270bf85e262ac0b87ec4f", "type": "electric_scooter", "lat": 38.88340566666667, "is_reserved": 0, "lon": -76.99350166666666, "fusion_lon": 0.0, "is_disabled": 0, "fusion_lat": 0.0, "bike_id": "6528f988e79270bf85e262ac0b87ec4f", "rental_uris": {"ios": "https://dc.lft.to/lastmile_qr_scan", "android": "https://dc.lft.to/lastmile_qr_scan"}}, {"name": "588ba3071296e18ba67d983b5e19d93f", "type": "electric_scooter", "lat": 38.924105833333336, "is_reserved": 0, "lon": -77.01952116666666, "fusion_lon": 0.0, "is_disabled": 0, "fusion_lat": 0.0, "bike_id": "588ba3071296e18ba67d983b5e19d93f", "rental_uris": {"ios": "https://dc.lft.to/lastmile_qr_scan", "android": "https://dc.lft.to/lastmile_qr_scan"}}, {"name": "f7a9141fbaf9f1d0d9ab4d4738f25c56", "type": "electric_scooter", "lat": 38.887673, "is_reserved": 0, "lon": -77.0315025, "fusion_lon": 0.0, "is_disabled": 0, "fusion_lat": 0.0, "bike_id": "f7a9141fbaf9f1d0d9ab4d4738f25c56", "rental_uris": {"ios": "https://dc.lft.to/lastmile_qr_scan", "android": "https://dc.lft.to/lastmile_qr_scan"}}, {"name": "c5ef8769c9a017f542d034f16dcb1ff0", "type": "electric_bike", "lat": 38.92854116666667, "is_reserved": 0, "lon": -77.22221983333333, "fusion_lon": 0.0, "is_disabled": 0, "fusion_lat": 0.0, "bike_id": "c5ef8769c9a017f542d034f16dcb1ff0", "rental_uris": {"ios": "https://dc.lft.to/lastmile_qr_scan", "android": "https://dc.lft.to/lastmile_qr_scan"}}, {"name": "4cdf17caae34e0bdc399a18a4d773703", "type": "electric_scooter", "lat": 38.95648933333333, "is_reserved": 0, "lon": -77.03292483333334, "fusion_lon": 0.0, "is_disabled": 0, "fusion_lat": 0.0, "bike_id": "4cdf17caae34e0bdc399a18a4d773703", "rental_uris": {"ios": "https://dc.lft.to/lastmile_qr_scan", "android": "https://dc.lft.to/lastmile_qr_scan"}}, {"name": "222819ad69610f94e7f21d3ac16b4331", "type": "electric_bike", "lat": 38.93882466666667, "is_reserved": 0, "lon": -76.95411, "fusion_lon": 0.0, "is_disabled": 0, "fusion_lat": 0.0, "bike_id": "222819ad69610f94e7f21d3ac16b4331", "rental_uris": {"ios": "https://dc.lft.to/lastmile_qr_scan", "android": "https://dc.lft.to/lastmile_qr_scan"}}, {"name": "eb008e34e3af7c66b5ffb897b838af2d", "type": "electric_scooter", "lat": 38.906633166666666, "is_reserved": 0, "lon": -77.05152616666666, "fusion_lon": 0.0, "is_disabled": 0, "fusion_lat": 0.0, "bike_id": "eb008e34e3af7c66b5ffb897b838af2d", "rental_uris": {"ios": "https://dc.lft.to/lastmile_qr_scan", "android": "https://dc.lft.to/lastmile_qr_scan"}}, {"name": "898d2ee97471a7ff9a2c0cb64d0619f7", "type": "electric_bike", "lat": 39.08861516666666, "is_reserved": 0, "lon": -77.1783905, "fusion_lon": 0.0, "is_disabled": 0, "fusion_lat": 0.0, "bike_id": "898d2ee97471a7ff9a2c0cb64d0619f7", "rental_uris": {"ios": "https://dc.lft.to/lastmile_qr_scan", "android": "https://dc.lft.to/lastmile_qr_scan"}}, {"name": "ddda46ded321045523df262601b73519", "type": "electric_scooter", "lat": 38.93537633333333, "is_reserved": 0, "lon": -77.03423566666666, "fusion_lon": 0.0, "is_disabled": 0, "fusion_lat": 0.0, "bike_id": "ddda46ded321045523df262601b73519", "rental_uris": {"ios": "https://dc.lft.to/lastmile_qr_scan", "android": "https://dc.lft.to/lastmile_qr_scan"}}, {"name": "f08ba8308602abd2b344f6363f265284", "type": "electric_scooter", "lat": 38.9574935, "is_reserved": 0, "lon": -77.02417516666667, "fusion_lon": 0.0, "is_disabled": 0, "fusion_lat": 0.0, "bike_id": "f08ba8308602abd2b344f6363f265284", "rental_uris": {"ios": "https://dc.lft.to/lastmile_qr_scan", "android": "https://dc.lft.to/lastmile_qr_scan"}}, {"name": "bfed34f886e88ca6dc190524b36ed250", "type": "electric_scooter", "lat": 38.865392666666665, "is_reserved": 0, "lon": -76.9870955, "fusion_lon": 0.0, "is_disabled": 0, "fusion_lat": 0.0, "bike_id": "bfed34f886e88ca6dc190524b36ed250", "rental_uris": {"ios": "https://dc.lft.to/lastmile_qr_scan", "android": "https://dc.lft.to/lastmile_qr_scan"}}, {"name": "ee9d87aa7a2f9a8a334d0fca28727402", "type": "electric_scooter", "lat": 38.91024066666667, "is_reserved": 0, "lon": -77.04410133333333, "fusion_lon": 0.0, "is_disabled": 0, "fusion_lat": 0.0, "bike_id": "ee9d87aa7a2f9a8a334d0fca28727402", "rental_uris": {"ios": "https://dc.lft.to/lastmile_qr_scan", "android": "https://dc.lft.to/lastmile_qr_scan"}}, {"name": "eb2471407551a6eb8050c3fede88177a", "type": "electric_scooter", "lat": 38.91554, "is_reserved": 0, "lon": -77.02263316666667, "fusion_lon": 0.0, "is_disabled": 0, "fusion_lat": 0.0, "bike_id": "eb2471407551a6eb8050c3fede88177a", "rental_uris": {"ios": "https://dc.lft.to/lastmile_qr_scan", "android": "https://dc.lft.to/lastmile_qr_scan"}}, {"name": "a3922690eea408b83c6a58a2ffbcc33d", "type": "electric_scooter", "lat": 38.899749666666665, "is_reserved": 0, "lon": -77.0509925, "fusion_lon": 0.0, "is_disabled": 0, "fusion_lat": 0.0, "bike_id": "a3922690eea408b83c6a58a2ffbcc33d", "rental_uris": {"ios": "https://dc.lft.to/lastmile_qr_scan", "android": "https://dc.lft.to/lastmile_qr_scan"}}, {"name": "425bbce3ed60eee98bbdf413600c3079", "type": "electric_scooter", "lat": 38.89856533333333, "is_reserved": 0, "lon": -77.04345633333334, "fusion_lon": 0.0, "is_disabled": 0, "fusion_lat": 0.0, "bike_id": "425bbce3ed60eee98bbdf413600c3079", "rental_uris": {"ios": "https://dc.lft.to/lastmile_qr_scan", "android": "https://dc.lft.to/lastmile_qr_scan"}}, {"name": "5abd71253781dc92afbaed4379328794", "type": "electric_bike", "lat": 38.895647, "is_reserved": 0, "lon": -77.1273655, "fusion_lon": 0.0, "is_disabled": 0, "fusion_lat": 0.0, "bike_id": "5abd71253781dc92afbaed4379328794", "rental_uris": {"ios": "https://dc.lft.to/lastmile_qr_scan", "android": "https://dc.lft.to/lastmile_qr_scan"}}, {"name": "1432c7b4f099b3b05c0987e4a87bfaa5", "type": "electric_scooter", "lat": 38.90247433333333, "is_reserved": 0, "lon": -77.03633433333333, "fusion_lon": 0.0, "is_disabled": 0, "fusion_lat": 0.0, "bike_id": "1432c7b4f099b3b05c0987e4a87bfaa5", "rental_uris": {"ios": "https://dc.lft.to/lastmile_qr_scan", "android": "https://dc.lft.to/lastmile_qr_scan"}}, {"name": "d3f767621d91c97449c5d7f105d98070", "type": "electric_scooter", "lat": 38.91493966666667, "is_reserved": 0, "lon": -77.04843216666667, "fusion_lon": 0.0, "is_disabled": 0, "fusion_lat": 0.0, "bike_id": "d3f767621d91c97449c5d7f105d98070", "rental_uris": {"ios": "https://dc.lft.to/lastmile_qr_scan", "android": "https://dc.lft.to/lastmile_qr_scan"}}, {"name": "1e65aafe2b108388031cc2acc218d7ea", "type": "electric_scooter", "lat": 38.90943133333333, "is_reserved": 0, "lon": -77.021934, "fusion_lon": 0.0, "is_disabled": 0, "fusion_lat": 0.0, "bike_id": "1e65aafe2b108388031cc2acc218d7ea", "rental_uris": {"ios": "https://dc.lft.to/lastmile_qr_scan", "android": "https://dc.lft.to/lastmile_qr_scan"}}, {"name": "923564af71610f654e5160618f9c9403", "type": "electric_scooter", "lat": 38.92751, "is_reserved": 0, "lon": -77.0248865, "fusion_lon": 0.0, "is_disabled": 0, "fusion_lat": 0.0, "bike_id": "923564af71610f654e5160618f9c9403", "rental_uris": {"ios": "https://dc.lft.to/lastmile_qr_scan", "android": "https://dc.lft.to/lastmile_qr_scan"}}, {"name": "49f8be2e2aa15fb918e0ecd834108f26", "type": "electric_scooter", "lat": 38.8991315, "is_reserved": 0, "lon": -77.0394275, "fusion_lon": 0.0, "is_disabled": 0, "fusion_lat": 0.0, "bike_id": "49f8be2e2aa15fb918e0ecd834108f26", "rental_uris": {"ios": "https://dc.lft.to/lastmile_qr_scan", "android": "https://dc.lft.to/lastmile_qr_scan"}}, {"name": "fec0eeddea171832a87046e147aaa7fa", "type": "electric_scooter", "lat": 38.907975666666665, "is_reserved": 0, "lon": -77.04826033333333, "fusion_lon": 0.0, "is_disabled": 0, "fusion_lat": 0.0, "bike_id": "fec0eeddea171832a87046e147aaa7fa", "rental_uris": {"ios": "https://dc.lft.to/lastmile_qr_scan", "android": "https://dc.lft.to/lastmile_qr_scan"}}, {"name": "08ee712b894e4609281237cb36d23e8d", "type": "electric_scooter", "lat": 38.902549, "is_reserved": 0, "lon": -77.05319566666667, "fusion_lon": 0.0, "is_disabled": 0, "fusion_lat": 0.0, "bike_id": "08ee712b894e4609281237cb36d23e8d", "rental_uris": {"ios": "https://dc.lft.to/lastmile_qr_scan", "android": "https://dc.lft.to/lastmile_qr_scan"}}, {"name": "3d6b40630a5a18332b33cf6e9a6a5f96", "type": "electric_scooter", "lat": 38.932907166666666, "is_reserved": 0, "lon": -77.03984183333333, "fusion_lon": 0.0, "is_disabled": 0, "fusion_lat": 0.0, "bike_id": "3d6b40630a5a18332b33cf6e9a6a5f96", "rental_uris": {"ios": "https://dc.lft.to/lastmile_qr_scan", "android": "https://dc.lft.to/lastmile_qr_scan"}}, {"name": "bacb3288959f011757601c6df4e4bc32", "type": "electric_scooter", "lat": 38.886925166666664, "is_reserved": 0, "lon": -76.9576415, "fusion_lon": 0.0, "is_disabled": 0, "fusion_lat": 0.0, "bike_id": "bacb3288959f011757601c6df4e4bc32", "rental_uris": {"ios": "https://dc.lft.to/lastmile_qr_scan", "android": "https://dc.lft.to/lastmile_qr_scan"}}, {"name": "54f39b9a71b2865714faf8d1154edb81", "type": "electric_scooter", "lat": 38.894556666666666, "is_reserved": 0, "lon": -77.01921916666667, "fusion_lon": 0.0, "is_disabled": 0, "fusion_lat": 0.0, "bike_id": "54f39b9a71b2865714faf8d1154edb81", "rental_uris": {"ios": "https://dc.lft.to/lastmile_qr_scan", "android": "https://dc.lft.to/lastmile_qr_scan"}}, {"name": "8997f9ba1abcea893b617cf3192922fe", "type": "electric_scooter", "lat": 38.89739316666667, "is_reserved": 0, "lon": -76.9384435, "fusion_lon": 0.0, "is_disabled": 0, "fusion_lat": 0.0, "bike_id": "8997f9ba1abcea893b617cf3192922fe", "rental_uris": {"ios": "https://dc.lft.to/lastmile_qr_scan", "android": "https://dc.lft.to/lastmile_qr_scan"}}, {"name": "3d116ff4bb416d69f177f8be4510ff0d", "type": "electric_scooter", "lat": 38.92766683333333, "is_reserved": 0, "lon": -77.073067, "fusion_lon": 0.0, "is_disabled": 0, "fusion_lat": 0.0, "bike_id": "3d116ff4bb416d69f177f8be4510ff0d", "rental_uris": {"ios": "https://dc.lft.to/lastmile_qr_scan", "android": "https://dc.lft.to/lastmile_qr_scan"}}, {"name": "28c81cf5f776783000f5ba9bbe7b27ec", "type": "electric_scooter", "lat": 38.895315833333335, "is_reserved": 0, "lon": -77.003438, "fusion_lon": 0.0, "is_disabled": 0, "fusion_lat": 0.0, "bike_id": "28c81cf5f776783000f5ba9bbe7b27ec", "rental_uris": {"ios": "https://dc.lft.to/lastmile_qr_scan", "android": "https://dc.lft.to/lastmile_qr_scan"}}, {"name": "74bb090781be243748da0c886706ee8e", "type": "electric_scooter", "lat": 38.87632583333333, "is_reserved": 0, "lon": -76.965283, "fusion_lon": 0.0, "is_disabled": 0, "fusion_lat": 0.0, "bike_id": "74bb090781be243748da0c886706ee8e", "rental_uris": {"ios": "https://dc.lft.to/lastmile_qr_scan", "android": "https://dc.lft.to/lastmile_qr_scan"}}, {"name": "83472289801665a43babb28c74550fb6", "type": "electric_scooter", "lat": 38.89618466666667, "is_reserved": 0, "lon": -77.04452066666667, "fusion_lon": 0.0, "is_disabled": 0, "fusion_lat": 0.0, "bike_id": "83472289801665a43babb28c74550fb6", "rental_uris": {"ios": "https://dc.lft.to/lastmile_qr_scan", "android": "https://dc.lft.to/lastmile_qr_scan"}}, {"name": "8ecb7bbfda429f6b0ff939c7df542b12", "type": "electric_bike", "lat": 38.83831166666667, "is_reserved": 0, "lon": -76.99686166666666, "fusion_lon": 0.0, "is_disabled": 0, "fusion_lat": 0.0, "bike_id": "8ecb7bbfda429f6b0ff939c7df542b12", "rental_uris": {"ios": "https://dc.lft.to/lastmile_qr_scan", "android": "https://dc.lft.to/lastmile_qr_scan"}}, {"name": "139f53ae9ceaae6e7510d82cb4887430", "type": "electric_scooter", "lat": 38.928739666666665, "is_reserved": 0, "lon": -77.01381566666667, "fusion_lon": 0.0, "is_disabled": 0, "fusion_lat": 0.0, "bike_id": "139f53ae9ceaae6e7510d82cb4887430", "rental_uris": {"ios": "https://dc.lft.to/lastmile_qr_scan", "android": "https://dc.lft.to/lastmile_qr_scan"}}, {"name": "48055258c3daa59458ec4375f97c05d2", "type": "electric_scooter", "lat": 38.892384666666665, "is_reserved": 0, "lon": -77.01534716666667, "fusion_lon": 0.0, "is_disabled": 0, "fusion_lat": 0.0, "bike_id": "48055258c3daa59458ec4375f97c05d2", "rental_uris": {"ios": "https://dc.lft.to/lastmile_qr_scan", "android": "https://dc.lft.to/lastmile_qr_scan"}}, {"name": "084a2b91d329fd0c9fc1d28c9fafcf7a", "type": "electric_scooter", "lat": 38.865258833333336, "is_reserved": 0, "lon": -76.99026483333333, "fusion_lon": 0.0, "is_disabled": 0, "fusion_lat": 0.0, "bike_id": "084a2b91d329fd0c9fc1d28c9fafcf7a", "rental_uris": {"ios": "https://dc.lft.to/lastmile_qr_scan", "android": "https://dc.lft.to/lastmile_qr_scan"}}, {"name": "f12af5f498f6d4d891dfd0b7bc6dffbb", "type": "electric_scooter", "lat": 38.896393, "is_reserved": 0, "lon": -77.03967466666667, "fusion_lon": 0.0, "is_disabled": 0, "fusion_lat": 0.0, "bike_id": "f12af5f498f6d4d891dfd0b7bc6dffbb", "rental_uris": {"ios": "https://dc.lft.to/lastmile_qr_scan", "android": "https://dc.lft.to/lastmile_qr_scan"}}, {"name": "bb55541d7d27207d5ad37d9b97fc8ff1", "type": "electric_scooter", "lat": 38.876384333333334, "is_reserved": 0, "lon": -77.00921383333333, "fusion_lon": 0.0, "is_disabled": 0, "fusion_lat": 0.0, "bike_id": "bb55541d7d27207d5ad37d9b97fc8ff1", "rental_uris": {"ios": "https://dc.lft.to/lastmile_qr_scan", "android": "https://dc.lft.to/lastmile_qr_scan"}}, {"name": "4246a6ee3b40db957e6f15667a6f962d", "type": "electric_scooter", "lat": 38.927516833333335, "is_reserved": 0, "lon": -77.03272083333333, "fusion_lon": 0.0, "is_disabled": 0, "fusion_lat": 0.0, "bike_id": "4246a6ee3b40db957e6f15667a6f962d", "rental_uris": {"ios": "https://dc.lft.to/lastmile_qr_scan", "android": "https://dc.lft.to/lastmile_qr_scan"}}, {"name": "1e50072d46fc80c54b317fb02974e24c", "type": "electric_bike", "lat": 38.936734666666666, "is_reserved": 0, "lon": -76.95210266666666, "fusion_lon": 0.0, "is_disabled": 0, "fusion_lat": 0.0, "bike_id": "1e50072d46fc80c54b317fb02974e24c", "rental_uris": {"ios": "https://dc.lft.to/lastmile_qr_scan", "android": "https://dc.lft.to/lastmile_qr_scan"}}, {"name": "8c88e1816f364eb52171d2b3aad47829", "type": "electric_scooter", "lat": 38.92885116666667, "is_reserved": 0, "lon": -77.04049283333333, "fusion_lon": 0.0, "is_disabled": 0, "fusion_lat": 0.0, "bike_id": "8c88e1816f364eb52171d2b3aad47829", "rental_uris": {"ios": "https://dc.lft.to/lastmile_qr_scan", "android": "https://dc.lft.to/lastmile_qr_scan"}}, {"name": "38e061d4aab257058ebb2d5f26ded95d", "type": "electric_scooter", "lat": 38.90083516666667, "is_reserved": 0, "lon": -77.05054666666666, "fusion_lon": 0.0, "is_disabled": 0, "fusion_lat": 0.0, "bike_id": "38e061d4aab257058ebb2d5f26ded95d", "rental_uris": {"ios": "https://dc.lft.to/lastmile_qr_scan", "android": "https://dc.lft.to/lastmile_qr_scan"}}, {"name": "df82fed42387d5283b8d0fc8faa70e95", "type": "electric_scooter", "lat": 38.892267833333335, "is_reserved": 0, "lon": -77.0454005, "fusion_lon": 0.0, "is_disabled": 0, "fusion_lat": 0.0, "bike_id": "df82fed42387d5283b8d0fc8faa70e95", "rental_uris": {"ios": "https://dc.lft.to/lastmile_qr_scan", "android": "https://dc.lft.to/lastmile_qr_scan"}}, {"name": "4a05cc579465980f90c1e8847b66c14a", "type": "electric_bike", "lat": 39.02645866666667, "is_reserved": 0, "lon": -77.1253015, "fusion_lon": 0.0, "is_disabled": 0, "fusion_lat": 0.0, "bike_id": "4a05cc579465980f90c1e8847b66c14a", "rental_uris": {"ios": "https://dc.lft.to/lastmile_qr_scan", "android": "https://dc.lft.to/lastmile_qr_scan"}}, {"name": "513e581341916f323a6d64b1d3f64dcb", "type": "electric_scooter", "lat": 38.9349695, "is_reserved": 0, "lon": -77.028484, "fusion_lon": 0.0, "is_disabled": 0, "fusion_lat": 0.0, "bike_id": "513e581341916f323a6d64b1d3f64dcb", "rental_uris": {"ios": "https://dc.lft.to/lastmile_qr_scan", "android": "https://dc.lft.to/lastmile_qr_scan"}}, {"name": "ed390a475c4a12452ca7eaf1a346f545", "type": "electric_scooter", "lat": 38.88284066666667, "is_reserved": 0, "lon": -76.97907516666666, "fusion_lon": 0.0, "is_disabled": 0, "fusion_lat": 0.0, "bike_id": "ed390a475c4a12452ca7eaf1a346f545", "rental_uris": {"ios": "https://dc.lft.to/lastmile_qr_scan", "android": "https://dc.lft.to/lastmile_qr_scan"}}, {"name": "f6825035e1bd7a6fed5ef314c4968efa", "type": "electric_scooter", "lat": 38.900129666666665, "is_reserved": 0, "lon": -76.98700533333333, "fusion_lon": 0.0, "is_disabled": 0, "fusion_lat": 0.0, "bike_id": "f6825035e1bd7a6fed5ef314c4968efa", "rental_uris": {"ios": "https://dc.lft.to/lastmile_qr_scan", "android": "https://dc.lft.to/lastmile_qr_scan"}}, {"name": "4bcec0ff4f1f95d806514a175f069c33", "type": "electric_scooter", "lat": 38.90298383333333, "is_reserved": 0, "lon": -77.0331225, "fusion_lon": 0.0, "is_disabled": 0, "fusion_lat": 0.0, "bike_id": "4bcec0ff4f1f95d806514a175f069c33", "rental_uris": {"ios": "https://dc.lft.to/lastmile_qr_scan", "android": "https://dc.lft.to/lastmile_qr_scan"}}, {"name": "28927f32fa62358b70b79a8ff434e87b", "type": "electric_scooter", "lat": 38.844293666666665, "is_reserved": 0, "lon": -76.99775233333334, "fusion_lon": 0.0, "is_disabled": 0, "fusion_lat": 0.0, "bike_id": "28927f32fa62358b70b79a8ff434e87b", "rental_uris": {"ios": "https://dc.lft.to/lastmile_qr_scan", "android": "https://dc.lft.to/lastmile_qr_scan"}}, {"name": "6fe4e60dba8c025161b55db25cb6c804", "type": "electric_scooter", "lat": 38.89531133333333, "is_reserved": 0, "lon": -76.94930716666667, "fusion_lon": 0.0, "is_disabled": 0, "fusion_lat": 0.0, "bike_id": "6fe4e60dba8c025161b55db25cb6c804", "rental_uris": {"ios": "https://dc.lft.to/lastmile_qr_scan", "android": "https://dc.lft.to/lastmile_qr_scan"}}, {"name": "50e2026650108ee00fbee0e107adaf62", "type": "electric_scooter", "lat": 38.92907916666667, "is_reserved": 0, "lon": -77.02165566666666, "fusion_lon": 0.0, "is_disabled": 0, "fusion_lat": 0.0, "bike_id": "50e2026650108ee00fbee0e107adaf62", "rental_uris": {"ios": "https://dc.lft.to/lastmile_qr_scan", "android": "https://dc.lft.to/lastmile_qr_scan"}}, {"name": "5f2beaa83950472a36f7eedd849e0fb3", "type": "electric_scooter", "lat": 38.90777116666667, "is_reserved": 0, "lon": -77.02949033333333, "fusion_lon": 0.0, "is_disabled": 0, "fusion_lat": 0.0, "bike_id": "5f2beaa83950472a36f7eedd849e0fb3", "rental_uris": {"ios": "https://dc.lft.to/lastmile_qr_scan", "android": "https://dc.lft.to/lastmile_qr_scan"}}, {"name": "ffbd05b87b831f77da8216a0adb2d479", "type": "electric_scooter", "lat": 38.920863833333335, "is_reserved": 0, "lon": -77.0240845, "fusion_lon": 0.0, "is_disabled": 0, "fusion_lat": 0.0, "bike_id": "ffbd05b87b831f77da8216a0adb2d479", "rental_uris": {"ios": "https://dc.lft.to/lastmile_qr_scan", "android": "https://dc.lft.to/lastmile_qr_scan"}}, {"name": "41720ab529c1973b67db33d23d294050", "type": "electric_scooter", "lat": 38.890829333333336, "is_reserved": 0, "lon": -77.001987, "fusion_lon": 0.0, "is_disabled": 0, "fusion_lat": 0.0, "bike_id": "41720ab529c1973b67db33d23d294050", "rental_uris": {"ios": "https://dc.lft.to/lastmile_qr_scan", "android": "https://dc.lft.to/lastmile_qr_scan"}}, {"name": "3be7ba04922f57184bde4c66e7f7b82a", "type": "electric_scooter", "lat": 38.931531666666665, "is_reserved": 0, "lon": -77.043577, "fusion_lon": 0.0, "is_disabled": 0, "fusion_lat": 0.0, "bike_id": "3be7ba04922f57184bde4c66e7f7b82a", "rental_uris": {"ios": "https://dc.lft.to/lastmile_qr_scan", "android": "https://dc.lft.to/lastmile_qr_scan"}}, {"name": "493d050727c2c13bdccedb09bdbcb544", "type": "electric_bike", "lat": 38.85436816666667, "is_reserved": 0, "lon": -76.909775, "fusion_lon": 0.0, "is_disabled": 0, "fusion_lat": 0.0, "bike_id": "493d050727c2c13bdccedb09bdbcb544", "rental_uris": {"ios": "https://dc.lft.to/lastmile_qr_scan", "android": "https://dc.lft.to/lastmile_qr_scan"}}, {"name": "c76acee0d73e8fa59fe0b8570e877103", "type": "electric_scooter", "lat": 38.92185666666666, "is_reserved": 0, "lon": -77.03225316666666, "fusion_lon": 0.0, "is_disabled": 0, "fusion_lat": 0.0, "bike_id": "c76acee0d73e8fa59fe0b8570e877103", "rental_uris": {"ios": "https://dc.lft.to/lastmile_qr_scan", "android": "https://dc.lft.to/lastmile_qr_scan"}}, {"name": "d3693b5ca448aa1121b09c5fb8b2b63b", "type": "electric_bike", "lat": 38.81051716666666, "is_reserved": 0, "lon": -77.0851035, "fusion_lon": 0.0, "is_disabled": 0, "fusion_lat": 0.0, "bike_id": "d3693b5ca448aa1121b09c5fb8b2b63b", "rental_uris": {"ios": "https://dc.lft.to/lastmile_qr_scan", "android": "https://dc.lft.to/lastmile_qr_scan"}}, {"name": "b7a9d9471ec5fc34a19e43c41b9e4064", "type": "electric_scooter", "lat": 38.89818916666667, "is_reserved": 0, "lon": -77.03304633333333, "fusion_lon": 0.0, "is_disabled": 0, "fusion_lat": 0.0, "bike_id": "b7a9d9471ec5fc34a19e43c41b9e4064", "rental_uris": {"ios": "https://dc.lft.to/lastmile_qr_scan", "android": "https://dc.lft.to/lastmile_qr_scan"}}, {"name": "983f1d7e0c86a176d927e4ec7cf7baa0", "type": "electric_bike", "lat": 38.86904116666667, "is_reserved": 0, "lon": -77.13184483333333, "fusion_lon": 0.0, "is_disabled": 0, "fusion_lat": 0.0, "bike_id": "983f1d7e0c86a176d927e4ec7cf7baa0", "rental_uris": {"ios": "https://dc.lft.to/lastmile_qr_scan", "android": "https://dc.lft.to/lastmile_qr_scan"}}, {"name": "7b7ffee6fab8cebb09e5c20b3f2baaf6", "type": "electric_scooter", "lat": 38.93259183333333, "is_reserved": 0, "lon": -77.03274366666666, "fusion_lon": 0.0, "is_disabled": 0, "fusion_lat": 0.0, "bike_id": "7b7ffee6fab8cebb09e5c20b3f2baaf6", "rental_uris": {"ios": "https://dc.lft.to/lastmile_qr_scan", "android": "https://dc.lft.to/lastmile_qr_scan"}}, {"name": "c352d687284656650c889e7167c20cbd", "type": "electric_scooter", "lat": 38.92246216666667, "is_reserved": 0, "lon": -77.01008416666667, "fusion_lon": 0.0, "is_disabled": 0, "fusion_lat": 0.0, "bike_id": "c352d687284656650c889e7167c20cbd", "rental_uris": {"ios": "https://dc.lft.to/lastmile_qr_scan", "android": "https://dc.lft.to/lastmile_qr_scan"}}, {"name": "01c1f195b07307334ce811d7ec441bd7", "type": "electric_scooter", "lat": 38.91525333333333, "is_reserved": 0, "lon": -77.04491916666667, "fusion_lon": 0.0, "is_disabled": 0, "fusion_lat": 0.0, "bike_id": "01c1f195b07307334ce811d7ec441bd7", "rental_uris": {"ios": "https://dc.lft.to/lastmile_qr_scan", "android": "https://dc.lft.to/lastmile_qr_scan"}}, {"name": "c2cf0c2feb86b3c2d2689c9dbfca4889", "type": "electric_scooter", "lat": 38.89599366666667, "is_reserved": 0, "lon": -77.02824883333334, "fusion_lon": 0.0, "is_disabled": 0, "fusion_lat": 0.0, "bike_id": "c2cf0c2feb86b3c2d2689c9dbfca4889", "rental_uris": {"ios": "https://dc.lft.to/lastmile_qr_scan", "android": "https://dc.lft.to/lastmile_qr_scan"}}, {"name": "fdc089111fab91e53e8898a62e9d5de9", "type": "electric_scooter", "lat": 38.903818333333334, "is_reserved": 0, "lon": -77.03831033333333, "fusion_lon": 0.0, "is_disabled": 0, "fusion_lat": 0.0, "bike_id": "fdc089111fab91e53e8898a62e9d5de9", "rental_uris": {"ios": "https://dc.lft.to/lastmile_qr_scan", "android": "https://dc.lft.to/lastmile_qr_scan"}}, {"name": "562ee9c5872c8ca3e4572c3120871be7", "type": "electric_scooter", "lat": 38.902763, "is_reserved": 0, "lon": -77.05918633333333, "fusion_lon": 0.0, "is_disabled": 0, "fusion_lat": 0.0, "bike_id": "562ee9c5872c8ca3e4572c3120871be7", "rental_uris": {"ios": "https://dc.lft.to/lastmile_qr_scan", "android": "https://dc.lft.to/lastmile_qr_scan"}}, {"name": "2e052b4bfa7209a9cec3bb7d362728ba", "type": "electric_scooter", "lat": 38.904843666666665, "is_reserved": 0, "lon": -77.043639, "fusion_lon": 0.0, "is_disabled": 0, "fusion_lat": 0.0, "bike_id": "2e052b4bfa7209a9cec3bb7d362728ba", "rental_uris": {"ios": "https://dc.lft.to/lastmile_qr_scan", "android": "https://dc.lft.to/lastmile_qr_scan"}}, {"name": "29136bcb7d5f063e04933c7d55fcb545", "type": "electric_scooter", "lat": 38.9064555, "is_reserved": 0, "lon": -77.011443, "fusion_lon": 0.0, "is_disabled": 0, "fusion_lat": 0.0, "bike_id": "29136bcb7d5f063e04933c7d55fcb545", "rental_uris": {"ios": "https://dc.lft.to/lastmile_qr_scan", "android": "https://dc.lft.to/lastmile_qr_scan"}}, {"name": "a7492f13a8981e123f8ac428d5c94f23", "type": "electric_scooter", "lat": 38.90354133333334, "is_reserved": 0, "lon": -77.02592166666666, "fusion_lon": 0.0, "is_disabled": 0, "fusion_lat": 0.0, "bike_id": "a7492f13a8981e123f8ac428d5c94f23", "rental_uris": {"ios": "https://dc.lft.to/lastmile_qr_scan", "android": "https://dc.lft.to/lastmile_qr_scan"}}, {"name": "4cc5d6b0762001f9db948d2a98dfceeb", "type": "electric_scooter", "lat": 38.90670083333333, "is_reserved": 0, "lon": -77.03852933333333, "fusion_lon": 0.0, "is_disabled": 0, "fusion_lat": 0.0, "bike_id": "4cc5d6b0762001f9db948d2a98dfceeb", "rental_uris": {"ios": "https://dc.lft.to/lastmile_qr_scan", "android": "https://dc.lft.to/lastmile_qr_scan"}}, {"name": "88f62796bc4c4ea8c827de1ae82098ac", "type": "electric_scooter", "lat": 38.892244166666664, "is_reserved": 0, "lon": -77.0426435, "fusion_lon": 0.0, "is_disabled": 0, "fusion_lat": 0.0, "bike_id": "88f62796bc4c4ea8c827de1ae82098ac", "rental_uris": {"ios": "https://dc.lft.to/lastmile_qr_scan", "android": "https://dc.lft.to/lastmile_qr_scan"}}, {"name": "de55e2b5bc3f870dfabb13a30390be1b", "type": "electric_scooter", "lat": 38.90743533333333, "is_reserved": 0, "lon": -77.038479, "fusion_lon": 0.0, "is_disabled": 0, "fusion_lat": 0.0, "bike_id": "de55e2b5bc3f870dfabb13a30390be1b", "rental_uris": {"ios": "https://dc.lft.to/lastmile_qr_scan", "android": "https://dc.lft.to/lastmile_qr_scan"}}, {"name": "22fc615840eb1a185f05aa64810381c5", "type": "electric_scooter", "lat": 38.90845183333333, "is_reserved": 0, "lon": -77.0442155, "fusion_lon": 0.0, "is_disabled": 0, "fusion_lat": 0.0, "bike_id": "22fc615840eb1a185f05aa64810381c5", "rental_uris": {"ios": "https://dc.lft.to/lastmile_qr_scan", "android": "https://dc.lft.to/lastmile_qr_scan"}}, {"name": "998c1366a9450f818d708df82ac35959", "type": "electric_scooter", "lat": 38.902102, "is_reserved": 0, "lon": -76.98869183333333, "fusion_lon": 0.0, "is_disabled": 0, "fusion_lat": 0.0, "bike_id": "998c1366a9450f818d708df82ac35959", "rental_uris": {"ios": "https://dc.lft.to/lastmile_qr_scan", "android": "https://dc.lft.to/lastmile_qr_scan"}}, {"name": "6859515525a0c9d54b8b64cbd8dc6402", "type": "electric_scooter", "lat": 38.906869, "is_reserved": 0, "lon": -77.01347616666666, "fusion_lon": 0.0, "is_disabled": 0, "fusion_lat": 0.0, "bike_id": "6859515525a0c9d54b8b64cbd8dc6402", "rental_uris": {"ios": "https://dc.lft.to/lastmile_qr_scan", "android": "https://dc.lft.to/lastmile_qr_scan"}}, {"name": "fe969643b50a6d9544cf3bdf7ece4254", "type": "electric_scooter", "lat": 38.927235, "is_reserved": 0, "lon": -77.03075716666666, "fusion_lon": 0.0, "is_disabled": 0, "fusion_lat": 0.0, "bike_id": "fe969643b50a6d9544cf3bdf7ece4254", "rental_uris": {"ios": "https://dc.lft.to/lastmile_qr_scan", "android": "https://dc.lft.to/lastmile_qr_scan"}}, {"name": "95c411499dcf475f9c8adce60c3ba4f9", "type": "electric_scooter", "lat": 38.907252166666666, "is_reserved": 0, "lon": -77.04349533333334, "fusion_lon": 0.0, "is_disabled": 0, "fusion_lat": 0.0, "bike_id": "95c411499dcf475f9c8adce60c3ba4f9", "rental_uris": {"ios": "https://dc.lft.to/lastmile_qr_scan", "android": "https://dc.lft.to/lastmile_qr_scan"}}, {"name": "e65d0c3314d9ff922a6f462948822369", "type": "electric_scooter", "lat": 38.89487066666667, "is_reserved": 0, "lon": -77.02160733333334, "fusion_lon": 0.0, "is_disabled": 0, "fusion_lat": 0.0, "bike_id": "e65d0c3314d9ff922a6f462948822369", "rental_uris": {"ios": "https://dc.lft.to/lastmile_qr_scan", "android": "https://dc.lft.to/lastmile_qr_scan"}}, {"name": "9f510b14a97c88cc25ece9f267158d59", "type": "electric_scooter", "lat": 38.91965016666666, "is_reserved": 0, "lon": -77.03188183333333, "fusion_lon": 0.0, "is_disabled": 0, "fusion_lat": 0.0, "bike_id": "9f510b14a97c88cc25ece9f267158d59", "rental_uris": {"ios": "https://dc.lft.to/lastmile_qr_scan", "android": "https://dc.lft.to/lastmile_qr_scan"}}, {"name": "641852b4ac2f3a1603f93f41fbf056f3", "type": "electric_scooter", "lat": 38.89631516666667, "is_reserved": 0, "lon": -77.02292, "fusion_lon": 0.0, "is_disabled": 0, "fusion_lat": 0.0, "bike_id": "641852b4ac2f3a1603f93f41fbf056f3", "rental_uris": {"ios": "https://dc.lft.to/lastmile_qr_scan", "android": "https://dc.lft.to/lastmile_qr_scan"}}, {"name": "0f7ee43026d590b1fd3f28b95e339059", "type": "electric_scooter", "lat": 38.906187, "is_reserved": 0, "lon": -77.00055366666666, "fusion_lon": 0.0, "is_disabled": 0, "fusion_lat": 0.0, "bike_id": "0f7ee43026d590b1fd3f28b95e339059", "rental_uris": {"ios": "https://dc.lft.to/lastmile_qr_scan", "android": "https://dc.lft.to/lastmile_qr_scan"}}, {"name": "a8dbd53a65102ebf0db79a38b6e4bb90", "type": "electric_scooter", "lat": 38.90320116666667, "is_reserved": 0, "lon": -77.03451366666667, "fusion_lon": 0.0, "is_disabled": 0, "fusion_lat": 0.0, "bike_id": "a8dbd53a65102ebf0db79a38b6e4bb90", "rental_uris": {"ios": "https://dc.lft.to/lastmile_qr_scan", "android": "https://dc.lft.to/lastmile_qr_scan"}}, {"name": "5bc8ce497f4353c2549bda37e5ec8888", "type": "electric_scooter", "lat": 38.9312495, "is_reserved": 0, "lon": -77.03834416666666, "fusion_lon": 0.0, "is_disabled": 0, "fusion_lat": 0.0, "bike_id": "5bc8ce497f4353c2549bda37e5ec8888", "rental_uris": {"ios": "https://dc.lft.to/lastmile_qr_scan", "android": "https://dc.lft.to/lastmile_qr_scan"}}, {"name": "94e0dfbcd2a7f82fed2a5c9fe04b20a6", "type": "electric_scooter", "lat": 38.8822295, "is_reserved": 0, "lon": -76.9418335, "fusion_lon": 0.0, "is_disabled": 0, "fusion_lat": 0.0, "bike_id": "94e0dfbcd2a7f82fed2a5c9fe04b20a6", "rental_uris": {"ios": "https://dc.lft.to/lastmile_qr_scan", "android": "https://dc.lft.to/lastmile_qr_scan"}}, {"name": "8d67eb6622be6c9cf382bec5203f725b", "type": "electric_scooter", "lat": 38.90565766666667, "is_reserved": 0, "lon": -77.004912, "fusion_lon": 0.0, "is_disabled": 0, "fusion_lat": 0.0, "bike_id": "8d67eb6622be6c9cf382bec5203f725b", "rental_uris": {"ios": "https://dc.lft.to/lastmile_qr_scan", "android": "https://dc.lft.to/lastmile_qr_scan"}}, {"name": "e9912d0c2171cef470d5cb62e30d5498", "type": "electric_scooter", "lat": 38.918681, "is_reserved": 0, "lon": -77.036606, "fusion_lon": 0.0, "is_disabled": 0, "fusion_lat": 0.0, "bike_id": "e9912d0c2171cef470d5cb62e30d5498", "rental_uris": {"ios": "https://dc.lft.to/lastmile_qr_scan", "android": "https://dc.lft.to/lastmile_qr_scan"}}, {"name": "207c072c8df27be8225dc9fa81580d02", "type": "electric_scooter", "lat": 38.903316333333336, "is_reserved": 0, "lon": -76.98975316666667, "fusion_lon": 0.0, "is_disabled": 0, "fusion_lat": 0.0, "bike_id": "207c072c8df27be8225dc9fa81580d02", "rental_uris": {"ios": "https://dc.lft.to/lastmile_qr_scan", "android": "https://dc.lft.to/lastmile_qr_scan"}}, {"name": "7f319f2b0bc3e1b86ac93c1e7c243269", "type": "electric_scooter", "lat": 38.886104333333336, "is_reserved": 0, "lon": -76.99516233333334, "fusion_lon": 0.0, "is_disabled": 0, "fusion_lat": 0.0, "bike_id": "7f319f2b0bc3e1b86ac93c1e7c243269", "rental_uris": {"ios": "https://dc.lft.to/lastmile_qr_scan", "android": "https://dc.lft.to/lastmile_qr_scan"}}, {"name": "0c7ccef1a2d2f6fa2afb05dbb3a2f5f0", "type": "electric_scooter", "lat": 38.89827833333333, "is_reserved": 0, "lon": -77.03302166666667, "fusion_lon": 0.0, "is_disabled": 0, "fusion_lat": 0.0, "bike_id": "0c7ccef1a2d2f6fa2afb05dbb3a2f5f0", "rental_uris": {"ios": "https://dc.lft.to/lastmile_qr_scan", "android": "https://dc.lft.to/lastmile_qr_scan"}}, {"name": "c8160a86868cd991a453c004591cebe0", "type": "electric_scooter", "lat": 38.866582333333334, "is_reserved": 0, "lon": -76.99015566666667, "fusion_lon": 0.0, "is_disabled": 0, "fusion_lat": 0.0, "bike_id": "c8160a86868cd991a453c004591cebe0", "rental_uris": {"ios": "https://dc.lft.to/lastmile_qr_scan", "android": "https://dc.lft.to/lastmile_qr_scan"}}, {"name": "ce2d4ae11cb65d9f5fe6b92d3fa315e9", "type": "electric_scooter", "lat": 38.9008235, "is_reserved": 0, "lon": -77.050459, "fusion_lon": 0.0, "is_disabled": 0, "fusion_lat": 0.0, "bike_id": "ce2d4ae11cb65d9f5fe6b92d3fa315e9", "rental_uris": {"ios": "https://dc.lft.to/lastmile_qr_scan", "android": "https://dc.lft.to/lastmile_qr_scan"}}, {"name": "f18e48d003c0c33d6c168d24651aa1e1", "type": "electric_scooter", "lat": 38.89823, "is_reserved": 0, "lon": -76.946526, "fusion_lon": 0.0, "is_disabled": 0, "fusion_lat": 0.0, "bike_id": "f18e48d003c0c33d6c168d24651aa1e1", "rental_uris": {"ios": "https://dc.lft.to/lastmile_qr_scan", "android": "https://dc.lft.to/lastmile_qr_scan"}}, {"name": "9c71670556ec2688808279fc861dc7fa", "type": "electric_scooter", "lat": 38.9015085, "is_reserved": 0, "lon": -77.02908483333333, "fusion_lon": 0.0, "is_disabled": 0, "fusion_lat": 0.0, "bike_id": "9c71670556ec2688808279fc861dc7fa", "rental_uris": {"ios": "https://dc.lft.to/lastmile_qr_scan", "android": "https://dc.lft.to/lastmile_qr_scan"}}, {"name": "1827f29c4e1db61fe36e61061f4ad1c3", "type": "electric_scooter", "lat": 38.933404333333336, "is_reserved": 0, "lon": -77.0326835, "fusion_lon": 0.0, "is_disabled": 0, "fusion_lat": 0.0, "bike_id": "1827f29c4e1db61fe36e61061f4ad1c3", "rental_uris": {"ios": "https://dc.lft.to/lastmile_qr_scan", "android": "https://dc.lft.to/lastmile_qr_scan"}}, {"name": "302572566215d6bb5100fcb5d6caa4a6", "type": "electric_scooter", "lat": 38.93771316666667, "is_reserved": 0, "lon": -77.022655, "fusion_lon": 0.0, "is_disabled": 0, "fusion_lat": 0.0, "bike_id": "302572566215d6bb5100fcb5d6caa4a6", "rental_uris": {"ios": "https://dc.lft.to/lastmile_qr_scan", "android": "https://dc.lft.to/lastmile_qr_scan"}}, {"name": "9de5e686402050162e542d3775cc7c16", "type": "electric_scooter", "lat": 38.92174466666667, "is_reserved": 0, "lon": -77.038315, "fusion_lon": 0.0, "is_disabled": 0, "fusion_lat": 0.0, "bike_id": "9de5e686402050162e542d3775cc7c16", "rental_uris": {"ios": "https://dc.lft.to/lastmile_qr_scan", "android": "https://dc.lft.to/lastmile_qr_scan"}}, {"name": "12fd0de5dcade00d66de82c28fb0d99c", "type": "electric_scooter", "lat": 38.899591, "is_reserved": 0, "lon": -76.98566016666666, "fusion_lon": 0.0, "is_disabled": 0, "fusion_lat": 0.0, "bike_id": "12fd0de5dcade00d66de82c28fb0d99c", "rental_uris": {"ios": "https://dc.lft.to/lastmile_qr_scan", "android": "https://dc.lft.to/lastmile_qr_scan"}}, {"name": "8587f6224f2616bb31630bbdb2fb6f55", "type": "electric_bike", "lat": 38.83986733333333, "is_reserved": 0, "lon": -77.00571166666667, "fusion_lon": 0.0, "is_disabled": 0, "fusion_lat": 0.0, "bike_id": "8587f6224f2616bb31630bbdb2fb6f55", "rental_uris": {"ios": "https://dc.lft.to/lastmile_qr_scan", "android": "https://dc.lft.to/lastmile_qr_scan"}}, {"name": "aa645959221fa418a4d980523fb4bc7b", "type": "electric_scooter", "lat": 38.9006455, "is_reserved": 0, "lon": -77.05144466666667, "fusion_lon": 0.0, "is_disabled": 0, "fusion_lat": 0.0, "bike_id": "aa645959221fa418a4d980523fb4bc7b", "rental_uris": {"ios": "https://dc.lft.to/lastmile_qr_scan", "android": "https://dc.lft.to/lastmile_qr_scan"}}, {"name": "ded56b93d6db72cfb62b2c415d2fbbdb", "type": "electric_scooter", "lat": 38.890136166666665, "is_reserved": 0, "lon": -76.93734633333334, "fusion_lon": 0.0, "is_disabled": 0, "fusion_lat": 0.0, "bike_id": "ded56b93d6db72cfb62b2c415d2fbbdb", "rental_uris": {"ios": "https://dc.lft.to/lastmile_qr_scan", "android": "https://dc.lft.to/lastmile_qr_scan"}}, {"name": "abbbbc42ce150070cff5f231c1331b49", "type": "electric_scooter", "lat": 38.9274995, "is_reserved": 0, "lon": -77.032686, "fusion_lon": 0.0, "is_disabled": 0, "fusion_lat": 0.0, "bike_id": "abbbbc42ce150070cff5f231c1331b49", "rental_uris": {"ios": "https://dc.lft.to/lastmile_qr_scan", "android": "https://dc.lft.to/lastmile_qr_scan"}}, {"name": "879d72caa153733718cbff15c572a5a9", "type": "electric_scooter", "lat": 38.89674316666667, "is_reserved": 0, "lon": -77.026137, "fusion_lon": 0.0, "is_disabled": 0, "fusion_lat": 0.0, "bike_id": "879d72caa153733718cbff15c572a5a9", "rental_uris": {"ios": "https://dc.lft.to/lastmile_qr_scan", "android": "https://dc.lft.to/lastmile_qr_scan"}}, {"name": "6aad9a8ae3efad4b11389123075e5cf2", "type": "electric_scooter", "lat": 38.931697, "is_reserved": 0, "lon": -77.05649083333333, "fusion_lon": 0.0, "is_disabled": 0, "fusion_lat": 0.0, "bike_id": "6aad9a8ae3efad4b11389123075e5cf2", "rental_uris": {"ios": "https://dc.lft.to/lastmile_qr_scan", "android": "https://dc.lft.to/lastmile_qr_scan"}}, {"name": "6b3b1d7e8982bb9e38ded18c04e97f94", "type": "electric_scooter", "lat": 38.929687, "is_reserved": 0, "lon": -77.005401, "fusion_lon": 0.0, "is_disabled": 0, "fusion_lat": 0.0, "bike_id": "6b3b1d7e8982bb9e38ded18c04e97f94", "rental_uris": {"ios": "https://dc.lft.to/lastmile_qr_scan", "android": "https://dc.lft.to/lastmile_qr_scan"}}, {"name": "c9688253a5cd41c0c596486886a4c7e6", "type": "electric_scooter", "lat": 38.898267833333335, "is_reserved": 0, "lon": -76.946542, "fusion_lon": 0.0, "is_disabled": 0, "fusion_lat": 0.0, "bike_id": "c9688253a5cd41c0c596486886a4c7e6", "rental_uris": {"ios": "https://dc.lft.to/lastmile_qr_scan", "android": "https://dc.lft.to/lastmile_qr_scan"}}, {"name": "8b646d2c3fc683ad0cbd67938351f6ac", "type": "electric_scooter", "lat": 38.898285333333334, "is_reserved": 0, "lon": -76.94656316666666, "fusion_lon": 0.0, "is_disabled": 0, "fusion_lat": 0.0, "bike_id": "8b646d2c3fc683ad0cbd67938351f6ac", "rental_uris": {"ios": "https://dc.lft.to/lastmile_qr_scan", "android": "https://dc.lft.to/lastmile_qr_scan"}}, {"name": "eddef27bf47ba07ac333f1350f85ec58", "type": "electric_scooter", "lat": 38.90531033333333, "is_reserved": 0, "lon": -77.0501535, "fusion_lon": 0.0, "is_disabled": 0, "fusion_lat": 0.0, "bike_id": "eddef27bf47ba07ac333f1350f85ec58", "rental_uris": {"ios": "https://dc.lft.to/lastmile_qr_scan", "android": "https://dc.lft.to/lastmile_qr_scan"}}, {"name": "eff9ec9b0ace1be842e024b7239d6605", "type": "electric_scooter", "lat": 38.88771833333333, "is_reserved": 0, "lon": -76.93266066666666, "fusion_lon": 0.0, "is_disabled": 0, "fusion_lat": 0.0, "bike_id": "eff9ec9b0ace1be842e024b7239d6605", "rental_uris": {"ios": "https://dc.lft.to/lastmile_qr_scan", "android": "https://dc.lft.to/lastmile_qr_scan"}}, {"name": "1edeff0b640fcfacc2bb39f3b0d606ff", "type": "electric_scooter", "lat": 38.92251183333333, "is_reserved": 0, "lon": -77.03470066666667, "fusion_lon": 0.0, "is_disabled": 0, "fusion_lat": 0.0, "bike_id": "1edeff0b640fcfacc2bb39f3b0d606ff", "rental_uris": {"ios": "https://dc.lft.to/lastmile_qr_scan", "android": "https://dc.lft.to/lastmile_qr_scan"}}, {"name": "78d7e0357ef46b8a870d85021256deb2", "type": "electric_scooter", "lat": 38.892228333333335, "is_reserved": 0, "lon": -77.048676, "fusion_lon": 0.0, "is_disabled": 0, "fusion_lat": 0.0, "bike_id": "78d7e0357ef46b8a870d85021256deb2", "rental_uris": {"ios": "https://dc.lft.to/lastmile_qr_scan", "android": "https://dc.lft.to/lastmile_qr_scan"}}, {"name": "97a4ba51a1a7a1ba01c8acb2bfb54501", "type": "electric_scooter", "lat": 38.92364216666667, "is_reserved": 0, "lon": -77.019095, "fusion_lon": 0.0, "is_disabled": 0, "fusion_lat": 0.0, "bike_id": "97a4ba51a1a7a1ba01c8acb2bfb54501", "rental_uris": {"ios": "https://dc.lft.to/lastmile_qr_scan", "android": "https://dc.lft.to/lastmile_qr_scan"}}, {"name": "0ab64587c9a357b3fad609760f64bc60", "type": "electric_scooter", "lat": 38.9028355, "is_reserved": 0, "lon": -77.03849516666666, "fusion_lon": 0.0, "is_disabled": 0, "fusion_lat": 0.0, "bike_id": "0ab64587c9a357b3fad609760f64bc60", "rental_uris": {"ios": "https://dc.lft.to/lastmile_qr_scan", "android": "https://dc.lft.to/lastmile_qr_scan"}}, {"name": "c99e35bb6d316c27f33e27fca959508c", "type": "electric_scooter", "lat": 38.9334835, "is_reserved": 0, "lon": -76.99437866666666, "fusion_lon": 0.0, "is_disabled": 0, "fusion_lat": 0.0, "bike_id": "c99e35bb6d316c27f33e27fca959508c", "rental_uris": {"ios": "https://dc.lft.to/lastmile_qr_scan", "android": "https://dc.lft.to/lastmile_qr_scan"}}, {"name": "cd390766cf57cea9785374d352763612", "type": "electric_scooter", "lat": 38.92688183333333, "is_reserved": 0, "lon": -77.09562616666666, "fusion_lon": 0.0, "is_disabled": 0, "fusion_lat": 0.0, "bike_id": "cd390766cf57cea9785374d352763612", "rental_uris": {"ios": "https://dc.lft.to/lastmile_qr_scan", "android": "https://dc.lft.to/lastmile_qr_scan"}}, {"name": "51c27ab13dc789ef490d9e5e0b0374d7", "type": "electric_scooter", "lat": 38.89402916666667, "is_reserved": 0, "lon": -76.94807116666667, "fusion_lon": 0.0, "is_disabled": 0, "fusion_lat": 0.0, "bike_id": "51c27ab13dc789ef490d9e5e0b0374d7", "rental_uris": {"ios": "https://dc.lft.to/lastmile_qr_scan", "android": "https://dc.lft.to/lastmile_qr_scan"}}, {"name": "4a60ef908594096ae5b27f857a2d0371", "type": "electric_scooter", "lat": 38.92238433333333, "is_reserved": 0, "lon": -77.03362733333333, "fusion_lon": 0.0, "is_disabled": 0, "fusion_lat": 0.0, "bike_id": "4a60ef908594096ae5b27f857a2d0371", "rental_uris": {"ios": "https://dc.lft.to/lastmile_qr_scan", "android": "https://dc.lft.to/lastmile_qr_scan"}}, {"name": "deb9fe89a28f43036615d58ecfe155fb", "type": "electric_scooter", "lat": 38.90809216666667, "is_reserved": 0, "lon": -77.03840883333334, "fusion_lon": 0.0, "is_disabled": 0, "fusion_lat": 0.0, "bike_id": "deb9fe89a28f43036615d58ecfe155fb", "rental_uris": {"ios": "https://dc.lft.to/lastmile_qr_scan", "android": "https://dc.lft.to/lastmile_qr_scan"}}, {"name": "76a71431d938c62b65b341f58e9a89e3", "type": "electric_scooter", "lat": 38.925310333333336, "is_reserved": 0, "lon": -77.0552175, "fusion_lon": 0.0, "is_disabled": 0, "fusion_lat": 0.0, "bike_id": "76a71431d938c62b65b341f58e9a89e3", "rental_uris": {"ios": "https://dc.lft.to/lastmile_qr_scan", "android": "https://dc.lft.to/lastmile_qr_scan"}}, {"name": "47e8a8ee4f199df36ed09b1880e185ee", "type": "electric_scooter", "lat": 38.90152483333333, "is_reserved": 0, "lon": -76.9306545, "fusion_lon": 0.0, "is_disabled": 0, "fusion_lat": 0.0, "bike_id": "47e8a8ee4f199df36ed09b1880e185ee", "rental_uris": {"ios": "https://dc.lft.to/lastmile_qr_scan", "android": "https://dc.lft.to/lastmile_qr_scan"}}, {"name": "a55613883031894c210b6c6b25506291", "type": "electric_scooter", "lat": 38.915821666666666, "is_reserved": 0, "lon": -77.04475583333334, "fusion_lon": 0.0, "is_disabled": 0, "fusion_lat": 0.0, "bike_id": "a55613883031894c210b6c6b25506291", "rental_uris": {"ios": "https://dc.lft.to/lastmile_qr_scan", "android": "https://dc.lft.to/lastmile_qr_scan"}}, {"name": "6c4ca2afdf2451939389ba391d06f007", "type": "electric_scooter", "lat": 38.90377183333333, "is_reserved": 0, "lon": -77.03206916666667, "fusion_lon": 0.0, "is_disabled": 0, "fusion_lat": 0.0, "bike_id": "6c4ca2afdf2451939389ba391d06f007", "rental_uris": {"ios": "https://dc.lft.to/lastmile_qr_scan", "android": "https://dc.lft.to/lastmile_qr_scan"}}, {"name": "dcec61eaf3de9ff1c0c07757c9857c1d", "type": "electric_scooter", "lat": 38.9248395, "is_reserved": 0, "lon": -77.03762016666667, "fusion_lon": 0.0, "is_disabled": 0, "fusion_lat": 0.0, "bike_id": "dcec61eaf3de9ff1c0c07757c9857c1d", "rental_uris": {"ios": "https://dc.lft.to/lastmile_qr_scan", "android": "https://dc.lft.to/lastmile_qr_scan"}}, {"name": "a15753d86161cbc0720919f4f380caf6", "type": "electric_scooter", "lat": 38.9293475, "is_reserved": 0, "lon": -77.032961, "fusion_lon": 0.0, "is_disabled": 0, "fusion_lat": 0.0, "bike_id": "a15753d86161cbc0720919f4f380caf6", "rental_uris": {"ios": "https://dc.lft.to/lastmile_qr_scan", "android": "https://dc.lft.to/lastmile_qr_scan"}}, {"name": "ca3cb9810abcdfe43e91c3ab4b2d9d89", "type": "electric_scooter", "lat": 38.9188205, "is_reserved": 0, "lon": -77.04384516666667, "fusion_lon": 0.0, "is_disabled": 0, "fusion_lat": 0.0, "bike_id": "ca3cb9810abcdfe43e91c3ab4b2d9d89", "rental_uris": {"ios": "https://dc.lft.to/lastmile_qr_scan", "android": "https://dc.lft.to/lastmile_qr_scan"}}, {"name": "bb7189cbfe004f4d4e26fe84b22ba1de", "type": "electric_scooter", "lat": 38.90377316666667, "is_reserved": 0, "lon": -77.034644, "fusion_lon": 0.0, "is_disabled": 0, "fusion_lat": 0.0, "bike_id": "bb7189cbfe004f4d4e26fe84b22ba1de", "rental_uris": {"ios": "https://dc.lft.to/lastmile_qr_scan", "android": "https://dc.lft.to/lastmile_qr_scan"}}, {"name": "904dd6d20f3ba3f01298ed8d804114c4", "type": "electric_scooter", "lat": 38.920190833333336, "is_reserved": 0, "lon": -77.03149966666666, "fusion_lon": 0.0, "is_disabled": 0, "fusion_lat": 0.0, "bike_id": "904dd6d20f3ba3f01298ed8d804114c4", "rental_uris": {"ios": "https://dc.lft.to/lastmile_qr_scan", "android": "https://dc.lft.to/lastmile_qr_scan"}}, {"name": "e0bbeff58a03dce39a193da41291a3bd", "type": "electric_scooter", "lat": 38.939708833333334, "is_reserved": 0, "lon": -77.03260483333334, "fusion_lon": 0.0, "is_disabled": 0, "fusion_lat": 0.0, "bike_id": "e0bbeff58a03dce39a193da41291a3bd", "rental_uris": {"ios": "https://dc.lft.to/lastmile_qr_scan", "android": "https://dc.lft.to/lastmile_qr_scan"}}, {"name": "bbf5c2ecd8ad734843aedfbf6daf4051", "type": "electric_scooter", "lat": 38.90724616666667, "is_reserved": 0, "lon": -77.03068283333333, "fusion_lon": 0.0, "is_disabled": 0, "fusion_lat": 0.0, "bike_id": "bbf5c2ecd8ad734843aedfbf6daf4051", "rental_uris": {"ios": "https://dc.lft.to/lastmile_qr_scan", "android": "https://dc.lft.to/lastmile_qr_scan"}}, {"name": "58bd114b81d02c2531ed74f7115b47ca", "type": "electric_bike", "lat": 38.990674166666665, "is_reserved": 0, "lon": -77.1003185, "fusion_lon": 0.0, "is_disabled": 0, "fusion_lat": 0.0, "bike_id": "58bd114b81d02c2531ed74f7115b47ca", "rental_uris": {"ios": "https://dc.lft.to/lastmile_qr_scan", "android": "https://dc.lft.to/lastmile_qr_scan"}}, {"name": "514730e7a1081e4e2b8fc131ed5ef936", "type": "electric_scooter", "lat": 38.9205245, "is_reserved": 0, "lon": -76.99816883333334, "fusion_lon": 0.0, "is_disabled": 0, "fusion_lat": 0.0, "bike_id": "514730e7a1081e4e2b8fc131ed5ef936", "rental_uris": {"ios": "https://dc.lft.to/lastmile_qr_scan", "android": "https://dc.lft.to/lastmile_qr_scan"}}, {"name": "ddf8af1622e6fe191434f192af6ac773", "type": "electric_bike", "lat": 38.873065833333335, "is_reserved": 0, "lon": -77.01087066666666, "fusion_lon": 0.0, "is_disabled": 0, "fusion_lat": 0.0, "bike_id": "ddf8af1622e6fe191434f192af6ac773", "rental_uris": {"ios": "https://dc.lft.to/lastmile_qr_scan", "android": "https://dc.lft.to/lastmile_qr_scan"}}, {"name": "370ebb434d9b7300561b16576146d355", "type": "electric_scooter", "lat": 38.85324133333334, "is_reserved": 0, "lon": -76.98004583333334, "fusion_lon": 0.0, "is_disabled": 0, "fusion_lat": 0.0, "bike_id": "370ebb434d9b7300561b16576146d355", "rental_uris": {"ios": "https://dc.lft.to/lastmile_qr_scan", "android": "https://dc.lft.to/lastmile_qr_scan"}}, {"name": "fa8f3c245b1235e966e8bddad3b5b01f", "type": "electric_scooter", "lat": 38.88990833333333, "is_reserved": 0, "lon": -77.00337516666667, "fusion_lon": 0.0, "is_disabled": 0, "fusion_lat": 0.0, "bike_id": "fa8f3c245b1235e966e8bddad3b5b01f", "rental_uris": {"ios": "https://dc.lft.to/lastmile_qr_scan", "android": "https://dc.lft.to/lastmile_qr_scan"}}, {"name": "9e4be6f97c6257e3f3ae25cc98a71c55", "type": "electric_scooter", "lat": 38.939482, "is_reserved": 0, "lon": -77.0326835, "fusion_lon": 0.0, "is_disabled": 0, "fusion_lat": 0.0, "bike_id": "9e4be6f97c6257e3f3ae25cc98a71c55", "rental_uris": {"ios": "https://dc.lft.to/lastmile_qr_scan", "android": "https://dc.lft.to/lastmile_qr_scan"}}, {"name": "21eb38862408e32c89723ec6753a10fd", "type": "electric_scooter", "lat": 38.9234025, "is_reserved": 0, "lon": -77.03661916666667, "fusion_lon": 0.0, "is_disabled": 0, "fusion_lat": 0.0, "bike_id": "21eb38862408e32c89723ec6753a10fd", "rental_uris": {"ios": "https://dc.lft.to/lastmile_qr_scan", "android": "https://dc.lft.to/lastmile_qr_scan"}}, {"name": "65706067175b39fd5c224844cc243f5f", "type": "electric_scooter", "lat": 38.883389, "is_reserved": 0, "lon": -77.01742733333333, "fusion_lon": 0.0, "is_disabled": 0, "fusion_lat": 0.0, "bike_id": "65706067175b39fd5c224844cc243f5f", "rental_uris": {"ios": "https://dc.lft.to/lastmile_qr_scan", "android": "https://dc.lft.to/lastmile_qr_scan"}}, {"name": "03e7c67e3f29212f53f52ae4323abee0", "type": "electric_scooter", "lat": 38.929532333333334, "is_reserved": 0, "lon": -77.03466216666666, "fusion_lon": 0.0, "is_disabled": 0, "fusion_lat": 0.0, "bike_id": "03e7c67e3f29212f53f52ae4323abee0", "rental_uris": {"ios": "https://dc.lft.to/lastmile_qr_scan", "android": "https://dc.lft.to/lastmile_qr_scan"}}, {"name": "ce08dc812e14fe0cd0c1f0b969f6aa4b", "type": "electric_scooter", "lat": 38.94773516666667, "is_reserved": 0, "lon": -77.06542666666667, "fusion_lon": 0.0, "is_disabled": 0, "fusion_lat": 0.0, "bike_id": "ce08dc812e14fe0cd0c1f0b969f6aa4b", "rental_uris": {"ios": "https://dc.lft.to/lastmile_qr_scan", "android": "https://dc.lft.to/lastmile_qr_scan"}}, {"name": "d54d9138c6fdfd1a67f205a2d6885878", "type": "electric_scooter", "lat": 38.90212566666667, "is_reserved": 0, "lon": -77.04668133333334, "fusion_lon": 0.0, "is_disabled": 0, "fusion_lat": 0.0, "bike_id": "d54d9138c6fdfd1a67f205a2d6885878", "rental_uris": {"ios": "https://dc.lft.to/lastmile_qr_scan", "android": "https://dc.lft.to/lastmile_qr_scan"}}, {"name": "70388a9ee6651cb20620eadf060dafe6", "type": "electric_scooter", "lat": 38.92271516666667, "is_reserved": 0, "lon": -77.041376, "fusion_lon": 0.0, "is_disabled": 0, "fusion_lat": 0.0, "bike_id": "70388a9ee6651cb20620eadf060dafe6", "rental_uris": {"ios": "https://dc.lft.to/lastmile_qr_scan", "android": "https://dc.lft.to/lastmile_qr_scan"}}, {"name": "128050540723b2773d9648564ea983a9", "type": "electric_scooter", "lat": 38.94079766666667, "is_reserved": 0, "lon": -77.02700483333334, "fusion_lon": 0.0, "is_disabled": 0, "fusion_lat": 0.0, "bike_id": "128050540723b2773d9648564ea983a9", "rental_uris": {"ios": "https://dc.lft.to/lastmile_qr_scan", "android": "https://dc.lft.to/lastmile_qr_scan"}}, {"name": "91c32a789e8e2a9bf33ec5094992ac31", "type": "electric_scooter", "lat": 38.895568, "is_reserved": 0, "lon": -77.041591, "fusion_lon": 0.0, "is_disabled": 0, "fusion_lat": 0.0, "bike_id": "91c32a789e8e2a9bf33ec5094992ac31", "rental_uris": {"ios": "https://dc.lft.to/lastmile_qr_scan", "android": "https://dc.lft.to/lastmile_qr_scan"}}, {"name": "b44dd1294b47b24b50d1b4ced1757e80", "type": "electric_bike", "lat": 38.8585735, "is_reserved": 0, "lon": -77.0975845, "fusion_lon": 0.0, "is_disabled": 0, "fusion_lat": 0.0, "bike_id": "b44dd1294b47b24b50d1b4ced1757e80", "rental_uris": {"ios": "https://dc.lft.to/lastmile_qr_scan", "android": "https://dc.lft.to/lastmile_qr_scan"}}, {"name": "6dd36ffd9566ae6ab2ee68ab5def75f9", "type": "electric_bike", "lat": 38.90734616666667, "is_reserved": 0, "lon": -77.01308966666667, "fusion_lon": 0.0, "is_disabled": 0, "fusion_lat": 0.0, "bike_id": "6dd36ffd9566ae6ab2ee68ab5def75f9", "rental_uris": {"ios": "https://dc.lft.to/lastmile_qr_scan", "android": "https://dc.lft.to/lastmile_qr_scan"}}, {"name": "4a0482dd39d2ffabc8505bb6fc67bb2f", "type": "electric_scooter", "lat": 38.899531, "is_reserved": 0, "lon": -77.03175616666667, "fusion_lon": 0.0, "is_disabled": 0, "fusion_lat": 0.0, "bike_id": "4a0482dd39d2ffabc8505bb6fc67bb2f", "rental_uris": {"ios": "https://dc.lft.to/lastmile_qr_scan", "android": "https://dc.lft.to/lastmile_qr_scan"}}, {"name": "8a8e36cfcd8cd527a237bae599cdd4db", "type": "electric_scooter", "lat": 38.902927, "is_reserved": 0, "lon": -77.03839916666666, "fusion_lon": 0.0, "is_disabled": 0, "fusion_lat": 0.0, "bike_id": "8a8e36cfcd8cd527a237bae599cdd4db", "rental_uris": {"ios": "https://dc.lft.to/lastmile_qr_scan", "android": "https://dc.lft.to/lastmile_qr_scan"}}, {"name": "40aa1d9c79381fb317843110e75edaa7", "type": "electric_bike", "lat": 38.96625366666667, "is_reserved": 0, "lon": -76.97670433333333, "fusion_lon": 0.0, "is_disabled": 0, "fusion_lat": 0.0, "bike_id": "40aa1d9c79381fb317843110e75edaa7", "rental_uris": {"ios": "https://dc.lft.to/lastmile_qr_scan", "android": "https://dc.lft.to/lastmile_qr_scan"}}, {"name": "35897cbc2c984d467db8266d20f56d1e", "type": "electric_scooter", "lat": 38.92056633333333, "is_reserved": 0, "lon": -77.0334515, "fusion_lon": 0.0, "is_disabled": 0, "fusion_lat": 0.0, "bike_id": "35897cbc2c984d467db8266d20f56d1e", "rental_uris": {"ios": "https://dc.lft.to/lastmile_qr_scan", "android": "https://dc.lft.to/lastmile_qr_scan"}}, {"name": "316e0bd5299701ee9db52f147a2af283", "type": "electric_scooter", "lat": 38.86703383333333, "is_reserved": 0, "lon": -76.98715366666667, "fusion_lon": 0.0, "is_disabled": 0, "fusion_lat": 0.0, "bike_id": "316e0bd5299701ee9db52f147a2af283", "rental_uris": {"ios": "https://dc.lft.to/lastmile_qr_scan", "android": "https://dc.lft.to/lastmile_qr_scan"}}, {"name": "7715f9bc01639d5f6d2bcb5b0f29827f", "type": "electric_scooter", "lat": 38.9285255, "is_reserved": 0, "lon": -77.03276916666667, "fusion_lon": 0.0, "is_disabled": 0, "fusion_lat": 0.0, "bike_id": "7715f9bc01639d5f6d2bcb5b0f29827f", "rental_uris": {"ios": "https://dc.lft.to/lastmile_qr_scan", "android": "https://dc.lft.to/lastmile_qr_scan"}}, {"name": "b462438d81fec07571df282de591df59", "type": "electric_scooter", "lat": 38.917222, "is_reserved": 0, "lon": -77.03666033333333, "fusion_lon": 0.0, "is_disabled": 0, "fusion_lat": 0.0, "bike_id": "b462438d81fec07571df282de591df59", "rental_uris": {"ios": "https://dc.lft.to/lastmile_qr_scan", "android": "https://dc.lft.to/lastmile_qr_scan"}}, {"name": "9883fa8e98c1f5e9ffbd8f9dd94d541e", "type": "electric_scooter", "lat": 38.9206985, "is_reserved": 0, "lon": -77.03460783333334, "fusion_lon": 0.0, "is_disabled": 0, "fusion_lat": 0.0, "bike_id": "9883fa8e98c1f5e9ffbd8f9dd94d541e", "rental_uris": {"ios": "https://dc.lft.to/lastmile_qr_scan", "android": "https://dc.lft.to/lastmile_qr_scan"}}, {"name": "ab201c66366ec067bebddb4de30d5b10", "type": "electric_bike", "lat": 38.999429, "is_reserved": 0, "lon": -77.0176985, "fusion_lon": 0.0, "is_disabled": 0, "fusion_lat": 0.0, "bike_id": "ab201c66366ec067bebddb4de30d5b10", "rental_uris": {"ios": "https://dc.lft.to/lastmile_qr_scan", "android": "https://dc.lft.to/lastmile_qr_scan"}}, {"name": "2bff9494b1f1f98c24075bc73851446a", "type": "electric_scooter", "lat": 38.93983583333333, "is_reserved": 0, "lon": -77.02897533333334, "fusion_lon": 0.0, "is_disabled": 0, "fusion_lat": 0.0, "bike_id": "2bff9494b1f1f98c24075bc73851446a", "rental_uris": {"ios": "https://dc.lft.to/lastmile_qr_scan", "android": "https://dc.lft.to/lastmile_qr_scan"}}, {"name": "514fbc47c6799c13a58b9e3054000df7", "type": "electric_scooter", "lat": 38.89221283333333, "is_reserved": 0, "lon": -77.02144633333333, "fusion_lon": 0.0, "is_disabled": 0, "fusion_lat": 0.0, "bike_id": "514fbc47c6799c13a58b9e3054000df7", "rental_uris": {"ios": "https://dc.lft.to/lastmile_qr_scan", "android": "https://dc.lft.to/lastmile_qr_scan"}}, {"name": "aaf827e412faad369ea2df1599ac1965", "type": "electric_scooter", "lat": 38.89728383333333, "is_reserved": 0, "lon": -77.02701166666667, "fusion_lon": 0.0, "is_disabled": 0, "fusion_lat": 0.0, "bike_id": "aaf827e412faad369ea2df1599ac1965", "rental_uris": {"ios": "https://dc.lft.to/lastmile_qr_scan", "android": "https://dc.lft.to/lastmile_qr_scan"}}, {"name": "0f2e94ecedfc34eedb1464b6ffa113ab", "type": "electric_scooter", "lat": 38.90363166666667, "is_reserved": 0, "lon": -77.00736916666666, "fusion_lon": 0.0, "is_disabled": 0, "fusion_lat": 0.0, "bike_id": "0f2e94ecedfc34eedb1464b6ffa113ab", "rental_uris": {"ios": "https://dc.lft.to/lastmile_qr_scan", "android": "https://dc.lft.to/lastmile_qr_scan"}}, {"name": "50160d780463ebe3afe1c71778e9cd2b", "type": "electric_scooter", "lat": 38.879737, "is_reserved": 0, "lon": -76.985492, "fusion_lon": 0.0, "is_disabled": 0, "fusion_lat": 0.0, "bike_id": "50160d780463ebe3afe1c71778e9cd2b", "rental_uris": {"ios": "https://dc.lft.to/lastmile_qr_scan", "android": "https://dc.lft.to/lastmile_qr_scan"}}, {"name": "df01d69d5b02edbdd8c8cc5d2b032749", "type": "electric_scooter", "lat": 38.9285265, "is_reserved": 0, "lon": -77.05417833333334, "fusion_lon": 0.0, "is_disabled": 0, "fusion_lat": 0.0, "bike_id": "df01d69d5b02edbdd8c8cc5d2b032749", "rental_uris": {"ios": "https://dc.lft.to/lastmile_qr_scan", "android": "https://dc.lft.to/lastmile_qr_scan"}}, {"name": "0a8ede96627b647cca39295ef9533d54", "type": "electric_scooter", "lat": 38.89134516666667, "is_reserved": 0, "lon": -77.003504, "fusion_lon": 0.0, "is_disabled": 0, "fusion_lat": 0.0, "bike_id": "0a8ede96627b647cca39295ef9533d54", "rental_uris": {"ios": "https://dc.lft.to/lastmile_qr_scan", "android": "https://dc.lft.to/lastmile_qr_scan"}}, {"name": "6d8b1f8d8454991b16511837f2a3d5f1", "type": "electric_scooter", "lat": 38.896063833333336, "is_reserved": 0, "lon": -77.025819, "fusion_lon": 0.0, "is_disabled": 0, "fusion_lat": 0.0, "bike_id": "6d8b1f8d8454991b16511837f2a3d5f1", "rental_uris": {"ios": "https://dc.lft.to/lastmile_qr_scan", "android": "https://dc.lft.to/lastmile_qr_scan"}}, {"name": "8c19f454b268b8ea27c9c11052d5563c", "type": "electric_scooter", "lat": 38.9083055, "is_reserved": 0, "lon": -76.996939, "fusion_lon": 0.0, "is_disabled": 0, "fusion_lat": 0.0, "bike_id": "8c19f454b268b8ea27c9c11052d5563c", "rental_uris": {"ios": "https://dc.lft.to/lastmile_qr_scan", "android": "https://dc.lft.to/lastmile_qr_scan"}}, {"name": "46d548ec07d781b07437a1c6bf7387e8", "type": "electric_scooter", "lat": 38.89199933333333, "is_reserved": 0, "lon": -77.01551533333334, "fusion_lon": 0.0, "is_disabled": 0, "fusion_lat": 0.0, "bike_id": "46d548ec07d781b07437a1c6bf7387e8", "rental_uris": {"ios": "https://dc.lft.to/lastmile_qr_scan", "android": "https://dc.lft.to/lastmile_qr_scan"}}, {"name": "af20ce0f894c3e9602d6e55d2767588c", "type": "electric_scooter", "lat": 38.9052115, "is_reserved": 0, "lon": -77.05126683333333, "fusion_lon": 0.0, "is_disabled": 0, "fusion_lat": 0.0, "bike_id": "af20ce0f894c3e9602d6e55d2767588c", "rental_uris": {"ios": "https://dc.lft.to/lastmile_qr_scan", "android": "https://dc.lft.to/lastmile_qr_scan"}}, {"name": "384efb76e546554c55b4b3f61b440bb6", "type": "electric_scooter", "lat": 38.9028665, "is_reserved": 0, "lon": -77.018109, "fusion_lon": 0.0, "is_disabled": 0, "fusion_lat": 0.0, "bike_id": "384efb76e546554c55b4b3f61b440bb6", "rental_uris": {"ios": "https://dc.lft.to/lastmile_qr_scan", "android": "https://dc.lft.to/lastmile_qr_scan"}}, {"name": "b3f982954f50d8a44e558c8b09380ead", "type": "electric_bike", "lat": 38.878029166666664, "is_reserved": 0, "lon": -77.00836233333334, "fusion_lon": 0.0, "is_disabled": 0, "fusion_lat": 0.0, "bike_id": "b3f982954f50d8a44e558c8b09380ead", "rental_uris": {"ios": "https://dc.lft.to/lastmile_qr_scan", "android": "https://dc.lft.to/lastmile_qr_scan"}}, {"name": "f36ce6feffe5801402bc991a2943c98d", "type": "electric_scooter", "lat": 38.902708833333335, "is_reserved": 0, "lon": -77.03324283333333, "fusion_lon": 0.0, "is_disabled": 0, "fusion_lat": 0.0, "bike_id": "f36ce6feffe5801402bc991a2943c98d", "rental_uris": {"ios": "https://dc.lft.to/lastmile_qr_scan", "android": "https://dc.lft.to/lastmile_qr_scan"}}, {"name": "4eff43cc3f85e540f6ae7b11963c37e1", "type": "electric_bike", "lat": 39.03051466666667, "is_reserved": 0, "lon": -77.0948685, "fusion_lon": 0.0, "is_disabled": 0, "fusion_lat": 0.0, "bike_id": "4eff43cc3f85e540f6ae7b11963c37e1", "rental_uris": {"ios": "https://dc.lft.to/lastmile_qr_scan", "android": "https://dc.lft.to/lastmile_qr_scan"}}, {"name": "bb59da4a94d826714e87b9187df3524c", "type": "electric_scooter", "lat": 38.90378183333333, "is_reserved": 0, "lon": -77.041625, "fusion_lon": 0.0, "is_disabled": 0, "fusion_lat": 0.0, "bike_id": "bb59da4a94d826714e87b9187df3524c", "rental_uris": {"ios": "https://dc.lft.to/lastmile_qr_scan", "android": "https://dc.lft.to/lastmile_qr_scan"}}, {"name": "f12520d24967fcef1d2fcb39959b9edc", "type": "electric_scooter", "lat": 38.88001883333333, "is_reserved": 0, "lon": -76.98544066666666, "fusion_lon": 0.0, "is_disabled": 0, "fusion_lat": 0.0, "bike_id": "f12520d24967fcef1d2fcb39959b9edc", "rental_uris": {"ios": "https://dc.lft.to/lastmile_qr_scan", "android": "https://dc.lft.to/lastmile_qr_scan"}}, {"name": "826732f1b0b77ed615003133de1ee05e", "type": "electric_bike", "lat": 38.8522455, "is_reserved": 0, "lon": -77.12958283333333, "fusion_lon": 0.0, "is_disabled": 0, "fusion_lat": 0.0, "bike_id": "826732f1b0b77ed615003133de1ee05e", "rental_uris": {"ios": "https://dc.lft.to/lastmile_qr_scan", "android": "https://dc.lft.to/lastmile_qr_scan"}}, {"name": "2120590d3c300207a6558bf8e71afc65", "type": "electric_scooter", "lat": 38.8859545, "is_reserved": 0, "lon": -76.95262233333334, "fusion_lon": 0.0, "is_disabled": 0, "fusion_lat": 0.0, "bike_id": "2120590d3c300207a6558bf8e71afc65", "rental_uris": {"ios": "https://dc.lft.to/lastmile_qr_scan", "android": "https://dc.lft.to/lastmile_qr_scan"}}, {"name": "a2c29851232e52aede7d625b1ec1046d", "type": "electric_scooter", "lat": 38.92337333333333, "is_reserved": 0, "lon": -77.03658533333333, "fusion_lon": 0.0, "is_disabled": 0, "fusion_lat": 0.0, "bike_id": "a2c29851232e52aede7d625b1ec1046d", "rental_uris": {"ios": "https://dc.lft.to/lastmile_qr_scan", "android": "https://dc.lft.to/lastmile_qr_scan"}}, {"name": "e57a7153d8bab6d382388673316aa925", "type": "electric_scooter", "lat": 38.90255616666666, "is_reserved": 0, "lon": -77.04350266666667, "fusion_lon": 0.0, "is_disabled": 0, "fusion_lat": 0.0, "bike_id": "e57a7153d8bab6d382388673316aa925", "rental_uris": {"ios": "https://dc.lft.to/lastmile_qr_scan", "android": "https://dc.lft.to/lastmile_qr_scan"}}, {"name": "835f2e029ae191e904c6826eea7d9464", "type": "electric_bike", "lat": 38.832412, "is_reserved": 0, "lon": -77.00723916666666, "fusion_lon": 0.0, "is_disabled": 0, "fusion_lat": 0.0, "bike_id": "835f2e029ae191e904c6826eea7d9464", "rental_uris": {"ios": "https://dc.lft.to/lastmile_qr_scan", "android": "https://dc.lft.to/lastmile_qr_scan"}}, {"name": "471a8f1fd11f5e0e7488ceacf66c41aa", "type": "electric_bike", "lat": 38.984660166666664, "is_reserved": 0, "lon": -76.9552885, "fusion_lon": 0.0, "is_disabled": 0, "fusion_lat": 0.0, "bike_id": "471a8f1fd11f5e0e7488ceacf66c41aa", "rental_uris": {"ios": "https://dc.lft.to/lastmile_qr_scan", "android": "https://dc.lft.to/lastmile_qr_scan"}}, {"name": "450dd4f779eb1d89b645cb84e99631ce", "type": "electric_scooter", "lat": 38.88718133333333, "is_reserved": 0, "lon": -77.025816, "fusion_lon": 0.0, "is_disabled": 0, "fusion_lat": 0.0, "bike_id": "450dd4f779eb1d89b645cb84e99631ce", "rental_uris": {"ios": "https://dc.lft.to/lastmile_qr_scan", "android": "https://dc.lft.to/lastmile_qr_scan"}}, {"name": "49354f7d8e49fbde6df60e2cdaeafd05", "type": "electric_scooter", "lat": 38.92239633333333, "is_reserved": 0, "lon": -77.03521716666667, "fusion_lon": 0.0, "is_disabled": 0, "fusion_lat": 0.0, "bike_id": "49354f7d8e49fbde6df60e2cdaeafd05", "rental_uris": {"ios": "https://dc.lft.to/lastmile_qr_scan", "android": "https://dc.lft.to/lastmile_qr_scan"}}, {"name": "aca5b6128b8fbe77c21ed8ec5ba57c02", "type": "electric_scooter", "lat": 38.92758333333333, "is_reserved": 0, "lon": -77.05379866666667, "fusion_lon": 0.0, "is_disabled": 0, "fusion_lat": 0.0, "bike_id": "aca5b6128b8fbe77c21ed8ec5ba57c02", "rental_uris": {"ios": "https://dc.lft.to/lastmile_qr_scan", "android": "https://dc.lft.to/lastmile_qr_scan"}}, {"name": "712855a52fa01e170edb197d6f99a7a7", "type": "electric_scooter", "lat": 38.90055866666667, "is_reserved": 0, "lon": -77.00753666666667, "fusion_lon": 0.0, "is_disabled": 0, "fusion_lat": 0.0, "bike_id": "712855a52fa01e170edb197d6f99a7a7", "rental_uris": {"ios": "https://dc.lft.to/lastmile_qr_scan", "android": "https://dc.lft.to/lastmile_qr_scan"}}, {"name": "d58779c7d1be69e6940daaecd4c300c5", "type": "electric_scooter", "lat": 38.939487666666665, "is_reserved": 0, "lon": -77.03263516666667, "fusion_lon": 0.0, "is_disabled": 0, "fusion_lat": 0.0, "bike_id": "d58779c7d1be69e6940daaecd4c300c5", "rental_uris": {"ios": "https://dc.lft.to/lastmile_qr_scan", "android": "https://dc.lft.to/lastmile_qr_scan"}}, {"name": "4eba77edb5266f0e3b6871ca20253b1f", "type": "electric_scooter", "lat": 38.883135, "is_reserved": 0, "lon": -77.01762233333334, "fusion_lon": 0.0, "is_disabled": 0, "fusion_lat": 0.0, "bike_id": "4eba77edb5266f0e3b6871ca20253b1f", "rental_uris": {"ios": "https://dc.lft.to/lastmile_qr_scan", "android": "https://dc.lft.to/lastmile_qr_scan"}}, {"name": "7ceafe87275283f044c256debdf4ff14", "type": "electric_scooter", "lat": 38.924916333333336, "is_reserved": 0, "lon": -77.02714383333333, "fusion_lon": 0.0, "is_disabled": 0, "fusion_lat": 0.0, "bike_id": "7ceafe87275283f044c256debdf4ff14", "rental_uris": {"ios": "https://dc.lft.to/lastmile_qr_scan", "android": "https://dc.lft.to/lastmile_qr_scan"}}, {"name": "21e0e73dcce0c4f4357976553bf18b93", "type": "electric_scooter", "lat": 38.89623866666667, "is_reserved": 0, "lon": -77.02974033333334, "fusion_lon": 0.0, "is_disabled": 0, "fusion_lat": 0.0, "bike_id": "21e0e73dcce0c4f4357976553bf18b93", "rental_uris": {"ios": "https://dc.lft.to/lastmile_qr_scan", "android": "https://dc.lft.to/lastmile_qr_scan"}}, {"name": "631bc7e7c79a51aaf1a159ea825a3f9b", "type": "electric_scooter", "lat": 38.90594433333333, "is_reserved": 0, "lon": -77.06288083333334, "fusion_lon": 0.0, "is_disabled": 0, "fusion_lat": 0.0, "bike_id": "631bc7e7c79a51aaf1a159ea825a3f9b", "rental_uris": {"ios": "https://dc.lft.to/lastmile_qr_scan", "android": "https://dc.lft.to/lastmile_qr_scan"}}, {"name": "30ea377e8d1d7ffa41661f2d1444aea8", "type": "electric_scooter", "lat": 38.89731866666666, "is_reserved": 0, "lon": -77.0270225, "fusion_lon": 0.0, "is_disabled": 0, "fusion_lat": 0.0, "bike_id": "30ea377e8d1d7ffa41661f2d1444aea8", "rental_uris": {"ios": "https://dc.lft.to/lastmile_qr_scan", "android": "https://dc.lft.to/lastmile_qr_scan"}}, {"name": "0dbe97bd8c1062664abcd6761d853953", "type": "electric_bike", "lat": 38.86598766666667, "is_reserved": 0, "lon": -76.93228233333333, "fusion_lon": 0.0, "is_disabled": 0, "fusion_lat": 0.0, "bike_id": "0dbe97bd8c1062664abcd6761d853953", "rental_uris": {"ios": "https://dc.lft.to/lastmile_qr_scan", "android": "https://dc.lft.to/lastmile_qr_scan"}}, {"name": "803bec512ecd51b69dac71245a728339", "type": "electric_scooter", "lat": 38.909637833333335, "is_reserved": 0, "lon": -77.03866083333334, "fusion_lon": 0.0, "is_disabled": 0, "fusion_lat": 0.0, "bike_id": "803bec512ecd51b69dac71245a728339", "rental_uris": {"ios": "https://dc.lft.to/lastmile_qr_scan", "android": "https://dc.lft.to/lastmile_qr_scan"}}, {"name": "dc8bdbfccb0bb407f595e14ac9b42dea", "type": "electric_bike", "lat": 38.806929833333335, "is_reserved": 0, "lon": -77.05975483333333, "fusion_lon": 0.0, "is_disabled": 0, "fusion_lat": 0.0, "bike_id": "dc8bdbfccb0bb407f595e14ac9b42dea", "rental_uris": {"ios": "https://dc.lft.to/lastmile_qr_scan", "android": "https://dc.lft.to/lastmile_qr_scan"}}, {"name": "00602fa42fff57a5751f9914a292e177", "type": "electric_scooter", "lat": 38.90285633333333, "is_reserved": 0, "lon": -77.04061933333334, "fusion_lon": 0.0, "is_disabled": 0, "fusion_lat": 0.0, "bike_id": "00602fa42fff57a5751f9914a292e177", "rental_uris": {"ios": "https://dc.lft.to/lastmile_qr_scan", "android": "https://dc.lft.to/lastmile_qr_scan"}}, {"name": "9a402c43464652a6f91d4cd92a6cca99", "type": "electric_scooter", "lat": 38.93950683333333, "is_reserved": 0, "lon": -77.03263233333334, "fusion_lon": 0.0, "is_disabled": 0, "fusion_lat": 0.0, "bike_id": "9a402c43464652a6f91d4cd92a6cca99", "rental_uris": {"ios": "https://dc.lft.to/lastmile_qr_scan", "android": "https://dc.lft.to/lastmile_qr_scan"}}, {"name": "4cd772b37be46fb4adddb3a0d7acb4d5", "type": "electric_scooter", "lat": 38.8429585, "is_reserved": 0, "lon": -76.999497, "fusion_lon": 0.0, "is_disabled": 0, "fusion_lat": 0.0, "bike_id": "4cd772b37be46fb4adddb3a0d7acb4d5", "rental_uris": {"ios": "https://dc.lft.to/lastmile_qr_scan", "android": "https://dc.lft.to/lastmile_qr_scan"}}, {"name": "e8ab41ec401d50f649bf7b2ad0ae0b8d", "type": "electric_scooter", "lat": 38.887177, "is_reserved": 0, "lon": -77.01778733333333, "fusion_lon": 0.0, "is_disabled": 0, "fusion_lat": 0.0, "bike_id": "e8ab41ec401d50f649bf7b2ad0ae0b8d", "rental_uris": {"ios": "https://dc.lft.to/lastmile_qr_scan", "android": "https://dc.lft.to/lastmile_qr_scan"}}, {"name": "bffd29f9c5906407b844dcaee6cebf86", "type": "electric_scooter", "lat": 38.927549, "is_reserved": 0, "lon": -77.05383533333334, "fusion_lon": 0.0, "is_disabled": 0, "fusion_lat": 0.0, "bike_id": "bffd29f9c5906407b844dcaee6cebf86", "rental_uris": {"ios": "https://dc.lft.to/lastmile_qr_scan", "android": "https://dc.lft.to/lastmile_qr_scan"}}, {"name": "5ef41b38180426c3fe7ed7a9d4b1f556", "type": "electric_scooter", "lat": 38.9351565, "is_reserved": 0, "lon": -77.03299833333334, "fusion_lon": 0.0, "is_disabled": 0, "fusion_lat": 0.0, "bike_id": "5ef41b38180426c3fe7ed7a9d4b1f556", "rental_uris": {"ios": "https://dc.lft.to/lastmile_qr_scan", "android": "https://dc.lft.to/lastmile_qr_scan"}}, {"name": "53756c04f4472c91f1e0a7427bbf85b7", "type": "electric_scooter", "lat": 38.90290783333333, "is_reserved": 0, "lon": -77.03854916666667, "fusion_lon": 0.0, "is_disabled": 0, "fusion_lat": 0.0, "bike_id": "53756c04f4472c91f1e0a7427bbf85b7", "rental_uris": {"ios": "https://dc.lft.to/lastmile_qr_scan", "android": "https://dc.lft.to/lastmile_qr_scan"}}, {"name": "9511763c39afd9e12533082a9711e702", "type": "electric_scooter", "lat": 38.924200666666664, "is_reserved": 0, "lon": -77.0195425, "fusion_lon": 0.0, "is_disabled": 0, "fusion_lat": 0.0, "bike_id": "9511763c39afd9e12533082a9711e702", "rental_uris": {"ios": "https://dc.lft.to/lastmile_qr_scan", "android": "https://dc.lft.to/lastmile_qr_scan"}}, {"name": "fc0b7537b5bb1b57a5ad19b570f5f3fa", "type": "electric_scooter", "lat": 38.912777166666665, "is_reserved": 0, "lon": -77.02969483333334, "fusion_lon": 0.0, "is_disabled": 0, "fusion_lat": 0.0, "bike_id": "fc0b7537b5bb1b57a5ad19b570f5f3fa", "rental_uris": {"ios": "https://dc.lft.to/lastmile_qr_scan", "android": "https://dc.lft.to/lastmile_qr_scan"}}, {"name": "8f575714707a11be4896612d5a010349", "type": "electric_scooter", "lat": 38.975187166666664, "is_reserved": 0, "lon": -77.01744666666667, "fusion_lon": 0.0, "is_disabled": 0, "fusion_lat": 0.0, "bike_id": "8f575714707a11be4896612d5a010349", "rental_uris": {"ios": "https://dc.lft.to/lastmile_qr_scan", "android": "https://dc.lft.to/lastmile_qr_scan"}}, {"name": "e86ab6225ea666161aaa413ec427b310", "type": "electric_bike", "lat": 38.85247, "is_reserved": 0, "lon": -77.11431166666667, "fusion_lon": 0.0, "is_disabled": 0, "fusion_lat": 0.0, "bike_id": "e86ab6225ea666161aaa413ec427b310", "rental_uris": {"ios": "https://dc.lft.to/lastmile_qr_scan", "android": "https://dc.lft.to/lastmile_qr_scan"}}, {"name": "60a74270bb34f603d580f4af6c273e1f", "type": "electric_scooter", "lat": 38.901239333333336, "is_reserved": 0, "lon": -77.049954, "fusion_lon": 0.0, "is_disabled": 0, "fusion_lat": 0.0, "bike_id": "60a74270bb34f603d580f4af6c273e1f", "rental_uris": {"ios": "https://dc.lft.to/lastmile_qr_scan", "android": "https://dc.lft.to/lastmile_qr_scan"}}, {"name": "ae27bdd92498d27a53356a909f8ed392", "type": "electric_scooter", "lat": 38.90471766666667, "is_reserved": 0, "lon": -77.041883, "fusion_lon": 0.0, "is_disabled": 0, "fusion_lat": 0.0, "bike_id": "ae27bdd92498d27a53356a909f8ed392", "rental_uris": {"ios": "https://dc.lft.to/lastmile_qr_scan", "android": "https://dc.lft.to/lastmile_qr_scan"}}, {"name": "3e3b7ca4a4bb245453798f363c5f1182", "type": "electric_scooter", "lat": 38.8995905, "is_reserved": 0, "lon": -77.02985383333333, "fusion_lon": 0.0, "is_disabled": 0, "fusion_lat": 0.0, "bike_id": "3e3b7ca4a4bb245453798f363c5f1182", "rental_uris": {"ios": "https://dc.lft.to/lastmile_qr_scan", "android": "https://dc.lft.to/lastmile_qr_scan"}}, {"name": "e15876cd4d4c4a5cf62434d2b20c5cfd", "type": "electric_scooter", "lat": 38.9052525, "is_reserved": 0, "lon": -77.06382033333334, "fusion_lon": 0.0, "is_disabled": 0, "fusion_lat": 0.0, "bike_id": "e15876cd4d4c4a5cf62434d2b20c5cfd", "rental_uris": {"ios": "https://dc.lft.to/lastmile_qr_scan", "android": "https://dc.lft.to/lastmile_qr_scan"}}, {"name": "3b37860e9c86093554e0253d708458a8", "type": "electric_scooter", "lat": 38.9073465, "is_reserved": 0, "lon": -77.03445916666666, "fusion_lon": 0.0, "is_disabled": 0, "fusion_lat": 0.0, "bike_id": "3b37860e9c86093554e0253d708458a8", "rental_uris": {"ios": "https://dc.lft.to/lastmile_qr_scan", "android": "https://dc.lft.to/lastmile_qr_scan"}}, {"name": "33aaa49f10d9eefac0ae1bb8bd2b6131", "type": "electric_scooter", "lat": 38.90452116666667, "is_reserved": 0, "lon": -77.04899733333333, "fusion_lon": 0.0, "is_disabled": 0, "fusion_lat": 0.0, "bike_id": "33aaa49f10d9eefac0ae1bb8bd2b6131", "rental_uris": {"ios": "https://dc.lft.to/lastmile_qr_scan", "android": "https://dc.lft.to/lastmile_qr_scan"}}, {"name": "780d87fdb925e941f3579c1ef297d5dd", "type": "electric_scooter", "lat": 38.922532833333335, "is_reserved": 0, "lon": -77.0352185, "fusion_lon": 0.0, "is_disabled": 0, "fusion_lat": 0.0, "bike_id": "780d87fdb925e941f3579c1ef297d5dd", "rental_uris": {"ios": "https://dc.lft.to/lastmile_qr_scan", "android": "https://dc.lft.to/lastmile_qr_scan"}}, {"name": "d81b1f4887f5d286f3979d733bcdb9e2", "type": "electric_scooter", "lat": 38.92596433333333, "is_reserved": 0, "lon": -77.004873, "fusion_lon": 0.0, "is_disabled": 0, "fusion_lat": 0.0, "bike_id": "d81b1f4887f5d286f3979d733bcdb9e2", "rental_uris": {"ios": "https://dc.lft.to/lastmile_qr_scan", "android": "https://dc.lft.to/lastmile_qr_scan"}}, {"name": "bff13bc0510fa1f3fd297bed502044a2", "type": "electric_scooter", "lat": 38.9287165, "is_reserved": 0, "lon": -77.04127866666667, "fusion_lon": 0.0, "is_disabled": 0, "fusion_lat": 0.0, "bike_id": "bff13bc0510fa1f3fd297bed502044a2", "rental_uris": {"ios": "https://dc.lft.to/lastmile_qr_scan", "android": "https://dc.lft.to/lastmile_qr_scan"}}, {"name": "765329489adb2d76aedf7d47d900c54b", "type": "electric_scooter", "lat": 38.91341216666667, "is_reserved": 0, "lon": -77.002244, "fusion_lon": 0.0, "is_disabled": 0, "fusion_lat": 0.0, "bike_id": "765329489adb2d76aedf7d47d900c54b", "rental_uris": {"ios": "https://dc.lft.to/lastmile_qr_scan", "android": "https://dc.lft.to/lastmile_qr_scan"}}, {"name": "2a533bf245d1c1e3016d5bad6e167e70", "type": "electric_scooter", "lat": 38.884362, "is_reserved": 0, "lon": -76.95758333333333, "fusion_lon": 0.0, "is_disabled": 0, "fusion_lat": 0.0, "bike_id": "2a533bf245d1c1e3016d5bad6e167e70", "rental_uris": {"ios": "https://dc.lft.to/lastmile_qr_scan", "android": "https://dc.lft.to/lastmile_qr_scan"}}, {"name": "30b7b4d92d38443a49187f7e69a71e12", "type": "electric_bike", "lat": 38.95482066666667, "is_reserved": 0, "lon": -77.082435, "fusion_lon": 0.0, "is_disabled": 0, "fusion_lat": 0.0, "bike_id": "30b7b4d92d38443a49187f7e69a71e12", "rental_uris": {"ios": "https://dc.lft.to/lastmile_qr_scan", "android": "https://dc.lft.to/lastmile_qr_scan"}}, {"name": "abf062711da0cfdfa79b90c6f50c443a", "type": "electric_scooter", "lat": 38.916784, "is_reserved": 0, "lon": -77.027169, "fusion_lon": 0.0, "is_disabled": 0, "fusion_lat": 0.0, "bike_id": "abf062711da0cfdfa79b90c6f50c443a", "rental_uris": {"ios": "https://dc.lft.to/lastmile_qr_scan", "android": "https://dc.lft.to/lastmile_qr_scan"}}, {"name": "3ccf38dd61f344eb080963f1849ea7a5", "type": "electric_scooter", "lat": 38.92067933333333, "is_reserved": 0, "lon": -77.04255166666667, "fusion_lon": 0.0, "is_disabled": 0, "fusion_lat": 0.0, "bike_id": "3ccf38dd61f344eb080963f1849ea7a5", "rental_uris": {"ios": "https://dc.lft.to/lastmile_qr_scan", "android": "https://dc.lft.to/lastmile_qr_scan"}}, {"name": "dfcc70f595b026b62a4d8d67e761d6f7", "type": "electric_scooter", "lat": 38.924213, "is_reserved": 0, "lon": -77.0195015, "fusion_lon": 0.0, "is_disabled": 0, "fusion_lat": 0.0, "bike_id": "dfcc70f595b026b62a4d8d67e761d6f7", "rental_uris": {"ios": "https://dc.lft.to/lastmile_qr_scan", "android": "https://dc.lft.to/lastmile_qr_scan"}}, {"name": "87682ca17e2c209d49530ba73e766ec9", "type": "electric_scooter", "lat": 38.863597166666665, "is_reserved": 0, "lon": -76.99069116666666, "fusion_lon": 0.0, "is_disabled": 0, "fusion_lat": 0.0, "bike_id": "87682ca17e2c209d49530ba73e766ec9", "rental_uris": {"ios": "https://dc.lft.to/lastmile_qr_scan", "android": "https://dc.lft.to/lastmile_qr_scan"}}, {"name": "191aaf07599cf69efe0f09bb0688a070", "type": "electric_scooter", "lat": 38.8983445, "is_reserved": 0, "lon": -76.94637533333334, "fusion_lon": 0.0, "is_disabled": 0, "fusion_lat": 0.0, "bike_id": "191aaf07599cf69efe0f09bb0688a070", "rental_uris": {"ios": "https://dc.lft.to/lastmile_qr_scan", "android": "https://dc.lft.to/lastmile_qr_scan"}}, {"name": "306d60a189ff600b7a3210b01d753ee7", "type": "electric_scooter", "lat": 38.909650166666665, "is_reserved": 0, "lon": -77.03871633333333, "fusion_lon": 0.0, "is_disabled": 0, "fusion_lat": 0.0, "bike_id": "306d60a189ff600b7a3210b01d753ee7", "rental_uris": {"ios": "https://dc.lft.to/lastmile_qr_scan", "android": "https://dc.lft.to/lastmile_qr_scan"}}, {"name": "e9dc0b01756aa8f6bd8b427df8bb158e", "type": "electric_scooter", "lat": 38.920370166666665, "is_reserved": 0, "lon": -77.041842, "fusion_lon": 0.0, "is_disabled": 0, "fusion_lat": 0.0, "bike_id": "e9dc0b01756aa8f6bd8b427df8bb158e", "rental_uris": {"ios": "https://dc.lft.to/lastmile_qr_scan", "android": "https://dc.lft.to/lastmile_qr_scan"}}, {"name": "83d4177ee28e3478a8f38244fd49fc3c", "type": "electric_scooter", "lat": 38.89494466666667, "is_reserved": 0, "lon": -77.011077, "fusion_lon": 0.0, "is_disabled": 0, "fusion_lat": 0.0, "bike_id": "83d4177ee28e3478a8f38244fd49fc3c", "rental_uris": {"ios": "https://dc.lft.to/lastmile_qr_scan", "android": "https://dc.lft.to/lastmile_qr_scan"}}, {"name": "9869622fefa13d9d799fb2daed00b525", "type": "electric_scooter", "lat": 38.900122333333336, "is_reserved": 0, "lon": -77.03233116666667, "fusion_lon": 0.0, "is_disabled": 0, "fusion_lat": 0.0, "bike_id": "9869622fefa13d9d799fb2daed00b525", "rental_uris": {"ios": "https://dc.lft.to/lastmile_qr_scan", "android": "https://dc.lft.to/lastmile_qr_scan"}}, {"name": "0c9318d3c28a3662aa725b2e09d89d32", "type": "electric_scooter", "lat": 38.89834366666667, "is_reserved": 0, "lon": -76.946363, "fusion_lon": 0.0, "is_disabled": 0, "fusion_lat": 0.0, "bike_id": "0c9318d3c28a3662aa725b2e09d89d32", "rental_uris": {"ios": "https://dc.lft.to/lastmile_qr_scan", "android": "https://dc.lft.to/lastmile_qr_scan"}}, {"name": "999fab5da540406734ff14ec84e0fe23", "type": "electric_scooter", "lat": 38.91998783333333, "is_reserved": 0, "lon": -76.95811683333334, "fusion_lon": 0.0, "is_disabled": 0, "fusion_lat": 0.0, "bike_id": "999fab5da540406734ff14ec84e0fe23", "rental_uris": {"ios": "https://dc.lft.to/lastmile_qr_scan", "android": "https://dc.lft.to/lastmile_qr_scan"}}, {"name": "abd8712b52120f2196e90c5834c8de6b", "type": "electric_scooter", "lat": 38.9623315, "is_reserved": 0, "lon": -77.02979233333333, "fusion_lon": 0.0, "is_disabled": 0, "fusion_lat": 0.0, "bike_id": "abd8712b52120f2196e90c5834c8de6b", "rental_uris": {"ios": "https://dc.lft.to/lastmile_qr_scan", "android": "https://dc.lft.to/lastmile_qr_scan"}}, {"name": "594da5db5ed8e524e3f5d037360b3edc", "type": "electric_scooter", "lat": 38.8901835, "is_reserved": 0, "lon": -76.93735433333333, "fusion_lon": 0.0, "is_disabled": 0, "fusion_lat": 0.0, "bike_id": "594da5db5ed8e524e3f5d037360b3edc", "rental_uris": {"ios": "https://dc.lft.to/lastmile_qr_scan", "android": "https://dc.lft.to/lastmile_qr_scan"}}, {"name": "52e84390c032e39b61a29fc3c3277284", "type": "electric_scooter", "lat": 38.94089983333333, "is_reserved": 0, "lon": -77.06192583333333, "fusion_lon": 0.0, "is_disabled": 0, "fusion_lat": 0.0, "bike_id": "52e84390c032e39b61a29fc3c3277284", "rental_uris": {"ios": "https://dc.lft.to/lastmile_qr_scan", "android": "https://dc.lft.to/lastmile_qr_scan"}}, {"name": "d6950a7edd1dd09bb0edfe2f25da166c", "type": "electric_scooter", "lat": 38.90253366666666, "is_reserved": 0, "lon": -77.04664366666667, "fusion_lon": 0.0, "is_disabled": 0, "fusion_lat": 0.0, "bike_id": "d6950a7edd1dd09bb0edfe2f25da166c", "rental_uris": {"ios": "https://dc.lft.to/lastmile_qr_scan", "android": "https://dc.lft.to/lastmile_qr_scan"}}, {"name": "23881cf17e2834d08de95c8987b9929f", "type": "electric_scooter", "lat": 38.902725333333336, "is_reserved": 0, "lon": -77.033681, "fusion_lon": 0.0, "is_disabled": 0, "fusion_lat": 0.0, "bike_id": "23881cf17e2834d08de95c8987b9929f", "rental_uris": {"ios": "https://dc.lft.to/lastmile_qr_scan", "android": "https://dc.lft.to/lastmile_qr_scan"}}, {"name": "8ecb4a0fe207c078df5f50446cdfc053", "type": "electric_scooter", "lat": 38.923743, "is_reserved": 0, "lon": -77.021248, "fusion_lon": 0.0, "is_disabled": 0, "fusion_lat": 0.0, "bike_id": "8ecb4a0fe207c078df5f50446cdfc053", "rental_uris": {"ios": "https://dc.lft.to/lastmile_qr_scan", "android": "https://dc.lft.to/lastmile_qr_scan"}}, {"name": "7645f42dc06818cc1debb0486ed94ab6", "type": "electric_scooter", "lat": 38.908068166666666, "is_reserved": 0, "lon": -77.03839766666667, "fusion_lon": 0.0, "is_disabled": 0, "fusion_lat": 0.0, "bike_id": "7645f42dc06818cc1debb0486ed94ab6", "rental_uris": {"ios": "https://dc.lft.to/lastmile_qr_scan", "android": "https://dc.lft.to/lastmile_qr_scan"}}, {"name": "7b99677a5ecca035dbd8a0357f11c521", "type": "electric_scooter", "lat": 38.9125655, "is_reserved": 0, "lon": -77.0093365, "fusion_lon": 0.0, "is_disabled": 0, "fusion_lat": 0.0, "bike_id": "7b99677a5ecca035dbd8a0357f11c521", "rental_uris": {"ios": "https://dc.lft.to/lastmile_qr_scan", "android": "https://dc.lft.to/lastmile_qr_scan"}}, {"name": "2b046d6f8550e319387e742a263d60f3", "type": "electric_scooter", "lat": 38.91689383333333, "is_reserved": 0, "lon": -77.02968916666667, "fusion_lon": 0.0, "is_disabled": 0, "fusion_lat": 0.0, "bike_id": "2b046d6f8550e319387e742a263d60f3", "rental_uris": {"ios": "https://dc.lft.to/lastmile_qr_scan", "android": "https://dc.lft.to/lastmile_qr_scan"}}, {"name": "3c48bcf6155b0e95d96eee304f286795", "type": "electric_scooter", "lat": 38.87780983333333, "is_reserved": 0, "lon": -77.00813966666666, "fusion_lon": 0.0, "is_disabled": 0, "fusion_lat": 0.0, "bike_id": "3c48bcf6155b0e95d96eee304f286795", "rental_uris": {"ios": "https://dc.lft.to/lastmile_qr_scan", "android": "https://dc.lft.to/lastmile_qr_scan"}}, {"name": "5e2ef121f52b3d8db168ca4b694db854", "type": "electric_scooter", "lat": 38.920674166666664, "is_reserved": 0, "lon": -77.02915866666666, "fusion_lon": 0.0, "is_disabled": 0, "fusion_lat": 0.0, "bike_id": "5e2ef121f52b3d8db168ca4b694db854", "rental_uris": {"ios": "https://dc.lft.to/lastmile_qr_scan", "android": "https://dc.lft.to/lastmile_qr_scan"}}, {"name": "25b5cb81c8fe3296ca33cf4c66aa8c4f", "type": "electric_scooter", "lat": 38.883325666666664, "is_reserved": 0, "lon": -77.0174195, "fusion_lon": 0.0, "is_disabled": 0, "fusion_lat": 0.0, "bike_id": "25b5cb81c8fe3296ca33cf4c66aa8c4f", "rental_uris": {"ios": "https://dc.lft.to/lastmile_qr_scan", "android": "https://dc.lft.to/lastmile_qr_scan"}}, {"name": "9984033d8f831b0b9221feb9cfdefaf7", "type": "electric_scooter", "lat": 38.9037015, "is_reserved": 0, "lon": -77.03173166666667, "fusion_lon": 0.0, "is_disabled": 0, "fusion_lat": 0.0, "bike_id": "9984033d8f831b0b9221feb9cfdefaf7", "rental_uris": {"ios": "https://dc.lft.to/lastmile_qr_scan", "android": "https://dc.lft.to/lastmile_qr_scan"}}, {"name": "05c60dcd667fc326f180a080f787df0a", "type": "electric_scooter", "lat": 38.9100815, "is_reserved": 0, "lon": -76.99400383333334, "fusion_lon": 0.0, "is_disabled": 0, "fusion_lat": 0.0, "bike_id": "05c60dcd667fc326f180a080f787df0a", "rental_uris": {"ios": "https://dc.lft.to/lastmile_qr_scan", "android": "https://dc.lft.to/lastmile_qr_scan"}}, {"name": "4586042ef39cc1028ee04fc5499f229c", "type": "electric_scooter", "lat": 38.905624, "is_reserved": 0, "lon": -77.034675, "fusion_lon": 0.0, "is_disabled": 0, "fusion_lat": 0.0, "bike_id": "4586042ef39cc1028ee04fc5499f229c", "rental_uris": {"ios": "https://dc.lft.to/lastmile_qr_scan", "android": "https://dc.lft.to/lastmile_qr_scan"}}, {"name": "080d483c99f8e231efd1c3710ece8871", "type": "electric_scooter", "lat": 38.961160166666666, "is_reserved": 0, "lon": -77.02816983333334, "fusion_lon": 0.0, "is_disabled": 0, "fusion_lat": 0.0, "bike_id": "080d483c99f8e231efd1c3710ece8871", "rental_uris": {"ios": "https://dc.lft.to/lastmile_qr_scan", "android": "https://dc.lft.to/lastmile_qr_scan"}}, {"name": "9e9b052e40237a673658558945e4d05f", "type": "electric_bike", "lat": 38.85535816666667, "is_reserved": 0, "lon": -77.1132855, "fusion_lon": 0.0, "is_disabled": 0, "fusion_lat": 0.0, "bike_id": "9e9b052e40237a673658558945e4d05f", "rental_uris": {"ios": "https://dc.lft.to/lastmile_qr_scan", "android": "https://dc.lft.to/lastmile_qr_scan"}}, {"name": "5b23df621aec9536cf1ddf8ddcee1283", "type": "electric_scooter", "lat": 38.91705133333333, "is_reserved": 0, "lon": -77.031057, "fusion_lon": 0.0, "is_disabled": 0, "fusion_lat": 0.0, "bike_id": "5b23df621aec9536cf1ddf8ddcee1283", "rental_uris": {"ios": "https://dc.lft.to/lastmile_qr_scan", "android": "https://dc.lft.to/lastmile_qr_scan"}}, {"name": "6fc797710c45ba9be94cb90d0452d8c1", "type": "electric_scooter", "lat": 38.89677016666667, "is_reserved": 0, "lon": -77.02961733333333, "fusion_lon": 0.0, "is_disabled": 0, "fusion_lat": 0.0, "bike_id": "6fc797710c45ba9be94cb90d0452d8c1", "rental_uris": {"ios": "https://dc.lft.to/lastmile_qr_scan", "android": "https://dc.lft.to/lastmile_qr_scan"}}, {"name": "e3e1e10012e6e0ec09745632f5338f9a", "type": "electric_scooter", "lat": 38.925795666666666, "is_reserved": 0, "lon": -77.03921666666666, "fusion_lon": 0.0, "is_disabled": 0, "fusion_lat": 0.0, "bike_id": "e3e1e10012e6e0ec09745632f5338f9a", "rental_uris": {"ios": "https://dc.lft.to/lastmile_qr_scan", "android": "https://dc.lft.to/lastmile_qr_scan"}}, {"name": "aee3a718a963e0bf196ecc941eda3cb9", "type": "electric_scooter", "lat": 38.92456766666667, "is_reserved": 0, "lon": -77.00213316666667, "fusion_lon": 0.0, "is_disabled": 0, "fusion_lat": 0.0, "bike_id": "aee3a718a963e0bf196ecc941eda3cb9", "rental_uris": {"ios": "https://dc.lft.to/lastmile_qr_scan", "android": "https://dc.lft.to/lastmile_qr_scan"}}, {"name": "cfb58326ba86a7670ccef0748d3ebebd", "type": "electric_scooter", "lat": 38.94442, "is_reserved": 0, "lon": -77.06354933333333, "fusion_lon": 0.0, "is_disabled": 0, "fusion_lat": 0.0, "bike_id": "cfb58326ba86a7670ccef0748d3ebebd", "rental_uris": {"ios": "https://dc.lft.to/lastmile_qr_scan", "android": "https://dc.lft.to/lastmile_qr_scan"}}, {"name": "f0cf52834866a65ee046afb0e9a5b27e", "type": "electric_scooter", "lat": 38.898304, "is_reserved": 0, "lon": -77.02950333333334, "fusion_lon": 0.0, "is_disabled": 0, "fusion_lat": 0.0, "bike_id": "f0cf52834866a65ee046afb0e9a5b27e", "rental_uris": {"ios": "https://dc.lft.to/lastmile_qr_scan", "android": "https://dc.lft.to/lastmile_qr_scan"}}, {"name": "889bfc98c74c2f733ab4e845abb58922", "type": "electric_scooter", "lat": 38.911912666666666, "is_reserved": 0, "lon": -76.99623166666666, "fusion_lon": 0.0, "is_disabled": 0, "fusion_lat": 0.0, "bike_id": "889bfc98c74c2f733ab4e845abb58922", "rental_uris": {"ios": "https://dc.lft.to/lastmile_qr_scan", "android": "https://dc.lft.to/lastmile_qr_scan"}}, {"name": "ae1a628dca595d13f7bf2349329c5500", "type": "electric_scooter", "lat": 38.897978, "is_reserved": 0, "lon": -77.02984433333333, "fusion_lon": 0.0, "is_disabled": 0, "fusion_lat": 0.0, "bike_id": "ae1a628dca595d13f7bf2349329c5500", "rental_uris": {"ios": "https://dc.lft.to/lastmile_qr_scan", "android": "https://dc.lft.to/lastmile_qr_scan"}}, {"name": "832f163c9afaf84b0e1886f8904d8725", "type": "electric_scooter", "lat": 38.892258, "is_reserved": 0, "lon": -77.0426675, "fusion_lon": 0.0, "is_disabled": 0, "fusion_lat": 0.0, "bike_id": "832f163c9afaf84b0e1886f8904d8725", "rental_uris": {"ios": "https://dc.lft.to/lastmile_qr_scan", "android": "https://dc.lft.to/lastmile_qr_scan"}}, {"name": "54c7e0df80ad9b33fb8e47f684efec0a", "type": "electric_scooter", "lat": 38.943277, "is_reserved": 0, "lon": -77.07392416666667, "fusion_lon": 0.0, "is_disabled": 0, "fusion_lat": 0.0, "bike_id": "54c7e0df80ad9b33fb8e47f684efec0a", "rental_uris": {"ios": "https://dc.lft.to/lastmile_qr_scan", "android": "https://dc.lft.to/lastmile_qr_scan"}}, {"name": "40bd2671d8267e8678ac4a568acb6836", "type": "electric_scooter", "lat": 38.883315333333336, "is_reserved": 0, "lon": -77.01764766666666, "fusion_lon": 0.0, "is_disabled": 0, "fusion_lat": 0.0, "bike_id": "40bd2671d8267e8678ac4a568acb6836", "rental_uris": {"ios": "https://dc.lft.to/lastmile_qr_scan", "android": "https://dc.lft.to/lastmile_qr_scan"}}, {"name": "9e7ba135d689e44a8b9ad401bcfc1595", "type": "electric_scooter", "lat": 38.93114833333333, "is_reserved": 0, "lon": -77.02102033333334, "fusion_lon": 0.0, "is_disabled": 0, "fusion_lat": 0.0, "bike_id": "9e7ba135d689e44a8b9ad401bcfc1595", "rental_uris": {"ios": "https://dc.lft.to/lastmile_qr_scan", "android": "https://dc.lft.to/lastmile_qr_scan"}}, {"name": "2aacbfa7f8b7c798722ff2cdf90df15c", "type": "electric_scooter", "lat": 38.902550166666664, "is_reserved": 0, "lon": -77.028179, "fusion_lon": 0.0, "is_disabled": 0, "fusion_lat": 0.0, "bike_id": "2aacbfa7f8b7c798722ff2cdf90df15c", "rental_uris": {"ios": "https://dc.lft.to/lastmile_qr_scan", "android": "https://dc.lft.to/lastmile_qr_scan"}}, {"name": "bd81dcedcffb5d9fdf2a9b6429e8bc9c", "type": "electric_scooter", "lat": 38.909783166666664, "is_reserved": 0, "lon": -77.067184, "fusion_lon": 0.0, "is_disabled": 0, "fusion_lat": 0.0, "bike_id": "bd81dcedcffb5d9fdf2a9b6429e8bc9c", "rental_uris": {"ios": "https://dc.lft.to/lastmile_qr_scan", "android": "https://dc.lft.to/lastmile_qr_scan"}}, {"name": "05015f8ad9a1a493f2c74bf2c8ca352b", "type": "electric_scooter", "lat": 38.914894333333336, "is_reserved": 0, "lon": -77.021974, "fusion_lon": 0.0, "is_disabled": 0, "fusion_lat": 0.0, "bike_id": "05015f8ad9a1a493f2c74bf2c8ca352b", "rental_uris": {"ios": "https://dc.lft.to/lastmile_qr_scan", "android": "https://dc.lft.to/lastmile_qr_scan"}}, {"name": "90b2618a7e8fd72e04d961eb0f68d143", "type": "electric_scooter", "lat": 38.921535, "is_reserved": 0, "lon": -76.99960333333334, "fusion_lon": 0.0, "is_disabled": 0, "fusion_lat": 0.0, "bike_id": "90b2618a7e8fd72e04d961eb0f68d143", "rental_uris": {"ios": "https://dc.lft.to/lastmile_qr_scan", "android": "https://dc.lft.to/lastmile_qr_scan"}}, {"name": "ec064d36a69d469669346af74b56a74e", "type": "electric_scooter", "lat": 38.90828033333333, "is_reserved": 0, "lon": -77.000176, "fusion_lon": 0.0, "is_disabled": 0, "fusion_lat": 0.0, "bike_id": "ec064d36a69d469669346af74b56a74e", "rental_uris": {"ios": "https://dc.lft.to/lastmile_qr_scan", "android": "https://dc.lft.to/lastmile_qr_scan"}}, {"name": "3f6ba57a4c957cd86e2b8e28d3beb749", "type": "electric_scooter", "lat": 38.94931966666667, "is_reserved": 0, "lon": -77.01937816666667, "fusion_lon": 0.0, "is_disabled": 0, "fusion_lat": 0.0, "bike_id": "3f6ba57a4c957cd86e2b8e28d3beb749", "rental_uris": {"ios": "https://dc.lft.to/lastmile_qr_scan", "android": "https://dc.lft.to/lastmile_qr_scan"}}, {"name": "ed35b253918f91629d069428d35a104d", "type": "electric_scooter", "lat": 38.907179666666664, "is_reserved": 0, "lon": -77.04217116666666, "fusion_lon": 0.0, "is_disabled": 0, "fusion_lat": 0.0, "bike_id": "ed35b253918f91629d069428d35a104d", "rental_uris": {"ios": "https://dc.lft.to/lastmile_qr_scan", "android": "https://dc.lft.to/lastmile_qr_scan"}}, {"name": "a2bbceaf0dcac02536eb822fdaf8ed1d", "type": "electric_scooter", "lat": 38.908484333333334, "is_reserved": 0, "lon": -77.020554, "fusion_lon": 0.0, "is_disabled": 0, "fusion_lat": 0.0, "bike_id": "a2bbceaf0dcac02536eb822fdaf8ed1d", "rental_uris": {"ios": "https://dc.lft.to/lastmile_qr_scan", "android": "https://dc.lft.to/lastmile_qr_scan"}}, {"name": "6081926050d2b849b19c71210c18425f", "type": "electric_bike", "lat": 38.86285616666667, "is_reserved": 0, "lon": -77.063627, "fusion_lon": 0.0, "is_disabled": 0, "fusion_lat": 0.0, "bike_id": "6081926050d2b849b19c71210c18425f", "rental_uris": {"ios": "https://dc.lft.to/lastmile_qr_scan", "android": "https://dc.lft.to/lastmile_qr_scan"}}, {"name": "0e5fc4ce8647d4f445ceb8df78af49b2", "type": "electric_bike", "lat": 38.867567333333334, "is_reserved": 0, "lon": -76.94537916666667, "fusion_lon": 0.0, "is_disabled": 0, "fusion_lat": 0.0, "bike_id": "0e5fc4ce8647d4f445ceb8df78af49b2", "rental_uris": {"ios": "https://dc.lft.to/lastmile_qr_scan", "android": "https://dc.lft.to/lastmile_qr_scan"}}, {"name": "e1edb21cc8de371bf5a0a5d3dca44133", "type": "electric_scooter", "lat": 38.9215305, "is_reserved": 0, "lon": -77.0353075, "fusion_lon": 0.0, "is_disabled": 0, "fusion_lat": 0.0, "bike_id": "e1edb21cc8de371bf5a0a5d3dca44133", "rental_uris": {"ios": "https://dc.lft.to/lastmile_qr_scan", "android": "https://dc.lft.to/lastmile_qr_scan"}}, {"name": "deacd2eb5e674717dcd377a3254511fb", "type": "electric_scooter", "lat": 38.89743583333333, "is_reserved": 0, "lon": -77.01044316666666, "fusion_lon": 0.0, "is_disabled": 0, "fusion_lat": 0.0, "bike_id": "deacd2eb5e674717dcd377a3254511fb", "rental_uris": {"ios": "https://dc.lft.to/lastmile_qr_scan", "android": "https://dc.lft.to/lastmile_qr_scan"}}, {"name": "be51005627314f45e67c35524f0f18e1", "type": "electric_scooter", "lat": 38.9026625, "is_reserved": 0, "lon": -77.0175515, "fusion_lon": 0.0, "is_disabled": 0, "fusion_lat": 0.0, "bike_id": "be51005627314f45e67c35524f0f18e1", "rental_uris": {"ios": "https://dc.lft.to/lastmile_qr_scan", "android": "https://dc.lft.to/lastmile_qr_scan"}}, {"name": "56b48efa0e687990f2be02e419acbfc5", "type": "electric_scooter", "lat": 38.89849733333333, "is_reserved": 0, "lon": -76.94479666666666, "fusion_lon": 0.0, "is_disabled": 0, "fusion_lat": 0.0, "bike_id": "56b48efa0e687990f2be02e419acbfc5", "rental_uris": {"ios": "https://dc.lft.to/lastmile_qr_scan", "android": "https://dc.lft.to/lastmile_qr_scan"}}, {"name": "e820ef23aafc385e87e1607eff8b8239", "type": "electric_bike", "lat": 39.0946125, "is_reserved": 0, "lon": -77.149938, "fusion_lon": 0.0, "is_disabled": 0, "fusion_lat": 0.0, "bike_id": "e820ef23aafc385e87e1607eff8b8239", "rental_uris": {"ios": "https://dc.lft.to/lastmile_qr_scan", "android": "https://dc.lft.to/lastmile_qr_scan"}}, {"name": "046e4837459aacc978e78ca0bb084abb", "type": "electric_scooter", "lat": 38.929494166666665, "is_reserved": 0, "lon": -77.055125, "fusion_lon": 0.0, "is_disabled": 0, "fusion_lat": 0.0, "bike_id": "046e4837459aacc978e78ca0bb084abb", "rental_uris": {"ios": "https://dc.lft.to/lastmile_qr_scan", "android": "https://dc.lft.to/lastmile_qr_scan"}}, {"name": "52416669ca1424b728cb654bf422dbde", "type": "electric_bike", "lat": 38.840568, "is_reserved": 0, "lon": -77.06407766666666, "fusion_lon": 0.0, "is_disabled": 0, "fusion_lat": 0.0, "bike_id": "52416669ca1424b728cb654bf422dbde", "rental_uris": {"ios": "https://dc.lft.to/lastmile_qr_scan", "android": "https://dc.lft.to/lastmile_qr_scan"}}, {"name": "7ecb58c3125d8d0703f2327cca05dc69", "type": "electric_scooter", "lat": 38.8950075, "is_reserved": 0, "lon": -77.00211133333333, "fusion_lon": 0.0, "is_disabled": 0, "fusion_lat": 0.0, "bike_id": "7ecb58c3125d8d0703f2327cca05dc69", "rental_uris": {"ios": "https://dc.lft.to/lastmile_qr_scan", "android": "https://dc.lft.to/lastmile_qr_scan"}}, {"name": "b35bf3a9c42ea213025963db96f26396", "type": "electric_scooter", "lat": 38.927262, "is_reserved": 0, "lon": -77.005698, "fusion_lon": 0.0, "is_disabled": 0, "fusion_lat": 0.0, "bike_id": "b35bf3a9c42ea213025963db96f26396", "rental_uris": {"ios": "https://dc.lft.to/lastmile_qr_scan", "android": "https://dc.lft.to/lastmile_qr_scan"}}, {"name": "92d1765183376d27064775d1b86dbdcc", "type": "electric_bike", "lat": 38.8279095, "is_reserved": 0, "lon": -77.00911633333334, "fusion_lon": 0.0, "is_disabled": 0, "fusion_lat": 0.0, "bike_id": "92d1765183376d27064775d1b86dbdcc", "rental_uris": {"ios": "https://dc.lft.to/lastmile_qr_scan", "android": "https://dc.lft.to/lastmile_qr_scan"}}, {"name": "5518c8e9a93b45c6a93f7cf33c2b6b35", "type": "electric_scooter", "lat": 38.93531266666667, "is_reserved": 0, "lon": -77.0285685, "fusion_lon": 0.0, "is_disabled": 0, "fusion_lat": 0.0, "bike_id": "5518c8e9a93b45c6a93f7cf33c2b6b35", "rental_uris": {"ios": "https://dc.lft.to/lastmile_qr_scan", "android": "https://dc.lft.to/lastmile_qr_scan"}}, {"name": "a407129cf96388d124514a32d4703043", "type": "electric_scooter", "lat": 38.883668666666665, "is_reserved": 0, "lon": -77.0317775, "fusion_lon": 0.0, "is_disabled": 0, "fusion_lat": 0.0, "bike_id": "a407129cf96388d124514a32d4703043", "rental_uris": {"ios": "https://dc.lft.to/lastmile_qr_scan", "android": "https://dc.lft.to/lastmile_qr_scan"}}, {"name": "d3856c7ebfd80f77de529b5b0fd1ebd7", "type": "electric_bike", "lat": 38.965097, "is_reserved": 0, "lon": -77.1033255, "fusion_lon": 0.0, "is_disabled": 0, "fusion_lat": 0.0, "bike_id": "d3856c7ebfd80f77de529b5b0fd1ebd7", "rental_uris": {"ios": "https://dc.lft.to/lastmile_qr_scan", "android": "https://dc.lft.to/lastmile_qr_scan"}},