{"data": {"bikes": [{"bike_id": "57a1897f0ba262955a7865ee3bd53c80", "type": "electric_scooter", "is_disabled": 0, "lat": 38.95154133333333, "rental_uris": {"ios": "https://dc.lft.to/lastmile_qr_scan", "android": "https://dc.lft.to/lastmile_qr_scan"}, "is_reserved": 0, "fusion_lon": 0.0, "fusion_lat": 0.0, "lon": -77.01870366666667, "name": "57a1897f0ba262955a7865ee3bd53c80"}, {"bike_id": "cbb6e76a0bfa69182477ebadb6049f1a", "type": "electric_scooter", "is_disabled": 0, "lat": 38.9065105, "rental_uris": {"ios": "https://dc.lft.to/lastmile_qr_scan", "android": "https://dc.lft.to/lastmile_qr_scan"}, "is_reserved": 0, "fusion_lon": 0.0, "fusion_lat": 0.0, "lon": -77.02497983333333, "name": "cbb6e76a0bfa69182477ebadb6049f1a"}, {"bike_id": "7b648a02ebaa1832570d9c45532fe113", "type": "electric_scooter", "is_disabled": 0, "lat": 38.9180435, "rental_uris": {"ios": "https://dc.lft.to/lastmile_qr_scan", "android": "https://dc.lft.to/lastmile_qr_scan"}, "is_reserved": 0, "fusion_lon": 0.0, "fusion_lat": 0.0, "lon": -77.04002133333333, "name": "7b648a02ebaa1832570d9c45532fe113"}, {"bike_id": "1aa810c2c21fd0cde2dc79fe11d08cb0", "type": "electric_scooter", "is_disabled": 0, "lat": 38.92281466666667, "rental_uris": {"ios": "https://dc.lft.to/lastmile_qr_scan", "android": "https://dc.lft.to/lastmile_qr_scan"}, "is_reserved": 0, "fusion_lon": 0.0, "fusion_lat": 0.0, "lon": -76.99468283333333, "name": "1aa810c2c21fd0cde2dc79fe11d08cb0"}, {"bike_id": "be2bd76a4cd0ab4dfc7c26b36488e89b", "type": "electric_scooter", "is_disabled": 0, "lat": 38.9056595, "rental_uris": {"ios": "https://dc.lft.to/lastmile_qr_scan", "android": "https://dc.lft.to/lastmile_qr_scan"}, "is_reserved": 0, "fusion_lon": 0.0, "fusion_lat": 0.0, "lon": -77.02216783333333, "name": "be2bd76a4cd0ab4dfc7c26b36488e89b"}, {"bike_id": "394b9375d404011c2fb81419ecd0fdba", "type": "electric_scooter", "is_disabled": 0, "lat": 38.91707616666667, "rental_uris": {"ios": "https://dc.lft.to/lastmile_qr_scan", "android": "https://dc.lft.to/lastmile_qr_scan"}, "is_reserved": 0, "fusion_lon": 0.0, "fusion_lat": 0.0, "lon": -77.09579366666667, "name": "394b9375d404011c2fb81419ecd0fdba"}, {"bike_id": "e67c3f31a404255419bc8ad644ceac47", "type": "electric_scooter", "is_disabled": 0, "lat": 38.923223, "rental_uris": {"ios": "https://dc.lft.to/lastmile_qr_scan", "android": "https://dc.lft.to/lastmile_qr_scan"}, "is_reserved": 0, "fusion_lon": 0.0, "fusion_lat": 0.0, "lon": -77.02142116666667, "name": "e67c3f31a404255419bc8ad644ceac47"}, {"bike_id": "dbd087d1c0ce81a72f3b11d8c0c16dc1", "type": "electric_scooter", "is_disabled": 0, "lat": 38.910412666666666, "rental_uris": {"ios": "https://dc.lft.to/lastmile_qr_scan", "android": "https://dc.lft.to/lastmile_qr_scan"}, "is_reserved": 0, "fusion_lon": 0.0, "fusion_lat": 0.0, "lon": -77.03841116666666, "name": "dbd087d1c0ce81a72f3b11d8c0c16dc1"}, {"bike_id": "385508c5fc99d66abd80164fef6aca0a", "type": "electric_scooter", "is_disabled": 0, "lat": 38.871467, "rental_uris": {"ios": "https://dc.lft.to/lastmile_qr_scan", "android": "https://dc.lft.to/lastmile_qr_scan"}, "is_reserved": 0, "fusion_lon": 0.0, "fusion_lat": 0.0, "lon": -77.0070675, "name": "385508c5fc99d66abd80164fef6aca0a"}, {"bike_id": "98cd83d587886c98582394662113d88d", "type": "electric_scooter", "is_disabled": 0, "lat": 38.95735333333333, "rental_uris": {"ios": "https://dc.lft.to/lastmile_qr_scan", "android": "https://dc.lft.to/lastmile_qr_scan"}, "is_reserved": 0, "fusion_lon": 0.0, "fusion_lat": 0.0, "lon": -77.024066, "name": "98cd83d587886c98582394662113d88d"}, {"bike_id": "3b38e3fbbea7106d667e9cbdcadbc4f4", "type": "electric_scooter", "is_disabled": 0, "lat": 38.92196716666667, "rental_uris": {"ios": "https://dc.lft.to/lastmile_qr_scan", "android": "https://dc.lft.to/lastmile_qr_scan"}, "is_reserved": 0, "fusion_lon": 0.0, "fusion_lat": 0.0, "lon": -77.024091, "name": "3b38e3fbbea7106d667e9cbdcadbc4f4"}, {"bike_id": "ba138c76bdbac79b32fed6aacd3cc2c8", "type": "electric_scooter", "is_disabled": 0, "lat": 38.93323433333333, "rental_uris": {"ios": "https://dc.lft.to/lastmile_qr_scan", "android": "https://dc.lft.to/lastmile_qr_scan"}, "is_reserved": 0, "fusion_lon": 0.0, "fusion_lat": 0.0, "lon": -77.03271683333334, "name": "ba138c76bdbac79b32fed6aacd3cc2c8"}, {"bike_id": "6e30ab3efd63eb39d5b3db6804f9d0fc", "type": "electric_scooter", "is_disabled": 0, "lat": 38.892157833333336, "rental_uris": {"ios": "https://dc.lft.to/lastmile_qr_scan", "android": "https://dc.lft.to/lastmile_qr_scan"}, "is_reserved": 0, "fusion_lon": 0.0, "fusion_lat": 0.0, "lon": -77.02447716666667, "name": "6e30ab3efd63eb39d5b3db6804f9d0fc"}, {"bike_id": "38bc90eefa396a5493fc064eca1f958f", "type": "electric_scooter", "is_disabled": 0, "lat": 38.904081, "rental_uris": {"ios": "https://dc.lft.to/lastmile_qr_scan", "android": "https://dc.lft.to/lastmile_qr_scan"}, "is_reserved": 0, "fusion_lon": 0.0, "fusion_lat": 0.0, "lon": -76.973301, "name": "38bc90eefa396a5493fc064eca1f958f"}, {"bike_id": "ed1ffb9b3a7aeb15b74fae7f1a7d7207", "type": "electric_scooter", "is_disabled": 0, "lat": 38.9237195, "rental_uris": {"ios": "https://dc.lft.to/lastmile_qr_scan", "android": "https://dc.lft.to/lastmile_qr_scan"}, "is_reserved": 0, "fusion_lon": 0.0, "fusion_lat": 0.0, "lon": -77.02534133333333, "name": "ed1ffb9b3a7aeb15b74fae7f1a7d7207"}, {"bike_id": "7afdbe33f40e20d567a3e18c3b2ae60b", "type": "electric_scooter", "is_disabled": 0, "lat": 38.921705833333334, "rental_uris": {"ios": "https://dc.lft.to/lastmile_qr_scan", "android": "https://dc.lft.to/lastmile_qr_scan"}, "is_reserved": 0, "fusion_lon": 0.0, "fusion_lat": 0.0, "lon": -77.01916116666666, "name": "7afdbe33f40e20d567a3e18c3b2ae60b"}, {"bike_id": "df9a31414d63f0d6fc221a61262c4f0c", "type": "electric_scooter", "is_disabled": 0, "lat": 38.9392315, "rental_uris": {"ios": "https://dc.lft.to/lastmile_qr_scan", "android": "https://dc.lft.to/lastmile_qr_scan"}, "is_reserved": 0, "fusion_lon": 0.0, "fusion_lat": 0.0, "lon": -77.03262916666667, "name": "df9a31414d63f0d6fc221a61262c4f0c"}, {"bike_id": "387b3c80d2e9455eb6e2f2502daed470", "type": "electric_scooter", "is_disabled": 0, "lat": 38.91255666666667, "rental_uris": {"ios": "https://dc.lft.to/lastmile_qr_scan", "android": "https://dc.lft.to/lastmile_qr_scan"}, "is_reserved": 0, "fusion_lon": 0.0, "fusion_lat": 0.0, "lon": -77.03881733333333, "name": "387b3c80d2e9455eb6e2f2502daed470"}, {"bike_id": "32a7acda3cf1328cdadc4f69d11e7900", "type": "electric_scooter", "is_disabled": 0, "lat": 38.92388716666667, "rental_uris": {"ios": "https://dc.lft.to/lastmile_qr_scan", "android": "https://dc.lft.to/lastmile_qr_scan"}, "is_reserved": 0, "fusion_lon": 0.0, "fusion_lat": 0.0, "lon": -77.04084633333333, "name": "32a7acda3cf1328cdadc4f69d11e7900"}, {"bike_id": "1468c7d9d62cd5c5938af77305fb4f52", "type": "electric_scooter", "is_disabled": 0, "lat": 38.907329833333336, "rental_uris": {"ios": "https://dc.lft.to/lastmile_qr_scan", "android": "https://dc.lft.to/lastmile_qr_scan"}, "is_reserved": 0, "fusion_lon": 0.0, "fusion_lat": 0.0, "lon": -77.04328083333333, "name": "1468c7d9d62cd5c5938af77305fb4f52"}, {"bike_id": "0df95173be33e25f7ed7e776782e81b2", "type": "electric_scooter", "is_disabled": 0, "lat": 38.9191275, "rental_uris": {"ios": "https://dc.lft.to/lastmile_qr_scan", "android": "https://dc.lft.to/lastmile_qr_scan"}, "is_reserved": 0, "fusion_lon": 0.0, "fusion_lat": 0.0, "lon": -77.034187, "name": "0df95173be33e25f7ed7e776782e81b2"}, {"bike_id": "2373ba7ac493514916a26fd8410378a3", "type": "electric_scooter", "is_disabled": 0, "lat": 38.9139135, "rental_uris": {"ios": "https://dc.lft.to/lastmile_qr_scan", "android": "https://dc.lft.to/lastmile_qr_scan"}, "is_reserved": 0, "fusion_lon": 0.0, "fusion_lat": 0.0, "lon": -77.02096433333334, "name": "2373ba7ac493514916a26fd8410378a3"}, {"bike_id": "790ba8ae04e89701d6a968b8ddb79d8e", "type": "electric_scooter", "is_disabled": 0, "lat": 38.9051425, "rental_uris": {"ios": "https://dc.lft.to/lastmile_qr_scan", "android": "https://dc.lft.to/lastmile_qr_scan"}, "is_reserved": 0, "fusion_lon": 0.0, "fusion_lat": 0.0, "lon": -77.06379333333334, "name": "790ba8ae04e89701d6a968b8ddb79d8e"}, {"bike_id": "eeed112fd4f31aea5a7285a34e96e49d", "type": "electric_scooter", "is_disabled": 0, "lat": 38.903632, "rental_uris": {"ios": "https://dc.lft.to/lastmile_qr_scan", "android": "https://dc.lft.to/lastmile_qr_scan"}, "is_reserved": 0, "fusion_lon": 0.0, "fusion_lat": 0.0, "lon": -77.0074095, "name": "eeed112fd4f31aea5a7285a34e96e49d"}, {"bike_id": "35afeaff326e6ccecad6051b4010ca07", "type": "electric_scooter", "is_disabled": 0, "lat": 38.92110866666667, "rental_uris": {"ios": "https://dc.lft.to/lastmile_qr_scan", "android": "https://dc.lft.to/lastmile_qr_scan"}, "is_reserved": 0, "fusion_lon": 0.0, "fusion_lat": 0.0, "lon": -77.01768066666666, "name": "35afeaff326e6ccecad6051b4010ca07"}, {"bike_id": "09d5bc59af81743b04bf8db842964a96", "type": "electric_scooter", "is_disabled": 0, "lat": 38.93874666666667, "rental_uris": {"ios": "https://dc.lft.to/lastmile_qr_scan", "android": "https://dc.lft.to/lastmile_qr_scan"}, "is_reserved": 0, "fusion_lon": 0.0, "fusion_lat": 0.0, "lon": -77.0245415, "name": "09d5bc59af81743b04bf8db842964a96"}, {"bike_id": "ae195ff4a3fc43d3c0abffd2c3163a0f", "type": "electric_scooter", "is_disabled": 0, "lat": 38.882721833333335, "rental_uris": {"ios": "https://dc.lft.to/lastmile_qr_scan", "android": "https://dc.lft.to/lastmile_qr_scan"}, "is_reserved": 0, "fusion_lon": 0.0, "fusion_lat": 0.0, "lon": -76.99256816666667, "name": "ae195ff4a3fc43d3c0abffd2c3163a0f"}, {"bike_id": "2955d92ff8c8ac52c248f6ab0aebd368", "type": "electric_scooter", "is_disabled": 0, "lat": 38.906855166666666, "rental_uris": {"ios": "https://dc.lft.to/lastmile_qr_scan", "android": "https://dc.lft.to/lastmile_qr_scan"}, "is_reserved": 0, "fusion_lon": 0.0, "fusion_lat": 0.0, "lon": -77.0634115, "name": "2955d92ff8c8ac52c248f6ab0aebd368"}, {"bike_id": "60fb76081f36a90f0503cc7e9e36e686", "type": "electric_scooter", "is_disabled": 0, "lat": 38.9085225, "rental_uris": {"ios": "https://dc.lft.to/lastmile_qr_scan", "android": "https://dc.lft.to/lastmile_qr_scan"}, "is_reserved": 0, "fusion_lon": 0.0, "fusion_lat": 0.0, "lon": -77.0556685, "name": "60fb76081f36a90f0503cc7e9e36e686"}, {"bike_id": "02093a7d34f88d0edb838acbcfbc1caa", "type": "electric_scooter", "is_disabled": 0, "lat": 38.9083455, "rental_uris": {"ios": "https://dc.lft.to/lastmile_qr_scan", "android": "https://dc.lft.to/lastmile_qr_scan"}, "is_reserved": 0, "fusion_lon": 0.0, "fusion_lat": 0.0, "lon": -77.0239475, "name": "02093a7d34f88d0edb838acbcfbc1caa"}, {"bike_id": "0e56e435bf50787e11259a9101f13b79", "type": "electric_bike", "is_disabled": 0, "lat": 39.024367, "rental_uris": {"ios": "https://dc.lft.to/lastmile_qr_scan", "android": "https://dc.lft.to/lastmile_qr_scan"}, "is_reserved": 0, "fusion_lon": 0.0, "fusion_lat": 0.0, "lon": -77.1310255, "name": "0e56e435bf50787e11259a9101f13b79"}, {"bike_id": "8ecf2b6e6101b8de8d1057e42403b044", "type": "electric_scooter", "is_disabled": 0, "lat": 38.90584833333333, "rental_uris": {"ios": "https://dc.lft.to/lastmile_qr_scan", "android": "https://dc.lft.to/lastmile_qr_scan"}, "is_reserved": 0, "fusion_lon": 0.0, "fusion_lat": 0.0, "lon": -77.06603866666667, "name": "8ecf2b6e6101b8de8d1057e42403b044"}, {"bike_id": "696ac26e4426a2741fda26dec2641fbb", "type": "electric_bike", "is_disabled": 0, "lat": 38.95714433333333, "rental_uris": {"ios": "https://dc.lft.to/lastmile_qr_scan", "android": "https://dc.lft.to/lastmile_qr_scan"}, "is_reserved": 0, "fusion_lon": 0.0, "fusion_lat": 0.0, "lon": -77.024037, "name": "696ac26e4426a2741fda26dec2641fbb"}, {"bike_id": "3c6d4e4dee45a1c63d97b48f0461db01", "type": "electric_scooter", "is_disabled": 0, "lat": 38.93463033333333, "rental_uris": {"ios": "https://dc.lft.to/lastmile_qr_scan", "android": "https://dc.lft.to/lastmile_qr_scan"}, "is_reserved": 0, "fusion_lon": 0.0, "fusion_lat": 0.0, "lon": -76.9643795, "name": "3c6d4e4dee45a1c63d97b48f0461db01"}, {"bike_id": "84d7ff3427615056f304dbe6c4fe05d6", "type": "electric_scooter", "is_disabled": 0, "lat": 38.9019655, "rental_uris": {"ios": "https://dc.lft.to/lastmile_qr_scan", "android": "https://dc.lft.to/lastmile_qr_scan"}, "is_reserved": 0, "fusion_lon": 0.0, "fusion_lat": 0.0, "lon": -77.05090366666667, "name": "84d7ff3427615056f304dbe6c4fe05d6"}, {"bike_id": "c825c3ede9ca2f51cadcca471c0175f9", "type": "electric_scooter", "is_disabled": 0, "lat": 38.90329966666667, "rental_uris": {"ios": "https://dc.lft.to/lastmile_qr_scan", "android": "https://dc.lft.to/lastmile_qr_scan"}, "is_reserved": 0, "fusion_lon": 0.0, "fusion_lat": 0.0, "lon": -77.03316633333333, "name": "c825c3ede9ca2f51cadcca471c0175f9"}, {"bike_id": "097fe170ede9a7d8b0696ec0fe129e7e", "type": "electric_scooter", "is_disabled": 0, "lat": 38.91420516666667, "rental_uris": {"ios": "https://dc.lft.to/lastmile_qr_scan", "android": "https://dc.lft.to/lastmile_qr_scan"}, "is_reserved": 0, "fusion_lon": 0.0, "fusion_lat": 0.0, "lon": -77.02714266666666, "name": "097fe170ede9a7d8b0696ec0fe129e7e"}, {"bike_id": "c6242747a9f4760f5b6003a1ec0881e7", "type": "electric_scooter", "is_disabled": 0, "lat": 38.866999, "rental_uris": {"ios": "https://dc.lft.to/lastmile_qr_scan", "android": "https://dc.lft.to/lastmile_qr_scan"}, "is_reserved": 0, "fusion_lon": 0.0, "fusion_lat": 0.0, "lon": -76.98713716666667, "name": "c6242747a9f4760f5b6003a1ec0881e7"}, {"bike_id": "999412eb02b593d17f92d26a3d73b1fb", "type": "electric_scooter", "is_disabled": 0, "lat": 38.904082, "rental_uris": {"ios": "https://dc.lft.to/lastmile_qr_scan", "android": "https://dc.lft.to/lastmile_qr_scan"}, "is_reserved": 0, "fusion_lon": 0.0, "fusion_lat": 0.0, "lon": -77.01794116666666, "name": "999412eb02b593d17f92d26a3d73b1fb"}, {"bike_id": "cc49aea1484f9eec0775d2283fe66179", "type": "electric_scooter", "is_disabled": 0, "lat": 38.93979916666667, "rental_uris": {"ios": "https://dc.lft.to/lastmile_qr_scan", "android": "https://dc.lft.to/lastmile_qr_scan"}, "is_reserved": 0, "fusion_lon": 0.0, "fusion_lat": 0.0, "lon": -77.03141233333334, "name": "cc49aea1484f9eec0775d2283fe66179"}, {"bike_id": "42787d8e3106319ba22fb0b83fcf0a89", "type": "electric_scooter", "is_disabled": 0, "lat": 38.92908766666667, "rental_uris": {"ios": "https://dc.lft.to/lastmile_qr_scan", "android": "https://dc.lft.to/lastmile_qr_scan"}, "is_reserved": 0, "fusion_lon": 0.0, "fusion_lat": 0.0, "lon": -77.036188, "name": "42787d8e3106319ba22fb0b83fcf0a89"}, {"bike_id": "f5b7a156ffaabd626a6a8ebe5535b4ef", "type": "electric_scooter", "is_disabled": 0, "lat": 38.916965166666664, "rental_uris": {"ios": "https://dc.lft.to/lastmile_qr_scan", "android": "https://dc.lft.to/lastmile_qr_scan"}, "is_reserved": 0, "fusion_lon": 0.0, "fusion_lat": 0.0, "lon": -77.0289545, "name": "f5b7a156ffaabd626a6a8ebe5535b4ef"}, {"bike_id": "bd76e7c02a20f030f146553d48a62116", "type": "electric_scooter", "is_disabled": 0, "lat": 38.941828, "rental_uris": {"ios": "https://dc.lft.to/lastmile_qr_scan", "android": "https://dc.lft.to/lastmile_qr_scan"}, "is_reserved": 0, "fusion_lon": 0.0, "fusion_lat": 0.0, "lon": -77.02488083333333, "name": "bd76e7c02a20f030f146553d48a62116"}, {"bike_id": "f4935137d9d06241d4cee4063e2d16da", "type": "electric_scooter", "is_disabled": 0, "lat": 38.9289005, "rental_uris": {"ios": "https://dc.lft.to/lastmile_qr_scan", "android": "https://dc.lft.to/lastmile_qr_scan"}, "is_reserved": 0, "fusion_lon": 0.0, "fusion_lat": 0.0, "lon": -77.03245516666667, "name": "f4935137d9d06241d4cee4063e2d16da"}, {"bike_id": "4cbffbb6948ef4f99245cdeba0c13268", "type": "electric_scooter", "is_disabled": 0, "lat": 38.8767195, "rental_uris": {"ios": "https://dc.lft.to/lastmile_qr_scan", "android": "https://dc.lft.to/lastmile_qr_scan"}, "is_reserved": 0, "fusion_lon": 0.0, "fusion_lat": 0.0, "lon": -77.00404983333334, "name": "4cbffbb6948ef4f99245cdeba0c13268"}, {"bike_id": "c906594c87fc4c55ab80aaaf831fb824", "type": "electric_scooter", "is_disabled": 0, "lat": 38.905171833333334, "rental_uris": {"ios": "https://dc.lft.to/lastmile_qr_scan", "android": "https://dc.lft.to/lastmile_qr_scan"}, "is_reserved": 0, "fusion_lon": 0.0, "fusion_lat": 0.0, "lon": -77.0687555, "name": "c906594c87fc4c55ab80aaaf831fb824"}, {"bike_id": "eed393fce2a5f4cfe88758b7fb1f5a4b", "type": "electric_scooter", "is_disabled": 0, "lat": 38.911280166666664, "rental_uris": {"ios": "https://dc.lft.to/lastmile_qr_scan", "android": "https://dc.lft.to/lastmile_qr_scan"}, "is_reserved": 0, "fusion_lon": 0.0, "fusion_lat": 0.0, "lon": -77.04353466666667, "name": "eed393fce2a5f4cfe88758b7fb1f5a4b"}, {"bike_id": "3b7c4cdd60ba1cbefa3e0ab043934ad4", "type": "electric_scooter", "is_disabled": 0, "lat": 38.89090183333333, "rental_uris": {"ios": "https://dc.lft.to/lastmile_qr_scan", "android": "https://dc.lft.to/lastmile_qr_scan"}, "is_reserved": 0, "fusion_lon": 0.0, "fusion_lat": 0.0, "lon": -77.0026015, "name": "3b7c4cdd60ba1cbefa3e0ab043934ad4"}, {"bike_id": "2aaa1d7103f7e9d6393fcf7574e06477", "type": "electric_scooter", "is_disabled": 0, "lat": 38.9421365, "rental_uris": {"ios": "https://dc.lft.to/lastmile_qr_scan", "android": "https://dc.lft.to/lastmile_qr_scan"}, "is_reserved": 0, "fusion_lon": 0.0, "fusion_lat": 0.0, "lon": -77.02580016666667, "name": "2aaa1d7103f7e9d6393fcf7574e06477"}, {"bike_id": "ed97c8047f4306e2402f510c5cdb0dc9", "type": "electric_scooter", "is_disabled": 0, "lat": 38.9057995, "rental_uris": {"ios": "https://dc.lft.to/lastmile_qr_scan", "android": "https://dc.lft.to/lastmile_qr_scan"}, "is_reserved": 0, "fusion_lon": 0.0, "fusion_lat": 0.0, "lon": -77.02607083333334, "name": "ed97c8047f4306e2402f510c5cdb0dc9"}, {"bike_id": "c805fe5a4862ce20984843b9c9251601", "type": "electric_scooter", "is_disabled": 0, "lat": 38.92164433333333, "rental_uris": {"ios": "https://dc.lft.to/lastmile_qr_scan", "android": "https://dc.lft.to/lastmile_qr_scan"}, "is_reserved": 0, "fusion_lon": 0.0, "fusion_lat": 0.0, "lon": -77.03387766666667, "name": "c805fe5a4862ce20984843b9c9251601"}, {"bike_id": "fd5a7a8d3b7b0f5b729fb17fefd3d1e8", "type": "electric_scooter", "is_disabled": 0, "lat": 38.91276933333333, "rental_uris": {"ios": "https://dc.lft.to/lastmile_qr_scan", "android": "https://dc.lft.to/lastmile_qr_scan"}, "is_reserved": 0, "fusion_lon": 0.0, "fusion_lat": 0.0, "lon": -77.0223945, "name": "fd5a7a8d3b7b0f5b729fb17fefd3d1e8"}, {"bike_id": "7d07721d8e7d0a67f29e2966e3976daf", "type": "electric_scooter", "is_disabled": 0, "lat": 38.91713633333333, "rental_uris": {"ios": "https://dc.lft.to/lastmile_qr_scan", "android": "https://dc.lft.to/lastmile_qr_scan"}, "is_reserved": 0, "fusion_lon": 0.0, "fusion_lat": 0.0, "lon": -77.03180766666667, "name": "7d07721d8e7d0a67f29e2966e3976daf"}, {"bike_id": "18c105815088721eeb90692250feb1c0", "type": "electric_scooter", "is_disabled": 0, "lat": 38.88272, "rental_uris": {"ios": "https://dc.lft.to/lastmile_qr_scan", "android": "https://dc.lft.to/lastmile_qr_scan"}, "is_reserved": 0, "fusion_lon": 0.0, "fusion_lat": 0.0, "lon": -76.99363083333333, "name": "18c105815088721eeb90692250feb1c0"}, {"bike_id": "7f32ce8b98c667803a0e075ae6e2e8bc", "type": "electric_scooter", "is_disabled": 0, "lat": 38.90583633333333, "rental_uris": {"ios": "https://dc.lft.to/lastmile_qr_scan", "android": "https://dc.lft.to/lastmile_qr_scan"}, "is_reserved": 0, "fusion_lon": 0.0, "fusion_lat": 0.0, "lon": -77.0438635, "name": "7f32ce8b98c667803a0e075ae6e2e8bc"}, {"bike_id": "868dc456cd0188f2e201d3811f38159c", "type": "electric_scooter", "is_disabled": 0, "lat": 38.922251833333334, "rental_uris": {"ios": "https://dc.lft.to/lastmile_qr_scan", "android": "https://dc.lft.to/lastmile_qr_scan"}, "is_reserved": 0, "fusion_lon": 0.0, "fusion_lat": 0.0, "lon": -77.03460733333333, "name": "868dc456cd0188f2e201d3811f38159c"}, {"bike_id": "825460c7ed40734ae8b8fe350e53f102", "type": "electric_scooter", "is_disabled": 0, "lat": 38.9158385, "rental_uris": {"ios": "https://dc.lft.to/lastmile_qr_scan", "android": "https://dc.lft.to/lastmile_qr_scan"}, "is_reserved": 0, "fusion_lon": 0.0, "fusion_lat": 0.0, "lon": -77.0320285, "name": "825460c7ed40734ae8b8fe350e53f102"}, {"bike_id": "90b2eee4e6b54af3c76f590034f0bebc", "type": "electric_scooter", "is_disabled": 0, "lat": 38.90494616666667, "rental_uris": {"ios": "https://dc.lft.to/lastmile_qr_scan", "android": "https://dc.lft.to/lastmile_qr_scan"}, "is_reserved": 0, "fusion_lon": 0.0, "fusion_lat": 0.0, "lon": -76.9868815, "name": "90b2eee4e6b54af3c76f590034f0bebc"}, {"bike_id": "059064a3cec3257dc13313a1c7189d5c", "type": "electric_scooter", "is_disabled": 0, "lat": 38.897327833333335, "rental_uris": {"ios": "https://dc.lft.to/lastmile_qr_scan", "android": "https://dc.lft.to/lastmile_qr_scan"}, "is_reserved": 0, "fusion_lon": 0.0, "fusion_lat": 0.0, "lon": -77.054752, "name": "059064a3cec3257dc13313a1c7189d5c"}, {"bike_id": "106a5722ba385188190eee758006780e", "type": "electric_scooter", "is_disabled": 0, "lat": 38.907213666666664, "rental_uris": {"ios": "https://dc.lft.to/lastmile_qr_scan", "android": "https://dc.lft.to/lastmile_qr_scan"}, "is_reserved": 0, "fusion_lon": 0.0, "fusion_lat": 0.0, "lon": -77.02391616666667, "name": "106a5722ba385188190eee758006780e"}, {"bike_id": "f77044550a263abbeb484d622f6bc22b", "type": "electric_scooter", "is_disabled": 0, "lat": 38.907599166666664, "rental_uris": {"ios": "https://dc.lft.to/lastmile_qr_scan", "android": "https://dc.lft.to/lastmile_qr_scan"}, "is_reserved": 0, "fusion_lon": 0.0, "fusion_lat": 0.0, "lon": -77.04228433333333, "name": "f77044550a263abbeb484d622f6bc22b"}, {"bike_id": "c50905b26f1e8cf2b66de899c123590f", "type": "electric_scooter", "is_disabled": 0, "lat": 38.96143433333334, "rental_uris": {"ios": "https://dc.lft.to/lastmile_qr_scan", "android": "https://dc.lft.to/lastmile_qr_scan"}, "is_reserved": 0, "fusion_lon": 0.0, "fusion_lat": 0.0, "lon": -77.02992583333334, "name": "c50905b26f1e8cf2b66de899c123590f"}, {"bike_id": "4276ae006626b688d942be1464783a28", "type": "electric_bike", "is_disabled": 0, "lat": 39.03990483333333, "rental_uris": {"ios": "https://dc.lft.to/lastmile_qr_scan", "android": "https://dc.lft.to/lastmile_qr_scan"}, "is_reserved": 0, "fusion_lon": 0.0, "fusion_lat": 0.0, "lon": -76.9993015, "name": "4276ae006626b688d942be1464783a28"}, {"bike_id": "bc4e4ec03ac921c0d02adf5085349d7b", "type": "electric_scooter", "is_disabled": 0, "lat": 38.90960966666667, "rental_uris": {"ios": "https://dc.lft.to/lastmile_qr_scan", "android": "https://dc.lft.to/lastmile_qr_scan"}, "is_reserved": 0, "fusion_lon": 0.0, "fusion_lat": 0.0, "lon": -77.02682816666666, "name": "bc4e4ec03ac921c0d02adf5085349d7b"}, {"bike_id": "349febd55de9596a0a4a41fd03e88c3c", "type": "electric_scooter", "is_disabled": 0, "lat": 38.902584166666664, "rental_uris": {"ios": "https://dc.lft.to/lastmile_qr_scan", "android": "https://dc.lft.to/lastmile_qr_scan"}, "is_reserved": 0, "fusion_lon": 0.0, "fusion_lat": 0.0, "lon": -76.97547566666667, "name": "349febd55de9596a0a4a41fd03e88c3c"}, {"bike_id": "676b630879af20acda8c4ac8fb4d07bc", "type": "electric_scooter", "is_disabled": 0, "lat": 38.902389166666666, "rental_uris": {"ios": "https://dc.lft.to/lastmile_qr_scan", "android": "https://dc.lft.to/lastmile_qr_scan"}, "is_reserved": 0, "fusion_lon": 0.0, "fusion_lat": 0.0, "lon": -77.00198883333333, "name": "676b630879af20acda8c4ac8fb4d07bc"}, {"bike_id": "baa97ac6e34852445d269c42f649303a", "type": "electric_bike", "is_disabled": 0, "lat": 38.929217, "rental_uris": {"ios": "https://dc.lft.to/lastmile_qr_scan", "android": "https://dc.lft.to/lastmile_qr_scan"}, "is_reserved": 0, "fusion_lon": 0.0, "fusion_lat": 0.0, "lon": -77.0325405, "name": "baa97ac6e34852445d269c42f649303a"}, {"bike_id": "8bf9e3c70039b84c23a365fae932254a", "type": "electric_bike", "is_disabled": 0, "lat": 38.8729405, "rental_uris": {"ios": "https://dc.lft.to/lastmile_qr_scan", "android": "https://dc.lft.to/lastmile_qr_scan"}, "is_reserved": 0, "fusion_lon": 0.0, "fusion_lat": 0.0, "lon": -76.96979683333333, "name": "8bf9e3c70039b84c23a365fae932254a"}, {"bike_id": "705036f5e2c21c0dac2d46816e4dda5c", "type": "electric_scooter", "is_disabled": 0, "lat": 38.91706333333333, "rental_uris": {"ios": "https://dc.lft.to/lastmile_qr_scan", "android": "https://dc.lft.to/lastmile_qr_scan"}, "is_reserved": 0, "fusion_lon": 0.0, "fusion_lat": 0.0, "lon": -77.041889, "name": "705036f5e2c21c0dac2d46816e4dda5c"}, {"bike_id": "30ef7adba1ccad036e7405f5bec540e9", "type": "electric_scooter", "is_disabled": 0, "lat": 38.94990966666667, "rental_uris": {"ios": "https://dc.lft.to/lastmile_qr_scan", "android": "https://dc.lft.to/lastmile_qr_scan"}, "is_reserved": 0, "fusion_lon": 0.0, "fusion_lat": 0.0, "lon": -77.02704683333333, "name": "30ef7adba1ccad036e7405f5bec540e9"}, {"bike_id": "4500ddc8ba01e7ce7ac018a759d1904e", "type": "electric_scooter", "is_disabled": 0, "lat": 38.91114683333333, "rental_uris": {"ios": "https://dc.lft.to/lastmile_qr_scan", "android": "https://dc.lft.to/lastmile_qr_scan"}, "is_reserved": 0, "fusion_lon": 0.0, "fusion_lat": 0.0, "lon": -77.04479933333333, "name": "4500ddc8ba01e7ce7ac018a759d1904e"}, {"bike_id": "d6dfc401b0c5fcb9747fbf57ad21ec6e", "type": "electric_scooter", "is_disabled": 0, "lat": 38.90731866666667, "rental_uris": {"ios": "https://dc.lft.to/lastmile_qr_scan", "android": "https://dc.lft.to/lastmile_qr_scan"}, "is_reserved": 0, "fusion_lon": 0.0, "fusion_lat": 0.0, "lon": -77.038716, "name": "d6dfc401b0c5fcb9747fbf57ad21ec6e"}, {"bike_id": "5ebe52846f4f6e1a6ad66cad607f6252", "type": "electric_scooter", "is_disabled": 0, "lat": 38.941156666666664, "rental_uris": {"ios": "https://dc.lft.to/lastmile_qr_scan", "android": "https://dc.lft.to/lastmile_qr_scan"}, "is_reserved": 0, "fusion_lon": 0.0, "fusion_lat": 0.0, "lon": -77.07730066666667, "name": "5ebe52846f4f6e1a6ad66cad607f6252"}, {"bike_id": "111b2aafd8c443888dd1ed96b266c523", "type": "electric_scooter", "is_disabled": 0, "lat": 38.904107, "rental_uris": {"ios": "https://dc.lft.to/lastmile_qr_scan", "android": "https://dc.lft.to/lastmile_qr_scan"}, "is_reserved": 0, "fusion_lon": 0.0, "fusion_lat": 0.0, "lon": -76.97335133333333, "name": "111b2aafd8c443888dd1ed96b266c523"}, {"bike_id": "54f18e901d44f6a46c15ed94dc525c3b", "type": "electric_scooter", "is_disabled": 0, "lat": 38.90817083333334, "rental_uris": {"ios": "https://dc.lft.to/lastmile_qr_scan", "android": "https://dc.lft.to/lastmile_qr_scan"}, "is_reserved": 0, "fusion_lon": 0.0, "fusion_lat": 0.0, "lon": -77.0433945, "name": "54f18e901d44f6a46c15ed94dc525c3b"}, {"bike_id": "030f2182416ae2a4fcaa1011ba0c2de3", "type": "electric_bike", "is_disabled": 0, "lat": 38.908349333333334, "rental_uris": {"ios": "https://dc.lft.to/lastmile_qr_scan", "android": "https://dc.lft.to/lastmile_qr_scan"}, "is_reserved": 0, "fusion_lon": 0.0, "fusion_lat": 0.0, "lon": -76.93315816666667, "name": "030f2182416ae2a4fcaa1011ba0c2de3"}, {"bike_id": "79f61ba617cb374ecd011ca0286f01a8", "type": "electric_scooter", "is_disabled": 0, "lat": 38.870921333333335, "rental_uris": {"ios": "https://dc.lft.to/lastmile_qr_scan", "android": "https://dc.lft.to/lastmile_qr_scan"}, "is_reserved": 0, "fusion_lon": 0.0, "fusion_lat": 0.0, "lon": -77.012249, "name": "79f61ba617cb374ecd011ca0286f01a8"}, {"bike_id": "386c73b53109cb8983483f6145d9ebea", "type": "electric_scooter", "is_disabled": 0, "lat": 38.884058833333334, "rental_uris": {"ios": "https://dc.lft.to/lastmile_qr_scan", "android": "https://dc.lft.to/lastmile_qr_scan"}, "is_reserved": 0, "fusion_lon": 0.0, "fusion_lat": 0.0, "lon": -76.95395866666667, "name": "386c73b53109cb8983483f6145d9ebea"}, {"bike_id": "f3c34ad4840fbec9cf1a6d6f12ccde31", "type": "electric_scooter", "is_disabled": 0, "lat": 38.9105855, "rental_uris": {"ios": "https://dc.lft.to/lastmile_qr_scan", "android": "https://dc.lft.to/lastmile_qr_scan"}, "is_reserved": 0, "fusion_lon": 0.0, "fusion_lat": 0.0, "lon": -77.03723566666666, "name": "f3c34ad4840fbec9cf1a6d6f12ccde31"}, {"bike_id": "2b264be9f02f625a4f8d561c40c3d843", "type": "electric_scooter", "is_disabled": 0, "lat": 38.905654, "rental_uris": {"ios": "https://dc.lft.to/lastmile_qr_scan", "android": "https://dc.lft.to/lastmile_qr_scan"}, "is_reserved": 0, "fusion_lon": 0.0, "fusion_lat": 0.0, "lon": -77.022158, "name": "2b264be9f02f625a4f8d561c40c3d843"}, {"bike_id": "3a63b4295cfc3c05ee47f3940cdcf70e", "type": "electric_scooter", "is_disabled": 0, "lat": 38.905738, "rental_uris": {"ios": "https://dc.lft.to/lastmile_qr_scan", "android": "https://dc.lft.to/lastmile_qr_scan"}, "is_reserved": 0, "fusion_lon": 0.0, "fusion_lat": 0.0, "lon": -76.976306, "name": "3a63b4295cfc3c05ee47f3940cdcf70e"}, {"bike_id": "6f0c26caec048f2e702ad75f1f9c0bf4", "type": "electric_scooter", "is_disabled": 0, "lat": 38.928603, "rental_uris": {"ios": "https://dc.lft.to/lastmile_qr_scan", "android": "https://dc.lft.to/lastmile_qr_scan"}, "is_reserved": 0, "fusion_lon": 0.0, "fusion_lat": 0.0, "lon": -77.05435883333334, "name": "6f0c26caec048f2e702ad75f1f9c0bf4"}, {"bike_id": "ce9fc8066acfb4147d8384552ea9b92c", "type": "electric_scooter", "is_disabled": 0, "lat": 38.90915916666667, "rental_uris": {"ios": "https://dc.lft.to/lastmile_qr_scan", "android": "https://dc.lft.to/lastmile_qr_scan"}, "is_reserved": 0, "fusion_lon": 0.0, "fusion_lat": 0.0, "lon": -77.04492583333334, "name": "ce9fc8066acfb4147d8384552ea9b92c"}, {"bike_id": "710558acc8c2546d8440ba77d410e9b1", "type": "electric_scooter", "is_disabled": 0, "lat": 38.922683, "rental_uris": {"ios": "https://dc.lft.to/lastmile_qr_scan", "android": "https://dc.lft.to/lastmile_qr_scan"}, "is_reserved": 0, "fusion_lon": 0.0, "fusion_lat": 0.0, "lon": -77.03276383333333, "name": "710558acc8c2546d8440ba77d410e9b1"}, {"bike_id": "6ef1ebd947f48b761484dd4ced7f1abf", "type": "electric_scooter", "is_disabled": 0, "lat": 38.924847, "rental_uris": {"ios": "https://dc.lft.to/lastmile_qr_scan", "android": "https://dc.lft.to/lastmile_qr_scan"}, "is_reserved": 0, "fusion_lon": 0.0, "fusion_lat": 0.0, "lon": -77.03179983333334, "name": "6ef1ebd947f48b761484dd4ced7f1abf"}, {"bike_id": "729d4b2cfff0fa61fb139b3649f2d3f3", "type": "electric_bike", "is_disabled": 0, "lat": 38.95175366666667, "rental_uris": {"ios": "https://dc.lft.to/lastmile_qr_scan", "android": "https://dc.lft.to/lastmile_qr_scan"}, "is_reserved": 0, "fusion_lon": 0.0, "fusion_lat": 0.0, "lon": -76.97730983333334, "name": "729d4b2cfff0fa61fb139b3649f2d3f3"}, {"bike_id": "a60aa4b60bed46c359dec174177bed85", "type": "electric_scooter", "is_disabled": 0, "lat": 38.928603333333335, "rental_uris": {"ios": "https://dc.lft.to/lastmile_qr_scan", "android": "https://dc.lft.to/lastmile_qr_scan"}, "is_reserved": 0, "fusion_lon": 0.0, "fusion_lat": 0.0, "lon": -77.01385766666667, "name": "a60aa4b60bed46c359dec174177bed85"}, {"bike_id": "04623c06383a80dbb11dba4e45b9c22d", "type": "electric_scooter", "is_disabled": 0, "lat": 38.905169, "rental_uris": {"ios": "https://dc.lft.to/lastmile_qr_scan", "android": "https://dc.lft.to/lastmile_qr_scan"}, "is_reserved": 0, "fusion_lon": 0.0, "fusion_lat": 0.0, "lon": -77.04082733333334, "name": "04623c06383a80dbb11dba4e45b9c22d"}, {"bike_id": "62c554e0a35311cfa2f5eee997b32cf5", "type": "electric_scooter", "is_disabled": 0, "lat": 38.92849416666667, "rental_uris": {"ios": "https://dc.lft.to/lastmile_qr_scan", "android": "https://dc.lft.to/lastmile_qr_scan"}, "is_reserved": 0, "fusion_lon": 0.0, "fusion_lat": 0.0, "lon": -77.01951333333334, "name": "62c554e0a35311cfa2f5eee997b32cf5"}, {"bike_id": "bbd915b965df264febe346bff58adb45", "type": "electric_scooter", "is_disabled": 0, "lat": 38.90270783333333, "rental_uris": {"ios": "https://dc.lft.to/lastmile_qr_scan", "android": "https://dc.lft.to/lastmile_qr_scan"}, "is_reserved": 0, "fusion_lon": 0.0, "fusion_lat": 0.0, "lon": -77.04383366666667, "name": "bbd915b965df264febe346bff58adb45"}, {"bike_id": "6324e7ef2ae729d683c8099930a30859", "type": "electric_scooter", "is_disabled": 0, "lat": 38.93610566666667, "rental_uris": {"ios": "https://dc.lft.to/lastmile_qr_scan", "android": "https://dc.lft.to/lastmile_qr_scan"}, "is_reserved": 0, "fusion_lon": 0.0, "fusion_lat": 0.0, "lon": -77.03800466666667, "name": "6324e7ef2ae729d683c8099930a30859"}, {"bike_id": "d1183473bd55275150712e3ee1b49c19", "type": "electric_scooter", "is_disabled": 0, "lat": 38.91405783333333, "rental_uris": {"ios": "https://dc.lft.to/lastmile_qr_scan", "android": "https://dc.lft.to/lastmile_qr_scan"}, "is_reserved": 0, "fusion_lon": 0.0, "fusion_lat": 0.0, "lon": -77.03219, "name": "d1183473bd55275150712e3ee1b49c19"}, {"bike_id": "e409f976fe345b7fae1bba566afb05bb", "type": "electric_scooter", "is_disabled": 0, "lat": 38.94117833333333, "rental_uris": {"ios": "https://dc.lft.to/lastmile_qr_scan", "android": "https://dc.lft.to/lastmile_qr_scan"}, "is_reserved": 0, "fusion_lon": 0.0, "fusion_lat": 0.0, "lon": -77.02546883333333, "name": "e409f976fe345b7fae1bba566afb05bb"}, {"bike_id": "b7d452a791dca5fb163c49ff7aee823d", "type": "electric_scooter", "is_disabled": 0, "lat": 38.904923, "rental_uris": {"ios": "https://dc.lft.to/lastmile_qr_scan", "android": "https://dc.lft.to/lastmile_qr_scan"}, "is_reserved": 0, "fusion_lon": 0.0, "fusion_lat": 0.0, "lon": -76.9496005, "name": "b7d452a791dca5fb163c49ff7aee823d"}, {"bike_id": "28240363deb1890486a633bc1819f96a", "type": "electric_scooter", "is_disabled": 0, "lat": 38.909689666666665, "rental_uris": {"ios": "https://dc.lft.to/lastmile_qr_scan", "android": "https://dc.lft.to/lastmile_qr_scan"}, "is_reserved": 0, "fusion_lon": 0.0, "fusion_lat": 0.0, "lon": -77.04526016666667, "name": "28240363deb1890486a633bc1819f96a"}, {"bike_id": "b3e061393c6275b9346b861af444a4d2", "type": "electric_scooter", "is_disabled": 0, "lat": 38.92362266666667, "rental_uris": {"ios": "https://dc.lft.to/lastmile_qr_scan", "android": "https://dc.lft.to/lastmile_qr_scan"}, "is_reserved": 0, "fusion_lon": 0.0, "fusion_lat": 0.0, "lon": -77.05130733333333, "name": "b3e061393c6275b9346b861af444a4d2"}, {"bike_id": "4bdfc3951ef32537fa555741fb16156a", "type": "electric_scooter", "is_disabled": 0, "lat": 38.9221905, "rental_uris": {"ios": "https://dc.lft.to/lastmile_qr_scan", "android": "https://dc.lft.to/lastmile_qr_scan"}, "is_reserved": 0, "fusion_lon": 0.0, "fusion_lat": 0.0, "lon": -77.0266445, "name": "4bdfc3951ef32537fa555741fb16156a"}, {"bike_id": "18160a39e4d90bddd065192d3560f049", "type": "electric_scooter", "is_disabled": 0, "lat": 38.9404775, "rental_uris": {"ios": "https://dc.lft.to/lastmile_qr_scan", "android": "https://dc.lft.to/lastmile_qr_scan"}, "is_reserved": 0, "fusion_lon": 0.0, "fusion_lat": 0.0, "lon": -77.02976, "name": "18160a39e4d90bddd065192d3560f049"}, {"bike_id": "ccd45a7e414e68cbd8d10af7c5586aee", "type": "electric_scooter", "is_disabled": 0, "lat": 38.915538833333336, "rental_uris": {"ios": "https://dc.lft.to/lastmile_qr_scan", "android": "https://dc.lft.to/lastmile_qr_scan"}, "is_reserved": 0, "fusion_lon": 0.0, "fusion_lat": 0.0, "lon": -77.03254883333334, "name": "ccd45a7e414e68cbd8d10af7c5586aee"}, {"bike_id": "57bead08f86f54e36b790b1233ae1494", "type": "electric_scooter", "is_disabled": 0, "lat": 38.912719333333335, "rental_uris": {"ios": "https://dc.lft.to/lastmile_qr_scan", "android": "https://dc.lft.to/lastmile_qr_scan"}, "is_reserved": 0, "fusion_lon": 0.0, "fusion_lat": 0.0, "lon": -77.01678366666667, "name": "57bead08f86f54e36b790b1233ae1494"}, {"bike_id": "17d7b4a1b5d450f53f8d4ee4f78e6a36", "type": "electric_scooter", "is_disabled": 0, "lat": 38.91897183333333, "rental_uris": {"ios": "https://dc.lft.to/lastmile_qr_scan", "android": "https://dc.lft.to/lastmile_qr_scan"}, "is_reserved": 0, "fusion_lon": 0.0, "fusion_lat": 0.0, "lon": -77.00318066666667, "name": "17d7b4a1b5d450f53f8d4ee4f78e6a36"}, {"bike_id": "73ecdb28d4cdc9470ffa5402b394be0e", "type": "electric_scooter", "is_disabled": 0, "lat": 38.92422066666666, "rental_uris": {"ios": "https://dc.lft.to/lastmile_qr_scan", "android": "https://dc.lft.to/lastmile_qr_scan"}, "is_reserved": 0, "fusion_lon": 0.0, "fusion_lat": 0.0, "lon": -77.03545583333333, "name": "73ecdb28d4cdc9470ffa5402b394be0e"}, {"bike_id": "7bdf90d8435260266ae659bdbee52147", "type": "electric_scooter", "is_disabled": 0, "lat": 38.91884783333333, "rental_uris": {"ios": "https://dc.lft.to/lastmile_qr_scan", "android": "https://dc.lft.to/lastmile_qr_scan"}, "is_reserved": 0, "fusion_lon": 0.0, "fusion_lat": 0.0, "lon": -77.0348795, "name": "7bdf90d8435260266ae659bdbee52147"}, {"bike_id": "9351b9e15a6374e3e9e8774d56917432", "type": "electric_scooter", "is_disabled": 0, "lat": 38.91694916666667, "rental_uris": {"ios": "https://dc.lft.to/lastmile_qr_scan", "android": "https://dc.lft.to/lastmile_qr_scan"}, "is_reserved": 0, "fusion_lon": 0.0, "fusion_lat": 0.0, "lon": -77.010497, "name": "9351b9e15a6374e3e9e8774d56917432"}, {"bike_id": "9ba3902139a0f242e088c030779562bb", "type": "electric_scooter", "is_disabled": 0, "lat": 38.902129, "rental_uris": {"ios": "https://dc.lft.to/lastmile_qr_scan", "android": "https://dc.lft.to/lastmile_qr_scan"}, "is_reserved": 0, "fusion_lon": 0.0, "fusion_lat": 0.0, "lon": -77.05123216666667, "name": "9ba3902139a0f242e088c030779562bb"}, {"bike_id": "cd66880ee1b7f3c78553ab5673b8211f", "type": "electric_scooter", "is_disabled": 0, "lat": 38.928611833333335, "rental_uris": {"ios": "https://dc.lft.to/lastmile_qr_scan", "android": "https://dc.lft.to/lastmile_qr_scan"}, "is_reserved": 0, "fusion_lon": 0.0, "fusion_lat": 0.0, "lon": -77.0328325, "name": "cd66880ee1b7f3c78553ab5673b8211f"}, {"bike_id": "5a5d5aa3aa9f914c2bd0a5c05c987e69", "type": "electric_scooter", "is_disabled": 0, "lat": 38.9199985, "rental_uris": {"ios": "https://dc.lft.to/lastmile_qr_scan", "android": "https://dc.lft.to/lastmile_qr_scan"}, "is_reserved": 0, "fusion_lon": 0.0, "fusion_lat": 0.0, "lon": -77.02382033333333, "name": "5a5d5aa3aa9f914c2bd0a5c05c987e69"}, {"bike_id": "1565a96701162f42d607ee1e2b2cfafc", "type": "electric_scooter", "is_disabled": 0, "lat": 38.895355333333335, "rental_uris": {"ios": "https://dc.lft.to/lastmile_qr_scan", "android": "https://dc.lft.to/lastmile_qr_scan"}, "is_reserved": 0, "fusion_lon": 0.0, "fusion_lat": 0.0, "lon": -76.99478166666667, "name": "1565a96701162f42d607ee1e2b2cfafc"}, {"bike_id": "22acceab60bd30228a4433168db7f666", "type": "electric_scooter", "is_disabled": 0, "lat": 38.91167733333333, "rental_uris": {"ios": "https://dc.lft.to/lastmile_qr_scan", "android": "https://dc.lft.to/lastmile_qr_scan"}, "is_reserved": 0, "fusion_lon": 0.0, "fusion_lat": 0.0, "lon": -77.06865716666667, "name": "22acceab60bd30228a4433168db7f666"}, {"bike_id": "52c19e67ca0387b9566e0c12097f354e", "type": "electric_scooter", "is_disabled": 0, "lat": 38.9247135, "rental_uris": {"ios": "https://dc.lft.to/lastmile_qr_scan", "android": "https://dc.lft.to/lastmile_qr_scan"}, "is_reserved": 0, "fusion_lon": 0.0, "fusion_lat": 0.0, "lon": -77.05203766666666, "name": "52c19e67ca0387b9566e0c12097f354e"}, {"bike_id": "f667cca76b0255e3eac55ed8d1f10a0b", "type": "electric_scooter", "is_disabled": 0, "lat": 38.91689083333333, "rental_uris": {"ios": "https://dc.lft.to/lastmile_qr_scan", "android": "https://dc.lft.to/lastmile_qr_scan"}, "is_reserved": 0, "fusion_lon": 0.0, "fusion_lat": 0.0, "lon": -77.02971666666667, "name": "f667cca76b0255e3eac55ed8d1f10a0b"}, {"bike_id": "975ad909a1b762a9d1b5dfa0c2318a0c", "type": "electric_scooter", "is_disabled": 0, "lat": 38.89224983333333, "rental_uris": {"ios": "https://dc.lft.to/lastmile_qr_scan", "android": "https://dc.lft.to/lastmile_qr_scan"}, "is_reserved": 0, "fusion_lon": 0.0, "fusion_lat": 0.0, "lon": -77.0174095, "name": "975ad909a1b762a9d1b5dfa0c2318a0c"}, {"bike_id": "712cb0628bd0b2b2f39cd70dd7cbe0a6", "type": "electric_scooter", "is_disabled": 0, "lat": 38.90497633333333, "rental_uris": {"ios": "https://dc.lft.to/lastmile_qr_scan", "android": "https://dc.lft.to/lastmile_qr_scan"}, "is_reserved": 0, "fusion_lon": 0.0, "fusion_lat": 0.0, "lon": -77.0325725, "name": "712cb0628bd0b2b2f39cd70dd7cbe0a6"}, {"bike_id": "003fb3f655a271b100afaaa3dc5e762c", "type": "electric_bike", "is_disabled": 0, "lat": 38.855285333333335, "rental_uris": {"ios": "https://dc.lft.to/lastmile_qr_scan", "android": "https://dc.lft.to/lastmile_qr_scan"}, "is_reserved": 0, "fusion_lon": 0.0, "fusion_lat": 0.0, "lon": -77.1201225, "name": "003fb3f655a271b100afaaa3dc5e762c"}, {"bike_id": "2b647f53e6fe06346b443fba4743b17e", "type": "electric_scooter", "is_disabled": 0, "lat": 38.923678, "rental_uris": {"ios": "https://dc.lft.to/lastmile_qr_scan", "android": "https://dc.lft.to/lastmile_qr_scan"}, "is_reserved": 0, "fusion_lon": 0.0, "fusion_lat": 0.0, "lon": -77.04128633333333, "name": "2b647f53e6fe06346b443fba4743b17e"}, {"bike_id": "35cb428d6f416f3d881f0608575a1102", "type": "electric_scooter", "is_disabled": 0, "lat": 38.9140265, "rental_uris": {"ios": "https://dc.lft.to/lastmile_qr_scan", "android": "https://dc.lft.to/lastmile_qr_scan"}, "is_reserved": 0, "fusion_lon": 0.0, "fusion_lat": 0.0, "lon": -76.98191466666667, "name": "35cb428d6f416f3d881f0608575a1102"}, {"bike_id": "e49526aac4621cf1cf41ebfd54f68a94", "type": "electric_scooter", "is_disabled": 0, "lat": 38.882607666666665, "rental_uris": {"ios": "https://dc.lft.to/lastmile_qr_scan", "android": "https://dc.lft.to/lastmile_qr_scan"}, "is_reserved": 0, "fusion_lon": 0.0, "fusion_lat": 0.0, "lon": -76.99507666666666, "name": "e49526aac4621cf1cf41ebfd54f68a94"}, {"bike_id": "af2e8ed4d28fd4486b7973ccbe59f963", "type": "electric_scooter", "is_disabled": 0, "lat": 38.92897583333333, "rental_uris": {"ios": "https://dc.lft.to/lastmile_qr_scan", "android": "https://dc.lft.to/lastmile_qr_scan"}, "is_reserved": 0, "fusion_lon": 0.0, "fusion_lat": 0.0, "lon": -77.01645933333333, "name": "af2e8ed4d28fd4486b7973ccbe59f963"}, {"bike_id": "5b6c37abf38060228bb25feab85df84e", "type": "electric_scooter", "is_disabled": 0, "lat": 38.901898833333334, "rental_uris": {"ios": "https://dc.lft.to/lastmile_qr_scan", "android": "https://dc.lft.to/lastmile_qr_scan"}, "is_reserved": 0, "fusion_lon": 0.0, "fusion_lat": 0.0, "lon": -77.01315, "name": "5b6c37abf38060228bb25feab85df84e"}, {"bike_id": "957e8204512eb92155d33cf5a21b6401", "type": "electric_scooter", "is_disabled": 0, "lat": 38.905125166666664, "rental_uris": {"ios": "https://dc.lft.to/lastmile_qr_scan", "android": "https://dc.lft.to/lastmile_qr_scan"}, "is_reserved": 0, "fusion_lon": 0.0, "fusion_lat": 0.0, "lon": -77.02968733333333, "name": "957e8204512eb92155d33cf5a21b6401"}, {"bike_id": "214deff4ef5076d9d4fdedc0c87f2065", "type": "electric_bike", "is_disabled": 0, "lat": 39.014817666666666, "rental_uris": {"ios": "https://dc.lft.to/lastmile_qr_scan", "android": "https://dc.lft.to/lastmile_qr_scan"}, "is_reserved": 0, "fusion_lon": 0.0, "fusion_lat": 0.0, "lon": -77.05495483333333, "name": "214deff4ef5076d9d4fdedc0c87f2065"}, {"bike_id": "41b40814b91d470d472a606f1472f071", "type": "electric_scooter", "is_disabled": 0, "lat": 38.91044816666667, "rental_uris": {"ios": "https://dc.lft.to/lastmile_qr_scan", "android": "https://dc.lft.to/lastmile_qr_scan"}, "is_reserved": 0, "fusion_lon": 0.0, "fusion_lat": 0.0, "lon": -77.04354583333334, "name": "41b40814b91d470d472a606f1472f071"}, {"bike_id": "90b93dbd7b9febd22daaad92625ef6b6", "type": "electric_scooter", "is_disabled": 0, "lat": 38.9082235, "rental_uris": {"ios": "https://dc.lft.to/lastmile_qr_scan", "android": "https://dc.lft.to/lastmile_qr_scan"}, "is_reserved": 0, "fusion_lon": 0.0, "fusion_lat": 0.0, "lon": -77.06374733333334, "name": "90b93dbd7b9febd22daaad92625ef6b6"}, {"bike_id": "dd0899406c8fe246611e774ee395b8bd", "type": "electric_scooter", "is_disabled": 0, "lat": 38.908493166666666, "rental_uris": {"ios": "https://dc.lft.to/lastmile_qr_scan", "android": "https://dc.lft.to/lastmile_qr_scan"}, "is_reserved": 0, "fusion_lon": 0.0, "fusion_lat": 0.0, "lon": -76.99796883333333, "name": "dd0899406c8fe246611e774ee395b8bd"}, {"bike_id": "8f9059e766f51947347e8d9fcb370cec", "type": "electric_scooter", "is_disabled": 0, "lat": 38.923747166666665, "rental_uris": {"ios": "https://dc.lft.to/lastmile_qr_scan", "android": "https://dc.lft.to/lastmile_qr_scan"}, "is_reserved": 0, "fusion_lon": 0.0, "fusion_lat": 0.0, "lon": -77.0412675, "name": "8f9059e766f51947347e8d9fcb370cec"}, {"bike_id": "3ce8cf4be1a3645c6654b49d9293ba67", "type": "electric_scooter", "is_disabled": 0, "lat": 38.91750366666667, "rental_uris": {"ios": "https://dc.lft.to/lastmile_qr_scan", "android": "https://dc.lft.to/lastmile_qr_scan"}, "is_reserved": 0, "fusion_lon": 0.0, "fusion_lat": 0.0, "lon": -77.0228685, "name": "3ce8cf4be1a3645c6654b49d9293ba67"}, {"bike_id": "57977456ec1eebe00098e92558e18677", "type": "electric_scooter", "is_disabled": 0, "lat": 38.913348166666665, "rental_uris": {"ios": "https://dc.lft.to/lastmile_qr_scan", "android": "https://dc.lft.to/lastmile_qr_scan"}, "is_reserved": 0, "fusion_lon": 0.0, "fusion_lat": 0.0, "lon": -77.045733, "name": "57977456ec1eebe00098e92558e18677"}, {"bike_id": "60a65c004d90522f84ada2048be2a090", "type": "electric_scooter", "is_disabled": 0, "lat": 38.91480133333334, "rental_uris": {"ios": "https://dc.lft.to/lastmile_qr_scan", "android": "https://dc.lft.to/lastmile_qr_scan"}, "is_reserved": 0, "fusion_lon": 0.0, "fusion_lat": 0.0, "lon": -77.02580566666667, "name": "60a65c004d90522f84ada2048be2a090"}, {"bike_id": "22a65542bdb44c569eaf8f65ec3fdf77", "type": "electric_scooter", "is_disabled": 0, "lat": 38.90051783333333, "rental_uris": {"ios": "https://dc.lft.to/lastmile_qr_scan", "android": "https://dc.lft.to/lastmile_qr_scan"}, "is_reserved": 0, "fusion_lon": 0.0, "fusion_lat": 0.0, "lon": -77.01289566666667, "name": "22a65542bdb44c569eaf8f65ec3fdf77"}, {"bike_id": "2a00bff44d8d716244193292300fdb2a", "type": "electric_scooter", "is_disabled": 0, "lat": 38.906272, "rental_uris": {"ios": "https://dc.lft.to/lastmile_qr_scan", "android": "https://dc.lft.to/lastmile_qr_scan"}, "is_reserved": 0, "fusion_lon": 0.0, "fusion_lat": 0.0, "lon": -77.055527, "name": "2a00bff44d8d716244193292300fdb2a"}, {"bike_id": "a363cd556ee15a806a9fd0ef6ce94398", "type": "electric_scooter", "is_disabled": 0, "lat": 38.90857283333333, "rental_uris": {"ios": "https://dc.lft.to/lastmile_qr_scan", "android": "https://dc.lft.to/lastmile_qr_scan"}, "is_reserved": 0, "fusion_lon": 0.0, "fusion_lat": 0.0, "lon": -77.04545683333333, "name": "a363cd556ee15a806a9fd0ef6ce94398"}, {"bike_id": "f7cdf6fe694739aa262a0f5a349496c5", "type": "electric_scooter", "is_disabled": 0, "lat": 38.9226175, "rental_uris": {"ios": "https://dc.lft.to/lastmile_qr_scan", "android": "https://dc.lft.to/lastmile_qr_scan"}, "is_reserved": 0, "fusion_lon": 0.0, "fusion_lat": 0.0, "lon": -77.03298933333333, "name": "f7cdf6fe694739aa262a0f5a349496c5"}, {"bike_id": "196e00e3e0a359636620d151cfb2134b", "type": "electric_scooter", "is_disabled": 0, "lat": 38.92807783333333, "rental_uris": {"ios": "https://dc.lft.to/lastmile_qr_scan", "android": "https://dc.lft.to/lastmile_qr_scan"}, "is_reserved": 0, "fusion_lon": 0.0, "fusion_lat": 0.0, "lon": -77.02690183333333, "name": "196e00e3e0a359636620d151cfb2134b"}, {"bike_id": "a78548fa73286bebd2f6ee6e5b643384", "type": "electric_scooter", "is_disabled": 0, "lat": 38.900294, "rental_uris": {"ios": "https://dc.lft.to/lastmile_qr_scan", "android": "https://dc.lft.to/lastmile_qr_scan"}, "is_reserved": 0, "fusion_lon": 0.0, "fusion_lat": 0.0, "lon": -77.0220005, "name": "a78548fa73286bebd2f6ee6e5b643384"}, {"bike_id": "27264e3960edace68b5af4e733750b40", "type": "electric_scooter", "is_disabled": 0, "lat": 38.9119085, "rental_uris": {"ios": "https://dc.lft.to/lastmile_qr_scan", "android": "https://dc.lft.to/lastmile_qr_scan"}, "is_reserved": 0, "fusion_lon": 0.0, "fusion_lat": 0.0, "lon": -77.02984416666666, "name": "27264e3960edace68b5af4e733750b40"}, {"bike_id": "6cde0ad8c21ef565d55a27fdb19427d5", "type": "electric_scooter", "is_disabled": 0, "lat": 38.90601366666667, "rental_uris": {"ios": "https://dc.lft.to/lastmile_qr_scan", "android": "https://dc.lft.to/lastmile_qr_scan"}, "is_reserved": 0, "fusion_lon": 0.0, "fusion_lat": 0.0, "lon": -77.06296233333333, "name": "6cde0ad8c21ef565d55a27fdb19427d5"}, {"bike_id": "031cf755015fc82e488894dc87100e95", "type": "electric_scooter", "is_disabled": 0, "lat": 38.926582833333335, "rental_uris": {"ios": "https://dc.lft.to/lastmile_qr_scan", "android": "https://dc.lft.to/lastmile_qr_scan"}, "is_reserved": 0, "fusion_lon": 0.0, "fusion_lat": 0.0, "lon": -77.03726033333334, "name": "031cf755015fc82e488894dc87100e95"}, {"bike_id": "b6bb221b6f98bcb194a9310c19c5e6eb", "type": "electric_scooter", "is_disabled": 0, "lat": 38.914116666666665, "rental_uris": {"ios": "https://dc.lft.to/lastmile_qr_scan", "android": "https://dc.lft.to/lastmile_qr_scan"}, "is_reserved": 0, "fusion_lon": 0.0, "fusion_lat": 0.0, "lon": -77.02250566666666, "name": "b6bb221b6f98bcb194a9310c19c5e6eb"}, {"bike_id": "dc620babb4ccb83e631d27ac38da4179", "type": "electric_bike", "is_disabled": 0, "lat": 39.013709666666664, "rental_uris": {"ios": "https://dc.lft.to/lastmile_qr_scan", "android": "https://dc.lft.to/lastmile_qr_scan"}, "is_reserved": 0, "fusion_lon": 0.0, "fusion_lat": 0.0, "lon": -76.9213435, "name": "dc620babb4ccb83e631d27ac38da4179"}, {"bike_id": "8f743b91c303fdbe6b5bc981418b8423", "type": "electric_scooter", "is_disabled": 0, "lat": 38.896237, "rental_uris": {"ios": "https://dc.lft.to/lastmile_qr_scan", "android": "https://dc.lft.to/lastmile_qr_scan"}, "is_reserved": 0, "fusion_lon": 0.0, "fusion_lat": 0.0, "lon": -77.03295166666666, "name": "8f743b91c303fdbe6b5bc981418b8423"}, {"bike_id": "1a2651ab40fe00ae286dfb0fe5e097c5", "type": "electric_scooter", "is_disabled": 0, "lat": 38.9180885, "rental_uris": {"ios": "https://dc.lft.to/lastmile_qr_scan", "android": "https://dc.lft.to/lastmile_qr_scan"}, "is_reserved": 0, "fusion_lon": 0.0, "fusion_lat": 0.0, "lon": -77.03994083333333, "name": "1a2651ab40fe00ae286dfb0fe5e097c5"}, {"bike_id": "59e56bd066a100c7137b1ff88d2dbb41", "type": "electric_scooter", "is_disabled": 0, "lat": 38.903245, "rental_uris": {"ios": "https://dc.lft.to/lastmile_qr_scan", "android": "https://dc.lft.to/lastmile_qr_scan"}, "is_reserved": 0, "fusion_lon": 0.0, "fusion_lat": 0.0, "lon": -77.03325366666667, "name": "59e56bd066a100c7137b1ff88d2dbb41"}, {"bike_id": "59d40af1e5a9c41f7e32ad093aea0709", "type": "electric_scooter", "is_disabled": 0, "lat": 38.9004435, "rental_uris": {"ios": "https://dc.lft.to/lastmile_qr_scan", "android": "https://dc.lft.to/lastmile_qr_scan"}, "is_reserved": 0, "fusion_lon": 0.0, "fusion_lat": 0.0, "lon": -77.0168735, "name": "59d40af1e5a9c41f7e32ad093aea0709"}, {"bike_id": "5142c95a4b072f830457b63893f050f3", "type": "electric_scooter", "is_disabled": 0, "lat": 38.929205833333334, "rental_uris": {"ios": "https://dc.lft.to/lastmile_qr_scan", "android": "https://dc.lft.to/lastmile_qr_scan"}, "is_reserved": 0, "fusion_lon": 0.0, "fusion_lat": 0.0, "lon": -77.032666, "name": "5142c95a4b072f830457b63893f050f3"}, {"bike_id": "83bd5498553629306c1da5448291567d", "type": "electric_scooter", "is_disabled": 0, "lat": 38.9022015, "rental_uris": {"ios": "https://dc.lft.to/lastmile_qr_scan", "android": "https://dc.lft.to/lastmile_qr_scan"}, "is_reserved": 0, "fusion_lon": 0.0, "fusion_lat": 0.0, "lon": -77.0237415, "name": "83bd5498553629306c1da5448291567d"}, {"bike_id": "2e158e5096deeba1b7ffb5cd51ddb65f", "type": "electric_bike", "is_disabled": 0, "lat": 38.95643966666667, "rental_uris": {"ios": "https://dc.lft.to/lastmile_qr_scan", "android": "https://dc.lft.to/lastmile_qr_scan"}, "is_reserved": 0, "fusion_lon": 0.0, "fusion_lat": 0.0, "lon": -76.99793383333333, "name": "2e158e5096deeba1b7ffb5cd51ddb65f"}, {"bike_id": "983b1fa8fe498eef8f91b555d0db2d97", "type": "electric_scooter", "is_disabled": 0, "lat": 38.909153, "rental_uris": {"ios": "https://dc.lft.to/lastmile_qr_scan", "android": "https://dc.lft.to/lastmile_qr_scan"}, "is_reserved": 0, "fusion_lon": 0.0, "fusion_lat": 0.0, "lon": -77.03080233333333, "name": "983b1fa8fe498eef8f91b555d0db2d97"}, {"bike_id": "7c34e36d9836a17522ecf9ae45ef0f6e", "type": "electric_scooter", "is_disabled": 0, "lat": 38.92281466666667, "rental_uris": {"ios": "https://dc.lft.to/lastmile_qr_scan", "android": "https://dc.lft.to/lastmile_qr_scan"}, "is_reserved": 0, "fusion_lon": 0.0, "fusion_lat": 0.0, "lon": -77.02242383333333, "name": "7c34e36d9836a17522ecf9ae45ef0f6e"}, {"bike_id": "b5aa3dff38f4b5772143044eccd55823", "type": "electric_scooter", "is_disabled": 0, "lat": 38.92088866666667, "rental_uris": {"ios": "https://dc.lft.to/lastmile_qr_scan", "android": "https://dc.lft.to/lastmile_qr_scan"}, "is_reserved": 0, "fusion_lon": 0.0, "fusion_lat": 0.0, "lon": -77.0044615, "name": "b5aa3dff38f4b5772143044eccd55823"}, {"bike_id": "55e55a46c43a37ce7d05ec3586159d96", "type": "electric_scooter", "is_disabled": 0, "lat": 38.90082016666667, "rental_uris": {"ios": "https://dc.lft.to/lastmile_qr_scan", "android": "https://dc.lft.to/lastmile_qr_scan"}, "is_reserved": 0, "fusion_lon": 0.0, "fusion_lat": 0.0, "lon": -77.04753466666666, "name": "55e55a46c43a37ce7d05ec3586159d96"}, {"bike_id": "64ceb90abd53da21042b7876a54b82a4", "type": "electric_scooter", "is_disabled": 0, "lat": 38.9177705, "rental_uris": {"ios": "https://dc.lft.to/lastmile_qr_scan", "android": "https://dc.lft.to/lastmile_qr_scan"}, "is_reserved": 0, "fusion_lon": 0.0, "fusion_lat": 0.0, "lon": -77.02325233333333, "name": "64ceb90abd53da21042b7876a54b82a4"}, {"bike_id": "5eb1b831d1b3b34dac262c28504e16f0", "type": "electric_scooter", "is_disabled": 0, "lat": 38.93037566666667, "rental_uris": {"ios": "https://dc.lft.to/lastmile_qr_scan", "android": "https://dc.lft.to/lastmile_qr_scan"}, "is_reserved": 0, "fusion_lon": 0.0, "fusion_lat": 0.0, "lon": -77.02963083333333, "name": "5eb1b831d1b3b34dac262c28504e16f0"}, {"bike_id": "a54f973ba7d3ba189ba4737d953956ac", "type": "electric_scooter", "is_disabled": 0, "lat": 38.915760666666664, "rental_uris": {"ios": "https://dc.lft.to/lastmile_qr_scan", "android": "https://dc.lft.to/lastmile_qr_scan"}, "is_reserved": 0, "fusion_lon": 0.0, "fusion_lat": 0.0, "lon": -77.02000033333333, "name": "a54f973ba7d3ba189ba4737d953956ac"}, {"bike_id": "f2f604c9d26b5d2869b90461a585db36", "type": "electric_scooter", "is_disabled": 0, "lat": 38.9157845, "rental_uris": {"ios": "https://dc.lft.to/lastmile_qr_scan", "android": "https://dc.lft.to/lastmile_qr_scan"}, "is_reserved": 0, "fusion_lon": 0.0, "fusion_lat": 0.0, "lon": -77.020571, "name": "f2f604c9d26b5d2869b90461a585db36"}, {"bike_id": "b2a48f935a0ceb8114ba217e434eefd9", "type": "electric_scooter", "is_disabled": 0, "lat": 38.906844666666665, "rental_uris": {"ios": "https://dc.lft.to/lastmile_qr_scan", "android": "https://dc.lft.to/lastmile_qr_scan"}, "is_reserved": 0, "fusion_lon": 0.0, "fusion_lat": 0.0, "lon": -77.02694333333334, "name": "b2a48f935a0ceb8114ba217e434eefd9"}, {"bike_id": "e80ff5c1a9c3b529e14933cf11f9de06", "type": "electric_scooter", "is_disabled": 0, "lat": 38.895416166666664, "rental_uris": {"ios": "https://dc.lft.to/lastmile_qr_scan", "android": "https://dc.lft.to/lastmile_qr_scan"}, "is_reserved": 0, "fusion_lon": 0.0, "fusion_lat": 0.0, "lon": -77.01115833333333, "name": "e80ff5c1a9c3b529e14933cf11f9de06"}, {"bike_id": "0f14e57d9a8a8eb2a2c96d1ced475869", "type": "electric_scooter", "is_disabled": 0, "lat": 38.9112015, "rental_uris": {"ios": "https://dc.lft.to/lastmile_qr_scan", "android": "https://dc.lft.to/lastmile_qr_scan"}, "is_reserved": 0, "fusion_lon": 0.0, "fusion_lat": 0.0, "lon": -77.04475666666667, "name": "0f14e57d9a8a8eb2a2c96d1ced475869"}, {"bike_id": "057e33fa4dd67f2ef7be1bd7bb73352a", "type": "electric_scooter", "is_disabled": 0, "lat": 38.90164933333333, "rental_uris": {"ios": "https://dc.lft.to/lastmile_qr_scan", "android": "https://dc.lft.to/lastmile_qr_scan"}, "is_reserved": 0, "fusion_lon": 0.0, "fusion_lat": 0.0, "lon": -77.059087, "name": "057e33fa4dd67f2ef7be1bd7bb73352a"}, {"bike_id": "afb3c09eed5d6051cf542648567d129f", "type": "electric_scooter", "is_disabled": 0, "lat": 38.902461333333335, "rental_uris": {"ios": "https://dc.lft.to/lastmile_qr_scan", "android": "https://dc.lft.to/lastmile_qr_scan"}, "is_reserved": 0, "fusion_lon": 0.0, "fusion_lat": 0.0, "lon": -77.04607583333333, "name": "afb3c09eed5d6051cf542648567d129f"}, {"bike_id": "e579a6c6ff6d9aba2fc0937b8fa4bde7", "type": "electric_scooter", "is_disabled": 0, "lat": 38.917661333333335, "rental_uris": {"ios": "https://dc.lft.to/lastmile_qr_scan", "android": "https://dc.lft.to/lastmile_qr_scan"}, "is_reserved": 0, "fusion_lon": 0.0, "fusion_lat": 0.0, "lon": -77.04767933333333, "name": "e579a6c6ff6d9aba2fc0937b8fa4bde7"}, {"bike_id": "cc7b6ad38d1cc732a6453f843f3db53e", "type": "electric_bike", "is_disabled": 0, "lat": 38.91648583333333, "rental_uris": {"ios": "https://dc.lft.to/lastmile_qr_scan", "android": "https://dc.lft.to/lastmile_qr_scan"}, "is_reserved": 0, "fusion_lon": 0.0, "fusion_lat": 0.0, "lon": -77.02296566666666, "name": "cc7b6ad38d1cc732a6453f843f3db53e"}, {"bike_id": "486a590c330b8ea1c9d1c35445d33295", "type": "electric_scooter", "is_disabled": 0, "lat": 38.90306733333333, "rental_uris": {"ios": "https://dc.lft.to/lastmile_qr_scan", "android": "https://dc.lft.to/lastmile_qr_scan"}, "is_reserved": 0, "fusion_lon": 0.0, "fusion_lat": 0.0, "lon": -77.0236625, "name": "486a590c330b8ea1c9d1c35445d33295"}, {"bike_id": "86422e9e63ff330dbbf322634871797c", "type": "electric_scooter", "is_disabled": 0, "lat": 38.8961385, "rental_uris": {"ios": "https://dc.lft.to/lastmile_qr_scan", "android": "https://dc.lft.to/lastmile_qr_scan"}, "is_reserved": 0, "fusion_lon": 0.0, "fusion_lat": 0.0, "lon": -76.98164133333333, "name": "86422e9e63ff330dbbf322634871797c"}, {"bike_id": "f8eb200e8092f6ecd4a48203464f1af5", "type": "electric_scooter", "is_disabled": 0, "lat": 38.913504333333336, "rental_uris": {"ios": "https://dc.lft.to/lastmile_qr_scan", "android": "https://dc.lft.to/lastmile_qr_scan"}, "is_reserved": 0, "fusion_lon": 0.0, "fusion_lat": 0.0, "lon": -77.02588533333333, "name": "f8eb200e8092f6ecd4a48203464f1af5"}, {"bike_id": "84a27d5ba3fcea31d9a4c3854ed020b4", "type": "electric_scooter", "is_disabled": 0, "lat": 38.902755666666664, "rental_uris": {"ios": "https://dc.lft.to/lastmile_qr_scan", "android": "https://dc.lft.to/lastmile_qr_scan"}, "is_reserved": 0, "fusion_lon": 0.0, "fusion_lat": 0.0, "lon": -77.01906866666667, "name": "84a27d5ba3fcea31d9a4c3854ed020b4"}, {"bike_id": "0984aea38d9a8ae5f189bdcd1ab3ec8e", "type": "electric_scooter", "is_disabled": 0, "lat": 38.92275816666667, "rental_uris": {"ios": "https://dc.lft.to/lastmile_qr_scan", "android": "https://dc.lft.to/lastmile_qr_scan"}, "is_reserved": 0, "fusion_lon": 0.0, "fusion_lat": 0.0, "lon": -77.04289133333333, "name": "0984aea38d9a8ae5f189bdcd1ab3ec8e"}, {"bike_id": "fa57daa29074125d09a0fe351397798f", "type": "electric_scooter", "is_disabled": 0, "lat": 38.964209333333336, "rental_uris": {"ios": "https://dc.lft.to/lastmile_qr_scan", "android": "https://dc.lft.to/lastmile_qr_scan"}, "is_reserved": 0, "fusion_lon": 0.0, "fusion_lat": 0.0, "lon": -77.024262, "name": "fa57daa29074125d09a0fe351397798f"}, {"bike_id": "8c295775b619a6ce24a30e1013ff93ce", "type": "electric_scooter", "is_disabled": 0, "lat": 38.918240833333336, "rental_uris": {"ios": "https://dc.lft.to/lastmile_qr_scan", "android": "https://dc.lft.to/lastmile_qr_scan"}, "is_reserved": 0, "fusion_lon": 0.0, "fusion_lat": 0.0, "lon": -77.04943866666666, "name": "8c295775b619a6ce24a30e1013ff93ce"}, {"bike_id": "f00bb14176ad1bc662ae9417b9700ee9", "type": "electric_scooter", "is_disabled": 0, "lat": 38.922165, "rental_uris": {"ios": "https://dc.lft.to/lastmile_qr_scan", "android": "https://dc.lft.to/lastmile_qr_scan"}, "is_reserved": 0, "fusion_lon": 0.0, "fusion_lat": 0.0, "lon": -77.0329275, "name": "f00bb14176ad1bc662ae9417b9700ee9"}, {"bike_id": "6dd885de27421adc15c0aedf8163058b", "type": "electric_scooter", "is_disabled": 0, "lat": 38.917811666666665, "rental_uris": {"ios": "https://dc.lft.to/lastmile_qr_scan", "android": "https://dc.lft.to/lastmile_qr_scan"}, "is_reserved": 0, "fusion_lon": 0.0, "fusion_lat": 0.0, "lon": -77.04408316666667, "name": "6dd885de27421adc15c0aedf8163058b"}, {"bike_id": "615c03433c55e0e7fdb9dadde3ce22c0", "type": "electric_scooter", "is_disabled": 0, "lat": 38.905604333333336, "rental_uris": {"ios": "https://dc.lft.to/lastmile_qr_scan", "android": "https://dc.lft.to/lastmile_qr_scan"}, "is_reserved": 0, "fusion_lon": 0.0, "fusion_lat": 0.0, "lon": -77.03822283333334, "name": "615c03433c55e0e7fdb9dadde3ce22c0"}, {"bike_id": "45efd6f7ea86efe181179d7a8b1d0bb8", "type": "electric_scooter", "is_disabled": 0, "lat": 38.919197833333335, "rental_uris": {"ios": "https://dc.lft.to/lastmile_qr_scan", "android": "https://dc.lft.to/lastmile_qr_scan"}, "is_reserved": 0, "fusion_lon": 0.0, "fusion_lat": 0.0, "lon": -77.0336605, "name": "45efd6f7ea86efe181179d7a8b1d0bb8"}, {"bike_id": "abfc30c770d4958b77eaaf8d32b0d42d", "type": "electric_scooter", "is_disabled": 0, "lat": 38.902074999999996, "rental_uris": {"ios": "https://dc.lft.to/lastmile_qr_scan", "android": "https://dc.lft.to/lastmile_qr_scan"}, "is_reserved": 0, "fusion_lon": 0.0, "fusion_lat": 0.0, "lon": -76.99272316666666, "name": "abfc30c770d4958b77eaaf8d32b0d42d"}, {"bike_id": "3e28b273f053733cb53e67bb4c115ade", "type": "electric_scooter", "is_disabled": 0, "lat": 38.862095333333336, "rental_uris": {"ios": "https://dc.lft.to/lastmile_qr_scan", "android": "https://dc.lft.to/lastmile_qr_scan"}, "is_reserved": 0, "fusion_lon": 0.0, "fusion_lat": 0.0, "lon": -76.9950305, "name": "3e28b273f053733cb53e67bb4c115ade"}, {"bike_id": "60cef10bf91598f0100ee58a29abba43", "type": "electric_scooter", "is_disabled": 0, "lat": 38.91521633333333, "rental_uris": {"ios": "https://dc.lft.to/lastmile_qr_scan", "android": "https://dc.lft.to/lastmile_qr_scan"}, "is_reserved": 0, "fusion_lon": 0.0, "fusion_lat": 0.0, "lon": -77.01224466666666, "name": "60cef10bf91598f0100ee58a29abba43"}, {"bike_id": "174a4bf4ff4f6e7261f0cd3b07a02f5f", "type": "electric_bike", "is_disabled": 0, "lat": 38.897453, "rental_uris": {"ios": "https://dc.lft.to/lastmile_qr_scan", "android": "https://dc.lft.to/lastmile_qr_scan"}, "is_reserved": 0, "fusion_lon": 0.0, "fusion_lat": 0.0, "lon": -76.92047766666667, "name": "174a4bf4ff4f6e7261f0cd3b07a02f5f"}, {"bike_id": "2f45a77beec31c05f69b26323c2f57e1", "type": "electric_scooter", "is_disabled": 0, "lat": 38.891939, "rental_uris": {"ios": "https://dc.lft.to/lastmile_qr_scan", "android": "https://dc.lft.to/lastmile_qr_scan"}, "is_reserved": 0, "fusion_lon": 0.0, "fusion_lat": 0.0, "lon": -77.02981133333333, "name": "2f45a77beec31c05f69b26323c2f57e1"}, {"bike_id": "fa21b686d9a729f9e6902817bf2598d0", "type": "electric_scooter", "is_disabled": 0, "lat": 38.9059205, "rental_uris": {"ios": "https://dc.lft.to/lastmile_qr_scan", "android": "https://dc.lft.to/lastmile_qr_scan"}, "is_reserved": 0, "fusion_lon": 0.0, "fusion_lat": 0.0, "lon": -77.07012366666666, "name": "fa21b686d9a729f9e6902817bf2598d0"}, {"bike_id": "658f224293d802f0ec6802df450b1f75", "type": "electric_scooter", "is_disabled": 0, "lat": 38.919317, "rental_uris": {"ios": "https://dc.lft.to/lastmile_qr_scan", "android": "https://dc.lft.to/lastmile_qr_scan"}, "is_reserved": 0, "fusion_lon": 0.0, "fusion_lat": 0.0, "lon": -77.04623033333333, "name": "658f224293d802f0ec6802df450b1f75"}, {"bike_id": "1d3b70b53384d34236d6b90c4295fe7e", "type": "electric_scooter", "is_disabled": 0, "lat": 38.9158495, "rental_uris": {"ios": "https://dc.lft.to/lastmile_qr_scan", "android": "https://dc.lft.to/lastmile_qr_scan"}, "is_reserved": 0, "fusion_lon": 0.0, "fusion_lat": 0.0, "lon": -77.04480966666667, "name": "1d3b70b53384d34236d6b90c4295fe7e"}, {"bike_id": "76fd6c84dc7cb9c8103563a7ec249005", "type": "electric_scooter", "is_disabled": 0, "lat": 38.89840783333333, "rental_uris": {"ios": "https://dc.lft.to/lastmile_qr_scan", "android": "https://dc.lft.to/lastmile_qr_scan"}, "is_reserved": 0, "fusion_lon": 0.0, "fusion_lat": 0.0, "lon": -77.04081183333334, "name": "76fd6c84dc7cb9c8103563a7ec249005"}, {"bike_id": "e2611d70837704aa4a5f0255067ca74e", "type": "electric_bike", "is_disabled": 0, "lat": 38.96960983333334, "rental_uris": {"ios": "https://dc.lft.to/lastmile_qr_scan", "android": "https://dc.lft.to/lastmile_qr_scan"}, "is_reserved": 0, "fusion_lon": 0.0, "fusion_lat": 0.0, "lon": -76.957497, "name": "e2611d70837704aa4a5f0255067ca74e"}, {"bike_id": "0601a27f36ed28c8d9df16ee39772bb2", "type": "electric_scooter", "is_disabled": 0, "lat": 38.935455833333336, "rental_uris": {"ios": "https://dc.lft.to/lastmile_qr_scan", "android": "https://dc.lft.to/lastmile_qr_scan"}, "is_reserved": 0, "fusion_lon": 0.0, "fusion_lat": 0.0, "lon": -77.05857983333334, "name": "0601a27f36ed28c8d9df16ee39772bb2"}, {"bike_id": "5a0ea0d072a9948a7d9429093fc7ecd6", "type": "electric_scooter", "is_disabled": 0, "lat": 38.882993, "rental_uris": {"ios": "https://dc.lft.to/lastmile_qr_scan", "android": "https://dc.lft.to/lastmile_qr_scan"}, "is_reserved": 0, "fusion_lon": 0.0, "fusion_lat": 0.0, "lon": -76.948548, "name": "5a0ea0d072a9948a7d9429093fc7ecd6"}, {"bike_id": "fe9f04c47bd7aed630fea7f1d24d42ff", "type": "electric_scooter", "is_disabled": 0, "lat": 38.924708333333335, "rental_uris": {"ios": "https://dc.lft.to/lastmile_qr_scan", "android": "https://dc.lft.to/lastmile_qr_scan"}, "is_reserved": 0, "fusion_lon": 0.0, "fusion_lat": 0.0, "lon": -77.028327, "name": "fe9f04c47bd7aed630fea7f1d24d42ff"}, {"bike_id": "81b638c152f07140120cacd9e91c5268", "type": "electric_scooter", "is_disabled": 0, "lat": 38.9024065, "rental_uris": {"ios": "https://dc.lft.to/lastmile_qr_scan", "android": "https://dc.lft.to/lastmile_qr_scan"}, "is_reserved": 0, "fusion_lon": 0.0, "fusion_lat": 0.0, "lon": -77.00207266666666, "name": "81b638c152f07140120cacd9e91c5268"}, {"bike_id": "ef7b7739d432114e585b84a13e7c014d", "type": "electric_scooter", "is_disabled": 0, "lat": 38.930435333333335, "rental_uris": {"ios": "https://dc.lft.to/lastmile_qr_scan", "android": "https://dc.lft.to/lastmile_qr_scan"}, "is_reserved": 0, "fusion_lon": 0.0, "fusion_lat": 0.0, "lon": -77.03218883333334, "name": "ef7b7739d432114e585b84a13e7c014d"}, {"bike_id": "3cad824a57ed554f88115871accc6271", "type": "electric_scooter", "is_disabled": 0, "lat": 38.864688666666666, "rental_uris": {"ios": "https://dc.lft.to/lastmile_qr_scan", "android": "https://dc.lft.to/lastmile_qr_scan"}, "is_reserved": 0, "fusion_lon": 0.0, "fusion_lat": 0.0, "lon": -76.97745033333334, "name": "3cad824a57ed554f88115871accc6271"}, {"bike_id": "e0edb8ba0c4aa339772934abe088caec", "type": "electric_scooter", "is_disabled": 0, "lat": 38.91282133333333, "rental_uris": {"ios": "https://dc.lft.to/lastmile_qr_scan", "android": "https://dc.lft.to/lastmile_qr_scan"}, "is_reserved": 0, "fusion_lon": 0.0, "fusion_lat": 0.0, "lon": -77.02717716666666, "name": "e0edb8ba0c4aa339772934abe088caec"}, {"bike_id": "778cf523d9c0d7993479b73f8f7e0b1d", "type": "electric_scooter", "is_disabled": 0, "lat": 38.917375166666666, "rental_uris": {"ios": "https://dc.lft.to/lastmile_qr_scan", "android": "https://dc.lft.to/lastmile_qr_scan"}, "is_reserved": 0, "fusion_lon": 0.0, "fusion_lat": 0.0, "lon": -77.04071983333333, "name": "778cf523d9c0d7993479b73f8f7e0b1d"}, {"bike_id": "b72b1f0c90a27eca41c5c67b73e12830", "type": "electric_scooter", "is_disabled": 0, "lat": 38.908649, "rental_uris": {"ios": "https://dc.lft.to/lastmile_qr_scan", "android": "https://dc.lft.to/lastmile_qr_scan"}, "is_reserved": 0, "fusion_lon": 0.0, "fusion_lat": 0.0, "lon": -77.03183966666667, "name": "b72b1f0c90a27eca41c5c67b73e12830"}, {"bike_id": "8573817fbc57decc6a45ebd3a3bf21e9", "type": "electric_scooter", "is_disabled": 0, "lat": 38.831008833333335, "rental_uris": {"ios": "https://dc.lft.to/lastmile_qr_scan", "android": "https://dc.lft.to/lastmile_qr_scan"}, "is_reserved": 0, "fusion_lon": 0.0, "fusion_lat": 0.0, "lon": -77.05160533333333, "name": "8573817fbc57decc6a45ebd3a3bf21e9"}, {"bike_id": "1afe5aecfe4a52b1665a9d4b30ac219f", "type": "electric_bike", "is_disabled": 0, "lat": 38.996140833333335, "rental_uris": {"ios": "https://dc.lft.to/lastmile_qr_scan", "android": "https://dc.lft.to/lastmile_qr_scan"}, "is_reserved": 0, "fusion_lon": 0.0, "fusion_lat": 0.0, "lon": -77.026753, "name": "1afe5aecfe4a52b1665a9d4b30ac219f"}, {"bike_id": "e08d48831dfe94f949e1b3a171ce8edf", "type": "electric_scooter", "is_disabled": 0, "lat": 38.91410916666667, "rental_uris": {"ios": "https://dc.lft.to/lastmile_qr_scan", "android": "https://dc.lft.to/lastmile_qr_scan"}, "is_reserved": 0, "fusion_lon": 0.0, "fusion_lat": 0.0, "lon": -77.02114683333333, "name": "e08d48831dfe94f949e1b3a171ce8edf"}, {"bike_id": "3a042364de21dfa58df0102c3875bc15", "type": "electric_bike", "is_disabled": 0, "lat": 38.91533366666667, "rental_uris": {"ios": "https://dc.lft.to/lastmile_qr_scan", "android": "https://dc.lft.to/lastmile_qr_scan"}, "is_reserved": 0, "fusion_lon": 0.0, "fusion_lat": 0.0, "lon": -77.04686133333334, "name": "3a042364de21dfa58df0102c3875bc15"}, {"bike_id": "c22a7438acf777d1474bf4f8853c4204", "type": "electric_scooter", "is_disabled": 0, "lat": 38.867343, "rental_uris": {"ios": "https://dc.lft.to/lastmile_qr_scan", "android": "https://dc.lft.to/lastmile_qr_scan"}, "is_reserved": 0, "fusion_lon": 0.0, "fusion_lat": 0.0, "lon": -76.97859516666666, "name": "c22a7438acf777d1474bf4f8853c4204"}, {"bike_id": "d15a2376f44ad767f1754870e6d1bcf4", "type": "electric_scooter", "is_disabled": 0, "lat": 38.9073405, "rental_uris": {"ios": "https://dc.lft.to/lastmile_qr_scan", "android": "https://dc.lft.to/lastmile_qr_scan"}, "is_reserved": 0, "fusion_lon": 0.0, "fusion_lat": 0.0, "lon": -76.97969033333334, "name": "d15a2376f44ad767f1754870e6d1bcf4"}, {"bike_id": "fc8f6effeba9717cda263f62d3f373d5", "type": "electric_scooter", "is_disabled": 0, "lat": 38.912544833333335, "rental_uris": {"ios": "https://dc.lft.to/lastmile_qr_scan", "android": "https://dc.lft.to/lastmile_qr_scan"}, "is_reserved": 0, "fusion_lon": 0.0, "fusion_lat": 0.0, "lon": -77.02235133333333, "name": "fc8f6effeba9717cda263f62d3f373d5"}, {"bike_id": "7804999697dabe475b08a11901d76d67", "type": "electric_scooter", "is_disabled": 0, "lat": 38.917837, "rental_uris": {"ios": "https://dc.lft.to/lastmile_qr_scan", "android": "https://dc.lft.to/lastmile_qr_scan"}, "is_reserved": 0, "fusion_lon": 0.0, "fusion_lat": 0.0, "lon": -77.0345245, "name": "7804999697dabe475b08a11901d76d67"}, {"bike_id": "7a4a01dd4a1a03cb4cd412cd70d02769", "type": "electric_scooter", "is_disabled": 0, "lat": 38.907556166666666, "rental_uris": {"ios": "https://dc.lft.to/lastmile_qr_scan", "android": "https://dc.lft.to/lastmile_qr_scan"}, "is_reserved": 0, "fusion_lon": 0.0, "fusion_lat": 0.0, "lon": -77.03197383333334, "name": "7a4a01dd4a1a03cb4cd412cd70d02769"}, {"bike_id": "5a2f69f80563763bab5b2ea2e0c93f45", "type": "electric_scooter", "is_disabled": 0, "lat": 38.942689, "rental_uris": {"ios": "https://dc.lft.to/lastmile_qr_scan", "android": "https://dc.lft.to/lastmile_qr_scan"}, "is_reserved": 0, "fusion_lon": 0.0, "fusion_lat": 0.0, "lon": -77.032575, "name": "5a2f69f80563763bab5b2ea2e0c93f45"}, {"bike_id": "a874430310054358c43592e665ebc9a5", "type": "electric_scooter", "is_disabled": 0, "lat": 38.878664666666666, "rental_uris": {"ios": "https://dc.lft.to/lastmile_qr_scan", "android": "https://dc.lft.to/lastmile_qr_scan"}, "is_reserved": 0, "fusion_lon": 0.0, "fusion_lat": 0.0, "lon": -76.96982433333334, "name": "a874430310054358c43592e665ebc9a5"}, {"bike_id": "c7956dd08d53a685ac814869a8828880", "type": "electric_scooter", "is_disabled": 0, "lat": 38.95485266666667, "rental_uris": {"ios": "https://dc.lft.to/lastmile_qr_scan", "android": "https://dc.lft.to/lastmile_qr_scan"}, "is_reserved": 0, "fusion_lon": 0.0, "fusion_lat": 0.0, "lon": -77.08218733333334, "name": "c7956dd08d53a685ac814869a8828880"}, {"bike_id": "f8f2604349d1245003ab4e345ef06410", "type": "electric_scooter", "is_disabled": 0, "lat": 38.890057, "rental_uris": {"ios": "https://dc.lft.to/lastmile_qr_scan", "android": "https://dc.lft.to/lastmile_qr_scan"}, "is_reserved": 0, "fusion_lon": 0.0, "fusion_lat": 0.0, "lon": -76.93741783333333, "name": "f8f2604349d1245003ab4e345ef06410"}, {"bike_id": "1729078c6471861a287c978a919cb063", "type": "electric_scooter", "is_disabled": 0, "lat": 38.895366833333334, "rental_uris": {"ios": "https://dc.lft.to/lastmile_qr_scan", "android": "https://dc.lft.to/lastmile_qr_scan"}, "is_reserved": 0, "fusion_lon": 0.0, "fusion_lat": 0.0, "lon": -77.01114666666666, "name": "1729078c6471861a287c978a919cb063"}, {"bike_id": "1a4985757a1cb08bad5b72c10dfdb600", "type": "electric_bike", "is_disabled": 0, "lat": 38.89736533333333, "rental_uris": {"ios": "https://dc.lft.to/lastmile_qr_scan", "android": "https://dc.lft.to/lastmile_qr_scan"}, "is_reserved": 0, "fusion_lon": 0.0, "fusion_lat": 0.0, "lon": -76.9921565, "name": "1a4985757a1cb08bad5b72c10dfdb600"}, {"bike_id": "2fae6a3d344af262ca3bf1ad83a61e63", "type": "electric_scooter", "is_disabled": 0, "lat": 38.874205, "rental_uris": {"ios": "https://dc.lft.to/lastmile_qr_scan", "android": "https://dc.lft.to/lastmile_qr_scan"}, "is_reserved": 0, "fusion_lon": 0.0, "fusion_lat": 0.0, "lon": -76.96907016666667, "name": "2fae6a3d344af262ca3bf1ad83a61e63"}, {"bike_id": "7f6c20c3fec440e0d8b17ba45fdd0c24", "type": "electric_scooter", "is_disabled": 0, "lat": 38.863722333333335, "rental_uris": {"ios": "https://dc.lft.to/lastmile_qr_scan", "android": "https://dc.lft.to/lastmile_qr_scan"}, "is_reserved": 0, "fusion_lon": 0.0, "fusion_lat": 0.0, "lon": -76.99058333333333, "name": "7f6c20c3fec440e0d8b17ba45fdd0c24"}, {"bike_id": "ef258f91337f94afa425deae095adb6a", "type": "electric_scooter", "is_disabled": 0, "lat": 38.9077825, "rental_uris": {"ios": "https://dc.lft.to/lastmile_qr_scan", "android": "https://dc.lft.to/lastmile_qr_scan"}, "is_reserved": 0, "fusion_lon": 0.0, "fusion_lat": 0.0, "lon": -77.04510233333333, "name": "ef258f91337f94afa425deae095adb6a"}, {"bike_id": "1725fad293eeaee4a07a36ca9a3a4a2a", "type": "electric_scooter", "is_disabled": 0, "lat": 38.931158333333336, "rental_uris": {"ios": "https://dc.lft.to/lastmile_qr_scan", "android": "https://dc.lft.to/lastmile_qr_scan"}, "is_reserved": 0, "fusion_lon": 0.0, "fusion_lat": 0.0, "lon": -77.032819, "name": "1725fad293eeaee4a07a36ca9a3a4a2a"}, {"bike_id": "513182a728f5eb95912136d5ca7d06d8", "type": "electric_scooter", "is_disabled": 0, "lat": 38.93208583333333, "rental_uris": {"ios": "https://dc.lft.to/lastmile_qr_scan", "android": "https://dc.lft.to/lastmile_qr_scan"}, "is_reserved": 0, "fusion_lon": 0.0, "fusion_lat": 0.0, "lon": -77.036674, "name": "513182a728f5eb95912136d5ca7d06d8"}, {"bike_id": "d167987cb9577adb85b3c6a3b4bc1b0e", "type": "electric_bike", "is_disabled": 0, "lat": 38.859387, "rental_uris": {"ios": "https://dc.lft.to/lastmile_qr_scan", "android": "https://dc.lft.to/lastmile_qr_scan"}, "is_reserved": 0, "fusion_lon": 0.0, "fusion_lat": 0.0, "lon": -77.1182905, "name": "d167987cb9577adb85b3c6a3b4bc1b0e"}, {"bike_id": "bf8275e06fb291ba4c566108c35dd33a", "type": "electric_scooter", "is_disabled": 0, "lat": 38.922314166666666, "rental_uris": {"ios": "https://dc.lft.to/lastmile_qr_scan", "android": "https://dc.lft.to/lastmile_qr_scan"}, "is_reserved": 0, "fusion_lon": 0.0, "fusion_lat": 0.0, "lon": -77.04711516666667, "name": "bf8275e06fb291ba4c566108c35dd33a"}, {"bike_id": "ea25d30b7ef8fb7b25605912f1526341", "type": "electric_bike", "is_disabled": 0, "lat": 38.8236825, "rental_uris": {"ios": "https://dc.lft.to/lastmile_qr_scan", "android": "https://dc.lft.to/lastmile_qr_scan"}, "is_reserved": 0, "fusion_lon": 0.0, "fusion_lat": 0.0, "lon": -77.00218966666667, "name": "ea25d30b7ef8fb7b25605912f1526341"}, {"bike_id": "4f3bf74953041275d56a976717a40646", "type": "electric_bike", "is_disabled": 0, "lat": 38.898143, "rental_uris": {"ios": "https://dc.lft.to/lastmile_qr_scan", "android": "https://dc.lft.to/lastmile_qr_scan"}, "is_reserved": 0, "fusion_lon": 0.0, "fusion_lat": 0.0, "lon": -76.99068583333333, "name": "4f3bf74953041275d56a976717a40646"}, {"bike_id": "857db88d7007078a6b35554113be9fed", "type": "electric_scooter", "is_disabled": 0, "lat": 38.90591933333333, "rental_uris": {"ios": "https://dc.lft.to/lastmile_qr_scan", "android": "https://dc.lft.to/lastmile_qr_scan"}, "is_reserved": 0, "fusion_lon": 0.0, "fusion_lat": 0.0, "lon": -77.06803933333333, "name": "857db88d7007078a6b35554113be9fed"}, {"bike_id": "37c1b278671c6e58566b85285d95c9f5", "type": "electric_bike", "is_disabled": 0, "lat": 38.870840333333334, "rental_uris": {"ios": "https://dc.lft.to/lastmile_qr_scan", "android": "https://dc.lft.to/lastmile_qr_scan"}, "is_reserved": 0, "fusion_lon": 0.0, "fusion_lat": 0.0, "lon": -77.0120905, "name": "37c1b278671c6e58566b85285d95c9f5"}, {"bike_id": "2e34aa90e799a1154bb8812b94bad1a6", "type": "electric_scooter", "is_disabled": 0, "lat": 38.918787, "rental_uris": {"ios": "https://dc.lft.to/lastmile_qr_scan", "android": "https://dc.lft.to/lastmile_qr_scan"}, "is_reserved": 0, "fusion_lon": 0.0, "fusion_lat": 0.0, "lon": -77.034758, "name": "2e34aa90e799a1154bb8812b94bad1a6"}, {"bike_id": "86126e98f186bbacc7cade16c2df8bc5", "type": "electric_scooter", "is_disabled": 0, "lat": 38.9033235, "rental_uris": {"ios": "https://dc.lft.to/lastmile_qr_scan", "android": "https://dc.lft.to/lastmile_qr_scan"}, "is_reserved": 0, "fusion_lon": 0.0, "fusion_lat": 0.0, "lon": -76.9828765, "name": "86126e98f186bbacc7cade16c2df8bc5"}, {"bike_id": "bf4cb31ce2a2cf30d14ba0bf582bd544", "type": "electric_scooter", "is_disabled": 0, "lat": 38.91401966666667, "rental_uris": {"ios": "https://dc.lft.to/lastmile_qr_scan", "android": "https://dc.lft.to/lastmile_qr_scan"}, "is_reserved": 0, "fusion_lon": 0.0, "fusion_lat": 0.0, "lon": -77.03445616666667, "name": "bf4cb31ce2a2cf30d14ba0bf582bd544"}, {"bike_id": "e75fcc7ed28d6af952e55f271388c1b6", "type": "electric_scooter", "is_disabled": 0, "lat": 38.865049666666664, "rental_uris": {"ios": "https://dc.lft.to/lastmile_qr_scan", "android": "https://dc.lft.to/lastmile_qr_scan"}, "is_reserved": 0, "fusion_lon": 0.0, "fusion_lat": 0.0, "lon": -76.99001416666667, "name": "e75fcc7ed28d6af952e55f271388c1b6"}, {"bike_id": "81de1bd66e160900a5d79950aa70a955", "type": "electric_bike", "is_disabled": 0, "lat": 38.80761566666666, "rental_uris": {"ios": "https://dc.lft.to/lastmile_qr_scan", "android": "https://dc.lft.to/lastmile_qr_scan"}, "is_reserved": 0, "fusion_lon": 0.0, "fusion_lat": 0.0, "lon": -77.094706, "name": "81de1bd66e160900a5d79950aa70a955"}, {"bike_id": "bdb8f50250d5a36062da70bfbf194255", "type": "electric_scooter", "is_disabled": 0, "lat": 38.93579883333334, "rental_uris": {"ios": "https://dc.lft.to/lastmile_qr_scan", "android": "https://dc.lft.to/lastmile_qr_scan"}, "is_reserved": 0, "fusion_lon": 0.0, "fusion_lat": 0.0, "lon": -77.03359116666667, "name": "bdb8f50250d5a36062da70bfbf194255"}, {"bike_id": "5bf29e5a1f969cbea0fabc3555d990d3", "type": "electric_scooter", "is_disabled": 0, "lat": 38.923214333333334, "rental_uris": {"ios": "https://dc.lft.to/lastmile_qr_scan", "android": "https://dc.lft.to/lastmile_qr_scan"}, "is_reserved": 0, "fusion_lon": 0.0, "fusion_lat": 0.0, "lon": -77.0404335, "name": "5bf29e5a1f969cbea0fabc3555d990d3"}, {"bike_id": "6ebedac0d37c8baf4f422110a5c59ee3", "type": "electric_bike", "is_disabled": 0, "lat": 38.99345233333333, "rental_uris": {"ios": "https://dc.lft.to/lastmile_qr_scan", "android": "https://dc.lft.to/lastmile_qr_scan"}, "is_reserved": 0, "fusion_lon": 0.0, "fusion_lat": 0.0, "lon": -77.1157315, "name": "6ebedac0d37c8baf4f422110a5c59ee3"}, {"bike_id": "1116c88dceb76f840496bf736b39c9ce", "type": "electric_scooter", "is_disabled": 0, "lat": 38.920890166666666, "rental_uris": {"ios": "https://dc.lft.to/lastmile_qr_scan", "android": "https://dc.lft.to/lastmile_qr_scan"}, "is_reserved": 0, "fusion_lon": 0.0, "fusion_lat": 0.0, "lon": -77.02404033333333, "name": "1116c88dceb76f840496bf736b39c9ce"}, {"bike_id": "e6bebc6ca37ddf477697e5ea2484084f", "type": "electric_scooter", "is_disabled": 0, "lat": 38.916169333333336, "rental_uris": {"ios": "https://dc.lft.to/lastmile_qr_scan", "android": "https://dc.lft.to/lastmile_qr_scan"}, "is_reserved": 0, "fusion_lon": 0.0, "fusion_lat": 0.0, "lon": -77.03387233333333, "name": "e6bebc6ca37ddf477697e5ea2484084f"}, {"bike_id": "0cd503a8f0c05133415d99a3083c74bc", "type": "electric_scooter", "is_disabled": 0, "lat": 38.8780825, "rental_uris": {"ios": "https://dc.lft.to/lastmile_qr_scan", "android": "https://dc.lft.to/lastmile_qr_scan"}, "is_reserved": 0, "fusion_lon": 0.0, "fusion_lat": 0.0, "lon": -77.01758433333333, "name": "0cd503a8f0c05133415d99a3083c74bc"}, {"bike_id": "b49c437242dd9c15219e4cdeb50cf1b0", "type": "electric_scooter", "is_disabled": 0, "lat": 38.90233283333333, "rental_uris": {"ios": "https://dc.lft.to/lastmile_qr_scan", "android": "https://dc.lft.to/lastmile_qr_scan"}, "is_reserved": 0, "fusion_lon": 0.0, "fusion_lat": 0.0, "lon": -77.02588366666667, "name": "b49c437242dd9c15219e4cdeb50cf1b0"}, {"bike_id": "474b8a713c3e13b1c5e572a8c6b0fad5", "type": "electric_scooter", "is_disabled": 0, "lat": 38.89685083333333, "rental_uris": {"ios": "https://dc.lft.to/lastmile_qr_scan", "android": "https://dc.lft.to/lastmile_qr_scan"}, "is_reserved": 0, "fusion_lon": 0.0, "fusion_lat": 0.0, "lon": -77.023988, "name": "474b8a713c3e13b1c5e572a8c6b0fad5"}, {"bike_id": "5b118436ee0f433fc630996d4070ccdb", "type": "electric_scooter", "is_disabled": 0, "lat": 38.92823816666667, "rental_uris": {"ios": "https://dc.lft.to/lastmile_qr_scan", "android": "https://dc.lft.to/lastmile_qr_scan"}, "is_reserved": 0, "fusion_lon": 0.0, "fusion_lat": 0.0, "lon": -77.0226, "name": "5b118436ee0f433fc630996d4070ccdb"}, {"bike_id": "e1a56f2a668263906d534821406bb41f", "type": "electric_scooter", "is_disabled": 0, "lat": 38.984342, "rental_uris": {"ios": "https://dc.lft.to/lastmile_qr_scan", "android": "https://dc.lft.to/lastmile_qr_scan"}, "is_reserved": 0, "fusion_lon": 0.0, "fusion_lat": 0.0, "lon": -77.02671633333334, "name": "e1a56f2a668263906d534821406bb41f"}, {"bike_id": "e9d304c87fde642dfacd57981067d0d9", "type": "electric_bike", "is_disabled": 0, "lat": 38.95633566666667, "rental_uris": {"ios": "https://dc.lft.to/lastmile_qr_scan", "android": "https://dc.lft.to/lastmile_qr_scan"}, "is_reserved": 0, "fusion_lon": 0.0, "fusion_lat": 0.0, "lon": -76.93870116666666, "name": "e9d304c87fde642dfacd57981067d0d9"}, {"bike_id": "56ec17e5f0d360719ce5a1694a37958d", "type": "electric_scooter", "is_disabled": 0, "lat": 38.90257316666667, "rental_uris": {"ios": "https://dc.lft.to/lastmile_qr_scan", "android": "https://dc.lft.to/lastmile_qr_scan"}, "is_reserved": 0, "fusion_lon": 0.0, "fusion_lat": 0.0, "lon": -77.04472066666666, "name": "56ec17e5f0d360719ce5a1694a37958d"}, {"bike_id": "87cffb10d6d4da9d5b80a27cb3663700", "type": "electric_scooter", "is_disabled": 0, "lat": 38.917677166666664, "rental_uris": {"ios": "https://dc.lft.to/lastmile_qr_scan", "android": "https://dc.lft.to/lastmile_qr_scan"}, "is_reserved": 0, "fusion_lon": 0.0, "fusion_lat": 0.0, "lon": -77.047711, "name": "87cffb10d6d4da9d5b80a27cb3663700"}, {"bike_id": "dc514008671f783564c1c84ec8fb7ace", "type": "electric_scooter", "is_disabled": 0, "lat": 38.92839083333333, "rental_uris": {"ios": "https://dc.lft.to/lastmile_qr_scan", "android": "https://dc.lft.to/lastmile_qr_scan"}, "is_reserved": 0, "fusion_lon": 0.0, "fusion_lat": 0.0, "lon": -77.05512833333333, "name": "dc514008671f783564c1c84ec8fb7ace"}, {"bike_id": "15c4711700e68d8d81674b67b6272b82", "type": "electric_scooter", "is_disabled": 0, "lat": 38.8985005, "rental_uris": {"ios": "https://dc.lft.to/lastmile_qr_scan", "android": "https://dc.lft.to/lastmile_qr_scan"}, "is_reserved": 0, "fusion_lon": 0.0, "fusion_lat": 0.0, "lon": -77.0394175, "name": "15c4711700e68d8d81674b67b6272b82"}, {"bike_id": "2fe56500144972087b729c0068a7326b", "type": "electric_scooter", "is_disabled": 0, "lat": 38.92014233333333, "rental_uris": {"ios": "https://dc.lft.to/lastmile_qr_scan", "android": "https://dc.lft.to/lastmile_qr_scan"}, "is_reserved": 0, "fusion_lon": 0.0, "fusion_lat": 0.0, "lon": -77.02527, "name": "2fe56500144972087b729c0068a7326b"}, {"bike_id": "6c88bc78e4956430a7af3b01d6e088e0", "type": "electric_scooter", "is_disabled": 0, "lat": 38.928358333333335, "rental_uris": {"ios": "https://dc.lft.to/lastmile_qr_scan", "android": "https://dc.lft.to/lastmile_qr_scan"}, "is_reserved": 0, "fusion_lon": 0.0, "fusion_lat": 0.0, "lon": -77.02323383333334, "name": "6c88bc78e4956430a7af3b01d6e088e0"}, {"bike_id": "11c2e26cd1cfd8ca36f1dcaff9feddfa", "type": "electric_bike", "is_disabled": 0, "lat": 38.940209, "rental_uris": {"ios": "https://dc.lft.to/lastmile_qr_scan", "android": "https://dc.lft.to/lastmile_qr_scan"}, "is_reserved": 0, "fusion_lon": 0.0, "fusion_lat": 0.0, "lon": -76.9760825, "name": "11c2e26cd1cfd8ca36f1dcaff9feddfa"}, {"bike_id": "92d277932a6f07d902ab7d80a3d8007a", "type": "electric_scooter", "is_disabled": 0, "lat": 38.870623, "rental_uris": {"ios": "https://dc.lft.to/lastmile_qr_scan", "android": "https://dc.lft.to/lastmile_qr_scan"}, "is_reserved": 0, "fusion_lon": 0.0, "fusion_lat": 0.0, "lon": -77.007493, "name": "92d277932a6f07d902ab7d80a3d8007a"}, {"bike_id": "01af8866367bf084809f0e53c58d9d68", "type": "electric_scooter", "is_disabled": 0, "lat": 38.863784833333334, "rental_uris": {"ios": "https://dc.lft.to/lastmile_qr_scan", "android": "https://dc.lft.to/lastmile_qr_scan"}, "is_reserved": 0, "fusion_lon": 0.0, "fusion_lat": 0.0, "lon": -76.99059516666667, "name": "01af8866367bf084809f0e53c58d9d68"}, {"bike_id": "fb868dde6090f3c9f4d9277df15d0d45", "type": "electric_scooter", "is_disabled": 0, "lat": 38.884186666666665, "rental_uris": {"ios": "https://dc.lft.to/lastmile_qr_scan", "android": "https://dc.lft.to/lastmile_qr_scan"}, "is_reserved": 0, "fusion_lon": 0.0, "fusion_lat": 0.0, "lon": -77.00744083333333, "name": "fb868dde6090f3c9f4d9277df15d0d45"}, {"bike_id": "a49c12e8dc357cb1c2d88c23ad1805c3", "type": "electric_scooter", "is_disabled": 0, "lat": 38.9211585, "rental_uris": {"ios": "https://dc.lft.to/lastmile_qr_scan", "android": "https://dc.lft.to/lastmile_qr_scan"}, "is_reserved": 0, "fusion_lon": 0.0, "fusion_lat": 0.0, "lon": -77.04207633333333, "name": "a49c12e8dc357cb1c2d88c23ad1805c3"}, {"bike_id": "b4a2c183e75a2a9a399dac4271f822ad", "type": "electric_scooter", "is_disabled": 0, "lat": 38.91693883333333, "rental_uris": {"ios": "https://dc.lft.to/lastmile_qr_scan", "android": "https://dc.lft.to/lastmile_qr_scan"}, "is_reserved": 0, "fusion_lon": 0.0, "fusion_lat": 0.0, "lon": -77.0259735, "name": "b4a2c183e75a2a9a399dac4271f822ad"}, {"bike_id": "bc5c4902c7b76d128ae859699598876b", "type": "electric_scooter", "is_disabled": 0, "lat": 38.911579, "rental_uris": {"ios": "https://dc.lft.to/lastmile_qr_scan", "android": "https://dc.lft.to/lastmile_qr_scan"}, "is_reserved": 0, "fusion_lon": 0.0, "fusion_lat": 0.0, "lon": -77.0237315, "name": "bc5c4902c7b76d128ae859699598876b"}, {"bike_id": "af2470a84c4c54c628246f93efb616a4", "type": "electric_scooter", "is_disabled": 0, "lat": 38.89591516666667, "rental_uris": {"ios": "https://dc.lft.to/lastmile_qr_scan", "android": "https://dc.lft.to/lastmile_qr_scan"}, "is_reserved": 0, "fusion_lon": 0.0, "fusion_lat": 0.0, "lon": -77.00503916666666, "name": "af2470a84c4c54c628246f93efb616a4"}, {"bike_id": "3e202784d04ae6b3c7b10eb1bf083ea3", "type": "electric_scooter", "is_disabled": 0, "lat": 38.942936333333336, "rental_uris": {"ios": "https://dc.lft.to/lastmile_qr_scan", "android": "https://dc.lft.to/lastmile_qr_scan"}, "is_reserved": 0, "fusion_lon": 0.0, "fusion_lat": 0.0, "lon": -77.021738, "name": "3e202784d04ae6b3c7b10eb1bf083ea3"}, {"bike_id": "7679d9f8879a23aa634e24e2873b7a76", "type": "electric_scooter", "is_disabled": 0, "lat": 38.91698433333333, "rental_uris": {"ios": "https://dc.lft.to/lastmile_qr_scan", "android": "https://dc.lft.to/lastmile_qr_scan"}, "is_reserved": 0, "fusion_lon": 0.0, "fusion_lat": 0.0, "lon": -77.0377195, "name": "7679d9f8879a23aa634e24e2873b7a76"}, {"bike_id": "7322a8d9fa703b71be5d43c71cfd4e5c", "type": "electric_scooter", "is_disabled": 0, "lat": 38.90671733333333, "rental_uris": {"ios": "https://dc.lft.to/lastmile_qr_scan", "android": "https://dc.lft.to/lastmile_qr_scan"}, "is_reserved": 0, "fusion_lon": 0.0, "fusion_lat": 0.0, "lon": -77.02712366666667, "name": "7322a8d9fa703b71be5d43c71cfd4e5c"}, {"bike_id": "ef6b582112f10c1a0d670240156cd119", "type": "electric_scooter", "is_disabled": 0, "lat": 38.89849316666667, "rental_uris": {"ios": "https://dc.lft.to/lastmile_qr_scan", "android": "https://dc.lft.to/lastmile_qr_scan"}, "is_reserved": 0, "fusion_lon": 0.0, "fusion_lat": 0.0, "lon": -77.039374, "name": "ef6b582112f10c1a0d670240156cd119"}, {"bike_id": "fb1d89005abed113a7dada5864035772", "type": "electric_scooter", "is_disabled": 0, "lat": 38.93696033333333, "rental_uris": {"ios": "https://dc.lft.to/lastmile_qr_scan", "android": "https://dc.lft.to/lastmile_qr_scan"}, "is_reserved": 0, "fusion_lon": 0.0, "fusion_lat": 0.0, "lon": -77.02430216666667, "name": "fb1d89005abed113a7dada5864035772"}, {"bike_id": "2f26a92b2147fdc23338e3d4f02501be", "type": "electric_scooter", "is_disabled": 0, "lat": 38.907725, "rental_uris": {"ios": "https://dc.lft.to/lastmile_qr_scan", "android": "https://dc.lft.to/lastmile_qr_scan"}, "is_reserved": 0, "fusion_lon": 0.0, "fusion_lat": 0.0, "lon": -77.07123383333334, "name": "2f26a92b2147fdc23338e3d4f02501be"}, {"bike_id": "28e273425bbeab62f35f9bc053d9c599", "type": "electric_scooter", "is_disabled": 0, "lat": 38.927514, "rental_uris": {"ios": "https://dc.lft.to/lastmile_qr_scan", "android": "https://dc.lft.to/lastmile_qr_scan"}, "is_reserved": 0, "fusion_lon": 0.0, "fusion_lat": 0.0, "lon": -77.02532983333333, "name": "28e273425bbeab62f35f9bc053d9c599"}, {"bike_id": "71f4ec492aa2719a33994695ed181c24", "type": "electric_scooter", "is_disabled": 0, "lat": 38.892204, "rental_uris": {"ios": "https://dc.lft.to/lastmile_qr_scan", "android": "https://dc.lft.to/lastmile_qr_scan"}, "is_reserved": 0, "fusion_lon": 0.0, "fusion_lat": 0.0, "lon": -77.0263055, "name": "71f4ec492aa2719a33994695ed181c24"}, {"bike_id": "2061d308469dfddda3d43e377b545520", "type": "electric_scooter", "is_disabled": 0, "lat": 38.928605, "rental_uris": {"ios": "https://dc.lft.to/lastmile_qr_scan", "android": "https://dc.lft.to/lastmile_qr_scan"}, "is_reserved": 0, "fusion_lon": 0.0, "fusion_lat": 0.0, "lon": -77.03271716666667, "name": "2061d308469dfddda3d43e377b545520"}, {"bike_id": "18a3e22a26d0d35dd88671a1d6ea6bb2", "type": "electric_bike", "is_disabled": 0, "lat": 38.853562333333336, "rental_uris": {"ios": "https://dc.lft.to/lastmile_qr_scan", "android": "https://dc.lft.to/lastmile_qr_scan"}, "is_reserved": 0, "fusion_lon": 0.0, "fusion_lat": 0.0, "lon": -77.134662, "name": "18a3e22a26d0d35dd88671a1d6ea6bb2"}, {"bike_id": "77dae3660b78bab3840208dc61256e9a", "type": "electric_scooter", "is_disabled": 0, "lat": 38.90811933333333, "rental_uris": {"ios": "https://dc.lft.to/lastmile_qr_scan", "android": "https://dc.lft.to/lastmile_qr_scan"}, "is_reserved": 0, "fusion_lon": 0.0, "fusion_lat": 0.0, "lon": -77.04973216666667, "name": "77dae3660b78bab3840208dc61256e9a"}, {"bike_id": "d972121a582cf7ca6fff905201c41286", "type": "electric_scooter", "is_disabled": 0, "lat": 38.95184866666666, "rental_uris": {"ios": "https://dc.lft.to/lastmile_qr_scan", "android": "https://dc.lft.to/lastmile_qr_scan"}, "is_reserved": 0, "fusion_lon": 0.0, "fusion_lat": 0.0, "lon": -77.02612783333333, "name": "d972121a582cf7ca6fff905201c41286"}, {"bike_id": "65232d741f53c72680cf77e85ebbb4af", "type": "electric_scooter", "is_disabled": 0, "lat": 38.9233205, "rental_uris": {"ios": "https://dc.lft.to/lastmile_qr_scan", "android": "https://dc.lft.to/lastmile_qr_scan"}, "is_reserved": 0, "fusion_lon": 0.0, "fusion_lat": 0.0, "lon": -77.03621116666666, "name": "65232d741f53c72680cf77e85ebbb4af"}, {"bike_id": "8088f9a83462ee816789ca4f9238877d", "type": "electric_scooter", "is_disabled": 0, "lat": 38.866594, "rental_uris": {"ios": "https://dc.lft.to/lastmile_qr_scan", "android": "https://dc.lft.to/lastmile_qr_scan"}, "is_reserved": 0, "fusion_lon": 0.0, "fusion_lat": 0.0, "lon": -76.98889616666666, "name": "8088f9a83462ee816789ca4f9238877d"}, {"bike_id": "fab0220c472976a7cb83440b021c453e", "type": "electric_scooter", "is_disabled": 0, "lat": 38.92904216666667, "rental_uris": {"ios": "https://dc.lft.to/lastmile_qr_scan", "android": "https://dc.lft.to/lastmile_qr_scan"}, "is_reserved": 0, "fusion_lon": 0.0, "fusion_lat": 0.0, "lon": -77.02271066666667, "name": "fab0220c472976a7cb83440b021c453e"}, {"bike_id": "18cb01fb2d320beaf3f373aaaaf5bee6", "type": "electric_bike", "is_disabled": 0, "lat": 38.944735, "rental_uris": {"ios": "https://dc.lft.to/lastmile_qr_scan", "android": "https://dc.lft.to/lastmile_qr_scan"}, "is_reserved": 0, "fusion_lon": 0.0, "fusion_lat": 0.0, "lon": -76.98688666666666, "name": "18cb01fb2d320beaf3f373aaaaf5bee6"}, {"bike_id": "ec05380d7a0df9a427091e9263fab2fb", "type": "electric_scooter", "is_disabled": 0, "lat": 38.910347, "rental_uris": {"ios": "https://dc.lft.to/lastmile_qr_scan", "android": "https://dc.lft.to/lastmile_qr_scan"}, "is_reserved": 0, "fusion_lon": 0.0, "fusion_lat": 0.0, "lon": -76.9866775, "name": "ec05380d7a0df9a427091e9263fab2fb"}, {"bike_id": "07066082233009e074ea20ae76fec456", "type": "electric_scooter", "is_disabled": 0, "lat": 38.904271666666666, "rental_uris": {"ios": "https://dc.lft.to/lastmile_qr_scan", "android": "https://dc.lft.to/lastmile_qr_scan"}, "is_reserved": 0, "fusion_lon": 0.0, "fusion_lat": 0.0, "lon": -77.06890816666667, "name": "07066082233009e074ea20ae76fec456"}, {"bike_id": "0cbc67e597cd8c4b8105af076bb615a1", "type": "electric_scooter", "is_disabled": 0, "lat": 38.93003683333333, "rental_uris": {"ios": "https://dc.lft.to/lastmile_qr_scan", "android": "https://dc.lft.to/lastmile_qr_scan"}, "is_reserved": 0, "fusion_lon": 0.0, "fusion_lat": 0.0, "lon": -77.0377305, "name": "0cbc67e597cd8c4b8105af076bb615a1"}, {"bike_id": "18448e7a1219393a536b203407b2ae45", "type": "electric_scooter", "is_disabled": 0, "lat": 38.91885516666667, "rental_uris": {"ios": "https://dc.lft.to/lastmile_qr_scan", "android": "https://dc.lft.to/lastmile_qr_scan"}, "is_reserved": 0, "fusion_lon": 0.0, "fusion_lat": 0.0, "lon": -77.04043783333333, "name": "18448e7a1219393a536b203407b2ae45"}, {"bike_id": "4873299b28da202037ab90da7b0a1e50", "type": "electric_scooter", "is_disabled": 0, "lat": 38.885653166666664, "rental_uris": {"ios": "https://dc.lft.to/lastmile_qr_scan", "android": "https://dc.lft.to/lastmile_qr_scan"}, "is_reserved": 0, "fusion_lon": 0.0, "fusion_lat": 0.0, "lon": -77.00210466666667, "name": "4873299b28da202037ab90da7b0a1e50"}, {"bike_id": "94803a18ac6d17122a530f31ea568621", "type": "electric_scooter", "is_disabled": 0, "lat": 38.90079583333333, "rental_uris": {"ios": "https://dc.lft.to/lastmile_qr_scan", "android": "https://dc.lft.to/lastmile_qr_scan"}, "is_reserved": 0, "fusion_lon": 0.0, "fusion_lat": 0.0, "lon": -77.04770816666667, "name": "94803a18ac6d17122a530f31ea568621"}, {"bike_id": "bcd75f4f93553adc162a961c9b94ab4a", "type": "electric_scooter", "is_disabled": 0, "lat": 38.92074, "rental_uris": {"ios": "https://dc.lft.to/lastmile_qr_scan", "android": "https://dc.lft.to/lastmile_qr_scan"}, "is_reserved": 0, "fusion_lon": 0.0, "fusion_lat": 0.0, "lon": -77.02206466666667, "name": "bcd75f4f93553adc162a961c9b94ab4a"}, {"bike_id": "aff50fcb2ea448a63f5c7eb537247392", "type": "electric_scooter", "is_disabled": 0, "lat": 38.942969833333336, "rental_uris": {"ios": "https://dc.lft.to/lastmile_qr_scan", "android": "https://dc.lft.to/lastmile_qr_scan"}, "is_reserved": 0, "fusion_lon": 0.0, "fusion_lat": 0.0, "lon": -77.02170783333334, "name": "aff50fcb2ea448a63f5c7eb537247392"}, {"bike_id": "6bcb9224aa416712b161d27af0c9f8e7", "type": "electric_scooter", "is_disabled": 0, "lat": 38.913825, "rental_uris": {"ios": "https://dc.lft.to/lastmile_qr_scan", "android": "https://dc.lft.to/lastmile_qr_scan"}, "is_reserved": 0, "fusion_lon": 0.0, "fusion_lat": 0.0, "lon": -77.0413745, "name": "6bcb9224aa416712b161d27af0c9f8e7"}, {"bike_id": "f7f4c46519227bb17d3eeb5205a3d921", "type": "electric_scooter", "is_disabled": 0, "lat": 38.912453166666666, "rental_uris": {"ios": "https://dc.lft.to/lastmile_qr_scan", "android": "https://dc.lft.to/lastmile_qr_scan"}, "is_reserved": 0, "fusion_lon": 0.0, "fusion_lat": 0.0, "lon": -77.02225916666667, "name": "f7f4c46519227bb17d3eeb5205a3d921"}, {"bike_id": "bc428d1ec5f8c28591ca1d6847fefab0", "type": "electric_scooter", "is_disabled": 0, "lat": 38.90357366666667, "rental_uris": {"ios": "https://dc.lft.to/lastmile_qr_scan", "android": "https://dc.lft.to/lastmile_qr_scan"}, "is_reserved": 0, "fusion_lon": 0.0, "fusion_lat": 0.0, "lon": -77.00742366666667, "name": "bc428d1ec5f8c28591ca1d6847fefab0"}, {"bike_id": "e5a3dd793e05ddf4f6bd5e86263c3889", "type": "electric_bike", "is_disabled": 0, "lat": 38.964675666666665, "rental_uris": {"ios": "https://dc.lft.to/lastmile_qr_scan", "android": "https://dc.lft.to/lastmile_qr_scan"}, "is_reserved": 0, "fusion_lon": 0.0, "fusion_lat": 0.0, "lon": -77.0356305, "name": "e5a3dd793e05ddf4f6bd5e86263c3889"}, {"bike_id": "4550ec2a4ffa0f398c45c5734d15539f", "type": "electric_bike", "is_disabled": 0, "lat": 38.915267, "rental_uris": {"ios": "https://dc.lft.to/lastmile_qr_scan", "android": "https://dc.lft.to/lastmile_qr_scan"}, "is_reserved": 0, "fusion_lon": 0.0, "fusion_lat": 0.0, "lon": -77.01226266666667, "name": "4550ec2a4ffa0f398c45c5734d15539f"}, {"bike_id": "686e8717d3f5e1d919d0169ad774eb83", "type": "electric_bike", "is_disabled": 0, "lat": 38.90861566666667, "rental_uris": {"ios": "https://dc.lft.to/lastmile_qr_scan", "android": "https://dc.lft.to/lastmile_qr_scan"}, "is_reserved": 0, "fusion_lon": 0.0, "fusion_lat": 0.0, "lon": -76.99954516666666, "name": "686e8717d3f5e1d919d0169ad774eb83"}, {"bike_id": "672a41b8907054f0941c91da3e6fc42b", "type": "electric_scooter", "is_disabled": 0, "lat": 38.866932, "rental_uris": {"ios": "https://dc.lft.to/lastmile_qr_scan", "android": "https://dc.lft.to/lastmile_qr_scan"}, "is_reserved": 0, "fusion_lon": 0.0, "fusion_lat": 0.0, "lon": -76.985629, "name": "672a41b8907054f0941c91da3e6fc42b"}, {"bike_id": "c5e888f0f68e66daa4212e6ded36ddd2", "type": "electric_scooter", "is_disabled": 0, "lat": 38.915121166666665, "rental_uris": {"ios": "https://dc.lft.to/lastmile_qr_scan", "android": "https://dc.lft.to/lastmile_qr_scan"}, "is_reserved": 0, "fusion_lon": 0.0, "fusion_lat": 0.0, "lon": -77.02284983333334, "name": "c5e888f0f68e66daa4212e6ded36ddd2"}, {"bike_id": "11484eae7d1717e7ac1457ad8529554f", "type": "electric_bike", "is_disabled": 0, "lat": 38.942660833333335, "rental_uris": {"ios": "https://dc.lft.to/lastmile_qr_scan", "android": "https://dc.lft.to/lastmile_qr_scan"}, "is_reserved": 0, "fusion_lon": 0.0, "fusion_lat": 0.0, "lon": -76.99069366666667, "name": "11484eae7d1717e7ac1457ad8529554f"}, {"bike_id": "e2e1a88cdd76b4b39ae1ba2a66484c51", "type": "electric_scooter", "is_disabled": 0, "lat": 38.94326216666666, "rental_uris": {"ios": "https://dc.lft.to/lastmile_qr_scan", "android": "https://dc.lft.to/lastmile_qr_scan"}, "is_reserved": 0, "fusion_lon": 0.0, "fusion_lat": 0.0, "lon": -77.06134883333333, "name": "e2e1a88cdd76b4b39ae1ba2a66484c51"}, {"bike_id": "d82d4fb35910d1cea43a5768188a5891", "type": "electric_scooter", "is_disabled": 0, "lat": 38.92550766666667, "rental_uris": {"ios": "https://dc.lft.to/lastmile_qr_scan", "android": "https://dc.lft.to/lastmile_qr_scan"}, "is_reserved": 0, "fusion_lon": 0.0, "fusion_lat": 0.0, "lon": -77.03367083333333, "name": "d82d4fb35910d1cea43a5768188a5891"},