{"data": {"bikes": [{"type": "electric_scooter", "name": "f93deb5cf45851b6d9baabee07a9b3ad", "is_reserved": 0, "fusion_lat": 0.0, "lon": -77.02990666666666, "is_disabled": 0, "rental_uris": {"android": "https://dc.lft.to/lastmile_qr_scan", "ios": "https://dc.lft.to/lastmile_qr_scan"}, "bike_id": "f93deb5cf45851b6d9baabee07a9b3ad", "fusion_lon": 0.0, "lat": 38.89422783333333}, {"type": "electric_scooter", "name": "bd84128cd51d717da0ce8d93f58b1171", "is_reserved": 0, "fusion_lat": 0.0, "lon": -77.01744316666667, "is_disabled": 0, "rental_uris": {"android": "https://dc.lft.to/lastmile_qr_scan", "ios": "https://dc.lft.to/lastmile_qr_scan"}, "bike_id": "bd84128cd51d717da0ce8d93f58b1171", "fusion_lon": 0.0, "lat": 38.887396833333334}, {"type": "electric_scooter", "name": "1a6e4c8c955d492d9290f93e2ea20989", "is_reserved": 0, "fusion_lat": 0.0, "lon": -77.03976016666667, "is_disabled": 0, "rental_uris": {"android": "https://dc.lft.to/lastmile_qr_scan", "ios": "https://dc.lft.to/lastmile_qr_scan"}, "bike_id": "1a6e4c8c955d492d9290f93e2ea20989", "fusion_lon": 0.0, "lat": 38.90270433333333}, {"type": "electric_scooter", "name": "e8b13025b09d51e65b020b33724e6b5c", "is_reserved": 0, "fusion_lat": 0.0, "lon": -77.044668, "is_disabled": 0, "rental_uris": {"android": "https://dc.lft.to/lastmile_qr_scan", "ios": "https://dc.lft.to/lastmile_qr_scan"}, "bike_id": "e8b13025b09d51e65b020b33724e6b5c", "fusion_lon": 0.0, "lat": 38.903939}, {"type": "electric_scooter", "name": "06541b8c3949b7c9bfd83a672a5b7f28", "is_reserved": 0, "fusion_lat": 0.0, "lon": -76.987153, "is_disabled": 0, "rental_uris": {"android": "https://dc.lft.to/lastmile_qr_scan", "ios": "https://dc.lft.to/lastmile_qr_scan"}, "bike_id": "06541b8c3949b7c9bfd83a672a5b7f28", "fusion_lon": 0.0, "lat": 38.86627566666667}, {"type": "electric_scooter", "name": "cc58c4996e2eff0ff55a2c0a06bee7ef", "is_reserved": 0, "fusion_lat": 0.0, "lon": -77.0271915, "is_disabled": 0, "rental_uris": {"android": "https://dc.lft.to/lastmile_qr_scan", "ios": "https://dc.lft.to/lastmile_qr_scan"}, "bike_id": "cc58c4996e2eff0ff55a2c0a06bee7ef", "fusion_lon": 0.0, "lat": 38.90035866666667}, {"type": "electric_scooter", "name": "6c4a777aae9d5fc6c64587e0eaa5449b", "is_reserved": 0, "fusion_lat": 0.0, "lon": -76.95062633333333, "is_disabled": 0, "rental_uris": {"android": "https://dc.lft.to/lastmile_qr_scan", "ios": "https://dc.lft.to/lastmile_qr_scan"}, "bike_id": "6c4a777aae9d5fc6c64587e0eaa5449b", "fusion_lon": 0.0, "lat": 38.904906}, {"type": "electric_scooter", "name": "e25be1d512a54dcb121630d887950a0f", "is_reserved": 0, "fusion_lat": 0.0, "lon": -77.02694233333334, "is_disabled": 0, "rental_uris": {"android": "https://dc.lft.to/lastmile_qr_scan", "ios": "https://dc.lft.to/lastmile_qr_scan"}, "bike_id": "e25be1d512a54dcb121630d887950a0f", "fusion_lon": 0.0, "lat": 38.906651}, {"type": "electric_scooter", "name": "a06707788fcaab152bd41619e274b65c", "is_reserved": 0, "fusion_lat": 0.0, "lon": -77.04343466666667, "is_disabled": 0, "rental_uris": {"android": "https://dc.lft.to/lastmile_qr_scan", "ios": "https://dc.lft.to/lastmile_qr_scan"}, "bike_id": "a06707788fcaab152bd41619e274b65c", "fusion_lon": 0.0, "lat": 38.907946333333335}, {"type": "electric_scooter", "name": "e1ec2c1d07515108d2c04e4d5304b12e", "is_reserved": 0, "fusion_lat": 0.0, "lon": -77.04652566666667, "is_disabled": 0, "rental_uris": {"android": "https://dc.lft.to/lastmile_qr_scan", "ios": "https://dc.lft.to/lastmile_qr_scan"}, "bike_id": "e1ec2c1d07515108d2c04e4d5304b12e", "fusion_lon": 0.0, "lat": 38.91593916666667}, {"type": "electric_scooter", "name": "a266ed03cf31214ff7be7a950c9b678f", "is_reserved": 0, "fusion_lat": 0.0, "lon": -77.069278, "is_disabled": 0, "rental_uris": {"android": "https://dc.lft.to/lastmile_qr_scan", "ios": "https://dc.lft.to/lastmile_qr_scan"}, "bike_id": "a266ed03cf31214ff7be7a950c9b678f", "fusion_lon": 0.0, "lat": 38.907818666666664}, {"type": "electric_scooter", "name": "13068472a012b21740be690884def9e5", "is_reserved": 0, "fusion_lat": 0.0, "lon": -77.01983983333334, "is_disabled": 0, "rental_uris": {"android": "https://dc.lft.to/lastmile_qr_scan", "ios": "https://dc.lft.to/lastmile_qr_scan"}, "bike_id": "13068472a012b21740be690884def9e5", "fusion_lon": 0.0, "lat": 38.95025283333333}, {"type": "electric_scooter", "name": "237af7731ed551c7706d854bbb8daac8", "is_reserved": 0, "fusion_lat": 0.0, "lon": -76.933672, "is_disabled": 0, "rental_uris": {"android": "https://dc.lft.to/lastmile_qr_scan", "ios": "https://dc.lft.to/lastmile_qr_scan"}, "bike_id": "237af7731ed551c7706d854bbb8daac8", "fusion_lon": 0.0, "lat": 38.899149}, {"type": "electric_bike", "name": "ba1e484174bc0c7738197a5c45bd10b0", "is_reserved": 0, "fusion_lat": 0.0, "lon": -77.20839016666666, "is_disabled": 0, "rental_uris": {"android": "https://dc.lft.to/lastmile_qr_scan", "ios": "https://dc.lft.to/lastmile_qr_scan"}, "bike_id": "ba1e484174bc0c7738197a5c45bd10b0", "fusion_lon": 0.0, "lat": 38.924625}, {"type": "electric_scooter", "name": "65759037efe8be96a5af687d054ca5b4", "is_reserved": 0, "fusion_lat": 0.0, "lon": -77.03437216666667, "is_disabled": 0, "rental_uris": {"android": "https://dc.lft.to/lastmile_qr_scan", "ios": "https://dc.lft.to/lastmile_qr_scan"}, "bike_id": "65759037efe8be96a5af687d054ca5b4", "fusion_lon": 0.0, "lat": 38.91936616666667}, {"type": "electric_scooter", "name": "1031841bcb90a6d99e6c5aebfbe4fd41", "is_reserved": 0, "fusion_lat": 0.0, "lon": -77.00748966666667, "is_disabled": 0, "rental_uris": {"android": "https://dc.lft.to/lastmile_qr_scan", "ios": "https://dc.lft.to/lastmile_qr_scan"}, "bike_id": "1031841bcb90a6d99e6c5aebfbe4fd41", "fusion_lon": 0.0, "lat": 38.89904583333333}, {"type": "electric_scooter", "name": "f240ddf37b4101a1bb2acf3e9fb226c8", "is_reserved": 0, "fusion_lat": 0.0, "lon": -77.037316, "is_disabled": 0, "rental_uris": {"android": "https://dc.lft.to/lastmile_qr_scan", "ios": "https://dc.lft.to/lastmile_qr_scan"}, "bike_id": "f240ddf37b4101a1bb2acf3e9fb226c8", "fusion_lon": 0.0, "lat": 38.935740833333334}, {"type": "electric_scooter", "name": "08edcb3fe38544a1b5031fe83f4f5ad5", "is_reserved": 0, "fusion_lat": 0.0, "lon": -77.03463616666667, "is_disabled": 0, "rental_uris": {"android": "https://dc.lft.to/lastmile_qr_scan", "ios": "https://dc.lft.to/lastmile_qr_scan"}, "bike_id": "08edcb3fe38544a1b5031fe83f4f5ad5", "fusion_lon": 0.0, "lat": 38.918223166666664}, {"type": "electric_scooter", "name": "e34318761c28d4d48a9a0a3973750af6", "is_reserved": 0, "fusion_lat": 0.0, "lon": -77.0564915, "is_disabled": 0, "rental_uris": {"android": "https://dc.lft.to/lastmile_qr_scan", "ios": "https://dc.lft.to/lastmile_qr_scan"}, "bike_id": "e34318761c28d4d48a9a0a3973750af6", "fusion_lon": 0.0, "lat": 38.90766633333333}, {"type": "electric_scooter", "name": "267b64d85d82aa9de8e9194976ffec07", "is_reserved": 0, "fusion_lat": 0.0, "lon": -77.02098616666666, "is_disabled": 0, "rental_uris": {"android": "https://dc.lft.to/lastmile_qr_scan", "ios": "https://dc.lft.to/lastmile_qr_scan"}, "bike_id": "267b64d85d82aa9de8e9194976ffec07", "fusion_lon": 0.0, "lat": 38.927096666666664}, {"type": "electric_bike", "name": "72bffa1c1963c027f890e6b432ba76b9", "is_reserved": 0, "fusion_lat": 0.0, "lon": -77.12485616666666, "is_disabled": 0, "rental_uris": {"android": "https://dc.lft.to/lastmile_qr_scan", "ios": "https://dc.lft.to/lastmile_qr_scan"}, "bike_id": "72bffa1c1963c027f890e6b432ba76b9", "fusion_lon": 0.0, "lat": 38.827921}, {"type": "electric_scooter", "name": "98cf442526df236f457088df6c19d18d", "is_reserved": 0, "fusion_lat": 0.0, "lon": -77.05900933333334, "is_disabled": 0, "rental_uris": {"android": "https://dc.lft.to/lastmile_qr_scan", "ios": "https://dc.lft.to/lastmile_qr_scan"}, "bike_id": "98cf442526df236f457088df6c19d18d", "fusion_lon": 0.0, "lat": 38.90310316666667}, {"type": "electric_scooter", "name": "d5f37fd5b6a385099ad8a5584ad66425", "is_reserved": 0, "fusion_lat": 0.0, "lon": -76.99884566666667, "is_disabled": 0, "rental_uris": {"android": "https://dc.lft.to/lastmile_qr_scan", "ios": "https://dc.lft.to/lastmile_qr_scan"}, "bike_id": "d5f37fd5b6a385099ad8a5584ad66425", "fusion_lon": 0.0, "lat": 38.920556}, {"type": "electric_scooter", "name": "48a191062a97d3c8a11a3a0a73ff1eb7", "is_reserved": 0, "fusion_lat": 0.0, "lon": -76.98766533333334, "is_disabled": 0, "rental_uris": {"android": "https://dc.lft.to/lastmile_qr_scan", "ios": "https://dc.lft.to/lastmile_qr_scan"}, "bike_id": "48a191062a97d3c8a11a3a0a73ff1eb7", "fusion_lon": 0.0, "lat": 38.900307}, {"type": "electric_scooter", "name": "d9faee24f3952d98dec5b326a7f2c8fc", "is_reserved": 0, "fusion_lat": 0.0, "lon": -77.04893416666667, "is_disabled": 0, "rental_uris": {"android": "https://dc.lft.to/lastmile_qr_scan", "ios": "https://dc.lft.to/lastmile_qr_scan"}, "bike_id": "d9faee24f3952d98dec5b326a7f2c8fc", "fusion_lon": 0.0, "lat": 38.9052855}, {"type": "electric_scooter", "name": "1fb6e0cd8c5e3da39606c415088074b7", "is_reserved": 0, "fusion_lat": 0.0, "lon": -77.023254, "is_disabled": 0, "rental_uris": {"android": "https://dc.lft.to/lastmile_qr_scan", "ios": "https://dc.lft.to/lastmile_qr_scan"}, "bike_id": "1fb6e0cd8c5e3da39606c415088074b7", "fusion_lon": 0.0, "lat": 38.930591}, {"type": "electric_scooter", "name": "1c5c4425c9e785bccccbab8f67d4bd72", "is_reserved": 0, "fusion_lat": 0.0, "lon": -77.01980316666666, "is_disabled": 0, "rental_uris": {"android": "https://dc.lft.to/lastmile_qr_scan", "ios": "https://dc.lft.to/lastmile_qr_scan"}, "bike_id": "1c5c4425c9e785bccccbab8f67d4bd72", "fusion_lon": 0.0, "lat": 38.9110115}, {"type": "electric_scooter", "name": "4ce2cf6d63786e8359ebe7791d31c179", "is_reserved": 0, "fusion_lat": 0.0, "lon": -77.02724116666667, "is_disabled": 0, "rental_uris": {"android": "https://dc.lft.to/lastmile_qr_scan", "ios": "https://dc.lft.to/lastmile_qr_scan"}, "bike_id": "4ce2cf6d63786e8359ebe7791d31c179", "fusion_lon": 0.0, "lat": 38.90003466666667}, {"type": "electric_scooter", "name": "dc3e6c19eca259ec672266fef7e6b464", "is_reserved": 0, "fusion_lat": 0.0, "lon": -77.0219635, "is_disabled": 0, "rental_uris": {"android": "https://dc.lft.to/lastmile_qr_scan", "ios": "https://dc.lft.to/lastmile_qr_scan"}, "bike_id": "dc3e6c19eca259ec672266fef7e6b464", "fusion_lon": 0.0, "lat": 38.9034095}, {"type": "electric_scooter", "name": "d488f4301609e121727bfea80710d96c", "is_reserved": 0, "fusion_lat": 0.0, "lon": -77.02187133333334, "is_disabled": 0, "rental_uris": {"android": "https://dc.lft.to/lastmile_qr_scan", "ios": "https://dc.lft.to/lastmile_qr_scan"}, "bike_id": "d488f4301609e121727bfea80710d96c", "fusion_lon": 0.0, "lat": 38.922720166666664}, {"type": "electric_scooter", "name": "134e34487fa75de582d9c8b2a52b5f38", "is_reserved": 0, "fusion_lat": 0.0, "lon": -77.04194083333333, "is_disabled": 0, "rental_uris": {"android": "https://dc.lft.to/lastmile_qr_scan", "ios": "https://dc.lft.to/lastmile_qr_scan"}, "bike_id": "134e34487fa75de582d9c8b2a52b5f38", "fusion_lon": 0.0, "lat": 38.9262335}, {"type": "electric_scooter", "name": "25ef2e99a17e087f3a2df4b13dfe0ce3", "is_reserved": 0, "fusion_lat": 0.0, "lon": -76.94634983333333, "is_disabled": 0, "rental_uris": {"android": "https://dc.lft.to/lastmile_qr_scan", "ios": "https://dc.lft.to/lastmile_qr_scan"}, "bike_id": "25ef2e99a17e087f3a2df4b13dfe0ce3", "fusion_lon": 0.0, "lat": 38.89845183333333}, {"type": "electric_scooter", "name": "9adffa7b10cc44e26a6c06e07bbcb648", "is_reserved": 0, "fusion_lat": 0.0, "lon": -76.91129616666667, "is_disabled": 0, "rental_uris": {"android": "https://dc.lft.to/lastmile_qr_scan", "ios": "https://dc.lft.to/lastmile_qr_scan"}, "bike_id": "9adffa7b10cc44e26a6c06e07bbcb648", "fusion_lon": 0.0, "lat": 38.894159333333334}, {"type": "electric_bike", "name": "c88c1ddb2f168f9f1110daa0a8b16854", "is_reserved": 0, "fusion_lat": 0.0, "lon": -76.98091283333333, "is_disabled": 0, "rental_uris": {"android": "https://dc.lft.to/lastmile_qr_scan", "ios": "https://dc.lft.to/lastmile_qr_scan"}, "bike_id": "c88c1ddb2f168f9f1110daa0a8b16854", "fusion_lon": 0.0, "lat": 38.881336166666664}, {"type": "electric_scooter", "name": "11a7c0b6744d6bce6fa90b5bbd29a782", "is_reserved": 0, "fusion_lat": 0.0, "lon": -77.07867266666666, "is_disabled": 0, "rental_uris": {"android": "https://dc.lft.to/lastmile_qr_scan", "ios": "https://dc.lft.to/lastmile_qr_scan"}, "bike_id": "11a7c0b6744d6bce6fa90b5bbd29a782", "fusion_lon": 0.0, "lat": 38.9246105}, {"type": "electric_scooter", "name": "edaa963c0672e3646f3df79c63b19dd1", "is_reserved": 0, "fusion_lat": 0.0, "lon": -77.023233, "is_disabled": 0, "rental_uris": {"android": "https://dc.lft.to/lastmile_qr_scan", "ios": "https://dc.lft.to/lastmile_qr_scan"}, "bike_id": "edaa963c0672e3646f3df79c63b19dd1", "fusion_lon": 0.0, "lat": 38.93056983333334}, {"type": "electric_scooter", "name": "6c2e4edcb0ace2ab803460c0e20cb5a9", "is_reserved": 0, "fusion_lat": 0.0, "lon": -76.99851433333333, "is_disabled": 0, "rental_uris": {"android": "https://dc.lft.to/lastmile_qr_scan", "ios": "https://dc.lft.to/lastmile_qr_scan"}, "bike_id": "6c2e4edcb0ace2ab803460c0e20cb5a9", "fusion_lon": 0.0, "lat": 38.88743616666667}, {"type": "electric_scooter", "name": "5a4e52d636bcccbec89f3c83236f5ac0", "is_reserved": 0, "fusion_lat": 0.0, "lon": -77.05416766666667, "is_disabled": 0, "rental_uris": {"android": "https://dc.lft.to/lastmile_qr_scan", "ios": "https://dc.lft.to/lastmile_qr_scan"}, "bike_id": "5a4e52d636bcccbec89f3c83236f5ac0", "fusion_lon": 0.0, "lat": 38.90247183333334}, {"type": "electric_scooter", "name": "29360b72118b5463a2cc6ffd1f0be192", "is_reserved": 0, "fusion_lat": 0.0, "lon": -76.93367783333333, "is_disabled": 0, "rental_uris": {"android": "https://dc.lft.to/lastmile_qr_scan", "ios": "https://dc.lft.to/lastmile_qr_scan"}, "bike_id": "29360b72118b5463a2cc6ffd1f0be192", "fusion_lon": 0.0, "lat": 38.89911883333333}, {"type": "electric_scooter", "name": "86c48b8faf20f1726d5a633024bc9591", "is_reserved": 0, "fusion_lat": 0.0, "lon": -77.0387705, "is_disabled": 0, "rental_uris": {"android": "https://dc.lft.to/lastmile_qr_scan", "ios": "https://dc.lft.to/lastmile_qr_scan"}, "bike_id": "86c48b8faf20f1726d5a633024bc9591", "fusion_lon": 0.0, "lat": 38.91713333333333}, {"type": "electric_scooter", "name": "1dd09ea80b299580e992149c7076107f", "is_reserved": 0, "fusion_lat": 0.0, "lon": -77.03192266666667, "is_disabled": 0, "rental_uris": {"android": "https://dc.lft.to/lastmile_qr_scan", "ios": "https://dc.lft.to/lastmile_qr_scan"}, "bike_id": "1dd09ea80b299580e992149c7076107f", "fusion_lon": 0.0, "lat": 38.917137333333336}, {"type": "electric_scooter", "name": "675db036de5915ae65dfaa73ceb86a84", "is_reserved": 0, "fusion_lat": 0.0, "lon": -76.97819183333333, "is_disabled": 0, "rental_uris": {"android": "https://dc.lft.to/lastmile_qr_scan", "ios": "https://dc.lft.to/lastmile_qr_scan"}, "bike_id": "675db036de5915ae65dfaa73ceb86a84", "fusion_lon": 0.0, "lat": 38.9016865}, {"type": "electric_scooter", "name": "1c7c9aca62a3aa62616292bb1b65dfb6", "is_reserved": 0, "fusion_lat": 0.0, "lon": -77.02603866666666, "is_disabled": 0, "rental_uris": {"android": "https://dc.lft.to/lastmile_qr_scan", "ios": "https://dc.lft.to/lastmile_qr_scan"}, "bike_id": "1c7c9aca62a3aa62616292bb1b65dfb6", "fusion_lon": 0.0, "lat": 38.91823133333333}, {"type": "electric_scooter", "name": "e00f8745e9ee266cfe624ea4f0bc36e8", "is_reserved": 0, "fusion_lat": 0.0, "lon": -77.04350533333333, "is_disabled": 0, "rental_uris": {"android": "https://dc.lft.to/lastmile_qr_scan", "ios": "https://dc.lft.to/lastmile_qr_scan"}, "bike_id": "e00f8745e9ee266cfe624ea4f0bc36e8", "fusion_lon": 0.0, "lat": 38.9078575}, {"type": "electric_scooter", "name": "8e664a978b7b6b2a633253ffcf55b121", "is_reserved": 0, "fusion_lat": 0.0, "lon": -77.00064433333333, "is_disabled": 0, "rental_uris": {"android": "https://dc.lft.to/lastmile_qr_scan", "ios": "https://dc.lft.to/lastmile_qr_scan"}, "bike_id": "8e664a978b7b6b2a633253ffcf55b121", "fusion_lon": 0.0, "lat": 38.90001433333333}, {"type": "electric_scooter", "name": "5c75edb7ae65fee34306a6c3a45074a1", "is_reserved": 0, "fusion_lat": 0.0, "lon": -77.03773283333334, "is_disabled": 0, "rental_uris": {"android": "https://dc.lft.to/lastmile_qr_scan", "ios": "https://dc.lft.to/lastmile_qr_scan"}, "bike_id": "5c75edb7ae65fee34306a6c3a45074a1", "fusion_lon": 0.0, "lat": 38.93406866666667}, {"type": "electric_scooter", "name": "b1f2b0c3821159a8d14ea1ac1769f8de", "is_reserved": 0, "fusion_lat": 0.0, "lon": -77.00103833333333, "is_disabled": 0, "rental_uris": {"android": "https://dc.lft.to/lastmile_qr_scan", "ios": "https://dc.lft.to/lastmile_qr_scan"}, "bike_id": "b1f2b0c3821159a8d14ea1ac1769f8de", "fusion_lon": 0.0, "lat": 38.907585}, {"type": "electric_scooter", "name": "3f6200c3f6d076df80efbb47f45d0f7a", "is_reserved": 0, "fusion_lat": 0.0, "lon": -77.0284905, "is_disabled": 0, "rental_uris": {"android": "https://dc.lft.to/lastmile_qr_scan", "ios": "https://dc.lft.to/lastmile_qr_scan"}, "bike_id": "3f6200c3f6d076df80efbb47f45d0f7a", "fusion_lon": 0.0, "lat": 38.904356666666665}, {"type": "electric_scooter", "name": "baf65c931a739ea0df4ac54843a4fcc5", "is_reserved": 0, "fusion_lat": 0.0, "lon": -77.05881466666666, "is_disabled": 0, "rental_uris": {"android": "https://dc.lft.to/lastmile_qr_scan", "ios": "https://dc.lft.to/lastmile_qr_scan"}, "bike_id": "baf65c931a739ea0df4ac54843a4fcc5", "fusion_lon": 0.0, "lat": 38.943140166666666}, {"type": "electric_bike", "name": "d1f2fa15dd201e9f38ed6c9b528ee93a", "is_reserved": 0, "fusion_lat": 0.0, "lon": -76.99084133333334, "is_disabled": 0, "rental_uris": {"android": "https://dc.lft.to/lastmile_qr_scan", "ios": "https://dc.lft.to/lastmile_qr_scan"}, "bike_id": "d1f2fa15dd201e9f38ed6c9b528ee93a", "fusion_lon": 0.0, "lat": 38.862437166666666}, {"type": "electric_scooter", "name": "36f138fd82f3ff57b1b8aa21e794b532", "is_reserved": 0, "fusion_lat": 0.0, "lon": -77.0276325, "is_disabled": 0, "rental_uris": {"android": "https://dc.lft.to/lastmile_qr_scan", "ios": "https://dc.lft.to/lastmile_qr_scan"}, "bike_id": "36f138fd82f3ff57b1b8aa21e794b532", "fusion_lon": 0.0, "lat": 38.95425316666667}, {"type": "electric_scooter", "name": "28e54dbfba42b420ff24d848daddff14", "is_reserved": 0, "fusion_lat": 0.0, "lon": -77.04644633333334, "is_disabled": 0, "rental_uris": {"android": "https://dc.lft.to/lastmile_qr_scan", "ios": "https://dc.lft.to/lastmile_qr_scan"}, "bike_id": "28e54dbfba42b420ff24d848daddff14", "fusion_lon": 0.0, "lat": 38.9023825}, {"type": "electric_scooter", "name": "e53ed50fb90053ecdd21394f13f4762a", "is_reserved": 0, "fusion_lat": 0.0, "lon": -77.02000166666667, "is_disabled": 0, "rental_uris": {"android": "https://dc.lft.to/lastmile_qr_scan", "ios": "https://dc.lft.to/lastmile_qr_scan"}, "bike_id": "e53ed50fb90053ecdd21394f13f4762a", "fusion_lon": 0.0, "lat": 38.91575233333333}, {"type": "electric_scooter", "name": "cc86c57bc4a9a25a59c37ee4fa475c62", "is_reserved": 0, "fusion_lat": 0.0, "lon": -77.0263665, "is_disabled": 0, "rental_uris": {"android": "https://dc.lft.to/lastmile_qr_scan", "ios": "https://dc.lft.to/lastmile_qr_scan"}, "bike_id": "cc86c57bc4a9a25a59c37ee4fa475c62", "fusion_lon": 0.0, "lat": 38.91707983333333}, {"type": "electric_scooter", "name": "c71eb1633538b7183bd173edaf9cb9fc", "is_reserved": 0, "fusion_lat": 0.0, "lon": -76.9373525, "is_disabled": 0, "rental_uris": {"android": "https://dc.lft.to/lastmile_qr_scan", "ios": "https://dc.lft.to/lastmile_qr_scan"}, "bike_id": "c71eb1633538b7183bd173edaf9cb9fc", "fusion_lon": 0.0, "lat": 38.890173833333336}, {"type": "electric_scooter", "name": "f2b390d70d491af3696825ea0ce6716d", "is_reserved": 0, "fusion_lat": 0.0, "lon": -77.03305516666667, "is_disabled": 0, "rental_uris": {"android": "https://dc.lft.to/lastmile_qr_scan", "ios": "https://dc.lft.to/lastmile_qr_scan"}, "bike_id": "f2b390d70d491af3696825ea0ce6716d", "fusion_lon": 0.0, "lat": 38.956353}, {"type": "electric_scooter", "name": "bd07035fd979c995eb3aa3b48a0f1613", "is_reserved": 0, "fusion_lat": 0.0, "lon": -77.04398316666666, "is_disabled": 0, "rental_uris": {"android": "https://dc.lft.to/lastmile_qr_scan", "ios": "https://dc.lft.to/lastmile_qr_scan"}, "bike_id": "bd07035fd979c995eb3aa3b48a0f1613", "fusion_lon": 0.0, "lat": 38.917212666666664}, {"type": "electric_scooter", "name": "a7f11da38b06698f5e0e8fff62316411", "is_reserved": 0, "fusion_lat": 0.0, "lon": -77.0049745, "is_disabled": 0, "rental_uris": {"android": "https://dc.lft.to/lastmile_qr_scan", "ios": "https://dc.lft.to/lastmile_qr_scan"}, "bike_id": "a7f11da38b06698f5e0e8fff62316411", "fusion_lon": 0.0, "lat": 38.9075105}, {"type": "electric_scooter", "name": "60263307d196cc3d6fc86d7fe700263d", "is_reserved": 0, "fusion_lat": 0.0, "lon": -77.04328916666667, "is_disabled": 0, "rental_uris": {"android": "https://dc.lft.to/lastmile_qr_scan", "ios": "https://dc.lft.to/lastmile_qr_scan"}, "bike_id": "60263307d196cc3d6fc86d7fe700263d", "fusion_lon": 0.0, "lat": 38.904029666666666}, {"type": "electric_scooter", "name": "8ed69d0ef53345f4a013600331b95c10", "is_reserved": 0, "fusion_lat": 0.0, "lon": -77.0404245, "is_disabled": 0, "rental_uris": {"android": "https://dc.lft.to/lastmile_qr_scan", "ios": "https://dc.lft.to/lastmile_qr_scan"}, "bike_id": "8ed69d0ef53345f4a013600331b95c10", "fusion_lon": 0.0, "lat": 38.90032733333334}, {"type": "electric_scooter", "name": "3632a56dd9a229a10605f74d6f8e3e29", "is_reserved": 0, "fusion_lat": 0.0, "lon": -77.022067, "is_disabled": 0, "rental_uris": {"android": "https://dc.lft.to/lastmile_qr_scan", "ios": "https://dc.lft.to/lastmile_qr_scan"}, "bike_id": "3632a56dd9a229a10605f74d6f8e3e29", "fusion_lon": 0.0, "lat": 38.899942}, {"type": "electric_scooter", "name": "8fff1d5aaf8f4264a7dd4c82a4c6769d", "is_reserved": 0, "fusion_lat": 0.0, "lon": -77.03913883333334, "is_disabled": 0, "rental_uris": {"android": "https://dc.lft.to/lastmile_qr_scan", "ios": "https://dc.lft.to/lastmile_qr_scan"}, "bike_id": "8fff1d5aaf8f4264a7dd4c82a4c6769d", "fusion_lon": 0.0, "lat": 38.91833333333334}, {"type": "electric_scooter", "name": "d2977042a9bea476c88e7427f0aee518", "is_reserved": 0, "fusion_lat": 0.0, "lon": -77.06166016666667, "is_disabled": 0, "rental_uris": {"android": "https://dc.lft.to/lastmile_qr_scan", "ios": "https://dc.lft.to/lastmile_qr_scan"}, "bike_id": "d2977042a9bea476c88e7427f0aee518", "fusion_lon": 0.0, "lat": 38.913006333333335}, {"type": "electric_scooter", "name": "e758dfe23ef51c4328a9156281b68acc", "is_reserved": 0, "fusion_lat": 0.0, "lon": -77.04135016666666, "is_disabled": 0, "rental_uris": {"android": "https://dc.lft.to/lastmile_qr_scan", "ios": "https://dc.lft.to/lastmile_qr_scan"}, "bike_id": "e758dfe23ef51c4328a9156281b68acc", "fusion_lon": 0.0, "lat": 38.93364966666667}, {"type": "electric_scooter", "name": "e7981db168e58acbdb926f3243c8f8a6", "is_reserved": 0, "fusion_lat": 0.0, "lon": -77.03199333333333, "is_disabled": 0, "rental_uris": {"android": "https://dc.lft.to/lastmile_qr_scan", "ios": "https://dc.lft.to/lastmile_qr_scan"}, "bike_id": "e7981db168e58acbdb926f3243c8f8a6", "fusion_lon": 0.0, "lat": 38.91780516666667}, {"type": "electric_scooter", "name": "05b9d920d2bba789e36ec67ca89078dd", "is_reserved": 0, "fusion_lat": 0.0, "lon": -77.029552, "is_disabled": 0, "rental_uris": {"android": "https://dc.lft.to/lastmile_qr_scan", "ios": "https://dc.lft.to/lastmile_qr_scan"}, "bike_id": "05b9d920d2bba789e36ec67ca89078dd", "fusion_lon": 0.0, "lat": 38.92863333333333}, {"type": "electric_scooter", "name": "ab89c4e2c46c0c1a1d4d9fe6e6ed5d24", "is_reserved": 0, "fusion_lat": 0.0, "lon": -77.03939466666667, "is_disabled": 0, "rental_uris": {"android": "https://dc.lft.to/lastmile_qr_scan", "ios": "https://dc.lft.to/lastmile_qr_scan"}, "bike_id": "ab89c4e2c46c0c1a1d4d9fe6e6ed5d24", "fusion_lon": 0.0, "lat": 38.917573833333336}, {"type": "electric_bike", "name": "2b71871501429d45c44563082305b623", "is_reserved": 0, "fusion_lat": 0.0, "lon": -77.02084266666667, "is_disabled": 0, "rental_uris": {"android": "https://dc.lft.to/lastmile_qr_scan", "ios": "https://dc.lft.to/lastmile_qr_scan"}, "bike_id": "2b71871501429d45c44563082305b623", "fusion_lon": 0.0, "lat": 38.884858}, {"type": "electric_scooter", "name": "94365a4676a0ec21644b4a68b73c3a30", "is_reserved": 0, "fusion_lat": 0.0, "lon": -77.029982, "is_disabled": 0, "rental_uris": {"android": "https://dc.lft.to/lastmile_qr_scan", "ios": "https://dc.lft.to/lastmile_qr_scan"}, "bike_id": "94365a4676a0ec21644b4a68b73c3a30", "fusion_lon": 0.0, "lat": 38.902590333333336}, {"type": "electric_scooter", "name": "d4d2f48aee95d3e3801189ea99346dac", "is_reserved": 0, "fusion_lat": 0.0, "lon": -77.02902066666667, "is_disabled": 0, "rental_uris": {"android": "https://dc.lft.to/lastmile_qr_scan", "ios": "https://dc.lft.to/lastmile_qr_scan"}, "bike_id": "d4d2f48aee95d3e3801189ea99346dac", "fusion_lon": 0.0, "lat": 38.917239}, {"type": "electric_bike", "name": "24a60f678877b196d8c9ce01d7a6e3c4", "is_reserved": 0, "fusion_lat": 0.0, "lon": -76.93546133333334, "is_disabled": 0, "rental_uris": {"android": "https://dc.lft.to/lastmile_qr_scan", "ios": "https://dc.lft.to/lastmile_qr_scan"}, "bike_id": "24a60f678877b196d8c9ce01d7a6e3c4", "fusion_lon": 0.0, "lat": 38.951860333333336}, {"type": "electric_scooter", "name": "18b1a45e14e561536bd866909338e5a5", "is_reserved": 0, "fusion_lat": 0.0, "lon": -77.01950316666667, "is_disabled": 0, "rental_uris": {"android": "https://dc.lft.to/lastmile_qr_scan", "ios": "https://dc.lft.to/lastmile_qr_scan"}, "bike_id": "18b1a45e14e561536bd866909338e5a5", "fusion_lon": 0.0, "lat": 38.923777}, {"type": "electric_scooter", "name": "e416fbb0649fff5ab10a7f83ccdc1746", "is_reserved": 0, "fusion_lat": 0.0, "lon": -77.00763666666667, "is_disabled": 0, "rental_uris": {"android": "https://dc.lft.to/lastmile_qr_scan", "ios": "https://dc.lft.to/lastmile_qr_scan"}, "bike_id": "e416fbb0649fff5ab10a7f83ccdc1746", "fusion_lon": 0.0, "lat": 38.92671}, {"type": "electric_scooter", "name": "77ee84af53236ef0a2ecc3d339457c94", "is_reserved": 0, "fusion_lat": 0.0, "lon": -76.9986745, "is_disabled": 0, "rental_uris": {"android": "https://dc.lft.to/lastmile_qr_scan", "ios": "https://dc.lft.to/lastmile_qr_scan"}, "bike_id": "77ee84af53236ef0a2ecc3d339457c94", "fusion_lon": 0.0, "lat": 38.90032683333333}, {"type": "electric_scooter", "name": "709f01735dca79f449603cd08a13acce", "is_reserved": 0, "fusion_lat": 0.0, "lon": -77.01355916666667, "is_disabled": 0, "rental_uris": {"android": "https://dc.lft.to/lastmile_qr_scan", "ios": "https://dc.lft.to/lastmile_qr_scan"}, "bike_id": "709f01735dca79f449603cd08a13acce", "fusion_lon": 0.0, "lat": 38.869682166666664}, {"type": "electric_scooter", "name": "681196f7d2ff64ccf2acec2126fbe419", "is_reserved": 0, "fusion_lat": 0.0, "lon": -77.02491466666666, "is_disabled": 0, "rental_uris": {"android": "https://dc.lft.to/lastmile_qr_scan", "ios": "https://dc.lft.to/lastmile_qr_scan"}, "bike_id": "681196f7d2ff64ccf2acec2126fbe419", "fusion_lon": 0.0, "lat": 38.938695}, {"type": "electric_scooter", "name": "02480e98b51dcfc99393abfa702ce485", "is_reserved": 0, "fusion_lat": 0.0, "lon": -77.0334695, "is_disabled": 0, "rental_uris": {"android": "https://dc.lft.to/lastmile_qr_scan", "ios": "https://dc.lft.to/lastmile_qr_scan"}, "bike_id": "02480e98b51dcfc99393abfa702ce485", "fusion_lon": 0.0, "lat": 38.89243233333333}, {"type": "electric_bike", "name": "5e6b8bbcb683e0cfd4c81a77d78bd06b", "is_reserved": 0, "fusion_lat": 0.0, "lon": -77.0252285, "is_disabled": 0, "rental_uris": {"android": "https://dc.lft.to/lastmile_qr_scan", "ios": "https://dc.lft.to/lastmile_qr_scan"}, "bike_id": "5e6b8bbcb683e0cfd4c81a77d78bd06b", "fusion_lon": 0.0, "lat": 38.898203}, {"type": "electric_bike", "name": "5623bf764a0c68b9fd72f54eeeca17bf", "is_reserved": 0, "fusion_lat": 0.0, "lon": -77.11851166666666, "is_disabled": 0, "rental_uris": {"android": "https://dc.lft.to/lastmile_qr_scan", "ios": "https://dc.lft.to/lastmile_qr_scan"}, "bike_id": "5623bf764a0c68b9fd72f54eeeca17bf", "fusion_lon": 0.0, "lat": 38.877372333333334}, {"type": "electric_scooter", "name": "cf3560d7a61bf102c5d689f179e6c813", "is_reserved": 0, "fusion_lat": 0.0, "lon": -77.02116016666666, "is_disabled": 0, "rental_uris": {"android": "https://dc.lft.to/lastmile_qr_scan", "ios": "https://dc.lft.to/lastmile_qr_scan"}, "bike_id": "cf3560d7a61bf102c5d689f179e6c813", "fusion_lon": 0.0, "lat": 38.9246315}, {"type": "electric_bike", "name": "ef777ca2f796cbf4b6600de2aa69fac3", "is_reserved": 0, "fusion_lat": 0.0, "lon": -77.07973083333333, "is_disabled": 0, "rental_uris": {"android": "https://dc.lft.to/lastmile_qr_scan", "ios": "https://dc.lft.to/lastmile_qr_scan"}, "bike_id": "ef777ca2f796cbf4b6600de2aa69fac3", "fusion_lon": 0.0, "lat": 38.9480895}, {"type": "electric_scooter", "name": "c3913a5207cb0b5d8515e925239decac", "is_reserved": 0, "fusion_lat": 0.0, "lon": -77.02282566666666, "is_disabled": 0, "rental_uris": {"android": "https://dc.lft.to/lastmile_qr_scan", "ios": "https://dc.lft.to/lastmile_qr_scan"}, "bike_id": "c3913a5207cb0b5d8515e925239decac", "fusion_lon": 0.0, "lat": 38.9096225}, {"type": "electric_scooter", "name": "efd92c29b04c0ba567a082dac5bd97a8", "is_reserved": 0, "fusion_lat": 0.0, "lon": -76.93733683333333, "is_disabled": 0, "rental_uris": {"android": "https://dc.lft.to/lastmile_qr_scan", "ios": "https://dc.lft.to/lastmile_qr_scan"}, "bike_id": "efd92c29b04c0ba567a082dac5bd97a8", "fusion_lon": 0.0, "lat": 38.890168}, {"type": "electric_scooter", "name": "01d66fa954dec95ca5a2b96d7537ee55", "is_reserved": 0, "fusion_lat": 0.0, "lon": -76.996073, "is_disabled": 0, "rental_uris": {"android": "https://dc.lft.to/lastmile_qr_scan", "ios": "https://dc.lft.to/lastmile_qr_scan"}, "bike_id": "01d66fa954dec95ca5a2b96d7537ee55", "fusion_lon": 0.0, "lat": 38.887023666666664}, {"type": "electric_scooter", "name": "a6b102f5796d3af60b5cb33e8471fe6f", "is_reserved": 0, "fusion_lat": 0.0, "lon": -77.05500516666666, "is_disabled": 0, "rental_uris": {"android": "https://dc.lft.to/lastmile_qr_scan", "ios": "https://dc.lft.to/lastmile_qr_scan"}, "bike_id": "a6b102f5796d3af60b5cb33e8471fe6f", "fusion_lon": 0.0, "lat": 38.929726}, {"type": "electric_scooter", "name": "44a0e814b206ef718ddb75e3afe9ac5e", "is_reserved": 0, "fusion_lat": 0.0, "lon": -77.01131966666667, "is_disabled": 0, "rental_uris": {"android": "https://dc.lft.to/lastmile_qr_scan", "ios": "https://dc.lft.to/lastmile_qr_scan"}, "bike_id": "44a0e814b206ef718ddb75e3afe9ac5e", "fusion_lon": 0.0, "lat": 38.915895666666664}, {"type": "electric_scooter", "name": "0d41c56441ec638c2e6046f0b189e3d7", "is_reserved": 0, "fusion_lat": 0.0, "lon": -77.03006333333333, "is_disabled": 0, "rental_uris": {"android": "https://dc.lft.to/lastmile_qr_scan", "ios": "https://dc.lft.to/lastmile_qr_scan"}, "bike_id": "0d41c56441ec638c2e6046f0b189e3d7", "fusion_lon": 0.0, "lat": 38.89390816666667}, {"type": "electric_scooter", "name": "d845f895e778910e2f78856a55218e53", "is_reserved": 0, "fusion_lat": 0.0, "lon": -76.96527333333333, "is_disabled": 0, "rental_uris": {"android": "https://dc.lft.to/lastmile_qr_scan", "ios": "https://dc.lft.to/lastmile_qr_scan"}, "bike_id": "d845f895e778910e2f78856a55218e53", "fusion_lon": 0.0, "lat": 38.876303}, {"type": "electric_bike", "name": "201460aef2632bd07e73aa17e40b6aef", "is_reserved": 0, "fusion_lat": 0.0, "lon": -77.07793216666667, "is_disabled": 0, "rental_uris": {"android": "https://dc.lft.to/lastmile_qr_scan", "ios": "https://dc.lft.to/lastmile_qr_scan"}, "bike_id": "201460aef2632bd07e73aa17e40b6aef", "fusion_lon": 0.0, "lat": 38.9960315}, {"type": "electric_bike", "name": "9ac1de4ae20b2369fc69e906d2a1f1f6", "is_reserved": 0, "fusion_lat": 0.0, "lon": -77.11798916666666, "is_disabled": 0, "rental_uris": {"android": "https://dc.lft.to/lastmile_qr_scan", "ios": "https://dc.lft.to/lastmile_qr_scan"}, "bike_id": "9ac1de4ae20b2369fc69e906d2a1f1f6", "fusion_lon": 0.0, "lat": 38.8737605}, {"type": "electric_scooter", "name": "77facb7a66f2fe57c9b760406d51c398", "is_reserved": 0, "fusion_lat": 0.0, "lon": -77.04036183333334, "is_disabled": 0, "rental_uris": {"android": "https://dc.lft.to/lastmile_qr_scan", "ios": "https://dc.lft.to/lastmile_qr_scan"}, "bike_id": "77facb7a66f2fe57c9b760406d51c398", "fusion_lon": 0.0, "lat": 38.911212666666664}, {"type": "electric_scooter", "name": "6cd075dc885b3f02f230c61c614d1202", "is_reserved": 0, "fusion_lat": 0.0, "lon": -77.03258316666667, "is_disabled": 0, "rental_uris": {"android": "https://dc.lft.to/lastmile_qr_scan", "ios": "https://dc.lft.to/lastmile_qr_scan"}, "bike_id": "6cd075dc885b3f02f230c61c614d1202", "fusion_lon": 0.0, "lat": 38.896973333333335}, {"type": "electric_scooter", "name": "097d00479ea3dd54c1df5b1d96cfc665", "is_reserved": 0, "fusion_lat": 0.0, "lon": -77.0326905, "is_disabled": 0, "rental_uris": {"android": "https://dc.lft.to/lastmile_qr_scan", "ios": "https://dc.lft.to/lastmile_qr_scan"}, "bike_id": "097d00479ea3dd54c1df5b1d96cfc665", "fusion_lon": 0.0, "lat": 38.933648}, {"type": "electric_scooter", "name": "bc787e4adb90db1410fbebb31a4e58c0", "is_reserved": 0, "fusion_lat": 0.0, "lon": -77.00373283333333, "is_disabled": 0, "rental_uris": {"android": "https://dc.lft.to/lastmile_qr_scan", "ios": "https://dc.lft.to/lastmile_qr_scan"}, "bike_id": "bc787e4adb90db1410fbebb31a4e58c0", "fusion_lon": 0.0, "lat": 38.8974225}, {"type": "electric_scooter", "name": "b01556b5ef9a7cc7f8b09e2b68b3f57e", "is_reserved": 0, "fusion_lat": 0.0, "lon": -76.982721, "is_disabled": 0, "rental_uris": {"android": "https://dc.lft.to/lastmile_qr_scan", "ios": "https://dc.lft.to/lastmile_qr_scan"}, "bike_id": "b01556b5ef9a7cc7f8b09e2b68b3f57e", "fusion_lon": 0.0, "lat": 38.86308416666667}, {"type": "electric_scooter", "name": "fc99ff92afb5644915bbade3b1b02d19", "is_reserved": 0, "fusion_lat": 0.0, "lon": -76.99945216666667, "is_disabled": 0, "rental_uris": {"android": "https://dc.lft.to/lastmile_qr_scan", "ios": "https://dc.lft.to/lastmile_qr_scan"}, "bike_id": "fc99ff92afb5644915bbade3b1b02d19", "fusion_lon": 0.0, "lat": 38.900163}, {"type": "electric_scooter", "name": "7cc0cfaa77fc1983ca94040764d1f074", "is_reserved": 0, "fusion_lat": 0.0, "lon": -77.00202533333334, "is_disabled": 0, "rental_uris": {"android": "https://dc.lft.to/lastmile_qr_scan", "ios": "https://dc.lft.to/lastmile_qr_scan"}, "bike_id": "7cc0cfaa77fc1983ca94040764d1f074", "fusion_lon": 0.0, "lat": 38.90239716666667}, {"type": "electric_scooter", "name": "f0ad164e4cffee3b64197b94851761e5", "is_reserved": 0, "fusion_lat": 0.0, "lon": -77.05582833333334, "is_disabled": 0, "rental_uris": {"android": "https://dc.lft.to/lastmile_qr_scan", "ios": "https://dc.lft.to/lastmile_qr_scan"}, "bike_id": "f0ad164e4cffee3b64197b94851761e5", "fusion_lon": 0.0, "lat": 38.9361695}, {"type": "electric_scooter", "name": "d1225de46cff84aa2a13f2d15255f8e1", "is_reserved": 0, "fusion_lat": 0.0, "lon": -77.01714016666666, "is_disabled": 0, "rental_uris": {"android": "https://dc.lft.to/lastmile_qr_scan", "ios": "https://dc.lft.to/lastmile_qr_scan"}, "bike_id": "d1225de46cff84aa2a13f2d15255f8e1", "fusion_lon": 0.0, "lat": 38.91486666666667}, {"type": "electric_scooter", "name": "3a0db643580da754aa4add27166d49fc", "is_reserved": 0, "fusion_lat": 0.0, "lon": -77.044826, "is_disabled": 0, "rental_uris": {"android": "https://dc.lft.to/lastmile_qr_scan", "ios": "https://dc.lft.to/lastmile_qr_scan"}, "bike_id": "3a0db643580da754aa4add27166d49fc", "fusion_lon": 0.0, "lat": 38.924067}, {"type": "electric_scooter", "name": "8fca4942ce479cac8e3261293e2467f1", "is_reserved": 0, "fusion_lat": 0.0, "lon": -77.03533833333333, "is_disabled": 0, "rental_uris": {"android": "https://dc.lft.to/lastmile_qr_scan", "ios": "https://dc.lft.to/lastmile_qr_scan"}, "bike_id": "8fca4942ce479cac8e3261293e2467f1", "fusion_lon": 0.0, "lat": 38.9231855}, {"type": "electric_scooter", "name": "662cf707720f916c740682b46d50a8af", "is_reserved": 0, "fusion_lat": 0.0, "lon": -77.00173816666667, "is_disabled": 0, "rental_uris": {"android": "https://dc.lft.to/lastmile_qr_scan", "ios": "https://dc.lft.to/lastmile_qr_scan"}, "bike_id": "662cf707720f916c740682b46d50a8af", "fusion_lon": 0.0, "lat": 38.87635683333333}, {"type": "electric_scooter", "name": "cc3e5768bbe6c67d52a344912f837014", "is_reserved": 0, "fusion_lat": 0.0, "lon": -77.00600783333333, "is_disabled": 0, "rental_uris": {"android": "https://dc.lft.to/lastmile_qr_scan", "ios": "https://dc.lft.to/lastmile_qr_scan"}, "bike_id": "cc3e5768bbe6c67d52a344912f837014", "fusion_lon": 0.0, "lat": 38.906425166666665}, {"type": "electric_bike", "name": "abeb2b7ec309e7c5c57e4830b61175a9", "is_reserved": 0, "fusion_lat": 0.0, "lon": -76.99220533333333, "is_disabled": 0, "rental_uris": {"android": "https://dc.lft.to/lastmile_qr_scan", "ios": "https://dc.lft.to/lastmile_qr_scan"}, "bike_id": "abeb2b7ec309e7c5c57e4830b61175a9", "fusion_lon": 0.0, "lat": 38.89738066666666}, {"type": "electric_scooter", "name": "7fc7fe529be73c823b0f4adb4c28b167", "is_reserved": 0, "fusion_lat": 0.0, "lon": -77.00362433333333, "is_disabled": 0, "rental_uris": {"android": "https://dc.lft.to/lastmile_qr_scan", "ios": "https://dc.lft.to/lastmile_qr_scan"}, "bike_id": "7fc7fe529be73c823b0f4adb4c28b167", "fusion_lon": 0.0, "lat": 38.880403666666666}, {"type": "electric_scooter", "name": "cc065658de96eab8af990aab3675b820", "is_reserved": 0, "fusion_lat": 0.0, "lon": -77.00916033333333, "is_disabled": 0, "rental_uris": {"android": "https://dc.lft.to/lastmile_qr_scan", "ios": "https://dc.lft.to/lastmile_qr_scan"}, "bike_id": "cc065658de96eab8af990aab3675b820", "fusion_lon": 0.0, "lat": 38.827902333333334}, {"type": "electric_scooter", "name": "4ff66fc071767a53e47b4f353da4179b", "is_reserved": 0, "fusion_lat": 0.0, "lon": -77.03279733333333, "is_disabled": 0, "rental_uris": {"android": "https://dc.lft.to/lastmile_qr_scan", "ios": "https://dc.lft.to/lastmile_qr_scan"}, "bike_id": "4ff66fc071767a53e47b4f353da4179b", "fusion_lon": 0.0, "lat": 38.93205433333333}, {"type": "electric_scooter", "name": "a2fa8f7ce8439d1327758c9d0c4f6cc1", "is_reserved": 0, "fusion_lat": 0.0, "lon": -77.02175166666666, "is_disabled": 0, "rental_uris": {"android": "https://dc.lft.to/lastmile_qr_scan", "ios": "https://dc.lft.to/lastmile_qr_scan"}, "bike_id": "a2fa8f7ce8439d1327758c9d0c4f6cc1", "fusion_lon": 0.0, "lat": 38.9198205}, {"type": "electric_scooter", "name": "2d3f0d8c260b3c98c2818635540759a2", "is_reserved": 0, "fusion_lat": 0.0, "lon": -76.93751216666666, "is_disabled": 0, "rental_uris": {"android": "https://dc.lft.to/lastmile_qr_scan", "ios": "https://dc.lft.to/lastmile_qr_scan"}, "bike_id": "2d3f0d8c260b3c98c2818635540759a2", "fusion_lon": 0.0, "lat": 38.89043816666667}, {"type": "electric_scooter", "name": "51817d38fefd592b211e0a4b3c9aede9", "is_reserved": 0, "fusion_lat": 0.0, "lon": -76.94958733333333, "is_disabled": 0, "rental_uris": {"android": "https://dc.lft.to/lastmile_qr_scan", "ios": "https://dc.lft.to/lastmile_qr_scan"}, "bike_id": "51817d38fefd592b211e0a4b3c9aede9", "fusion_lon": 0.0, "lat": 38.894390333333334}, {"type": "electric_scooter", "name": "3798988eadf00ffb02b6840f2df0addd", "is_reserved": 0, "fusion_lat": 0.0, "lon": -76.97423033333334, "is_disabled": 0, "rental_uris": {"android": "https://dc.lft.to/lastmile_qr_scan", "ios": "https://dc.lft.to/lastmile_qr_scan"}, "bike_id": "3798988eadf00ffb02b6840f2df0addd", "fusion_lon": 0.0, "lat": 38.90405483333333}, {"type": "electric_bike", "name": "64d2e6e0bfd1797d25ef2136152231f9", "is_reserved": 0, "fusion_lat": 0.0, "lon": -77.07305616666666, "is_disabled": 0, "rental_uris": {"android": "https://dc.lft.to/lastmile_qr_scan", "ios": "https://dc.lft.to/lastmile_qr_scan"}, "bike_id": "64d2e6e0bfd1797d25ef2136152231f9", "fusion_lon": 0.0, "lat": 38.864861166666664}, {"type": "electric_scooter", "name": "c2077fc7128930b31fb2b665252eb877", "is_reserved": 0, "fusion_lat": 0.0, "lon": -76.94381383333334, "is_disabled": 0, "rental_uris": {"android": "https://dc.lft.to/lastmile_qr_scan", "ios": "https://dc.lft.to/lastmile_qr_scan"}, "bike_id": "c2077fc7128930b31fb2b665252eb877", "fusion_lon": 0.0, "lat": 38.8932385}, {"type": "electric_scooter", "name": "00f5c25885e1b31599a388e43f3b309f", "is_reserved": 0, "fusion_lat": 0.0, "lon": -77.01231566666667, "is_disabled": 0, "rental_uris": {"android": "https://dc.lft.to/lastmile_qr_scan", "ios": "https://dc.lft.to/lastmile_qr_scan"}, "bike_id": "00f5c25885e1b31599a388e43f3b309f", "fusion_lon": 0.0, "lat": 38.93105666666666}, {"type": "electric_scooter", "name": "92d9a3c2576196286dff0dafd9d00ea2", "is_reserved": 0, "fusion_lat": 0.0, "lon": -76.98706816666666, "is_disabled": 0, "rental_uris": {"android": "https://dc.lft.to/lastmile_qr_scan", "ios": "https://dc.lft.to/lastmile_qr_scan"}, "bike_id": "92d9a3c2576196286dff0dafd9d00ea2", "fusion_lon": 0.0, "lat": 38.899696}, {"type": "electric_scooter", "name": "abf113782888069a3726898ec4181d20", "is_reserved": 0, "fusion_lat": 0.0, "lon": -77.0433845, "is_disabled": 0, "rental_uris": {"android": "https://dc.lft.to/lastmile_qr_scan", "ios": "https://dc.lft.to/lastmile_qr_scan"}, "bike_id": "abf113782888069a3726898ec4181d20", "fusion_lon": 0.0, "lat": 38.91787766666667}, {"type": "electric_bike", "name": "364c56bc907d9624822d5cee539ca416", "is_reserved": 0, "fusion_lat": 0.0, "lon": -76.97828016666666, "is_disabled": 0, "rental_uris": {"android": "https://dc.lft.to/lastmile_qr_scan", "ios": "https://dc.lft.to/lastmile_qr_scan"}, "bike_id": "364c56bc907d9624822d5cee539ca416", "fusion_lon": 0.0, "lat": 38.84372233333333}, {"type": "electric_scooter", "name": "c10c1fe2d94bbb0e379581939fa65f3a", "is_reserved": 0, "fusion_lat": 0.0, "lon": -77.03893216666667, "is_disabled": 0, "rental_uris": {"android": "https://dc.lft.to/lastmile_qr_scan", "ios": "https://dc.lft.to/lastmile_qr_scan"}, "bike_id": "c10c1fe2d94bbb0e379581939fa65f3a", "fusion_lon": 0.0, "lat": 38.9325465}, {"type": "electric_scooter", "name": "dafc247045e246273506ddc25ef44f1c", "is_reserved": 0, "fusion_lat": 0.0, "lon": -76.99775316666667, "is_disabled": 0, "rental_uris": {"android": "https://dc.lft.to/lastmile_qr_scan", "ios": "https://dc.lft.to/lastmile_qr_scan"}, "bike_id": "dafc247045e246273506ddc25ef44f1c", "fusion_lon": 0.0, "lat": 38.84431583333333}, {"type": "electric_scooter", "name": "aa0f74bb214ac09a935d4d24f1d30c21", "is_reserved": 0, "fusion_lat": 0.0, "lon": -77.004935, "is_disabled": 0, "rental_uris": {"android": "https://dc.lft.to/lastmile_qr_scan", "ios": "https://dc.lft.to/lastmile_qr_scan"}, "bike_id": "aa0f74bb214ac09a935d4d24f1d30c21", "fusion_lon": 0.0, "lat": 38.8968905}, {"type": "electric_scooter", "name": "cc4b12364d70277a778d9bf13c085d70", "is_reserved": 0, "fusion_lat": 0.0, "lon": -77.02084966666666, "is_disabled": 0, "rental_uris": {"android": "https://dc.lft.to/lastmile_qr_scan", "ios": "https://dc.lft.to/lastmile_qr_scan"}, "bike_id": "cc4b12364d70277a778d9bf13c085d70", "fusion_lon": 0.0, "lat": 38.921376333333335}, {"type": "electric_scooter", "name": "bb20c4df1280a642e2d80cfbc480c30b", "is_reserved": 0, "fusion_lat": 0.0, "lon": -77.02196533333333, "is_disabled": 0, "rental_uris": {"android": "https://dc.lft.to/lastmile_qr_scan", "ios": "https://dc.lft.to/lastmile_qr_scan"}, "bike_id": "bb20c4df1280a642e2d80cfbc480c30b", "fusion_lon": 0.0, "lat": 38.90000966666667}, {"type": "electric_scooter", "name": "22d7676bd03062c46095e38f6f364845", "is_reserved": 0, "fusion_lat": 0.0, "lon": -77.023237, "is_disabled": 0, "rental_uris": {"android": "https://dc.lft.to/lastmile_qr_scan", "ios": "https://dc.lft.to/lastmile_qr_scan"}, "bike_id": "22d7676bd03062c46095e38f6f364845", "fusion_lon": 0.0, "lat": 38.92805466666667}, {"type": "electric_scooter", "name": "9b562e639366b0a9faa890f272614ff0", "is_reserved": 0, "fusion_lat": 0.0, "lon": -77.03180933333333, "is_disabled": 0, "rental_uris": {"android": "https://dc.lft.to/lastmile_qr_scan", "ios": "https://dc.lft.to/lastmile_qr_scan"}, "bike_id": "9b562e639366b0a9faa890f272614ff0", "fusion_lon": 0.0, "lat": 38.917744666666664}, {"type": "electric_scooter", "name": "0380064cb59c37b81f82526d3140da78", "is_reserved": 0, "fusion_lat": 0.0, "lon": -76.9865695, "is_disabled": 0, "rental_uris": {"android": "https://dc.lft.to/lastmile_qr_scan", "ios": "https://dc.lft.to/lastmile_qr_scan"}, "bike_id": "0380064cb59c37b81f82526d3140da78", "fusion_lon": 0.0, "lat": 38.8673305}, {"type": "electric_scooter", "name": "bc71947538631d5409012849e2978cfe", "is_reserved": 0, "fusion_lat": 0.0, "lon": -77.01175233333333, "is_disabled": 0, "rental_uris": {"android": "https://dc.lft.to/lastmile_qr_scan", "ios": "https://dc.lft.to/lastmile_qr_scan"}, "bike_id": "bc71947538631d5409012849e2978cfe", "fusion_lon": 0.0, "lat": 38.91565533333333}, {"type": "electric_scooter", "name": "b95a50aea030d2bceba03b5ba92f0016", "is_reserved": 0, "fusion_lat": 0.0, "lon": -77.0180835, "is_disabled": 0, "rental_uris": {"android": "https://dc.lft.to/lastmile_qr_scan", "ios": "https://dc.lft.to/lastmile_qr_scan"}, "bike_id": "b95a50aea030d2bceba03b5ba92f0016", "fusion_lon": 0.0, "lat": 38.914152333333334}, {"type": "electric_scooter", "name": "17489c9dd93d3907e3a190d856a89b6d", "is_reserved": 0, "fusion_lat": 0.0, "lon": -77.0020295, "is_disabled": 0, "rental_uris": {"android": "https://dc.lft.to/lastmile_qr_scan", "ios": "https://dc.lft.to/lastmile_qr_scan"}, "bike_id": "17489c9dd93d3907e3a190d856a89b6d", "fusion_lon": 0.0, "lat": 38.902383}, {"type": "electric_scooter", "name": "26237841006547be7bf471a85dd7a278", "is_reserved": 0, "fusion_lat": 0.0, "lon": -76.95475583333334, "is_disabled": 0, "rental_uris": {"android": "https://dc.lft.to/lastmile_qr_scan", "ios": "https://dc.lft.to/lastmile_qr_scan"}, "bike_id": "26237841006547be7bf471a85dd7a278", "fusion_lon": 0.0, "lat": 38.886434}, {"type": "electric_scooter", "name": "989060cddfc04632772aeed5ef306f86", "is_reserved": 0, "fusion_lat": 0.0, "lon": -76.93987816666667, "is_disabled": 0, "rental_uris": {"android": "https://dc.lft.to/lastmile_qr_scan", "ios": "https://dc.lft.to/lastmile_qr_scan"}, "bike_id": "989060cddfc04632772aeed5ef306f86", "fusion_lon": 0.0, "lat": 38.8998045}, {"type": "electric_scooter", "name": "2018aa0b2c03ca802176371d2a5363de", "is_reserved": 0, "fusion_lat": 0.0, "lon": -77.033157, "is_disabled": 0, "rental_uris": {"android": "https://dc.lft.to/lastmile_qr_scan", "ios": "https://dc.lft.to/lastmile_qr_scan"}, "bike_id": "2018aa0b2c03ca802176371d2a5363de", "fusion_lon": 0.0, "lat": 38.913173}, {"type": "electric_scooter", "name": "633601ad14c84d106a2c19f030a31fe3", "is_reserved": 0, "fusion_lat": 0.0, "lon": -76.98493983333333, "is_disabled": 0, "rental_uris": {"android": "https://dc.lft.to/lastmile_qr_scan", "ios": "https://dc.lft.to/lastmile_qr_scan"}, "bike_id": "633601ad14c84d106a2c19f030a31fe3", "fusion_lon": 0.0, "lat": 38.90389716666667}, {"type": "electric_scooter", "name": "09306d6cec21a22030ef86faf45ea91a", "is_reserved": 0, "fusion_lat": 0.0, "lon": -77.04619383333333, "is_disabled": 0, "rental_uris": {"android": "https://dc.lft.to/lastmile_qr_scan", "ios": "https://dc.lft.to/lastmile_qr_scan"}, "bike_id": "09306d6cec21a22030ef86faf45ea91a", "fusion_lon": 0.0, "lat": 38.916766833333334}, {"type": "electric_bike", "name": "cece18a319e90491ccffd42262903459", "is_reserved": 0, "fusion_lat": 0.0, "lon": -77.1828695, "is_disabled": 0, "rental_uris": {"android": "https://dc.lft.to/lastmile_qr_scan", "ios": "https://dc.lft.to/lastmile_qr_scan"}, "bike_id": "cece18a319e90491ccffd42262903459", "fusion_lon": 0.0, "lat": 38.89087833333333}, {"type": "electric_scooter", "name": "bf4374c0ffe0503ecbdbbf030f8f686c", "is_reserved": 0, "fusion_lat": 0.0, "lon": -76.990061, "is_disabled": 0, "rental_uris": {"android": "https://dc.lft.to/lastmile_qr_scan", "ios": "https://dc.lft.to/lastmile_qr_scan"}, "bike_id": "bf4374c0ffe0503ecbdbbf030f8f686c", "fusion_lon": 0.0, "lat": 38.858808}, {"type": "electric_scooter", "name": "64c60f40d4a2b0a39085915220b38e1d", "is_reserved": 0, "fusion_lat": 0.0, "lon": -77.054318, "is_disabled": 0, "rental_uris": {"android": "https://dc.lft.to/lastmile_qr_scan", "ios": "https://dc.lft.to/lastmile_qr_scan"}, "bike_id": "64c60f40d4a2b0a39085915220b38e1d", "fusion_lon": 0.0, "lat": 38.92352283333334}, {"type": "electric_scooter", "name": "d96d11fb2bf13ddbbd80aabfba5e1a83", "is_reserved": 0, "fusion_lat": 0.0, "lon": -77.0349175, "is_disabled": 0, "rental_uris": {"android": "https://dc.lft.to/lastmile_qr_scan", "ios": "https://dc.lft.to/lastmile_qr_scan"}, "bike_id": "d96d11fb2bf13ddbbd80aabfba5e1a83", "fusion_lon": 0.0, "lat": 38.9326275}, {"type": "electric_scooter", "name": "7f864e70c9537f801a6934f45e7c11f2", "is_reserved": 0, "fusion_lat": 0.0, "lon": -77.03467316666666, "is_disabled": 0, "rental_uris": {"android": "https://dc.lft.to/lastmile_qr_scan", "ios": "https://dc.lft.to/lastmile_qr_scan"}, "bike_id": "7f864e70c9537f801a6934f45e7c11f2", "fusion_lon": 0.0, "lat": 38.91708116666667}, {"type": "electric_scooter", "name": "2a77cb8df56f49142026bb9f3f7d87b1", "is_reserved": 0, "fusion_lat": 0.0, "lon": -77.02746483333334, "is_disabled": 0, "rental_uris": {"android": "https://dc.lft.to/lastmile_qr_scan", "ios": "https://dc.lft.to/lastmile_qr_scan"}, "bike_id": "2a77cb8df56f49142026bb9f3f7d87b1", "fusion_lon": 0.0, "lat": 38.92406}, {"type": "electric_scooter", "name": "e1ce522132fc0072a8ec433d0c4f9575", "is_reserved": 0, "fusion_lat": 0.0, "lon": -77.01898566666667, "is_disabled": 0, "rental_uris": {"android": "https://dc.lft.to/lastmile_qr_scan", "ios": "https://dc.lft.to/lastmile_qr_scan"}, "bike_id": "e1ce522132fc0072a8ec433d0c4f9575", "fusion_lon": 0.0, "lat": 38.913815166666666}, {"type": "electric_scooter", "name": "d8ef82d5bacb60ef0361b7c1cefae904", "is_reserved": 0, "fusion_lat": 0.0, "lon": -77.0318245, "is_disabled": 0, "rental_uris": {"android": "https://dc.lft.to/lastmile_qr_scan", "ios": "https://dc.lft.to/lastmile_qr_scan"}, "bike_id": "d8ef82d5bacb60ef0361b7c1cefae904", "fusion_lon": 0.0, "lat": 38.91626466666666}, {"type": "electric_scooter", "name": "81f8c64b81a7a4605b1ab4f463f41879", "is_reserved": 0, "fusion_lat": 0.0, "lon": -77.04235383333334, "is_disabled": 0, "rental_uris": {"android": "https://dc.lft.to/lastmile_qr_scan", "ios": "https://dc.lft.to/lastmile_qr_scan"}, "bike_id": "81f8c64b81a7a4605b1ab4f463f41879", "fusion_lon": 0.0, "lat": 38.906471333333336}, {"type": "electric_scooter", "name": "e9cef2a9a282325486dc9b47b7fd3a6d", "is_reserved": 0, "fusion_lat": 0.0, "lon": -77.02893533333334, "is_disabled": 0, "rental_uris": {"android": "https://dc.lft.to/lastmile_qr_scan", "ios": "https://dc.lft.to/lastmile_qr_scan"}, "bike_id": "e9cef2a9a282325486dc9b47b7fd3a6d", "fusion_lon": 0.0, "lat": 38.9032465}, {"type": "electric_scooter", "name": "43de24d696aa144f14dfe32f6927ddcf", "is_reserved": 0, "fusion_lat": 0.0, "lon": -77.027344, "is_disabled": 0, "rental_uris": {"android": "https://dc.lft.to/lastmile_qr_scan", "ios": "https://dc.lft.to/lastmile_qr_scan"}, "bike_id": "43de24d696aa144f14dfe32f6927ddcf", "fusion_lon": 0.0, "lat": 38.9276755}, {"type": "electric_scooter", "name": "bd1acc15f4e9fff83547880f414539ef", "is_reserved": 0, "fusion_lat": 0.0, "lon": -77.03925516666666, "is_disabled": 0, "rental_uris": {"android": "https://dc.lft.to/lastmile_qr_scan", "ios": "https://dc.lft.to/lastmile_qr_scan"}, "bike_id": "bd1acc15f4e9fff83547880f414539ef", "fusion_lon": 0.0, "lat": 38.903569833333336}, {"type": "electric_scooter", "name": "f84fde02c26cfc8719d8ba7e34db45a9", "is_reserved": 0, "fusion_lat": 0.0, "lon": -77.02277183333334, "is_disabled": 0, "rental_uris": {"android": "https://dc.lft.to/lastmile_qr_scan", "ios": "https://dc.lft.to/lastmile_qr_scan"}, "bike_id": "f84fde02c26cfc8719d8ba7e34db45a9", "fusion_lon": 0.0, "lat": 38.895015666666666}, {"type": "electric_scooter", "name": "768556e5370bf09b6113fccb05d373b0", "is_reserved": 0, "fusion_lat": 0.0, "lon": -77.07166683333334, "is_disabled": 0, "rental_uris": {"android": "https://dc.lft.to/lastmile_qr_scan", "ios": "https://dc.lft.to/lastmile_qr_scan"}, "bike_id": "768556e5370bf09b6113fccb05d373b0", "fusion_lon": 0.0, "lat": 38.9078105}, {"type": "electric_scooter", "name": "39296443ef734f53f6924ff83d0e75b5", "is_reserved": 0, "fusion_lat": 0.0, "lon": -77.0467885, "is_disabled": 0, "rental_uris": {"android": "https://dc.lft.to/lastmile_qr_scan", "ios": "https://dc.lft.to/lastmile_qr_scan"}, "bike_id": "39296443ef734f53f6924ff83d0e75b5", "fusion_lon": 0.0, "lat": 38.901726}, {"type": "electric_scooter", "name": "c2e6ad3d141a9913271e9fa36396a5c5", "is_reserved": 0, "fusion_lat": 0.0, "lon": -77.03033, "is_disabled": 0, "rental_uris": {"android": "https://dc.lft.to/lastmile_qr_scan", "ios": "https://dc.lft.to/lastmile_qr_scan"}, "bike_id": "c2e6ad3d141a9913271e9fa36396a5c5", "fusion_lon": 0.0, "lat": 38.922498}, {"type": "electric_scooter", "name": "1f1144ac0f5dccd4c70389cadb733a10", "is_reserved": 0, "fusion_lat": 0.0, "lon": -77.0387315, "is_disabled": 0, "rental_uris": {"android": "https://dc.lft.to/lastmile_qr_scan", "ios": "https://dc.lft.to/lastmile_qr_scan"}, "bike_id": "1f1144ac0f5dccd4c70389cadb733a10", "fusion_lon": 0.0, "lat": 38.921550333333336}, {"type": "electric_scooter", "name": "8ca66f27aa680d2b781c329029438faa", "is_reserved": 0, "fusion_lat": 0.0, "lon": -77.04370666666667, "is_disabled": 0, "rental_uris": {"android": "https://dc.lft.to/lastmile_qr_scan", "ios": "https://dc.lft.to/lastmile_qr_scan"}, "bike_id": "8ca66f27aa680d2b781c329029438faa", "fusion_lon": 0.0, "lat": 38.921365333333334}, {"type": "electric_scooter", "name": "90e1c6f4a1f96597a9e9922efd608bd7", "is_reserved": 0, "fusion_lat": 0.0, "lon": -77.04784483333333, "is_disabled": 0, "rental_uris": {"android": "https://dc.lft.to/lastmile_qr_scan", "ios": "https://dc.lft.to/lastmile_qr_scan"}, "bike_id": "90e1c6f4a1f96597a9e9922efd608bd7", "fusion_lon": 0.0, "lat": 38.893660833333335}, {"type": "electric_scooter", "name": "e7f9ca7b4c89dc034b8b12a122d333f7", "is_reserved": 0, "fusion_lat": 0.0, "lon": -77.07145416666667, "is_disabled": 0, "rental_uris": {"android": "https://dc.lft.to/lastmile_qr_scan", "ios": "https://dc.lft.to/lastmile_qr_scan"}, "bike_id": "e7f9ca7b4c89dc034b8b12a122d333f7", "fusion_lon": 0.0, "lat": 38.945600166666665}, {"type": "electric_scooter", "name": "b8a2b369be2a5969c65bba50a8939243", "is_reserved": 0, "fusion_lat": 0.0, "lon": -77.02959933333334, "is_disabled": 0, "rental_uris": {"android": "https://dc.lft.to/lastmile_qr_scan", "ios": "https://dc.lft.to/lastmile_qr_scan"}, "bike_id": "b8a2b369be2a5969c65bba50a8939243", "fusion_lon": 0.0, "lat": 38.91029433333333}, {"type": "electric_bike", "name": "b5435dab3305a0ed936d397a1bba1047", "is_reserved": 0, "fusion_lat": 0.0, "lon": -77.02626483333333, "is_disabled": 0, "rental_uris": {"android": "https://dc.lft.to/lastmile_qr_scan", "ios": "https://dc.lft.to/lastmile_qr_scan"}, "bike_id": "b5435dab3305a0ed936d397a1bba1047", "fusion_lon": 0.0, "lat": 38.962266}, {"type": "electric_scooter", "name": "97c07c942073bee6f824a88e93cfafac", "is_reserved": 0, "fusion_lat": 0.0, "lon": -76.96528133333334, "is_disabled": 0, "rental_uris": {"android": "https://dc.lft.to/lastmile_qr_scan", "ios": "https://dc.lft.to/lastmile_qr_scan"}, "bike_id": "97c07c942073bee6f824a88e93cfafac", "fusion_lon": 0.0, "lat": 38.876306166666666}, {"type": "electric_scooter", "name": "b609fc0a1d461c258167a0989c5decbb", "is_reserved": 0, "fusion_lat": 0.0, "lon": -77.06523183333333, "is_disabled": 0, "rental_uris": {"android": "https://dc.lft.to/lastmile_qr_scan", "ios": "https://dc.lft.to/lastmile_qr_scan"}, "bike_id": "b609fc0a1d461c258167a0989c5decbb", "fusion_lon": 0.0, "lat": 38.90529933333333}, {"type": "electric_scooter", "name": "f83d0a358ed4c1cc19d1b987fa538a54", "is_reserved": 0, "fusion_lat": 0.0, "lon": -77.04359266666667, "is_disabled": 0, "rental_uris": {"android": "https://dc.lft.to/lastmile_qr_scan", "ios": "https://dc.lft.to/lastmile_qr_scan"}, "bike_id": "f83d0a358ed4c1cc19d1b987fa538a54", "fusion_lon": 0.0, "lat": 38.905327166666666}, {"type": "electric_scooter", "name": "50096949c488c47279e4165b110c914c", "is_reserved": 0, "fusion_lat": 0.0, "lon": -77.04390916666667, "is_disabled": 0, "rental_uris": {"android": "https://dc.lft.to/lastmile_qr_scan", "ios": "https://dc.lft.to/lastmile_qr_scan"}, "bike_id": "50096949c488c47279e4165b110c914c", "fusion_lon": 0.0, "lat": 38.91423566666667}, {"type": "electric_scooter", "name": "b88e7097895040e2be810fbb405506fd", "is_reserved": 0, "fusion_lat": 0.0, "lon": -77.02764916666666, "is_disabled": 0, "rental_uris": {"android": "https://dc.lft.to/lastmile_qr_scan", "ios": "https://dc.lft.to/lastmile_qr_scan"}, "bike_id": "b88e7097895040e2be810fbb405506fd", "fusion_lon": 0.0, "lat": 38.954247333333335}, {"type": "electric_scooter", "name": "0f5b9052d9f816464b4c9d221e48f067", "is_reserved": 0, "fusion_lat": 0.0, "lon": -77.03442333333334, "is_disabled": 0, "rental_uris": {"android": "https://dc.lft.to/lastmile_qr_scan", "ios": "https://dc.lft.to/lastmile_qr_scan"}, "bike_id": "0f5b9052d9f816464b4c9d221e48f067", "fusion_lon": 0.0, "lat": 38.91810983333333}, {"type": "electric_scooter", "name": "c363448ea2fb1f2f4495735f829f3ae8", "is_reserved": 0, "fusion_lat": 0.0, "lon": -77.03208716666667, "is_disabled": 0, "rental_uris": {"android": "https://dc.lft.to/lastmile_qr_scan", "ios": "https://dc.lft.to/lastmile_qr_scan"}, "bike_id": "c363448ea2fb1f2f4495735f829f3ae8", "fusion_lon": 0.0, "lat": 38.908960666666665}, {"type": "electric_scooter", "name": "75416af5ff7695501ff0c469d159e407", "is_reserved": 0, "fusion_lat": 0.0, "lon": -77.03157316666666, "is_disabled": 0, "rental_uris": {"android": "https://dc.lft.to/lastmile_qr_scan", "ios": "https://dc.lft.to/lastmile_qr_scan"}, "bike_id": "75416af5ff7695501ff0c469d159e407", "fusion_lon": 0.0, "lat": 38.90359083333333}, {"type": "electric_scooter", "name": "cd0a96c6eae9c748d2f845bd6341c3c9", "is_reserved": 0, "fusion_lat": 0.0, "lon": -77.021718, "is_disabled": 0, "rental_uris": {"android": "https://dc.lft.to/lastmile_qr_scan", "ios": "https://dc.lft.to/lastmile_qr_scan"}, "bike_id": "cd0a96c6eae9c748d2f845bd6341c3c9", "fusion_lon": 0.0, "lat": 38.94292216666667}, {"type": "electric_bike", "name": "22b3f542d3bd7eb9a23172ff5c097c24", "is_reserved": 0, "fusion_lat": 0.0, "lon": -77.08458116666667, "is_disabled": 0, "rental_uris": {"android": "https://dc.lft.to/lastmile_qr_scan", "ios": "https://dc.lft.to/lastmile_qr_scan"}, "bike_id": "22b3f542d3bd7eb9a23172ff5c097c24", "fusion_lon": 0.0, "lat": 38.848194166666666}, {"type": "electric_scooter", "name": "d3968a0e47b862b27f8f5dd05f2ec30f", "is_reserved": 0, "fusion_lat": 0.0, "lon": -77.021663, "is_disabled": 0, "rental_uris": {"android": "https://dc.lft.to/lastmile_qr_scan", "ios": "https://dc.lft.to/lastmile_qr_scan"}, "bike_id": "d3968a0e47b862b27f8f5dd05f2ec30f", "fusion_lon": 0.0, "lat": 38.8972665}, {"type": "electric_scooter", "name": "751d012e924758a99f1ca7298f01dbf0", "is_reserved": 0, "fusion_lat": 0.0, "lon": -77.0227935, "is_disabled": 0, "rental_uris": {"android": "https://dc.lft.to/lastmile_qr_scan", "ios": "https://dc.lft.to/lastmile_qr_scan"}, "bike_id": "751d012e924758a99f1ca7298f01dbf0", "fusion_lon": 0.0, "lat": 38.91688416666667}, {"type": "electric_scooter", "name": "2010284ed0a79a483d7e0c1ab2274214", "is_reserved": 0, "fusion_lat": 0.0, "lon": -77.03441433333333, "is_disabled": 0, "rental_uris": {"android": "https://dc.lft.to/lastmile_qr_scan", "ios": "https://dc.lft.to/lastmile_qr_scan"}, "bike_id": "2010284ed0a79a483d7e0c1ab2274214", "fusion_lon": 0.0, "lat": 38.90510033333333}, {"type": "electric_scooter", "name": "891dc44b27e805e0557248066bad1dfd", "is_reserved": 0, "fusion_lat": 0.0, "lon": -77.00767416666666, "is_disabled": 0, "rental_uris": {"android": "https://dc.lft.to/lastmile_qr_scan", "ios": "https://dc.lft.to/lastmile_qr_scan"}, "bike_id": "891dc44b27e805e0557248066bad1dfd", "fusion_lon": 0.0, "lat": 38.926756833333336}, {"type": "electric_scooter", "name": "b69a9aced653fa3d72cf30af2af38b14", "is_reserved": 0, "fusion_lat": 0.0, "lon": -77.0232145, "is_disabled": 0, "rental_uris": {"android": "https://dc.lft.to/lastmile_qr_scan", "ios": "https://dc.lft.to/lastmile_qr_scan"}, "bike_id": "b69a9aced653fa3d72cf30af2af38b14", "fusion_lon": 0.0, "lat": 38.940938833333334}, {"type": "electric_scooter", "name": "d5292608a373c95a017de478e200721a", "is_reserved": 0, "fusion_lat": 0.0, "lon": -77.02612066666667, "is_disabled": 0, "rental_uris": {"android": "https://dc.lft.to/lastmile_qr_scan", "ios": "https://dc.lft.to/lastmile_qr_scan"}, "bike_id": "d5292608a373c95a017de478e200721a", "fusion_lon": 0.0, "lat": 38.901656}, {"type": "electric_scooter", "name": "a227673108aeceee0000f9cd237aed34", "is_reserved": 0, "fusion_lat": 0.0, "lon": -77.0297545, "is_disabled": 0, "rental_uris": {"android": "https://dc.lft.to/lastmile_qr_scan", "ios": "https://dc.lft.to/lastmile_qr_scan"}, "bike_id": "a227673108aeceee0000f9cd237aed34", "fusion_lon": 0.0, "lat": 38.907250833333336}, {"type": "electric_scooter", "name": "4513f97e198a713a59b9de29cf378ee7", "is_reserved": 0, "fusion_lat": 0.0, "lon": -77.0009505, "is_disabled": 0, "rental_uris": {"android": "https://dc.lft.to/lastmile_qr_scan", "ios": "https://dc.lft.to/lastmile_qr_scan"}, "bike_id": "4513f97e198a713a59b9de29cf378ee7", "fusion_lon": 0.0, "lat": 38.920321}, {"type": "electric_bike", "name": "3ba4caf27672f66977d59dd7b86fa837", "is_reserved": 0, "fusion_lat": 0.0, "lon": -77.18739416666666, "is_disabled": 0, "rental_uris": {"android": "https://dc.lft.to/lastmile_qr_scan", "ios": "https://dc.lft.to/lastmile_qr_scan"}, "bike_id": "3ba4caf27672f66977d59dd7b86fa837", "fusion_lon": 0.0, "lat": 38.8934875}, {"type": "electric_scooter", "name": "11eddb494a2cfaaf8674e6e74f769089", "is_reserved": 0, "fusion_lat": 0.0, "lon": -77.0271425, "is_disabled": 0, "rental_uris": {"android": "https://dc.lft.to/lastmile_qr_scan", "ios": "https://dc.lft.to/lastmile_qr_scan"}, "bike_id": "11eddb494a2cfaaf8674e6e74f769089", "fusion_lon": 0.0, "lat": 38.9369645}, {"type": "electric_scooter", "name": "8318bea1bd4eef75b5a250ea4d46fa95", "is_reserved": 0, "fusion_lat": 0.0, "lon": -77.02739716666666, "is_disabled": 0, "rental_uris": {"android": "https://dc.lft.to/lastmile_qr_scan", "ios": "https://dc.lft.to/lastmile_qr_scan"}, "bike_id": "8318bea1bd4eef75b5a250ea4d46fa95", "fusion_lon": 0.0, "lat": 38.92848166666667}, {"type": "electric_bike", "name": "8b8e60a4bcaa62660d6b5a9328d58e02", "is_reserved": 0, "fusion_lat": 0.0, "lon": -77.10729566666667, "is_disabled": 0, "rental_uris": {"android": "https://dc.lft.to/lastmile_qr_scan", "ios": "https://dc.lft.to/lastmile_qr_scan"}, "bike_id": "8b8e60a4bcaa62660d6b5a9328d58e02", "fusion_lon": 0.0, "lat": 38.855525666666665}, {"type": "electric_scooter", "name": "fc06052fa63386e7114f728846c0a0d7", "is_reserved": 0, "fusion_lat": 0.0, "lon": -77.0366565, "is_disabled": 0, "rental_uris": {"android": "https://dc.lft.to/lastmile_qr_scan", "ios": "https://dc.lft.to/lastmile_qr_scan"}, "bike_id": "fc06052fa63386e7114f728846c0a0d7", "fusion_lon": 0.0, "lat": 38.915423833333335}, {"type": "electric_scooter", "name": "10e943e44a5921650a020b9499b7a3a1", "is_reserved": 0, "fusion_lat": 0.0, "lon": -77.05905966666667, "is_disabled": 0, "rental_uris": {"android": "https://dc.lft.to/lastmile_qr_scan", "ios": "https://dc.lft.to/lastmile_qr_scan"}, "bike_id": "10e943e44a5921650a020b9499b7a3a1", "fusion_lon": 0.0, "lat": 38.902372166666666}, {"type": "electric_scooter", "name": "ee14c0f4759f08fbb8d04c7f008ac681", "is_reserved": 0, "fusion_lat": 0.0, "lon": -77.03213083333333, "is_disabled": 0, "rental_uris": {"android": "https://dc.lft.to/lastmile_qr_scan", "ios": "https://dc.lft.to/lastmile_qr_scan"}, "bike_id": "ee14c0f4759f08fbb8d04c7f008ac681", "fusion_lon": 0.0, "lat": 38.91569483333333}, {"type": "electric_scooter", "name": "a8170ee70eb52e7e8c1edd77c92f7d75", "is_reserved": 0, "fusion_lat": 0.0, "lon": -77.03268016666667, "is_disabled": 0, "rental_uris": {"android": "https://dc.lft.to/lastmile_qr_scan", "ios": "https://dc.lft.to/lastmile_qr_scan"}, "bike_id": "a8170ee70eb52e7e8c1edd77c92f7d75", "fusion_lon": 0.0, "lat": 38.936752}, {"type": "electric_scooter", "name": "956c7d5b5e8077d58e1a1e21559a1aa8", "is_reserved": 0, "fusion_lat": 0.0, "lon": -77.04138266666666, "is_disabled": 0, "rental_uris": {"android": "https://dc.lft.to/lastmile_qr_scan", "ios": "https://dc.lft.to/lastmile_qr_scan"}, "bike_id": "956c7d5b5e8077d58e1a1e21559a1aa8", "fusion_lon": 0.0, "lat": 38.90278883333333}, {"type": "electric_scooter", "name": "9378e52501163675e037d8cc4da65715", "is_reserved": 0, "fusion_lat": 0.0, "lon": -77.01748983333333, "is_disabled": 0, "rental_uris": {"android": "https://dc.lft.to/lastmile_qr_scan", "ios": "https://dc.lft.to/lastmile_qr_scan"}, "bike_id": "9378e52501163675e037d8cc4da65715", "fusion_lon": 0.0, "lat": 38.902677}, {"type": "electric_scooter", "name": "39859b9ca3317b379469e743c5b5fbec", "is_reserved": 0, "fusion_lat": 0.0, "lon": -77.023759, "is_disabled": 0, "rental_uris": {"android": "https://dc.lft.to/lastmile_qr_scan", "ios": "https://dc.lft.to/lastmile_qr_scan"}, "bike_id": "39859b9ca3317b379469e743c5b5fbec", "fusion_lon": 0.0, "lat": 38.892184}, {"type": "electric_scooter", "name": "8905c6a8fdf41c2c00a7c04ac671573e", "is_reserved": 0, "fusion_lat": 0.0, "lon": -76.93181583333333, "is_disabled": 0, "rental_uris": {"android": "https://dc.lft.to/lastmile_qr_scan", "ios": "https://dc.lft.to/lastmile_qr_scan"}, "bike_id": "8905c6a8fdf41c2c00a7c04ac671573e", "fusion_lon": 0.0, "lat": 38.89877233333333}, {"type": "electric_scooter", "name": "a5c0c32eaf7a999968fb6264cbe91450", "is_reserved": 0, "fusion_lat": 0.0, "lon": -77.00382583333334, "is_disabled": 0, "rental_uris": {"android": "https://dc.lft.to/lastmile_qr_scan", "ios": "https://dc.lft.to/lastmile_qr_scan"}, "bike_id": "a5c0c32eaf7a999968fb6264cbe91450", "fusion_lon": 0.0, "lat": 38.9236225}, {"type": "electric_scooter", "name": "2b4bb0e89fafd626eb158f9c68f8dc44", "is_reserved": 0, "fusion_lat": 0.0, "lon": -77.05568533333333, "is_disabled": 0, "rental_uris": {"android": "https://dc.lft.to/lastmile_qr_scan", "ios": "https://dc.lft.to/lastmile_qr_scan"}, "bike_id": "2b4bb0e89fafd626eb158f9c68f8dc44", "fusion_lon": 0.0, "lat": 38.89962883333333}, {"type": "electric_bike", "name": "621f55239a51f49a14d2789ecf3a9f49", "is_reserved": 0, "fusion_lat": 0.0, "lon": -77.10133583333334, "is_disabled": 0, "rental_uris": {"android": "https://dc.lft.to/lastmile_qr_scan", "ios": "https://dc.lft.to/lastmile_qr_scan"}, "bike_id": "621f55239a51f49a14d2789ecf3a9f49", "fusion_lon": 0.0, "lat": 38.852123166666665}, {"type": "electric_scooter", "name": "335efe22f2f539e1f387a81cfe91de86", "is_reserved": 0, "fusion_lat": 0.0, "lon": -77.04356383333334, "is_disabled": 0, "rental_uris": {"android": "https://dc.lft.to/lastmile_qr_scan", "ios": "https://dc.lft.to/lastmile_qr_scan"}, "bike_id": "335efe22f2f539e1f387a81cfe91de86", "fusion_lon": 0.0, "lat": 38.91545416666666}, {"type": "electric_scooter", "name": "f8fcfa81ea324307ee63f3be4ef7c1c3", "is_reserved": 0, "fusion_lat": 0.0, "lon": -77.016947, "is_disabled": 0, "rental_uris": {"android": "https://dc.lft.to/lastmile_qr_scan", "ios": "https://dc.lft.to/lastmile_qr_scan"}, "bike_id": "f8fcfa81ea324307ee63f3be4ef7c1c3", "fusion_lon": 0.0, "lat": 38.9749885}, {"type": "electric_scooter", "name": "1c08bdfc075600ae94ccae36106f34ce", "is_reserved": 0, "fusion_lat": 0.0, "lon": -76.9732875, "is_disabled": 0, "rental_uris": {"android": "https://dc.lft.to/lastmile_qr_scan", "ios": "https://dc.lft.to/lastmile_qr_scan"}, "bike_id": "1c08bdfc075600ae94ccae36106f34ce", "fusion_lon": 0.0, "lat": 38.90409983333333}, {"type": "electric_scooter", "name": "c99a11b47f611e00a6829c8efec94cfa", "is_reserved": 0, "fusion_lat": 0.0, "lon": -77.04191916666667, "is_disabled": 0, "rental_uris": {"android": "https://dc.lft.to/lastmile_qr_scan", "ios": "https://dc.lft.to/lastmile_qr_scan"}, "bike_id": "c99a11b47f611e00a6829c8efec94cfa", "fusion_lon": 0.0, "lat": 38.90745866666666}, {"type": "electric_scooter", "name": "7af3195f07d0301d900ee52d22070db9", "is_reserved": 0, "fusion_lat": 0.0, "lon": -77.05550433333333, "is_disabled": 0, "rental_uris": {"android": "https://dc.lft.to/lastmile_qr_scan", "ios": "https://dc.lft.to/lastmile_qr_scan"}, "bike_id": "7af3195f07d0301d900ee52d22070db9", "fusion_lon": 0.0, "lat": 38.90770166666667}, {"type": "electric_scooter", "name": "9435f00a800eb90aea045a989f5ed77b", "is_reserved": 0, "fusion_lat": 0.0, "lon": -77.02220883333334, "is_disabled": 0, "rental_uris": {"android": "https://dc.lft.to/lastmile_qr_scan", "ios": "https://dc.lft.to/lastmile_qr_scan"}, "bike_id": "9435f00a800eb90aea045a989f5ed77b", "fusion_lon": 0.0, "lat": 38.926190166666665}, {"type": "electric_scooter", "name": "d2863c0cc5a4d42f626a458c853b833c", "is_reserved": 0, "fusion_lat": 0.0, "lon": -77.00077633333333, "is_disabled": 0, "rental_uris": {"android": "https://dc.lft.to/lastmile_qr_scan", "ios": "https://dc.lft.to/lastmile_qr_scan"}, "bike_id": "d2863c0cc5a4d42f626a458c853b833c", "fusion_lon": 0.0, "lat": 38.906720166666666}, {"type": "electric_scooter", "name": "ac839dda40dbcbf6f4bbe8ed033851c0", "is_reserved": 0, "fusion_lat": 0.0, "lon": -77.038297, "is_disabled": 0, "rental_uris": {"android": "https://dc.lft.to/lastmile_qr_scan", "ios": "https://dc.lft.to/lastmile_qr_scan"}, "bike_id": "ac839dda40dbcbf6f4bbe8ed033851c0", "fusion_lon": 0.0, "lat": 38.9068775}, {"type": "electric_scooter", "name": "d1ff6ac651d404815f3d85c6b6acafb1", "is_reserved": 0, "fusion_lat": 0.0, "lon": -76.98924883333333, "is_disabled": 0, "rental_uris": {"android": "https://dc.lft.to/lastmile_qr_scan", "ios": "https://dc.lft.to/lastmile_qr_scan"}, "bike_id": "d1ff6ac651d404815f3d85c6b6acafb1", "fusion_lon": 0.0, "lat": 38.85813816666667}, {"type": "electric_scooter", "name": "11b90131740575dfdc6bd2036e316850", "is_reserved": 0, "fusion_lat": 0.0, "lon": -77.00197616666667, "is_disabled": 0, "rental_uris": {"android": "https://dc.lft.to/lastmile_qr_scan", "ios": "https://dc.lft.to/lastmile_qr_scan"}, "bike_id": "11b90131740575dfdc6bd2036e316850", "fusion_lon": 0.0, "lat": 38.90236616666667}, {"type": "electric_scooter", "name": "d6540e2577813ebc0d12e066a3e05c3f", "is_reserved": 0, "fusion_lat": 0.0, "lon": -77.0344395, "is_disabled": 0, "rental_uris": {"android": "https://dc.lft.to/lastmile_qr_scan", "ios": "https://dc.lft.to/lastmile_qr_scan"}, "bike_id": "d6540e2577813ebc0d12e066a3e05c3f", "fusion_lon": 0.0, "lat": 38.918037166666664}, {"type": "electric_bike", "name": "a2676085b3f060a3a1018dd6a38b3c8c", "is_reserved": 0, "fusion_lat": 0.0, "lon": -76.90707883333333, "is_disabled": 0, "rental_uris": {"android": "https://dc.lft.to/lastmile_qr_scan", "ios": "https://dc.lft.to/lastmile_qr_scan"}, "bike_id": "a2676085b3f060a3a1018dd6a38b3c8c", "fusion_lon": 0.0, "lat": 38.89597166666667}, {"type": "electric_bike", "name": "a9eca06a296bf52d82a8705559c2df29", "is_reserved": 0, "fusion_lat": 0.0, "lon": -77.01986983333333, "is_disabled": 0, "rental_uris": {"android": "https://dc.lft.to/lastmile_qr_scan", "ios": "https://dc.lft.to/lastmile_qr_scan"}, "bike_id": "a9eca06a296bf52d82a8705559c2df29", "fusion_lon": 0.0, "lat": 38.922698}, {"type": "electric_scooter", "name": "c4496390f7a1258ac3eea24ff59d7e12", "is_reserved": 0, "fusion_lat": 0.0, "lon": -76.9981625, "is_disabled": 0, "rental_uris": {"android": "https://dc.lft.to/lastmile_qr_scan", "ios": "https://dc.lft.to/lastmile_qr_scan"}, "bike_id": "c4496390f7a1258ac3eea24ff59d7e12", "fusion_lon": 0.0, "lat": 38.8443205}, {"type": "electric_scooter", "name": "7c07464e8efa7a063d3d1d0285f3d30e", "is_reserved": 0, "fusion_lat": 0.0, "lon": -77.04603633333333, "is_disabled": 0, "rental_uris": {"android": "https://dc.lft.to/lastmile_qr_scan", "ios": "https://dc.lft.to/lastmile_qr_scan"}, "bike_id": "7c07464e8efa7a063d3d1d0285f3d30e", "fusion_lon": 0.0, "lat": 38.90278566666667}, {"type": "electric_scooter", "name": "e67e38850769641772980cbb22a0f1ee", "is_reserved": 0, "fusion_lat": 0.0, "lon": -77.0433415, "is_disabled": 0, "rental_uris": {"android": "https://dc.lft.to/lastmile_qr_scan", "ios": "https://dc.lft.to/lastmile_qr_scan"}, "bike_id": "e67e38850769641772980cbb22a0f1ee", "fusion_lon": 0.0, "lat": 38.90763166666667}, {"type": "electric_scooter", "name": "852295311ca6c51fab9a63dcac370dc1", "is_reserved": 0, "fusion_lat": 0.0, "lon": -77.05411016666666, "is_disabled": 0, "rental_uris": {"android": "https://dc.lft.to/lastmile_qr_scan", "ios": "https://dc.lft.to/lastmile_qr_scan"}, "bike_id": "852295311ca6c51fab9a63dcac370dc1", "fusion_lon": 0.0, "lat": 38.92793483333333}, {"type": "electric_scooter", "name": "a094e0959656ea0c390770855e054b1c", "is_reserved": 0, "fusion_lat": 0.0, "lon": -76.9903165, "is_disabled": 0, "rental_uris": {"android": "https://dc.lft.to/lastmile_qr_scan", "ios": "https://dc.lft.to/lastmile_qr_scan"}, "bike_id": "a094e0959656ea0c390770855e054b1c", "fusion_lon": 0.0, "lat": 38.898563833333334}, {"type": "electric_scooter", "name": "9a9392e8dd142f6eae8c45204f9d919a", "is_reserved": 0, "fusion_lat": 0.0, "lon": -77.05133466666666, "is_disabled": 0, "rental_uris": {"android": "https://dc.lft.to/lastmile_qr_scan", "ios": "https://dc.lft.to/lastmile_qr_scan"}, "bike_id": "9a9392e8dd142f6eae8c45204f9d919a", "fusion_lon": 0.0, "lat": 38.9072035}, {"type": "electric_scooter", "name": "217101dc67e0005e8d01c52406563b12", "is_reserved": 0, "fusion_lat": 0.0, "lon": -77.007762, "is_disabled": 0, "rental_uris": {"android": "https://dc.lft.to/lastmile_qr_scan", "ios": "https://dc.lft.to/lastmile_qr_scan"}, "bike_id": "217101dc67e0005e8d01c52406563b12", "fusion_lon": 0.0, "lat": 38.926734833333335}, {"type": "electric_scooter", "name": "834c546def7df75c8b11c82578f8d6a0", "is_reserved": 0, "fusion_lat": 0.0, "lon": -76.99836883333333, "is_disabled": 0, "rental_uris": {"android": "https://dc.lft.to/lastmile_qr_scan", "ios": "https://dc.lft.to/lastmile_qr_scan"}, "bike_id": "834c546def7df75c8b11c82578f8d6a0", "fusion_lon": 0.0, "lat": 38.900019666666665}, {"type": "electric_scooter", "name": "a2bc4303c90439a91a4eee0d95c152a8", "is_reserved": 0, "fusion_lat": 0.0, "lon": -77.0400445, "is_disabled": 0, "rental_uris": {"android": "https://dc.lft.to/lastmile_qr_scan", "ios": "https://dc.lft.to/lastmile_qr_scan"}, "bike_id": "a2bc4303c90439a91a4eee0d95c152a8", "fusion_lon": 0.0, "lat": 38.90337133333333}, {"type": "electric_scooter", "name": "39e52a3137f1ff25e4119bdfdc03b3be", "is_reserved": 0, "fusion_lat": 0.0, "lon": -77.021631, "is_disabled": 0, "rental_uris": {"android": "https://dc.lft.to/lastmile_qr_scan", "ios": "https://dc.lft.to/lastmile_qr_scan"}, "bike_id": "39e52a3137f1ff25e4119bdfdc03b3be", "fusion_lon": 0.0, "lat": 38.9261005}, {"type": "electric_scooter", "name": "6b0ee76a32dbf7caa97dfe3a68938664", "is_reserved": 0, "fusion_lat": 0.0, "lon": -77.02491566666667, "is_disabled": 0, "rental_uris": {"android": "https://dc.lft.to/lastmile_qr_scan", "ios": "https://dc.lft.to/lastmile_qr_scan"}, "bike_id": "6b0ee76a32dbf7caa97dfe3a68938664", "fusion_lon": 0.0, "lat": 38.941881}, {"type": "electric_scooter", "name": "454f369f395d705f3ed67a0a230590aa", "is_reserved": 0, "fusion_lat": 0.0, "lon": -77.02798233333333, "is_disabled": 0, "rental_uris": {"android": "https://dc.lft.to/lastmile_qr_scan", "ios": "https://dc.lft.to/lastmile_qr_scan"}, "bike_id": "454f369f395d705f3ed67a0a230590aa", "fusion_lon": 0.0, "lat": 38.932929666666666}, {"type": "electric_scooter", "name": "e87ccd7dc674362679bf0a41cdd33691", "is_reserved": 0, "fusion_lat": 0.0, "lon": -76.9671295, "is_disabled": 0, "rental_uris": {"android": "https://dc.lft.to/lastmile_qr_scan", "ios": "https://dc.lft.to/lastmile_qr_scan"}, "bike_id": "e87ccd7dc674362679bf0a41cdd33691", "fusion_lon": 0.0, "lat": 38.84796383333333}, {"type": "electric_bike", "name": "daf523095a1af037b70dd2532d264815", "is_reserved": 0, "fusion_lat": 0.0, "lon": -76.94424566666666, "is_disabled": 0, "rental_uris": {"android": "https://dc.lft.to/lastmile_qr_scan", "ios": "https://dc.lft.to/lastmile_qr_scan"}, "bike_id": "daf523095a1af037b70dd2532d264815", "fusion_lon": 0.0, "lat": 38.966197333333334}, {"type": "electric_scooter", "name": "42fbc86eef1de01f4b2ab34d4e0df376", "is_reserved": 0, "fusion_lat": 0.0, "lon": -76.9986785, "is_disabled": 0, "rental_uris": {"android": "https://dc.lft.to/lastmile_qr_scan", "ios": "https://dc.lft.to/lastmile_qr_scan"}, "bike_id": "42fbc86eef1de01f4b2ab34d4e0df376", "fusion_lon": 0.0, "lat": 38.90030016666667}, {"type": "electric_bike", "name": "fc34825a865ab1e9c851226c40f94336", "is_reserved": 0, "fusion_lat": 0.0, "lon": -77.08133233333334, "is_disabled": 0, "rental_uris": {"android": "https://dc.lft.to/lastmile_qr_scan", "ios": "https://dc.lft.to/lastmile_qr_scan"}, "bike_id": "fc34825a865ab1e9c851226c40f94336", "fusion_lon": 0.0, "lat": 38.95198966666667}, {"type": "electric_scooter", "name": "7d82c3a82c3e3a04f6a9e402c5ae213b", "is_reserved": 0, "fusion_lat": 0.0, "lon": -77.028802, "is_disabled": 0, "rental_uris": {"android": "https://dc.lft.to/lastmile_qr_scan", "ios": "https://dc.lft.to/lastmile_qr_scan"}, "bike_id": "7d82c3a82c3e3a04f6a9e402c5ae213b", "fusion_lon": 0.0, "lat": 38.90428383333333}, {"type": "electric_bike", "name": "be2bad0906e866bded973066688c6563", "is_reserved": 0, "fusion_lat": 0.0, "lon": -76.92332266666666, "is_disabled": 0, "rental_uris": {"android": "https://dc.lft.to/lastmile_qr_scan", "ios": "https://dc.lft.to/lastmile_qr_scan"}, "bike_id": "be2bad0906e866bded973066688c6563", "fusion_lon": 0.0, "lat": 38.87111}, {"type": "electric_scooter", "name": "b6a4f10564af64a4ab80ea3b61b9b959", "is_reserved": 0, "fusion_lat": 0.0, "lon": -77.02174633333334, "is_disabled": 0, "rental_uris": {"android": "https://dc.lft.to/lastmile_qr_scan", "ios": "https://dc.lft.to/lastmile_qr_scan"}, "bike_id": "b6a4f10564af64a4ab80ea3b61b9b959", "fusion_lon": 0.0, "lat": 38.915537666666665}, {"type": "electric_bike", "name": "fae6febe4fa6cfebd019047d72c7f9d1", "is_reserved": 0, "fusion_lat": 0.0, "lon": -77.00598433333333, "is_disabled": 0, "rental_uris": {"android": "https://dc.lft.to/lastmile_qr_scan", "ios": "https://dc.lft.to/lastmile_qr_scan"}, "bike_id": "fae6febe4fa6cfebd019047d72c7f9d1", "fusion_lon": 0.0, "lat": 38.90263216666666}, {"type": "electric_bike", "name": "2b332e99b70727d631c668d034025add", "is_reserved": 0, "fusion_lat": 0.0, "lon": -77.0579605, "is_disabled": 0, "rental_uris": {"android": "https://dc.lft.to/lastmile_qr_scan", "ios": "https://dc.lft.to/lastmile_qr_scan"}, "bike_id": "2b332e99b70727d631c668d034025add", "fusion_lon": 0.0, "lat": 38.901165}, {"type": "electric_scooter", "name": "2ad3bd6c918c20db471cdc1d292787ed", "is_reserved": 0, "fusion_lat": 0.0, "lon": -77.03361616666666, "is_disabled": 0, "rental_uris": {"android": "https://dc.lft.to/lastmile_qr_scan", "ios": "https://dc.lft.to/lastmile_qr_scan"}, "bike_id": "2ad3bd6c918c20db471cdc1d292787ed", "fusion_lon": 0.0, "lat": 38.92863466666667}, {"type": "electric_bike", "name": "f72e6421088d01589786f99bec84e1b9", "is_reserved": 0, "fusion_lat": 0.0, "lon": -76.94820433333334, "is_disabled": 0, "rental_uris": {"android": "https://dc.lft.to/lastmile_qr_scan", "ios": "https://dc.lft.to/lastmile_qr_scan"}, "bike_id": "f72e6421088d01589786f99bec84e1b9", "fusion_lon": 0.0, "lat": 38.89381216666666}, {"type": "electric_scooter", "name": "1beaca147d39a4c46cc52d63b7998953", "is_reserved": 0, "fusion_lat": 0.0, "lon": -76.9952185, "is_disabled": 0, "rental_uris": {"android": "https://dc.lft.to/lastmile_qr_scan", "ios": "https://dc.lft.to/lastmile_qr_scan"}, "bike_id": "1beaca147d39a4c46cc52d63b7998953", "fusion_lon": 0.0, "lat": 38.8954355}, {"type": "electric_scooter", "name": "aae482ed57dff542e0ced8940ab6c768", "is_reserved": 0, "fusion_lat": 0.0, "lon": -77.0318365, "is_disabled": 0, "rental_uris": {"android": "https://dc.lft.to/lastmile_qr_scan", "ios": "https://dc.lft.to/lastmile_qr_scan"}, "bike_id": "aae482ed57dff542e0ced8940ab6c768", "fusion_lon": 0.0, "lat": 38.913494666666665}, {"type": "electric_scooter", "name": "62b094da1617aa5a183ebb7c3fb39c0f", "is_reserved": 0, "fusion_lat": 0.0, "lon": -76.96778383333333, "is_disabled": 0, "rental_uris": {"android": "https://dc.lft.to/lastmile_qr_scan", "ios": "https://dc.lft.to/lastmile_qr_scan"}, "bike_id": "62b094da1617aa5a183ebb7c3fb39c0f", "fusion_lon": 0.0, "lat": 38.8592575}, {"type": "electric_scooter", "name": "8ff8d1ed44f3e5c6caa9faaa831e494c", "is_reserved": 0, "fusion_lat": 0.0, "lon": -77.01798833333334, "is_disabled": 0, "rental_uris": {"android": "https://dc.lft.to/lastmile_qr_scan", "ios": "https://dc.lft.to/lastmile_qr_scan"}, "bike_id": "8ff8d1ed44f3e5c6caa9faaa831e494c", "fusion_lon": 0.0, "lat": 38.8767435}, {"type": "electric_scooter", "name": "9a3809a4988ccac59be0cc170591c2ce", "is_reserved": 0, "fusion_lat": 0.0, "lon": -77.02813066666667, "is_disabled": 0, "rental_uris": {"android": "https://dc.lft.to/lastmile_qr_scan", "ios": "https://dc.lft.to/lastmile_qr_scan"}, "bike_id": "9a3809a4988ccac59be0cc170591c2ce", "fusion_lon": 0.0, "lat": 38.9608325}, {"type": "electric_scooter", "name": "a70e3563c2c5c1a3fbdc8f67c64711c7", "is_reserved": 0, "fusion_lat": 0.0, "lon": -77.0723565, "is_disabled": 0, "rental_uris": {"android": "https://dc.lft.to/lastmile_qr_scan", "ios": "https://dc.lft.to/lastmile_qr_scan"}, "bike_id": "a70e3563c2c5c1a3fbdc8f67c64711c7", "fusion_lon": 0.0, "lat": 38.94006}, {"type": "electric_scooter", "name": "94c560a5ef15561f3eb15ce17bf17c11", "is_reserved": 0, "fusion_lat": 0.0, "lon": -76.98377416666666, "is_disabled": 0, "rental_uris": {"android": "https://dc.lft.to/lastmile_qr_scan", "ios": "https://dc.lft.to/lastmile_qr_scan"}, "bike_id": "94c560a5ef15561f3eb15ce17bf17c11", "fusion_lon": 0.0, "lat": 38.8612305}, {"type": "electric_scooter", "name": "4bd3e23bbcd3af538330de319738067f", "is_reserved": 0, "fusion_lat": 0.0, "lon": -77.0150245, "is_disabled": 0, "rental_uris": {"android": "https://dc.lft.to/lastmile_qr_scan", "ios": "https://dc.lft.to/lastmile_qr_scan"}, "bike_id": "4bd3e23bbcd3af538330de319738067f", "fusion_lon": 0.0, "lat": 38.89288716666667}, {"type": "electric_scooter", "name": "87e1a7ba72aff6bc89c899a0e339ef9d", "is_reserved": 0, "fusion_lat": 0.0, "lon": -77.0017395, "is_disabled": 0, "rental_uris": {"android": "https://dc.lft.to/lastmile_qr_scan", "ios": "https://dc.lft.to/lastmile_qr_scan"}, "bike_id": "87e1a7ba72aff6bc89c899a0e339ef9d", "fusion_lon": 0.0, "lat": 38.87640916666667}, {"type": "electric_scooter", "name": "56ec1091a31e1941f4974f645562945f", "is_reserved": 0, "fusion_lat": 0.0, "lon": -77.00491216666667, "is_disabled": 0, "rental_uris": {"android": "https://dc.lft.to/lastmile_qr_scan", "ios": "https://dc.lft.to/lastmile_qr_scan"}, "bike_id": "56ec1091a31e1941f4974f645562945f", "fusion_lon": 0.0, "lat": 38.89711883333333}, {"type": "electric_scooter", "name": "c33b80a2108c4d8dce5626373c9c1bc1", "is_reserved": 0, "fusion_lat": 0.0, "lon": -77.00914433333334, "is_disabled": 0, "rental_uris": {"android": "https://dc.lft.to/lastmile_qr_scan", "ios": "https://dc.lft.to/lastmile_qr_scan"}, "bike_id": "c33b80a2108c4d8dce5626373c9c1bc1", "fusion_lon": 0.0, "lat": 38.90187133333333}, {"type": "electric_scooter", "name": "1bedcb6e23a52687c842b6d6ee39a2b8", "is_reserved": 0, "fusion_lat": 0.0, "lon": -77.033439, "is_disabled": 0, "rental_uris": {"android": "https://dc.lft.to/lastmile_qr_scan", "ios": "https://dc.lft.to/lastmile_qr_scan"}, "bike_id": "1bedcb6e23a52687c842b6d6ee39a2b8", "fusion_lon": 0.0, "lat": 38.8974135}, {"type": "electric_scooter", "name": "0c387f902e2a2a3eb2a344eef9cd9c5b", "is_reserved": 0, "fusion_lat": 0.0, "lon": -77.01277, "is_disabled": 0, "rental_uris": {"android": "https://dc.lft.to/lastmile_qr_scan", "ios": "https://dc.lft.to/lastmile_qr_scan"}, "bike_id": "0c387f902e2a2a3eb2a344eef9cd9c5b", "fusion_lon": 0.0, "lat": 38.89741866666667}, {"type": "electric_scooter", "name": "6ef0b6584c17f92f4efc2a81814218d8", "is_reserved": 0, "fusion_lat": 0.0, "lon": -76.99625483333334, "is_disabled": 0, "rental_uris": {"android": "https://dc.lft.to/lastmile_qr_scan", "ios": "https://dc.lft.to/lastmile_qr_scan"}, "bike_id": "6ef0b6584c17f92f4efc2a81814218d8", "fusion_lon": 0.0, "lat": 38.8856035}, {"type": "electric_scooter", "name": "5294f518fe125a0ca05540e98aee5b19", "is_reserved": 0, "fusion_lat": 0.0, "lon": -76.95664316666667, "is_disabled": 0, "rental_uris": {"android": "https://dc.lft.to/lastmile_qr_scan", "ios": "https://dc.lft.to/lastmile_qr_scan"}, "bike_id": "5294f518fe125a0ca05540e98aee5b19", "fusion_lon": 0.0, "lat": 38.89411333333334}, {"type": "electric_scooter", "name": "4eab68df9deae89054ac7d0f988b7733", "is_reserved": 0, "fusion_lat": 0.0, "lon": -77.04366433333334, "is_disabled": 0, "rental_uris": {"android": "https://dc.lft.to/lastmile_qr_scan", "ios": "https://dc.lft.to/lastmile_qr_scan"}, "bike_id": "4eab68df9deae89054ac7d0f988b7733", "fusion_lon": 0.0, "lat": 38.902629833333336}, {"type": "electric_scooter", "name": "139ba0fdb3fc0d6abb1faaaf0ea5d828", "is_reserved": 0, "fusion_lat": 0.0, "lon": -76.931591, "is_disabled": 0, "rental_uris": {"android": "https://dc.lft.to/lastmile_qr_scan", "ios": "https://dc.lft.to/lastmile_qr_scan"}, "bike_id": "139ba0fdb3fc0d6abb1faaaf0ea5d828", "fusion_lon": 0.0, "lat": 38.89877333333333}, {"type": "electric_scooter", "name": "f92f19f62cde044e505dfdae31fa7ee4", "is_reserved": 0, "fusion_lat": 0.0, "lon": -77.01946, "is_disabled": 0, "rental_uris": {"android": "https://dc.lft.to/lastmile_qr_scan", "ios": "https://dc.lft.to/lastmile_qr_scan"}, "bike_id": "f92f19f62cde044e505dfdae31fa7ee4", "fusion_lon": 0.0, "lat": 38.947008}, {"type": "electric_scooter", "name": "6ff593f56d5e13a451f34a3cb9a4c831", "is_reserved": 0, "fusion_lat": 0.0, "lon": -76.9273515, "is_disabled": 0, "rental_uris": {"android": "https://dc.lft.to/lastmile_qr_scan", "ios": "https://dc.lft.to/lastmile_qr_scan"}, "bike_id": "6ff593f56d5e13a451f34a3cb9a4c831", "fusion_lon": 0.0, "lat": 38.8896575}, {"type": "electric_scooter", "name": "47a2e191d2c5fd6ef73214e94ebf9bf1", "is_reserved": 0, "fusion_lat": 0.0, "lon": -77.04675333333333, "is_disabled": 0, "rental_uris": {"android": "https://dc.lft.to/lastmile_qr_scan", "ios": "https://dc.lft.to/lastmile_qr_scan"}, "bike_id": "47a2e191d2c5fd6ef73214e94ebf9bf1", "fusion_lon": 0.0, "lat": 38.895561}, {"type": "electric_scooter", "name": "d57e72989da32401e5aa2cac262be692", "is_reserved": 0, "fusion_lat": 0.0, "lon": -77.05037216666666, "is_disabled": 0, "rental_uris": {"android": "https://dc.lft.to/lastmile_qr_scan", "ios": "https://dc.lft.to/lastmile_qr_scan"}, "bike_id": "d57e72989da32401e5aa2cac262be692", "fusion_lon": 0.0, "lat": 38.923577333333334}, {"type": "electric_scooter", "name": "9b4de9d0b5136b984a831c9d62d3e033", "is_reserved": 0, "fusion_lat": 0.0, "lon": -77.07362366666666, "is_disabled": 0, "rental_uris": {"android": "https://dc.lft.to/lastmile_qr_scan", "ios": "https://dc.lft.to/lastmile_qr_scan"}, "bike_id": "9b4de9d0b5136b984a831c9d62d3e033", "fusion_lon": 0.0, "lat": 38.93352733333333}, {"type": "electric_scooter", "name": "4511a68138fd54b2d8085828f8a6ae36", "is_reserved": 0, "fusion_lat": 0.0, "lon": -76.98507683333334, "is_disabled": 0, "rental_uris": {"android": "https://dc.lft.to/lastmile_qr_scan", "ios": "https://dc.lft.to/lastmile_qr_scan"}, "bike_id": "4511a68138fd54b2d8085828f8a6ae36", "fusion_lon": 0.0, "lat": 38.866695666666665}, {"type": "electric_scooter", "name": "5246bb7a595231252d638200f1ecc583", "is_reserved": 0, "fusion_lat": 0.0, "lon": -77.02700033333333, "is_disabled": 0, "rental_uris": {"android": "https://dc.lft.to/lastmile_qr_scan", "ios": "https://dc.lft.to/lastmile_qr_scan"}, "bike_id": "5246bb7a595231252d638200f1ecc583", "fusion_lon": 0.0, "lat": 38.90245633333333}, {"type": "electric_scooter", "name": "9e3c6d52267d1696a7a32007d45a7ef0", "is_reserved": 0, "fusion_lat": 0.0, "lon": -77.02332466666667, "is_disabled": 0, "rental_uris": {"android": "https://dc.lft.to/lastmile_qr_scan", "ios": "https://dc.lft.to/lastmile_qr_scan"}, "bike_id": "9e3c6d52267d1696a7a32007d45a7ef0", "fusion_lon": 0.0, "lat": 38.9289105}, {"type": "electric_scooter", "name": "b5705f7c55e8ce0ea5ccb08716687391", "is_reserved": 0, "fusion_lat": 0.0, "lon": -77.00243316666666, "is_disabled": 0, "rental_uris": {"android": "https://dc.lft.to/lastmile_qr_scan", "ios": "https://dc.lft.to/lastmile_qr_scan"}, "bike_id": "b5705f7c55e8ce0ea5ccb08716687391", "fusion_lon": 0.0, "lat": 38.90261116666667}, {"type": "electric_scooter", "name": "92060b90c12b53e1bca25ef9f5093197", "is_reserved": 0, "fusion_lat": 0.0, "lon": -77.043535, "is_disabled": 0, "rental_uris": {"android": "https://dc.lft.to/lastmile_qr_scan", "ios": "https://dc.lft.to/lastmile_qr_scan"}, "bike_id": "92060b90c12b53e1bca25ef9f5093197", "fusion_lon": 0.0, "lat": 38.9154675}, {"type": "electric_scooter", "name": "bc69356144765650078442dd7a1c5d6f", "is_reserved": 0, "fusion_lat": 0.0, "lon": -77.00912083333333, "is_disabled": 0, "rental_uris": {"android": "https://dc.lft.to/lastmile_qr_scan", "ios": "https://dc.lft.to/lastmile_qr_scan"}, "bike_id": "bc69356144765650078442dd7a1c5d6f", "fusion_lon": 0.0, "lat": 38.9065325}, {"type": "electric_scooter", "name": "4d2bcdfef9de572eeef9e7382b3dacc3", "is_reserved": 0, "fusion_lat": 0.0, "lon": -77.02219816666667, "is_disabled": 0, "rental_uris": {"android": "https://dc.lft.to/lastmile_qr_scan", "ios": "https://dc.lft.to/lastmile_qr_scan"}, "bike_id": "4d2bcdfef9de572eeef9e7382b3dacc3", "fusion_lon": 0.0, "lat": 38.9056895}, {"type": "electric_scooter", "name": "35530b0e212024552d35e1d6eb506b44", "is_reserved": 0, "fusion_lat": 0.0, "lon": -76.98393733333333, "is_disabled": 0, "rental_uris": {"android": "https://dc.lft.to/lastmile_qr_scan", "ios": "https://dc.lft.to/lastmile_qr_scan"}, "bike_id": "35530b0e212024552d35e1d6eb506b44", "fusion_lon": 0.0, "lat": 38.86690683333333}, {"type": "electric_scooter", "name": "18d88f7f73af57c40fb2461c2fbb9ba5", "is_reserved": 0, "fusion_lat": 0.0, "lon": -76.930603, "is_disabled": 0, "rental_uris": {"android": "https://dc.lft.to/lastmile_qr_scan", "ios": "https://dc.lft.to/lastmile_qr_scan"}, "bike_id": "18d88f7f73af57c40fb2461c2fbb9ba5", "fusion_lon": 0.0, "lat": 38.901527}, {"type": "electric_scooter", "name": "756ce741bd34cc107b7f845249c23d5c", "is_reserved": 0, "fusion_lat": 0.0, "lon": -77.043541, "is_disabled": 0, "rental_uris": {"android": "https://dc.lft.to/lastmile_qr_scan", "ios": "https://dc.lft.to/lastmile_qr_scan"}, "bike_id": "756ce741bd34cc107b7f845249c23d5c", "fusion_lon": 0.0, "lat": 38.90229}, {"type": "electric_scooter", "name": "1526916160c94fd9881ba4427b773bce", "is_reserved": 0, "fusion_lat": 0.0, "lon": -77.07428133333333, "is_disabled": 0, "rental_uris": {"android": "https://dc.lft.to/lastmile_qr_scan", "ios": "https://dc.lft.to/lastmile_qr_scan"}, "bike_id": "1526916160c94fd9881ba4427b773bce", "fusion_lon": 0.0, "lat": 38.91304083333333}, {"type": "electric_scooter", "name": "de22eef15e90ac4cf1eed12691397c15", "is_reserved": 0, "fusion_lat": 0.0, "lon": -77.04649133333334, "is_disabled": 0, "rental_uris": {"android": "https://dc.lft.to/lastmile_qr_scan", "ios": "https://dc.lft.to/lastmile_qr_scan"}, "bike_id": "de22eef15e90ac4cf1eed12691397c15", "fusion_lon": 0.0, "lat": 38.90507016666667}, {"type": "electric_scooter", "name": "40d330b7f1e68176a2e65bb0bcbe5616", "is_reserved": 0, "fusion_lat": 0.0, "lon": -77.0402415, "is_disabled": 0, "rental_uris": {"android": "https://dc.lft.to/lastmile_qr_scan", "ios": "https://dc.lft.to/lastmile_qr_scan"}, "bike_id": "40d330b7f1e68176a2e65bb0bcbe5616", "fusion_lon": 0.0, "lat": 38.904382}, {"type": "electric_scooter", "name": "5aaf9b199d0a1e232ea356a247660b7a", "is_reserved": 0, "fusion_lat": 0.0, "lon": -77.00631083333333, "is_disabled": 0, "rental_uris": {"android": "https://dc.lft.to/lastmile_qr_scan", "ios": "https://dc.lft.to/lastmile_qr_scan"}, "bike_id": "5aaf9b199d0a1e232ea356a247660b7a", "fusion_lon": 0.0, "lat": 38.83268733333333}, {"type": "electric_scooter", "name": "9546db7bea9f76299d0a6b85c6beca5c", "is_reserved": 0, "fusion_lat": 0.0, "lon": -76.937576, "is_disabled": 0, "rental_uris": {"android": "https://dc.lft.to/lastmile_qr_scan", "ios": "https://dc.lft.to/lastmile_qr_scan"}, "bike_id": "9546db7bea9f76299d0a6b85c6beca5c", "fusion_lon": 0.0, "lat": 38.890328833333335}, {"type": "electric_scooter", "name": "99fdb1798151ae99a9c7251520d8475b", "is_reserved": 0, "fusion_lat": 0.0, "lon": -77.03081716666667, "is_disabled": 0, "rental_uris": {"android": "https://dc.lft.to/lastmile_qr_scan", "ios": "https://dc.lft.to/lastmile_qr_scan"}, "bike_id": "99fdb1798151ae99a9c7251520d8475b", "fusion_lon": 0.0, "lat": 38.8996115}, {"type": "electric_scooter", "name": "d9eef74f8a1113d5dec809707972d6e4", "is_reserved": 0, "fusion_lat": 0.0, "lon": -77.02395933333334, "is_disabled": 0, "rental_uris": {"android": "https://dc.lft.to/lastmile_qr_scan", "ios": "https://dc.lft.to/lastmile_qr_scan"}, "bike_id": "d9eef74f8a1113d5dec809707972d6e4", "fusion_lon": 0.0, "lat": 38.931104833333336}, {"type": "electric_scooter", "name": "7370afbe18ba0d9f8a2c1c6ac4b95e65", "is_reserved": 0, "fusion_lat": 0.0, "lon": -77.0467925, "is_disabled": 0, "rental_uris": {"android": "https://dc.lft.to/lastmile_qr_scan", "ios": "https://dc.lft.to/lastmile_qr_scan"}, "bike_id": "7370afbe18ba0d9f8a2c1c6ac4b95e65", "fusion_lon": 0.0, "lat": 38.90033966666667}, {"type": "electric_scooter", "name": "2be7ae877d7104ced81b296f37bd1664", "is_reserved": 0, "fusion_lat": 0.0, "lon": -77.02620433333334, "is_disabled": 0, "rental_uris": {"android": "https://dc.lft.to/lastmile_qr_scan", "ios": "https://dc.lft.to/lastmile_qr_scan"}, "bike_id": "2be7ae877d7104ced81b296f37bd1664", "fusion_lon": 0.0, "lat": 38.89681183333333}, {"type": "electric_scooter", "name": "585e854d7bdd64be2b7015a540a27a91", "is_reserved": 0, "fusion_lat": 0.0, "lon": -77.00294816666667, "is_disabled": 0, "rental_uris": {"android": "https://dc.lft.to/lastmile_qr_scan", "ios": "https://dc.lft.to/lastmile_qr_scan"}, "bike_id": "585e854d7bdd64be2b7015a540a27a91", "fusion_lon": 0.0, "lat": 38.89493233333334}, {"type": "electric_scooter", "name": "0e5baef95f009f3c18a6c2b71e4fe888", "is_reserved": 0, "fusion_lat": 0.0, "lon": -77.03438016666666, "is_disabled": 0, "rental_uris": {"android": "https://dc.lft.to/lastmile_qr_scan", "ios": "https://dc.lft.to/lastmile_qr_scan"}, "bike_id": "0e5baef95f009f3c18a6c2b71e4fe888", "fusion_lon": 0.0, "lat": 38.918079666666664}, {"type": "electric_scooter", "name": "4a96ae999f4b749e2222cc96161f7526", "is_reserved": 0, "fusion_lat": 0.0, "lon": -77.045538, "is_disabled": 0, "rental_uris": {"android": "https://dc.lft.to/lastmile_qr_scan", "ios": "https://dc.lft.to/lastmile_qr_scan"}, "bike_id": "4a96ae999f4b749e2222cc96161f7526", "fusion_lon": 0.0, "lat": 38.92421316666667}, {"type": "electric_scooter", "name": "d311f6044455626ad55a6c53b1ad8678", "is_reserved": 0, "fusion_lat": 0.0, "lon": -77.0446595, "is_disabled": 0, "rental_uris": {"android": "https://dc.lft.to/lastmile_qr_scan", "ios": "https://dc.lft.to/lastmile_qr_scan"}, "bike_id": "d311f6044455626ad55a6c53b1ad8678", "fusion_lon": 0.0, "lat": 38.90869933333333}, {"type": "electric_scooter", "name": "8da02d622d50bceeece818433aee7eb2", "is_reserved": 0, "fusion_lat": 0.0, "lon": -77.02410733333333, "is_disabled": 0, "rental_uris": {"android": "https://dc.lft.to/lastmile_qr_scan", "ios": "https://dc.lft.to/lastmile_qr_scan"}, "bike_id": "8da02d622d50bceeece818433aee7eb2", "fusion_lon": 0.0, "lat": 38.89647}, {"type": "electric_scooter", "name": "16428a964bc0afadaf6cffaff69b573d", "is_reserved": 0, "fusion_lat": 0.0, "lon": -77.02340516666666, "is_disabled": 0, "rental_uris": {"android": "https://dc.lft.to/lastmile_qr_scan", "ios": "https://dc.lft.to/lastmile_qr_scan"}, "bike_id": "16428a964bc0afadaf6cffaff69b573d", "fusion_lon": 0.0, "lat": 38.908394}, {"type": "electric_scooter", "name": "1061313a10a6a90cb08fc0c44a2b9c1a", "is_reserved": 0, "fusion_lat": 0.0, "lon": -77.02330983333333, "is_disabled": 0, "rental_uris": {"android": "https://dc.lft.to/lastmile_qr_scan", "ios": "https://dc.lft.to/lastmile_qr_scan"}, "bike_id": "1061313a10a6a90cb08fc0c44a2b9c1a", "fusion_lon": 0.0, "lat": 38.93602083333333}, {"type": "electric_scooter", "name": "0c660fef12fd8930bfa47c0b17fe80aa", "is_reserved": 0, "fusion_lat": 0.0, "lon": -77.024072, "is_disabled": 0, "rental_uris": {"android": "https://dc.lft.to/lastmile_qr_scan", "ios": "https://dc.lft.to/lastmile_qr_scan"}, "bike_id": "0c660fef12fd8930bfa47c0b17fe80aa", "fusion_lon": 0.0, "lat": 38.8925775}, {"type": "electric_scooter", "name": "0944ab4034fc5cd669132cde54697853", "is_reserved": 0, "fusion_lat": 0.0, "lon": -77.02917083333334, "is_disabled": 0, "rental_uris": {"android": "https://dc.lft.to/lastmile_qr_scan", "ios": "https://dc.lft.to/lastmile_qr_scan"}, "bike_id": "0944ab4034fc5cd669132cde54697853", "fusion_lon": 0.0, "lat": 38.898502666666666}, {"type": "electric_scooter", "name": "a4217cbbfe447fda3518d8a4344a693f", "is_reserved": 0, "fusion_lat": 0.0, "lon": -77.04105966666667, "is_disabled": 0, "rental_uris": {"android": "https://dc.lft.to/lastmile_qr_scan", "ios": "https://dc.lft.to/lastmile_qr_scan"}, "bike_id": "a4217cbbfe447fda3518d8a4344a693f", "fusion_lon": 0.0, "lat": 38.92799316666667}, {"type": "electric_scooter", "name": "b607f3c953727c3f6d27d869f1dc60ae", "is_reserved": 0, "fusion_lat": 0.0, "lon": -77.0455455, "is_disabled": 0, "rental_uris": {"android": "https://dc.lft.to/lastmile_qr_scan", "ios": "https://dc.lft.to/lastmile_qr_scan"}, "bike_id": "b607f3c953727c3f6d27d869f1dc60ae", "fusion_lon": 0.0, "lat": 38.917741}, {"type": "electric_scooter", "name": "804f958b67c1e497b4976e7103bbc22f", "is_reserved": 0, "fusion_lat": 0.0, "lon": -77.02574716666666, "is_disabled": 0, "rental_uris": {"android": "https://dc.lft.to/lastmile_qr_scan", "ios": "https://dc.lft.to/lastmile_qr_scan"}, "bike_id": "804f958b67c1e497b4976e7103bbc22f", "fusion_lon": 0.0, "lat": 38.91915233333334}, {"type": "electric_scooter", "name": "753b818bed8d40769642484fb6b64470", "is_reserved": 0, "fusion_lat": 0.0, "lon": -77.02470316666667, "is_disabled": 0, "rental_uris": {"android": "https://dc.lft.to/lastmile_qr_scan", "ios": "https://dc.lft.to/lastmile_qr_scan"}, "bike_id": "753b818bed8d40769642484fb6b64470", "fusion_lon": 0.0, "lat": 38.93299533333333}, {"type": "electric_scooter", "name": "de8432737a95e6414f8f9d674d14a632", "is_reserved": 0, "fusion_lat": 0.0, "lon": -77.0415695, "is_disabled": 0, "rental_uris": {"android": "https://dc.lft.to/lastmile_qr_scan", "ios": "https://dc.lft.to/lastmile_qr_scan"}, "bike_id": "de8432737a95e6414f8f9d674d14a632", "fusion_lon": 0.0, "lat": 38.919473833333335}, {"type": "electric_scooter", "name": "b58cf3169485edc11159016bc19cb766", "is_reserved": 0, "fusion_lat": 0.0, "lon": -77.00916233333334, "is_disabled": 0, "rental_uris": {"android": "https://dc.lft.to/lastmile_qr_scan", "ios": "https://dc.lft.to/lastmile_qr_scan"}, "bike_id": "b58cf3169485edc11159016bc19cb766", "fusion_lon": 0.0, "lat": 38.895605}, {"type": "electric_scooter", "name": "d0950fca0c5c7b12886b50ff2f6ae3a2", "is_reserved": 0, "fusion_lat": 0.0, "lon": -77.03355533333334, "is_disabled": 0, "rental_uris": {"android": "https://dc.lft.to/lastmile_qr_scan", "ios": "https://dc.lft.to/lastmile_qr_scan"}, "bike_id": "d0950fca0c5c7b12886b50ff2f6ae3a2", "fusion_lon": 0.0, "lat": 38.9073095}, {"type": "electric_scooter", "name": "be78955e34839d74acb8018cb55c00fa", "is_reserved": 0, "fusion_lat": 0.0, "lon": -77.032584, "is_disabled": 0, "rental_uris": {"android": "https://dc.lft.to/lastmile_qr_scan", "ios": "https://dc.lft.to/lastmile_qr_scan"}, "bike_id": "be78955e34839d74acb8018cb55c00fa", "fusion_lon": 0.0, "lat": 38.92794966666666},