{"data": {"bikes": [{"is_reserved": 0, "type": "electric_bike", "fusion_lat": 0.0, "is_disabled": 0, "rental_uris": {"ios": "https://dc.lft.to/lastmile_qr_scan", "android": "https://dc.lft.to/lastmile_qr_scan"}, "bike_id": "fb96c7a24d98210fd24385ef38832356", "lat": 38.92795366666667, "name": "fb96c7a24d98210fd24385ef38832356", "lon": -77.22913783333334, "fusion_lon": 0.0}, {"is_reserved": 0, "type": "electric_scooter", "fusion_lat": 0.0, "is_disabled": 0, "rental_uris": {"ios": "https://dc.lft.to/lastmile_qr_scan", "android": "https://dc.lft.to/lastmile_qr_scan"}, "bike_id": "5735c48c75f71720a24d48716c384790", "lat": 38.9169445, "name": "5735c48c75f71720a24d48716c384790", "lon": -77.0529675, "fusion_lon": 0.0}, {"is_reserved": 0, "type": "electric_scooter", "fusion_lat": 0.0, "is_disabled": 0, "rental_uris": {"ios": "https://dc.lft.to/lastmile_qr_scan", "android": "https://dc.lft.to/lastmile_qr_scan"}, "bike_id": "dfcc40444d5a85e508fe806efcc06c6d", "lat": 38.885399, "name": "dfcc40444d5a85e508fe806efcc06c6d", "lon": -76.98537216666666, "fusion_lon": 0.0}, {"is_reserved": 0, "type": "electric_scooter", "fusion_lat": 0.0, "is_disabled": 0, "rental_uris": {"ios": "https://dc.lft.to/lastmile_qr_scan", "android": "https://dc.lft.to/lastmile_qr_scan"}, "bike_id": "2ee21d6466bbadc07a24de11b616e849", "lat": 38.9217815, "name": "2ee21d6466bbadc07a24de11b616e849", "lon": -77.0210425, "fusion_lon": 0.0}, {"is_reserved": 0, "type": "electric_scooter", "fusion_lat": 0.0, "is_disabled": 0, "rental_uris": {"ios": "https://dc.lft.to/lastmile_qr_scan", "android": "https://dc.lft.to/lastmile_qr_scan"}, "bike_id": "469c0cf5b5e5c327fb8809401e120cd8", "lat": 38.923703833333335, "name": "469c0cf5b5e5c327fb8809401e120cd8", "lon": -77.019178, "fusion_lon": 0.0}, {"is_reserved": 0, "type": "electric_scooter", "fusion_lat": 0.0, "is_disabled": 0, "rental_uris": {"ios": "https://dc.lft.to/lastmile_qr_scan", "android": "https://dc.lft.to/lastmile_qr_scan"}, "bike_id": "22d6af06bfde80d8019c7f30c8c45775", "lat": 38.901216, "name": "22d6af06bfde80d8019c7f30c8c45775", "lon": -77.00361533333333, "fusion_lon": 0.0}, {"is_reserved": 0, "type": "electric_scooter", "fusion_lat": 0.0, "is_disabled": 0, "rental_uris": {"ios": "https://dc.lft.to/lastmile_qr_scan", "android": "https://dc.lft.to/lastmile_qr_scan"}, "bike_id": "2a24d53ba35f6d1f686e3a357f4fffb7", "lat": 38.898784666666664, "name": "2a24d53ba35f6d1f686e3a357f4fffb7", "lon": -76.9317735, "fusion_lon": 0.0}, {"is_reserved": 0, "type": "electric_scooter", "fusion_lat": 0.0, "is_disabled": 0, "rental_uris": {"ios": "https://dc.lft.to/lastmile_qr_scan", "android": "https://dc.lft.to/lastmile_qr_scan"}, "bike_id": "674e2a6390b7a31aec3eb3e6b7b54f1f", "lat": 38.964279, "name": "674e2a6390b7a31aec3eb3e6b7b54f1f", "lon": -77.07426466666666, "fusion_lon": 0.0}, {"is_reserved": 0, "type": "electric_scooter", "fusion_lat": 0.0, "is_disabled": 0, "rental_uris": {"ios": "https://dc.lft.to/lastmile_qr_scan", "android": "https://dc.lft.to/lastmile_qr_scan"}, "bike_id": "3efeface60546a2e12f9edf644ec4d88", "lat": 38.897969333333336, "name": "3efeface60546a2e12f9edf644ec4d88", "lon": -77.05206233333334, "fusion_lon": 0.0}, {"is_reserved": 0, "type": "electric_scooter", "fusion_lat": 0.0, "is_disabled": 0, "rental_uris": {"ios": "https://dc.lft.to/lastmile_qr_scan", "android": "https://dc.lft.to/lastmile_qr_scan"}, "bike_id": "e44af674c94a33fabc95b7261ae5c6fd", "lat": 38.901365, "name": "e44af674c94a33fabc95b7261ae5c6fd", "lon": -77.02317433333333, "fusion_lon": 0.0}, {"is_reserved": 0, "type": "electric_scooter", "fusion_lat": 0.0, "is_disabled": 0, "rental_uris": {"ios": "https://dc.lft.to/lastmile_qr_scan", "android": "https://dc.lft.to/lastmile_qr_scan"}, "bike_id": "35a9c75ac3cbe1cc208c78a118fbeb85", "lat": 38.91082383333333, "name": "35a9c75ac3cbe1cc208c78a118fbeb85", "lon": -77.02188583333333, "fusion_lon": 0.0}, {"is_reserved": 0, "type": "electric_scooter", "fusion_lat": 0.0, "is_disabled": 0, "rental_uris": {"ios": "https://dc.lft.to/lastmile_qr_scan", "android": "https://dc.lft.to/lastmile_qr_scan"}, "bike_id": "6aee37506170a7bf26983879b40f3398", "lat": 38.9128465, "name": "6aee37506170a7bf26983879b40f3398", "lon": -77.04738616666667, "fusion_lon": 0.0}, {"is_reserved": 0, "type": "electric_bike", "fusion_lat": 0.0, "is_disabled": 0, "rental_uris": {"ios": "https://dc.lft.to/lastmile_qr_scan", "android": "https://dc.lft.to/lastmile_qr_scan"}, "bike_id": "7179999bf46cd976d2310f941335e4ae", "lat": 38.8341515, "name": "7179999bf46cd976d2310f941335e4ae", "lon": -77.050107, "fusion_lon": 0.0}, {"is_reserved": 0, "type": "electric_scooter", "fusion_lat": 0.0, "is_disabled": 0, "rental_uris": {"ios": "https://dc.lft.to/lastmile_qr_scan", "android": "https://dc.lft.to/lastmile_qr_scan"}, "bike_id": "c9245aa190171c30fde2b004d2c5b587", "lat": 38.8982465, "name": "c9245aa190171c30fde2b004d2c5b587", "lon": -77.04637366666667, "fusion_lon": 0.0}, {"is_reserved": 0, "type": "electric_scooter", "fusion_lat": 0.0, "is_disabled": 0, "rental_uris": {"ios": "https://dc.lft.to/lastmile_qr_scan", "android": "https://dc.lft.to/lastmile_qr_scan"}, "bike_id": "8e4f5c9fec236eb692627b4281dd6151", "lat": 38.902582333333335, "name": "8e4f5c9fec236eb692627b4281dd6151", "lon": -76.99386916666667, "fusion_lon": 0.0}, {"is_reserved": 0, "type": "electric_scooter", "fusion_lat": 0.0, "is_disabled": 0, "rental_uris": {"ios": "https://dc.lft.to/lastmile_qr_scan", "android": "https://dc.lft.to/lastmile_qr_scan"}, "bike_id": "dc1105aabb4b9c5044f0f78f9fe2e686", "lat": 38.93567783333334, "name": "dc1105aabb4b9c5044f0f78f9fe2e686", "lon": -77.073712, "fusion_lon": 0.0}, {"is_reserved": 0, "type": "electric_scooter", "fusion_lat": 0.0, "is_disabled": 0, "rental_uris": {"ios": "https://dc.lft.to/lastmile_qr_scan", "android": "https://dc.lft.to/lastmile_qr_scan"}, "bike_id": "4189bb68cbb7209e409b67d0f9a9f03a", "lat": 38.90158516666666, "name": "4189bb68cbb7209e409b67d0f9a9f03a", "lon": -77.0295135, "fusion_lon": 0.0}, {"is_reserved": 0, "type": "electric_scooter", "fusion_lat": 0.0, "is_disabled": 0, "rental_uris": {"ios": "https://dc.lft.to/lastmile_qr_scan", "android": "https://dc.lft.to/lastmile_qr_scan"}, "bike_id": "1bcb018c9f31974122b14c3689d3d3dc", "lat": 38.85718516666667, "name": "1bcb018c9f31974122b14c3689d3d3dc", "lon": -76.98096166666667, "fusion_lon": 0.0}, {"is_reserved": 0, "type": "electric_scooter", "fusion_lat": 0.0, "is_disabled": 0, "rental_uris": {"ios": "https://dc.lft.to/lastmile_qr_scan", "android": "https://dc.lft.to/lastmile_qr_scan"}, "bike_id": "d1a57a1146166f77d309b08ad899fe53", "lat": 38.9094435, "name": "d1a57a1146166f77d309b08ad899fe53", "lon": -76.9958395, "fusion_lon": 0.0}, {"is_reserved": 0, "type": "electric_scooter", "fusion_lat": 0.0, "is_disabled": 0, "rental_uris": {"ios": "https://dc.lft.to/lastmile_qr_scan", "android": "https://dc.lft.to/lastmile_qr_scan"}, "bike_id": "48714d97220f8345548e66302a44a1a7", "lat": 38.91690633333333, "name": "48714d97220f8345548e66302a44a1a7", "lon": -77.02601583333333, "fusion_lon": 0.0}, {"is_reserved": 0, "type": "electric_scooter", "fusion_lat": 0.0, "is_disabled": 0, "rental_uris": {"ios": "https://dc.lft.to/lastmile_qr_scan", "android": "https://dc.lft.to/lastmile_qr_scan"}, "bike_id": "56f19dd79ff2158f7a45b7379bf41a30", "lat": 38.93223166666667, "name": "56f19dd79ff2158f7a45b7379bf41a30", "lon": -76.99713633333333, "fusion_lon": 0.0}, {"is_reserved": 0, "type": "electric_scooter", "fusion_lat": 0.0, "is_disabled": 0, "rental_uris": {"ios": "https://dc.lft.to/lastmile_qr_scan", "android": "https://dc.lft.to/lastmile_qr_scan"}, "bike_id": "30a8ed6ac8bc29a765153bba447fa5c7", "lat": 38.91695266666667, "name": "30a8ed6ac8bc29a765153bba447fa5c7", "lon": -77.0410805, "fusion_lon": 0.0}, {"is_reserved": 0, "type": "electric_bike", "fusion_lat": 0.0, "is_disabled": 0, "rental_uris": {"ios": "https://dc.lft.to/lastmile_qr_scan", "android": "https://dc.lft.to/lastmile_qr_scan"}, "bike_id": "4a045fe8df910953721cb7e24e058a61", "lat": 38.90525266666667, "name": "4a045fe8df910953721cb7e24e058a61", "lon": -77.06627233333333, "fusion_lon": 0.0}, {"is_reserved": 0, "type": "electric_scooter", "fusion_lat": 0.0, "is_disabled": 0, "rental_uris": {"ios": "https://dc.lft.to/lastmile_qr_scan", "android": "https://dc.lft.to/lastmile_qr_scan"}, "bike_id": "0f5e7db80d8d2fceb07b128658a700c8", "lat": 38.8608085, "name": "0f5e7db80d8d2fceb07b128658a700c8", "lon": -76.98377066666667, "fusion_lon": 0.0}, {"is_reserved": 0, "type": "electric_scooter", "fusion_lat": 0.0, "is_disabled": 0, "rental_uris": {"ios": "https://dc.lft.to/lastmile_qr_scan", "android": "https://dc.lft.to/lastmile_qr_scan"}, "bike_id": "d99dbaed8af9183786f343e54ff6a7bb", "lat": 38.9137445, "name": "d99dbaed8af9183786f343e54ff6a7bb", "lon": -77.01998633333334, "fusion_lon": 0.0}, {"is_reserved": 0, "type": "electric_scooter", "fusion_lat": 0.0, "is_disabled": 0, "rental_uris": {"ios": "https://dc.lft.to/lastmile_qr_scan", "android": "https://dc.lft.to/lastmile_qr_scan"}, "bike_id": "a43fb7acc957c92277d305ca17d1111a", "lat": 38.919086166666666, "name": "a43fb7acc957c92277d305ca17d1111a", "lon": -77.0311555, "fusion_lon": 0.0}, {"is_reserved": 0, "type": "electric_scooter", "fusion_lat": 0.0, "is_disabled": 0, "rental_uris": {"ios": "https://dc.lft.to/lastmile_qr_scan", "android": "https://dc.lft.to/lastmile_qr_scan"}, "bike_id": "a774d9501cb7b014539fe9594cb70cc2", "lat": 38.90237366666667, "name": "a774d9501cb7b014539fe9594cb70cc2", "lon": -76.99368466666667, "fusion_lon": 0.0}, {"is_reserved": 0, "type": "electric_bike", "fusion_lat": 0.0, "is_disabled": 0, "rental_uris": {"ios": "https://dc.lft.to/lastmile_qr_scan", "android": "https://dc.lft.to/lastmile_qr_scan"}, "bike_id": "95bb1afb8093b7d7ebecf10a4d7e6bda", "lat": 38.85055833333333, "name": "95bb1afb8093b7d7ebecf10a4d7e6bda", "lon": -76.95827816666667, "fusion_lon": 0.0}, {"is_reserved": 0, "type": "electric_scooter", "fusion_lat": 0.0, "is_disabled": 0, "rental_uris": {"ios": "https://dc.lft.to/lastmile_qr_scan", "android": "https://dc.lft.to/lastmile_qr_scan"}, "bike_id": "8cb5fde80e914f75c35a2cfb60faa2c7", "lat": 38.908373166666664, "name": "8cb5fde80e914f75c35a2cfb60faa2c7", "lon": -77.0436585, "fusion_lon": 0.0}, {"is_reserved": 0, "type": "electric_scooter", "fusion_lat": 0.0, "is_disabled": 0, "rental_uris": {"ios": "https://dc.lft.to/lastmile_qr_scan", "android": "https://dc.lft.to/lastmile_qr_scan"}, "bike_id": "2dc6347ada3ffa4d8be09d6222c2e552", "lat": 38.885754666666664, "name": "2dc6347ada3ffa4d8be09d6222c2e552", "lon": -77.0121075, "fusion_lon": 0.0}, {"is_reserved": 0, "type": "electric_scooter", "fusion_lat": 0.0, "is_disabled": 0, "rental_uris": {"ios": "https://dc.lft.to/lastmile_qr_scan", "android": "https://dc.lft.to/lastmile_qr_scan"}, "bike_id": "565f3f2aeec90bf61b0a0ce0d40ee9d2", "lat": 38.90893966666667, "name": "565f3f2aeec90bf61b0a0ce0d40ee9d2", "lon": -77.0006665, "fusion_lon": 0.0}, {"is_reserved": 0, "type": "electric_scooter", "fusion_lat": 0.0, "is_disabled": 0, "rental_uris": {"ios": "https://dc.lft.to/lastmile_qr_scan", "android": "https://dc.lft.to/lastmile_qr_scan"}, "bike_id": "c87dad77d7655551cca0fbf4ab091d63", "lat": 38.93261566666666, "name": "c87dad77d7655551cca0fbf4ab091d63", "lon": -77.0326965, "fusion_lon": 0.0}, {"is_reserved": 0, "type": "electric_bike", "fusion_lat": 0.0, "is_disabled": 0, "rental_uris": {"ios": "https://dc.lft.to/lastmile_qr_scan", "android": "https://dc.lft.to/lastmile_qr_scan"}, "bike_id": "1ce1265eea88d2ad3b8dbfb237e5bc25", "lat": 38.890850666666665, "name": "1ce1265eea88d2ad3b8dbfb237e5bc25", "lon": -76.954657, "fusion_lon": 0.0}, {"is_reserved": 0, "type": "electric_scooter", "fusion_lat": 0.0, "is_disabled": 0, "rental_uris": {"ios": "https://dc.lft.to/lastmile_qr_scan", "android": "https://dc.lft.to/lastmile_qr_scan"}, "bike_id": "e502f3bb28a7728b983be2635221b11f", "lat": 38.9286835, "name": "e502f3bb28a7728b983be2635221b11f", "lon": -77.0347955, "fusion_lon": 0.0}, {"is_reserved": 0, "type": "electric_scooter", "fusion_lat": 0.0, "is_disabled": 0, "rental_uris": {"ios": "https://dc.lft.to/lastmile_qr_scan", "android": "https://dc.lft.to/lastmile_qr_scan"}, "bike_id": "f9d9dedba0d9ca0c6a0e60f4a04c8674", "lat": 38.9563725, "name": "f9d9dedba0d9ca0c6a0e60f4a04c8674", "lon": -77.0363145, "fusion_lon": 0.0}, {"is_reserved": 0, "type": "electric_scooter", "fusion_lat": 0.0, "is_disabled": 0, "rental_uris": {"ios": "https://dc.lft.to/lastmile_qr_scan", "android": "https://dc.lft.to/lastmile_qr_scan"}, "bike_id": "bdeac9b227534d2b39550771c16d3b28", "lat": 38.92612233333333, "name": "bdeac9b227534d2b39550771c16d3b28", "lon": -77.021639, "fusion_lon": 0.0}, {"is_reserved": 0, "type": "electric_scooter", "fusion_lat": 0.0, "is_disabled": 0, "rental_uris": {"ios": "https://dc.lft.to/lastmile_qr_scan", "android": "https://dc.lft.to/lastmile_qr_scan"}, "bike_id": "3c6ebc02d18533baf1f35701427e6243", "lat": 38.917344, "name": "3c6ebc02d18533baf1f35701427e6243", "lon": -77.02603666666667, "fusion_lon": 0.0}, {"is_reserved": 0, "type": "electric_scooter", "fusion_lat": 0.0, "is_disabled": 0, "rental_uris": {"ios": "https://dc.lft.to/lastmile_qr_scan", "android": "https://dc.lft.to/lastmile_qr_scan"}, "bike_id": "2cc8e065d26174e22aa6399fe9078bb8", "lat": 38.92994566666667, "name": "2cc8e065d26174e22aa6399fe9078bb8", "lon": -77.02172616666667, "fusion_lon": 0.0}, {"is_reserved": 0, "type": "electric_scooter", "fusion_lat": 0.0, "is_disabled": 0, "rental_uris": {"ios": "https://dc.lft.to/lastmile_qr_scan", "android": "https://dc.lft.to/lastmile_qr_scan"}, "bike_id": "a52114cd3e5e6091098e6e0c3bc1e63d", "lat": 38.92357783333333, "name": "a52114cd3e5e6091098e6e0c3bc1e63d", "lon": -77.03444033333334, "fusion_lon": 0.0}, {"is_reserved": 0, "type": "electric_scooter", "fusion_lat": 0.0, "is_disabled": 0, "rental_uris": {"ios": "https://dc.lft.to/lastmile_qr_scan", "android": "https://dc.lft.to/lastmile_qr_scan"}, "bike_id": "8089f47f5acc054d5c641920b5bce4b5", "lat": 38.93715916666667, "name": "8089f47f5acc054d5c641920b5bce4b5", "lon": -77.03630516666666, "fusion_lon": 0.0}, {"is_reserved": 0, "type": "electric_scooter", "fusion_lat": 0.0, "is_disabled": 0, "rental_uris": {"ios": "https://dc.lft.to/lastmile_qr_scan", "android": "https://dc.lft.to/lastmile_qr_scan"}, "bike_id": "006824d3ca6b62e9b2885354c243c586", "lat": 38.908175, "name": "006824d3ca6b62e9b2885354c243c586", "lon": -77.0842625, "fusion_lon": 0.0}, {"is_reserved": 0, "type": "electric_scooter", "fusion_lat": 0.0, "is_disabled": 0, "rental_uris": {"ios": "https://dc.lft.to/lastmile_qr_scan", "android": "https://dc.lft.to/lastmile_qr_scan"}, "bike_id": "66f2a2d9458fd17209b9fb22411f63b2", "lat": 38.90727783333333, "name": "66f2a2d9458fd17209b9fb22411f63b2", "lon": -77.01138083333333, "fusion_lon": 0.0}, {"is_reserved": 0, "type": "electric_scooter", "fusion_lat": 0.0, "is_disabled": 0, "rental_uris": {"ios": "https://dc.lft.to/lastmile_qr_scan", "android": "https://dc.lft.to/lastmile_qr_scan"}, "bike_id": "1359256e2f438b087f49d06b48a63635", "lat": 38.9008945, "name": "1359256e2f438b087f49d06b48a63635", "lon": -76.98270516666666, "fusion_lon": 0.0}, {"is_reserved": 0, "type": "electric_scooter", "fusion_lat": 0.0, "is_disabled": 0, "rental_uris": {"ios": "https://dc.lft.to/lastmile_qr_scan", "android": "https://dc.lft.to/lastmile_qr_scan"}, "bike_id": "084ac05d40e9ec11c423a34d313c24a3", "lat": 38.9006165, "name": "084ac05d40e9ec11c423a34d313c24a3", "lon": -77.02584633333333, "fusion_lon": 0.0}, {"is_reserved": 0, "type": "electric_scooter", "fusion_lat": 0.0, "is_disabled": 0, "rental_uris": {"ios": "https://dc.lft.to/lastmile_qr_scan", "android": "https://dc.lft.to/lastmile_qr_scan"}, "bike_id": "61c0781cb220d320007ac5f46de38afe", "lat": 38.93100233333333, "name": "61c0781cb220d320007ac5f46de38afe", "lon": -77.03805333333334, "fusion_lon": 0.0}, {"is_reserved": 0, "type": "electric_bike", "fusion_lat": 0.0, "is_disabled": 0, "rental_uris": {"ios": "https://dc.lft.to/lastmile_qr_scan", "android": "https://dc.lft.to/lastmile_qr_scan"}, "bike_id": "8b8a1685b91f62970b5ef48afd8bffb2", "lat": 38.846203, "name": "8b8a1685b91f62970b5ef48afd8bffb2", "lon": -76.9783935, "fusion_lon": 0.0}, {"is_reserved": 0, "type": "electric_scooter", "fusion_lat": 0.0, "is_disabled": 0, "rental_uris": {"ios": "https://dc.lft.to/lastmile_qr_scan", "android": "https://dc.lft.to/lastmile_qr_scan"}, "bike_id": "86e30bf6091e8ae13f75a0b2250bee3f", "lat": 38.913801166666666, "name": "86e30bf6091e8ae13f75a0b2250bee3f", "lon": -77.06433383333334, "fusion_lon": 0.0}, {"is_reserved": 0, "type": "electric_scooter", "fusion_lat": 0.0, "is_disabled": 0, "rental_uris": {"ios": "https://dc.lft.to/lastmile_qr_scan", "android": "https://dc.lft.to/lastmile_qr_scan"}, "bike_id": "1c975aaa5fcbf55bdfab9e9acaddffe1", "lat": 38.8871095, "name": "1c975aaa5fcbf55bdfab9e9acaddffe1", "lon": -76.98337733333334, "fusion_lon": 0.0}, {"is_reserved": 0, "type": "electric_scooter", "fusion_lat": 0.0, "is_disabled": 0, "rental_uris": {"ios": "https://dc.lft.to/lastmile_qr_scan", "android": "https://dc.lft.to/lastmile_qr_scan"}, "bike_id": "a3fa8d429461a444c6c5ee0a18bf4745", "lat": 38.903930833333334, "name": "a3fa8d429461a444c6c5ee0a18bf4745", "lon": -76.980862, "fusion_lon": 0.0}, {"is_reserved": 0, "type": "electric_scooter", "fusion_lat": 0.0, "is_disabled": 0, "rental_uris": {"ios": "https://dc.lft.to/lastmile_qr_scan", "android": "https://dc.lft.to/lastmile_qr_scan"}, "bike_id": "0b79f9eddb3339dbcc752922f8a46f00", "lat": 38.88575433333333, "name": "0b79f9eddb3339dbcc752922f8a46f00", "lon": -77.01209733333333, "fusion_lon": 0.0}, {"is_reserved": 0, "type": "electric_scooter", "fusion_lat": 0.0, "is_disabled": 0, "rental_uris": {"ios": "https://dc.lft.to/lastmile_qr_scan", "android": "https://dc.lft.to/lastmile_qr_scan"}, "bike_id": "8f2c802c10a3739d210c0b142f521c77", "lat": 38.855437, "name": "8f2c802c10a3739d210c0b142f521c77", "lon": -76.98658883333333, "fusion_lon": 0.0}, {"is_reserved": 0, "type": "electric_bike", "fusion_lat": 0.0, "is_disabled": 0, "rental_uris": {"ios": "https://dc.lft.to/lastmile_qr_scan", "android": "https://dc.lft.to/lastmile_qr_scan"}, "bike_id": "7a9018f05616eb8250959dd6093a3f16", "lat": 38.974393666666664, "name": "7a9018f05616eb8250959dd6093a3f16", "lon": -77.09615916666667, "fusion_lon": 0.0}, {"is_reserved": 0, "type": "electric_scooter", "fusion_lat": 0.0, "is_disabled": 0, "rental_uris": {"ios": "https://dc.lft.to/lastmile_qr_scan", "android": "https://dc.lft.to/lastmile_qr_scan"}, "bike_id": "f7ed813e3433639822020f7b75c00d95", "lat": 38.8984875, "name": "f7ed813e3433639822020f7b75c00d95", "lon": -77.002058, "fusion_lon": 0.0}, {"is_reserved": 0, "type": "electric_scooter", "fusion_lat": 0.0, "is_disabled": 0, "rental_uris": {"ios": "https://dc.lft.to/lastmile_qr_scan", "android": "https://dc.lft.to/lastmile_qr_scan"}, "bike_id": "b63bbaedba3556dc6a5e87ef31e78fd6", "lat": 38.95553966666667, "name": "b63bbaedba3556dc6a5e87ef31e78fd6", "lon": -77.03317383333334, "fusion_lon": 0.0}, {"is_reserved": 0, "type": "electric_scooter", "fusion_lat": 0.0, "is_disabled": 0, "rental_uris": {"ios": "https://dc.lft.to/lastmile_qr_scan", "android": "https://dc.lft.to/lastmile_qr_scan"}, "bike_id": "5976e6fba6eec7cafe434a9384d64467", "lat": 38.8717735, "name": "5976e6fba6eec7cafe434a9384d64467", "lon": -77.0061425, "fusion_lon": 0.0}, {"is_reserved": 0, "type": "electric_scooter", "fusion_lat": 0.0, "is_disabled": 0, "rental_uris": {"ios": "https://dc.lft.to/lastmile_qr_scan", "android": "https://dc.lft.to/lastmile_qr_scan"}, "bike_id": "a98dc48c015510fd44beddceed95596e", "lat": 38.897456, "name": "a98dc48c015510fd44beddceed95596e", "lon": -77.008668, "fusion_lon": 0.0}, {"is_reserved": 0, "type": "electric_bike", "fusion_lat": 0.0, "is_disabled": 0, "rental_uris": {"ios": "https://dc.lft.to/lastmile_qr_scan", "android": "https://dc.lft.to/lastmile_qr_scan"}, "bike_id": "9e0192907458a113563b85f3a5a098e6", "lat": 38.990971, "name": "9e0192907458a113563b85f3a5a098e6", "lon": -76.99376783333334, "fusion_lon": 0.0}, {"is_reserved": 0, "type": "electric_scooter", "fusion_lat": 0.0, "is_disabled": 0, "rental_uris": {"ios": "https://dc.lft.to/lastmile_qr_scan", "android": "https://dc.lft.to/lastmile_qr_scan"}, "bike_id": "e7375deea976babe961341c338e32a60", "lat": 38.90493816666667, "name": "e7375deea976babe961341c338e32a60", "lon": -77.06018483333334, "fusion_lon": 0.0}, {"is_reserved": 0, "type": "electric_scooter", "fusion_lat": 0.0, "is_disabled": 0, "rental_uris": {"ios": "https://dc.lft.to/lastmile_qr_scan", "android": "https://dc.lft.to/lastmile_qr_scan"}, "bike_id": "cf8f282f1ed4183958e5e47e9d682893", "lat": 38.920409166666666, "name": "cf8f282f1ed4183958e5e47e9d682893", "lon": -77.01677333333333, "fusion_lon": 0.0}, {"is_reserved": 0, "type": "electric_scooter", "fusion_lat": 0.0, "is_disabled": 0, "rental_uris": {"ios": "https://dc.lft.to/lastmile_qr_scan", "android": "https://dc.lft.to/lastmile_qr_scan"}, "bike_id": "5041020442319c45249685c046a4a756", "lat": 38.902348333333336, "name": "5041020442319c45249685c046a4a756", "lon": -77.00058883333334, "fusion_lon": 0.0}, {"is_reserved": 0, "type": "electric_scooter", "fusion_lat": 0.0, "is_disabled": 0, "rental_uris": {"ios": "https://dc.lft.to/lastmile_qr_scan", "android": "https://dc.lft.to/lastmile_qr_scan"}, "bike_id": "a810d7429692313fa8b0ddc62e747f1a", "lat": 38.90642316666667, "name": "a810d7429692313fa8b0ddc62e747f1a", "lon": -77.04889166666666, "fusion_lon": 0.0}, {"is_reserved": 0, "type": "electric_scooter", "fusion_lat": 0.0, "is_disabled": 0, "rental_uris": {"ios": "https://dc.lft.to/lastmile_qr_scan", "android": "https://dc.lft.to/lastmile_qr_scan"}, "bike_id": "adde9087f1c59edb0c29ce8162e34039", "lat": 38.912554, "name": "adde9087f1c59edb0c29ce8162e34039", "lon": -77.03866333333333, "fusion_lon": 0.0}, {"is_reserved": 0, "type": "electric_scooter", "fusion_lat": 0.0, "is_disabled": 0, "rental_uris": {"ios": "https://dc.lft.to/lastmile_qr_scan", "android": "https://dc.lft.to/lastmile_qr_scan"}, "bike_id": "aa0e9cfaaf52674169fbc4a7b00c5b3e", "lat": 38.88746316666667, "name": "aa0e9cfaaf52674169fbc4a7b00c5b3e", "lon": -77.01409366666667, "fusion_lon": 0.0}, {"is_reserved": 0, "type": "electric_scooter", "fusion_lat": 0.0, "is_disabled": 0, "rental_uris": {"ios": "https://dc.lft.to/lastmile_qr_scan", "android": "https://dc.lft.to/lastmile_qr_scan"}, "bike_id": "8048fa0d329e73f61dad15d1fcbb9b98", "lat": 38.90414366666667, "name": "8048fa0d329e73f61dad15d1fcbb9b98", "lon": -76.98531866666667, "fusion_lon": 0.0}, {"is_reserved": 0, "type": "electric_scooter", "fusion_lat": 0.0, "is_disabled": 0, "rental_uris": {"ios": "https://dc.lft.to/lastmile_qr_scan", "android": "https://dc.lft.to/lastmile_qr_scan"}, "bike_id": "c9f210b1c1a2ce04f835fb2f7094cb69", "lat": 38.92464666666667, "name": "c9f210b1c1a2ce04f835fb2f7094cb69", "lon": -77.037882, "fusion_lon": 0.0}, {"is_reserved": 0, "type": "electric_scooter", "fusion_lat": 0.0, "is_disabled": 0, "rental_uris": {"ios": "https://dc.lft.to/lastmile_qr_scan", "android": "https://dc.lft.to/lastmile_qr_scan"}, "bike_id": "9e337dded67edcc32287cc6edbcf8c55", "lat": 38.89526883333333, "name": "9e337dded67edcc32287cc6edbcf8c55", "lon": -77.021806, "fusion_lon": 0.0}, {"is_reserved": 0, "type": "electric_scooter", "fusion_lat": 0.0, "is_disabled": 0, "rental_uris": {"ios": "https://dc.lft.to/lastmile_qr_scan", "android": "https://dc.lft.to/lastmile_qr_scan"}, "bike_id": "be6798ed3570710908c3f93c46ac1636", "lat": 38.905890666666664, "name": "be6798ed3570710908c3f93c46ac1636", "lon": -77.062975, "fusion_lon": 0.0}, {"is_reserved": 0, "type": "electric_scooter", "fusion_lat": 0.0, "is_disabled": 0, "rental_uris": {"ios": "https://dc.lft.to/lastmile_qr_scan", "android": "https://dc.lft.to/lastmile_qr_scan"}, "bike_id": "5d7e59f9f0aa8793a120aec32276d23e", "lat": 38.897417833333336, "name": "5d7e59f9f0aa8793a120aec32276d23e", "lon": -77.03346533333334, "fusion_lon": 0.0}, {"is_reserved": 0, "type": "electric_bike", "fusion_lat": 0.0, "is_disabled": 0, "rental_uris": {"ios": "https://dc.lft.to/lastmile_qr_scan", "android": "https://dc.lft.to/lastmile_qr_scan"}, "bike_id": "1ceaa7d45b2b5ab5dc46268d096e2fab", "lat": 38.848585166666666, "name": "1ceaa7d45b2b5ab5dc46268d096e2fab", "lon": -77.06831966666667, "fusion_lon": 0.0}, {"is_reserved": 0, "type": "electric_scooter", "fusion_lat": 0.0, "is_disabled": 0, "rental_uris": {"ios": "https://dc.lft.to/lastmile_qr_scan", "android": "https://dc.lft.to/lastmile_qr_scan"}, "bike_id": "6f5f2a920956deb041927c104b119805", "lat": 38.88527283333333, "name": "6f5f2a920956deb041927c104b119805", "lon": -76.9805945, "fusion_lon": 0.0}, {"is_reserved": 0, "type": "electric_scooter", "fusion_lat": 0.0, "is_disabled": 0, "rental_uris": {"ios": "https://dc.lft.to/lastmile_qr_scan", "android": "https://dc.lft.to/lastmile_qr_scan"}, "bike_id": "e0d3b5f4787b89ba0415117582c6bfde", "lat": 38.890715166666666, "name": "e0d3b5f4787b89ba0415117582c6bfde", "lon": -76.98837533333334, "fusion_lon": 0.0}, {"is_reserved": 0, "type": "electric_bike", "fusion_lat": 0.0, "is_disabled": 0, "rental_uris": {"ios": "https://dc.lft.to/lastmile_qr_scan", "android": "https://dc.lft.to/lastmile_qr_scan"}, "bike_id": "cfae901e49216e9b6db844d2e0650b24", "lat": 38.89617466666667, "name": "cfae901e49216e9b6db844d2e0650b24", "lon": -76.90746283333333, "fusion_lon": 0.0}, {"is_reserved": 0, "type": "electric_scooter", "fusion_lat": 0.0, "is_disabled": 0, "rental_uris": {"ios": "https://dc.lft.to/lastmile_qr_scan", "android": "https://dc.lft.to/lastmile_qr_scan"}, "bike_id": "329d376c9672e9fff6021b4f48e2b048", "lat": 38.914182, "name": "329d376c9672e9fff6021b4f48e2b048", "lon": -77.03161516666667, "fusion_lon": 0.0}, {"is_reserved": 0, "type": "electric_scooter", "fusion_lat": 0.0, "is_disabled": 0, "rental_uris": {"ios": "https://dc.lft.to/lastmile_qr_scan", "android": "https://dc.lft.to/lastmile_qr_scan"}, "bike_id": "e2773a348f2679f5d13097433dd65d57", "lat": 38.921638333333334, "name": "e2773a348f2679f5d13097433dd65d57", "lon": -77.04025616666667, "fusion_lon": 0.0}, {"is_reserved": 0, "type": "electric_scooter", "fusion_lat": 0.0, "is_disabled": 0, "rental_uris": {"ios": "https://dc.lft.to/lastmile_qr_scan", "android": "https://dc.lft.to/lastmile_qr_scan"}, "bike_id": "7382e133e3c754aead410308e0573f42", "lat": 38.902419333333334, "name": "7382e133e3c754aead410308e0573f42", "lon": -77.03463983333333, "fusion_lon": 0.0}, {"is_reserved": 0, "type": "electric_scooter", "fusion_lat": 0.0, "is_disabled": 0, "rental_uris": {"ios": "https://dc.lft.to/lastmile_qr_scan", "android": "https://dc.lft.to/lastmile_qr_scan"}, "bike_id": "e0ce7521c0d3b55d01ba2615afbec143", "lat": 38.924086833333334, "name": "e0ce7521c0d3b55d01ba2615afbec143", "lon": -77.02008166666667, "fusion_lon": 0.0}, {"is_reserved": 0, "type": "electric_scooter", "fusion_lat": 0.0, "is_disabled": 0, "rental_uris": {"ios": "https://dc.lft.to/lastmile_qr_scan", "android": "https://dc.lft.to/lastmile_qr_scan"}, "bike_id": "4d2acc3ebc8e35cf226c871162284750", "lat": 38.957474166666664, "name": "4d2acc3ebc8e35cf226c871162284750", "lon": -77.0220995, "fusion_lon": 0.0}, {"is_reserved": 0, "type": "electric_scooter", "fusion_lat": 0.0, "is_disabled": 0, "rental_uris": {"ios": "https://dc.lft.to/lastmile_qr_scan", "android": "https://dc.lft.to/lastmile_qr_scan"}, "bike_id": "718ae726be9117fadab65f4f854b2bba", "lat": 38.900862333333336, "name": "718ae726be9117fadab65f4f854b2bba", "lon": -77.04776466666667, "fusion_lon": 0.0}, {"is_reserved": 0, "type": "electric_scooter", "fusion_lat": 0.0, "is_disabled": 0, "rental_uris": {"ios": "https://dc.lft.to/lastmile_qr_scan", "android": "https://dc.lft.to/lastmile_qr_scan"}, "bike_id": "b1f6426f33071945bcc8f0cd88de0767", "lat": 38.90566183333333, "name": "b1f6426f33071945bcc8f0cd88de0767", "lon": -77.03082866666666, "fusion_lon": 0.0}, {"is_reserved": 0, "type": "electric_scooter", "fusion_lat": 0.0, "is_disabled": 0, "rental_uris": {"ios": "https://dc.lft.to/lastmile_qr_scan", "android": "https://dc.lft.to/lastmile_qr_scan"}, "bike_id": "eccce20eceeb3842cdfaa710e210837a", "lat": 38.885135166666664, "name": "eccce20eceeb3842cdfaa710e210837a", "lon": -76.9244415, "fusion_lon": 0.0}, {"is_reserved": 0, "type": "electric_scooter", "fusion_lat": 0.0, "is_disabled": 0, "rental_uris": {"ios": "https://dc.lft.to/lastmile_qr_scan", "android": "https://dc.lft.to/lastmile_qr_scan"}, "bike_id": "503c51fd3a15d2296aa3ad651f05573d", "lat": 38.956922666666664, "name": "503c51fd3a15d2296aa3ad651f05573d", "lon": -77.022323, "fusion_lon": 0.0}, {"is_reserved": 0, "type": "electric_scooter", "fusion_lat": 0.0, "is_disabled": 0, "rental_uris": {"ios": "https://dc.lft.to/lastmile_qr_scan", "android": "https://dc.lft.to/lastmile_qr_scan"}, "bike_id": "7a0a65d6a0cf0a1a1a48dcad545a3f79", "lat": 38.920574333333334, "name": "7a0a65d6a0cf0a1a1a48dcad545a3f79", "lon": -77.03392166666667, "fusion_lon": 0.0}, {"is_reserved": 0, "type": "electric_scooter", "fusion_lat": 0.0, "is_disabled": 0, "rental_uris": {"ios": "https://dc.lft.to/lastmile_qr_scan", "android": "https://dc.lft.to/lastmile_qr_scan"}, "bike_id": "3517ad0b4c4588925208b6567ec3b084", "lat": 38.92230133333333, "name": "3517ad0b4c4588925208b6567ec3b084", "lon": -76.975327, "fusion_lon": 0.0}, {"is_reserved": 0, "type": "electric_scooter", "fusion_lat": 0.0, "is_disabled": 0, "rental_uris": {"ios": "https://dc.lft.to/lastmile_qr_scan", "android": "https://dc.lft.to/lastmile_qr_scan"}, "bike_id": "dcd4523bb5eaddf25864c4e6bcb7d00d", "lat": 38.90356516666667, "name": "dcd4523bb5eaddf25864c4e6bcb7d00d", "lon": -77.04001883333333, "fusion_lon": 0.0}, {"is_reserved": 0, "type": "electric_scooter", "fusion_lat": 0.0, "is_disabled": 0, "rental_uris": {"ios": "https://dc.lft.to/lastmile_qr_scan", "android": "https://dc.lft.to/lastmile_qr_scan"}, "bike_id": "5e14ef4256a0432e4d51c1c1bce02ea3", "lat": 38.89731483333333, "name": "5e14ef4256a0432e4d51c1c1bce02ea3", "lon": -77.02054433333333, "fusion_lon": 0.0}, {"is_reserved": 0, "type": "electric_scooter", "fusion_lat": 0.0, "is_disabled": 0, "rental_uris": {"ios": "https://dc.lft.to/lastmile_qr_scan", "android": "https://dc.lft.to/lastmile_qr_scan"}, "bike_id": "4c96083e8fb409fabf5de85c746e0330", "lat": 38.92237983333333, "name": "4c96083e8fb409fabf5de85c746e0330", "lon": -77.02115733333333, "fusion_lon": 0.0}, {"is_reserved": 0, "type": "electric_scooter", "fusion_lat": 0.0, "is_disabled": 0, "rental_uris": {"ios": "https://dc.lft.to/lastmile_qr_scan", "android": "https://dc.lft.to/lastmile_qr_scan"}, "bike_id": "57eb69815e9cf7f264d1fe5533d0aac5", "lat": 38.938605833333334, "name": "57eb69815e9cf7f264d1fe5533d0aac5", "lon": -77.07829316666667, "fusion_lon": 0.0}, {"is_reserved": 0, "type": "electric_scooter", "fusion_lat": 0.0, "is_disabled": 0, "rental_uris": {"ios": "https://dc.lft.to/lastmile_qr_scan", "android": "https://dc.lft.to/lastmile_qr_scan"}, "bike_id": "fb5908fb9b11e430c29f6ecf498435c7", "lat": 38.9007485, "name": "fb5908fb9b11e430c29f6ecf498435c7", "lon": -77.04348516666667, "fusion_lon": 0.0}, {"is_reserved": 0, "type": "electric_scooter", "fusion_lat": 0.0, "is_disabled": 0, "rental_uris": {"ios": "https://dc.lft.to/lastmile_qr_scan", "android": "https://dc.lft.to/lastmile_qr_scan"}, "bike_id": "2c7287609543d25ea9552e4ce000ab84", "lat": 38.926903833333334, "name": "2c7287609543d25ea9552e4ce000ab84", "lon": -77.0228535, "fusion_lon": 0.0}, {"is_reserved": 0, "type": "electric_scooter", "fusion_lat": 0.0, "is_disabled": 0, "rental_uris": {"ios": "https://dc.lft.to/lastmile_qr_scan", "android": "https://dc.lft.to/lastmile_qr_scan"}, "bike_id": "da2595aae9c1c30ad31965e43f96c01e", "lat": 38.93740616666667, "name": "da2595aae9c1c30ad31965e43f96c01e", "lon": -77.08499433333333, "fusion_lon": 0.0}, {"is_reserved": 0, "type": "electric_scooter", "fusion_lat": 0.0, "is_disabled": 0, "rental_uris": {"ios": "https://dc.lft.to/lastmile_qr_scan", "android": "https://dc.lft.to/lastmile_qr_scan"}, "bike_id": "e75be7741605b4d370aa509386918b7e", "lat": 38.91559566666667, "name": "e75be7741605b4d370aa509386918b7e", "lon": -77.03223183333333, "fusion_lon": 0.0}, {"is_reserved": 0, "type": "electric_scooter", "fusion_lat": 0.0, "is_disabled": 0, "rental_uris": {"ios": "https://dc.lft.to/lastmile_qr_scan", "android": "https://dc.lft.to/lastmile_qr_scan"}, "bike_id": "d1d7da4b43a731cc941427c666aa30e9", "lat": 38.9076925, "name": "d1d7da4b43a731cc941427c666aa30e9", "lon": -77.01897916666667, "fusion_lon": 0.0}, {"is_reserved": 0, "type": "electric_scooter", "fusion_lat": 0.0, "is_disabled": 0, "rental_uris": {"ios": "https://dc.lft.to/lastmile_qr_scan", "android": "https://dc.lft.to/lastmile_qr_scan"}, "bike_id": "161aa721255857ded6121d488bd6bebb", "lat": 38.8987125, "name": "161aa721255857ded6121d488bd6bebb", "lon": -77.00725466666667, "fusion_lon": 0.0}, {"is_reserved": 0, "type": "electric_scooter", "fusion_lat": 0.0, "is_disabled": 0, "rental_uris": {"ios": "https://dc.lft.to/lastmile_qr_scan", "android": "https://dc.lft.to/lastmile_qr_scan"}, "bike_id": "af1d4cac998b2708a9a504300b6af4d6", "lat": 38.91753216666667, "name": "af1d4cac998b2708a9a504300b6af4d6", "lon": -77.0415375, "fusion_lon": 0.0}, {"is_reserved": 0, "type": "electric_scooter", "fusion_lat": 0.0, "is_disabled": 0, "rental_uris": {"ios": "https://dc.lft.to/lastmile_qr_scan", "android": "https://dc.lft.to/lastmile_qr_scan"}, "bike_id": "94086fc2486ea4549d9dcae426cd6eae", "lat": 38.90180383333333, "name": "94086fc2486ea4549d9dcae426cd6eae", "lon": -77.00063116666666, "fusion_lon": 0.0}, {"is_reserved": 0, "type": "electric_bike", "fusion_lat": 0.0, "is_disabled": 0, "rental_uris": {"ios": "https://dc.lft.to/lastmile_qr_scan", "android": "https://dc.lft.to/lastmile_qr_scan"}, "bike_id": "1f8d5b9d03c34b2fb611694509a11a27", "lat": 38.879555, "name": "1f8d5b9d03c34b2fb611694509a11a27", "lon": -76.93191033333333, "fusion_lon": 0.0}, {"is_reserved": 0, "type": "electric_bike", "fusion_lat": 0.0, "is_disabled": 0, "rental_uris": {"ios": "https://dc.lft.to/lastmile_qr_scan", "android": "https://dc.lft.to/lastmile_qr_scan"}, "bike_id": "99aa0bcdff4228491510c1c12958427c", "lat": 38.88876666666667, "name": "99aa0bcdff4228491510c1c12958427c", "lon": -76.95701366666667, "fusion_lon": 0.0}, {"is_reserved": 0, "type": "electric_scooter", "fusion_lat": 0.0, "is_disabled": 0, "rental_uris": {"ios": "https://dc.lft.to/lastmile_qr_scan", "android": "https://dc.lft.to/lastmile_qr_scan"}, "bike_id": "dec9eb67296e09e488afc15155c1f282", "lat": 38.91838816666667, "name": "dec9eb67296e09e488afc15155c1f282", "lon": -77.022917, "fusion_lon": 0.0}, {"is_reserved": 0, "type": "electric_scooter", "fusion_lat": 0.0, "is_disabled": 0, "rental_uris": {"ios": "https://dc.lft.to/lastmile_qr_scan", "android": "https://dc.lft.to/lastmile_qr_scan"}, "bike_id": "1257c543b1110b3d768e1802fa91ada1", "lat": 38.9191205, "name": "1257c543b1110b3d768e1802fa91ada1", "lon": -77.04810733333333, "fusion_lon": 0.0}, {"is_reserved": 0, "type": "electric_scooter", "fusion_lat": 0.0, "is_disabled": 0, "rental_uris": {"ios": "https://dc.lft.to/lastmile_qr_scan", "android": "https://dc.lft.to/lastmile_qr_scan"}, "bike_id": "d4ab88a611aeb25e20fcc08b768815af", "lat": 38.89220433333333, "name": "d4ab88a611aeb25e20fcc08b768815af", "lon": -77.043275, "fusion_lon": 0.0}, {"is_reserved": 0, "type": "electric_scooter", "fusion_lat": 0.0, "is_disabled": 0, "rental_uris": {"ios": "https://dc.lft.to/lastmile_qr_scan", "android": "https://dc.lft.to/lastmile_qr_scan"}, "bike_id": "b2e99092a634a262eeeaf15f7b4d8ed3", "lat": 38.87658483333333, "name": "b2e99092a634a262eeeaf15f7b4d8ed3", "lon": -77.00817433333333, "fusion_lon": 0.0}, {"is_reserved": 0, "type": "electric_scooter", "fusion_lat": 0.0, "is_disabled": 0, "rental_uris": {"ios": "https://dc.lft.to/lastmile_qr_scan", "android": "https://dc.lft.to/lastmile_qr_scan"}, "bike_id": "b463e005121ecb02996b767cd32e0386", "lat": 38.892225833333335, "name": "b463e005121ecb02996b767cd32e0386", "lon": -77.04452433333333, "fusion_lon": 0.0}, {"is_reserved": 0, "type": "electric_bike", "fusion_lat": 0.0, "is_disabled": 0, "rental_uris": {"ios": "https://dc.lft.to/lastmile_qr_scan", "android": "https://dc.lft.to/lastmile_qr_scan"}, "bike_id": "1cdfd078249c49f600473a5d7ff64fb0", "lat": 38.97344833333333, "name": "1cdfd078249c49f600473a5d7ff64fb0", "lon": -77.01795233333333, "fusion_lon": 0.0}, {"is_reserved": 0, "type": "electric_scooter", "fusion_lat": 0.0, "is_disabled": 0, "rental_uris": {"ios": "https://dc.lft.to/lastmile_qr_scan", "android": "https://dc.lft.to/lastmile_qr_scan"}, "bike_id": "4e89e63a9ab3825acedd543042587233", "lat": 38.9286715, "name": "4e89e63a9ab3825acedd543042587233", "lon": -77.07892633333333, "fusion_lon": 0.0}, {"is_reserved": 0, "type": "electric_scooter", "fusion_lat": 0.0, "is_disabled": 0, "rental_uris": {"ios": "https://dc.lft.to/lastmile_qr_scan", "android": "https://dc.lft.to/lastmile_qr_scan"}, "bike_id": "7d26458eb6153f09733cec8e576dec11", "lat": 38.8836175, "name": "7d26458eb6153f09733cec8e576dec11", "lon": -76.92791216666667, "fusion_lon": 0.0}, {"is_reserved": 0, "type": "electric_scooter", "fusion_lat": 0.0, "is_disabled": 0, "rental_uris": {"ios": "https://dc.lft.to/lastmile_qr_scan", "android": "https://dc.lft.to/lastmile_qr_scan"}, "bike_id": "86c6959ccddffbfa8b77b5bb198088e2", "lat": 38.902634166666665, "name": "86c6959ccddffbfa8b77b5bb198088e2", "lon": -77.034467, "fusion_lon": 0.0}, {"is_reserved": 0, "type": "electric_scooter", "fusion_lat": 0.0, "is_disabled": 0, "rental_uris": {"ios": "https://dc.lft.to/lastmile_qr_scan", "android": "https://dc.lft.to/lastmile_qr_scan"}, "bike_id": "cf9e709ead7ebbd1b8f494dc6b1465f1", "lat": 38.90259983333333, "name": "cf9e709ead7ebbd1b8f494dc6b1465f1", "lon": -76.92848766666667, "fusion_lon": 0.0}, {"is_reserved": 0, "type": "electric_scooter", "fusion_lat": 0.0, "is_disabled": 0, "rental_uris": {"ios": "https://dc.lft.to/lastmile_qr_scan", "android": "https://dc.lft.to/lastmile_qr_scan"}, "bike_id": "860faaebbcbb2b854d4ab02b4547d2d5", "lat": 38.912644666666665, "name": "860faaebbcbb2b854d4ab02b4547d2d5", "lon": -77.0314015, "fusion_lon": 0.0}, {"is_reserved": 0, "type": "electric_scooter", "fusion_lat": 0.0, "is_disabled": 0, "rental_uris": {"ios": "https://dc.lft.to/lastmile_qr_scan", "android": "https://dc.lft.to/lastmile_qr_scan"}, "bike_id": "a5223af90cc6b678723bce71e47039d9", "lat": 38.90341133333333, "name": "a5223af90cc6b678723bce71e47039d9", "lon": -77.011112, "fusion_lon": 0.0}, {"is_reserved": 0, "type": "electric_scooter", "fusion_lat": 0.0, "is_disabled": 0, "rental_uris": {"ios": "https://dc.lft.to/lastmile_qr_scan", "android": "https://dc.lft.to/lastmile_qr_scan"}, "bike_id": "0244abf56dfbfef39415a7bf46d4868d", "lat": 38.92857266666667, "name": "0244abf56dfbfef39415a7bf46d4868d", "lon": -77.03290783333334, "fusion_lon": 0.0}, {"is_reserved": 0, "type": "electric_scooter", "fusion_lat": 0.0, "is_disabled": 0, "rental_uris": {"ios": "https://dc.lft.to/lastmile_qr_scan", "android": "https://dc.lft.to/lastmile_qr_scan"}, "bike_id": "af2631a93570266aa63e7cabdcead593", "lat": 38.901767666666665, "name": "af2631a93570266aa63e7cabdcead593", "lon": -76.98812016666666, "fusion_lon": 0.0}, {"is_reserved": 0, "type": "electric_bike", "fusion_lat": 0.0, "is_disabled": 0, "rental_uris": {"ios": "https://dc.lft.to/lastmile_qr_scan", "android": "https://dc.lft.to/lastmile_qr_scan"}, "bike_id": "dfbe37ff17f6104e1a4ba41045a3e58b", "lat": 38.84633616666667, "name": "dfbe37ff17f6104e1a4ba41045a3e58b", "lon": -77.06936166666667, "fusion_lon": 0.0}, {"is_reserved": 0, "type": "electric_scooter", "fusion_lat": 0.0, "is_disabled": 0, "rental_uris": {"ios": "https://dc.lft.to/lastmile_qr_scan", "android": "https://dc.lft.to/lastmile_qr_scan"}, "bike_id": "066aae2354071a1d9fd2113ac92e4729", "lat": 38.92365683333333, "name": "066aae2354071a1d9fd2113ac92e4729", "lon": -77.020646, "fusion_lon": 0.0}, {"is_reserved": 0, "type": "electric_scooter", "fusion_lat": 0.0, "is_disabled": 0, "rental_uris": {"ios": "https://dc.lft.to/lastmile_qr_scan", "android": "https://dc.lft.to/lastmile_qr_scan"}, "bike_id": "b7c28fda912e2d635f1cf401cfad004a", "lat": 38.89472816666667, "name": "b7c28fda912e2d635f1cf401cfad004a", "lon": -77.0217915, "fusion_lon": 0.0}, {"is_reserved": 0, "type": "electric_scooter", "fusion_lat": 0.0, "is_disabled": 0, "rental_uris": {"ios": "https://dc.lft.to/lastmile_qr_scan", "android": "https://dc.lft.to/lastmile_qr_scan"}, "bike_id": "a22ebf68c9e299e35e6d5991e99de012", "lat": 38.88319933333333, "name": "a22ebf68c9e299e35e6d5991e99de012", "lon": -76.931509, "fusion_lon": 0.0}, {"is_reserved": 0, "type": "electric_scooter", "fusion_lat": 0.0, "is_disabled": 0, "rental_uris": {"ios": "https://dc.lft.to/lastmile_qr_scan", "android": "https://dc.lft.to/lastmile_qr_scan"}, "bike_id": "135db1f3c183f108e3457fe52cce1bac", "lat": 38.87674583333333, "name": "135db1f3c183f108e3457fe52cce1bac", "lon": -77.01763866666667, "fusion_lon": 0.0}, {"is_reserved": 0, "type": "electric_scooter", "fusion_lat": 0.0, "is_disabled": 0, "rental_uris": {"ios": "https://dc.lft.to/lastmile_qr_scan", "android": "https://dc.lft.to/lastmile_qr_scan"}, "bike_id": "fc6d59267efed1232af40b3ed2868c49", "lat": 38.8983815, "name": "fc6d59267efed1232af40b3ed2868c49", "lon": -77.02857166666666, "fusion_lon": 0.0}, {"is_reserved": 0, "type": "electric_scooter", "fusion_lat": 0.0, "is_disabled": 0, "rental_uris": {"ios": "https://dc.lft.to/lastmile_qr_scan", "android": "https://dc.lft.to/lastmile_qr_scan"}, "bike_id": "88e330909291f4107e8ed073f288ed07", "lat": 38.88161233333334, "name": "88e330909291f4107e8ed073f288ed07", "lon": -77.02770233333334, "fusion_lon": 0.0}, {"is_reserved": 0, "type": "electric_scooter", "fusion_lat": 0.0, "is_disabled": 0, "rental_uris": {"ios": "https://dc.lft.to/lastmile_qr_scan", "android": "https://dc.lft.to/lastmile_qr_scan"}, "bike_id": "a7873b742bfbf28174ccfe6908ba0def", "lat": 38.914184666666664, "name": "a7873b742bfbf28174ccfe6908ba0def", "lon": -77.0281615, "fusion_lon": 0.0}, {"is_reserved": 0, "type": "electric_scooter", "fusion_lat": 0.0, "is_disabled": 0, "rental_uris": {"ios": "https://dc.lft.to/lastmile_qr_scan", "android": "https://dc.lft.to/lastmile_qr_scan"}, "bike_id": "4643534ed073061762be198001008195", "lat": 38.916943333333336, "name": "4643534ed073061762be198001008195", "lon": -77.02952416666666, "fusion_lon": 0.0}, {"is_reserved": 0, "type": "electric_scooter", "fusion_lat": 0.0, "is_disabled": 0, "rental_uris": {"ios": "https://dc.lft.to/lastmile_qr_scan", "android": "https://dc.lft.to/lastmile_qr_scan"}, "bike_id": "619725d4c21c435ecac950b62b922ae7", "lat": 38.892638166666664, "name": "619725d4c21c435ecac950b62b922ae7", "lon": -77.04655533333333, "fusion_lon": 0.0}, {"is_reserved": 0, "type": "electric_bike", "fusion_lat": 0.0, "is_disabled": 0, "rental_uris": {"ios": "https://dc.lft.to/lastmile_qr_scan", "android": "https://dc.lft.to/lastmile_qr_scan"}, "bike_id": "2ce3ddffb9c2db0980c95119b4d6332f", "lat": 38.830404, "name": "2ce3ddffb9c2db0980c95119b4d6332f", "lon": -77.008251, "fusion_lon": 0.0}, {"is_reserved": 0, "type": "electric_scooter", "fusion_lat": 0.0, "is_disabled": 0, "rental_uris": {"ios": "https://dc.lft.to/lastmile_qr_scan", "android": "https://dc.lft.to/lastmile_qr_scan"}, "bike_id": "0071c0c6167ba7d939dcb1a45f22e5a5", "lat": 38.89964483333333, "name": "0071c0c6167ba7d939dcb1a45f22e5a5", "lon": -76.9375995, "fusion_lon": 0.0}, {"is_reserved": 0, "type": "electric_scooter", "fusion_lat": 0.0, "is_disabled": 0, "rental_uris": {"ios": "https://dc.lft.to/lastmile_qr_scan", "android": "https://dc.lft.to/lastmile_qr_scan"}, "bike_id": "e6008e73b39f06ad1f0446b7b9e66989", "lat": 38.908814, "name": "e6008e73b39f06ad1f0446b7b9e66989", "lon": -77.02950733333333, "fusion_lon": 0.0}, {"is_reserved": 0, "type": "electric_scooter", "fusion_lat": 0.0, "is_disabled": 0, "rental_uris": {"ios": "https://dc.lft.to/lastmile_qr_scan", "android": "https://dc.lft.to/lastmile_qr_scan"}, "bike_id": "f9da556a3e07f666948e8ee3add4ce8e", "lat": 38.8974235, "name": "f9da556a3e07f666948e8ee3add4ce8e", "lon": -77.04992783333333, "fusion_lon": 0.0}, {"is_reserved": 0, "type": "electric_scooter", "fusion_lat": 0.0, "is_disabled": 0, "rental_uris": {"ios": "https://dc.lft.to/lastmile_qr_scan", "android": "https://dc.lft.to/lastmile_qr_scan"}, "bike_id": "16882ef760994d3fa467fa4c1aa36c97", "lat": 38.868886, "name": "16882ef760994d3fa467fa4c1aa36c97", "lon": -76.99005283333334, "fusion_lon": 0.0}, {"is_reserved": 0, "type": "electric_scooter", "fusion_lat": 0.0, "is_disabled": 0, "rental_uris": {"ios": "https://dc.lft.to/lastmile_qr_scan", "android": "https://dc.lft.to/lastmile_qr_scan"}, "bike_id": "c682f3f5d80de336a7fa9e0e408e3fca", "lat": 38.921723666666665, "name": "c682f3f5d80de336a7fa9e0e408e3fca", "lon": -77.03819333333334, "fusion_lon": 0.0}, {"is_reserved": 0, "type": "electric_scooter", "fusion_lat": 0.0, "is_disabled": 0, "rental_uris": {"ios": "https://dc.lft.to/lastmile_qr_scan", "android": "https://dc.lft.to/lastmile_qr_scan"}, "bike_id": "9b2560f241b10cae834bcc5d1a840c79", "lat": 38.881206166666665, "name": "9b2560f241b10cae834bcc5d1a840c79", "lon": -77.01482583333333, "fusion_lon": 0.0}, {"is_reserved": 0, "type": "electric_scooter", "fusion_lat": 0.0, "is_disabled": 0, "rental_uris": {"ios": "https://dc.lft.to/lastmile_qr_scan", "android": "https://dc.lft.to/lastmile_qr_scan"}, "bike_id": "5a215787cdfa7ac13320e48058e35044", "lat": 38.919678166666664, "name": "5a215787cdfa7ac13320e48058e35044", "lon": -77.00206933333334, "fusion_lon": 0.0}, {"is_reserved": 0, "type": "electric_scooter", "fusion_lat": 0.0, "is_disabled": 0, "rental_uris": {"ios": "https://dc.lft.to/lastmile_qr_scan", "android": "https://dc.lft.to/lastmile_qr_scan"}, "bike_id": "8b79ea7bcfb8b685d8aac997e27f8cb0", "lat": 38.920575166666666, "name": "8b79ea7bcfb8b685d8aac997e27f8cb0", "lon": -77.02560266666667, "fusion_lon": 0.0}, {"is_reserved": 0, "type": "electric_scooter", "fusion_lat": 0.0, "is_disabled": 0, "rental_uris": {"ios": "https://dc.lft.to/lastmile_qr_scan", "android": "https://dc.lft.to/lastmile_qr_scan"}, "bike_id": "3c2e38f66d666378ddb6ff72e741d101", "lat": 38.91644183333333, "name": "3c2e38f66d666378ddb6ff72e741d101", "lon": -77.0223735, "fusion_lon": 0.0}, {"is_reserved": 0, "type": "electric_scooter", "fusion_lat": 0.0, "is_disabled": 0, "rental_uris": {"ios": "https://dc.lft.to/lastmile_qr_scan", "android": "https://dc.lft.to/lastmile_qr_scan"}, "bike_id": "e118a0e02da7f1e886210e514da64bc6", "lat": 38.916464166666664, "name": "e118a0e02da7f1e886210e514da64bc6", "lon": -77.04818533333334, "fusion_lon": 0.0}, {"is_reserved": 0, "type": "electric_bike", "fusion_lat": 0.0, "is_disabled": 0, "rental_uris": {"ios": "https://dc.lft.to/lastmile_qr_scan", "android": "https://dc.lft.to/lastmile_qr_scan"}, "bike_id": "200d7c6b2c4cf85784d1852369ebeca0", "lat": 38.87568133333333, "name": "200d7c6b2c4cf85784d1852369ebeca0", "lon": -77.0470685, "fusion_lon": 0.0}, {"is_reserved": 0, "type": "electric_scooter", "fusion_lat": 0.0, "is_disabled": 0, "rental_uris": {"ios": "https://dc.lft.to/lastmile_qr_scan", "android": "https://dc.lft.to/lastmile_qr_scan"}, "bike_id": "5fd4827047cf693b7f6d1913625942af", "lat": 38.95950083333334, "name": "5fd4827047cf693b7f6d1913625942af", "lon": -77.03317916666667, "fusion_lon": 0.0}, {"is_reserved": 0, "type": "electric_scooter", "fusion_lat": 0.0, "is_disabled": 0, "rental_uris": {"ios": "https://dc.lft.to/lastmile_qr_scan", "android": "https://dc.lft.to/lastmile_qr_scan"}, "bike_id": "2d5631f83128dfce2d8f54b4c2227dd0", "lat": 38.912749833333336, "name": "2d5631f83128dfce2d8f54b4c2227dd0", "lon": -77.04658533333334, "fusion_lon": 0.0}, {"is_reserved": 0, "type": "electric_bike", "fusion_lat": 0.0, "is_disabled": 0, "rental_uris": {"ios": "https://dc.lft.to/lastmile_qr_scan", "android": "https://dc.lft.to/lastmile_qr_scan"}, "bike_id": "b0170c21e64c8744d6cdd197889e98af", "lat": 38.998275, "name": "b0170c21e64c8744d6cdd197889e98af", "lon": -76.997312, "fusion_lon": 0.0}, {"is_reserved": 0, "type": "electric_scooter", "fusion_lat": 0.0, "is_disabled": 0, "rental_uris": {"ios": "https://dc.lft.to/lastmile_qr_scan", "android": "https://dc.lft.to/lastmile_qr_scan"}, "bike_id": "7a9b0eeae546a4423d6486e75b264751", "lat": 38.8920635, "name": "7a9b0eeae546a4423d6486e75b264751", "lon": -76.96117933333333, "fusion_lon": 0.0}, {"is_reserved": 0, "type": "electric_scooter", "fusion_lat": 0.0, "is_disabled": 0, "rental_uris": {"ios": "https://dc.lft.to/lastmile_qr_scan", "android": "https://dc.lft.to/lastmile_qr_scan"}, "bike_id": "58fa9fcaeb70616b6db067999df6620d", "lat": 38.91626733333333, "name": "58fa9fcaeb70616b6db067999df6620d", "lon": -77.03929233333334, "fusion_lon": 0.0}, {"is_reserved": 0, "type": "electric_scooter", "fusion_lat": 0.0, "is_disabled": 0, "rental_uris": {"ios": "https://dc.lft.to/lastmile_qr_scan", "android": "https://dc.lft.to/lastmile_qr_scan"}, "bike_id": "66fdcdf5ddd9e64337abde65cec73688", "lat": 38.928857666666666, "name": "66fdcdf5ddd9e64337abde65cec73688", "lon": -77.03871766666667, "fusion_lon": 0.0}, {"is_reserved": 0, "type": "electric_scooter", "fusion_lat": 0.0, "is_disabled": 0, "rental_uris": {"ios": "https://dc.lft.to/lastmile_qr_scan", "android": "https://dc.lft.to/lastmile_qr_scan"}, "bike_id": "f844b3a81057dd5060d1d5475401feac", "lat": 38.89221766666667, "name": "f844b3a81057dd5060d1d5475401feac", "lon": -77.04329933333334, "fusion_lon": 0.0}, {"is_reserved": 0, "type": "electric_scooter", "fusion_lat": 0.0, "is_disabled": 0, "rental_uris": {"ios": "https://dc.lft.to/lastmile_qr_scan", "android": "https://dc.lft.to/lastmile_qr_scan"}, "bike_id": "c8cbd728e72b53da5df67919902feaba", "lat": 38.93263266666666, "name": "c8cbd728e72b53da5df67919902feaba", "lon": -77.020957, "fusion_lon": 0.0}, {"is_reserved": 0, "type": "electric_scooter", "fusion_lat": 0.0, "is_disabled": 0, "rental_uris": {"ios": "https://dc.lft.to/lastmile_qr_scan", "android": "https://dc.lft.to/lastmile_qr_scan"}, "bike_id": "0026116c14d1bf44662e243550561f82", "lat": 38.899806, "name": "0026116c14d1bf44662e243550561f82", "lon": -77.02382683333333, "fusion_lon": 0.0}, {"is_reserved": 0, "type": "electric_bike", "fusion_lat": 0.0, "is_disabled": 0, "rental_uris": {"ios": "https://dc.lft.to/lastmile_qr_scan", "android": "https://dc.lft.to/lastmile_qr_scan"}, "bike_id": "289dcabb45c5644815071ac05858bf1f", "lat": 38.804050833333335, "name": "289dcabb45c5644815071ac05858bf1f", "lon": -77.11328766666666, "fusion_lon": 0.0}, {"is_reserved": 0, "type": "electric_bike", "fusion_lat": 0.0, "is_disabled": 0, "rental_uris": {"ios": "https://dc.lft.to/lastmile_qr_scan", "android": "https://dc.lft.to/lastmile_qr_scan"}, "bike_id": "bfa49f08b7d1b181e9aa93feb9283666", "lat": 38.85598066666667, "name": "bfa49f08b7d1b181e9aa93feb9283666", "lon": -76.97277883333334, "fusion_lon": 0.0}, {"is_reserved": 0, "type": "electric_scooter", "fusion_lat": 0.0, "is_disabled": 0, "rental_uris": {"ios": "https://dc.lft.to/lastmile_qr_scan", "android": "https://dc.lft.to/lastmile_qr_scan"}, "bike_id": "ae3bc4881f5bbb5eef2ecc2424ff8445", "lat": 38.90794483333333, "name": "ae3bc4881f5bbb5eef2ecc2424ff8445", "lon": -77.03130833333333, "fusion_lon": 0.0}, {"is_reserved": 0, "type": "electric_scooter", "fusion_lat": 0.0, "is_disabled": 0, "rental_uris": {"ios": "https://dc.lft.to/lastmile_qr_scan", "android": "https://dc.lft.to/lastmile_qr_scan"}, "bike_id": "940f4d4a1950bef75bb0c02af8961f7b", "lat": 38.90862, "name": "940f4d4a1950bef75bb0c02af8961f7b", "lon": -76.99169216666667, "fusion_lon": 0.0}, {"is_reserved": 0, "type": "electric_bike", "fusion_lat": 0.0, "is_disabled": 0, "rental_uris": {"ios": "https://dc.lft.to/lastmile_qr_scan", "android": "https://dc.lft.to/lastmile_qr_scan"}, "bike_id": "71964dc927370e05291f64ac3762086e", "lat": 39.074434, "name": "71964dc927370e05291f64ac3762086e", "lon": -77.1152695, "fusion_lon": 0.0}, {"is_reserved": 0, "type": "electric_scooter", "fusion_lat": 0.0, "is_disabled": 0, "rental_uris": {"ios": "https://dc.lft.to/lastmile_qr_scan", "android": "https://dc.lft.to/lastmile_qr_scan"}, "bike_id": "13285742685616e199641f5d50636928", "lat": 38.89044066666666, "name": "13285742685616e199641f5d50636928", "lon": -77.02569883333334, "fusion_lon": 0.0}, {"is_reserved": 0, "type": "electric_scooter", "fusion_lat": 0.0, "is_disabled": 0, "rental_uris": {"ios": "https://dc.lft.to/lastmile_qr_scan", "android": "https://dc.lft.to/lastmile_qr_scan"}, "bike_id": "c6a9f912b1e22935240ca8ec1daa4393", "lat": 38.910351166666665, "name": "c6a9f912b1e22935240ca8ec1daa4393", "lon": -77.03800333333334, "fusion_lon": 0.0}, {"is_reserved": 0, "type": "electric_scooter", "fusion_lat": 0.0, "is_disabled": 0, "rental_uris": {"ios": "https://dc.lft.to/lastmile_qr_scan", "android": "https://dc.lft.to/lastmile_qr_scan"}, "bike_id": "b036e66a9c4cb5c2434522f0f9b48507", "lat": 38.913486166666665, "name": "b036e66a9c4cb5c2434522f0f9b48507", "lon": -77.0121145, "fusion_lon": 0.0}, {"is_reserved": 0, "type": "electric_scooter", "fusion_lat": 0.0, "is_disabled": 0, "rental_uris": {"ios": "https://dc.lft.to/lastmile_qr_scan", "android": "https://dc.lft.to/lastmile_qr_scan"}, "bike_id": "034ce16e7cce0d30c4529580b72404ca", "lat": 38.89815083333333, "name": "034ce16e7cce0d30c4529580b72404ca", "lon": -77.0021105, "fusion_lon": 0.0}, {"is_reserved": 0, "type": "electric_scooter", "fusion_lat": 0.0, "is_disabled": 0, "rental_uris": {"ios": "https://dc.lft.to/lastmile_qr_scan", "android": "https://dc.lft.to/lastmile_qr_scan"}, "bike_id": "72cd580c8be97c3547670002024270c0", "lat": 38.89767633333334, "name": "72cd580c8be97c3547670002024270c0", "lon": -77.05034516666667, "fusion_lon": 0.0}, {"is_reserved": 0, "type": "electric_scooter", "fusion_lat": 0.0, "is_disabled": 0, "rental_uris": {"ios": "https://dc.lft.to/lastmile_qr_scan", "android": "https://dc.lft.to/lastmile_qr_scan"}, "bike_id": "484e81f2e618774e4de726f190d7a3dd", "lat": 38.892341, "name": "484e81f2e618774e4de726f190d7a3dd", "lon": -77.0253945, "fusion_lon": 0.0}, {"is_reserved": 0, "type": "electric_scooter", "fusion_lat": 0.0, "is_disabled": 0, "rental_uris": {"ios": "https://dc.lft.to/lastmile_qr_scan", "android": "https://dc.lft.to/lastmile_qr_scan"}, "bike_id": "d726ed7f37550cd4eb26dd36262eb2e6", "lat": 38.901979833333336, "name": "d726ed7f37550cd4eb26dd36262eb2e6", "lon": -77.00071483333333, "fusion_lon": 0.0}, {"is_reserved": 0, "type": "electric_scooter", "fusion_lat": 0.0, "is_disabled": 0, "rental_uris": {"ios": "https://dc.lft.to/lastmile_qr_scan", "android": "https://dc.lft.to/lastmile_qr_scan"}, "bike_id": "f1f93a28c0c3dbc02762759f8709a61a", "lat": 38.924825166666665, "name": "f1f93a28c0c3dbc02762759f8709a61a", "lon": -77.04344, "fusion_lon": 0.0}, {"is_reserved": 0, "type": "electric_scooter", "fusion_lat": 0.0, "is_disabled": 0, "rental_uris": {"ios": "https://dc.lft.to/lastmile_qr_scan", "android": "https://dc.lft.to/lastmile_qr_scan"}, "bike_id": "e3ba4420274429e6a328bffa0963dfdf", "lat": 38.9288375, "name": "e3ba4420274429e6a328bffa0963dfdf", "lon": -77.0373745, "fusion_lon": 0.0}, {"is_reserved": 0, "type": "electric_scooter", "fusion_lat": 0.0, "is_disabled": 0, "rental_uris": {"ios": "https://dc.lft.to/lastmile_qr_scan", "android": "https://dc.lft.to/lastmile_qr_scan"}, "bike_id": "7ed13cb9603fbb8355e93d68ec9d55ab", "lat": 38.8812705, "name": "7ed13cb9603fbb8355e93d68ec9d55ab", "lon": -77.0021245, "fusion_lon": 0.0}, {"is_reserved": 0, "type": "electric_scooter", "fusion_lat": 0.0, "is_disabled": 0, "rental_uris": {"ios": "https://dc.lft.to/lastmile_qr_scan", "android": "https://dc.lft.to/lastmile_qr_scan"}, "bike_id": "ab6791fd06a69d866607082a144a60eb", "lat": 38.94202283333333, "name": "ab6791fd06a69d866607082a144a60eb", "lon": -77.01337716666667, "fusion_lon": 0.0}, {"is_reserved": 0, "type": "electric_scooter", "fusion_lat": 0.0, "is_disabled": 0, "rental_uris": {"ios": "https://dc.lft.to/lastmile_qr_scan", "android": "https://dc.lft.to/lastmile_qr_scan"}, "bike_id": "4b8771e203aa5b4dd4c63954eedd173f", "lat": 38.897597833333336, "name": "4b8771e203aa5b4dd4c63954eedd173f", "lon": -77.03181283333333, "fusion_lon": 0.0}, {"is_reserved": 0, "type": "electric_scooter", "fusion_lat": 0.0, "is_disabled": 0, "rental_uris": {"ios": "https://dc.lft.to/lastmile_qr_scan", "android": "https://dc.lft.to/lastmile_qr_scan"}, "bike_id": "cf8cd696e1513baeee91ea2384f36a4b", "lat": 38.927094833333335, "name": "cf8cd696e1513baeee91ea2384f36a4b", "lon": -76.960811, "fusion_lon": 0.0}, {"is_reserved": 0, "type": "electric_scooter", "fusion_lat": 0.0, "is_disabled": 0, "rental_uris": {"ios": "https://dc.lft.to/lastmile_qr_scan", "android": "https://dc.lft.to/lastmile_qr_scan"}, "bike_id": "e3c925db55e65ca843c47d7c9aaa24af", "lat": 38.952536, "name": "e3c925db55e65ca843c47d7c9aaa24af", "lon": -77.020715, "fusion_lon": 0.0}, {"is_reserved": 0, "type": "electric_scooter", "fusion_lat": 0.0, "is_disabled": 0, "rental_uris": {"ios": "https://dc.lft.to/lastmile_qr_scan", "android": "https://dc.lft.to/lastmile_qr_scan"}, "bike_id": "40870fcfe95ca8028ea10b5072c580c0", "lat": 38.91464783333333, "name": "40870fcfe95ca8028ea10b5072c580c0", "lon": -77.04155633333333, "fusion_lon": 0.0}, {"is_reserved": 0, "type": "electric_scooter", "fusion_lat": 0.0, "is_disabled": 0, "rental_uris": {"ios": "https://dc.lft.to/lastmile_qr_scan", "android": "https://dc.lft.to/lastmile_qr_scan"}, "bike_id": "538ffe1bf33c69c96148b78ce69cf863", "lat": 38.8932895, "name": "538ffe1bf33c69c96148b78ce69cf863", "lon": -76.9392845, "fusion_lon": 0.0}, {"is_reserved": 0, "type": "electric_scooter", "fusion_lat": 0.0, "is_disabled": 0, "rental_uris": {"ios": "https://dc.lft.to/lastmile_qr_scan", "android": "https://dc.lft.to/lastmile_qr_scan"}, "bike_id": "eca2b815383ab6441a48756de6ca4212", "lat": 38.8990885, "name": "eca2b815383ab6441a48756de6ca4212", "lon": -77.02321516666666, "fusion_lon": 0.0}, {"is_reserved": 0, "type": "electric_scooter", "fusion_lat": 0.0, "is_disabled": 0, "rental_uris": {"ios": "https://dc.lft.to/lastmile_qr_scan", "android": "https://dc.lft.to/lastmile_qr_scan"}, "bike_id": "939feac4045a06d341ea461aa02b67af", "lat": 38.924669333333334, "name": "939feac4045a06d341ea461aa02b67af", "lon": -77.03774016666667, "fusion_lon": 0.0}, {"is_reserved": 0, "type": "electric_scooter", "fusion_lat": 0.0, "is_disabled": 0, "rental_uris": {"ios": "https://dc.lft.to/lastmile_qr_scan", "android": "https://dc.lft.to/lastmile_qr_scan"}, "bike_id": "52bd168b1d4f0c41e30f4a512473542f", "lat": 38.91702866666667, "name": "52bd168b1d4f0c41e30f4a512473542f", "lon": -77.03860616666667, "fusion_lon": 0.0}, {"is_reserved": 0, "type": "electric_scooter", "fusion_lat": 0.0, "is_disabled": 0, "rental_uris": {"ios": "https://dc.lft.to/lastmile_qr_scan", "android": "https://dc.lft.to/lastmile_qr_scan"}, "bike_id": "4e0c02cc65e2e66d460fe9198af60f56", "lat": 38.920731, "name": "4e0c02cc65e2e66d460fe9198af60f56", "lon": -77.0242555, "fusion_lon": 0.0}, {"is_reserved": 0, "type": "electric_scooter", "fusion_lat": 0.0, "is_disabled": 0, "rental_uris": {"ios": "https://dc.lft.to/lastmile_qr_scan", "android": "https://dc.lft.to/lastmile_qr_scan"}, "bike_id": "732e9ba775c315aba6e38b6a6c037f9b", "lat": 38.93696083333333, "name": "732e9ba775c315aba6e38b6a6c037f9b", "lon": -77.05601166666666, "fusion_lon": 0.0}, {"is_reserved": 0, "type": "electric_scooter", "fusion_lat": 0.0, "is_disabled": 0, "rental_uris": {"ios": "https://dc.lft.to/lastmile_qr_scan", "android": "https://dc.lft.to/lastmile_qr_scan"}, "bike_id": "ea25e7283d5e83d40fc12620effdf902", "lat": 38.9536825, "name": "ea25e7283d5e83d40fc12620effdf902", "lon": -76.99839316666667, "fusion_lon": 0.0}, {"is_reserved": 0, "type": "electric_scooter", "fusion_lat": 0.0, "is_disabled": 0, "rental_uris": {"ios": "https://dc.lft.to/lastmile_qr_scan", "android": "https://dc.lft.to/lastmile_qr_scan"}, "bike_id": "8450b72d5a5bd2edf8ff33c336d785e6", "lat": 38.885804, "name": "8450b72d5a5bd2edf8ff33c336d785e6", "lon": -77.01226183333333, "fusion_lon": 0.0}, {"is_reserved": 0, "type": "electric_scooter", "fusion_lat": 0.0, "is_disabled": 0, "rental_uris": {"ios": "https://dc.lft.to/lastmile_qr_scan", "android": "https://dc.lft.to/lastmile_qr_scan"}, "bike_id": "5cddc2117605602d1ff244307fc797f6", "lat": 38.900767, "name": "5cddc2117605602d1ff244307fc797f6", "lon": -77.02583433333334, "fusion_lon": 0.0}, {"is_reserved": 0, "type": "electric_scooter", "fusion_lat": 0.0, "is_disabled": 0, "rental_uris": {"ios": "https://dc.lft.to/lastmile_qr_scan", "android": "https://dc.lft.to/lastmile_qr_scan"}, "bike_id": "175408acf6a6241349fb2f244b451684", "lat": 38.8783325, "name": "175408acf6a6241349fb2f244b451684", "lon": -77.0087745, "fusion_lon": 0.0}, {"is_reserved": 0, "type": "electric_scooter", "fusion_lat": 0.0, "is_disabled": 0, "rental_uris": {"ios": "https://dc.lft.to/lastmile_qr_scan", "android": "https://dc.lft.to/lastmile_qr_scan"}, "bike_id": "0ac6291d99bb027721b4c95158d89ed5", "lat": 38.9156725, "name": "0ac6291d99bb027721b4c95158d89ed5", "lon": -77.04280316666667, "fusion_lon": 0.0}, {"is_reserved": 0, "type": "electric_bike", "fusion_lat": 0.0, "is_disabled": 0, "rental_uris": {"ios": "https://dc.lft.to/lastmile_qr_scan", "android": "https://dc.lft.to/lastmile_qr_scan"}, "bike_id": "af25b74467394beaa33b4f396e756114", "lat": 38.95249733333333, "name": "af25b74467394beaa33b4f396e756114", "lon": -77.09629333333334, "fusion_lon": 0.0}, {"is_reserved": 0, "type": "electric_scooter", "fusion_lat": 0.0, "is_disabled": 0, "rental_uris": {"ios": "https://dc.lft.to/lastmile_qr_scan", "android": "https://dc.lft.to/lastmile_qr_scan"}, "bike_id": "2b9d0184377aef7f4df2652cd52bd365", "lat": 38.9025735, "name": "2b9d0184377aef7f4df2652cd52bd365", "lon": -77.04520966666666, "fusion_lon": 0.0}, {"is_reserved": 0, "type": "electric_scooter", "fusion_lat": 0.0, "is_disabled": 0, "rental_uris": {"ios": "https://dc.lft.to/lastmile_qr_scan", "android": "https://dc.lft.to/lastmile_qr_scan"}, "bike_id": "59612fe7e0459cb819cd239144c82435", "lat": 38.92251, "name": "59612fe7e0459cb819cd239144c82435", "lon": -77.02979833333333, "fusion_lon": 0.0}, {"is_reserved": 0, "type": "electric_bike", "fusion_lat": 0.0, "is_disabled": 0, "rental_uris": {"ios": "https://dc.lft.to/lastmile_qr_scan", "android": "https://dc.lft.to/lastmile_qr_scan"}, "bike_id": "c83613daabdff17332e01184f80828c4", "lat": 38.97285933333333, "name": "c83613daabdff17332e01184f80828c4", "lon": -77.03621733333334, "fusion_lon": 0.0}, {"is_reserved": 0, "type": "electric_bike", "fusion_lat": 0.0, "is_disabled": 0, "rental_uris": {"ios": "https://dc.lft.to/lastmile_qr_scan", "android": "https://dc.lft.to/lastmile_qr_scan"}, "bike_id": "6ab49b343640e5097101f64ed88e1ab3", "lat": 38.842869, "name": "6ab49b343640e5097101f64ed88e1ab3", "lon": -77.06384983333334, "fusion_lon": 0.0}, {"is_reserved": 0, "type": "electric_bike", "fusion_lat": 0.0, "is_disabled": 0, "rental_uris": {"ios": "https://dc.lft.to/lastmile_qr_scan", "android": "https://dc.lft.to/lastmile_qr_scan"}, "bike_id": "6470f0c0ef9644ae2fe3f3daaa0a45e3", "lat": 38.89972, "name": "6470f0c0ef9644ae2fe3f3daaa0a45e3", "lon": -77.0465625, "fusion_lon": 0.0}, {"is_reserved": 0, "type": "electric_scooter", "fusion_lat": 0.0, "is_disabled": 0, "rental_uris": {"ios": "https://dc.lft.to/lastmile_qr_scan", "android": "https://dc.lft.to/lastmile_qr_scan"}, "bike_id": "e2deded2d7b640c28f4cc7a85cd6515b", "lat": 38.9292095, "name": "e2deded2d7b640c28f4cc7a85cd6515b", "lon": -77.02638016666667, "fusion_lon": 0.0}, {"is_reserved": 0, "type": "electric_scooter", "fusion_lat": 0.0, "is_disabled": 0, "rental_uris": {"ios": "https://dc.lft.to/lastmile_qr_scan", "android": "https://dc.lft.to/lastmile_qr_scan"}, "bike_id": "75d86a4c6f9ef48034e723ccad94ded8", "lat": 38.924455, "name": "75d86a4c6f9ef48034e723ccad94ded8", "lon": -77.02975166666667, "fusion_lon": 0.0}, {"is_reserved": 0, "type": "electric_scooter", "fusion_lat": 0.0, "is_disabled": 0, "rental_uris": {"ios": "https://dc.lft.to/lastmile_qr_scan", "android": "https://dc.lft.to/lastmile_qr_scan"}, "bike_id": "927e0c2e8565edcfcc042eb332677cc2", "lat": 38.95149333333333, "name": "927e0c2e8565edcfcc042eb332677cc2", "lon": -77.018684, "fusion_lon": 0.0}, {"is_reserved": 0, "type": "electric_bike", "fusion_lat": 0.0, "is_disabled": 0, "rental_uris": {"ios": "https://dc.lft.to/lastmile_qr_scan", "android": "https://dc.lft.to/lastmile_qr_scan"}, "bike_id": "3bb104375678fed214a83384d9ca37dc", "lat": 38.951844666666666, "name": "3bb104375678fed214a83384d9ca37dc", "lon": -76.93546533333334, "fusion_lon": 0.0}, {"is_reserved": 0, "type": "electric_bike", "fusion_lat": 0.0, "is_disabled": 0, "rental_uris": {"ios": "https://dc.lft.to/lastmile_qr_scan", "android": "https://dc.lft.to/lastmile_qr_scan"}, "bike_id": "c9186fc790623f566f98ae605d0f3d0b", "lat": 38.8863415, "name": "c9186fc790623f566f98ae605d0f3d0b", "lon": -77.0579525, "fusion_lon": 0.0}, {"is_reserved": 0, "type": "electric_scooter", "fusion_lat": 0.0, "is_disabled": 0, "rental_uris": {"ios": "https://dc.lft.to/lastmile_qr_scan", "android": "https://dc.lft.to/lastmile_qr_scan"}, "bike_id": "10ebd9df6d482bc42a535aa8cb10e3da", "lat": 38.892357833333335, "name": "10ebd9df6d482bc42a535aa8cb10e3da", "lon": -76.99937083333333, "fusion_lon": 0.0}, {"is_reserved": 0, "type": "electric_scooter", "fusion_lat": 0.0, "is_disabled": 0, "rental_uris": {"ios": "https://dc.lft.to/lastmile_qr_scan", "android": "https://dc.lft.to/lastmile_qr_scan"}, "bike_id": "540f70c88fb6172acaa73a4926b83e97", "lat": 38.9205035, "name": "540f70c88fb6172acaa73a4926b83e97", "lon": -77.02441, "fusion_lon": 0.0}, {"is_reserved": 0, "type": "electric_bike", "fusion_lat": 0.0, "is_disabled": 0, "rental_uris": {"ios": "https://dc.lft.to/lastmile_qr_scan", "android": "https://dc.lft.to/lastmile_qr_scan"}, "bike_id": "927ccd1dbc595d1e5b149c61365f9d68", "lat": 38.9637995, "name": "927ccd1dbc595d1e5b149c61365f9d68", "lon": -77.01979066666667, "fusion_lon": 0.0}, {"is_reserved": 0, "type": "electric_scooter", "fusion_lat": 0.0, "is_disabled": 0, "rental_uris": {"ios": "https://dc.lft.to/lastmile_qr_scan", "android": "https://dc.lft.to/lastmile_qr_scan"}, "bike_id": "ed35be316e1007e305f8e6cc166817ab", "lat": 38.92153116666667, "name": "ed35be316e1007e305f8e6cc166817ab", "lon": -77.035063, "fusion_lon": 0.0}, {"is_reserved": 0, "type": "electric_scooter", "fusion_lat": 0.0, "is_disabled": 0, "rental_uris": {"ios": "https://dc.lft.to/lastmile_qr_scan", "android": "https://dc.lft.to/lastmile_qr_scan"}, "bike_id": "b503f9fe2e6009fa7e3ea4c618e68921", "lat": 38.92346, "name": "b503f9fe2e6009fa7e3ea4c618e68921", "lon": -77.04024883333334, "fusion_lon": 0.0}, {"is_reserved": 0, "type": "electric_scooter", "fusion_lat": 0.0, "is_disabled": 0, "rental_uris": {"ios": "https://dc.lft.to/lastmile_qr_scan", "android": "https://dc.lft.to/lastmile_qr_scan"}, "bike_id": "e5f8928baa97e56110cacf48c65f4da6", "lat": 38.939325833333335, "name": "e5f8928baa97e56110cacf48c65f4da6", "lon": -77.0725135, "fusion_lon": 0.0}, {"is_reserved": 0, "type": "electric_scooter", "fusion_lat": 0.0, "is_disabled": 0, "rental_uris": {"ios": "https://dc.lft.to/lastmile_qr_scan", "android": "https://dc.lft.to/lastmile_qr_scan"}, "bike_id": "9586ef52fffd47154baa35250be04bbd", "lat": 38.92267566666666, "name": "9586ef52fffd47154baa35250be04bbd", "lon": -77.04234233333334, "fusion_lon": 0.0}, {"is_reserved": 0, "type": "electric_scooter", "fusion_lat": 0.0, "is_disabled": 0, "rental_uris": {"ios": "https://dc.lft.to/lastmile_qr_scan", "android": "https://dc.lft.to/lastmile_qr_scan"}, "bike_id": "a1e863ab049b98f6f29f8a44cef2afe9", "lat": 38.92051716666667, "name": "a1e863ab049b98f6f29f8a44cef2afe9", "lon": -77.01671383333333, "fusion_lon": 0.0}, {"is_reserved": 0, "type": "electric_scooter", "fusion_lat": 0.0, "is_disabled": 0, "rental_uris": {"ios": "https://dc.lft.to/lastmile_qr_scan", "android": "https://dc.lft.to/lastmile_qr_scan"}, "bike_id": "c522722fad0e3cfac48a1c23ad708bc7", "lat": 38.897419, "name": "c522722fad0e3cfac48a1c23ad708bc7", "lon": -77.0499165, "fusion_lon": 0.0}, {"is_reserved": 0, "type": "electric_scooter", "fusion_lat": 0.0, "is_disabled": 0, "rental_uris": {"ios": "https://dc.lft.to/lastmile_qr_scan", "android": "https://dc.lft.to/lastmile_qr_scan"}, "bike_id": "22440a86594ab169afcb602bf0fb13b3", "lat": 38.917084333333335, "name": "22440a86594ab169afcb602bf0fb13b3", "lon": -77.02475783333334, "fusion_lon": 0.0}, {"is_reserved": 0, "type": "electric_scooter", "fusion_lat": 0.0, "is_disabled": 0, "rental_uris": {"ios": "https://dc.lft.to/lastmile_qr_scan", "android": "https://dc.lft.to/lastmile_qr_scan"}, "bike_id": "1f4fc4ec9eee01b48bdee200bcc520fc", "lat": 38.956297666666664, "name": "1f4fc4ec9eee01b48bdee200bcc520fc", "lon": -77.02211583333333, "fusion_lon": 0.0}, {"is_reserved": 0, "type": "electric_bike", "fusion_lat": 0.0, "is_disabled": 0, "rental_uris": {"ios": "https://dc.lft.to/lastmile_qr_scan", "android": "https://dc.lft.to/lastmile_qr_scan"}, "bike_id": "bb3aa5c91d03c3686d65fbf89018efab", "lat": 38.832709, "name": "bb3aa5c91d03c3686d65fbf89018efab", "lon": -77.08366616666666, "fusion_lon": 0.0}, {"is_reserved": 0, "type": "electric_scooter", "fusion_lat": 0.0, "is_disabled": 0, "rental_uris": {"ios": "https://dc.lft.to/lastmile_qr_scan", "android": "https://dc.lft.to/lastmile_qr_scan"}, "bike_id": "ddb3a0c985acfd540663bf3ec96c7cb2", "lat": 38.922608333333336, "name": "ddb3a0c985acfd540663bf3ec96c7cb2", "lon": -77.036628, "fusion_lon": 0.0}, {"is_reserved": 0, "type": "electric_scooter", "fusion_lat": 0.0, "is_disabled": 0, "rental_uris": {"ios": "https://dc.lft.to/lastmile_qr_scan", "android": "https://dc.lft.to/lastmile_qr_scan"}, "bike_id": "393751f3f9c9cef9fe0e791c7f9fa72d", "lat": 38.899015, "name": "393751f3f9c9cef9fe0e791c7f9fa72d", "lon": -77.049903, "fusion_lon": 0.0}, {"is_reserved": 0, "type": "electric_scooter", "fusion_lat": 0.0, "is_disabled": 0, "rental_uris": {"ios": "https://dc.lft.to/lastmile_qr_scan", "android": "https://dc.lft.to/lastmile_qr_scan"}, "bike_id": "03fad5818668d3ac0a984a62b35a5710", "lat": 38.902086833333335, "name": "03fad5818668d3ac0a984a62b35a5710", "lon": -77.06122633333334, "fusion_lon": 0.0}, {"is_reserved": 0, "type": "electric_scooter", "fusion_lat": 0.0, "is_disabled": 0, "rental_uris": {"ios": "https://dc.lft.to/lastmile_qr_scan", "android": "https://dc.lft.to/lastmile_qr_scan"}, "bike_id": "79b4a01bc6735249d1e2d514a3c5ce68", "lat": 38.9202295, "name": "79b4a01bc6735249d1e2d514a3c5ce68", "lon": -77.01708916666666, "fusion_lon": 0.0}, {"is_reserved": 0, "type": "electric_scooter", "fusion_lat": 0.0, "is_disabled": 0, "rental_uris": {"ios": "https://dc.lft.to/lastmile_qr_scan", "android": "https://dc.lft.to/lastmile_qr_scan"}, "bike_id": "c129931f3fab1cf49bc1c22f5fd535af", "lat": 38.93868766666667, "name": "c129931f3fab1cf49bc1c22f5fd535af", "lon": -77.07234383333333, "fusion_lon": 0.0}, {"is_reserved": 0, "type": "electric_scooter", "fusion_lat": 0.0, "is_disabled": 0, "rental_uris": {"ios": "https://dc.lft.to/lastmile_qr_scan", "android": "https://dc.lft.to/lastmile_qr_scan"}, "bike_id": "22c12c9a5c6102e92a6ff4717f866edb", "lat": 38.91704333333333, "name": "22c12c9a5c6102e92a6ff4717f866edb", "lon": -77.04175916666667, "fusion_lon": 0.0}, {"is_reserved": 0, "type": "electric_scooter", "fusion_lat": 0.0, "is_disabled": 0, "rental_uris": {"ios": "https://dc.lft.to/lastmile_qr_scan", "android": "https://dc.lft.to/lastmile_qr_scan"}, "bike_id": "a739a4818081384593eb00f0ba7ba17b", "lat": 38.901466, "name": "a739a4818081384593eb00f0ba7ba17b", "lon": -77.0416105, "fusion_lon": 0.0}, {"is_reserved": 0, "type": "electric_scooter", "fusion_lat": 0.0, "is_disabled": 0, "rental_uris": {"ios": "https://dc.lft.to/lastmile_qr_scan", "android": "https://dc.lft.to/lastmile_qr_scan"}, "bike_id": "e98ede377ac5b53a681a80cd65c56184", "lat": 38.897416, "name": "e98ede377ac5b53a681a80cd65c56184", "lon": -77.049938, "fusion_lon": 0.0}, {"is_reserved": 0, "type": "electric_bike", "fusion_lat": 0.0, "is_disabled": 0, "rental_uris": {"ios": "https://dc.lft.to/lastmile_qr_scan", "android": "https://dc.lft.to/lastmile_qr_scan"}, "bike_id": "bb3080778eb9982ef8eba69b488835ed", "lat": 38.8073825, "name": "bb3080778eb9982ef8eba69b488835ed", "lon": -77.09688866666667, "fusion_lon": 0.0}, {"is_reserved": 0, "type": "electric_scooter", "fusion_lat": 0.0, "is_disabled": 0, "rental_uris": {"ios": "https://dc.lft.to/lastmile_qr_scan", "android": "https://dc.lft.to/lastmile_qr_scan"}, "bike_id": "5b04377b624418b62944b831b528c0f8", "lat": 38.91930083333333, "name": "5b04377b624418b62944b831b528c0f8", "lon": -77.04494466666667, "fusion_lon": 0.0}, {"is_reserved": 0, "type": "electric_bike", "fusion_lat": 0.0, "is_disabled": 0, "rental_uris": {"ios": "https://dc.lft.to/lastmile_qr_scan", "android": "https://dc.lft.to/lastmile_qr_scan"}, "bike_id": "661b36adde0ca395e68755a22e5222e8", "lat": 38.8717135, "name": "661b36adde0ca395e68755a22e5222e8", "lon": -77.23393333333334, "fusion_lon": 0.0}, {"is_reserved": 0, "type": "electric_scooter", "fusion_lat": 0.0, "is_disabled": 0, "rental_uris": {"ios": "https://dc.lft.to/lastmile_qr_scan", "android": "https://dc.lft.to/lastmile_qr_scan"}, "bike_id": "1c90696b4131ee7eb2eecaf94224af26", "lat": 38.901894666666664, "name": "1c90696b4131ee7eb2eecaf94224af26", "lon": -76.99958616666666, "fusion_lon": 0.0}, {"is_reserved": 0, "type": "electric_scooter", "fusion_lat": 0.0, "is_disabled": 0, "rental_uris": {"ios": "https://dc.lft.to/lastmile_qr_scan", "android": "https://dc.lft.to/lastmile_qr_scan"}, "bike_id": "91e28e9f81504e3999f39310a8bbe136", "lat": 38.9259735, "name": "91e28e9f81504e3999f39310a8bbe136", "lon": -77.03936683333333, "fusion_lon": 0.0}, {"is_reserved": 0, "type": "electric_scooter", "fusion_lat": 0.0, "is_disabled": 0, "rental_uris": {"ios": "https://dc.lft.to/lastmile_qr_scan", "android": "https://dc.lft.to/lastmile_qr_scan"}, "bike_id": "292e021265ca2a9e587720da5ffe2eeb", "lat": 38.902309833333334, "name": "292e021265ca2a9e587720da5ffe2eeb", "lon": -77.00066783333334, "fusion_lon": 0.0}, {"is_reserved": 0, "type": "electric_scooter", "fusion_lat": 0.0, "is_disabled": 0, "rental_uris": {"ios": "https://dc.lft.to/lastmile_qr_scan", "android": "https://dc.lft.to/lastmile_qr_scan"}, "bike_id": "981e1ff62c0ce4242cf9fc6d8bc9b204", "lat": 38.89728683333333, "name": "981e1ff62c0ce4242cf9fc6d8bc9b204", "lon": -76.99139733333334, "fusion_lon": 0.0}, {"is_reserved": 0, "type": "electric_scooter", "fusion_lat": 0.0, "is_disabled": 0, "rental_uris": {"ios": "https://dc.lft.to/lastmile_qr_scan", "android": "https://dc.lft.to/lastmile_qr_scan"}, "bike_id": "d79d07a024d131c82fe49b8f2b8c825c", "lat": 38.8936265, "name": "d79d07a024d131c82fe49b8f2b8c825c", "lon": -76.94108116666666, "fusion_lon": 0.0}, {"is_reserved": 0, "type": "electric_scooter", "fusion_lat": 0.0, "is_disabled": 0, "rental_uris": {"ios": "https://dc.lft.to/lastmile_qr_scan", "android": "https://dc.lft.to/lastmile_qr_scan"}, "bike_id": "49046d58b959d3c148c4de340da64cb7", "lat": 38.901929333333335, "name": "49046d58b959d3c148c4de340da64cb7", "lon": -76.988475, "fusion_lon": 0.0}, {"is_reserved": 0, "type": "electric_scooter", "fusion_lat": 0.0, "is_disabled": 0, "rental_uris": {"ios": "https://dc.lft.to/lastmile_qr_scan", "android": "https://dc.lft.to/lastmile_qr_scan"}, "bike_id": "3caa3baaaca97b760bc1b347b06b22d4", "lat": 38.9216685, "name": "3caa3baaaca97b760bc1b347b06b22d4", "lon": -77.04343666666666, "fusion_lon": 0.0}, {"is_reserved": 0, "type": "electric_bike", "fusion_lat": 0.0, "is_disabled": 0, "rental_uris": {"ios": "https://dc.lft.to/lastmile_qr_scan", "android": "https://dc.lft.to/lastmile_qr_scan"}, "bike_id": "f86f586755dc0d806a48f3979f66a3a1", "lat": 38.91532733333333, "name": "f86f586755dc0d806a48f3979f66a3a1", "lon": -77.06660516666666, "fusion_lon": 0.0}, {"is_reserved": 0, "type": "electric_scooter", "fusion_lat": 0.0, "is_disabled": 0, "rental_uris": {"ios": "https://dc.lft.to/lastmile_qr_scan", "android": "https://dc.lft.to/lastmile_qr_scan"}, "bike_id": "f6343372e527fc247f5d4b839b70a557", "lat": 38.88716183333333, "name": "f6343372e527fc247f5d4b839b70a557", "lon": -77.02207533333333, "fusion_lon": 0.0}, {"is_reserved": 0, "type": "electric_scooter", "fusion_lat": 0.0, "is_disabled": 0, "rental_uris": {"ios": "https://dc.lft.to/lastmile_qr_scan", "android": "https://dc.lft.to/lastmile_qr_scan"}, "bike_id": "0c95a23f09464bf7e9bd679203c82303", "lat": 38.92264683333333, "name": "0c95a23f09464bf7e9bd679203c82303", "lon": -77.0368625, "fusion_lon": 0.0}, {"is_reserved": 0, "type": "electric_scooter", "fusion_lat": 0.0, "is_disabled": 0, "rental_uris": {"ios": "https://dc.lft.to/lastmile_qr_scan", "android": "https://dc.lft.to/lastmile_qr_scan"}, "bike_id": "e47603de9db807963c3daca4d3ec03ad", "lat": 38.9169435, "name": "e47603de9db807963c3daca4d3ec03ad", "lon": -77.02718216666666, "fusion_lon": 0.0}, {"is_reserved": 0, "type": "electric_bike", "fusion_lat": 0.0, "is_disabled": 0, "rental_uris": {"ios": "https://dc.lft.to/lastmile_qr_scan", "android": "https://dc.lft.to/lastmile_qr_scan"}, "bike_id": "9a021c473245b89c4a4693147e1b24cf", "lat": 38.99999483333333, "name": "9a021c473245b89c4a4693147e1b24cf", "lon": -76.91805116666667, "fusion_lon": 0.0}, {"is_reserved": 0, "type": "electric_scooter", "fusion_lat": 0.0, "is_disabled": 0, "rental_uris": {"ios": "https://dc.lft.to/lastmile_qr_scan", "android": "https://dc.lft.to/lastmile_qr_scan"}, "bike_id": "cf3d14ad4168867deec5f1b5d5a726d3", "lat": 38.89613416666667, "name": "cf3d14ad4168867deec5f1b5d5a726d3", "lon": -77.02287283333334, "fusion_lon": 0.0}, {"is_reserved": 0, "type": "electric_scooter", "fusion_lat": 0.0, "is_disabled": 0, "rental_uris": {"ios": "https://dc.lft.to/lastmile_qr_scan", "android": "https://dc.lft.to/lastmile_qr_scan"}, "bike_id": "6a71f5b9d4c2d61500a091e0c2730746", "lat": 38.8869675, "name": "6a71f5b9d4c2d61500a091e0c2730746", "lon": -77.00071, "fusion_lon": 0.0}, {"is_reserved": 0, "type": "electric_bike", "fusion_lat": 0.0, "is_disabled": 0, "rental_uris": {"ios": "https://dc.lft.to/lastmile_qr_scan", "android": "https://dc.lft.to/lastmile_qr_scan"}, "bike_id": "9a576a1466edbfc6d323850b4b94c3b2", "lat": 38.967755, "name": "9a576a1466edbfc6d323850b4b94c3b2", "lon": -76.9964985, "fusion_lon": 0.0}, {"is_reserved": 0, "type": "electric_bike", "fusion_lat": 0.0, "is_disabled": 0, "rental_uris": {"ios": "https://dc.lft.to/lastmile_qr_scan", "android": "https://dc.lft.to/lastmile_qr_scan"}, "bike_id": "d9d88f9119b26452e55edd388a63cb0d", "lat": 38.9166135, "name": "d9d88f9119b26452e55edd388a63cb0d", "lon": -76.98122933333333, "fusion_lon": 0.0}, {"is_reserved": 0, "type": "electric_scooter", "fusion_lat": 0.0, "is_disabled": 0, "rental_uris": {"ios": "https://dc.lft.to/lastmile_qr_scan", "android": "https://dc.lft.to/lastmile_qr_scan"}, "bike_id": "0eb198ee8d3a92385ddfd4c198a6c191", "lat": 38.879484, "name": "0eb198ee8d3a92385ddfd4c198a6c191", "lon": -77.01272866666666, "fusion_lon": 0.0}, {"is_reserved": 0, "type": "electric_scooter", "fusion_lat": 0.0, "is_disabled": 0, "rental_uris": {"ios": "https://dc.lft.to/lastmile_qr_scan", "android": "https://dc.lft.to/lastmile_qr_scan"}, "bike_id": "2e56591a038d19432c6065046f0de897", "lat": 38.9002375, "name": "2e56591a038d19432c6065046f0de897", "lon": -77.0118565, "fusion_lon": 0.0}, {"is_reserved": 0, "type": "electric_scooter", "fusion_lat": 0.0, "is_disabled": 0, "rental_uris": {"ios": "https://dc.lft.to/lastmile_qr_scan", "android": "https://dc.lft.to/lastmile_qr_scan"}, "bike_id": "f143066627774140f92844033717cdea", "lat": 38.93744316666667, "name": "f143066627774140f92844033717cdea", "lon": -77.024504, "fusion_lon": 0.0}, {"is_reserved": 0, "type": "electric_scooter", "fusion_lat": 0.0, "is_disabled": 0, "rental_uris": {"ios": "https://dc.lft.to/lastmile_qr_scan", "android": "https://dc.lft.to/lastmile_qr_scan"}, "bike_id": "fe0b0413cd1d185323eb2ea0c21465e4", "lat": 38.8983825, "name": "fe0b0413cd1d185323eb2ea0c21465e4", "lon": -77.01894933333334, "fusion_lon": 0.0}, {"is_reserved": 0, "type": "electric_scooter", "fusion_lat": 0.0, "is_disabled": 0, "rental_uris": {"ios": "https://dc.lft.to/lastmile_qr_scan", "android": "https://dc.lft.to/lastmile_qr_scan"}, "bike_id": "6a1d39a17f04604494dd6a28b3f24877", "lat": 38.876744333333335, "name": "6a1d39a17f04604494dd6a28b3f24877", "lon": -77.002964, "fusion_lon": 0.0}, {"is_reserved": 0, "type": "electric_scooter", "fusion_lat": 0.0, "is_disabled": 0, "rental_uris": {"ios": "https://dc.lft.to/lastmile_qr_scan", "android": "https://dc.lft.to/lastmile_qr_scan"}, "bike_id": "ff73a75eb8d77606413e0e56eb104f87", "lat": 38.92788816666667, "name": "ff73a75eb8d77606413e0e56eb104f87", "lon": -77.03153666666667, "fusion_lon": 0.0}, {"is_reserved": 0, "type": "electric_scooter", "fusion_lat": 0.0, "is_disabled": 0, "rental_uris": {"ios": "https://dc.lft.to/lastmile_qr_scan", "android": "https://dc.lft.to/lastmile_qr_scan"}, "bike_id": "01c117c2707ce99a1777be90f6da7c2c", "lat": 38.918849333333334, "name": "01c117c2707ce99a1777be90f6da7c2c", "lon": -77.02711266666667, "fusion_lon": 0.0}, {"is_reserved": 0, "type": "electric_scooter", "fusion_lat": 0.0, "is_disabled": 0, "rental_uris": {"ios": "https://dc.lft.to/lastmile_qr_scan", "android": "https://dc.lft.to/lastmile_qr_scan"}, "bike_id": "1c780760c4bae6c6249e5ed87cb4b04e", "lat": 38.88105633333333, "name": "1c780760c4bae6c6249e5ed87cb4b04e", "lon": -77.02632116666666, "fusion_lon": 0.0}, {"is_reserved": 0, "type": "electric_scooter", "fusion_lat": 0.0, "is_disabled": 0, "rental_uris": {"ios": "https://dc.lft.to/lastmile_qr_scan", "android": "https://dc.lft.to/lastmile_qr_scan"}, "bike_id": "b2dec3aa5a30cb6b0854f61a9e9b034a", "lat": 38.89836916666667, "name": "b2dec3aa5a30cb6b0854f61a9e9b034a", "lon": -76.988295, "fusion_lon": 0.0}, {"is_reserved": 0, "type": "electric_scooter", "fusion_lat": 0.0, "is_disabled": 0, "rental_uris": {"ios": "https://dc.lft.to/lastmile_qr_scan", "android": "https://dc.lft.to/lastmile_qr_scan"}, "bike_id": "d8d3b3c8a559dbe43fa915ac9ccbdc49", "lat": 38.89859766666667, "name": "d8d3b3c8a559dbe43fa915ac9ccbdc49", "lon": -77.04672316666667, "fusion_lon": 0.0}, {"is_reserved": 0, "type": "electric_scooter", "fusion_lat": 0.0, "is_disabled": 0, "rental_uris": {"ios": "https://dc.lft.to/lastmile_qr_scan", "android": "https://dc.lft.to/lastmile_qr_scan"}, "bike_id": "26dd0b5605f3a52dd46203f36f23f08d", "lat": 38.895008833333335, "name": "26dd0b5605f3a52dd46203f36f23f08d", "lon": -77.0229515, "fusion_lon": 0.0}, {"is_reserved": 0, "type": "electric_scooter", "fusion_lat": 0.0, "is_disabled": 0, "rental_uris": {"ios": "https://dc.lft.to/lastmile_qr_scan", "android": "https://dc.lft.to/lastmile_qr_scan"}, "bike_id": "b709057d7fa32d385e99136fedaa3307", "lat": 38.95641966666667, "name": "b709057d7fa32d385e99136fedaa3307", "lon": -77.02819266666667, "fusion_lon": 0.0}, {"is_reserved": 0, "type": "electric_scooter", "fusion_lat": 0.0, "is_disabled": 0, "rental_uris": {"ios": "https://dc.lft.to/lastmile_qr_scan", "android": "https://dc.lft.to/lastmile_qr_scan"}, "bike_id": "476b658d00f9e163073c3da8089586a5", "lat": 38.87585983333334, "name": "476b658d00f9e163073c3da8089586a5", "lon": -77.00575616666667, "fusion_lon": 0.0}, {"is_reserved": 0, "type": "electric_scooter", "fusion_lat": 0.0, "is_disabled": 0, "rental_uris": {"ios": "https://dc.lft.to/lastmile_qr_scan", "android": "https://dc.lft.to/lastmile_qr_scan"}, "bike_id": "2ca00fd1094cc5eea6c6f467fcb6410f", "lat": 38.9031205, "name": "2ca00fd1094cc5eea6c6f467fcb6410f", "lon": -76.978044, "fusion_lon": 0.0}, {"is_reserved": 0, "type": "electric_scooter", "fusion_lat": 0.0, "is_disabled": 0, "rental_uris": {"ios": "https://dc.lft.to/lastmile_qr_scan", "android": "https://dc.lft.to/lastmile_qr_scan"}, "bike_id": "0527f8de7b73569bef5efabf8d22b6ad", "lat": 38.8874475, "name": "0527f8de7b73569bef5efabf8d22b6ad", "lon": -77.01538783333334, "fusion_lon": 0.0}, {"is_reserved": 0, "type": "electric_scooter", "fusion_lat": 0.0, "is_disabled": 0, "rental_uris": {"ios": "https://dc.lft.to/lastmile_qr_scan", "android": "https://dc.lft.to/lastmile_qr_scan"}, "bike_id": "86d6ea53fdb91cc3127da9ff87d8e8de", "lat": 38.92287983333333, "name": "86d6ea53fdb91cc3127da9ff87d8e8de", "lon": -77.02967266666667, "fusion_lon": 0.0}, {"is_reserved": 0, "type": "electric_scooter", "fusion_lat": 0.0, "is_disabled": 0, "rental_uris": {"ios": "https://dc.lft.to/lastmile_qr_scan", "android": "https://dc.lft.to/lastmile_qr_scan"}, "bike_id": "1ab02c3474b209405293a3753cfc97b4", "lat": 38.900477333333335, "name": "1ab02c3474b209405293a3753cfc97b4", "lon": -76.993409, "fusion_lon": 0.0}, {"is_reserved": 0, "type": "electric_scooter", "fusion_lat": 0.0, "is_disabled": 0, "rental_uris": {"ios": "https://dc.lft.to/lastmile_qr_scan", "android": "https://dc.lft.to/lastmile_qr_scan"}, "bike_id": "363f57231f11564426409c34052f403c", "lat": 38.88745083333333, "name": "363f57231f11564426409c34052f403c", "lon": -77.0262825, "fusion_lon": 0.0}, {"is_reserved": 0, "type": "electric_scooter", "fusion_lat": 0.0, "is_disabled": 0, "rental_uris": {"ios": "https://dc.lft.to/lastmile_qr_scan", "android": "https://dc.lft.to/lastmile_qr_scan"}, "bike_id": "5743e78bd930e699c7a78df9e2e4982b", "lat": 38.9034325, "name": "5743e78bd930e699c7a78df9e2e4982b", "lon": -77.02157966666667, "fusion_lon": 0.0}, {"is_reserved": 0, "type": "electric_scooter", "fusion_lat": 0.0, "is_disabled": 0, "rental_uris": {"ios": "https://dc.lft.to/lastmile_qr_scan", "android": "https://dc.lft.to/lastmile_qr_scan"}, "bike_id": "c6f2e38a2b007e9fb81ae129471fd90d", "lat": 38.84270933333333, "name": "c6f2e38a2b007e9fb81ae129471fd90d", "lon": -76.98845583333333, "fusion_lon": 0.0}, {"is_reserved": 0, "type": "electric_scooter", "fusion_lat": 0.0, "is_disabled": 0, "rental_uris": {"ios": "https://dc.lft.to/lastmile_qr_scan", "android": "https://dc.lft.to/lastmile_qr_scan"}, "bike_id": "96b63c70d00b1852e1524951a0209bb1", "lat": 38.8744925, "name": "96b63c70d00b1852e1524951a0209bb1", "lon": -77.0092365, "fusion_lon": 0.0}, {"is_reserved": 0, "type": "electric_scooter", "fusion_lat": 0.0, "is_disabled": 0, "rental_uris": {"ios": "https://dc.lft.to/lastmile_qr_scan", "android": "https://dc.lft.to/lastmile_qr_scan"}, "bike_id": "5b59fb2d270c4b18721546bb14c379ce", "lat": 38.8973555, "name": "5b59fb2d270c4b18721546bb14c379ce", "lon": -77.0246855, "fusion_lon": 0.0}, {"is_reserved": 0, "type": "electric_bike", "fusion_lat": 0.0, "is_disabled": 0, "rental_uris": {"ios": "https://dc.lft.to/lastmile_qr_scan", "android": "https://dc.lft.to/lastmile_qr_scan"}, "bike_id": "672ed7bdfd3e2cc102b83880ac9225b2", "lat": 38.865457, "name": "672ed7bdfd3e2cc102b83880ac9225b2", "lon": -76.94154516666667, "fusion_lon": 0.0}, {"is_reserved": 0, "type": "electric_scooter", "fusion_lat": 0.0, "is_disabled": 0, "rental_uris": {"ios": "https://dc.lft.to/lastmile_qr_scan", "android": "https://dc.lft.to/lastmile_qr_scan"}, "bike_id": "3fb29f20725a8d34614aafc9e3384877", "lat": 38.96795566666667, "name": "3fb29f20725a8d34614aafc9e3384877", "lon": -77.02431333333334, "fusion_lon": 0.0}, {"is_reserved": 0, "type": "electric_scooter", "fusion_lat": 0.0, "is_disabled": 0, "rental_uris": {"ios": "https://dc.lft.to/lastmile_qr_scan", "android": "https://dc.lft.to/lastmile_qr_scan"}, "bike_id": "96df80016795463a0d38a5dae9fbdfb0", "lat": 38.9217465, "name": "96df80016795463a0d38a5dae9fbdfb0", "lon": -77.03821416666666, "fusion_lon": 0.0}, {"is_reserved": 0, "type": "electric_scooter", "fusion_lat": 0.0, "is_disabled": 0, "rental_uris": {"ios": "https://dc.lft.to/lastmile_qr_scan", "android": "https://dc.lft.to/lastmile_qr_scan"}, "bike_id": "97c947761ed86b58b83eeb668c324b50", "lat": 38.9124795, "name": "97c947761ed86b58b83eeb668c324b50", "lon": -76.98669933333333, "fusion_lon": 0.0}, {"is_reserved": 0, "type": "electric_bike", "fusion_lat": 0.0, "is_disabled": 0, "rental_uris": {"ios": "https://dc.lft.to/lastmile_qr_scan", "android": "https://dc.lft.to/lastmile_qr_scan"}, "bike_id": "6f4271795a2b9a198597af770993d8b7", "lat": 38.80519833333334, "name": "6f4271795a2b9a198597af770993d8b7", "lon": -77.04339266666666, "fusion_lon": 0.0}, {"is_reserved": 0, "type": "electric_scooter", "fusion_lat": 0.0, "is_disabled": 0, "rental_uris": {"ios": "https://dc.lft.to/lastmile_qr_scan", "android": "https://dc.lft.to/lastmile_qr_scan"}, "bike_id": "b93d109fc96e8851f6a0f8b8a7604c77", "lat": 38.904541, "name": "b93d109fc96e8851f6a0f8b8a7604c77", "lon": -76.93370583333333, "fusion_lon": 0.0}, {"is_reserved": 0, "type": "electric_bike", "fusion_lat": 0.0, "is_disabled": 0, "rental_uris": {"ios": "https://dc.lft.to/lastmile_qr_scan", "android": "https://dc.lft.to/lastmile_qr_scan"}, "bike_id": "09778c481d2b76e489a6f4bed122b7ad", "lat": 38.94028216666667, "name": "09778c481d2b76e489a6f4bed122b7ad", "lon": -76.97578766666666, "fusion_lon": 0.0}, {"is_reserved": 0, "type": "electric_scooter", "fusion_lat": 0.0, "is_disabled": 0, "rental_uris": {"ios": "https://dc.lft.to/lastmile_qr_scan", "android": "https://dc.lft.to/lastmile_qr_scan"}, "bike_id": "0f1519e53a6212907a406fd6811f330a", "lat": 38.89772766666667, "name": "0f1519e53a6212907a406fd6811f330a", "lon": -77.04781816666667, "fusion_lon": 0.0}, {"is_reserved": 0, "type": "electric_scooter", "fusion_lat": 0.0, "is_disabled": 0, "rental_uris": {"ios": "https://dc.lft.to/lastmile_qr_scan", "android": "https://dc.lft.to/lastmile_qr_scan"}, "bike_id": "721ad16e134d52d14f13feddad7992fb", "lat": 38.89815, "name": "721ad16e134d52d14f13feddad7992fb", "lon": -77.02977883333334, "fusion_lon": 0.0}, {"is_reserved": 0, "type": "electric_scooter", "fusion_lat": 0.0, "is_disabled": 0, "rental_uris": {"ios": "https://dc.lft.to/lastmile_qr_scan", "android": "https://dc.lft.to/lastmile_qr_scan"}, "bike_id": "858293eefb8f24679800fe33a4a75dad", "lat": 38.916946833333334, "name": "858293eefb8f24679800fe33a4a75dad", "lon": -77.05300816666667, "fusion_lon": 0.0}, {"is_reserved": 0, "type": "electric_scooter", "fusion_lat": 0.0, "is_disabled": 0, "rental_uris": {"ios": "https://dc.lft.to/lastmile_qr_scan", "android": "https://dc.lft.to/lastmile_qr_scan"}, "bike_id": "add46af93bf33811b9e9fd4efaebf29a", "lat": 38.907742666666664, "name": "add46af93bf33811b9e9fd4efaebf29a", "lon": -77.071694, "fusion_lon": 0.0}, {"is_reserved": 0, "type": "electric_bike", "fusion_lat": 0.0, "is_disabled": 0, "rental_uris": {"ios": "https://dc.lft.to/lastmile_qr_scan", "android": "https://dc.lft.to/lastmile_qr_scan"}, "bike_id": "f774a301704c37545d5638964ed48a6a", "lat": 38.82207, "name": "f774a301704c37545d5638964ed48a6a", "lon": -76.97701333333333, "fusion_lon": 0.0}, {"is_reserved": 0, "type": "electric_scooter", "fusion_lat": 0.0, "is_disabled": 0, "rental_uris": {"ios": "https://dc.lft.to/lastmile_qr_scan", "android": "https://dc.lft.to/lastmile_qr_scan"}, "bike_id": "1b67d6a0057e1838f36551f6d56b9bd4", "lat": 38.915446, "name": "1b67d6a0057e1838f36551f6d56b9bd4", "lon": -77.01265183333334, "fusion_lon": 0.0}, {"is_reserved": 0, "type": "electric_scooter", "fusion_lat": 0.0, "is_disabled": 0, "rental_uris": {"ios": "https://dc.lft.to/lastmile_qr_scan", "android": "https://dc.lft.to/lastmile_qr_scan"}, "bike_id": "55173594c38c257d4041d14afdc4c6ac", "lat": 38.921555, "name": "55173594c38c257d4041d14afdc4c6ac", "lon": -77.03382783333333, "fusion_lon": 0.0}, {"is_reserved": 0, "type": "electric_scooter", "fusion_lat": 0.0, "is_disabled": 0, "rental_uris": {"ios": "https://dc.lft.to/lastmile_qr_scan", "android": "https://dc.lft.to/lastmile_qr_scan"}, "bike_id": "fcc4b926a39ed0501623fa6d75af11ec", "lat": 38.90965833333333, "name": "fcc4b926a39ed0501623fa6d75af11ec", "lon": -77.0227995, "fusion_lon": 0.0}, {"is_reserved": 0, "type": "electric_scooter", "fusion_lat": 0.0, "is_disabled": 0, "rental_uris": {"ios": "https://dc.lft.to/lastmile_qr_scan", "android": "https://dc.lft.to/lastmile_qr_scan"}, "bike_id": "c0234a1cafd82e494b9b1aaafa223120", "lat": 38.90566883333334, "name": "c0234a1cafd82e494b9b1aaafa223120", "lon": -77.03839, "fusion_lon": 0.0}, {"is_reserved": 0, "type": "electric_scooter", "fusion_lat": 0.0, "is_disabled": 0, "rental_uris": {"ios": "https://dc.lft.to/lastmile_qr_scan", "android": "https://dc.lft.to/lastmile_qr_scan"}, "bike_id": "b416e20172fbc42b7977ba6465e697b3", "lat": 38.947194833333334, "name": "b416e20172fbc42b7977ba6465e697b3", "lon": -77.06804983333333, "fusion_lon": 0.0}, {"is_reserved": 0, "type": "electric_bike", "fusion_lat": 0.0, "is_disabled": 0, "rental_uris": {"ios": "https://dc.lft.to/lastmile_qr_scan", "android": "https://dc.lft.to/lastmile_qr_scan"}, "bike_id": "6dbed2ad6e1ca2475bc92485b8af36bb", "lat": 38.87489383333333, "name": "6dbed2ad6e1ca2475bc92485b8af36bb", "lon": -77.00595433333334, "fusion_lon": 0.0}, {"is_reserved": 0, "type": "electric_scooter", "fusion_lat": 0.0, "is_disabled": 0, "rental_uris": {"ios": "https://dc.lft.to/lastmile_qr_scan", "android": "https://dc.lft.to/lastmile_qr_scan"}, "bike_id": "239965816103c3f29e489383342b7a5e", "lat": 38.896759, "name": "239965816103c3f29e489383342b7a5e", "lon": -77.05139583333333, "fusion_lon": 0.0}, {"is_reserved": 0, "type": "electric_bike", "fusion_lat": 0.0, "is_disabled": 0, "rental_uris": {"ios": "https://dc.lft.to/lastmile_qr_scan", "android": "https://dc.lft.to/lastmile_qr_scan"}, "bike_id": "da4a91c6e6cf7f146ae8a4373aa936ef", "lat": 38.90694383333334, "name": "da4a91c6e6cf7f146ae8a4373aa936ef", "lon": -76.95255683333333, "fusion_lon": 0.0}, {"is_reserved": 0, "type": "electric_scooter", "fusion_lat": 0.0, "is_disabled": 0, "rental_uris": {"ios": "https://dc.lft.to/lastmile_qr_scan", "android": "https://dc.lft.to/lastmile_qr_scan"}, "bike_id": "9fc3015440dfe6681512420c095ad588", "lat": 38.94266183333333, "name": "9fc3015440dfe6681512420c095ad588", "lon": -76.98471, "fusion_lon": 0.0}, {"is_reserved": 0, "type": "electric_scooter", "fusion_lat": 0.0, "is_disabled": 0, "rental_uris": {"ios": "https://dc.lft.to/lastmile_qr_scan", "android": "https://dc.lft.to/lastmile_qr_scan"}, "bike_id": "b39ab8cc18a5a472ece1dae35007c828", "lat": 38.883557, "name": "b39ab8cc18a5a472ece1dae35007c828", "lon": -76.957689, "fusion_lon": 0.0}, {"is_reserved": 0, "type": "electric_scooter", "fusion_lat": 0.0, "is_disabled": 0, "rental_uris": {"ios": "https://dc.lft.to/lastmile_qr_scan", "android": "https://dc.lft.to/lastmile_qr_scan"}, "bike_id": "2fc94d49c5594531ddc5d64194123708", "lat": 38.884218, "name": "2fc94d49c5594531ddc5d64194123708", "lon": -77.0300255, "fusion_lon": 0.0}, {"is_reserved": 0, "type": "electric_scooter", "fusion_lat": 0.0, "is_disabled": 0, "rental_uris": {"ios": "https://dc.lft.to/lastmile_qr_scan", "android": "https://dc.lft.to/lastmile_qr_scan"}, "bike_id": "043a9117169fdc7fd21e5949c854d238", "lat": 38.89593333333333, "name": "043a9117169fdc7fd21e5949c854d238", "lon": -77.02514983333333, "fusion_lon": 0.0}, {"is_reserved": 0, "type": "electric_scooter", "fusion_lat": 0.0, "is_disabled": 0, "rental_uris": {"ios": "https://dc.lft.to/lastmile_qr_scan", "android": "https://dc.lft.to/lastmile_qr_scan"}, "bike_id": "162bcbd5c35a4fcf3ba251e097427c97", "lat": 38.965027, "name": "162bcbd5c35a4fcf3ba251e097427c97", "lon": -77.06285116666666, "fusion_lon": 0.0}, {"is_reserved": 0, "type": "electric_scooter", "fusion_lat": 0.0, "is_disabled": 0, "rental_uris": {"ios": "https://dc.lft.to/lastmile_qr_scan", "android": "https://dc.lft.to/lastmile_qr_scan"}, "bike_id": "a4d0750c8f589f5596f721b3c74599ee", "lat": 38.912676, "name": "a4d0750c8f589f5596f721b3c74599ee", "lon": -77.01683616666666, "fusion_lon": 0.0}, {"is_reserved": 0, "type": "electric_scooter", "fusion_lat": 0.0, "is_disabled": 0, "rental_uris": {"ios": "https://dc.lft.to/lastmile_qr_scan", "android": "https://dc.lft.to/lastmile_qr_scan"}, "bike_id": "c4465d06e8915100fcef72b4eca0bfcc", "lat": 38.91034466666667, "name": "c4465d06e8915100fcef72b4eca0bfcc", "lon": -77.042518, "fusion_lon": 0.0}, {"is_reserved": 0, "type": "electric_bike", "fusion_lat": 0.0, "is_disabled": 0, "rental_uris": {"ios": "https://dc.lft.to/lastmile_qr_scan", "android": "https://dc.lft.to/lastmile_qr_scan"}, "bike_id": "e1f4959f7de27456657d44c66801b9aa", "lat": 38.90016466666667, "name": "e1f4959f7de27456657d44c66801b9aa", "lon": -77.055929, "fusion_lon": 0.0}, {"is_reserved": 0, "type": "electric_scooter", "fusion_lat": 0.0, "is_disabled": 0, "rental_uris": {"ios": "https://dc.lft.to/lastmile_qr_scan", "android": "https://dc.lft.to/lastmile_qr_scan"}, "bike_id": "82fd8006aac27507865754045c06712e", "lat": 38.8843065, "name": "82fd8006aac27507865754045c06712e", "lon": -77.03038533333333, "fusion_lon": 0.0}, {"is_reserved": 0, "type": "electric_bike", "fusion_lat": 0.0, "is_disabled": 0, "rental_uris": {"ios": "https://dc.lft.to/lastmile_qr_scan", "android": "https://dc.lft.to/lastmile_qr_scan"}, "bike_id": "684bb2ee2692fc7e281530021b1735fe", "lat": 38.842238, "name": "684bb2ee2692fc7e281530021b1735fe", "lon": -76.94896716666666, "fusion_lon": 0.0}, {"is_reserved": 0, "type": "electric_bike", "fusion_lat": 0.0, "is_disabled": 0, "rental_uris": {"ios": "https://dc.lft.to/lastmile_qr_scan", "android": "https://dc.lft.to/lastmile_qr_scan"}, "bike_id": "db3f7f4c9a42f37eefeeb163a3976daf", "lat": 38.9836605, "name": "db3f7f4c9a42f37eefeeb163a3976daf", "lon": -76.98854816666666, "fusion_lon": 0.0}, {"is_reserved": 0, "type": "electric_scooter", "fusion_lat": 0.0, "is_disabled": 0, "rental_uris": {"ios": "https://dc.lft.to/lastmile_qr_scan", "android": "https://dc.lft.to/lastmile_qr_scan"}, "bike_id": "33d8bcbbd151757a39ecec6356bceebd", "lat": 38.95436516666667, "name": "33d8bcbbd151757a39ecec6356bceebd", "lon": -77.01847866666667, "fusion_lon": 0.0}, {"is_reserved": 0, "type": "electric_scooter", "fusion_lat": 0.0, "is_disabled": 0, "rental_uris": {"ios": "https://dc.lft.to/lastmile_qr_scan", "android": "https://dc.lft.to/lastmile_qr_scan"}, "bike_id": "725469a5a29e40514df2b5e7515e59aa", "lat": 38.88768183333333, "name": "725469a5a29e40514df2b5e7515e59aa", "lon": -76.9326495, "fusion_lon": 0.0}, {"is_reserved": 0, "type": "electric_scooter", "fusion_lat": 0.0, "is_disabled": 0, "rental_uris": {"ios": "https://dc.lft.to/lastmile_qr_scan", "android": "https://dc.lft.to/lastmile_qr_scan"}, "bike_id": "e9ff17cdd82690359adaf035183eb97d", "lat": 38.89623016666667, "name": "e9ff17cdd82690359adaf035183eb97d", "lon": -77.02666683333334, "fusion_lon": 0.0}, {"is_reserved": 0, "type": "electric_scooter", "fusion_lat": 0.0, "is_disabled": 0, "rental_uris": {"ios": "https://dc.lft.to/lastmile_qr_scan", "android": "https://dc.lft.to/lastmile_qr_scan"}, "bike_id": "e54fc6d6ce36237c2c6bc57d31c71369", "lat": 38.9324715, "name": "e54fc6d6ce36237c2c6bc57d31c71369", "lon": -77.03848516666666, "fusion_lon": 0.0}, {"is_reserved": 0, "type": "electric_scooter", "fusion_lat": 0.0, "is_disabled": 0, "rental_uris": {"ios": "https://dc.lft.to/lastmile_qr_scan", "android": "https://dc.lft.to/lastmile_qr_scan"}, "bike_id": "a85853fbec38a0d290aa2baaa955feb2", "lat": 38.92885033333334, "name": "a85853fbec38a0d290aa2baaa955feb2", "lon": -77.03254, "fusion_lon": 0.0}, {"is_reserved": 0, "type": "electric_scooter", "fusion_lat": 0.0, "is_disabled": 0, "rental_uris": {"ios": "https://dc.lft.to/lastmile_qr_scan", "android": "https://dc.lft.to/lastmile_qr_scan"}, "bike_id": "97c5f1944a3adcd285d53ecb456b845d", "lat": 38.916442333333336, "name": "97c5f1944a3adcd285d53ecb456b845d", "lon": -77.0321065, "fusion_lon": 0.0}, {"is_reserved": 0, "type": "electric_scooter", "fusion_lat": 0.0, "is_disabled": 0, "rental_uris": {"ios": "https://dc.lft.to/lastmile_qr_scan", "android": "https://dc.lft.to/lastmile_qr_scan"},