{"data": {"bikes": [{"name": "526ad85b706a64825551e4cf7caa8b6e", "fusion_lat": 0.0, "type": "electric_scooter", "lat": 38.90681166666667, "is_reserved": 0, "is_disabled": 0, "fusion_lon": 0.0, "bike_id": "526ad85b706a64825551e4cf7caa8b6e", "lon": -76.979954, "rental_uris": {"ios": "https://dc.lft.to/lastmile_qr_scan", "android": "https://dc.lft.to/lastmile_qr_scan"}}, {"name": "65f7bc591525fb8c3b3d9b40d0c4926d", "fusion_lat": 0.0, "type": "electric_scooter", "lat": 38.9394145, "is_reserved": 0, "is_disabled": 0, "fusion_lon": 0.0, "bike_id": "65f7bc591525fb8c3b3d9b40d0c4926d", "lon": -77.03623316666666, "rental_uris": {"ios": "https://dc.lft.to/lastmile_qr_scan", "android": "https://dc.lft.to/lastmile_qr_scan"}}, {"name": "17134a3ee5566d82f0491ed0e16eb011", "fusion_lat": 0.0, "type": "electric_scooter", "lat": 38.9119185, "is_reserved": 0, "is_disabled": 0, "fusion_lon": 0.0, "bike_id": "17134a3ee5566d82f0491ed0e16eb011", "lon": -77.00725216666666, "rental_uris": {"ios": "https://dc.lft.to/lastmile_qr_scan", "android": "https://dc.lft.to/lastmile_qr_scan"}}, {"name": "38ceea8793a5aa2fead2d3b48af73e10", "fusion_lat": 0.0, "type": "electric_scooter", "lat": 38.910513333333334, "is_reserved": 0, "is_disabled": 0, "fusion_lon": 0.0, "bike_id": "38ceea8793a5aa2fead2d3b48af73e10", "lon": -77.04133666666667, "rental_uris": {"ios": "https://dc.lft.to/lastmile_qr_scan", "android": "https://dc.lft.to/lastmile_qr_scan"}}, {"name": "377616be974c5d831fd18496a825e035", "fusion_lat": 0.0, "type": "electric_bike", "lat": 38.885934666666664, "is_reserved": 0, "is_disabled": 0, "fusion_lon": 0.0, "bike_id": "377616be974c5d831fd18496a825e035", "lon": -77.00067233333333, "rental_uris": {"ios": "https://dc.lft.to/lastmile_qr_scan", "android": "https://dc.lft.to/lastmile_qr_scan"}}, {"name": "0fde7f484512465ce5153ee3e2270a19", "fusion_lat": 0.0, "type": "electric_bike", "lat": 38.935508, "is_reserved": 0, "is_disabled": 0, "fusion_lon": 0.0, "bike_id": "0fde7f484512465ce5153ee3e2270a19", "lon": -77.08241533333333, "rental_uris": {"ios": "https://dc.lft.to/lastmile_qr_scan", "android": "https://dc.lft.to/lastmile_qr_scan"}}, {"name": "8dcbbbeb35472f5450e300a731ec8158", "fusion_lat": 0.0, "type": "electric_scooter", "lat": 38.911067833333334, "is_reserved": 0, "is_disabled": 0, "fusion_lon": 0.0, "bike_id": "8dcbbbeb35472f5450e300a731ec8158", "lon": -77.01063566666667, "rental_uris": {"ios": "https://dc.lft.to/lastmile_qr_scan", "android": "https://dc.lft.to/lastmile_qr_scan"}}, {"name": "405c44a53b0fd4dd5912dd4c5d27befe", "fusion_lat": 0.0, "type": "electric_scooter", "lat": 38.905069833333336, "is_reserved": 0, "is_disabled": 0, "fusion_lon": 0.0, "bike_id": "405c44a53b0fd4dd5912dd4c5d27befe", "lon": -77.0694135, "rental_uris": {"ios": "https://dc.lft.to/lastmile_qr_scan", "android": "https://dc.lft.to/lastmile_qr_scan"}}, {"name": "2325ee16bcb9488f296eb5957f232a7d", "fusion_lat": 0.0, "type": "electric_scooter", "lat": 38.898614, "is_reserved": 0, "is_disabled": 0, "fusion_lon": 0.0, "bike_id": "2325ee16bcb9488f296eb5957f232a7d", "lon": -77.0331185, "rental_uris": {"ios": "https://dc.lft.to/lastmile_qr_scan", "android": "https://dc.lft.to/lastmile_qr_scan"}}, {"name": "1218a90eae6a3c3eafb49a08c12154c4", "fusion_lat": 0.0, "type": "electric_scooter", "lat": 38.90538, "is_reserved": 0, "is_disabled": 0, "fusion_lon": 0.0, "bike_id": "1218a90eae6a3c3eafb49a08c12154c4", "lon": -77.05010916666667, "rental_uris": {"ios": "https://dc.lft.to/lastmile_qr_scan", "android": "https://dc.lft.to/lastmile_qr_scan"}}, {"name": "34c07cbbd924573f3b0951e6be3bc0d3", "fusion_lat": 0.0, "type": "electric_scooter", "lat": 38.9310885, "is_reserved": 0, "is_disabled": 0, "fusion_lon": 0.0, "bike_id": "34c07cbbd924573f3b0951e6be3bc0d3", "lon": -77.038436, "rental_uris": {"ios": "https://dc.lft.to/lastmile_qr_scan", "android": "https://dc.lft.to/lastmile_qr_scan"}}, {"name": "33e2a5b98d8215a24d5b85d4fd216241", "fusion_lat": 0.0, "type": "electric_scooter", "lat": 38.917799, "is_reserved": 0, "is_disabled": 0, "fusion_lon": 0.0, "bike_id": "33e2a5b98d8215a24d5b85d4fd216241", "lon": -77.0233995, "rental_uris": {"ios": "https://dc.lft.to/lastmile_qr_scan", "android": "https://dc.lft.to/lastmile_qr_scan"}}, {"name": "2cc193af84e4f9d91924825770aa1e90", "fusion_lat": 0.0, "type": "electric_scooter", "lat": 38.90506366666666, "is_reserved": 0, "is_disabled": 0, "fusion_lon": 0.0, "bike_id": "2cc193af84e4f9d91924825770aa1e90", "lon": -77.02950916666667, "rental_uris": {"ios": "https://dc.lft.to/lastmile_qr_scan", "android": "https://dc.lft.to/lastmile_qr_scan"}}, {"name": "2e878725249482335f5a7df25e7ca107", "fusion_lat": 0.0, "type": "electric_bike", "lat": 39.038638166666665, "is_reserved": 0, "is_disabled": 0, "fusion_lon": 0.0, "bike_id": "2e878725249482335f5a7df25e7ca107", "lon": -76.990332, "rental_uris": {"ios": "https://dc.lft.to/lastmile_qr_scan", "android": "https://dc.lft.to/lastmile_qr_scan"}}, {"name": "b939600f8ebf8c55a3d8fd82793a253b", "fusion_lat": 0.0, "type": "electric_scooter", "lat": 38.90945683333333, "is_reserved": 0, "is_disabled": 0, "fusion_lon": 0.0, "bike_id": "b939600f8ebf8c55a3d8fd82793a253b", "lon": -77.02764716666667, "rental_uris": {"ios": "https://dc.lft.to/lastmile_qr_scan", "android": "https://dc.lft.to/lastmile_qr_scan"}}, {"name": "b41bbea8a32e45d0bf44430a2b080131", "fusion_lat": 0.0, "type": "electric_scooter", "lat": 38.903556, "is_reserved": 0, "is_disabled": 0, "fusion_lon": 0.0, "bike_id": "b41bbea8a32e45d0bf44430a2b080131", "lon": -77.05348583333334, "rental_uris": {"ios": "https://dc.lft.to/lastmile_qr_scan", "android": "https://dc.lft.to/lastmile_qr_scan"}}, {"name": "db209b63587f62aa620b84f267c4edb7", "fusion_lat": 0.0, "type": "electric_scooter", "lat": 38.915972833333335, "is_reserved": 0, "is_disabled": 0, "fusion_lon": 0.0, "bike_id": "db209b63587f62aa620b84f267c4edb7", "lon": -77.03212583333334, "rental_uris": {"ios": "https://dc.lft.to/lastmile_qr_scan", "android": "https://dc.lft.to/lastmile_qr_scan"}}, {"name": "30caa37ae8e414bc90d342798a68735d", "fusion_lat": 0.0, "type": "electric_scooter", "lat": 38.90434833333333, "is_reserved": 0, "is_disabled": 0, "fusion_lon": 0.0, "bike_id": "30caa37ae8e414bc90d342798a68735d", "lon": -77.03440016666667, "rental_uris": {"ios": "https://dc.lft.to/lastmile_qr_scan", "android": "https://dc.lft.to/lastmile_qr_scan"}}, {"name": "78f524e93269d47aee2d27d39bf5b7b0", "fusion_lat": 0.0, "type": "electric_scooter", "lat": 38.900467, "is_reserved": 0, "is_disabled": 0, "fusion_lon": 0.0, "bike_id": "78f524e93269d47aee2d27d39bf5b7b0", "lon": -76.99154183333333, "rental_uris": {"ios": "https://dc.lft.to/lastmile_qr_scan", "android": "https://dc.lft.to/lastmile_qr_scan"}}, {"name": "0d13f994e9dfccb3b8c6fe6a8675d09f", "fusion_lat": 0.0, "type": "electric_scooter", "lat": 38.92378516666667, "is_reserved": 0, "is_disabled": 0, "fusion_lon": 0.0, "bike_id": "0d13f994e9dfccb3b8c6fe6a8675d09f", "lon": -77.04101616666667, "rental_uris": {"ios": "https://dc.lft.to/lastmile_qr_scan", "android": "https://dc.lft.to/lastmile_qr_scan"}}, {"name": "7f952292fcac7b4d03e6ff0a6aa8fdf0", "fusion_lat": 0.0, "type": "electric_scooter", "lat": 38.91842533333333, "is_reserved": 0, "is_disabled": 0, "fusion_lon": 0.0, "bike_id": "7f952292fcac7b4d03e6ff0a6aa8fdf0", "lon": -77.02305366666667, "rental_uris": {"ios": "https://dc.lft.to/lastmile_qr_scan", "android": "https://dc.lft.to/lastmile_qr_scan"}}, {"name": "6870d3b07498f448b58811403226d7d1", "fusion_lat": 0.0, "type": "electric_scooter", "lat": 38.924651, "is_reserved": 0, "is_disabled": 0, "fusion_lon": 0.0, "bike_id": "6870d3b07498f448b58811403226d7d1", "lon": -77.03051, "rental_uris": {"ios": "https://dc.lft.to/lastmile_qr_scan", "android": "https://dc.lft.to/lastmile_qr_scan"}}, {"name": "6d066fada241440f879de1ed4c37dd28", "fusion_lat": 0.0, "type": "electric_scooter", "lat": 38.86262883333333, "is_reserved": 0, "is_disabled": 0, "fusion_lon": 0.0, "bike_id": "6d066fada241440f879de1ed4c37dd28", "lon": -76.98712433333333, "rental_uris": {"ios": "https://dc.lft.to/lastmile_qr_scan", "android": "https://dc.lft.to/lastmile_qr_scan"}}, {"name": "c1a778a42ea6f71cf04a0219098f6008", "fusion_lat": 0.0, "type": "electric_scooter", "lat": 38.90973016666667, "is_reserved": 0, "is_disabled": 0, "fusion_lon": 0.0, "bike_id": "c1a778a42ea6f71cf04a0219098f6008", "lon": -77.04673166666667, "rental_uris": {"ios": "https://dc.lft.to/lastmile_qr_scan", "android": "https://dc.lft.to/lastmile_qr_scan"}}, {"name": "7da47ebbb906024b0cae864ae64de651", "fusion_lat": 0.0, "type": "electric_scooter", "lat": 38.91797233333333, "is_reserved": 0, "is_disabled": 0, "fusion_lon": 0.0, "bike_id": "7da47ebbb906024b0cae864ae64de651", "lon": -77.02702216666667, "rental_uris": {"ios": "https://dc.lft.to/lastmile_qr_scan", "android": "https://dc.lft.to/lastmile_qr_scan"}}, {"name": "5ba1c55d64d6cb1cbb0b40b73dfbd01c", "fusion_lat": 0.0, "type": "electric_scooter", "lat": 38.921366, "is_reserved": 0, "is_disabled": 0, "fusion_lon": 0.0, "bike_id": "5ba1c55d64d6cb1cbb0b40b73dfbd01c", "lon": -77.04564866666666, "rental_uris": {"ios": "https://dc.lft.to/lastmile_qr_scan", "android": "https://dc.lft.to/lastmile_qr_scan"}}, {"name": "e5b62cb43f7c14ef27ebcd415c0063a3", "fusion_lat": 0.0, "type": "electric_scooter", "lat": 38.912094833333335, "is_reserved": 0, "is_disabled": 0, "fusion_lon": 0.0, "bike_id": "e5b62cb43f7c14ef27ebcd415c0063a3", "lon": -77.0384505, "rental_uris": {"ios": "https://dc.lft.to/lastmile_qr_scan", "android": "https://dc.lft.to/lastmile_qr_scan"}}, {"name": "9ba61ef54562d55200c3bacebbbec89a", "fusion_lat": 0.0, "type": "electric_scooter", "lat": 38.92092183333333, "is_reserved": 0, "is_disabled": 0, "fusion_lon": 0.0, "bike_id": "9ba61ef54562d55200c3bacebbbec89a", "lon": -77.05475633333333, "rental_uris": {"ios": "https://dc.lft.to/lastmile_qr_scan", "android": "https://dc.lft.to/lastmile_qr_scan"}}, {"name": "15841bd4a0e6df7d67eab4e3b576fe4d", "fusion_lat": 0.0, "type": "electric_scooter", "lat": 38.882195833333334, "is_reserved": 0, "is_disabled": 0, "fusion_lon": 0.0, "bike_id": "15841bd4a0e6df7d67eab4e3b576fe4d", "lon": -76.94179366666667, "rental_uris": {"ios": "https://dc.lft.to/lastmile_qr_scan", "android": "https://dc.lft.to/lastmile_qr_scan"}}, {"name": "0a851a06b48607ea0953815f49841aba", "fusion_lat": 0.0, "type": "electric_scooter", "lat": 38.920125, "is_reserved": 0, "is_disabled": 0, "fusion_lon": 0.0, "bike_id": "0a851a06b48607ea0953815f49841aba", "lon": -77.03180016666667, "rental_uris": {"ios": "https://dc.lft.to/lastmile_qr_scan", "android": "https://dc.lft.to/lastmile_qr_scan"}}, {"name": "12f3ec682463b49cd20e167612547875", "fusion_lat": 0.0, "type": "electric_scooter", "lat": 38.873587666666666, "is_reserved": 0, "is_disabled": 0, "fusion_lon": 0.0, "bike_id": "12f3ec682463b49cd20e167612547875", "lon": -77.0009235, "rental_uris": {"ios": "https://dc.lft.to/lastmile_qr_scan", "android": "https://dc.lft.to/lastmile_qr_scan"}}, {"name": "37d90d1285079e4dea6463ba9a50ecca", "fusion_lat": 0.0, "type": "electric_scooter", "lat": 38.908719, "is_reserved": 0, "is_disabled": 0, "fusion_lon": 0.0, "bike_id": "37d90d1285079e4dea6463ba9a50ecca", "lon": -77.01292683333334, "rental_uris": {"ios": "https://dc.lft.to/lastmile_qr_scan", "android": "https://dc.lft.to/lastmile_qr_scan"}}, {"name": "e4d02fd248b0f5b5846ec7e785882a09", "fusion_lat": 0.0, "type": "electric_scooter", "lat": 38.880453, "is_reserved": 0, "is_disabled": 0, "fusion_lon": 0.0, "bike_id": "e4d02fd248b0f5b5846ec7e785882a09", "lon": -76.95991066666667, "rental_uris": {"ios": "https://dc.lft.to/lastmile_qr_scan", "android": "https://dc.lft.to/lastmile_qr_scan"}}, {"name": "2cbeb8114e148e1d4d5db1ac51d3ccdf", "fusion_lat": 0.0, "type": "electric_scooter", "lat": 38.8784555, "is_reserved": 0, "is_disabled": 0, "fusion_lon": 0.0, "bike_id": "2cbeb8114e148e1d4d5db1ac51d3ccdf", "lon": -77.0228495, "rental_uris": {"ios": "https://dc.lft.to/lastmile_qr_scan", "android": "https://dc.lft.to/lastmile_qr_scan"}}, {"name": "36f18f38ab47ec45f05db911cf5fc720", "fusion_lat": 0.0, "type": "electric_bike", "lat": 38.98466033333333, "is_reserved": 0, "is_disabled": 0, "fusion_lon": 0.0, "bike_id": "36f18f38ab47ec45f05db911cf5fc720", "lon": -76.95531683333333, "rental_uris": {"ios": "https://dc.lft.to/lastmile_qr_scan", "android": "https://dc.lft.to/lastmile_qr_scan"}}, {"name": "e6d279a55324a760683a91b70bae005b", "fusion_lat": 0.0, "type": "electric_scooter", "lat": 38.939142, "is_reserved": 0, "is_disabled": 0, "fusion_lon": 0.0, "bike_id": "e6d279a55324a760683a91b70bae005b", "lon": -77.03664916666666, "rental_uris": {"ios": "https://dc.lft.to/lastmile_qr_scan", "android": "https://dc.lft.to/lastmile_qr_scan"}}, {"name": "db694d061e44255da0f244131be94e04", "fusion_lat": 0.0, "type": "electric_bike", "lat": 38.8521605, "is_reserved": 0, "is_disabled": 0, "fusion_lon": 0.0, "bike_id": "db694d061e44255da0f244131be94e04", "lon": -77.129617, "rental_uris": {"ios": "https://dc.lft.to/lastmile_qr_scan", "android": "https://dc.lft.to/lastmile_qr_scan"}}, {"name": "cd2adb298ef4af4ac4011df2dec4dfef", "fusion_lat": 0.0, "type": "electric_scooter", "lat": 38.895538333333334, "is_reserved": 0, "is_disabled": 0, "fusion_lon": 0.0, "bike_id": "cd2adb298ef4af4ac4011df2dec4dfef", "lon": -76.9837985, "rental_uris": {"ios": "https://dc.lft.to/lastmile_qr_scan", "android": "https://dc.lft.to/lastmile_qr_scan"}}, {"name": "29cf80b6f6e23959b665739a15c7877b", "fusion_lat": 0.0, "type": "electric_scooter", "lat": 38.930606833333336, "is_reserved": 0, "is_disabled": 0, "fusion_lon": 0.0, "bike_id": "29cf80b6f6e23959b665739a15c7877b", "lon": -77.02318933333333, "rental_uris": {"ios": "https://dc.lft.to/lastmile_qr_scan", "android": "https://dc.lft.to/lastmile_qr_scan"}}, {"name": "b1c852f5972cab93b795a792fae15ac3", "fusion_lat": 0.0, "type": "electric_scooter", "lat": 38.906768666666665, "is_reserved": 0, "is_disabled": 0, "fusion_lon": 0.0, "bike_id": "b1c852f5972cab93b795a792fae15ac3", "lon": -77.03842933333334, "rental_uris": {"ios": "https://dc.lft.to/lastmile_qr_scan", "android": "https://dc.lft.to/lastmile_qr_scan"}}, {"name": "c7ade2d4483e47a901b724fc2877f484", "fusion_lat": 0.0, "type": "electric_scooter", "lat": 38.893904666666664, "is_reserved": 0, "is_disabled": 0, "fusion_lon": 0.0, "bike_id": "c7ade2d4483e47a901b724fc2877f484", "lon": -77.05476483333334, "rental_uris": {"ios": "https://dc.lft.to/lastmile_qr_scan", "android": "https://dc.lft.to/lastmile_qr_scan"}}, {"name": "c59ebb0408a38f704358c0ca22d8ed32", "fusion_lat": 0.0, "type": "electric_scooter", "lat": 38.90037566666667, "is_reserved": 0, "is_disabled": 0, "fusion_lon": 0.0, "bike_id": "c59ebb0408a38f704358c0ca22d8ed32", "lon": -77.0019455, "rental_uris": {"ios": "https://dc.lft.to/lastmile_qr_scan", "android": "https://dc.lft.to/lastmile_qr_scan"}}, {"name": "77fafe0c5cdf4dbb642bfc27860ef084", "fusion_lat": 0.0, "type": "electric_scooter", "lat": 38.90054033333333, "is_reserved": 0, "is_disabled": 0, "fusion_lon": 0.0, "bike_id": "77fafe0c5cdf4dbb642bfc27860ef084", "lon": -76.9475885, "rental_uris": {"ios": "https://dc.lft.to/lastmile_qr_scan", "android": "https://dc.lft.to/lastmile_qr_scan"}}, {"name": "d5fd6025e62ed02823175b1edb5922f9", "fusion_lat": 0.0, "type": "electric_bike", "lat": 38.86597916666667, "is_reserved": 0, "is_disabled": 0, "fusion_lon": 0.0, "bike_id": "d5fd6025e62ed02823175b1edb5922f9", "lon": -76.93230166666666, "rental_uris": {"ios": "https://dc.lft.to/lastmile_qr_scan", "android": "https://dc.lft.to/lastmile_qr_scan"}}, {"name": "0d3771b056a8829260d8b9c1b69ca31c", "fusion_lat": 0.0, "type": "electric_scooter", "lat": 38.88383, "is_reserved": 0, "is_disabled": 0, "fusion_lon": 0.0, "bike_id": "0d3771b056a8829260d8b9c1b69ca31c", "lon": -76.98545433333334, "rental_uris": {"ios": "https://dc.lft.to/lastmile_qr_scan", "android": "https://dc.lft.to/lastmile_qr_scan"}}, {"name": "9eefb8bcf742648e50638df665a83930", "fusion_lat": 0.0, "type": "electric_scooter", "lat": 38.9242935, "is_reserved": 0, "is_disabled": 0, "fusion_lon": 0.0, "bike_id": "9eefb8bcf742648e50638df665a83930", "lon": -77.04247716666667, "rental_uris": {"ios": "https://dc.lft.to/lastmile_qr_scan", "android": "https://dc.lft.to/lastmile_qr_scan"}}, {"name": "c23c36216079a1b25613d07d168073f3", "fusion_lat": 0.0, "type": "electric_scooter", "lat": 38.9106525, "is_reserved": 0, "is_disabled": 0, "fusion_lon": 0.0, "bike_id": "c23c36216079a1b25613d07d168073f3", "lon": -77.01771216666667, "rental_uris": {"ios": "https://dc.lft.to/lastmile_qr_scan", "android": "https://dc.lft.to/lastmile_qr_scan"}}, {"name": "1174d3ca3c5829bbf9e57a35ec46dbf8", "fusion_lat": 0.0, "type": "electric_scooter", "lat": 38.91710833333333, "is_reserved": 0, "is_disabled": 0, "fusion_lon": 0.0, "bike_id": "1174d3ca3c5829bbf9e57a35ec46dbf8", "lon": -77.03081966666667, "rental_uris": {"ios": "https://dc.lft.to/lastmile_qr_scan", "android": "https://dc.lft.to/lastmile_qr_scan"}}, {"name": "3918ee0b73a136d042fbede6a65db2ad", "fusion_lat": 0.0, "type": "electric_scooter", "lat": 38.924358166666664, "is_reserved": 0, "is_disabled": 0, "fusion_lon": 0.0, "bike_id": "3918ee0b73a136d042fbede6a65db2ad", "lon": -77.04216683333334, "rental_uris": {"ios": "https://dc.lft.to/lastmile_qr_scan", "android": "https://dc.lft.to/lastmile_qr_scan"}}, {"name": "d9303ef36f6d42c3c1211f86bc606e91", "fusion_lat": 0.0, "type": "electric_scooter", "lat": 38.90971866666667, "is_reserved": 0, "is_disabled": 0, "fusion_lon": 0.0, "bike_id": "d9303ef36f6d42c3c1211f86bc606e91", "lon": -77.03266466666666, "rental_uris": {"ios": "https://dc.lft.to/lastmile_qr_scan", "android": "https://dc.lft.to/lastmile_qr_scan"}}, {"name": "5f7f203825a47485f0490328c419d095", "fusion_lat": 0.0, "type": "electric_scooter", "lat": 38.86657733333333, "is_reserved": 0, "is_disabled": 0, "fusion_lon": 0.0, "bike_id": "5f7f203825a47485f0490328c419d095", "lon": -76.9888755, "rental_uris": {"ios": "https://dc.lft.to/lastmile_qr_scan", "android": "https://dc.lft.to/lastmile_qr_scan"}}, {"name": "b2ebfd1e3a8f6aae304b04d7be1b0ad9", "fusion_lat": 0.0, "type": "electric_scooter", "lat": 38.907401666666665, "is_reserved": 0, "is_disabled": 0, "fusion_lon": 0.0, "bike_id": "b2ebfd1e3a8f6aae304b04d7be1b0ad9", "lon": -77.02695716666666, "rental_uris": {"ios": "https://dc.lft.to/lastmile_qr_scan", "android": "https://dc.lft.to/lastmile_qr_scan"}}, {"name": "985ccf92ae8adc3b0713f7688b1baf85", "fusion_lat": 0.0, "type": "electric_scooter", "lat": 38.90639066666667, "is_reserved": 0, "is_disabled": 0, "fusion_lon": 0.0, "bike_id": "985ccf92ae8adc3b0713f7688b1baf85", "lon": -77.00600533333333, "rental_uris": {"ios": "https://dc.lft.to/lastmile_qr_scan", "android": "https://dc.lft.to/lastmile_qr_scan"}}, {"name": "ed4bfcb1136d62d3f8c39199536e4b04", "fusion_lat": 0.0, "type": "electric_scooter", "lat": 38.91713466666667, "is_reserved": 0, "is_disabled": 0, "fusion_lon": 0.0, "bike_id": "ed4bfcb1136d62d3f8c39199536e4b04", "lon": -77.03557583333334, "rental_uris": {"ios": "https://dc.lft.to/lastmile_qr_scan", "android": "https://dc.lft.to/lastmile_qr_scan"}}, {"name": "821e0def4b679fdfe5c4a4f8100d0975", "fusion_lat": 0.0, "type": "electric_scooter", "lat": 38.9177145, "is_reserved": 0, "is_disabled": 0, "fusion_lon": 0.0, "bike_id": "821e0def4b679fdfe5c4a4f8100d0975", "lon": -77.047558, "rental_uris": {"ios": "https://dc.lft.to/lastmile_qr_scan", "android": "https://dc.lft.to/lastmile_qr_scan"}}, {"name": "3d6c2205d30571a6c7ec6c26496a8c19", "fusion_lat": 0.0, "type": "electric_scooter", "lat": 38.87809883333333, "is_reserved": 0, "is_disabled": 0, "fusion_lon": 0.0, "bike_id": "3d6c2205d30571a6c7ec6c26496a8c19", "lon": -77.00350816666666, "rental_uris": {"ios": "https://dc.lft.to/lastmile_qr_scan", "android": "https://dc.lft.to/lastmile_qr_scan"}}, {"name": "14936a41f6cd8082d341137e58e53c21", "fusion_lat": 0.0, "type": "electric_scooter", "lat": 38.8922155, "is_reserved": 0, "is_disabled": 0, "fusion_lon": 0.0, "bike_id": "14936a41f6cd8082d341137e58e53c21", "lon": -77.01373983333333, "rental_uris": {"ios": "https://dc.lft.to/lastmile_qr_scan", "android": "https://dc.lft.to/lastmile_qr_scan"}}, {"name": "f8249e8f0887b3c46508c787f59387bf", "fusion_lat": 0.0, "type": "electric_scooter", "lat": 38.90877066666667, "is_reserved": 0, "is_disabled": 0, "fusion_lon": 0.0, "bike_id": "f8249e8f0887b3c46508c787f59387bf", "lon": -77.07591383333333, "rental_uris": {"ios": "https://dc.lft.to/lastmile_qr_scan", "android": "https://dc.lft.to/lastmile_qr_scan"}}, {"name": "1f9ad3f0a2eb259ffc27985d820b45a3", "fusion_lat": 0.0, "type": "electric_scooter", "lat": 38.9126795, "is_reserved": 0, "is_disabled": 0, "fusion_lon": 0.0, "bike_id": "1f9ad3f0a2eb259ffc27985d820b45a3", "lon": -77.04158983333333, "rental_uris": {"ios": "https://dc.lft.to/lastmile_qr_scan", "android": "https://dc.lft.to/lastmile_qr_scan"}}, {"name": "f7a685ab9ed614024bac0c3dfe0f6766", "fusion_lat": 0.0, "type": "electric_scooter", "lat": 38.91123733333333, "is_reserved": 0, "is_disabled": 0, "fusion_lon": 0.0, "bike_id": "f7a685ab9ed614024bac0c3dfe0f6766", "lon": -77.03715766666667, "rental_uris": {"ios": "https://dc.lft.to/lastmile_qr_scan", "android": "https://dc.lft.to/lastmile_qr_scan"}}, {"name": "247e63bb6eb19f41715257a4ac983d40", "fusion_lat": 0.0, "type": "electric_scooter", "lat": 38.917189666666665, "is_reserved": 0, "is_disabled": 0, "fusion_lon": 0.0, "bike_id": "247e63bb6eb19f41715257a4ac983d40", "lon": -77.02896566666666, "rental_uris": {"ios": "https://dc.lft.to/lastmile_qr_scan", "android": "https://dc.lft.to/lastmile_qr_scan"}}, {"name": "7d30ade922d4b01268084dc8d1d5ffa7", "fusion_lat": 0.0, "type": "electric_scooter", "lat": 38.92910116666667, "is_reserved": 0, "is_disabled": 0, "fusion_lon": 0.0, "bike_id": "7d30ade922d4b01268084dc8d1d5ffa7", "lon": -77.0194975, "rental_uris": {"ios": "https://dc.lft.to/lastmile_qr_scan", "android": "https://dc.lft.to/lastmile_qr_scan"}}, {"name": "f64df28c00adfb579154bf93aff79482", "fusion_lat": 0.0, "type": "electric_scooter", "lat": 38.90201533333333, "is_reserved": 0, "is_disabled": 0, "fusion_lon": 0.0, "bike_id": "f64df28c00adfb579154bf93aff79482", "lon": -77.02183866666667, "rental_uris": {"ios": "https://dc.lft.to/lastmile_qr_scan", "android": "https://dc.lft.to/lastmile_qr_scan"}}, {"name": "3ca9953d256f8672536539f9065a1b0a", "fusion_lat": 0.0, "type": "electric_scooter", "lat": 38.936654, "is_reserved": 0, "is_disabled": 0, "fusion_lon": 0.0, "bike_id": "3ca9953d256f8672536539f9065a1b0a", "lon": -77.03260233333333, "rental_uris": {"ios": "https://dc.lft.to/lastmile_qr_scan", "android": "https://dc.lft.to/lastmile_qr_scan"}}, {"name": "c27d59ce0841d2adb987f8f85986ba9c", "fusion_lat": 0.0, "type": "electric_scooter", "lat": 38.910182666666664, "is_reserved": 0, "is_disabled": 0, "fusion_lon": 0.0, "bike_id": "c27d59ce0841d2adb987f8f85986ba9c", "lon": -77.04456766666667, "rental_uris": {"ios": "https://dc.lft.to/lastmile_qr_scan", "android": "https://dc.lft.to/lastmile_qr_scan"}}, {"name": "9d2c047935c151c77a496e58ab08bde7", "fusion_lat": 0.0, "type": "electric_bike", "lat": 38.853714, "is_reserved": 0, "is_disabled": 0, "fusion_lon": 0.0, "bike_id": "9d2c047935c151c77a496e58ab08bde7", "lon": -77.09867733333333, "rental_uris": {"ios": "https://dc.lft.to/lastmile_qr_scan", "android": "https://dc.lft.to/lastmile_qr_scan"}}, {"name": "df492e4e6ff3e00636321b6c377b4718", "fusion_lat": 0.0, "type": "electric_scooter", "lat": 38.902579833333334, "is_reserved": 0, "is_disabled": 0, "fusion_lon": 0.0, "bike_id": "df492e4e6ff3e00636321b6c377b4718", "lon": -77.02997616666667, "rental_uris": {"ios": "https://dc.lft.to/lastmile_qr_scan", "android": "https://dc.lft.to/lastmile_qr_scan"}}, {"name": "bc150d8766a21185b2fe40ab7e08bbd7", "fusion_lat": 0.0, "type": "electric_scooter", "lat": 38.900245166666664, "is_reserved": 0, "is_disabled": 0, "fusion_lon": 0.0, "bike_id": "bc150d8766a21185b2fe40ab7e08bbd7", "lon": -77.01191783333333, "rental_uris": {"ios": "https://dc.lft.to/lastmile_qr_scan", "android": "https://dc.lft.to/lastmile_qr_scan"}}, {"name": "2fbe5885143ae446b3ce037bc11a7528", "fusion_lat": 0.0, "type": "electric_scooter", "lat": 38.91540883333333, "is_reserved": 0, "is_disabled": 0, "fusion_lon": 0.0, "bike_id": "2fbe5885143ae446b3ce037bc11a7528", "lon": -77.038517, "rental_uris": {"ios": "https://dc.lft.to/lastmile_qr_scan", "android": "https://dc.lft.to/lastmile_qr_scan"}}, {"name": "e94ba09f2e49219acd72759cc02d2190", "fusion_lat": 0.0, "type": "electric_scooter", "lat": 38.9026185, "is_reserved": 0, "is_disabled": 0, "fusion_lon": 0.0, "bike_id": "e94ba09f2e49219acd72759cc02d2190", "lon": -77.0459475, "rental_uris": {"ios": "https://dc.lft.to/lastmile_qr_scan", "android": "https://dc.lft.to/lastmile_qr_scan"}}, {"name": "204bf018b2ebc2977ee7c89a169e7a41", "fusion_lat": 0.0, "type": "electric_scooter", "lat": 38.9201285, "is_reserved": 0, "is_disabled": 0, "fusion_lon": 0.0, "bike_id": "204bf018b2ebc2977ee7c89a169e7a41", "lon": -77.03189466666667, "rental_uris": {"ios": "https://dc.lft.to/lastmile_qr_scan", "android": "https://dc.lft.to/lastmile_qr_scan"}}, {"name": "fa5eed03df94b60e483b28bb8c8cd6ea", "fusion_lat": 0.0, "type": "electric_scooter", "lat": 38.86537516666667, "is_reserved": 0, "is_disabled": 0, "fusion_lon": 0.0, "bike_id": "fa5eed03df94b60e483b28bb8c8cd6ea", "lon": -76.98708766666667, "rental_uris": {"ios": "https://dc.lft.to/lastmile_qr_scan", "android": "https://dc.lft.to/lastmile_qr_scan"}}, {"name": "9e7caabab5098ca50946ff84b9845291", "fusion_lat": 0.0, "type": "electric_scooter", "lat": 38.9192065, "is_reserved": 0, "is_disabled": 0, "fusion_lon": 0.0, "bike_id": "9e7caabab5098ca50946ff84b9845291", "lon": -77.02417616666666, "rental_uris": {"ios": "https://dc.lft.to/lastmile_qr_scan", "android": "https://dc.lft.to/lastmile_qr_scan"}}, {"name": "75b7b1cbb3aa40e2e7cf58579a4b954f", "fusion_lat": 0.0, "type": "electric_scooter", "lat": 38.9102145, "is_reserved": 0, "is_disabled": 0, "fusion_lon": 0.0, "bike_id": "75b7b1cbb3aa40e2e7cf58579a4b954f", "lon": -76.98750116666666, "rental_uris": {"ios": "https://dc.lft.to/lastmile_qr_scan", "android": "https://dc.lft.to/lastmile_qr_scan"}}, {"name": "8e65bdc9152df149c93f27db30ba2601", "fusion_lat": 0.0, "type": "electric_scooter", "lat": 38.92617633333333, "is_reserved": 0, "is_disabled": 0, "fusion_lon": 0.0, "bike_id": "8e65bdc9152df149c93f27db30ba2601", "lon": -77.03674083333334, "rental_uris": {"ios": "https://dc.lft.to/lastmile_qr_scan", "android": "https://dc.lft.to/lastmile_qr_scan"}}, {"name": "b6ed29c6ce572175e84a3ecb3cac58c6", "fusion_lat": 0.0, "type": "electric_scooter", "lat": 38.911951333333334, "is_reserved": 0, "is_disabled": 0, "fusion_lon": 0.0, "bike_id": "b6ed29c6ce572175e84a3ecb3cac58c6", "lon": -77.0344735, "rental_uris": {"ios": "https://dc.lft.to/lastmile_qr_scan", "android": "https://dc.lft.to/lastmile_qr_scan"}}, {"name": "e86aeb29c16a7e8cb023c2d0fe3abc14", "fusion_lat": 0.0, "type": "electric_scooter", "lat": 38.914173, "is_reserved": 0, "is_disabled": 0, "fusion_lon": 0.0, "bike_id": "e86aeb29c16a7e8cb023c2d0fe3abc14", "lon": -77.02119716666667, "rental_uris": {"ios": "https://dc.lft.to/lastmile_qr_scan", "android": "https://dc.lft.to/lastmile_qr_scan"}}, {"name": "21e5a55c2d6f9763f56cea3f5eafe267", "fusion_lat": 0.0, "type": "electric_scooter", "lat": 38.902755666666664, "is_reserved": 0, "is_disabled": 0, "fusion_lon": 0.0, "bike_id": "21e5a55c2d6f9763f56cea3f5eafe267", "lon": -76.99858766666667, "rental_uris": {"ios": "https://dc.lft.to/lastmile_qr_scan", "android": "https://dc.lft.to/lastmile_qr_scan"}}, {"name": "3de859fa4abfeb4d359d630615f6aa55", "fusion_lat": 0.0, "type": "electric_scooter", "lat": 38.92239083333333, "is_reserved": 0, "is_disabled": 0, "fusion_lon": 0.0, "bike_id": "3de859fa4abfeb4d359d630615f6aa55", "lon": -77.029838, "rental_uris": {"ios": "https://dc.lft.to/lastmile_qr_scan", "android": "https://dc.lft.to/lastmile_qr_scan"}}, {"name": "a91225b072ac697a991b1afdc760b15f", "fusion_lat": 0.0, "type": "electric_scooter", "lat": 38.90526666666667, "is_reserved": 0, "is_disabled": 0, "fusion_lon": 0.0, "bike_id": "a91225b072ac697a991b1afdc760b15f", "lon": -77.05018666666666, "rental_uris": {"ios": "https://dc.lft.to/lastmile_qr_scan", "android": "https://dc.lft.to/lastmile_qr_scan"}}, {"name": "d24b7bed3a4f2f86825ed4f6dcc47029", "fusion_lat": 0.0, "type": "electric_scooter", "lat": 38.93546383333333, "is_reserved": 0, "is_disabled": 0, "fusion_lon": 0.0, "bike_id": "d24b7bed3a4f2f86825ed4f6dcc47029", "lon": -77.0342295, "rental_uris": {"ios": "https://dc.lft.to/lastmile_qr_scan", "android": "https://dc.lft.to/lastmile_qr_scan"}}, {"name": "523d171c4da054ffe41e81b57bbc2ba5", "fusion_lat": 0.0, "type": "electric_scooter", "lat": 38.921270666666665, "is_reserved": 0, "is_disabled": 0, "fusion_lon": 0.0, "bike_id": "523d171c4da054ffe41e81b57bbc2ba5", "lon": -77.04118816666667, "rental_uris": {"ios": "https://dc.lft.to/lastmile_qr_scan", "android": "https://dc.lft.to/lastmile_qr_scan"}}, {"name": "21ffcf5e3e3d939627652f4347daf456", "fusion_lat": 0.0, "type": "electric_scooter", "lat": 38.912720666666665, "is_reserved": 0, "is_disabled": 0, "fusion_lon": 0.0, "bike_id": "21ffcf5e3e3d939627652f4347daf456", "lon": -77.022137, "rental_uris": {"ios": "https://dc.lft.to/lastmile_qr_scan", "android": "https://dc.lft.to/lastmile_qr_scan"}}, {"name": "a0b59735095211d2d24fbf7ff84c9a9d", "fusion_lat": 0.0, "type": "electric_scooter", "lat": 38.8979185, "is_reserved": 0, "is_disabled": 0, "fusion_lon": 0.0, "bike_id": "a0b59735095211d2d24fbf7ff84c9a9d", "lon": -76.94414866666666, "rental_uris": {"ios": "https://dc.lft.to/lastmile_qr_scan", "android": "https://dc.lft.to/lastmile_qr_scan"}}, {"name": "ae0db486e3f1abecf6705e46f2a97d61", "fusion_lat": 0.0, "type": "electric_scooter", "lat": 38.906628, "is_reserved": 0, "is_disabled": 0, "fusion_lon": 0.0, "bike_id": "ae0db486e3f1abecf6705e46f2a97d61", "lon": -77.03849716666667, "rental_uris": {"ios": "https://dc.lft.to/lastmile_qr_scan", "android": "https://dc.lft.to/lastmile_qr_scan"}}, {"name": "3caf28b41f9eba7d9f6ae8b064ed018a", "fusion_lat": 0.0, "type": "electric_bike", "lat": 38.964919, "is_reserved": 0, "is_disabled": 0, "fusion_lon": 0.0, "bike_id": "3caf28b41f9eba7d9f6ae8b064ed018a", "lon": -77.06493683333333, "rental_uris": {"ios": "https://dc.lft.to/lastmile_qr_scan", "android": "https://dc.lft.to/lastmile_qr_scan"}}, {"name": "1c0710a6497c9cbf39c9d206630a7936", "fusion_lat": 0.0, "type": "electric_scooter", "lat": 38.93702283333333, "is_reserved": 0, "is_disabled": 0, "fusion_lon": 0.0, "bike_id": "1c0710a6497c9cbf39c9d206630a7936", "lon": -77.02403116666666, "rental_uris": {"ios": "https://dc.lft.to/lastmile_qr_scan", "android": "https://dc.lft.to/lastmile_qr_scan"}}, {"name": "d0a82b4993aa74601f7abef751374953", "fusion_lat": 0.0, "type": "electric_scooter", "lat": 38.918430666666666, "is_reserved": 0, "is_disabled": 0, "fusion_lon": 0.0, "bike_id": "d0a82b4993aa74601f7abef751374953", "lon": -77.02450183333333, "rental_uris": {"ios": "https://dc.lft.to/lastmile_qr_scan", "android": "https://dc.lft.to/lastmile_qr_scan"}}, {"name": "b337187671df52fa8a6df38b3c5cc37e", "fusion_lat": 0.0, "type": "electric_scooter", "lat": 38.90698733333333, "is_reserved": 0, "is_disabled": 0, "fusion_lon": 0.0, "bike_id": "b337187671df52fa8a6df38b3c5cc37e", "lon": -77.0415525, "rental_uris": {"ios": "https://dc.lft.to/lastmile_qr_scan", "android": "https://dc.lft.to/lastmile_qr_scan"}}, {"name": "b9c6b3f3fbe5cf015c55b5fc8d64d554", "fusion_lat": 0.0, "type": "electric_scooter", "lat": 38.92339616666667, "is_reserved": 0, "is_disabled": 0, "fusion_lon": 0.0, "bike_id": "b9c6b3f3fbe5cf015c55b5fc8d64d554", "lon": -77.03664883333333, "rental_uris": {"ios": "https://dc.lft.to/lastmile_qr_scan", "android": "https://dc.lft.to/lastmile_qr_scan"}}, {"name": "5e766c0ef8061d7a9020467c1e9f0903", "fusion_lat": 0.0, "type": "electric_scooter", "lat": 38.91238083333333, "is_reserved": 0, "is_disabled": 0, "fusion_lon": 0.0, "bike_id": "5e766c0ef8061d7a9020467c1e9f0903", "lon": -77.00914716666666, "rental_uris": {"ios": "https://dc.lft.to/lastmile_qr_scan", "android": "https://dc.lft.to/lastmile_qr_scan"}}, {"name": "29f995a135633b7396da52d52b94596c", "fusion_lat": 0.0, "type": "electric_scooter", "lat": 38.904258666666664, "is_reserved": 0, "is_disabled": 0, "fusion_lon": 0.0, "bike_id": "29f995a135633b7396da52d52b94596c", "lon": -77.0310355, "rental_uris": {"ios": "https://dc.lft.to/lastmile_qr_scan", "android": "https://dc.lft.to/lastmile_qr_scan"}}, {"name": "12157cf5b5eca6afa0d3d30c5887d7bf", "fusion_lat": 0.0, "type": "electric_scooter", "lat": 38.894891666666666, "is_reserved": 0, "is_disabled": 0, "fusion_lon": 0.0, "bike_id": "12157cf5b5eca6afa0d3d30c5887d7bf", "lon": -77.01013233333333, "rental_uris": {"ios": "https://dc.lft.to/lastmile_qr_scan", "android": "https://dc.lft.to/lastmile_qr_scan"}}, {"name": "75426624f1e2afa60c6deeb51fdcbd92", "fusion_lat": 0.0, "type": "electric_scooter", "lat": 38.90845933333333, "is_reserved": 0, "is_disabled": 0, "fusion_lon": 0.0, "bike_id": "75426624f1e2afa60c6deeb51fdcbd92", "lon": -77.025985, "rental_uris": {"ios": "https://dc.lft.to/lastmile_qr_scan", "android": "https://dc.lft.to/lastmile_qr_scan"}}, {"name": "029d40e8da5a752b5f84b1907d1ebcba", "fusion_lat": 0.0, "type": "electric_scooter", "lat": 38.93389033333333, "is_reserved": 0, "is_disabled": 0, "fusion_lon": 0.0, "bike_id": "029d40e8da5a752b5f84b1907d1ebcba", "lon": -77.0739065, "rental_uris": {"ios": "https://dc.lft.to/lastmile_qr_scan", "android": "https://dc.lft.to/lastmile_qr_scan"}}, {"name": "8c07a4a3fe373bd599a015077d45388b", "fusion_lat": 0.0, "type": "electric_scooter", "lat": 38.924809333333336, "is_reserved": 0, "is_disabled": 0, "fusion_lon": 0.0, "bike_id": "8c07a4a3fe373bd599a015077d45388b", "lon": -77.03141966666666, "rental_uris": {"ios": "https://dc.lft.to/lastmile_qr_scan", "android": "https://dc.lft.to/lastmile_qr_scan"}}, {"name": "67729a915b0fb5514a45ecc85ffdad1e", "fusion_lat": 0.0, "type": "electric_bike", "lat": 38.8861655, "is_reserved": 0, "is_disabled": 0, "fusion_lon": 0.0, "bike_id": "67729a915b0fb5514a45ecc85ffdad1e", "lon": -77.10755583333334, "rental_uris": {"ios": "https://dc.lft.to/lastmile_qr_scan", "android": "https://dc.lft.to/lastmile_qr_scan"}}, {"name": "2da505e81d979b35d52b1edc6e9c7912", "fusion_lat": 0.0, "type": "electric_scooter", "lat": 38.917212166666665, "is_reserved": 0, "is_disabled": 0, "fusion_lon": 0.0, "bike_id": "2da505e81d979b35d52b1edc6e9c7912", "lon": -77.02896483333333, "rental_uris": {"ios": "https://dc.lft.to/lastmile_qr_scan", "android": "https://dc.lft.to/lastmile_qr_scan"}}, {"name": "1da074febfd0ad4728507aa8ebe4ba46", "fusion_lat": 0.0, "type": "electric_scooter", "lat": 38.862664, "is_reserved": 0, "is_disabled": 0, "fusion_lon": 0.0, "bike_id": "1da074febfd0ad4728507aa8ebe4ba46", "lon": -76.98722833333333, "rental_uris": {"ios": "https://dc.lft.to/lastmile_qr_scan", "android": "https://dc.lft.to/lastmile_qr_scan"}}, {"name": "6ced637398f6c6a8759fc985a651ed4a", "fusion_lat": 0.0, "type": "electric_bike", "lat": 39.053475166666665, "is_reserved": 0, "is_disabled": 0, "fusion_lon": 0.0, "bike_id": "6ced637398f6c6a8759fc985a651ed4a", "lon": -77.13598016666667, "rental_uris": {"ios": "https://dc.lft.to/lastmile_qr_scan", "android": "https://dc.lft.to/lastmile_qr_scan"}}, {"name": "91740b3e93965e2b538fea2526234437", "fusion_lat": 0.0, "type": "electric_scooter", "lat": 38.90264883333333, "is_reserved": 0, "is_disabled": 0, "fusion_lon": 0.0, "bike_id": "91740b3e93965e2b538fea2526234437", "lon": -77.03862466666666, "rental_uris": {"ios": "https://dc.lft.to/lastmile_qr_scan", "android": "https://dc.lft.to/lastmile_qr_scan"}}, {"name": "f34b8be24bc9e3d551f72fbef6ec2543", "fusion_lat": 0.0, "type": "electric_scooter", "lat": 38.90983383333333, "is_reserved": 0, "is_disabled": 0, "fusion_lon": 0.0, "bike_id": "f34b8be24bc9e3d551f72fbef6ec2543", "lon": -77.03833816666666, "rental_uris": {"ios": "https://dc.lft.to/lastmile_qr_scan", "android": "https://dc.lft.to/lastmile_qr_scan"}}, {"name": "beefe4a29d7f9dae29efcf1c4f8922e3", "fusion_lat": 0.0, "type": "electric_scooter", "lat": 38.89909266666667, "is_reserved": 0, "is_disabled": 0, "fusion_lon": 0.0, "bike_id": "beefe4a29d7f9dae29efcf1c4f8922e3", "lon": -77.070984, "rental_uris": {"ios": "https://dc.lft.to/lastmile_qr_scan", "android": "https://dc.lft.to/lastmile_qr_scan"}}, {"name": "7504ecab1bd15dd105064779554fe8f5", "fusion_lat": 0.0, "type": "electric_scooter", "lat": 38.905150166666665, "is_reserved": 0, "is_disabled": 0, "fusion_lon": 0.0, "bike_id": "7504ecab1bd15dd105064779554fe8f5", "lon": -77.05114433333334, "rental_uris": {"ios": "https://dc.lft.to/lastmile_qr_scan", "android": "https://dc.lft.to/lastmile_qr_scan"}}, {"name": "d5fb12e9009f6eeb7ab9f54490ada32d", "fusion_lat": 0.0, "type": "electric_scooter", "lat": 38.911888833333336, "is_reserved": 0, "is_disabled": 0, "fusion_lon": 0.0, "bike_id": "d5fb12e9009f6eeb7ab9f54490ada32d", "lon": -77.0609105, "rental_uris": {"ios": "https://dc.lft.to/lastmile_qr_scan", "android": "https://dc.lft.to/lastmile_qr_scan"}}, {"name": "a18404cb673ebaa019dfa18e17876449", "fusion_lat": 0.0, "type": "electric_scooter", "lat": 38.889980333333334, "is_reserved": 0, "is_disabled": 0, "fusion_lon": 0.0, "bike_id": "a18404cb673ebaa019dfa18e17876449", "lon": -76.95422466666666, "rental_uris": {"ios": "https://dc.lft.to/lastmile_qr_scan", "android": "https://dc.lft.to/lastmile_qr_scan"}}, {"name": "a0b481ecdcbf5bbc0381b6414b52809c", "fusion_lat": 0.0, "type": "electric_scooter", "lat": 38.91269166666667, "is_reserved": 0, "is_disabled": 0, "fusion_lon": 0.0, "bike_id": "a0b481ecdcbf5bbc0381b6414b52809c", "lon": -77.04160183333333, "rental_uris": {"ios": "https://dc.lft.to/lastmile_qr_scan", "android": "https://dc.lft.to/lastmile_qr_scan"}}, {"name": "c574ea286e32d63d22e9a806fbaf8314", "fusion_lat": 0.0, "type": "electric_scooter", "lat": 38.902398833333336, "is_reserved": 0, "is_disabled": 0, "fusion_lon": 0.0, "bike_id": "c574ea286e32d63d22e9a806fbaf8314", "lon": -77.04345766666667, "rental_uris": {"ios": "https://dc.lft.to/lastmile_qr_scan", "android": "https://dc.lft.to/lastmile_qr_scan"}}, {"name": "2d8ebdc95f39a01119d48b8633e24f85", "fusion_lat": 0.0, "type": "electric_scooter", "lat": 38.91567533333333, "is_reserved": 0, "is_disabled": 0, "fusion_lon": 0.0, "bike_id": "2d8ebdc95f39a01119d48b8633e24f85", "lon": -77.01203383333333, "rental_uris": {"ios": "https://dc.lft.to/lastmile_qr_scan", "android": "https://dc.lft.to/lastmile_qr_scan"}}, {"name": "55368f106efdec4e42a1746d4adbf4dc", "fusion_lat": 0.0, "type": "electric_scooter", "lat": 38.91216816666667, "is_reserved": 0, "is_disabled": 0, "fusion_lon": 0.0, "bike_id": "55368f106efdec4e42a1746d4adbf4dc", "lon": -77.07594866666666, "rental_uris": {"ios": "https://dc.lft.to/lastmile_qr_scan", "android": "https://dc.lft.to/lastmile_qr_scan"}}, {"name": "03b54249f1f37bccada8f673e134661d", "fusion_lat": 0.0, "type": "electric_bike", "lat": 38.99393966666667, "is_reserved": 0, "is_disabled": 0, "fusion_lon": 0.0, "bike_id": "03b54249f1f37bccada8f673e134661d", "lon": -77.02534166666666, "rental_uris": {"ios": "https://dc.lft.to/lastmile_qr_scan", "android": "https://dc.lft.to/lastmile_qr_scan"}}, {"name": "43789e3bc8b4569616a268e540e0661a", "fusion_lat": 0.0, "type": "electric_scooter", "lat": 38.894836, "is_reserved": 0, "is_disabled": 0, "fusion_lon": 0.0, "bike_id": "43789e3bc8b4569616a268e540e0661a", "lon": -76.94871983333333, "rental_uris": {"ios": "https://dc.lft.to/lastmile_qr_scan", "android": "https://dc.lft.to/lastmile_qr_scan"}}, {"name": "1b54a74cc301dfc305691e9f5a4ebaff", "fusion_lat": 0.0, "type": "electric_scooter", "lat": 38.90538133333333, "is_reserved": 0, "is_disabled": 0, "fusion_lon": 0.0, "bike_id": "1b54a74cc301dfc305691e9f5a4ebaff", "lon": -77.062677, "rental_uris": {"ios": "https://dc.lft.to/lastmile_qr_scan", "android": "https://dc.lft.to/lastmile_qr_scan"}}, {"name": "6eda1dd3bcd3fdcf6d120196094751c3", "fusion_lat": 0.0, "type": "electric_scooter", "lat": 38.91817366666667, "is_reserved": 0, "is_disabled": 0, "fusion_lon": 0.0, "bike_id": "6eda1dd3bcd3fdcf6d120196094751c3", "lon": -77.01023866666667, "rental_uris": {"ios": "https://dc.lft.to/lastmile_qr_scan", "android": "https://dc.lft.to/lastmile_qr_scan"}}, {"name": "089ab373fac99bd5970892351c229fe1", "fusion_lat": 0.0, "type": "electric_scooter", "lat": 38.93534533333333, "is_reserved": 0, "is_disabled": 0, "fusion_lon": 0.0, "bike_id": "089ab373fac99bd5970892351c229fe1", "lon": -77.0582205, "rental_uris": {"ios": "https://dc.lft.to/lastmile_qr_scan", "android": "https://dc.lft.to/lastmile_qr_scan"}}, {"name": "a8dea98016757917512ec7f1fe1042c2", "fusion_lat": 0.0, "type": "electric_scooter", "lat": 38.90924433333333, "is_reserved": 0, "is_disabled": 0, "fusion_lon": 0.0, "bike_id": "a8dea98016757917512ec7f1fe1042c2", "lon": -77.03853066666667, "rental_uris": {"ios": "https://dc.lft.to/lastmile_qr_scan", "android": "https://dc.lft.to/lastmile_qr_scan"}}, {"name": "4949aa318efc11cf1b83f74ffdaedec0", "fusion_lat": 0.0, "type": "electric_scooter", "lat": 38.923693, "is_reserved": 0, "is_disabled": 0, "fusion_lon": 0.0, "bike_id": "4949aa318efc11cf1b83f74ffdaedec0", "lon": -77.01916183333333, "rental_uris": {"ios": "https://dc.lft.to/lastmile_qr_scan", "android": "https://dc.lft.to/lastmile_qr_scan"}}, {"name": "af9c78871980683002a049c379656462", "fusion_lat": 0.0, "type": "electric_bike", "lat": 39.03344716666667, "is_reserved": 0, "is_disabled": 0, "fusion_lon": 0.0, "bike_id": "af9c78871980683002a049c379656462", "lon": -77.04909466666666, "rental_uris": {"ios": "https://dc.lft.to/lastmile_qr_scan", "android": "https://dc.lft.to/lastmile_qr_scan"}}, {"name": "bb9a6da7185ca2a9e155f8669b9ad15d", "fusion_lat": 0.0, "type": "electric_scooter", "lat": 38.901559666666664, "is_reserved": 0, "is_disabled": 0, "fusion_lon": 0.0, "bike_id": "bb9a6da7185ca2a9e155f8669b9ad15d", "lon": -77.0540495, "rental_uris": {"ios": "https://dc.lft.to/lastmile_qr_scan", "android": "https://dc.lft.to/lastmile_qr_scan"}}, {"name": "8387bd692be079ca807d28313f55a450", "fusion_lat": 0.0, "type": "electric_scooter", "lat": 38.90268983333333, "is_reserved": 0, "is_disabled": 0, "fusion_lon": 0.0, "bike_id": "8387bd692be079ca807d28313f55a450", "lon": -77.06274033333334, "rental_uris": {"ios": "https://dc.lft.to/lastmile_qr_scan", "android": "https://dc.lft.to/lastmile_qr_scan"}}, {"name": "34c4d58e5dcfb8787d2bbc7f37a9c574", "fusion_lat": 0.0, "type": "electric_scooter", "lat": 38.91695133333333, "is_reserved": 0, "is_disabled": 0, "fusion_lon": 0.0, "bike_id": "34c4d58e5dcfb8787d2bbc7f37a9c574", "lon": -77.012623, "rental_uris": {"ios": "https://dc.lft.to/lastmile_qr_scan", "android": "https://dc.lft.to/lastmile_qr_scan"}}, {"name": "667051d747e52f30d1e4fd9ab0335337", "fusion_lat": 0.0, "type": "electric_scooter", "lat": 38.892254, "is_reserved": 0, "is_disabled": 0, "fusion_lon": 0.0, "bike_id": "667051d747e52f30d1e4fd9ab0335337", "lon": -77.0501355, "rental_uris": {"ios": "https://dc.lft.to/lastmile_qr_scan", "android": "https://dc.lft.to/lastmile_qr_scan"}}, {"name": "160020b32884b5ff22262be571c292d4", "fusion_lat": 0.0, "type": "electric_bike", "lat": 38.84273266666667, "is_reserved": 0, "is_disabled": 0, "fusion_lon": 0.0, "bike_id": "160020b32884b5ff22262be571c292d4", "lon": -76.98841983333334, "rental_uris": {"ios": "https://dc.lft.to/lastmile_qr_scan", "android": "https://dc.lft.to/lastmile_qr_scan"}}, {"name": "617530aa4c9c5bca8266cee25bd7780d", "fusion_lat": 0.0, "type": "electric_scooter", "lat": 38.9181775, "is_reserved": 0, "is_disabled": 0, "fusion_lon": 0.0, "bike_id": "617530aa4c9c5bca8266cee25bd7780d", "lon": -77.0401025, "rental_uris": {"ios": "https://dc.lft.to/lastmile_qr_scan", "android": "https://dc.lft.to/lastmile_qr_scan"}}, {"name": "4ffbb68d7e6a85d7c404d354c5b5abb4", "fusion_lat": 0.0, "type": "electric_scooter", "lat": 38.912140666666666, "is_reserved": 0, "is_disabled": 0, "fusion_lon": 0.0, "bike_id": "4ffbb68d7e6a85d7c404d354c5b5abb4", "lon": -77.03842716666666, "rental_uris": {"ios": "https://dc.lft.to/lastmile_qr_scan", "android": "https://dc.lft.to/lastmile_qr_scan"}}, {"name": "3e5c18a2ffecf920846511159f6db19a", "fusion_lat": 0.0, "type": "electric_scooter", "lat": 38.90378116666667, "is_reserved": 0, "is_disabled": 0, "fusion_lon": 0.0, "bike_id": "3e5c18a2ffecf920846511159f6db19a", "lon": -77.04901283333334, "rental_uris": {"ios": "https://dc.lft.to/lastmile_qr_scan", "android": "https://dc.lft.to/lastmile_qr_scan"}}, {"name": "3c78e7f4cd1739dddee4914ae0ff0bef", "fusion_lat": 0.0, "type": "electric_scooter", "lat": 38.91420516666667, "is_reserved": 0, "is_disabled": 0, "fusion_lon": 0.0, "bike_id": "3c78e7f4cd1739dddee4914ae0ff0bef", "lon": -77.022087, "rental_uris": {"ios": "https://dc.lft.to/lastmile_qr_scan", "android": "https://dc.lft.to/lastmile_qr_scan"}}, {"name": "904c9023b80c8496ec3046fbb5778a23", "fusion_lat": 0.0, "type": "electric_scooter", "lat": 38.91670233333333, "is_reserved": 0, "is_disabled": 0, "fusion_lon": 0.0, "bike_id": "904c9023b80c8496ec3046fbb5778a23", "lon": -77.02952166666667, "rental_uris": {"ios": "https://dc.lft.to/lastmile_qr_scan", "android": "https://dc.lft.to/lastmile_qr_scan"}}, {"name": "a3f6fd37b626c447c70d56be6d444597", "fusion_lat": 0.0, "type": "electric_scooter", "lat": 38.900282, "is_reserved": 0, "is_disabled": 0, "fusion_lon": 0.0, "bike_id": "a3f6fd37b626c447c70d56be6d444597", "lon": -77.002034, "rental_uris": {"ios": "https://dc.lft.to/lastmile_qr_scan", "android": "https://dc.lft.to/lastmile_qr_scan"}}, {"name": "58754c71a27cbdb0b1f65dcb267b16c0", "fusion_lat": 0.0, "type": "electric_scooter", "lat": 38.8789495, "is_reserved": 0, "is_disabled": 0, "fusion_lon": 0.0, "bike_id": "58754c71a27cbdb0b1f65dcb267b16c0", "lon": -77.00562383333333, "rental_uris": {"ios": "https://dc.lft.to/lastmile_qr_scan", "android": "https://dc.lft.to/lastmile_qr_scan"}}, {"name": "9f9581a2d482a7d03fd8898da494d681", "fusion_lat": 0.0, "type": "electric_scooter", "lat": 38.94559066666667, "is_reserved": 0, "is_disabled": 0, "fusion_lon": 0.0, "bike_id": "9f9581a2d482a7d03fd8898da494d681", "lon": -77.07772916666667, "rental_uris": {"ios": "https://dc.lft.to/lastmile_qr_scan", "android": "https://dc.lft.to/lastmile_qr_scan"}}, {"name": "286bd09e75249e59f058df91f2980974", "fusion_lat": 0.0, "type": "electric_scooter", "lat": 38.906443, "is_reserved": 0, "is_disabled": 0, "fusion_lon": 0.0, "bike_id": "286bd09e75249e59f058df91f2980974", "lon": -77.04135283333333, "rental_uris": {"ios": "https://dc.lft.to/lastmile_qr_scan", "android": "https://dc.lft.to/lastmile_qr_scan"}}, {"name": "14512dfb3ad51c6927eca64792ad7b25", "fusion_lat": 0.0, "type": "electric_scooter", "lat": 38.901339666666665, "is_reserved": 0, "is_disabled": 0, "fusion_lon": 0.0, "bike_id": "14512dfb3ad51c6927eca64792ad7b25", "lon": -76.98957, "rental_uris": {"ios": "https://dc.lft.to/lastmile_qr_scan", "android": "https://dc.lft.to/lastmile_qr_scan"}}, {"name": "0bd152ab91331875d24f04b4396a7105", "fusion_lat": 0.0, "type": "electric_scooter", "lat": 38.9213485, "is_reserved": 0, "is_disabled": 0, "fusion_lon": 0.0, "bike_id": "0bd152ab91331875d24f04b4396a7105", "lon": -77.02423416666667, "rental_uris": {"ios": "https://dc.lft.to/lastmile_qr_scan", "android": "https://dc.lft.to/lastmile_qr_scan"}}, {"name": "38618ca80bea5b3b00add187ec330182", "fusion_lat": 0.0, "type": "electric_scooter", "lat": 38.877531166666664, "is_reserved": 0, "is_disabled": 0, "fusion_lon": 0.0, "bike_id": "38618ca80bea5b3b00add187ec330182", "lon": -77.01995083333334, "rental_uris": {"ios": "https://dc.lft.to/lastmile_qr_scan", "android": "https://dc.lft.to/lastmile_qr_scan"}}, {"name": "2527c8da601f64228ff8b6fc160d7b57", "fusion_lat": 0.0, "type": "electric_scooter", "lat": 38.9012585, "is_reserved": 0, "is_disabled": 0, "fusion_lon": 0.0, "bike_id": "2527c8da601f64228ff8b6fc160d7b57", "lon": -77.0499125, "rental_uris": {"ios": "https://dc.lft.to/lastmile_qr_scan", "android": "https://dc.lft.to/lastmile_qr_scan"}}, {"name": "c60134e347fcf4008d2e0644fb805c80", "fusion_lat": 0.0, "type": "electric_scooter", "lat": 38.9275625, "is_reserved": 0, "is_disabled": 0, "fusion_lon": 0.0, "bike_id": "c60134e347fcf4008d2e0644fb805c80", "lon": -77.032736, "rental_uris": {"ios": "https://dc.lft.to/lastmile_qr_scan", "android": "https://dc.lft.to/lastmile_qr_scan"}}, {"name": "e3bace87bf1278bdeec398ad7985f8c4", "fusion_lat": 0.0, "type": "electric_scooter", "lat": 38.912695, "is_reserved": 0, "is_disabled": 0, "fusion_lon": 0.0, "bike_id": "e3bace87bf1278bdeec398ad7985f8c4", "lon": -77.04159166666666, "rental_uris": {"ios": "https://dc.lft.to/lastmile_qr_scan", "android": "https://dc.lft.to/lastmile_qr_scan"}}, {"name": "9b884e2871bf2cc65a225a2fc374ae1b", "fusion_lat": 0.0, "type": "electric_scooter", "lat": 38.9095805, "is_reserved": 0, "is_disabled": 0, "fusion_lon": 0.0, "bike_id": "9b884e2871bf2cc65a225a2fc374ae1b", "lon": -77.04601766666667, "rental_uris": {"ios": "https://dc.lft.to/lastmile_qr_scan", "android": "https://dc.lft.to/lastmile_qr_scan"}}, {"name": "d83adb857e6756c40a6a256f655423b5", "fusion_lat": 0.0, "type": "electric_scooter", "lat": 38.90579833333334, "is_reserved": 0, "is_disabled": 0, "fusion_lon": 0.0, "bike_id": "d83adb857e6756c40a6a256f655423b5", "lon": -77.04866933333334, "rental_uris": {"ios": "https://dc.lft.to/lastmile_qr_scan", "android": "https://dc.lft.to/lastmile_qr_scan"}}, {"name": "b96e4aca91f99972c4fcb3cf049e9784", "fusion_lat": 0.0, "type": "electric_bike", "lat": 38.838275833333334, "is_reserved": 0, "is_disabled": 0, "fusion_lon": 0.0, "bike_id": "b96e4aca91f99972c4fcb3cf049e9784", "lon": -76.99685216666667, "rental_uris": {"ios": "https://dc.lft.to/lastmile_qr_scan", "android": "https://dc.lft.to/lastmile_qr_scan"}}, {"name": "3a18e53a7f88951fa41e596dc0499d3f", "fusion_lat": 0.0, "type": "electric_bike", "lat": 38.79982416666667, "is_reserved": 0, "is_disabled": 0, "fusion_lon": 0.0, "bike_id": "3a18e53a7f88951fa41e596dc0499d3f", "lon": -77.12982266666667, "rental_uris": {"ios": "https://dc.lft.to/lastmile_qr_scan", "android": "https://dc.lft.to/lastmile_qr_scan"}}, {"name": "c22ae8a790f2e7569137eb24ad3beda2", "fusion_lat": 0.0, "type": "electric_scooter", "lat": 38.911526333333335, "is_reserved": 0, "is_disabled": 0, "fusion_lon": 0.0, "bike_id": "c22ae8a790f2e7569137eb24ad3beda2", "lon": -77.04430766666667, "rental_uris": {"ios": "https://dc.lft.to/lastmile_qr_scan", "android": "https://dc.lft.to/lastmile_qr_scan"}}, {"name": "01d7d2c16a3b333d739e1800952f72cb", "fusion_lat": 0.0, "type": "electric_scooter", "lat": 38.90727583333333, "is_reserved": 0, "is_disabled": 0, "fusion_lon": 0.0, "bike_id": "01d7d2c16a3b333d739e1800952f72cb", "lon": -77.03205333333334, "rental_uris": {"ios": "https://dc.lft.to/lastmile_qr_scan", "android": "https://dc.lft.to/lastmile_qr_scan"}}, {"name": "99a8036134df6c5933b9de1d9b3115ab", "fusion_lat": 0.0, "type": "electric_scooter", "lat": 38.8868625, "is_reserved": 0, "is_disabled": 0, "fusion_lon": 0.0, "bike_id": "99a8036134df6c5933b9de1d9b3115ab", "lon": -76.95762766666667, "rental_uris": {"ios": "https://dc.lft.to/lastmile_qr_scan", "android": "https://dc.lft.to/lastmile_qr_scan"}}, {"name": "2bda4f15e337852862a70b001ec048d8", "fusion_lat": 0.0, "type": "electric_scooter", "lat": 38.868890666666665, "is_reserved": 0, "is_disabled": 0, "fusion_lon": 0.0, "bike_id": "2bda4f15e337852862a70b001ec048d8", "lon": -76.98310616666667, "rental_uris": {"ios": "https://dc.lft.to/lastmile_qr_scan", "android": "https://dc.lft.to/lastmile_qr_scan"}}, {"name": "364e719effdd2917b23709f65daea26e", "fusion_lat": 0.0, "type": "electric_scooter", "lat": 38.9048595, "is_reserved": 0, "is_disabled": 0, "fusion_lon": 0.0, "bike_id": "364e719effdd2917b23709f65daea26e", "lon": -77.06536483333333, "rental_uris": {"ios": "https://dc.lft.to/lastmile_qr_scan", "android": "https://dc.lft.to/lastmile_qr_scan"}}, {"name": "2a558582edf3db8450156fd4bd5934fb", "fusion_lat": 0.0, "type": "electric_scooter", "lat": 38.94172433333333, "is_reserved": 0, "is_disabled": 0, "fusion_lon": 0.0, "bike_id": "2a558582edf3db8450156fd4bd5934fb", "lon": -77.0251225, "rental_uris": {"ios": "https://dc.lft.to/lastmile_qr_scan", "android": "https://dc.lft.to/lastmile_qr_scan"}}, {"name": "b32f9cdcc60e0aa92a39a7828b9c805a", "fusion_lat": 0.0, "type": "electric_scooter", "lat": 38.89485883333333, "is_reserved": 0, "is_disabled": 0, "fusion_lon": 0.0, "bike_id": "b32f9cdcc60e0aa92a39a7828b9c805a", "lon": -77.01984266666666, "rental_uris": {"ios": "https://dc.lft.to/lastmile_qr_scan", "android": "https://dc.lft.to/lastmile_qr_scan"}}, {"name": "a1503f079cd924fe9fc52fe072e3b39a", "fusion_lat": 0.0, "type": "electric_scooter", "lat": 38.85848566666667, "is_reserved": 0, "is_disabled": 0, "fusion_lon": 0.0, "bike_id": "a1503f079cd924fe9fc52fe072e3b39a", "lon": -76.95888533333333, "rental_uris": {"ios": "https://dc.lft.to/lastmile_qr_scan", "android": "https://dc.lft.to/lastmile_qr_scan"}}, {"name": "7b97f8ee9ac0cb17a3632c9806c51c8b", "fusion_lat": 0.0, "type": "electric_scooter", "lat": 38.917072833333336, "is_reserved": 0, "is_disabled": 0, "fusion_lon": 0.0, "bike_id": "7b97f8ee9ac0cb17a3632c9806c51c8b", "lon": -77.02783066666667, "rental_uris": {"ios": "https://dc.lft.to/lastmile_qr_scan", "android": "https://dc.lft.to/lastmile_qr_scan"}}, {"name": "d431da02c0615490a276bb4f3c25e176", "fusion_lat": 0.0, "type": "electric_scooter", "lat": 38.920436, "is_reserved": 0, "is_disabled": 0, "fusion_lon": 0.0, "bike_id": "d431da02c0615490a276bb4f3c25e176", "lon": -77.0383685, "rental_uris": {"ios": "https://dc.lft.to/lastmile_qr_scan", "android": "https://dc.lft.to/lastmile_qr_scan"}}, {"name": "ca3a5e2170742e69d0ab9eae44c52f02", "fusion_lat": 0.0, "type": "electric_scooter", "lat": 38.92164616666667, "is_reserved": 0, "is_disabled": 0, "fusion_lon": 0.0, "bike_id": "ca3a5e2170742e69d0ab9eae44c52f02", "lon": -76.99404216666667, "rental_uris": {"ios": "https://dc.lft.to/lastmile_qr_scan", "android": "https://dc.lft.to/lastmile_qr_scan"}}, {"name": "1fd6e0b6e835da42117494fae1d215e4", "fusion_lat": 0.0, "type": "electric_scooter", "lat": 38.90570233333333, "is_reserved": 0, "is_disabled": 0, "fusion_lon": 0.0, "bike_id": "1fd6e0b6e835da42117494fae1d215e4", "lon": -77.003956, "rental_uris": {"ios": "https://dc.lft.to/lastmile_qr_scan", "android": "https://dc.lft.to/lastmile_qr_scan"}}, {"name": "785512ba607aac599bc8e1bb0f3a682a", "fusion_lat": 0.0, "type": "electric_scooter", "lat": 38.920188, "is_reserved": 0, "is_disabled": 0, "fusion_lon": 0.0, "bike_id": "785512ba607aac599bc8e1bb0f3a682a", "lon": -77.034706, "rental_uris": {"ios": "https://dc.lft.to/lastmile_qr_scan", "android": "https://dc.lft.to/lastmile_qr_scan"}}, {"name": "6512df2e73033dc3c91dad3d93c98f67", "fusion_lat": 0.0, "type": "electric_scooter", "lat": 38.932578666666664, "is_reserved": 0, "is_disabled": 0, "fusion_lon": 0.0, "bike_id": "6512df2e73033dc3c91dad3d93c98f67", "lon": -77.0284055, "rental_uris": {"ios": "https://dc.lft.to/lastmile_qr_scan", "android": "https://dc.lft.to/lastmile_qr_scan"}}, {"name": "a7443cddf84beacfc4fc325981b920f9", "fusion_lat": 0.0, "type": "electric_scooter", "lat": 38.89609316666667, "is_reserved": 0, "is_disabled": 0, "fusion_lon": 0.0, "bike_id": "a7443cddf84beacfc4fc325981b920f9", "lon": -77.04688166666666, "rental_uris": {"ios": "https://dc.lft.to/lastmile_qr_scan", "android": "https://dc.lft.to/lastmile_qr_scan"}}, {"name": "ee32778d5fd0b325bf34581bff83e8d5", "fusion_lat": 0.0, "type": "electric_scooter", "lat": 38.9617605, "is_reserved": 0, "is_disabled": 0, "fusion_lon": 0.0, "bike_id": "ee32778d5fd0b325bf34581bff83e8d5", "lon": -77.03229383333333, "rental_uris": {"ios": "https://dc.lft.to/lastmile_qr_scan", "android": "https://dc.lft.to/lastmile_qr_scan"}}, {"name": "79d10dc0be40b223981acf8c7a12b14c", "fusion_lat": 0.0, "type": "electric_scooter", "lat": 38.93188383333333, "is_reserved": 0, "is_disabled": 0, "fusion_lon": 0.0, "bike_id": "79d10dc0be40b223981acf8c7a12b14c", "lon": -77.0283485, "rental_uris": {"ios": "https://dc.lft.to/lastmile_qr_scan", "android": "https://dc.lft.to/lastmile_qr_scan"}}, {"name": "1533d6e10026f21c74e403e6f35427c9", "fusion_lat": 0.0, "type": "electric_scooter", "lat": 38.9022845, "is_reserved": 0, "is_disabled": 0, "fusion_lon": 0.0, "bike_id": "1533d6e10026f21c74e403e6f35427c9", "lon": -77.04623033333333, "rental_uris": {"ios": "https://dc.lft.to/lastmile_qr_scan", "android": "https://dc.lft.to/lastmile_qr_scan"}}, {"name": "6c322fb2888cd8654e8ee7421ca20c63", "fusion_lat": 0.0, "type": "electric_scooter", "lat": 38.918125333333336, "is_reserved": 0, "is_disabled": 0, "fusion_lon": 0.0, "bike_id": "6c322fb2888cd8654e8ee7421ca20c63", "lon": -77.0400275, "rental_uris": {"ios": "https://dc.lft.to/lastmile_qr_scan", "android": "https://dc.lft.to/lastmile_qr_scan"}}, {"name": "9c50c1c3ceede779aba69fd549a01dd0", "fusion_lat": 0.0, "type": "electric_scooter", "lat": 38.896529666666666, "is_reserved": 0, "is_disabled": 0, "fusion_lon": 0.0, "bike_id": "9c50c1c3ceede779aba69fd549a01dd0", "lon": -77.05039133333334, "rental_uris": {"ios": "https://dc.lft.to/lastmile_qr_scan", "android": "https://dc.lft.to/lastmile_qr_scan"}}, {"name": "9b74aa578dc98bdf3c622656d0ca071e", "fusion_lat": 0.0, "type": "electric_bike", "lat": 38.8506, "is_reserved": 0, "is_disabled": 0, "fusion_lon": 0.0, "bike_id": "9b74aa578dc98bdf3c622656d0ca071e", "lon": -76.9732995, "rental_uris": {"ios": "https://dc.lft.to/lastmile_qr_scan", "android": "https://dc.lft.to/lastmile_qr_scan"}}, {"name": "5c86ad16d12d6a339c30e0d17004d2c8", "fusion_lat": 0.0, "type": "electric_scooter", "lat": 38.923853666666666, "is_reserved": 0, "is_disabled": 0, "fusion_lon": 0.0, "bike_id": "5c86ad16d12d6a339c30e0d17004d2c8", "lon": -77.029754, "rental_uris": {"ios": "https://dc.lft.to/lastmile_qr_scan", "android": "https://dc.lft.to/lastmile_qr_scan"}}, {"name": "36f59b21fcfee6e8da77155b2efdc7b5", "fusion_lat": 0.0, "type": "electric_scooter", "lat": 38.86414083333333, "is_reserved": 0, "is_disabled": 0, "fusion_lon": 0.0, "bike_id": "36f59b21fcfee6e8da77155b2efdc7b5", "lon": -76.98049166666667, "rental_uris": {"ios": "https://dc.lft.to/lastmile_qr_scan", "android": "https://dc.lft.to/lastmile_qr_scan"}}, {"name": "ff0dcdc4d67daea864ae3049cdf4c518", "fusion_lat": 0.0, "type": "electric_scooter", "lat": 38.907422333333336, "is_reserved": 0, "is_disabled": 0, "fusion_lon": 0.0, "bike_id": "ff0dcdc4d67daea864ae3049cdf4c518", "lon": -76.983355, "rental_uris": {"ios": "https://dc.lft.to/lastmile_qr_scan", "android": "https://dc.lft.to/lastmile_qr_scan"}}, {"name": "6803b288be1270f14375fd4f67737eae", "fusion_lat": 0.0, "type": "electric_scooter", "lat": 38.885157166666666, "is_reserved": 0, "is_disabled": 0, "fusion_lon": 0.0, "bike_id": "6803b288be1270f14375fd4f67737eae", "lon": -77.003396, "rental_uris": {"ios": "https://dc.lft.to/lastmile_qr_scan", "android": "https://dc.lft.to/lastmile_qr_scan"}}, {"name": "8f44f0a7f4cc04b8d0f8e630f69ef7f1", "fusion_lat": 0.0, "type": "electric_scooter", "lat": 38.8681495, "is_reserved": 0, "is_disabled": 0, "fusion_lon": 0.0, "bike_id": "8f44f0a7f4cc04b8d0f8e630f69ef7f1", "lon": -76.98619216666667, "rental_uris": {"ios": "https://dc.lft.to/lastmile_qr_scan", "android": "https://dc.lft.to/lastmile_qr_scan"}}, {"name": "be2e1295703fdc80d3d290c364e543c4", "fusion_lat": 0.0, "type": "electric_scooter", "lat": 38.930029833333336, "is_reserved": 0, "is_disabled": 0, "fusion_lon": 0.0, "bike_id": "be2e1295703fdc80d3d290c364e543c4", "lon": -77.02306433333334, "rental_uris": {"ios": "https://dc.lft.to/lastmile_qr_scan", "android": "https://dc.lft.to/lastmile_qr_scan"}}, {"name": "edf3ca6fbe1c1ad58db0d6098356919d", "fusion_lat": 0.0, "type": "electric_scooter", "lat": 38.900342, "is_reserved": 0, "is_disabled": 0, "fusion_lon": 0.0, "bike_id": "edf3ca6fbe1c1ad58db0d6098356919d", "lon": -77.00192516666667, "rental_uris": {"ios": "https://dc.lft.to/lastmile_qr_scan", "android": "https://dc.lft.to/lastmile_qr_scan"}}, {"name": "d76a8723eff1cce5665ed7d21bcbc225", "fusion_lat": 0.0, "type": "electric_scooter", "lat": 38.91211416666667, "is_reserved": 0, "is_disabled": 0, "fusion_lon": 0.0, "bike_id": "d76a8723eff1cce5665ed7d21bcbc225", "lon": -77.03845783333334, "rental_uris": {"ios": "https://dc.lft.to/lastmile_qr_scan", "android": "https://dc.lft.to/lastmile_qr_scan"}}, {"name": "c84c1877f69d0b893a24f2924a4c56c9", "fusion_lat": 0.0, "type": "electric_scooter", "lat": 38.898252, "is_reserved": 0, "is_disabled": 0, "fusion_lon": 0.0, "bike_id": "c84c1877f69d0b893a24f2924a4c56c9", "lon": -77.0294425, "rental_uris": {"ios": "https://dc.lft.to/lastmile_qr_scan", "android": "https://dc.lft.to/lastmile_qr_scan"}}, {"name": "926e2e8e8f5378b0614a92af67aa8feb", "fusion_lat": 0.0, "type": "electric_scooter", "lat": 38.89052433333333, "is_reserved": 0, "is_disabled": 0, "fusion_lon": 0.0, "bike_id": "926e2e8e8f5378b0614a92af67aa8feb", "lon": -76.93758866666667, "rental_uris": {"ios": "https://dc.lft.to/lastmile_qr_scan", "android": "https://dc.lft.to/lastmile_qr_scan"}}, {"name": "116ac56d57aa49ab18cd6c423c28626a", "fusion_lat": 0.0, "type": "electric_bike", "lat": 38.896351333333335, "is_reserved": 0, "is_disabled": 0, "fusion_lon": 0.0, "bike_id": "116ac56d57aa49ab18cd6c423c28626a", "lon": -77.10457066666666, "rental_uris": {"ios": "https://dc.lft.to/lastmile_qr_scan", "android": "https://dc.lft.to/lastmile_qr_scan"}}, {"name": "097ce6bf0d92bd325142c3f6404d23bd", "fusion_lat": 0.0, "type": "electric_scooter", "lat": 38.923391, "is_reserved": 0, "is_disabled": 0, "fusion_lon": 0.0, "bike_id": "097ce6bf0d92bd325142c3f6404d23bd", "lon": -77.03212533333334, "rental_uris": {"ios": "https://dc.lft.to/lastmile_qr_scan", "android": "https://dc.lft.to/lastmile_qr_scan"}}, {"name": "123b8c5d460fd8bcf0932a601bb16d6a", "fusion_lat": 0.0, "type": "electric_scooter", "lat": 38.94172483333333, "is_reserved": 0, "is_disabled": 0, "fusion_lon": 0.0, "bike_id": "123b8c5d460fd8bcf0932a601bb16d6a", "lon": -77.02513683333333, "rental_uris": {"ios": "https://dc.lft.to/lastmile_qr_scan", "android": "https://dc.lft.to/lastmile_qr_scan"}}, {"name": "7e127298ac60f14784e478511bd16c2d", "fusion_lat": 0.0, "type": "electric_bike", "lat": 38.89609133333333, "is_reserved": 0, "is_disabled": 0, "fusion_lon": 0.0, "bike_id": "7e127298ac60f14784e478511bd16c2d", "lon": -76.9884665, "rental_uris": {"ios": "https://dc.lft.to/lastmile_qr_scan", "android": "https://dc.lft.to/lastmile_qr_scan"}}, {"name": "008757b7420b736085a676994634518b", "fusion_lat": 0.0, "type": "electric_scooter", "lat": 38.92578566666667, "is_reserved": 0, "is_disabled": 0, "fusion_lon": 0.0, "bike_id": "008757b7420b736085a676994634518b", "lon": -76.99496316666666, "rental_uris": {"ios": "https://dc.lft.to/lastmile_qr_scan", "android": "https://dc.lft.to/lastmile_qr_scan"}}, {"name": "7ba2313a3ee9a608aadb58a4455d92f1", "fusion_lat": 0.0, "type": "electric_bike", "lat": 38.90627633333333, "is_reserved": 0, "is_disabled": 0, "fusion_lon": 0.0, "bike_id": "7ba2313a3ee9a608aadb58a4455d92f1", "lon": -77.04333983333333, "rental_uris": {"ios": "https://dc.lft.to/lastmile_qr_scan", "android": "https://dc.lft.to/lastmile_qr_scan"}}, {"name": "205ed3e62049a03abe64da856d91cffe", "fusion_lat": 0.0, "type": "electric_bike", "lat": 38.9601175, "is_reserved": 0, "is_disabled": 0, "fusion_lon": 0.0, "bike_id": "205ed3e62049a03abe64da856d91cffe", "lon": -76.9987295, "rental_uris": {"ios": "https://dc.lft.to/lastmile_qr_scan", "android": "https://dc.lft.to/lastmile_qr_scan"}}, {"name": "21933ae4ef053ee891645eebe19cd72f", "fusion_lat": 0.0, "type": "electric_scooter", "lat": 38.8973405, "is_reserved": 0, "is_disabled": 0, "fusion_lon": 0.0, "bike_id": "21933ae4ef053ee891645eebe19cd72f", "lon": -77.02168783333333, "rental_uris": {"ios": "https://dc.lft.to/lastmile_qr_scan", "android": "https://dc.lft.to/lastmile_qr_scan"}}, {"name": "73a48da9dc0fa177afc4379192c88c70", "fusion_lat": 0.0, "type": "electric_scooter", "lat": 38.905592166666665, "is_reserved": 0, "is_disabled": 0, "fusion_lon": 0.0, "bike_id": "73a48da9dc0fa177afc4379192c88c70", "lon": -77.04874466666666, "rental_uris": {"ios": "https://dc.lft.to/lastmile_qr_scan", "android": "https://dc.lft.to/lastmile_qr_scan"}}, {"name": "56cbdc0b583f4c27fb1d78703926d59b", "fusion_lat": 0.0, "type": "electric_scooter", "lat": 38.925487833333335, "is_reserved": 0, "is_disabled": 0, "fusion_lon": 0.0, "bike_id": "56cbdc0b583f4c27fb1d78703926d59b", "lon": -77.03222516666666, "rental_uris": {"ios": "https://dc.lft.to/lastmile_qr_scan", "android": "https://dc.lft.to/lastmile_qr_scan"}}, {"name": "d2fe1a099ad8d75066cddb1411c8ef8c", "fusion_lat": 0.0, "type": "electric_scooter", "lat": 38.86155816666667, "is_reserved": 0, "is_disabled": 0, "fusion_lon": 0.0, "bike_id": "d2fe1a099ad8d75066cddb1411c8ef8c", "lon": -76.98904566666667, "rental_uris": {"ios": "https://dc.lft.to/lastmile_qr_scan", "android": "https://dc.lft.to/lastmile_qr_scan"}}, {"name": "7c44bc91d3eca0b8d3190e3d18f1e672", "fusion_lat": 0.0, "type": "electric_scooter", "lat": 38.93872483333333, "is_reserved": 0, "is_disabled": 0, "fusion_lon": 0.0, "bike_id": "7c44bc91d3eca0b8d3190e3d18f1e672", "lon": -77.03264533333333, "rental_uris": {"ios": "https://dc.lft.to/lastmile_qr_scan", "android": "https://dc.lft.to/lastmile_qr_scan"}}, {"name": "b25a14b7dce87e11943444c992420419", "fusion_lat": 0.0, "type": "electric_scooter", "lat": 38.919171166666665, "is_reserved": 0, "is_disabled": 0, "fusion_lon": 0.0, "bike_id": "b25a14b7dce87e11943444c992420419", "lon": -77.03624566666667, "rental_uris": {"ios": "https://dc.lft.to/lastmile_qr_scan", "android": "https://dc.lft.to/lastmile_qr_scan"}}, {"name": "e593603dd018ca042e663f0ae1494818", "fusion_lat": 0.0, "type": "electric_scooter", "lat": 38.91616766666667, "is_reserved": 0, "is_disabled": 0, "fusion_lon": 0.0, "bike_id": "e593603dd018ca042e663f0ae1494818", "lon": -77.04616866666667, "rental_uris": {"ios": "https://dc.lft.to/lastmile_qr_scan", "android": "https://dc.lft.to/lastmile_qr_scan"}}, {"name": "c3a8624bb178074be96691b00ce21998", "fusion_lat": 0.0, "type": "electric_scooter", "lat": 38.88026633333333, "is_reserved": 0, "is_disabled": 0, "fusion_lon": 0.0, "bike_id": "c3a8624bb178074be96691b00ce21998", "lon": -77.0250135, "rental_uris": {"ios": "https://dc.lft.to/lastmile_qr_scan", "android": "https://dc.lft.to/lastmile_qr_scan"}}, {"name": "9eb6ae909be0596cc0ca5f8eeffba00a", "fusion_lat": 0.0, "type": "electric_scooter", "lat": 38.9097845, "is_reserved": 0, "is_disabled": 0, "fusion_lon": 0.0, "bike_id": "9eb6ae909be0596cc0ca5f8eeffba00a", "lon": -77.04875816666667, "rental_uris": {"ios": "https://dc.lft.to/lastmile_qr_scan", "android": "https://dc.lft.to/lastmile_qr_scan"}}, {"name": "e591ae64359d231da06d4e0ab29764db", "fusion_lat": 0.0, "type": "electric_scooter", "lat": 38.928239166666664, "is_reserved": 0, "is_disabled": 0, "fusion_lon": 0.0, "bike_id": "e591ae64359d231da06d4e0ab29764db", "lon": -77.02260566666666, "rental_uris": {"ios": "https://dc.lft.to/lastmile_qr_scan", "android": "https://dc.lft.to/lastmile_qr_scan"}}, {"name": "f288a580a7b9206cf4842d8a6b67d4c6", "fusion_lat": 0.0, "type": "electric_scooter", "lat": 38.93470166666667, "is_reserved": 0, "is_disabled": 0, "fusion_lon": 0.0, "bike_id": "f288a580a7b9206cf4842d8a6b67d4c6", "lon": -77.03530983333333, "rental_uris": {"ios": "https://dc.lft.to/lastmile_qr_scan", "android": "https://dc.lft.to/lastmile_qr_scan"}}, {"name": "8ec33302a9c6b0e2c62c173f56a19aa1", "fusion_lat": 0.0, "type": "electric_scooter", "lat": 38.96229533333333, "is_reserved": 0, "is_disabled": 0, "fusion_lon": 0.0, "bike_id": "8ec33302a9c6b0e2c62c173f56a19aa1", "lon": -77.02977016666667, "rental_uris": {"ios": "https://dc.lft.to/lastmile_qr_scan", "android": "https://dc.lft.to/lastmile_qr_scan"}}, {"name": "93bf5dfc21f0733279d6994630713712", "fusion_lat": 0.0, "type": "electric_scooter", "lat": 38.882292666666665, "is_reserved": 0, "is_disabled": 0, "fusion_lon": 0.0, "bike_id": "93bf5dfc21f0733279d6994630713712", "lon": -77.02582866666667, "rental_uris": {"ios": "https://dc.lft.to/lastmile_qr_scan", "android": "https://dc.lft.to/lastmile_qr_scan"}}, {"name": "6ba7523eb1176c18bb96c1b9aca28340", "fusion_lat": 0.0, "type": "electric_scooter", "lat": 38.922324, "is_reserved": 0, "is_disabled": 0, "fusion_lon": 0.0, "bike_id": "6ba7523eb1176c18bb96c1b9aca28340", "lon": -77.04708966666666, "rental_uris": {"ios": "https://dc.lft.to/lastmile_qr_scan", "android": "https://dc.lft.to/lastmile_qr_scan"}}, {"name": "88962f505af976a973062af6f398e54f", "fusion_lat": 0.0, "type": "electric_scooter", "lat": 38.9342725, "is_reserved": 0, "is_disabled": 0, "fusion_lon": 0.0, "bike_id": "88962f505af976a973062af6f398e54f", "lon": -77.0400455, "rental_uris": {"ios": "https://dc.lft.to/lastmile_qr_scan", "android": "https://dc.lft.to/lastmile_qr_scan"}}, {"name": "b831847a7b6ec95823d3459d30ab3c88", "fusion_lat": 0.0, "type": "electric_scooter", "lat": 38.935894, "is_reserved": 0, "is_disabled": 0, "fusion_lon": 0.0, "bike_id": "b831847a7b6ec95823d3459d30ab3c88", "lon": -76.99117416666667, "rental_uris": {"ios": "https://dc.lft.to/lastmile_qr_scan", "android": "https://dc.lft.to/lastmile_qr_scan"}}, {"name": "34ab991be89e01cee229393578233d31", "fusion_lat": 0.0, "type": "electric_scooter", "lat": 38.918160666666665, "is_reserved": 0, "is_disabled": 0, "fusion_lon": 0.0, "bike_id": "34ab991be89e01cee229393578233d31", "lon": -77.03213616666666, "rental_uris": {"ios": "https://dc.lft.to/lastmile_qr_scan", "android": "https://dc.lft.to/lastmile_qr_scan"}}, {"name": "616fa9083998cc0c90585f91d31d7da7", "fusion_lat": 0.0, "type": "electric_scooter", "lat": 38.912633, "is_reserved": 0, "is_disabled": 0, "fusion_lon": 0.0, "bike_id": "616fa9083998cc0c90585f91d31d7da7", "lon": -77.03874283333333, "rental_uris": {"ios": "https://dc.lft.to/lastmile_qr_scan", "android": "https://dc.lft.to/lastmile_qr_scan"}}, {"name": "62d2763b90cdeb8b0c38fd4d4755a0fe", "fusion_lat": 0.0, "type": "electric_scooter", "lat": 38.903986, "is_reserved": 0, "is_disabled": 0, "fusion_lon": 0.0, "bike_id": "62d2763b90cdeb8b0c38fd4d4755a0fe", "lon": -77.06420533333333, "rental_uris": {"ios": "https://dc.lft.to/lastmile_qr_scan", "android": "https://dc.lft.to/lastmile_qr_scan"}}, {"name": "81d7d406e62832bf44c27d2f5241fadb", "fusion_lat": 0.0, "type": "electric_scooter", "lat": 38.932659666666666, "is_reserved": 0, "is_disabled": 0, "fusion_lon": 0.0, "bike_id": "81d7d406e62832bf44c27d2f5241fadb", "lon": -77.03904066666666, "rental_uris": {"ios": "https://dc.lft.to/lastmile_qr_scan", "android": "https://dc.lft.to/lastmile_qr_scan"}}, {"name": "97103b9964dba100730b9a6315af4741", "fusion_lat": 0.0, "type": "electric_scooter", "lat": 38.906985, "is_reserved": 0, "is_disabled": 0, "fusion_lon": 0.0, "bike_id": "97103b9964dba100730b9a6315af4741", "lon": -77.02408983333333, "rental_uris": {"ios": "https://dc.lft.to/lastmile_qr_scan", "android": "https://dc.lft.to/lastmile_qr_scan"}}, {"name": "72346d9771be3af9d988cc770f2f8e71", "fusion_lat": 0.0, "type": "electric_scooter", "lat": 38.93612866666667, "is_reserved": 0, "is_disabled": 0, "fusion_lon": 0.0, "bike_id": "72346d9771be3af9d988cc770f2f8e71", "lon": -77.032125, "rental_uris": {"ios": "https://dc.lft.to/lastmile_qr_scan", "android": "https://dc.lft.to/lastmile_qr_scan"}}, {"name": "506f9f38d832a80c2a528c34db5747c2", "fusion_lat": 0.0, "type": "electric_scooter", "lat": 38.91169816666667, "is_reserved": 0, "is_disabled": 0, "fusion_lon": 0.0, "bike_id": "506f9f38d832a80c2a528c34db5747c2", "lon": -77.01126566666667, "rental_uris": {"ios": "https://dc.lft.to/lastmile_qr_scan", "android": "https://dc.lft.to/lastmile_qr_scan"}}, {"name": "676813017b6b260a4b2a60f87de7db2a", "fusion_lat": 0.0, "type": "electric_scooter", "lat": 38.8876495, "is_reserved": 0, "is_disabled": 0, "fusion_lon": 0.0, "bike_id": "676813017b6b260a4b2a60f87de7db2a", "lon": -76.95603166666666, "rental_uris": {"ios": "https://dc.lft.to/lastmile_qr_scan", "android": "https://dc.lft.to/lastmile_qr_scan"}}, {"name": "5d7959c6219dc0747a20329cd63ae7dd", "fusion_lat": 0.0, "type": "electric_bike", "lat": 38.951820166666664, "is_reserved": 0, "is_disabled": 0, "fusion_lon": 0.0, "bike_id": "5d7959c6219dc0747a20329cd63ae7dd", "lon": -76.9354535, "rental_uris": {"ios": "https://dc.lft.to/lastmile_qr_scan", "android": "https://dc.lft.to/lastmile_qr_scan"}}, {"name": "165d2079ec5dd216f43f9d1b9bc5367e", "fusion_lat": 0.0, "type": "electric_bike", "lat": 38.99991966666666, "is_reserved": 0, "is_disabled": 0, "fusion_lon": 0.0, "bike_id": "165d2079ec5dd216f43f9d1b9bc5367e", "lon": -76.99524616666666, "rental_uris": {"ios": "https://dc.lft.to/lastmile_qr_scan", "android": "https://dc.lft.to/lastmile_qr_scan"}}, {"name": "c03ee3ddc7945cabaebdb4ec782ea5b7", "fusion_lat": 0.0, "type": "electric_scooter", "lat": 38.90396583333333, "is_reserved": 0, "is_disabled": 0, "fusion_lon": 0.0, "bike_id": "c03ee3ddc7945cabaebdb4ec782ea5b7", "lon": -77.04824516666666, "rental_uris": {"ios": "https://dc.lft.to/lastmile_qr_scan", "android": "https://dc.lft.to/lastmile_qr_scan"}}, {"name": "9b472c83b7bfeefb3c8870c08a861fbc", "fusion_lat": 0.0, "type": "electric_scooter", "lat": 38.908696166666665, "is_reserved": 0, "is_disabled": 0, "fusion_lon": 0.0, "bike_id": "9b472c83b7bfeefb3c8870c08a861fbc", "lon": -77.0238665, "rental_uris": {"ios": "https://dc.lft.to/lastmile_qr_scan", "android": "https://dc.lft.to/lastmile_qr_scan"}}, {"name": "cdb732ce8ef4cab24381e08a2d3e5d55", "fusion_lat": 0.0, "type": "electric_scooter", "lat": 38.8732435, "is_reserved": 0, "is_disabled": 0, "fusion_lon": 0.0, "bike_id": "cdb732ce8ef4cab24381e08a2d3e5d55", "lon": -77.00109566666667, "rental_uris": {"ios": "https://dc.lft.to/lastmile_qr_scan", "android": "https://dc.lft.to/lastmile_qr_scan"}}, {"name": "61fd969b1937f023b3eebde7b955302a", "fusion_lat": 0.0, "type": "electric_scooter", "lat": 38.90029883333333, "is_reserved": 0, "is_disabled": 0, "fusion_lon": 0.0, "bike_id": "61fd969b1937f023b3eebde7b955302a", "lon": -77.0020245, "rental_uris": {"ios": "https://dc.lft.to/lastmile_qr_scan", "android": "https://dc.lft.to/lastmile_qr_scan"}}, {"name": "72531504cb438998c4f8829809dd99cd", "fusion_lat": 0.0, "type": "electric_scooter", "lat": 38.90484283333333, "is_reserved": 0, "is_disabled": 0, "fusion_lon": 0.0, "bike_id": "72531504cb438998c4f8829809dd99cd", "lon": -76.97340833333334, "rental_uris": {"ios": "https://dc.lft.to/lastmile_qr_scan", "android": "https://dc.lft.to/lastmile_qr_scan"}}, {"name": "d7be102d0f4b89107e23955e79296205", "fusion_lat": 0.0, "type": "electric_scooter", "lat": 38.90086683333333, "is_reserved": 0, "is_disabled": 0, "fusion_lon": 0.0, "bike_id": "d7be102d0f4b89107e23955e79296205", "lon": -77.04883733333334, "rental_uris": {"ios": "https://dc.lft.to/lastmile_qr_scan", "android": "https://dc.lft.to/lastmile_qr_scan"}}, {"name": "198fa38bfa25a753345947edbbd0d789", "fusion_lat": 0.0, "type": "electric_scooter", "lat": 38.9127185, "is_reserved": 0, "is_disabled": 0, "fusion_lon": 0.0, "bike_id": "198fa38bfa25a753345947edbbd0d789", "lon": -77.02695483333333, "rental_uris": {"ios": "https://dc.lft.to/lastmile_qr_scan", "android": "https://dc.lft.to/lastmile_qr_scan"}}, {"name": "9b4ab2f6f5dfb4e0799f24b8c3bfcbff", "fusion_lat": 0.0, "type": "electric_scooter", "lat": 38.934596666666664, "is_reserved": 0, "is_disabled": 0, "fusion_lon": 0.0, "bike_id": "9b4ab2f6f5dfb4e0799f24b8c3bfcbff", "lon": -77.08637783333333, "rental_uris": {"ios": "https://dc.lft.to/lastmile_qr_scan", "android": "https://dc.lft.to/lastmile_qr_scan"}}, {"name": "35f3923b5d7621c57acb76d7df87aef1", "fusion_lat": 0.0, "type": "electric_scooter", "lat": 38.88777283333334, "is_reserved": 0, "is_disabled": 0, "fusion_lon": 0.0, "bike_id": "35f3923b5d7621c57acb76d7df87aef1", "lon": -76.95534816666667, "rental_uris": {"ios": "https://dc.lft.to/lastmile_qr_scan", "android": "https://dc.lft.to/lastmile_qr_scan"}}, {"name": "660c7aa9dc3fd9cddda3388c32ed673c", "fusion_lat": 0.0, "type": "electric_bike", "lat": 38.9458305, "is_reserved": 0, "is_disabled": 0, "fusion_lon": 0.0, "bike_id": "660c7aa9dc3fd9cddda3388c32ed673c", "lon": -77.3440225, "rental_uris": {"ios": "https://dc.lft.to/lastmile_qr_scan", "android": "https://dc.lft.to/lastmile_qr_scan"}}, {"name": "0cc76398d7f1ff8ceea17d45d495dc3b", "fusion_lat": 0.0, "type": "electric_scooter", "lat": 38.899521666666665, "is_reserved": 0, "is_disabled": 0, "fusion_lon": 0.0, "bike_id": "0cc76398d7f1ff8ceea17d45d495dc3b", "lon": -76.99505166666667, "rental_uris": {"ios": "https://dc.lft.to/lastmile_qr_scan", "android": "https://dc.lft.to/lastmile_qr_scan"}}, {"name": "c1a9bb245d34ca58bb7222168e26b3bc", "fusion_lat": 0.0, "type": "electric_scooter", "lat": 38.924918166666664, "is_reserved": 0, "is_disabled": 0, "fusion_lon": 0.0, "bike_id": "c1a9bb245d34ca58bb7222168e26b3bc", "lon": -77.05224616666666, "rental_uris": {"ios": "https://dc.lft.to/lastmile_qr_scan", "android": "https://dc.lft.to/lastmile_qr_scan"}}, {"name": "3668b176e6cb619c5fca15b6ad7e2726", "fusion_lat": 0.0, "type": "electric_scooter", "lat": 38.908809833333336, "is_reserved": 0, "is_disabled": 0, "fusion_lon": 0.0, "bike_id": "3668b176e6cb619c5fca15b6ad7e2726", "lon": -77.0435375, "rental_uris": {"ios": "https://dc.lft.to/lastmile_qr_scan", "android": "https://dc.lft.to/lastmile_qr_scan"}}, {"name": "b9087ae853a7c90fa90350dba2fb0305", "fusion_lat": 0.0, "type": "electric_scooter", "lat": 38.88501883333333, "is_reserved": 0, "is_disabled": 0, "fusion_lon": 0.0, "bike_id": "b9087ae853a7c90fa90350dba2fb0305", "lon": -77.02192283333333, "rental_uris": {"ios": "https://dc.lft.to/lastmile_qr_scan", "android": "https://dc.lft.to/lastmile_qr_scan"}}, {"name": "d252cfa97eefe90ce48667e83d6f3930", "fusion_lat": 0.0, "type": "electric_scooter", "lat": 38.905715666666666, "is_reserved": 0, "is_disabled": 0, "fusion_lon": 0.0, "bike_id": "d252cfa97eefe90ce48667e83d6f3930", "lon": -77.0571605, "rental_uris": {"ios": "https://dc.lft.to/lastmile_qr_scan", "android": "https://dc.lft.to/lastmile_qr_scan"}}, {"name": "0aff709244936c8616915717fed13d61", "fusion_lat": 0.0, "type": "electric_scooter", "lat": 38.86919133333333, "is_reserved": 0, "is_disabled": 0, "fusion_lon": 0.0, "bike_id": "0aff709244936c8616915717fed13d61", "lon": -76.9750805, "rental_uris": {"ios": "https://dc.lft.to/lastmile_qr_scan", "android": "https://dc.lft.to/lastmile_qr_scan"}}, {"name": "06312d6cf48c8cb05df6110726c203f8", "fusion_lat": 0.0, "type": "electric_scooter", "lat": 38.8971935, "is_reserved": 0, "is_disabled": 0, "fusion_lon": 0.0, "bike_id": "06312d6cf48c8cb05df6110726c203f8", "lon": -77.04741133333333, "rental_uris": {"ios": "https://dc.lft.to/lastmile_qr_scan", "android": "https://dc.lft.to/lastmile_qr_scan"}}, {"name": "072fa68f35e370d1f794606109c9cc41", "fusion_lat": 0.0, "type": "electric_scooter", "lat": 38.92893216666667, "is_reserved": 0, "is_disabled": 0, "fusion_lon": 0.0, "bike_id": "072fa68f35e370d1f794606109c9cc41", "lon": -77.005225, "rental_uris": {"ios": "https://dc.lft.to/lastmile_qr_scan", "android": "https://dc.lft.to/lastmile_qr_scan"}}, {"name": "e41cb26fd2040b6fd028210481a1403e", "fusion_lat": 0.0, "type": "electric_scooter", "lat": 38.91697716666667, "is_reserved": 0, "is_disabled": 0, "fusion_lon": 0.0, "bike_id": "e41cb26fd2040b6fd028210481a1403e", "lon": -77.039343, "rental_uris": {"ios": "https://dc.lft.to/lastmile_qr_scan", "android": "https://dc.lft.to/lastmile_qr_scan"}}, {"name": "67a3d9e530bde8a39963c9b670a93c80", "fusion_lat": 0.0, "type": "electric_scooter", "lat": 38.91412666666667, "is_reserved": 0, "is_disabled": 0, "fusion_lon": 0.0, "bike_id": "67a3d9e530bde8a39963c9b670a93c80", "lon": -77.00977866666666, "rental_uris": {"ios": "https://dc.lft.to/lastmile_qr_scan", "android": "https://dc.lft.to/lastmile_qr_scan"}}, {"name": "ed9ca07b268c4fa4e567e37319e8af2e", "fusion_lat": 0.0, "type": "electric_scooter", "lat": 38.918752833333336, "is_reserved": 0, "is_disabled": 0, "fusion_lon": 0.0, "bike_id": "ed9ca07b268c4fa4e567e37319e8af2e", "lon": -77.03505183333333, "rental_uris": {"ios": "https://dc.lft.to/lastmile_qr_scan", "android": "https://dc.lft.to/lastmile_qr_scan"}}, {"name": "22e8c78e1fcfad03bdf66ea57e3ec7d0", "fusion_lat": 0.0, "type": "electric_scooter", "lat": 38.9056745, "is_reserved": 0, "is_disabled": 0, "fusion_lon": 0.0, "bike_id": "22e8c78e1fcfad03bdf66ea57e3ec7d0", "lon": -77.0024125, "rental_uris": {"ios": "https://dc.lft.to/lastmile_qr_scan", "android": "https://dc.lft.to/lastmile_qr_scan"}}, {"name": "4f0f3dbbe112de7bc7b762ce191552b8", "fusion_lat": 0.0, "type": "electric_scooter", "lat": 38.895957833333334, "is_reserved": 0, "is_disabled": 0, "fusion_lon": 0.0, "bike_id": "4f0f3dbbe112de7bc7b762ce191552b8", "lon": -76.9486435, "rental_uris": {"ios": "https://dc.lft.to/lastmile_qr_scan", "android": "https://dc.lft.to/lastmile_qr_scan"}}, {"name": "575a1734e9af37685d61779f01e93b38", "fusion_lat": 0.0, "type": "electric_scooter", "lat": 38.91542483333333, "is_reserved": 0, "is_disabled": 0, "fusion_lon": 0.0, "bike_id": "575a1734e9af37685d61779f01e93b38", "lon": -77.03855883333334, "rental_uris": {"ios": "https://dc.lft.to/lastmile_qr_scan", "android": "https://dc.lft.to/lastmile_qr_scan"}}, {"name": "f5c9edeac75c1ffd2ba542be7f2a8289", "fusion_lat": 0.0, "type": "electric_scooter", "lat": 38.92357, "is_reserved": 0, "is_disabled": 0, "fusion_lon": 0.0, "bike_id": "f5c9edeac75c1ffd2ba542be7f2a8289", "lon": -77.05060383333333, "rental_uris": {"ios": "https://dc.lft.to/lastmile_qr_scan", "android": "https://dc.lft.to/lastmile_qr_scan"}}, {"name": "ed66e434646d6d29bfcf4fd9d4d6c660", "fusion_lat": 0.0, "type": "electric_bike", "lat": 38.8964915, "is_reserved": 0, "is_disabled": 0, "fusion_lon": 0.0, "bike_id": "ed66e434646d6d29bfcf4fd9d4d6c660", "lon": -77.104497, "rental_uris": {"ios": "https://dc.lft.to/lastmile_qr_scan", "android": "https://dc.lft.to/lastmile_qr_scan"}}, {"name": "673bd1dc77903e62cf1c6c3f6aa0eced", "fusion_lat": 0.0, "type": "electric_scooter", "lat": 38.87471683333333, "is_reserved": 0, "is_disabled": 0, "fusion_lon": 0.0, "bike_id": "673bd1dc77903e62cf1c6c3f6aa0eced", "lon": -77.01063766666667, "rental_uris": {"ios": "https://dc.lft.to/lastmile_qr_scan", "android": "https://dc.lft.to/lastmile_qr_scan"}}, {"name": "f3ae2a39996c69e21a0b779718e0e018", "fusion_lat": 0.0, "type": "electric_bike", "lat": 38.86868416666667, "is_reserved": 0, "is_disabled": 0, "fusion_lon": 0.0, "bike_id": "f3ae2a39996c69e21a0b779718e0e018", "lon": -76.916646, "rental_uris": {"ios": "https://dc.lft.to/lastmile_qr_scan", "android": "https://dc.lft.to/lastmile_qr_scan"}}, {"name": "6f69740ac8c75e6a30b31934732e68ae", "fusion_lat": 0.0, "type": "electric_scooter", "lat": 38.907811333333335, "is_reserved": 0, "is_disabled": 0, "fusion_lon": 0.0, "bike_id": "6f69740ac8c75e6a30b31934732e68ae", "lon": -77.038338, "rental_uris": {"ios": "https://dc.lft.to/lastmile_qr_scan", "android": "https://dc.lft.to/lastmile_qr_scan"}}, {"name": "58cca901f62d3e0bcf975f47892019ee", "fusion_lat": 0.0, "type": "electric_scooter", "lat": 38.921781833333334, "is_reserved": 0, "is_disabled": 0, "fusion_lon": 0.0, "bike_id": "58cca901f62d3e0bcf975f47892019ee", "lon": -77.02418433333334, "rental_uris": {"ios": "https://dc.lft.to/lastmile_qr_scan", "android": "https://dc.lft.to/lastmile_qr_scan"}}, {"name": "81e0e2ed876638447e188a974d5815bf", "fusion_lat": 0.0, "type": "electric_scooter", "lat": 38.89447166666667, "is_reserved": 0, "is_disabled": 0, "fusion_lon": 0.0, "bike_id": "81e0e2ed876638447e188a974d5815bf", "lon": -77.01102133333333, "rental_uris": {"ios": "https://dc.lft.to/lastmile_qr_scan", "android": "https://dc.lft.to/lastmile_qr_scan"}}, {"name": "668a41db9b2fdaaa51e18216679feeb7", "fusion_lat": 0.0, "type": "electric_scooter", "lat": 38.894806333333335, "is_reserved": 0, "is_disabled": 0, "fusion_lon": 0.0, "bike_id": "668a41db9b2fdaaa51e18216679feeb7", "lon": -77.01017483333334, "rental_uris": {"ios": "https://dc.lft.to/lastmile_qr_scan", "android": "https://dc.lft.to/lastmile_qr_scan"}}, {"name": "cf9fdca172b6ef3ed6425f993139ec7b", "fusion_lat": 0.0, "type": "electric_scooter", "lat": 38.90317816666666, "is_reserved": 0, "is_disabled": 0, "fusion_lon": 0.0, "bike_id": "cf9fdca172b6ef3ed6425f993139ec7b", "lon": -77.05329633333334, "rental_uris": {"ios": "https://dc.lft.to/lastmile_qr_scan", "android": "https://dc.lft.to/lastmile_qr_scan"}}, {"name": "1ab088638e160db86db02efed7870a0f", "fusion_lat": 0.0, "type": "electric_scooter", "lat": 38.902824833333334, "is_reserved": 0, "is_disabled": 0, "fusion_lon": 0.0, "bike_id": "1ab088638e160db86db02efed7870a0f", "lon": -77.040444, "rental_uris": {"ios": "https://dc.lft.to/lastmile_qr_scan", "android": "https://dc.lft.to/lastmile_qr_scan"}}, {"name": "e5e32d98209ce496567c43d94271e05c", "fusion_lat": 0.0, "type": "electric_bike", "lat": 38.819390166666665, "is_reserved": 0, "is_disabled": 0, "fusion_lon": 0.0, "bike_id": "e5e32d98209ce496567c43d94271e05c", "lon": -77.002062, "rental_uris": {"ios": "https://dc.lft.to/lastmile_qr_scan", "android": "https://dc.lft.to/lastmile_qr_scan"}}, {"name": "043b6ccab8eca7c2fe8d19480d1e3383", "fusion_lat": 0.0, "type": "electric_scooter", "lat": 38.92675216666667, "is_reserved": 0, "is_disabled": 0, "fusion_lon": 0.0, "bike_id": "043b6ccab8eca7c2fe8d19480d1e3383", "lon": -77.01473333333334, "rental_uris": {"ios": "https://dc.lft.to/lastmile_qr_scan", "android": "https://dc.lft.to/lastmile_qr_scan"}}, {"name": "009ba0482b3615c48c374591786b87b0", "fusion_lat": 0.0, "type": "electric_bike", "lat": 38.965352, "is_reserved": 0, "is_disabled": 0, "fusion_lon": 0.0, "bike_id": "009ba0482b3615c48c374591786b87b0", "lon": -77.0351825, "rental_uris": {"ios": "https://dc.lft.to/lastmile_qr_scan", "android": "https://dc.lft.to/lastmile_qr_scan"}}, {"name": "6d633d665d0099c1dfbe1fd49dcc1ded", "fusion_lat": 0.0, "type": "electric_scooter", "lat": 38.9104215, "is_reserved": 0, "is_disabled": 0, "fusion_lon": 0.0, "bike_id": "6d633d665d0099c1dfbe1fd49dcc1ded", "lon": -77.0282015, "rental_uris": {"ios": "https://dc.lft.to/lastmile_qr_scan", "android": "https://dc.lft.to/lastmile_qr_scan"}}, {"name": "98205faad7f2e506da75f8c8a9c9a87c", "fusion_lat": 0.0, "type": "electric_scooter", "lat": 38.90707616666667, "is_reserved": 0, "is_disabled": 0, "fusion_lon": 0.0, "bike_id": "98205faad7f2e506da75f8c8a9c9a87c", "lon": -76.98703766666667, "rental_uris": {"ios": "https://dc.lft.to/lastmile_qr_scan", "android": "https://dc.lft.to/lastmile_qr_scan"}}, {"name": "e99b01a748fc9ec8413e3a6ba6a863ae", "fusion_lat": 0.0, "type": "electric_scooter", "lat": 38.91561816666667, "is_reserved": 0, "is_disabled": 0, "fusion_lon": 0.0, "bike_id": "e99b01a748fc9ec8413e3a6ba6a863ae", "lon": -77.04293416666667, "rental_uris": {"ios": "https://dc.lft.to/lastmile_qr_scan", "android": "https://dc.lft.to/lastmile_qr_scan"}}, {"name": "3bd7d7e7242248dec6888910afde4f95", "fusion_lat": 0.0, "type": "electric_scooter", "lat": 38.920631166666666, "is_reserved": 0, "is_disabled": 0, "fusion_lon": 0.0, "bike_id": "3bd7d7e7242248dec6888910afde4f95", "lon": -77.04704, "rental_uris": {"ios": "https://dc.lft.to/lastmile_qr_scan", "android": "https://dc.lft.to/lastmile_qr_scan"}}, {"name": "7596cd963da17ea38a7609ed9a4362dc", "fusion_lat": 0.0, "type": "electric_scooter", "lat": 38.9317205, "is_reserved": 0, "is_disabled": 0, "fusion_lon": 0.0, "bike_id": "7596cd963da17ea38a7609ed9a4362dc", "lon": -77.056138, "rental_uris": {"ios": "https://dc.lft.to/lastmile_qr_scan", "android": "https://dc.lft.to/lastmile_qr_scan"}}, {"name": "b49e52f24925bb7d7a294a370283eccf", "fusion_lat": 0.0, "type": "electric_scooter", "lat": 38.9085405, "is_reserved": 0, "is_disabled": 0, "fusion_lon": 0.0, "bike_id": "b49e52f24925bb7d7a294a370283eccf", "lon": -77.04512916666667, "rental_uris": {"ios": "https://dc.lft.to/lastmile_qr_scan", "android": "https://dc.lft.to/lastmile_qr_scan"}}, {"name": "b6564d5872df989cf96d56d38c0b70f6", "fusion_lat": 0.0, "type": "electric_scooter", "lat": 38.92754566666667, "is_reserved": 0, "is_disabled": 0, "fusion_lon": 0.0, "bike_id": "b6564d5872df989cf96d56d38c0b70f6", "lon": -77.03271233333334, "rental_uris": {"ios": "https://dc.lft.to/lastmile_qr_scan", "android": "https://dc.lft.to/lastmile_qr_scan"}}, {"name": "3201d105b1e045693f441963fe3e1a41", "fusion_lat": 0.0, "type": "electric_bike", "lat": 38.96544016666667, "is_reserved": 0, "is_disabled": 0, "fusion_lon": 0.0, "bike_id": "3201d105b1e045693f441963fe3e1a41", "lon": -77.03516233333333, "rental_uris": {"ios": "https://dc.lft.to/lastmile_qr_scan", "android": "https://dc.lft.to/lastmile_qr_scan"}}, {"name": "6f3f987c946641e3beedc0b556b5fdb6", "fusion_lat": 0.0, "type": "electric_scooter", "lat": 38.89087966666666, "is_reserved": 0, "is_disabled": 0, "fusion_lon": 0.0, "bike_id": "6f3f987c946641e3beedc0b556b5fdb6", "lon": -76.997929, "rental_uris": {"ios": "https://dc.lft.to/lastmile_qr_scan", "android": "https://dc.lft.to/lastmile_qr_scan"}}, {"name": "f70a0e360bd2a95d625e07b0fd9bfb9f", "fusion_lat": 0.0, "type": "electric_scooter", "lat": 38.862165, "is_reserved": 0, "is_disabled": 0, "fusion_lon": 0.0, "bike_id": "f70a0e360bd2a95d625e07b0fd9bfb9f", "lon": -76.97349816666667, "rental_uris": {"ios": "https://dc.lft.to/lastmile_qr_scan", "android": "https://dc.lft.to/lastmile_qr_scan"}}, {"name": "f695fecd489bb54fe62e90e89e6c08fc", "fusion_lat": 0.0, "type": "electric_scooter", "lat": 38.91986433333334, "is_reserved": 0, "is_disabled": 0, "fusion_lon": 0.0, "bike_id": "f695fecd489bb54fe62e90e89e6c08fc", "lon": -77.0332035, "rental_uris": {"ios": "https://dc.lft.to/lastmile_qr_scan", "android": "https://dc.lft.to/lastmile_qr_scan"}}, {"name": "a78c78c8d1fcbf6277b26c720a6cbf68", "fusion_lat": 0.0, "type": "electric_scooter", "lat": 38.89732816666667, "is_reserved": 0, "is_disabled": 0, "fusion_lon": 0.0, "bike_id": "a78c78c8d1fcbf6277b26c720a6cbf68", "lon": -77.04736366666667, "rental_uris": {"ios": "https://dc.lft.to/lastmile_qr_scan", "android": "https://dc.lft.to/lastmile_qr_scan"}}, {"name": "7fd61ad6c7784eeb1e09f3fdff1421e1", "fusion_lat": 0.0, "type": "electric_scooter", "lat": 38.924357, "is_reserved": 0, "is_disabled": 0, "fusion_lon": 0.0, "bike_id": "7fd61ad6c7784eeb1e09f3fdff1421e1", "lon": -77.04131883333334, "rental_uris": {"ios": "https://dc.lft.to/lastmile_qr_scan", "android": "https://dc.lft.to/lastmile_qr_scan"}}, {"name": "21b7aaf51ed3f4fb9f55a10e87cfede6", "fusion_lat": 0.0, "type": "electric_bike", "lat": 38.9284455, "is_reserved": 0, "is_disabled": 0, "fusion_lon": 0.0, "bike_id": "21b7aaf51ed3f4fb9f55a10e87cfede6", "lon": -77.105073, "rental_uris": {"ios": "https://dc.lft.to/lastmile_qr_scan", "android": "https://dc.lft.to/lastmile_qr_scan"}}, {"name": "a764f83ef9e369b97398510e7bc2ffe1", "fusion_lat": 0.0, "type": "electric_bike", "lat": 38.89563, "is_reserved": 0, "is_disabled": 0, "fusion_lon": 0.0, "bike_id": "a764f83ef9e369b97398510e7bc2ffe1", "lon": -77.12734233333333, "rental_uris": {"ios": "https://dc.lft.to/lastmile_qr_scan", "android": "https://dc.lft.to/lastmile_qr_scan"}}, {"name": "f33f87b4ba24c2e26d7482691edc6b10", "fusion_lat": 0.0, "type": "electric_bike", "lat": 39.1056545, "is_reserved": 0, "is_disabled": 0, "fusion_lon": 0.0, "bike_id": "f33f87b4ba24c2e26d7482691edc6b10", "lon": -77.15269383333333, "rental_uris": {"ios": "https://dc.lft.to/lastmile_qr_scan", "android": "https://dc.lft.to/lastmile_qr_scan"}}, {"name": "4d22fc9f3cc71a877e2dea906112396e", "fusion_lat": 0.0, "type": "electric_scooter", "lat": 38.91669316666667, "is_reserved": 0, "is_disabled": 0, "fusion_lon": 0.0, "bike_id": "4d22fc9f3cc71a877e2dea906112396e", "lon": -77.02950633333333, "rental_uris": {"ios": "https://dc.lft.to/lastmile_qr_scan", "android": "https://dc.lft.to/lastmile_qr_scan"}}, {"name": "a92b460383eeae3beb74e7101a2b781f", "fusion_lat": 0.0, "type": "electric_scooter", "lat": 38.896255833333335, "is_reserved": 0, "is_disabled": 0, "fusion_lon": 0.0, "bike_id": "a92b460383eeae3beb74e7101a2b781f", "lon": -77.02384183333334, "rental_uris": {"ios": "https://dc.lft.to/lastmile_qr_scan", "android": "https://dc.lft.to/lastmile_qr_scan"}}, {"name": "412a68618573aaae5b16ee2f1c5d17fd", "fusion_lat": 0.0, "type": "electric_scooter", "lat": 38.90578083333333, "is_reserved": 0, "is_disabled": 0, "fusion_lon": 0.0, "bike_id": "412a68618573aaae5b16ee2f1c5d17fd", "lon": -77.01425866666666, "rental_uris": {"ios": "https://dc.lft.to/lastmile_qr_scan", "android": "https://dc.lft.to/lastmile_qr_scan"}}, {"name": "8f165ccfc61d7fea028868d0000ceab9", "fusion_lat": 0.0, "type": "electric_scooter", "lat": 38.895296, "is_reserved": 0, "is_disabled": 0, "fusion_lon": 0.0, "bike_id": "8f165ccfc61d7fea028868d0000ceab9", "lon": -76.949311, "rental_uris": {"ios": "https://dc.lft.to/lastmile_qr_scan", "android": "https://dc.lft.to/lastmile_qr_scan"}}, {"name": "a6a1cf5d17e34b51176272ef59aee195", "fusion_lat": 0.0, "type": "electric_scooter", "lat": 38.90667166666667, "is_reserved": 0, "is_disabled": 0, "fusion_lon": 0.0, "bike_id": "a6a1cf5d17e34b51176272ef59aee195", "lon": -77.02706483333333, "rental_uris": {"ios": "https://dc.lft.to/lastmile_qr_scan", "android": "https://dc.lft.to/lastmile_qr_scan"}}, {"name": "7c0a32ec2fafbe1eb37d88828d51c1fb", "fusion_lat": 0.0, "type": "electric_scooter", "lat": 38.87646633333333, "is_reserved": 0, "is_disabled": 0, "fusion_lon": 0.0, "bike_id": "7c0a32ec2fafbe1eb37d88828d51c1fb", "lon": -76.96504166666666, "rental_uris": {"ios": "https://dc.lft.to/lastmile_qr_scan", "android": "https://dc.lft.to/lastmile_qr_scan"}}, {"name": "060365431af322750f13d9b11a2a2d40", "fusion_lat": 0.0, "type": "electric_scooter", "lat": 38.89602283333333, "is_reserved": 0, "is_disabled": 0, "fusion_lon": 0.0, "bike_id": "060365431af322750f13d9b11a2a2d40", "lon": -77.04117716666667, "rental_uris": {"ios": "https://dc.lft.to/lastmile_qr_scan", "android": "https://dc.lft.to/lastmile_qr_scan"}}, {"name": "3d5a985945d0871c560aefdc022d2b48", "fusion_lat": 0.0, "type": "electric_scooter", "lat": 38.914264333333335, "is_reserved": 0, "is_disabled": 0, "fusion_lon": 0.0, "bike_id": "3d5a985945d0871c560aefdc022d2b48", "lon": -77.03186533333333, "rental_uris": {"ios": "https://dc.lft.to/lastmile_qr_scan", "android": "https://dc.lft.to/lastmile_qr_scan"}}, {"name": "9a2c372e9a71a102cebc3ff5b10e2c2f", "fusion_lat": 0.0, "type": "electric_scooter", "lat": 38.901419, "is_reserved": 0, "is_disabled": 0, "fusion_lon": 0.0, "bike_id": "9a2c372e9a71a102cebc3ff5b10e2c2f", "lon": -76.99751816666667, "rental_uris": {"ios": "https://dc.lft.to/lastmile_qr_scan", "android": "https://dc.lft.to/lastmile_qr_scan"}}, {"name": "e5171aaa27a0760a14890e79dd9549ae", "fusion_lat": 0.0, "type": "electric_scooter", "lat": 38.89327216666667, "is_reserved": 0, "is_disabled": 0, "fusion_lon": 0.0, "bike_id": "e5171aaa27a0760a14890e79dd9549ae", "lon": -76.9289445, "rental_uris": {"ios": "https://dc.lft.to/lastmile_qr_scan", "android": "https://dc.lft.to/lastmile_qr_scan"}}, {"name": "2870969a61441992e6cb094481e3dd60", "fusion_lat": 0.0, "type": "electric_scooter", "lat": 38.874244166666664, "is_reserved": 0, "is_disabled": 0, "fusion_lon": 0.0, "bike_id": "2870969a61441992e6cb094481e3dd60", "lon": -77.020585, "rental_uris": {"ios": "https://dc.lft.to/lastmile_qr_scan", "android": "https://dc.lft.to/lastmile_qr_scan"}}, {"name": "1109f3dbcd94a8517030d6b0cc6e4853", "fusion_lat": 0.0, "type": "electric_scooter", "lat": 38.91846233333333, "is_reserved": 0, "is_disabled": 0, "fusion_lon": 0.0, "bike_id": "1109f3dbcd94a8517030d6b0cc6e4853", "lon": -77.04572383333333, "rental_uris": {"ios": "https://dc.lft.to/lastmile_qr_scan", "android": "https://dc.lft.to/lastmile_qr_scan"}}, {"name": "9dd5cf09e26ea104a5a6032d05f16820", "fusion_lat": 0.0, "type": "electric_bike", "lat": 38.9305985, "is_reserved": 0, "is_disabled": 0, "fusion_lon": 0.0, "bike_id": "9dd5cf09e26ea104a5a6032d05f16820", "lon": -76.97329816666667, "rental_uris": {"ios": "https://dc.lft.to/lastmile_qr_scan", "android": "https://dc.lft.to/lastmile_qr_scan"}}, {"name": "e2cfbacf2e1401d1ec3d9ef96df972b3", "fusion_lat": 0.0, "type": "electric_scooter", "lat": 38.92794833333333, "is_reserved": 0, "is_disabled": 0, "fusion_lon": 0.0, "bike_id": "e2cfbacf2e1401d1ec3d9ef96df972b3", "lon": -77.03256566666667, "rental_uris": {"ios": "https://dc.lft.to/lastmile_qr_scan", "android": "https://dc.lft.to/lastmile_qr_scan"}}, {"name": "642885d443d9ecf9b085c487d307d0ec", "fusion_lat": 0.0, "type": "electric_scooter", "lat": 38.86371033333333, "is_reserved": 0, "is_disabled": 0, "fusion_lon": 0.0, "bike_id": "642885d443d9ecf9b085c487d307d0ec", "lon": -77.01366233333333, "rental_uris": {"ios": "https://dc.lft.to/lastmile_qr_scan", "android": "https://dc.lft.to/lastmile_qr_scan"}}, {"name": "0e13c5629ce1219b5c3d92b13efb5413", "fusion_lat": 0.0, "type": "electric_scooter", "lat": 38.88527933333334, "is_reserved": 0, "is_disabled": 0, "fusion_lon": 0.0, "bike_id": "0e13c5629ce1219b5c3d92b13efb5413", "lon": -77.03334966666667, "rental_uris": {"ios": "https://dc.lft.to/lastmile_qr_scan", "android": "https://dc.lft.to/lastmile_qr_scan"}}, {"name": "caf6cdaa936c374b0dbfb8401e604029", "fusion_lat": 0.0, "type": "electric_scooter", "lat": 38.91871716666667, "is_reserved": 0, "is_disabled": 0, "fusion_lon": 0.0, "bike_id": "caf6cdaa936c374b0dbfb8401e604029", "lon": -77.034991, "rental_uris": {"ios": "https://dc.lft.to/lastmile_qr_scan", "android": "https://dc.lft.to/lastmile_qr_scan"}}, {"name": "9754391be6587fec68be62c55d71dca4", "fusion_lat": 0.0, "type": "electric_scooter", "lat": 38.9312465, "is_reserved": 0, "is_disabled": 0, "fusion_lon": 0.0, "bike_id": "9754391be6587fec68be62c55d71dca4", "lon": -77.02823816666667, "rental_uris": {"ios": "https://dc.lft.to/lastmile_qr_scan", "android": "https://dc.lft.to/lastmile_qr_scan"}}, {"name": "a06d3ed0570eb1fbbd1e6550bf226d68", "fusion_lat": 0.0, "type": "electric_bike", "lat": 38.861617333333335, "is_reserved": 0, "is_disabled": 0, "fusion_lon": 0.0, "bike_id": "a06d3ed0570eb1fbbd1e6550bf226d68", "lon": -77.13094933333333, "rental_uris": {"ios": "https://dc.lft.to/lastmile_qr_scan", "android": "https://dc.lft.to/lastmile_qr_scan"}}, {"name": "af56ee860a4e8c0b7602ca00c7dececa", "fusion_lat": 0.0, "type": "electric_scooter", "lat": 38.913381666666666, "is_reserved": 0, "is_disabled": 0, "fusion_lon": 0.0, "bike_id": "af56ee860a4e8c0b7602ca00c7dececa", "lon": -77.0023265, "rental_uris": {"ios": "https://dc.lft.to/lastmile_qr_scan", "android": "https://dc.lft.to/lastmile_qr_scan"}}, {"name": "4b994403b0a809ed3d60ad01e14c45cb", "fusion_lat": 0.0, "type": "electric_scooter", "lat": 38.9140805, "is_reserved": 0, "is_disabled": 0, "fusion_lon": 0.0, "bike_id": "4b994403b0a809ed3d60ad01e14c45cb", "lon": -77.00807116666667, "rental_uris": {"ios": "https://dc.lft.to/lastmile_qr_scan", "android": "https://dc.lft.to/lastmile_qr_scan"}}, {"name": "5b33b7336421e06de8a6d83aa35bc0c5", "fusion_lat": 0.0, "type": "electric_scooter", "lat": 38.905681, "is_reserved": 0, "is_disabled": 0, "fusion_lon": 0.0, "bike_id": "5b33b7336421e06de8a6d83aa35bc0c5", "lon": -77.01818166666666, "rental_uris": {"ios": "https://dc.lft.to/lastmile_qr_scan", "android": "https://dc.lft.to/lastmile_qr_scan"}}, {"name": "157bfd55c0ce9df3dfec59a4b5bd63eb", "fusion_lat": 0.0, "type": "electric_scooter", "lat": 38.902421833333335, "is_reserved": 0, "is_disabled": 0, "fusion_lon": 0.0, "bike_id": "157bfd55c0ce9df3dfec59a4b5bd63eb", "lon": -76.97416266666667, "rental_uris": {"ios": "https://dc.lft.to/lastmile_qr_scan", "android": "https://dc.lft.to/lastmile_qr_scan"}},