{"data": {"bikes": [{"fusion_lat": 0.0, "name": "606c29339068f78b57b1e7c413378202", "is_disabled": 0, "rental_uris": {"android": "https://dc.lft.to/lastmile_qr_scan", "ios": "https://dc.lft.to/lastmile_qr_scan"}, "fusion_lon": 0.0, "lat": 38.913232666666666, "bike_id": "606c29339068f78b57b1e7c413378202", "type": "electric_scooter", "is_reserved": 0, "lon": -77.03171933333333}, {"fusion_lat": 0.0, "name": "32946af4f13f2b1b46e2b5473343978c", "is_disabled": 0, "rental_uris": {"android": "https://dc.lft.to/lastmile_qr_scan", "ios": "https://dc.lft.to/lastmile_qr_scan"}, "fusion_lon": 0.0, "lat": 38.922329166666664, "bike_id": "32946af4f13f2b1b46e2b5473343978c", "type": "electric_bike", "is_reserved": 0, "lon": -77.023397}, {"fusion_lat": 0.0, "name": "08690f72260ec662b63b326d14661571", "is_disabled": 0, "rental_uris": {"android": "https://dc.lft.to/lastmile_qr_scan", "ios": "https://dc.lft.to/lastmile_qr_scan"}, "fusion_lon": 0.0, "lat": 38.892616, "bike_id": "08690f72260ec662b63b326d14661571", "type": "electric_scooter", "is_reserved": 0, "lon": -77.04652766666666}, {"fusion_lat": 0.0, "name": "e90d488d54f680e8b6bf71792c0c3db8", "is_disabled": 0, "rental_uris": {"android": "https://dc.lft.to/lastmile_qr_scan", "ios": "https://dc.lft.to/lastmile_qr_scan"}, "fusion_lon": 0.0, "lat": 38.90024666666667, "bike_id": "e90d488d54f680e8b6bf71792c0c3db8", "type": "electric_scooter", "is_reserved": 0, "lon": -76.973992}, {"fusion_lat": 0.0, "name": "57ed1d2d3bb334675e9ef94d28ee33c0", "is_disabled": 0, "rental_uris": {"android": "https://dc.lft.to/lastmile_qr_scan", "ios": "https://dc.lft.to/lastmile_qr_scan"}, "fusion_lon": 0.0, "lat": 38.9233065, "bike_id": "57ed1d2d3bb334675e9ef94d28ee33c0", "type": "electric_scooter", "is_reserved": 0, "lon": -77.04624533333333}, {"fusion_lat": 0.0, "name": "bc2ba7697f88caef126f81c60d467b21", "is_disabled": 0, "rental_uris": {"android": "https://dc.lft.to/lastmile_qr_scan", "ios": "https://dc.lft.to/lastmile_qr_scan"}, "fusion_lon": 0.0, "lat": 38.9159205, "bike_id": "bc2ba7697f88caef126f81c60d467b21", "type": "electric_scooter", "is_reserved": 0, "lon": -77.023077}, {"fusion_lat": 0.0, "name": "6f990bf243c3255c82b9c8be755ddaea", "is_disabled": 0, "rental_uris": {"android": "https://dc.lft.to/lastmile_qr_scan", "ios": "https://dc.lft.to/lastmile_qr_scan"}, "fusion_lon": 0.0, "lat": 38.9234745, "bike_id": "6f990bf243c3255c82b9c8be755ddaea", "type": "electric_scooter", "is_reserved": 0, "lon": -77.05619916666667}, {"fusion_lat": 0.0, "name": "f065f15222d9cd4ba4985e76cba66b26", "is_disabled": 0, "rental_uris": {"android": "https://dc.lft.to/lastmile_qr_scan", "ios": "https://dc.lft.to/lastmile_qr_scan"}, "fusion_lon": 0.0, "lat": 38.90013416666667, "bike_id": "f065f15222d9cd4ba4985e76cba66b26", "type": "electric_scooter", "is_reserved": 0, "lon": -76.99865733333333}, {"fusion_lat": 0.0, "name": "65c4faac4a8b3329455984f31cbf345c", "is_disabled": 0, "rental_uris": {"android": "https://dc.lft.to/lastmile_qr_scan", "ios": "https://dc.lft.to/lastmile_qr_scan"}, "fusion_lon": 0.0, "lat": 38.91413266666667, "bike_id": "65c4faac4a8b3329455984f31cbf345c", "type": "electric_scooter", "is_reserved": 0, "lon": -77.02427366666667}, {"fusion_lat": 0.0, "name": "75c6205696362e43dff8a9ff708ea53e", "is_disabled": 0, "rental_uris": {"android": "https://dc.lft.to/lastmile_qr_scan", "ios": "https://dc.lft.to/lastmile_qr_scan"}, "fusion_lon": 0.0, "lat": 38.91348, "bike_id": "75c6205696362e43dff8a9ff708ea53e", "type": "electric_scooter", "is_reserved": 0, "lon": -77.0205415}, {"fusion_lat": 0.0, "name": "976e12222f5a629c1926037977e4612a", "is_disabled": 0, "rental_uris": {"android": "https://dc.lft.to/lastmile_qr_scan", "ios": "https://dc.lft.to/lastmile_qr_scan"}, "fusion_lon": 0.0, "lat": 38.9094805, "bike_id": "976e12222f5a629c1926037977e4612a", "type": "electric_scooter", "is_reserved": 0, "lon": -76.9877135}, {"fusion_lat": 0.0, "name": "50f2d0ec793fd15aee6d83646736ffa3", "is_disabled": 0, "rental_uris": {"android": "https://dc.lft.to/lastmile_qr_scan", "ios": "https://dc.lft.to/lastmile_qr_scan"}, "fusion_lon": 0.0, "lat": 38.9028975, "bike_id": "50f2d0ec793fd15aee6d83646736ffa3", "type": "electric_scooter", "is_reserved": 0, "lon": -77.0485515}, {"fusion_lat": 0.0, "name": "85b8b5eaa00ee03e9a7c649c56fb7bde", "is_disabled": 0, "rental_uris": {"android": "https://dc.lft.to/lastmile_qr_scan", "ios": "https://dc.lft.to/lastmile_qr_scan"}, "fusion_lon": 0.0, "lat": 38.87913116666667, "bike_id": "85b8b5eaa00ee03e9a7c649c56fb7bde", "type": "electric_scooter", "is_reserved": 0, "lon": -77.02146566666667}, {"fusion_lat": 0.0, "name": "99a54730fc0cd6da31430c0382c5916a", "is_disabled": 0, "rental_uris": {"android": "https://dc.lft.to/lastmile_qr_scan", "ios": "https://dc.lft.to/lastmile_qr_scan"}, "fusion_lon": 0.0, "lat": 38.96449366666667, "bike_id": "99a54730fc0cd6da31430c0382c5916a", "type": "electric_bike", "is_reserved": 0, "lon": -77.02237433333333}, {"fusion_lat": 0.0, "name": "209a880ab3c1976d94724f12dab29f9a", "is_disabled": 0, "rental_uris": {"android": "https://dc.lft.to/lastmile_qr_scan", "ios": "https://dc.lft.to/lastmile_qr_scan"}, "fusion_lon": 0.0, "lat": 38.90695933333333, "bike_id": "209a880ab3c1976d94724f12dab29f9a", "type": "electric_scooter", "is_reserved": 0, "lon": -76.99956883333333}, {"fusion_lat": 0.0, "name": "26adf3daf2d73eeb8c175ecdeb316274", "is_disabled": 0, "rental_uris": {"android": "https://dc.lft.to/lastmile_qr_scan", "ios": "https://dc.lft.to/lastmile_qr_scan"}, "fusion_lon": 0.0, "lat": 38.912115166666666, "bike_id": "26adf3daf2d73eeb8c175ecdeb316274", "type": "electric_scooter", "is_reserved": 0, "lon": -77.01980916666666}, {"fusion_lat": 0.0, "name": "a2b8b42d14b59ee4164f9943327a10bc", "is_disabled": 0, "rental_uris": {"android": "https://dc.lft.to/lastmile_qr_scan", "ios": "https://dc.lft.to/lastmile_qr_scan"}, "fusion_lon": 0.0, "lat": 38.89560083333333, "bike_id": "a2b8b42d14b59ee4164f9943327a10bc", "type": "electric_scooter", "is_reserved": 0, "lon": -77.0216015}, {"fusion_lat": 0.0, "name": "009584945a21dc51edfe3cf4695d70eb", "is_disabled": 0, "rental_uris": {"android": "https://dc.lft.to/lastmile_qr_scan", "ios": "https://dc.lft.to/lastmile_qr_scan"}, "fusion_lon": 0.0, "lat": 38.914721166666666, "bike_id": "009584945a21dc51edfe3cf4695d70eb", "type": "electric_scooter", "is_reserved": 0, "lon": -77.01557483333333}, {"fusion_lat": 0.0, "name": "cdb15b6e1f11e2c49629fc0b4eb149e4", "is_disabled": 0, "rental_uris": {"android": "https://dc.lft.to/lastmile_qr_scan", "ios": "https://dc.lft.to/lastmile_qr_scan"}, "fusion_lon": 0.0, "lat": 38.89908833333333, "bike_id": "cdb15b6e1f11e2c49629fc0b4eb149e4", "type": "electric_scooter", "is_reserved": 0, "lon": -77.0512745}, {"fusion_lat": 0.0, "name": "2aed425140fe5d85fe82391a32969472", "is_disabled": 0, "rental_uris": {"android": "https://dc.lft.to/lastmile_qr_scan", "ios": "https://dc.lft.to/lastmile_qr_scan"}, "fusion_lon": 0.0, "lat": 38.900364, "bike_id": "2aed425140fe5d85fe82391a32969472", "type": "electric_scooter", "is_reserved": 0, "lon": -77.0296205}, {"fusion_lat": 0.0, "name": "29fe00970d22801db194a24a59029268", "is_disabled": 0, "rental_uris": {"android": "https://dc.lft.to/lastmile_qr_scan", "ios": "https://dc.lft.to/lastmile_qr_scan"}, "fusion_lon": 0.0, "lat": 38.91222483333333, "bike_id": "29fe00970d22801db194a24a59029268", "type": "electric_scooter", "is_reserved": 0, "lon": -77.04773733333333}, {"fusion_lat": 0.0, "name": "0b6e4bc486e822c568191bbabda4cf1f", "is_disabled": 0, "rental_uris": {"android": "https://dc.lft.to/lastmile_qr_scan", "ios": "https://dc.lft.to/lastmile_qr_scan"}, "fusion_lon": 0.0, "lat": 38.85609133333333, "bike_id": "0b6e4bc486e822c568191bbabda4cf1f", "type": "electric_bike", "is_reserved": 0, "lon": -77.10793616666666}, {"fusion_lat": 0.0, "name": "f71e331b49d2f6232080ff6d5a620b7d", "is_disabled": 0, "rental_uris": {"android": "https://dc.lft.to/lastmile_qr_scan", "ios": "https://dc.lft.to/lastmile_qr_scan"}, "fusion_lon": 0.0, "lat": 38.87766833333333, "bike_id": "f71e331b49d2f6232080ff6d5a620b7d", "type": "electric_scooter", "is_reserved": 0, "lon": -77.00351166666667}, {"fusion_lat": 0.0, "name": "adb931bf80db9e39bb263af4d8e41a5f", "is_disabled": 0, "rental_uris": {"android": "https://dc.lft.to/lastmile_qr_scan", "ios": "https://dc.lft.to/lastmile_qr_scan"}, "fusion_lon": 0.0, "lat": 38.905681, "bike_id": "adb931bf80db9e39bb263af4d8e41a5f", "type": "electric_scooter", "is_reserved": 0, "lon": -77.00594983333333}, {"fusion_lat": 0.0, "name": "2edb6a9e92550d1d58c6d01bccbf7db2", "is_disabled": 0, "rental_uris": {"android": "https://dc.lft.to/lastmile_qr_scan", "ios": "https://dc.lft.to/lastmile_qr_scan"}, "fusion_lon": 0.0, "lat": 38.88185216666667, "bike_id": "2edb6a9e92550d1d58c6d01bccbf7db2", "type": "electric_scooter", "is_reserved": 0, "lon": -76.990302}, {"fusion_lat": 0.0, "name": "cf704ff3239a7e06d2c09f1017af12e0", "is_disabled": 0, "rental_uris": {"android": "https://dc.lft.to/lastmile_qr_scan", "ios": "https://dc.lft.to/lastmile_qr_scan"}, "fusion_lon": 0.0, "lat": 38.903494333333335, "bike_id": "cf704ff3239a7e06d2c09f1017af12e0", "type": "electric_scooter", "is_reserved": 0, "lon": -77.036311}, {"fusion_lat": 0.0, "name": "ce8a794a80ab4a7e3402b71d909bee4c", "is_disabled": 0, "rental_uris": {"android": "https://dc.lft.to/lastmile_qr_scan", "ios": "https://dc.lft.to/lastmile_qr_scan"}, "fusion_lon": 0.0, "lat": 38.9878765, "bike_id": "ce8a794a80ab4a7e3402b71d909bee4c", "type": "electric_scooter", "is_reserved": 0, "lon": -77.02416216666667}, {"fusion_lat": 0.0, "name": "ee81bf39b1bc90e1321763e4623e2b79", "is_disabled": 0, "rental_uris": {"android": "https://dc.lft.to/lastmile_qr_scan", "ios": "https://dc.lft.to/lastmile_qr_scan"}, "fusion_lon": 0.0, "lat": 38.92649483333334, "bike_id": "ee81bf39b1bc90e1321763e4623e2b79", "type": "electric_scooter", "is_reserved": 0, "lon": -77.02595916666667}, {"fusion_lat": 0.0, "name": "789742bdd59d35259191097d55b9d308", "is_disabled": 0, "rental_uris": {"android": "https://dc.lft.to/lastmile_qr_scan", "ios": "https://dc.lft.to/lastmile_qr_scan"}, "fusion_lon": 0.0, "lat": 38.877375, "bike_id": "789742bdd59d35259191097d55b9d308", "type": "electric_scooter", "is_reserved": 0, "lon": -76.97027966666667}, {"fusion_lat": 0.0, "name": "19fbd00d84230cb7ab42c7acc0ac1cf6", "is_disabled": 0, "rental_uris": {"android": "https://dc.lft.to/lastmile_qr_scan", "ios": "https://dc.lft.to/lastmile_qr_scan"}, "fusion_lon": 0.0, "lat": 38.9039295, "bike_id": "19fbd00d84230cb7ab42c7acc0ac1cf6", "type": "electric_scooter", "is_reserved": 0, "lon": -77.0487705}, {"fusion_lat": 0.0, "name": "88bd31d6e23a37c2f2029ca1c69e52a9", "is_disabled": 0, "rental_uris": {"android": "https://dc.lft.to/lastmile_qr_scan", "ios": "https://dc.lft.to/lastmile_qr_scan"}, "fusion_lon": 0.0, "lat": 38.89233566666667, "bike_id": "88bd31d6e23a37c2f2029ca1c69e52a9", "type": "electric_scooter", "is_reserved": 0, "lon": -77.04876133333333}, {"fusion_lat": 0.0, "name": "2c60622e2c115d18774e72ee0f8ff2f0", "is_disabled": 0, "rental_uris": {"android": "https://dc.lft.to/lastmile_qr_scan", "ios": "https://dc.lft.to/lastmile_qr_scan"}, "fusion_lon": 0.0, "lat": 38.929821, "bike_id": "2c60622e2c115d18774e72ee0f8ff2f0", "type": "electric_scooter", "is_reserved": 0, "lon": -77.03654916666666}, {"fusion_lat": 0.0, "name": "5bc61a43b1bbb474f4a3a0a4b90d8997", "is_disabled": 0, "rental_uris": {"android": "https://dc.lft.to/lastmile_qr_scan", "ios": "https://dc.lft.to/lastmile_qr_scan"}, "fusion_lon": 0.0, "lat": 38.9922615, "bike_id": "5bc61a43b1bbb474f4a3a0a4b90d8997", "type": "electric_bike", "is_reserved": 0, "lon": -76.944249}, {"fusion_lat": 0.0, "name": "f84bf7f969af2af14cbe90cd8ddfb2eb", "is_disabled": 0, "rental_uris": {"android": "https://dc.lft.to/lastmile_qr_scan", "ios": "https://dc.lft.to/lastmile_qr_scan"}, "fusion_lon": 0.0, "lat": 38.924338166666665, "bike_id": "f84bf7f969af2af14cbe90cd8ddfb2eb", "type": "electric_scooter", "is_reserved": 0, "lon": -77.02023766666667}, {"fusion_lat": 0.0, "name": "cc24a9c5cc751a56553d02a653ac104b", "is_disabled": 0, "rental_uris": {"android": "https://dc.lft.to/lastmile_qr_scan", "ios": "https://dc.lft.to/lastmile_qr_scan"}, "fusion_lon": 0.0, "lat": 38.919439, "bike_id": "cc24a9c5cc751a56553d02a653ac104b", "type": "electric_scooter", "is_reserved": 0, "lon": -77.04181933333334}, {"fusion_lat": 0.0, "name": "1fa9f956bde0f05cb89fa17ea5b087cf", "is_disabled": 0, "rental_uris": {"android": "https://dc.lft.to/lastmile_qr_scan", "ios": "https://dc.lft.to/lastmile_qr_scan"}, "fusion_lon": 0.0, "lat": 38.91403783333333, "bike_id": "1fa9f956bde0f05cb89fa17ea5b087cf", "type": "electric_scooter", "is_reserved": 0, "lon": -77.02208066666667}, {"fusion_lat": 0.0, "name": "136caaf1e90f0817247386d063ba55de", "is_disabled": 0, "rental_uris": {"android": "https://dc.lft.to/lastmile_qr_scan", "ios": "https://dc.lft.to/lastmile_qr_scan"}, "fusion_lon": 0.0, "lat": 38.92133366666667, "bike_id": "136caaf1e90f0817247386d063ba55de", "type": "electric_scooter", "is_reserved": 0, "lon": -77.00401216666667}, {"fusion_lat": 0.0, "name": "2cc1813c761932afc4c4e68ddbe66bd7", "is_disabled": 0, "rental_uris": {"android": "https://dc.lft.to/lastmile_qr_scan", "ios": "https://dc.lft.to/lastmile_qr_scan"}, "fusion_lon": 0.0, "lat": 38.91646433333333, "bike_id": "2cc1813c761932afc4c4e68ddbe66bd7", "type": "electric_scooter", "is_reserved": 0, "lon": -77.0217865}, {"fusion_lat": 0.0, "name": "9a1c57c03921dd51b9a592d7949a71c7", "is_disabled": 0, "rental_uris": {"android": "https://dc.lft.to/lastmile_qr_scan", "ios": "https://dc.lft.to/lastmile_qr_scan"}, "fusion_lon": 0.0, "lat": 38.925994333333335, "bike_id": "9a1c57c03921dd51b9a592d7949a71c7", "type": "electric_bike", "is_reserved": 0, "lon": -77.0642615}, {"fusion_lat": 0.0, "name": "37a69ea0a99b378b2b558e1d311127b6", "is_disabled": 0, "rental_uris": {"android": "https://dc.lft.to/lastmile_qr_scan", "ios": "https://dc.lft.to/lastmile_qr_scan"}, "fusion_lon": 0.0, "lat": 38.90808783333333, "bike_id": "37a69ea0a99b378b2b558e1d311127b6", "type": "electric_scooter", "is_reserved": 0, "lon": -77.02982316666667}, {"fusion_lat": 0.0, "name": "447a35458cbd9c14deca4a291f9c378c", "is_disabled": 0, "rental_uris": {"android": "https://dc.lft.to/lastmile_qr_scan", "ios": "https://dc.lft.to/lastmile_qr_scan"}, "fusion_lon": 0.0, "lat": 38.93819833333333, "bike_id": "447a35458cbd9c14deca4a291f9c378c", "type": "electric_scooter", "is_reserved": 0, "lon": -77.03279566666667}, {"fusion_lat": 0.0, "name": "d70bfb4742bea2ba2f444d3d648ef604", "is_disabled": 0, "rental_uris": {"android": "https://dc.lft.to/lastmile_qr_scan", "ios": "https://dc.lft.to/lastmile_qr_scan"}, "fusion_lon": 0.0, "lat": 38.93780066666667, "bike_id": "d70bfb4742bea2ba2f444d3d648ef604", "type": "electric_scooter", "is_reserved": 0, "lon": -77.032633}, {"fusion_lat": 0.0, "name": "160e45a1a3d1d73dffaae9a00cfa4068", "is_disabled": 0, "rental_uris": {"android": "https://dc.lft.to/lastmile_qr_scan", "ios": "https://dc.lft.to/lastmile_qr_scan"}, "fusion_lon": 0.0, "lat": 38.89845733333333, "bike_id": "160e45a1a3d1d73dffaae9a00cfa4068", "type": "electric_scooter", "is_reserved": 0, "lon": -77.02958683333334}, {"fusion_lat": 0.0, "name": "3bc770612432c310719ebef2578d4ab9", "is_disabled": 0, "rental_uris": {"android": "https://dc.lft.to/lastmile_qr_scan", "ios": "https://dc.lft.to/lastmile_qr_scan"}, "fusion_lon": 0.0, "lat": 38.9120155, "bike_id": "3bc770612432c310719ebef2578d4ab9", "type": "electric_scooter", "is_reserved": 0, "lon": -77.0376015}, {"fusion_lat": 0.0, "name": "6f7474caed2d0bdd7142e30ddd1a0651", "is_disabled": 0, "rental_uris": {"android": "https://dc.lft.to/lastmile_qr_scan", "ios": "https://dc.lft.to/lastmile_qr_scan"}, "fusion_lon": 0.0, "lat": 38.919193666666665, "bike_id": "6f7474caed2d0bdd7142e30ddd1a0651", "type": "electric_scooter", "is_reserved": 0, "lon": -77.02435433333333}, {"fusion_lat": 0.0, "name": "1e10e6921610b6a821fc8f6d134f228c", "is_disabled": 0, "rental_uris": {"android": "https://dc.lft.to/lastmile_qr_scan", "ios": "https://dc.lft.to/lastmile_qr_scan"}, "fusion_lon": 0.0, "lat": 38.93106516666667, "bike_id": "1e10e6921610b6a821fc8f6d134f228c", "type": "electric_scooter", "is_reserved": 0, "lon": -77.02381316666667}, {"fusion_lat": 0.0, "name": "d457c70006a76b4157d9be9e37c9376e", "is_disabled": 0, "rental_uris": {"android": "https://dc.lft.to/lastmile_qr_scan", "ios": "https://dc.lft.to/lastmile_qr_scan"}, "fusion_lon": 0.0, "lat": 38.8921595, "bike_id": "d457c70006a76b4157d9be9e37c9376e", "type": "electric_scooter", "is_reserved": 0, "lon": -76.995726}, {"fusion_lat": 0.0, "name": "37d9ee608edebe5fd88f33e926a01f94", "is_disabled": 0, "rental_uris": {"android": "https://dc.lft.to/lastmile_qr_scan", "ios": "https://dc.lft.to/lastmile_qr_scan"}, "fusion_lon": 0.0, "lat": 38.918175, "bike_id": "37d9ee608edebe5fd88f33e926a01f94", "type": "electric_scooter", "is_reserved": 0, "lon": -77.040017}, {"fusion_lat": 0.0, "name": "53cfb1f579d5a4aa7cf0423f46e3f1bc", "is_disabled": 0, "rental_uris": {"android": "https://dc.lft.to/lastmile_qr_scan", "ios": "https://dc.lft.to/lastmile_qr_scan"}, "fusion_lon": 0.0, "lat": 38.905831, "bike_id": "53cfb1f579d5a4aa7cf0423f46e3f1bc", "type": "electric_scooter", "is_reserved": 0, "lon": -77.04457983333333}, {"fusion_lat": 0.0, "name": "62a3adb16d9afcbcbdf8576090e95240", "is_disabled": 0, "rental_uris": {"android": "https://dc.lft.to/lastmile_qr_scan", "ios": "https://dc.lft.to/lastmile_qr_scan"}, "fusion_lon": 0.0, "lat": 38.912642166666664, "bike_id": "62a3adb16d9afcbcbdf8576090e95240", "type": "electric_scooter", "is_reserved": 0, "lon": -77.02820966666667}, {"fusion_lat": 0.0, "name": "ab994fdb445584b40455456fb65a82b1", "is_disabled": 0, "rental_uris": {"android": "https://dc.lft.to/lastmile_qr_scan", "ios": "https://dc.lft.to/lastmile_qr_scan"}, "fusion_lon": 0.0, "lat": 38.956055666666664, "bike_id": "ab994fdb445584b40455456fb65a82b1", "type": "electric_scooter", "is_reserved": 0, "lon": -77.03354666666667}, {"fusion_lat": 0.0, "name": "c19b86acc3eb49f93dd0fe7f22458324", "is_disabled": 0, "rental_uris": {"android": "https://dc.lft.to/lastmile_qr_scan", "ios": "https://dc.lft.to/lastmile_qr_scan"}, "fusion_lon": 0.0, "lat": 38.9230845, "bike_id": "c19b86acc3eb49f93dd0fe7f22458324", "type": "electric_scooter", "is_reserved": 0, "lon": -77.02253083333333}, {"fusion_lat": 0.0, "name": "b1224c778655ea8c9ca98aa53d79fdbb", "is_disabled": 0, "rental_uris": {"android": "https://dc.lft.to/lastmile_qr_scan", "ios": "https://dc.lft.to/lastmile_qr_scan"}, "fusion_lon": 0.0, "lat": 38.90722, "bike_id": "b1224c778655ea8c9ca98aa53d79fdbb", "type": "electric_scooter", "is_reserved": 0, "lon": -77.050018}, {"fusion_lat": 0.0, "name": "70becddc474520883ca0b651d2a136e0", "is_disabled": 0, "rental_uris": {"android": "https://dc.lft.to/lastmile_qr_scan", "ios": "https://dc.lft.to/lastmile_qr_scan"}, "fusion_lon": 0.0, "lat": 38.93359066666667, "bike_id": "70becddc474520883ca0b651d2a136e0", "type": "electric_scooter", "is_reserved": 0, "lon": -77.02498016666667}, {"fusion_lat": 0.0, "name": "fdd14c27d42c74a7a6b37e5b1a01e470", "is_disabled": 0, "rental_uris": {"android": "https://dc.lft.to/lastmile_qr_scan", "ios": "https://dc.lft.to/lastmile_qr_scan"}, "fusion_lon": 0.0, "lat": 38.961208166666665, "bike_id": "fdd14c27d42c74a7a6b37e5b1a01e470", "type": "electric_scooter", "is_reserved": 0, "lon": -77.02786066666667}, {"fusion_lat": 0.0, "name": "2c3f59e1b03839aaeaecbc67dd1c8cf4", "is_disabled": 0, "rental_uris": {"android": "https://dc.lft.to/lastmile_qr_scan", "ios": "https://dc.lft.to/lastmile_qr_scan"}, "fusion_lon": 0.0, "lat": 38.92989466666667, "bike_id": "2c3f59e1b03839aaeaecbc67dd1c8cf4", "type": "electric_scooter", "is_reserved": 0, "lon": -77.03232866666667}, {"fusion_lat": 0.0, "name": "e8992399c3dc0eb0b367d3bbb88ad8b2", "is_disabled": 0, "rental_uris": {"android": "https://dc.lft.to/lastmile_qr_scan", "ios": "https://dc.lft.to/lastmile_qr_scan"}, "fusion_lon": 0.0, "lat": 38.927469333333335, "bike_id": "e8992399c3dc0eb0b367d3bbb88ad8b2", "type": "electric_scooter", "is_reserved": 0, "lon": -77.03280283333334}, {"fusion_lat": 0.0, "name": "b7b0414f8a9f374865d68277bc5eb945", "is_disabled": 0, "rental_uris": {"android": "https://dc.lft.to/lastmile_qr_scan", "ios": "https://dc.lft.to/lastmile_qr_scan"}, "fusion_lon": 0.0, "lat": 38.905675, "bike_id": "b7b0414f8a9f374865d68277bc5eb945", "type": "electric_scooter", "is_reserved": 0, "lon": -77.0059825}, {"fusion_lat": 0.0, "name": "c225ce8f46b112962686f22f5ca266c6", "is_disabled": 0, "rental_uris": {"android": "https://dc.lft.to/lastmile_qr_scan", "ios": "https://dc.lft.to/lastmile_qr_scan"}, "fusion_lon": 0.0, "lat": 38.89223583333333, "bike_id": "c225ce8f46b112962686f22f5ca266c6", "type": "electric_scooter", "is_reserved": 0, "lon": -77.04189283333334}, {"fusion_lat": 0.0, "name": "4fc3d55bfff80f28c3bdd8c14be7f6d2", "is_disabled": 0, "rental_uris": {"android": "https://dc.lft.to/lastmile_qr_scan", "ios": "https://dc.lft.to/lastmile_qr_scan"}, "fusion_lon": 0.0, "lat": 38.93326116666667, "bike_id": "4fc3d55bfff80f28c3bdd8c14be7f6d2", "type": "electric_scooter", "is_reserved": 0, "lon": -77.03813566666666}, {"fusion_lat": 0.0, "name": "f2816ccc78fa13ac00241a47465ad33c", "is_disabled": 0, "rental_uris": {"android": "https://dc.lft.to/lastmile_qr_scan", "ios": "https://dc.lft.to/lastmile_qr_scan"}, "fusion_lon": 0.0, "lat": 38.91498883333333, "bike_id": "f2816ccc78fa13ac00241a47465ad33c", "type": "electric_scooter", "is_reserved": 0, "lon": -77.01220816666667}, {"fusion_lat": 0.0, "name": "48675b68d2792a10f83fa8b3c327b64d", "is_disabled": 0, "rental_uris": {"android": "https://dc.lft.to/lastmile_qr_scan", "ios": "https://dc.lft.to/lastmile_qr_scan"}, "fusion_lon": 0.0, "lat": 38.892747166666666, "bike_id": "48675b68d2792a10f83fa8b3c327b64d", "type": "electric_scooter", "is_reserved": 0, "lon": -77.03173233333334}, {"fusion_lat": 0.0, "name": "5a8e61672191e71ae71b0c60d655cfad", "is_disabled": 0, "rental_uris": {"android": "https://dc.lft.to/lastmile_qr_scan", "ios": "https://dc.lft.to/lastmile_qr_scan"}, "fusion_lon": 0.0, "lat": 38.9176345, "bike_id": "5a8e61672191e71ae71b0c60d655cfad", "type": "electric_scooter", "is_reserved": 0, "lon": -77.0695305}, {"fusion_lat": 0.0, "name": "59b6b350f125307b60187bbb40f8c6af", "is_disabled": 0, "rental_uris": {"android": "https://dc.lft.to/lastmile_qr_scan", "ios": "https://dc.lft.to/lastmile_qr_scan"}, "fusion_lon": 0.0, "lat": 38.92644583333333, "bike_id": "59b6b350f125307b60187bbb40f8c6af", "type": "electric_scooter", "is_reserved": 0, "lon": -77.04134716666667}, {"fusion_lat": 0.0, "name": "1758e3787750782e7ddc85b84c6b7427", "is_disabled": 0, "rental_uris": {"android": "https://dc.lft.to/lastmile_qr_scan", "ios": "https://dc.lft.to/lastmile_qr_scan"}, "fusion_lon": 0.0, "lat": 38.8746475, "bike_id": "1758e3787750782e7ddc85b84c6b7427", "type": "electric_scooter", "is_reserved": 0, "lon": -77.0046845}, {"fusion_lat": 0.0, "name": "7bdb9a038099a95bcff1b983de65c73a", "is_disabled": 0, "rental_uris": {"android": "https://dc.lft.to/lastmile_qr_scan", "ios": "https://dc.lft.to/lastmile_qr_scan"}, "fusion_lon": 0.0, "lat": 38.8739125, "bike_id": "7bdb9a038099a95bcff1b983de65c73a", "type": "electric_scooter", "is_reserved": 0, "lon": -77.000628}, {"fusion_lat": 0.0, "name": "c2184f8f73f050b9a4a8921ae9904acd", "is_disabled": 0, "rental_uris": {"android": "https://dc.lft.to/lastmile_qr_scan", "ios": "https://dc.lft.to/lastmile_qr_scan"}, "fusion_lon": 0.0, "lat": 38.9311265, "bike_id": "c2184f8f73f050b9a4a8921ae9904acd", "type": "electric_scooter", "is_reserved": 0, "lon": -77.020948}, {"fusion_lat": 0.0, "name": "a6a80dab87b27eea4615e4b0dc73f56a", "is_disabled": 0, "rental_uris": {"android": "https://dc.lft.to/lastmile_qr_scan", "ios": "https://dc.lft.to/lastmile_qr_scan"}, "fusion_lon": 0.0, "lat": 38.92357283333333, "bike_id": "a6a80dab87b27eea4615e4b0dc73f56a", "type": "electric_scooter", "is_reserved": 0, "lon": -77.03314166666667}, {"fusion_lat": 0.0, "name": "8905def66145f35985e17141c93fe840", "is_disabled": 0, "rental_uris": {"android": "https://dc.lft.to/lastmile_qr_scan", "ios": "https://dc.lft.to/lastmile_qr_scan"}, "fusion_lon": 0.0, "lat": 38.915496, "bike_id": "8905def66145f35985e17141c93fe840", "type": "electric_scooter", "is_reserved": 0, "lon": -77.03844516666666}, {"fusion_lat": 0.0, "name": "f8a5d2d090a46eab850ceb0927877779", "is_disabled": 0, "rental_uris": {"android": "https://dc.lft.to/lastmile_qr_scan", "ios": "https://dc.lft.to/lastmile_qr_scan"}, "fusion_lon": 0.0, "lat": 38.91040866666667, "bike_id": "f8a5d2d090a46eab850ceb0927877779", "type": "electric_scooter", "is_reserved": 0, "lon": -77.04280716666666}, {"fusion_lat": 0.0, "name": "d00deaa0af325a18f5b2d4345ab79739", "is_disabled": 0, "rental_uris": {"android": "https://dc.lft.to/lastmile_qr_scan", "ios": "https://dc.lft.to/lastmile_qr_scan"}, "fusion_lon": 0.0, "lat": 38.9077595, "bike_id": "d00deaa0af325a18f5b2d4345ab79739", "type": "electric_scooter", "is_reserved": 0, "lon": -76.99384383333333}, {"fusion_lat": 0.0, "name": "86a5e598b1d8d38aba594d655b1bdb42", "is_disabled": 0, "rental_uris": {"android": "https://dc.lft.to/lastmile_qr_scan", "ios": "https://dc.lft.to/lastmile_qr_scan"}, "fusion_lon": 0.0, "lat": 38.89471433333333, "bike_id": "86a5e598b1d8d38aba594d655b1bdb42", "type": "electric_scooter", "is_reserved": 0, "lon": -77.01767916666667}, {"fusion_lat": 0.0, "name": "611eee2df2a128761d88660f2ff0c90a", "is_disabled": 0, "rental_uris": {"android": "https://dc.lft.to/lastmile_qr_scan", "ios": "https://dc.lft.to/lastmile_qr_scan"}, "fusion_lon": 0.0, "lat": 38.902383, "bike_id": "611eee2df2a128761d88660f2ff0c90a", "type": "electric_scooter", "is_reserved": 0, "lon": -77.00197683333333}, {"fusion_lat": 0.0, "name": "bd34c681436554fcd4e31f79a1d2eba1", "is_disabled": 0, "rental_uris": {"android": "https://dc.lft.to/lastmile_qr_scan", "ios": "https://dc.lft.to/lastmile_qr_scan"}, "fusion_lon": 0.0, "lat": 38.92759983333333, "bike_id": "bd34c681436554fcd4e31f79a1d2eba1", "type": "electric_scooter", "is_reserved": 0, "lon": -77.02960633333333}, {"fusion_lat": 0.0, "name": "b8c9d7302d78981e7299fdfc2f9e2e78", "is_disabled": 0, "rental_uris": {"android": "https://dc.lft.to/lastmile_qr_scan", "ios": "https://dc.lft.to/lastmile_qr_scan"}, "fusion_lon": 0.0, "lat": 38.912596, "bike_id": "b8c9d7302d78981e7299fdfc2f9e2e78", "type": "electric_scooter", "is_reserved": 0, "lon": -77.0386955}, {"fusion_lat": 0.0, "name": "e07306230641820c730c38c77362b1d1", "is_disabled": 0, "rental_uris": {"android": "https://dc.lft.to/lastmile_qr_scan", "ios": "https://dc.lft.to/lastmile_qr_scan"}, "fusion_lon": 0.0, "lat": 38.896068, "bike_id": "e07306230641820c730c38c77362b1d1", "type": "electric_scooter", "is_reserved": 0, "lon": -77.00930466666667}, {"fusion_lat": 0.0, "name": "b461caa2f1da9242841bb0684d0ec45a", "is_disabled": 0, "rental_uris": {"android": "https://dc.lft.to/lastmile_qr_scan", "ios": "https://dc.lft.to/lastmile_qr_scan"}, "fusion_lon": 0.0, "lat": 38.9176605, "bike_id": "b461caa2f1da9242841bb0684d0ec45a", "type": "electric_scooter", "is_reserved": 0, "lon": -77.01473483333334}, {"fusion_lat": 0.0, "name": "3a2d4f14510773a7fa35d01de6461168", "is_disabled": 0, "rental_uris": {"android": "https://dc.lft.to/lastmile_qr_scan", "ios": "https://dc.lft.to/lastmile_qr_scan"}, "fusion_lon": 0.0, "lat": 38.92146133333333, "bike_id": "3a2d4f14510773a7fa35d01de6461168", "type": "electric_scooter", "is_reserved": 0, "lon": -77.04006716666666}, {"fusion_lat": 0.0, "name": "899bf88fb0f14b2a05a2aa7588622459", "is_disabled": 0, "rental_uris": {"android": "https://dc.lft.to/lastmile_qr_scan", "ios": "https://dc.lft.to/lastmile_qr_scan"}, "fusion_lon": 0.0, "lat": 38.883855, "bike_id": "899bf88fb0f14b2a05a2aa7588622459", "type": "electric_scooter", "is_reserved": 0, "lon": -77.0196665}, {"fusion_lat": 0.0, "name": "6212cdab66d5cba166d5806b32ffcdbb", "is_disabled": 0, "rental_uris": {"android": "https://dc.lft.to/lastmile_qr_scan", "ios": "https://dc.lft.to/lastmile_qr_scan"}, "fusion_lon": 0.0, "lat": 38.9417725, "bike_id": "6212cdab66d5cba166d5806b32ffcdbb", "type": "electric_scooter", "is_reserved": 0, "lon": -77.03653233333333}, {"fusion_lat": 0.0, "name": "18a82cd754d2b1551dba46f0df0a8365", "is_disabled": 0, "rental_uris": {"android": "https://dc.lft.to/lastmile_qr_scan", "ios": "https://dc.lft.to/lastmile_qr_scan"}, "fusion_lon": 0.0, "lat": 38.903969000000004, "bike_id": "18a82cd754d2b1551dba46f0df0a8365", "type": "electric_scooter", "is_reserved": 0, "lon": -76.9901005}, {"fusion_lat": 0.0, "name": "75075425deea315c9427833d6e1b4373", "is_disabled": 0, "rental_uris": {"android": "https://dc.lft.to/lastmile_qr_scan", "ios": "https://dc.lft.to/lastmile_qr_scan"}, "fusion_lon": 0.0, "lat": 38.918192833333336, "bike_id": "75075425deea315c9427833d6e1b4373", "type": "electric_scooter", "is_reserved": 0, "lon": -77.04004366666666}, {"fusion_lat": 0.0, "name": "f78570684a1cd18dc8811245a959298d", "is_disabled": 0, "rental_uris": {"android": "https://dc.lft.to/lastmile_qr_scan", "ios": "https://dc.lft.to/lastmile_qr_scan"}, "fusion_lon": 0.0, "lat": 38.9009965, "bike_id": "f78570684a1cd18dc8811245a959298d", "type": "electric_scooter", "is_reserved": 0, "lon": -77.01978566666666}, {"fusion_lat": 0.0, "name": "077f22486ee7547451b62584cd4b184f", "is_disabled": 0, "rental_uris": {"android": "https://dc.lft.to/lastmile_qr_scan", "ios": "https://dc.lft.to/lastmile_qr_scan"}, "fusion_lon": 0.0, "lat": 38.85802016666667, "bike_id": "077f22486ee7547451b62584cd4b184f", "type": "electric_bike", "is_reserved": 0, "lon": -76.9872255}, {"fusion_lat": 0.0, "name": "0c2e7557f05c35db33a7da6d09111f91", "is_disabled": 0, "rental_uris": {"android": "https://dc.lft.to/lastmile_qr_scan", "ios": "https://dc.lft.to/lastmile_qr_scan"}, "fusion_lon": 0.0, "lat": 38.923675333333335, "bike_id": "0c2e7557f05c35db33a7da6d09111f91", "type": "electric_scooter", "is_reserved": 0, "lon": -77.03615116666667}, {"fusion_lat": 0.0, "name": "df950066d7c5d667f30f5c9322d59a04", "is_disabled": 0, "rental_uris": {"android": "https://dc.lft.to/lastmile_qr_scan", "ios": "https://dc.lft.to/lastmile_qr_scan"}, "fusion_lon": 0.0, "lat": 38.92061916666667, "bike_id": "df950066d7c5d667f30f5c9322d59a04", "type": "electric_scooter", "is_reserved": 0, "lon": -77.03242566666667}, {"fusion_lat": 0.0, "name": "ab088fdf7f9d2c80b1da1e068f6f019f", "is_disabled": 0, "rental_uris": {"android": "https://dc.lft.to/lastmile_qr_scan", "ios": "https://dc.lft.to/lastmile_qr_scan"}, "fusion_lon": 0.0, "lat": 38.922051333333336, "bike_id": "ab088fdf7f9d2c80b1da1e068f6f019f", "type": "electric_scooter", "is_reserved": 0, "lon": -76.9969905}, {"fusion_lat": 0.0, "name": "9c57816a97ef4ddc2176f02715524ab6", "is_disabled": 0, "rental_uris": {"android": "https://dc.lft.to/lastmile_qr_scan", "ios": "https://dc.lft.to/lastmile_qr_scan"}, "fusion_lon": 0.0, "lat": 38.89546566666667, "bike_id": "9c57816a97ef4ddc2176f02715524ab6", "type": "electric_scooter", "is_reserved": 0, "lon": -76.98338266666667}, {"fusion_lat": 0.0, "name": "1dc97cc5028f45b4161ad8d83299cf91", "is_disabled": 0, "rental_uris": {"android": "https://dc.lft.to/lastmile_qr_scan", "ios": "https://dc.lft.to/lastmile_qr_scan"}, "fusion_lon": 0.0, "lat": 38.862582333333336, "bike_id": "1dc97cc5028f45b4161ad8d83299cf91", "type": "electric_bike", "is_reserved": 0, "lon": -76.983339}, {"fusion_lat": 0.0, "name": "79dd30c0a05a2484b0036d36abca6ddb", "is_disabled": 0, "rental_uris": {"android": "https://dc.lft.to/lastmile_qr_scan", "ios": "https://dc.lft.to/lastmile_qr_scan"}, "fusion_lon": 0.0, "lat": 38.922296333333335, "bike_id": "79dd30c0a05a2484b0036d36abca6ddb", "type": "electric_scooter", "is_reserved": 0, "lon": -77.02981533333333}, {"fusion_lat": 0.0, "name": "b4948c63b3fcfc5a48b5f896ecf260eb", "is_disabled": 0, "rental_uris": {"android": "https://dc.lft.to/lastmile_qr_scan", "ios": "https://dc.lft.to/lastmile_qr_scan"}, "fusion_lon": 0.0, "lat": 38.91686266666667, "bike_id": "b4948c63b3fcfc5a48b5f896ecf260eb", "type": "electric_scooter", "is_reserved": 0, "lon": -77.02279683333333}, {"fusion_lat": 0.0, "name": "bd7e4ddab772883964bc0618642c1a9e", "is_disabled": 0, "rental_uris": {"android": "https://dc.lft.to/lastmile_qr_scan", "ios": "https://dc.lft.to/lastmile_qr_scan"}, "fusion_lon": 0.0, "lat": 38.914039833333334, "bike_id": "bd7e4ddab772883964bc0618642c1a9e", "type": "electric_scooter", "is_reserved": 0, "lon": -77.010689}, {"fusion_lat": 0.0, "name": "248b331f2ddaf1e0377efee8b868e5d4", "is_disabled": 0, "rental_uris": {"android": "https://dc.lft.to/lastmile_qr_scan", "ios": "https://dc.lft.to/lastmile_qr_scan"}, "fusion_lon": 0.0, "lat": 38.88735883333333, "bike_id": "248b331f2ddaf1e0377efee8b868e5d4", "type": "electric_scooter", "is_reserved": 0, "lon": -77.03238616666667}, {"fusion_lat": 0.0, "name": "48a756da1bc905c6be931cab6a935d7e", "is_disabled": 0, "rental_uris": {"android": "https://dc.lft.to/lastmile_qr_scan", "ios": "https://dc.lft.to/lastmile_qr_scan"}, "fusion_lon": 0.0, "lat": 38.92161433333333, "bike_id": "48a756da1bc905c6be931cab6a935d7e", "type": "electric_scooter", "is_reserved": 0, "lon": -77.03362916666667}, {"fusion_lat": 0.0, "name": "1ec6a3c9e82b5724ac93c3572a70392c", "is_disabled": 0, "rental_uris": {"android": "https://dc.lft.to/lastmile_qr_scan", "ios": "https://dc.lft.to/lastmile_qr_scan"}, "fusion_lon": 0.0, "lat": 38.920465, "bike_id": "1ec6a3c9e82b5724ac93c3572a70392c", "type": "electric_scooter", "is_reserved": 0, "lon": -77.01754183333334}, {"fusion_lat": 0.0, "name": "8f4d45a7010f7c07f6fcde109d898275", "is_disabled": 0, "rental_uris": {"android": "https://dc.lft.to/lastmile_qr_scan", "ios": "https://dc.lft.to/lastmile_qr_scan"}, "fusion_lon": 0.0, "lat": 38.923862666666665, "bike_id": "8f4d45a7010f7c07f6fcde109d898275", "type": "electric_scooter", "is_reserved": 0, "lon": -77.041146}, {"fusion_lat": 0.0, "name": "109acab8632c809c547faceed777a0a9", "is_disabled": 0, "rental_uris": {"android": "https://dc.lft.to/lastmile_qr_scan", "ios": "https://dc.lft.to/lastmile_qr_scan"}, "fusion_lon": 0.0, "lat": 38.863923, "bike_id": "109acab8632c809c547faceed777a0a9", "type": "electric_bike", "is_reserved": 0, "lon": -76.99001833333334}, {"fusion_lat": 0.0, "name": "3f23ea70ca5fa8367aa2e45cd774ccb8", "is_disabled": 0, "rental_uris": {"android": "https://dc.lft.to/lastmile_qr_scan", "ios": "https://dc.lft.to/lastmile_qr_scan"}, "fusion_lon": 0.0, "lat": 38.91553233333333, "bike_id": "3f23ea70ca5fa8367aa2e45cd774ccb8", "type": "electric_scooter", "is_reserved": 0, "lon": -77.00364133333333}, {"fusion_lat": 0.0, "name": "db92db933feb24cff3954ce535e2472d", "is_disabled": 0, "rental_uris": {"android": "https://dc.lft.to/lastmile_qr_scan", "ios": "https://dc.lft.to/lastmile_qr_scan"}, "fusion_lon": 0.0, "lat": 38.919909, "bike_id": "db92db933feb24cff3954ce535e2472d", "type": "electric_scooter", "is_reserved": 0, "lon": -77.03277966666667}, {"fusion_lat": 0.0, "name": "da3842600f37b0547c1a2390241483fd", "is_disabled": 0, "rental_uris": {"android": "https://dc.lft.to/lastmile_qr_scan", "ios": "https://dc.lft.to/lastmile_qr_scan"}, "fusion_lon": 0.0, "lat": 38.909610666666666, "bike_id": "da3842600f37b0547c1a2390241483fd", "type": "electric_scooter", "is_reserved": 0, "lon": -77.03945683333333}, {"fusion_lat": 0.0, "name": "06e1746cb8fc5be697a46a71dc32adf8", "is_disabled": 0, "rental_uris": {"android": "https://dc.lft.to/lastmile_qr_scan", "ios": "https://dc.lft.to/lastmile_qr_scan"}, "fusion_lon": 0.0, "lat": 38.92848683333333, "bike_id": "06e1746cb8fc5be697a46a71dc32adf8", "type": "electric_scooter", "is_reserved": 0, "lon": -77.0329875}, {"fusion_lat": 0.0, "name": "c97b5e7ef9c49527fe051df53a251783", "is_disabled": 0, "rental_uris": {"android": "https://dc.lft.to/lastmile_qr_scan", "ios": "https://dc.lft.to/lastmile_qr_scan"}, "fusion_lon": 0.0, "lat": 38.887267, "bike_id": "c97b5e7ef9c49527fe051df53a251783", "type": "electric_scooter", "is_reserved": 0, "lon": -77.01762033333333}, {"fusion_lat": 0.0, "name": "86e6afa820590eabe30dd89d9cba69af", "is_disabled": 0, "rental_uris": {"android": "https://dc.lft.to/lastmile_qr_scan", "ios": "https://dc.lft.to/lastmile_qr_scan"}, "fusion_lon": 0.0, "lat": 38.8428075, "bike_id": "86e6afa820590eabe30dd89d9cba69af", "type": "electric_bike", "is_reserved": 0, "lon": -76.98840566666667}, {"fusion_lat": 0.0, "name": "698fd5ece5e911387f97f4699ff2ff0e", "is_disabled": 0, "rental_uris": {"android": "https://dc.lft.to/lastmile_qr_scan", "ios": "https://dc.lft.to/lastmile_qr_scan"}, "fusion_lon": 0.0, "lat": 38.899631, "bike_id": "698fd5ece5e911387f97f4699ff2ff0e", "type": "electric_scooter", "is_reserved": 0, "lon": -77.01603033333333}, {"fusion_lat": 0.0, "name": "77c6ff16d81f0b12070859f8c30e585a", "is_disabled": 0, "rental_uris": {"android": "https://dc.lft.to/lastmile_qr_scan", "ios": "https://dc.lft.to/lastmile_qr_scan"}, "fusion_lon": 0.0, "lat": 38.91796733333334, "bike_id": "77c6ff16d81f0b12070859f8c30e585a", "type": "electric_scooter", "is_reserved": 0, "lon": -77.034408}, {"fusion_lat": 0.0, "name": "c0515d6b49900f845ed70ec28b2a1cfe", "is_disabled": 0, "rental_uris": {"android": "https://dc.lft.to/lastmile_qr_scan", "ios": "https://dc.lft.to/lastmile_qr_scan"}, "fusion_lon": 0.0, "lat": 38.896196833333335, "bike_id": "c0515d6b49900f845ed70ec28b2a1cfe", "type": "electric_scooter", "is_reserved": 0, "lon": -76.94771866666666}, {"fusion_lat": 0.0, "name": "deb95939a9ea0bf5b53811d329463c58", "is_disabled": 0, "rental_uris": {"android": "https://dc.lft.to/lastmile_qr_scan", "ios": "https://dc.lft.to/lastmile_qr_scan"}, "fusion_lon": 0.0, "lat": 38.8715875, "bike_id": "deb95939a9ea0bf5b53811d329463c58", "type": "electric_bike", "is_reserved": 0, "lon": -77.13145983333334}, {"fusion_lat": 0.0, "name": "762c3f2813174921c9779dc89286c4a4", "is_disabled": 0, "rental_uris": {"android": "https://dc.lft.to/lastmile_qr_scan", "ios": "https://dc.lft.to/lastmile_qr_scan"}, "fusion_lon": 0.0, "lat": 38.8983955, "bike_id": "762c3f2813174921c9779dc89286c4a4", "type": "electric_scooter", "is_reserved": 0, "lon": -77.021886}, {"fusion_lat": 0.0, "name": "20a4360ef6df58a401f23751ae502b3b", "is_disabled": 0, "rental_uris": {"android": "https://dc.lft.to/lastmile_qr_scan", "ios": "https://dc.lft.to/lastmile_qr_scan"}, "fusion_lon": 0.0, "lat": 38.8922055, "bike_id": "20a4360ef6df58a401f23751ae502b3b", "type": "electric_scooter", "is_reserved": 0, "lon": -77.04503783333334}, {"fusion_lat": 0.0, "name": "e40b231df2d38825bfb946e906a931bd", "is_disabled": 0, "rental_uris": {"android": "https://dc.lft.to/lastmile_qr_scan", "ios": "https://dc.lft.to/lastmile_qr_scan"}, "fusion_lon": 0.0, "lat": 38.93097316666667, "bike_id": "e40b231df2d38825bfb946e906a931bd", "type": "electric_scooter", "is_reserved": 0, "lon": -77.0344255}, {"fusion_lat": 0.0, "name": "49e48b88731fa0182275c6f8f81e9ee5", "is_disabled": 0, "rental_uris": {"android": "https://dc.lft.to/lastmile_qr_scan", "ios": "https://dc.lft.to/lastmile_qr_scan"}, "fusion_lon": 0.0, "lat": 38.875655, "bike_id": "49e48b88731fa0182275c6f8f81e9ee5", "type": "electric_scooter", "is_reserved": 0, "lon": -77.00623883333333}, {"fusion_lat": 0.0, "name": "693f786497cd54f54996cfae523feaac", "is_disabled": 0, "rental_uris": {"android": "https://dc.lft.to/lastmile_qr_scan", "ios": "https://dc.lft.to/lastmile_qr_scan"}, "fusion_lon": 0.0, "lat": 38.9323975, "bike_id": "693f786497cd54f54996cfae523feaac", "type": "electric_scooter", "is_reserved": 0, "lon": -77.03411016666666}, {"fusion_lat": 0.0, "name": "a1e3cd205b1b6d3836bc15662240483a", "is_disabled": 0, "rental_uris": {"android": "https://dc.lft.to/lastmile_qr_scan", "ios": "https://dc.lft.to/lastmile_qr_scan"}, "fusion_lon": 0.0, "lat": 38.92532816666667, "bike_id": "a1e3cd205b1b6d3836bc15662240483a", "type": "electric_bike", "is_reserved": 0, "lon": -77.050885}, {"fusion_lat": 0.0, "name": "415bffb7fc421b4ba1f19305e92be667", "is_disabled": 0, "rental_uris": {"android": "https://dc.lft.to/lastmile_qr_scan", "ios": "https://dc.lft.to/lastmile_qr_scan"}, "fusion_lon": 0.0, "lat": 38.9050915, "bike_id": "415bffb7fc421b4ba1f19305e92be667", "type": "electric_scooter", "is_reserved": 0, "lon": -77.0638125}, {"fusion_lat": 0.0, "name": "e26e4f838428c05942237bba9841c376", "is_disabled": 0, "rental_uris": {"android": "https://dc.lft.to/lastmile_qr_scan", "ios": "https://dc.lft.to/lastmile_qr_scan"}, "fusion_lon": 0.0, "lat": 38.89875466666667, "bike_id": "e26e4f838428c05942237bba9841c376", "type": "electric_scooter", "is_reserved": 0, "lon": -77.0089345}, {"fusion_lat": 0.0, "name": "be995f031f8fc88e181162e17d15bd00", "is_disabled": 0, "rental_uris": {"android": "https://dc.lft.to/lastmile_qr_scan", "ios": "https://dc.lft.to/lastmile_qr_scan"}, "fusion_lon": 0.0, "lat": 38.89758483333333, "bike_id": "be995f031f8fc88e181162e17d15bd00", "type": "electric_scooter", "is_reserved": 0, "lon": -77.04487783333333}, {"fusion_lat": 0.0, "name": "e2967c57657eee0e46849eb0c0fca367", "is_disabled": 0, "rental_uris": {"android": "https://dc.lft.to/lastmile_qr_scan", "ios": "https://dc.lft.to/lastmile_qr_scan"}, "fusion_lon": 0.0, "lat": 38.876596, "bike_id": "e2967c57657eee0e46849eb0c0fca367", "type": "electric_scooter", "is_reserved": 0, "lon": -77.00293533333334}, {"fusion_lat": 0.0, "name": "733938702cef050782cb87a39024e0db", "is_disabled": 0, "rental_uris": {"android": "https://dc.lft.to/lastmile_qr_scan", "ios": "https://dc.lft.to/lastmile_qr_scan"}, "fusion_lon": 0.0, "lat": 38.90025883333333, "bike_id": "733938702cef050782cb87a39024e0db", "type": "electric_scooter", "is_reserved": 0, "lon": -76.99976266666667}, {"fusion_lat": 0.0, "name": "a5d4473b099c9e9d3745efb08582b6e5", "is_disabled": 0, "rental_uris": {"android": "https://dc.lft.to/lastmile_qr_scan", "ios": "https://dc.lft.to/lastmile_qr_scan"}, "fusion_lon": 0.0, "lat": 38.928380833333335, "bike_id": "a5d4473b099c9e9d3745efb08582b6e5", "type": "electric_bike", "is_reserved": 0, "lon": -77.02057583333334}, {"fusion_lat": 0.0, "name": "ede0d1d1daaaff31cbd7fcb7e9c58a97", "is_disabled": 0, "rental_uris": {"android": "https://dc.lft.to/lastmile_qr_scan", "ios": "https://dc.lft.to/lastmile_qr_scan"}, "fusion_lon": 0.0, "lat": 38.92766233333333, "bike_id": "ede0d1d1daaaff31cbd7fcb7e9c58a97", "type": "electric_scooter", "is_reserved": 0, "lon": -77.03242583333333}, {"fusion_lat": 0.0, "name": "423fc1eeb66db8835590d6fd80583397", "is_disabled": 0, "rental_uris": {"android": "https://dc.lft.to/lastmile_qr_scan", "ios": "https://dc.lft.to/lastmile_qr_scan"}, "fusion_lon": 0.0, "lat": 38.906395, "bike_id": "423fc1eeb66db8835590d6fd80583397", "type": "electric_scooter", "is_reserved": 0, "lon": -77.04325966666667}, {"fusion_lat": 0.0, "name": "b94a7e57e470977e1136127e6a58b045", "is_disabled": 0, "rental_uris": {"android": "https://dc.lft.to/lastmile_qr_scan", "ios": "https://dc.lft.to/lastmile_qr_scan"}, "fusion_lon": 0.0, "lat": 38.924300833333334, "bike_id": "b94a7e57e470977e1136127e6a58b045", "type": "electric_scooter", "is_reserved": 0, "lon": -77.02724516666666}, {"fusion_lat": 0.0, "name": "c6120032719cd5ca4c62fba4f486ced2", "is_disabled": 0, "rental_uris": {"android": "https://dc.lft.to/lastmile_qr_scan", "ios": "https://dc.lft.to/lastmile_qr_scan"}, "fusion_lon": 0.0, "lat": 38.9008795, "bike_id": "c6120032719cd5ca4c62fba4f486ced2", "type": "electric_scooter", "is_reserved": 0, "lon": -77.050825}, {"fusion_lat": 0.0, "name": "f112b15756d23994b7b706f919e24930", "is_disabled": 0, "rental_uris": {"android": "https://dc.lft.to/lastmile_qr_scan", "ios": "https://dc.lft.to/lastmile_qr_scan"}, "fusion_lon": 0.0, "lat": 38.9148705, "bike_id": "f112b15756d23994b7b706f919e24930", "type": "electric_scooter", "is_reserved": 0, "lon": -77.04256516666666}, {"fusion_lat": 0.0, "name": "9365a1cadcea1455f9ae073547a24232", "is_disabled": 0, "rental_uris": {"android": "https://dc.lft.to/lastmile_qr_scan", "ios": "https://dc.lft.to/lastmile_qr_scan"}, "fusion_lon": 0.0, "lat": 38.9214355, "bike_id": "9365a1cadcea1455f9ae073547a24232", "type": "electric_scooter", "is_reserved": 0, "lon": -77.04353266666666}, {"fusion_lat": 0.0, "name": "7f66986642c5368fecab04b277cb6f85", "is_disabled": 0, "rental_uris": {"android": "https://dc.lft.to/lastmile_qr_scan", "ios": "https://dc.lft.to/lastmile_qr_scan"}, "fusion_lon": 0.0, "lat": 38.90759583333333, "bike_id": "7f66986642c5368fecab04b277cb6f85", "type": "electric_scooter", "is_reserved": 0, "lon": -77.03584716666667}, {"fusion_lat": 0.0, "name": "ebf47c474d4c99db9c498442ba8293fe", "is_disabled": 0, "rental_uris": {"android": "https://dc.lft.to/lastmile_qr_scan", "ios": "https://dc.lft.to/lastmile_qr_scan"}, "fusion_lon": 0.0, "lat": 38.908098333333335, "bike_id": "ebf47c474d4c99db9c498442ba8293fe", "type": "electric_scooter", "is_reserved": 0, "lon": -77.041565}, {"fusion_lat": 0.0, "name": "3173c155686a39dbae799ee17389c06a", "is_disabled": 0, "rental_uris": {"android": "https://dc.lft.to/lastmile_qr_scan", "ios": "https://dc.lft.to/lastmile_qr_scan"}, "fusion_lon": 0.0, "lat": 38.905629166666664, "bike_id": "3173c155686a39dbae799ee17389c06a", "type": "electric_scooter", "is_reserved": 0, "lon": -77.00835883333333}, {"fusion_lat": 0.0, "name": "8d3250ee7a316cc82b6d6c8f9289e72a", "is_disabled": 0, "rental_uris": {"android": "https://dc.lft.to/lastmile_qr_scan", "ios": "https://dc.lft.to/lastmile_qr_scan"}, "fusion_lon": 0.0, "lat": 38.922564, "bike_id": "8d3250ee7a316cc82b6d6c8f9289e72a", "type": "electric_scooter", "is_reserved": 0, "lon": -77.04248666666666}, {"fusion_lat": 0.0, "name": "6320fb92bd6a1f3f57b1e58aa6069554", "is_disabled": 0, "rental_uris": {"android": "https://dc.lft.to/lastmile_qr_scan", "ios": "https://dc.lft.to/lastmile_qr_scan"}, "fusion_lon": 0.0, "lat": 38.89756533333333, "bike_id": "6320fb92bd6a1f3f57b1e58aa6069554", "type": "electric_scooter", "is_reserved": 0, "lon": -77.03310433333333}, {"fusion_lat": 0.0, "name": "29069145c6433656282c631e8ef9a8e6", "is_disabled": 0, "rental_uris": {"android": "https://dc.lft.to/lastmile_qr_scan", "ios": "https://dc.lft.to/lastmile_qr_scan"}, "fusion_lon": 0.0, "lat": 38.91270566666667, "bike_id": "29069145c6433656282c631e8ef9a8e6", "type": "electric_scooter", "is_reserved": 0, "lon": -77.04038733333333}, {"fusion_lat": 0.0, "name": "86233159b0f614f88366c905c484a3f2", "is_disabled": 0, "rental_uris": {"android": "https://dc.lft.to/lastmile_qr_scan", "ios": "https://dc.lft.to/lastmile_qr_scan"}, "fusion_lon": 0.0, "lat": 38.930475, "bike_id": "86233159b0f614f88366c905c484a3f2", "type": "electric_bike", "is_reserved": 0, "lon": -77.03891683333333}, {"fusion_lat": 0.0, "name": "a04bb7b4c70bf81136b21f13bcee2698", "is_disabled": 0, "rental_uris": {"android": "https://dc.lft.to/lastmile_qr_scan", "ios": "https://dc.lft.to/lastmile_qr_scan"}, "fusion_lon": 0.0, "lat": 38.948593333333335, "bike_id": "a04bb7b4c70bf81136b21f13bcee2698", "type": "electric_scooter", "is_reserved": 0, "lon": -77.0256835}, {"fusion_lat": 0.0, "name": "aeb7d5692508256fdb2dbda5ef780ad0", "is_disabled": 0, "rental_uris": {"android": "https://dc.lft.to/lastmile_qr_scan", "ios": "https://dc.lft.to/lastmile_qr_scan"}, "fusion_lon": 0.0, "lat": 38.95803016666667, "bike_id": "aeb7d5692508256fdb2dbda5ef780ad0", "type": "electric_bike", "is_reserved": 0, "lon": -76.96048283333333}, {"fusion_lat": 0.0, "name": "14881ef29ca2cc72c4c00bd86a2aaa9c", "is_disabled": 0, "rental_uris": {"android": "https://dc.lft.to/lastmile_qr_scan", "ios": "https://dc.lft.to/lastmile_qr_scan"}, "fusion_lon": 0.0, "lat": 38.911022, "bike_id": "14881ef29ca2cc72c4c00bd86a2aaa9c", "type": "electric_scooter", "is_reserved": 0, "lon": -77.04200183333333}, {"fusion_lat": 0.0, "name": "a8dcc66e59e98e66fe270b90bf473a1c", "is_disabled": 0, "rental_uris": {"android": "https://dc.lft.to/lastmile_qr_scan", "ios": "https://dc.lft.to/lastmile_qr_scan"}, "fusion_lon": 0.0, "lat": 38.9318705, "bike_id": "a8dcc66e59e98e66fe270b90bf473a1c", "type": "electric_scooter", "is_reserved": 0, "lon": -77.0787625}, {"fusion_lat": 0.0, "name": "d3a457f5284e3c87c6ed7dd03acb1b06", "is_disabled": 0, "rental_uris": {"android": "https://dc.lft.to/lastmile_qr_scan", "ios": "https://dc.lft.to/lastmile_qr_scan"}, "fusion_lon": 0.0, "lat": 38.954859166666665, "bike_id": "d3a457f5284e3c87c6ed7dd03acb1b06", "type": "electric_bike", "is_reserved": 0, "lon": -77.026667}, {"fusion_lat": 0.0, "name": "51aedea135601a40a0d9fd436cdc7874", "is_disabled": 0, "rental_uris": {"android": "https://dc.lft.to/lastmile_qr_scan", "ios": "https://dc.lft.to/lastmile_qr_scan"}, "fusion_lon": 0.0, "lat": 38.91730066666667, "bike_id": "51aedea135601a40a0d9fd436cdc7874", "type": "electric_scooter", "is_reserved": 0, "lon": -77.027987}, {"fusion_lat": 0.0, "name": "c566ee687e9a64d1711d73caf777f4a4", "is_disabled": 0, "rental_uris": {"android": "https://dc.lft.to/lastmile_qr_scan", "ios": "https://dc.lft.to/lastmile_qr_scan"}, "fusion_lon": 0.0, "lat": 38.90571216666667, "bike_id": "c566ee687e9a64d1711d73caf777f4a4", "type": "electric_scooter", "is_reserved": 0, "lon": -77.00885766666667}, {"fusion_lat": 0.0, "name": "35809dc0f3e239e2ada3089fedd5d4f2", "is_disabled": 0, "rental_uris": {"android": "https://dc.lft.to/lastmile_qr_scan", "ios": "https://dc.lft.to/lastmile_qr_scan"}, "fusion_lon": 0.0, "lat": 38.90554783333333, "bike_id": "35809dc0f3e239e2ada3089fedd5d4f2", "type": "electric_scooter", "is_reserved": 0, "lon": -77.04666766666666}, {"fusion_lat": 0.0, "name": "2c090eff2a034f327baf4e341afde1cc", "is_disabled": 0, "rental_uris": {"android": "https://dc.lft.to/lastmile_qr_scan", "ios": "https://dc.lft.to/lastmile_qr_scan"}, "fusion_lon": 0.0, "lat": 38.91451133333333, "bike_id": "2c090eff2a034f327baf4e341afde1cc", "type": "electric_scooter", "is_reserved": 0, "lon": -77.04486666666666}, {"fusion_lat": 0.0, "name": "b128b27b3c9b2690cc7a10008f48f1dd", "is_disabled": 0, "rental_uris": {"android": "https://dc.lft.to/lastmile_qr_scan", "ios": "https://dc.lft.to/lastmile_qr_scan"}, "fusion_lon": 0.0, "lat": 38.89957783333333, "bike_id": "b128b27b3c9b2690cc7a10008f48f1dd", "type": "electric_scooter", "is_reserved": 0, "lon": -76.98569116666667}, {"fusion_lat": 0.0, "name": "62d3d52d85af1ebaffb09ee7408abcf2", "is_disabled": 0, "rental_uris": {"android": "https://dc.lft.to/lastmile_qr_scan", "ios": "https://dc.lft.to/lastmile_qr_scan"}, "fusion_lon": 0.0, "lat": 38.90495383333333, "bike_id": "62d3d52d85af1ebaffb09ee7408abcf2", "type": "electric_scooter", "is_reserved": 0, "lon": -77.0409205}, {"fusion_lat": 0.0, "name": "60c83d9a553b0ccd7da1960191bcab82", "is_disabled": 0, "rental_uris": {"android": "https://dc.lft.to/lastmile_qr_scan", "ios": "https://dc.lft.to/lastmile_qr_scan"}, "fusion_lon": 0.0, "lat": 38.88991166666667, "bike_id": "60c83d9a553b0ccd7da1960191bcab82", "type": "electric_scooter", "is_reserved": 0, "lon": -76.91418766666666}, {"fusion_lat": 0.0, "name": "b3276544ba7e22ce3015dd375fd024eb", "is_disabled": 0, "rental_uris": {"android": "https://dc.lft.to/lastmile_qr_scan", "ios": "https://dc.lft.to/lastmile_qr_scan"}, "fusion_lon": 0.0, "lat": 38.906155166666665, "bike_id": "b3276544ba7e22ce3015dd375fd024eb", "type": "electric_scooter", "is_reserved": 0, "lon": -77.00565433333334}, {"fusion_lat": 0.0, "name": "187aa657d4f0725267be34b0935c1f8b", "is_disabled": 0, "rental_uris": {"android": "https://dc.lft.to/lastmile_qr_scan", "ios": "https://dc.lft.to/lastmile_qr_scan"}, "fusion_lon": 0.0, "lat": 38.91935433333333, "bike_id": "187aa657d4f0725267be34b0935c1f8b", "type": "electric_scooter", "is_reserved": 0, "lon": -77.0322205}, {"fusion_lat": 0.0, "name": "1b4eafebd7ec956697bd220ff2b4f414", "is_disabled": 0, "rental_uris": {"android": "https://dc.lft.to/lastmile_qr_scan", "ios": "https://dc.lft.to/lastmile_qr_scan"}, "fusion_lon": 0.0, "lat": 38.8796595, "bike_id": "1b4eafebd7ec956697bd220ff2b4f414", "type": "electric_bike", "is_reserved": 0, "lon": -76.916126}, {"fusion_lat": 0.0, "name": "3885f28d72a4382c27ac0f2ea6064059", "is_disabled": 0, "rental_uris": {"android": "https://dc.lft.to/lastmile_qr_scan", "ios": "https://dc.lft.to/lastmile_qr_scan"}, "fusion_lon": 0.0, "lat": 38.917107666666666, "bike_id": "3885f28d72a4382c27ac0f2ea6064059", "type": "electric_scooter", "is_reserved": 0, "lon": -76.976637}, {"fusion_lat": 0.0, "name": "3c5ebb6ccf43c693dd9c4f2f24e9b716", "is_disabled": 0, "rental_uris": {"android": "https://dc.lft.to/lastmile_qr_scan", "ios": "https://dc.lft.to/lastmile_qr_scan"}, "fusion_lon": 0.0, "lat": 38.9210505, "bike_id": "3c5ebb6ccf43c693dd9c4f2f24e9b716", "type": "electric_scooter", "is_reserved": 0, "lon": -77.02395866666667}, {"fusion_lat": 0.0, "name": "4ac32e7c3802d1c625c5da7f684b000c", "is_disabled": 0, "rental_uris": {"android": "https://dc.lft.to/lastmile_qr_scan", "ios": "https://dc.lft.to/lastmile_qr_scan"}, "fusion_lon": 0.0, "lat": 38.90770166666667, "bike_id": "4ac32e7c3802d1c625c5da7f684b000c", "type": "electric_scooter", "is_reserved": 0, "lon": -77.03832016666667}, {"fusion_lat": 0.0, "name": "c4e71b29a0fe77384eb6b2e26130c611", "is_disabled": 0, "rental_uris": {"android": "https://dc.lft.to/lastmile_qr_scan", "ios": "https://dc.lft.to/lastmile_qr_scan"}, "fusion_lon": 0.0, "lat": 38.939838333333334, "bike_id": "c4e71b29a0fe77384eb6b2e26130c611", "type": "electric_scooter", "is_reserved": 0, "lon": -77.02975533333333}, {"fusion_lat": 0.0, "name": "46eda7a4bed3dd9902718752e90d53f4", "is_disabled": 0, "rental_uris": {"android": "https://dc.lft.to/lastmile_qr_scan", "ios": "https://dc.lft.to/lastmile_qr_scan"}, "fusion_lon": 0.0, "lat": 38.92791966666667, "bike_id": "46eda7a4bed3dd9902718752e90d53f4", "type": "electric_scooter", "is_reserved": 0, "lon": -77.02452833333334}, {"fusion_lat": 0.0, "name": "4fdc57f17d6e8735cb7a9ccb6e8bb148", "is_disabled": 0, "rental_uris": {"android": "https://dc.lft.to/lastmile_qr_scan", "ios": "https://dc.lft.to/lastmile_qr_scan"}, "fusion_lon": 0.0, "lat": 38.90031366666667, "bike_id": "4fdc57f17d6e8735cb7a9ccb6e8bb148", "type": "electric_scooter", "is_reserved": 0, "lon": -76.98820566666667}, {"fusion_lat": 0.0, "name": "92d962d483d5f7158ce153a72e911529", "is_disabled": 0, "rental_uris": {"android": "https://dc.lft.to/lastmile_qr_scan", "ios": "https://dc.lft.to/lastmile_qr_scan"}, "fusion_lon": 0.0, "lat": 38.9560485, "bike_id": "92d962d483d5f7158ce153a72e911529", "type": "electric_scooter", "is_reserved": 0, "lon": -77.03354416666667}, {"fusion_lat": 0.0, "name": "69d03d9d800f258bd39bb57264e1d9d5", "is_disabled": 0, "rental_uris": {"android": "https://dc.lft.to/lastmile_qr_scan", "ios": "https://dc.lft.to/lastmile_qr_scan"}, "fusion_lon": 0.0, "lat": 38.90090416666666, "bike_id": "69d03d9d800f258bd39bb57264e1d9d5", "type": "electric_scooter", "is_reserved": 0, "lon": -76.98325466666667}, {"fusion_lat": 0.0, "name": "daa88a6570f42f1c2796efd81cbc9db7", "is_disabled": 0, "rental_uris": {"android": "https://dc.lft.to/lastmile_qr_scan", "ios": "https://dc.lft.to/lastmile_qr_scan"}, "fusion_lon": 0.0, "lat": 38.9156705, "bike_id": "daa88a6570f42f1c2796efd81cbc9db7", "type": "electric_scooter", "is_reserved": 0, "lon": -77.03135666666667}, {"fusion_lat": 0.0, "name": "7a9a3b131f1833a99561f53b3bacfcab", "is_disabled": 0, "rental_uris": {"android": "https://dc.lft.to/lastmile_qr_scan", "ios": "https://dc.lft.to/lastmile_qr_scan"}, "fusion_lon": 0.0, "lat": 38.908108, "bike_id": "7a9a3b131f1833a99561f53b3bacfcab", "type": "electric_scooter", "is_reserved": 0, "lon": -77.03454983333333}, {"fusion_lat": 0.0, "name": "93b51f5be8b13292af643c79ceb3a81d", "is_disabled": 0, "rental_uris": {"android": "https://dc.lft.to/lastmile_qr_scan", "ios": "https://dc.lft.to/lastmile_qr_scan"}, "fusion_lon": 0.0, "lat": 38.89966116666667, "bike_id": "93b51f5be8b13292af643c79ceb3a81d", "type": "electric_scooter", "is_reserved": 0, "lon": -77.01618483333333}, {"fusion_lat": 0.0, "name": "f455ec562d07979a8de5c1b6b5ee2d2f", "is_disabled": 0, "rental_uris": {"android": "https://dc.lft.to/lastmile_qr_scan", "ios": "https://dc.lft.to/lastmile_qr_scan"}, "fusion_lon": 0.0, "lat": 38.92080816666667, "bike_id": "f455ec562d07979a8de5c1b6b5ee2d2f", "type": "electric_scooter", "is_reserved": 0, "lon": -77.014792}, {"fusion_lat": 0.0, "name": "d176b5124b1a92d1c8dfefb77c7d85c2", "is_disabled": 0, "rental_uris": {"android": "https://dc.lft.to/lastmile_qr_scan", "ios": "https://dc.lft.to/lastmile_qr_scan"}, "fusion_lon": 0.0, "lat": 38.846122666666666, "bike_id": "d176b5124b1a92d1c8dfefb77c7d85c2", "type": "electric_bike", "is_reserved": 0, "lon": -76.96911883333334}, {"fusion_lat": 0.0, "name": "9525827160b70c3c4fcfc4122d2c189c", "is_disabled": 0, "rental_uris": {"android": "https://dc.lft.to/lastmile_qr_scan", "ios": "https://dc.lft.to/lastmile_qr_scan"}, "fusion_lon": 0.0, "lat": 38.87676483333333, "bike_id": "9525827160b70c3c4fcfc4122d2c189c", "type": "electric_scooter", "is_reserved": 0, "lon": -77.00352466666666}, {"fusion_lat": 0.0, "name": "b005b9f3cb3f8a8188129af97ef8e901", "is_disabled": 0, "rental_uris": {"android": "https://dc.lft.to/lastmile_qr_scan", "ios": "https://dc.lft.to/lastmile_qr_scan"}, "fusion_lon": 0.0, "lat": 38.873716333333334, "bike_id": "b005b9f3cb3f8a8188129af97ef8e901", "type": "electric_scooter", "is_reserved": 0, "lon": -77.001232}, {"fusion_lat": 0.0, "name": "4d46538f4372cde43ecc7781b7139eb3", "is_disabled": 0, "rental_uris": {"android": "https://dc.lft.to/lastmile_qr_scan", "ios": "https://dc.lft.to/lastmile_qr_scan"}, "fusion_lon": 0.0, "lat": 38.919151166666666, "bike_id": "4d46538f4372cde43ecc7781b7139eb3", "type": "electric_scooter", "is_reserved": 0, "lon": -77.031851}, {"fusion_lat": 0.0, "name": "7c42f03c1c147f03b08441aba36eabee", "is_disabled": 0, "rental_uris": {"android": "https://dc.lft.to/lastmile_qr_scan", "ios": "https://dc.lft.to/lastmile_qr_scan"}, "fusion_lon": 0.0, "lat": 38.9669755, "bike_id": "7c42f03c1c147f03b08441aba36eabee", "type": "electric_bike", "is_reserved": 0, "lon": -77.0283095}, {"fusion_lat": 0.0, "name": "e197aa18855a8bbb0be79503bae11409", "is_disabled": 0, "rental_uris": {"android": "https://dc.lft.to/lastmile_qr_scan", "ios": "https://dc.lft.to/lastmile_qr_scan"}, "fusion_lon": 0.0, "lat": 38.91257816666667, "bike_id": "e197aa18855a8bbb0be79503bae11409", "type": "electric_scooter", "is_reserved": 0, "lon": -77.0077525}, {"fusion_lat": 0.0, "name": "fe5a87bafd0e05547928c3ac4b7e6f3a", "is_disabled": 0, "rental_uris": {"android": "https://dc.lft.to/lastmile_qr_scan", "ios": "https://dc.lft.to/lastmile_qr_scan"}, "fusion_lon": 0.0, "lat": 38.903823333333335, "bike_id": "fe5a87bafd0e05547928c3ac4b7e6f3a", "type": "electric_scooter", "is_reserved": 0, "lon": -77.01643016666667}, {"fusion_lat": 0.0, "name": "5d5fbdbc3b10d8a2044444cb7a6ed6de", "is_disabled": 0, "rental_uris": {"android": "https://dc.lft.to/lastmile_qr_scan", "ios": "https://dc.lft.to/lastmile_qr_scan"}, "fusion_lon": 0.0, "lat": 38.90032583333333, "bike_id": "5d5fbdbc3b10d8a2044444cb7a6ed6de", "type": "electric_scooter", "is_reserved": 0, "lon": -77.01200366666667}, {"fusion_lat": 0.0, "name": "ae07c5d68287bfe3d703c55b98a2cbf5", "is_disabled": 0, "rental_uris": {"android": "https://dc.lft.to/lastmile_qr_scan", "ios": "https://dc.lft.to/lastmile_qr_scan"}, "fusion_lon": 0.0, "lat": 38.897478, "bike_id": "ae07c5d68287bfe3d703c55b98a2cbf5", "type": "electric_scooter", "is_reserved": 0, "lon": -77.03311733333334}, {"fusion_lat": 0.0, "name": "04e8cd739d0139c10fb9676e8f7c656f", "is_disabled": 0, "rental_uris": {"android": "https://dc.lft.to/lastmile_qr_scan", "ios": "https://dc.lft.to/lastmile_qr_scan"}, "fusion_lon": 0.0, "lat": 38.90452616666666, "bike_id": "04e8cd739d0139c10fb9676e8f7c656f", "type": "electric_scooter", "is_reserved": 0, "lon": -77.0533365}, {"fusion_lat": 0.0, "name": "4fa61d1e4560d5e5728553f27f3c7490", "is_disabled": 0, "rental_uris": {"android": "https://dc.lft.to/lastmile_qr_scan", "ios": "https://dc.lft.to/lastmile_qr_scan"}, "fusion_lon": 0.0, "lat": 38.91313483333333, "bike_id": "4fa61d1e4560d5e5728553f27f3c7490", "type": "electric_scooter", "is_reserved": 0, "lon": -77.0317455}, {"fusion_lat": 0.0, "name": "b39c22a5e8a9d6b759662755e6d3d78a", "is_disabled": 0, "rental_uris": {"android": "https://dc.lft.to/lastmile_qr_scan", "ios": "https://dc.lft.to/lastmile_qr_scan"}, "fusion_lon": 0.0, "lat": 38.90855916666667, "bike_id": "b39c22a5e8a9d6b759662755e6d3d78a", "type": "electric_scooter", "is_reserved": 0, "lon": -77.02719583333334}, {"fusion_lat": 0.0, "name": "06602f32455c7a50c8f32cf854048195", "is_disabled": 0, "rental_uris": {"android": "https://dc.lft.to/lastmile_qr_scan", "ios": "https://dc.lft.to/lastmile_qr_scan"}, "fusion_lon": 0.0, "lat": 38.89239333333333, "bike_id": "06602f32455c7a50c8f32cf854048195", "type": "electric_scooter", "is_reserved": 0, "lon": -77.0238415}, {"fusion_lat": 0.0, "name": "23c3a45c30cb25ae63f9e6d2d12d3fe7", "is_disabled": 0, "rental_uris": {"android": "https://dc.lft.to/lastmile_qr_scan", "ios": "https://dc.lft.to/lastmile_qr_scan"}, "fusion_lon": 0.0, "lat": 38.920673, "bike_id": "23c3a45c30cb25ae63f9e6d2d12d3fe7", "type": "electric_scooter", "is_reserved": 0, "lon": -77.02215716666667}, {"fusion_lat": 0.0, "name": "4ec07a4b42962cc5ebdb0e87889b2f4b", "is_disabled": 0, "rental_uris": {"android": "https://dc.lft.to/lastmile_qr_scan", "ios": "https://dc.lft.to/lastmile_qr_scan"}, "fusion_lon": 0.0, "lat": 38.90964533333333, "bike_id": "4ec07a4b42962cc5ebdb0e87889b2f4b", "type": "electric_scooter", "is_reserved": 0, "lon": -77.04232016666667}, {"fusion_lat": 0.0, "name": "c62b1cf4f4d6c695529222ed09fe8618", "is_disabled": 0, "rental_uris": {"android": "https://dc.lft.to/lastmile_qr_scan", "ios": "https://dc.lft.to/lastmile_qr_scan"}, "fusion_lon": 0.0, "lat": 38.93907933333333, "bike_id": "c62b1cf4f4d6c695529222ed09fe8618", "type": "electric_scooter", "is_reserved": 0, "lon": -77.02485116666666}, {"fusion_lat": 0.0, "name": "d58554ad85663f967e15282dcdbb1ae9", "is_disabled": 0, "rental_uris": {"android": "https://dc.lft.to/lastmile_qr_scan", "ios": "https://dc.lft.to/lastmile_qr_scan"}, "fusion_lon": 0.0, "lat": 38.89220383333333, "bike_id": "d58554ad85663f967e15282dcdbb1ae9", "type": "electric_scooter", "is_reserved": 0, "lon": -77.0222295}, {"fusion_lat": 0.0, "name": "b7a8c012ee9de4a4c16ac24cdbb8c825", "is_disabled": 0, "rental_uris": {"android": "https://dc.lft.to/lastmile_qr_scan", "ios": "https://dc.lft.to/lastmile_qr_scan"}, "fusion_lon": 0.0, "lat": 38.9250475, "bike_id": "b7a8c012ee9de4a4c16ac24cdbb8c825", "type": "electric_scooter", "is_reserved": 0, "lon": -77.024107}, {"fusion_lat": 0.0, "name": "11b8e8b7f4ab9a75faa14188e847cef4", "is_disabled": 0, "rental_uris": {"android": "https://dc.lft.to/lastmile_qr_scan", "ios": "https://dc.lft.to/lastmile_qr_scan"}, "fusion_lon": 0.0, "lat": 38.88996733333333, "bike_id": "11b8e8b7f4ab9a75faa14188e847cef4", "type": "electric_scooter", "is_reserved": 0, "lon": -76.95435683333334}, {"fusion_lat": 0.0, "name": "20c2bc39582fe6f488bd6e596eafd379", "is_disabled": 0, "rental_uris": {"android": "https://dc.lft.to/lastmile_qr_scan", "ios": "https://dc.lft.to/lastmile_qr_scan"}, "fusion_lon": 0.0, "lat": 38.83514183333333, "bike_id": "20c2bc39582fe6f488bd6e596eafd379", "type": "electric_bike", "is_reserved": 0, "lon": -76.98671783333333}, {"fusion_lat": 0.0, "name": "b1374baca99bedd1b3e2ab51f34efcc2", "is_disabled": 0, "rental_uris": {"android": "https://dc.lft.to/lastmile_qr_scan", "ios": "https://dc.lft.to/lastmile_qr_scan"}, "fusion_lon": 0.0, "lat": 38.89253, "bike_id": "b1374baca99bedd1b3e2ab51f34efcc2", "type": "electric_bike", "is_reserved": 0, "lon": -76.98541466666667}, {"fusion_lat": 0.0, "name": "c53cfba63b5ca0ca81bbb5367c2165f8", "is_disabled": 0, "rental_uris": {"android": "https://dc.lft.to/lastmile_qr_scan", "ios": "https://dc.lft.to/lastmile_qr_scan"}, "fusion_lon": 0.0, "lat": 38.892235166666666, "bike_id": "c53cfba63b5ca0ca81bbb5367c2165f8", "type": "electric_scooter", "is_reserved": 0, "lon": -77.04328383333333}, {"fusion_lat": 0.0, "name": "02d3186f6799312c267f464f44c252e6", "is_disabled": 0, "rental_uris": {"android": "https://dc.lft.to/lastmile_qr_scan", "ios": "https://dc.lft.to/lastmile_qr_scan"}, "fusion_lon": 0.0, "lat": 38.90147566666667, "bike_id": "02d3186f6799312c267f464f44c252e6", "type": "electric_scooter", "is_reserved": 0, "lon": -77.0461445}, {"fusion_lat": 0.0, "name": "e255a5e47474d4e5fd94a60bff797a73", "is_disabled": 0, "rental_uris": {"android": "https://dc.lft.to/lastmile_qr_scan", "ios": "https://dc.lft.to/lastmile_qr_scan"}, "fusion_lon": 0.0, "lat": 38.901808333333335, "bike_id": "e255a5e47474d4e5fd94a60bff797a73", "type": "electric_scooter", "is_reserved": 0, "lon": -77.02398616666666}, {"fusion_lat": 0.0, "name": "ec565ed6f3247ac90f345081715b4cad", "is_disabled": 0, "rental_uris": {"android": "https://dc.lft.to/lastmile_qr_scan", "ios": "https://dc.lft.to/lastmile_qr_scan"}, "fusion_lon": 0.0, "lat": 38.900651333333336, "bike_id": "ec565ed6f3247ac90f345081715b4cad", "type": "electric_scooter", "is_reserved": 0, "lon": -76.93385283333333}, {"fusion_lat": 0.0, "name": "71b276b6961f42ab61075217beeadfce", "is_disabled": 0, "rental_uris": {"android": "https://dc.lft.to/lastmile_qr_scan", "ios": "https://dc.lft.to/lastmile_qr_scan"}, "fusion_lon": 0.0, "lat": 38.890414, "bike_id": "71b276b6961f42ab61075217beeadfce", "type": "electric_scooter", "is_reserved": 0, "lon": -77.015052}, {"fusion_lat": 0.0, "name": "4b8c421e985251255e4bb5c5532be805", "is_disabled": 0, "rental_uris": {"android": "https://dc.lft.to/lastmile_qr_scan", "ios": "https://dc.lft.to/lastmile_qr_scan"}, "fusion_lon": 0.0, "lat": 38.88746416666667, "bike_id": "4b8c421e985251255e4bb5c5532be805", "type": "electric_scooter", "is_reserved": 0, "lon": -77.01775183333334}, {"fusion_lat": 0.0, "name": "7305f04000a8a29529d908de1a7f5c29", "is_disabled": 0, "rental_uris": {"android": "https://dc.lft.to/lastmile_qr_scan", "ios": "https://dc.lft.to/lastmile_qr_scan"}, "fusion_lon": 0.0, "lat": 38.942713499999996, "bike_id": "7305f04000a8a29529d908de1a7f5c29", "type": "electric_scooter", "is_reserved": 0, "lon": -77.0325735}, {"fusion_lat": 0.0, "name": "392bdd7b018599d533a665e82d9a77ac", "is_disabled": 0, "rental_uris": {"android": "https://dc.lft.to/lastmile_qr_scan", "ios": "https://dc.lft.to/lastmile_qr_scan"}, "fusion_lon": 0.0, "lat": 38.9140375, "bike_id": "392bdd7b018599d533a665e82d9a77ac", "type": "electric_scooter", "is_reserved": 0, "lon": -77.02977933333334}, {"fusion_lat": 0.0, "name": "632fe97e846edbf2dd0ab400e16ba757", "is_disabled": 0, "rental_uris": {"android": "https://dc.lft.to/lastmile_qr_scan", "ios": "https://dc.lft.to/lastmile_qr_scan"}, "fusion_lon": 0.0, "lat": 38.89198966666667, "bike_id": "632fe97e846edbf2dd0ab400e16ba757", "type": "electric_scooter", "is_reserved": 0, "lon": -77.02220666666666}, {"fusion_lat": 0.0, "name": "105370b80ff851bebd0b0cb13cf5876a", "is_disabled": 0, "rental_uris": {"android": "https://dc.lft.to/lastmile_qr_scan", "ios": "https://dc.lft.to/lastmile_qr_scan"}, "fusion_lon": 0.0, "lat": 38.887292333333335, "bike_id": "105370b80ff851bebd0b0cb13cf5876a", "type": "electric_scooter", "is_reserved": 0, "lon": -77.0176905}, {"fusion_lat": 0.0, "name": "3d46393817fc5852ab92a28bcd7299cb", "is_disabled": 0, "rental_uris": {"android": "https://dc.lft.to/lastmile_qr_scan", "ios": "https://dc.lft.to/lastmile_qr_scan"}, "fusion_lon": 0.0, "lat": 38.90062416666667, "bike_id": "3d46393817fc5852ab92a28bcd7299cb", "type": "electric_scooter", "is_reserved": 0, "lon": -76.92745016666667}, {"fusion_lat": 0.0, "name": "0a10f4ebeb0851349c8b2c02c5ae2d2e", "is_disabled": 0, "rental_uris": {"android": "https://dc.lft.to/lastmile_qr_scan", "ios": "https://dc.lft.to/lastmile_qr_scan"}, "fusion_lon": 0.0, "lat": 38.80761183333333, "bike_id": "0a10f4ebeb0851349c8b2c02c5ae2d2e", "type": "electric_bike", "is_reserved": 0, "lon": -77.12985383333333}, {"fusion_lat": 0.0, "name": "4cdddc73bb611608ce177b7d1fbaf720", "is_disabled": 0, "rental_uris": {"android": "https://dc.lft.to/lastmile_qr_scan", "ios": "https://dc.lft.to/lastmile_qr_scan"}, "fusion_lon": 0.0, "lat": 38.89545116666667, "bike_id": "4cdddc73bb611608ce177b7d1fbaf720", "type": "electric_scooter", "is_reserved": 0, "lon": -76.94956516666667}, {"fusion_lat": 0.0, "name": "b03c7b0df6586ba4ad824170afb714ec", "is_disabled": 0, "rental_uris": {"android": "https://dc.lft.to/lastmile_qr_scan", "ios": "https://dc.lft.to/lastmile_qr_scan"}, "fusion_lon": 0.0, "lat": 38.90566333333334, "bike_id": "b03c7b0df6586ba4ad824170afb714ec", "type": "electric_scooter", "is_reserved": 0, "lon": -77.00602683333334}, {"fusion_lat": 0.0, "name": "3a5b42d7cd57c04340e8d645d94e7c1b", "is_disabled": 0, "rental_uris": {"android": "https://dc.lft.to/lastmile_qr_scan", "ios": "https://dc.lft.to/lastmile_qr_scan"}, "fusion_lon": 0.0, "lat": 38.961571166666666, "bike_id": "3a5b42d7cd57c04340e8d645d94e7c1b", "type": "electric_scooter", "is_reserved": 0, "lon": -77.0323775}, {"fusion_lat": 0.0, "name": "d6bfd8596abfe989b8bb81c7be5e64c5", "is_disabled": 0, "rental_uris": {"android": "https://dc.lft.to/lastmile_qr_scan", "ios": "https://dc.lft.to/lastmile_qr_scan"}, "fusion_lon": 0.0, "lat": 38.957568, "bike_id": "d6bfd8596abfe989b8bb81c7be5e64c5", "type": "electric_scooter", "is_reserved": 0, "lon": -77.02052916666666}, {"fusion_lat": 0.0, "name": "7966db188f7d0872053c6bd1372cacae", "is_disabled": 0, "rental_uris": {"android": "https://dc.lft.to/lastmile_qr_scan", "ios": "https://dc.lft.to/lastmile_qr_scan"}, "fusion_lon": 0.0, "lat": 38.89650966666667, "bike_id": "7966db188f7d0872053c6bd1372cacae", "type": "electric_scooter", "is_reserved": 0, "lon": -77.05108}, {"fusion_lat": 0.0, "name": "67118f467f711dc60fd6d023e40e03b6", "is_disabled": 0, "rental_uris": {"android": "https://dc.lft.to/lastmile_qr_scan", "ios": "https://dc.lft.to/lastmile_qr_scan"}, "fusion_lon": 0.0, "lat": 38.920025833333334, "bike_id": "67118f467f711dc60fd6d023e40e03b6", "type": "electric_bike", "is_reserved": 0, "lon": -77.0477045}, {"fusion_lat": 0.0, "name": "eb183d8efb35693311a5dafabf319b93", "is_disabled": 0, "rental_uris": {"android": "https://dc.lft.to/lastmile_qr_scan", "ios": "https://dc.lft.to/lastmile_qr_scan"}, "fusion_lon": 0.0, "lat": 38.927501166666666, "bike_id": "eb183d8efb35693311a5dafabf319b93", "type": "electric_scooter", "is_reserved": 0, "lon": -77.024224}, {"fusion_lat": 0.0, "name": "ad1613f3bc0abd8fbc1c77280e51b3f4", "is_disabled": 0, "rental_uris": {"android": "https://dc.lft.to/lastmile_qr_scan", "ios": "https://dc.lft.to/lastmile_qr_scan"}, "fusion_lon": 0.0, "lat": 38.901254333333334, "bike_id": "ad1613f3bc0abd8fbc1c77280e51b3f4", "type": "electric_scooter", "is_reserved": 0, "lon": -77.002119}, {"fusion_lat": 0.0, "name": "93d54ce9c561a6aab254a94501547d64", "is_disabled": 0, "rental_uris": {"android": "https://dc.lft.to/lastmile_qr_scan", "ios": "https://dc.lft.to/lastmile_qr_scan"}, "fusion_lon": 0.0, "lat": 38.9169, "bike_id": "93d54ce9c561a6aab254a94501547d64", "type": "electric_scooter", "is_reserved": 0, "lon": -77.03764166666667}, {"fusion_lat": 0.0, "name": "693a29ea818a6ecf34914d5a677e7534", "is_disabled": 0, "rental_uris": {"android": "https://dc.lft.to/lastmile_qr_scan", "ios": "https://dc.lft.to/lastmile_qr_scan"}, "fusion_lon": 0.0, "lat": 38.8753325, "bike_id": "693a29ea818a6ecf34914d5a677e7534", "type": "electric_scooter", "is_reserved": 0, "lon": -77.00504666666667}, {"fusion_lat": 0.0, "name": "7a3fb8588a32ca41845359e88182032f", "is_disabled": 0, "rental_uris": {"android": "https://dc.lft.to/lastmile_qr_scan", "ios": "https://dc.lft.to/lastmile_qr_scan"}, "fusion_lon": 0.0, "lat": 38.87180633333333, "bike_id": "7a3fb8588a32ca41845359e88182032f", "type": "electric_scooter", "is_reserved": 0, "lon": -77.00611433333333}, {"fusion_lat": 0.0, "name": "0b8b2fbf3bde9aa11cf15a1b9297809b", "is_disabled": 0, "rental_uris": {"android": "https://dc.lft.to/lastmile_qr_scan", "ios": "https://dc.lft.to/lastmile_qr_scan"}, "fusion_lon": 0.0, "lat": 38.8876875, "bike_id": "0b8b2fbf3bde9aa11cf15a1b9297809b", "type": "electric_scooter", "is_reserved": 0, "lon": -77.02369033333333}, {"fusion_lat": 0.0, "name": "e9798459426feca2120fc7ac786b977c", "is_disabled": 0, "rental_uris": {"android": "https://dc.lft.to/lastmile_qr_scan", "ios": "https://dc.lft.to/lastmile_qr_scan"}, "fusion_lon": 0.0, "lat": 38.88535916666667, "bike_id": "e9798459426feca2120fc7ac786b977c", "type": "electric_scooter", "is_reserved": 0, "lon": -76.98270333333333}, {"fusion_lat": 0.0, "name": "0f793dc469efb26f3b4008d196e4f78d", "is_disabled": 0, "rental_uris": {"android": "https://dc.lft.to/lastmile_qr_scan", "ios": "https://dc.lft.to/lastmile_qr_scan"}, "fusion_lon": 0.0, "lat": 38.93703133333333, "bike_id": "0f793dc469efb26f3b4008d196e4f78d", "type": "electric_scooter", "is_reserved": 0, "lon": -77.05596116666666}, {"fusion_lat": 0.0, "name": "b6e1234a548d3401cd54f2fab035fb3d", "is_disabled": 0, "rental_uris": {"android": "https://dc.lft.to/lastmile_qr_scan", "ios": "https://dc.lft.to/lastmile_qr_scan"}, "fusion_lon": 0.0, "lat": 38.8965965, "bike_id": "b6e1234a548d3401cd54f2fab035fb3d", "type": "electric_scooter", "is_reserved": 0, "lon": -77.03351883333333}, {"fusion_lat": 0.0, "name": "f4d4040630bf58d5b6087fcf1e8c51fc", "is_disabled": 0, "rental_uris": {"android": "https://dc.lft.to/lastmile_qr_scan", "ios": "https://dc.lft.to/lastmile_qr_scan"}, "fusion_lon": 0.0, "lat": 38.887337, "bike_id": "f4d4040630bf58d5b6087fcf1e8c51fc", "type": "electric_scooter", "is_reserved": 0, "lon": -77.01510183333333}, {"fusion_lat": 0.0, "name": "f3e23082cb7648b59cdb241ed5b830cf", "is_disabled": 0, "rental_uris": {"android": "https://dc.lft.to/lastmile_qr_scan", "ios": "https://dc.lft.to/lastmile_qr_scan"}, "fusion_lon": 0.0, "lat": 38.92122966666667, "bike_id": "f3e23082cb7648b59cdb241ed5b830cf", "type": "electric_scooter", "is_reserved": 0, "lon": -77.0469665}, {"fusion_lat": 0.0, "name": "dc537e3d0bf4719cdeb64a45985ce7a8", "is_disabled": 0, "rental_uris": {"android": "https://dc.lft.to/lastmile_qr_scan", "ios": "https://dc.lft.to/lastmile_qr_scan"}, "fusion_lon": 0.0, "lat": 38.902623166666665, "bike_id": "dc537e3d0bf4719cdeb64a45985ce7a8", "type": "electric_scooter", "is_reserved": 0, "lon": -77.0260585}, {"fusion_lat": 0.0, "name": "ee54528d7307f59a28725247eac630c2", "is_disabled": 0, "rental_uris": {"android": "https://dc.lft.to/lastmile_qr_scan", "ios": "https://dc.lft.to/lastmile_qr_scan"}, "fusion_lon": 0.0, "lat": 38.905681666666666, "bike_id": "ee54528d7307f59a28725247eac630c2", "type": "electric_scooter", "is_reserved": 0, "lon": -77.02421716666667}, {"fusion_lat": 0.0, "name": "27a82b7c7d4d43c83be9b4b0894bc45f", "is_disabled": 0, "rental_uris": {"android": "https://dc.lft.to/lastmile_qr_scan", "ios": "https://dc.lft.to/lastmile_qr_scan"}, "fusion_lon": 0.0, "lat": 38.96594916666667, "bike_id": "27a82b7c7d4d43c83be9b4b0894bc45f", "type": "electric_scooter", "is_reserved": 0, "lon": -77.0159655}, {"fusion_lat": 0.0, "name": "7cd5d381b99c429d2636ef479b6dd9d9", "is_disabled": 0, "rental_uris": {"android": "https://dc.lft.to/lastmile_qr_scan", "ios": "https://dc.lft.to/lastmile_qr_scan"}, "fusion_lon": 0.0, "lat": 38.91008183333334, "bike_id": "7cd5d381b99c429d2636ef479b6dd9d9", "type": "electric_scooter", "is_reserved": 0, "lon": -77.04912283333333}, {"fusion_lat": 0.0, "name": "dc4f5962fe87cce4481ac5ec6f5d7f57", "is_disabled": 0, "rental_uris": {"android": "https://dc.lft.to/lastmile_qr_scan", "ios": "https://dc.lft.to/lastmile_qr_scan"}, "fusion_lon": 0.0, "lat": 38.898306166666664, "bike_id": "dc4f5962fe87cce4481ac5ec6f5d7f57", "type": "electric_scooter", "is_reserved": 0, "lon": -77.02520783333334}, {"fusion_lat": 0.0, "name": "6bfceefa58f1ce274137ae65b8f0dd88", "is_disabled": 0, "rental_uris": {"android": "https://dc.lft.to/lastmile_qr_scan", "ios": "https://dc.lft.to/lastmile_qr_scan"}, "fusion_lon": 0.0, "lat": 38.9242875, "bike_id": "6bfceefa58f1ce274137ae65b8f0dd88", "type": "electric_scooter", "is_reserved": 0, "lon": -76.99730966666667}, {"fusion_lat": 0.0, "name": "aec5cf71f50758e994cae54108295031", "is_disabled": 0, "rental_uris": {"android": "https://dc.lft.to/lastmile_qr_scan", "ios": "https://dc.lft.to/lastmile_qr_scan"}, "fusion_lon": 0.0, "lat": 38.907989666666666, "bike_id": "aec5cf71f50758e994cae54108295031", "type": "electric_scooter", "is_reserved": 0, "lon": -77.01109333333333}, {"fusion_lat": 0.0, "name": "b480bc6bb3a0323f9c09db8bd9767dad", "is_disabled": 0, "rental_uris": {"android": "https://dc.lft.to/lastmile_qr_scan", "ios": "https://dc.lft.to/lastmile_qr_scan"}, "fusion_lon": 0.0, "lat": 38.922412, "bike_id": "b480bc6bb3a0323f9c09db8bd9767dad", "type": "electric_bike", "is_reserved": 0, "lon": -77.03075416666667}, {"fusion_lat": 0.0, "name": "d48655b666fce16f7e10414c85c64bac", "is_disabled": 0, "rental_uris": {"android": "https://dc.lft.to/lastmile_qr_scan", "ios": "https://dc.lft.to/lastmile_qr_scan"}, "fusion_lon": 0.0, "lat": 38.8877115, "bike_id": "d48655b666fce16f7e10414c85c64bac", "type": "electric_scooter", "is_reserved": 0, "lon": -77.0236895}, {"fusion_lat": 0.0, "name": "a06f411198935a2d0505f9c68ebfad3c", "is_disabled": 0, "rental_uris": {"android": "https://dc.lft.to/lastmile_qr_scan", "ios": "https://dc.lft.to/lastmile_qr_scan"}, "fusion_lon": 0.0, "lat": 38.93376766666667, "bike_id": "a06f411198935a2d0505f9c68ebfad3c", "type": "electric_scooter", "is_reserved": 0, "lon": -77.03886883333334}, {"fusion_lat": 0.0, "name": "1346523cf5b495fd167ca4f22abb6cd4", "is_disabled": 0, "rental_uris": {"android": "https://dc.lft.to/lastmile_qr_scan", "ios": "https://dc.lft.to/lastmile_qr_scan"}, "fusion_lon": 0.0, "lat": 38.86396666666667, "bike_id": "1346523cf5b495fd167ca4f22abb6cd4", "type": "electric_bike", "is_reserved": 0, "lon": -77.20108766666667}, {"fusion_lat": 0.0, "name": "a3fd213927b222d995b4d91f68c51eca", "is_disabled": 0, "rental_uris": {"android": "https://dc.lft.to/lastmile_qr_scan", "ios": "https://dc.lft.to/lastmile_qr_scan"}, "fusion_lon": 0.0, "lat": 38.9247955, "bike_id": "a3fd213927b222d995b4d91f68c51eca", "type": "electric_scooter", "is_reserved": 0, "lon": -77.03766183333333}, {"fusion_lat": 0.0, "name": "06aaa3203afb1fad171dacaca0e8a1ad", "is_disabled": 0, "rental_uris": {"android": "https://dc.lft.to/lastmile_qr_scan", "ios": "https://dc.lft.to/lastmile_qr_scan"}, "fusion_lon": 0.0, "lat": 38.887436, "bike_id": "06aaa3203afb1fad171dacaca0e8a1ad", "type": "electric_scooter", "is_reserved": 0, "lon": -77.0212685}, {"fusion_lat": 0.0, "name": "4cd5cc07bb506dd4ea53c29069565449", "is_disabled": 0, "rental_uris": {"android": "https://dc.lft.to/lastmile_qr_scan", "ios": "https://dc.lft.to/lastmile_qr_scan"}, "fusion_lon": 0.0, "lat": 38.92418333333333, "bike_id": "4cd5cc07bb506dd4ea53c29069565449", "type": "electric_scooter", "is_reserved": 0, "lon": -77.02205283333333}, {"fusion_lat": 0.0, "name": "1ffbf91860e8724bb67f64ea30ac58f4", "is_disabled": 0, "rental_uris": {"android": "https://dc.lft.to/lastmile_qr_scan", "ios": "https://dc.lft.to/lastmile_qr_scan"}, "fusion_lon": 0.0, "lat": 38.878337, "bike_id": "1ffbf91860e8724bb67f64ea30ac58f4", "type": "electric_scooter", "is_reserved": 0, "lon": -76.96317366666666}, {"fusion_lat": 0.0, "name": "1cb594e588d44820b71f19974b0e4dfb", "is_disabled": 0, "rental_uris": {"android": "https://dc.lft.to/lastmile_qr_scan", "ios": "https://dc.lft.to/lastmile_qr_scan"}, "fusion_lon": 0.0, "lat": 38.905323, "bike_id": "1cb594e588d44820b71f19974b0e4dfb", "type": "electric_scooter", "is_reserved": 0, "lon": -77.05136066666667}, {"fusion_lat": 0.0, "name": "664f98e40d1c832663fbc96dca17148b", "is_disabled": 0, "rental_uris": {"android": "https://dc.lft.to/lastmile_qr_scan", "ios": "https://dc.lft.to/lastmile_qr_scan"}, "fusion_lon": 0.0, "lat": 38.920551, "bike_id": "664f98e40d1c832663fbc96dca17148b", "type": "electric_scooter", "is_reserved": 0, "lon": -77.02357283333333}, {"fusion_lat": 0.0, "name": "e4b57d8de5e17baa1fdc73e91f9706aa", "is_disabled": 0, "rental_uris": {"android": "https://dc.lft.to/lastmile_qr_scan", "ios": "https://dc.lft.to/lastmile_qr_scan"}, "fusion_lon": 0.0, "lat": 38.916984166666666, "bike_id": "e4b57d8de5e17baa1fdc73e91f9706aa", "type": "electric_scooter", "is_reserved": 0, "lon": -77.02377266666667}, {"fusion_lat": 0.0, "name": "9da4838e778e285caa534133bd0095cd", "is_disabled": 0, "rental_uris": {"android": "https://dc.lft.to/lastmile_qr_scan", "ios": "https://dc.lft.to/lastmile_qr_scan"}, "fusion_lon": 0.0, "lat": 38.873917, "bike_id": "9da4838e778e285caa534133bd0095cd", "type": "electric_scooter", "is_reserved": 0, "lon": -77.00037616666667}, {"fusion_lat": 0.0, "name": "af09f533098ecd458b91f939965b6508", "is_disabled": 0, "rental_uris": {"android": "https://dc.lft.to/lastmile_qr_scan", "ios": "https://dc.lft.to/lastmile_qr_scan"}, "fusion_lon": 0.0, "lat": 38.870849166666666, "bike_id": "af09f533098ecd458b91f939965b6508", "type": "electric_scooter", "is_reserved": 0, "lon": -76.9656795}, {"fusion_lat": 0.0, "name": "09bceb322c4e1bd4e44a3fc6682e893f", "is_disabled": 0, "rental_uris": {"android": "https://dc.lft.to/lastmile_qr_scan", "ios": "https://dc.lft.to/lastmile_qr_scan"}, "fusion_lon": 0.0, "lat": 38.90389733333333, "bike_id": "09bceb322c4e1bd4e44a3fc6682e893f", "type": "electric_scooter", "is_reserved": 0, "lon": -77.04292933333333}, {"fusion_lat": 0.0, "name": "b6026639d0ee4bcc1b79eba20292368a", "is_disabled": 0, "rental_uris": {"android": "https://dc.lft.to/lastmile_qr_scan", "ios": "https://dc.lft.to/lastmile_qr_scan"}, "fusion_lon": 0.0, "lat": 38.912605, "bike_id": "b6026639d0ee4bcc1b79eba20292368a", "type": "electric_scooter", "is_reserved": 0, "lon": -77.03588916666666}, {"fusion_lat": 0.0, "name": "39f5aa0cded956485d75cfa984574903", "is_disabled": 0, "rental_uris": {"android": "https://dc.lft.to/lastmile_qr_scan", "ios": "https://dc.lft.to/lastmile_qr_scan"}, "fusion_lon": 0.0, "lat": 38.920582333333336, "bike_id": "39f5aa0cded956485d75cfa984574903", "type": "electric_scooter", "is_reserved": 0, "lon": -77.033936}, {"fusion_lat": 0.0, "name": "b540cb39d563dedf91e639946a13bbae", "is_disabled": 0, "rental_uris": {"android": "https://dc.lft.to/lastmile_qr_scan", "ios": "https://dc.lft.to/lastmile_qr_scan"}, "fusion_lon": 0.0, "lat": 38.901222, "bike_id": "b540cb39d563dedf91e639946a13bbae", "type": "electric_scooter", "is_reserved": 0, "lon": -77.05026733333334}, {"fusion_lat": 0.0, "name": "5ca1be3ec00808b6a17c1fc34491f946", "is_disabled": 0, "rental_uris": {"android": "https://dc.lft.to/lastmile_qr_scan", "ios": "https://dc.lft.to/lastmile_qr_scan"}, "fusion_lon": 0.0, "lat": 38.883116333333334, "bike_id": "5ca1be3ec00808b6a17c1fc34491f946", "type": "electric_scooter", "is_reserved": 0, "lon": -76.960549}, {"fusion_lat": 0.0, "name": "40d42a9bb433e0e78d50ead5264eb94d", "is_disabled": 0, "rental_uris": {"android": "https://dc.lft.to/lastmile_qr_scan", "ios": "https://dc.lft.to/lastmile_qr_scan"}, "fusion_lon": 0.0, "lat": 38.90695516666667, "bike_id": "40d42a9bb433e0e78d50ead5264eb94d", "type": "electric_scooter", "is_reserved": 0, "lon": -77.04180083333334}, {"fusion_lat": 0.0, "name": "dc8537442d0b096ec083cb2c042780b0", "is_disabled": 0, "rental_uris": {"android": "https://dc.lft.to/lastmile_qr_scan", "ios": "https://dc.lft.to/lastmile_qr_scan"}, "fusion_lon": 0.0, "lat": 38.90741283333333, "bike_id": "dc8537442d0b096ec083cb2c042780b0", "type": "electric_scooter", "is_reserved": 0, "lon": -77.02384933333333}, {"fusion_lat": 0.0, "name": "4138378ccd374595d353ba242fe01d0e", "is_disabled": 0, "rental_uris": {"android": "https://dc.lft.to/lastmile_qr_scan", "ios": "https://dc.lft.to/lastmile_qr_scan"}, "fusion_lon": 0.0, "lat": 38.9306005, "bike_id": "4138378ccd374595d353ba242fe01d0e", "type": "electric_scooter", "is_reserved": 0, "lon": -77.03215683333333}, {"fusion_lat": 0.0, "name": "cb342ac4aa141c9be90dae3b94203cfc", "is_disabled": 0, "rental_uris": {"android": "https://dc.lft.to/lastmile_qr_scan", "ios": "https://dc.lft.to/lastmile_qr_scan"}, "fusion_lon": 0.0, "lat": 38.940925666666665, "bike_id": "cb342ac4aa141c9be90dae3b94203cfc", "type": "electric_scooter", "is_reserved": 0, "lon": -77.026383}, {"fusion_lat": 0.0, "name": "3ce40d4cc8a87a7efa70dace3efe914c", "is_disabled": 0, "rental_uris": {"android": "https://dc.lft.to/lastmile_qr_scan", "ios": "https://dc.lft.to/lastmile_qr_scan"}, "fusion_lon": 0.0, "lat": 38.90452916666667, "bike_id": "3ce40d4cc8a87a7efa70dace3efe914c", "type": "electric_scooter", "is_reserved": 0, "lon": -77.00164066666666}, {"fusion_lat": 0.0, "name": "b3889b2374b898ff6be08e990a6fc831", "is_disabled": 0, "rental_uris": {"android": "https://dc.lft.to/lastmile_qr_scan", "ios": "https://dc.lft.to/lastmile_qr_scan"}, "fusion_lon": 0.0, "lat": 38.96135683333333, "bike_id": "b3889b2374b898ff6be08e990a6fc831", "type": "electric_bike", "is_reserved": 0, "lon": -77.03332183333333}, {"fusion_lat": 0.0, "name": "75b1a6f824d956d15449c4e56a129dc1", "is_disabled": 0, "rental_uris": {"android": "https://dc.lft.to/lastmile_qr_scan", "ios": "https://dc.lft.to/lastmile_qr_scan"}, "fusion_lon": 0.0, "lat": 38.90102983333333, "bike_id": "75b1a6f824d956d15449c4e56a129dc1", "type": "electric_scooter", "is_reserved": 0, "lon": -77.033515}, {"fusion_lat": 0.0, "name": "25327b7a53500a3d82079a1b3cd029c2", "is_disabled": 0, "rental_uris": {"android": "https://dc.lft.to/lastmile_qr_scan", "ios": "https://dc.lft.to/lastmile_qr_scan"}, "fusion_lon": 0.0, "lat": 38.9046735, "bike_id": "25327b7a53500a3d82079a1b3cd029c2", "type": "electric_scooter", "is_reserved": 0, "lon": -77.06295883333334}, {"fusion_lat": 0.0, "name": "152f61f3f67b13b09f17e722edb5a6e9", "is_disabled": 0, "rental_uris": {"android": "https://dc.lft.to/lastmile_qr_scan", "ios": "https://dc.lft.to/lastmile_qr_scan"}, "fusion_lon": 0.0, "lat": 38.95423066666667, "bike_id": "152f61f3f67b13b09f17e722edb5a6e9", "type": "electric_scooter", "is_reserved": 0, "lon": -77.02764966666666}, {"fusion_lat": 0.0, "name": "2654949d63ea9d70e4c90c8e9cd1cb5a", "is_disabled": 0, "rental_uris": {"android": "https://dc.lft.to/lastmile_qr_scan", "ios": "https://dc.lft.to/lastmile_qr_scan"}, "fusion_lon": 0.0, "lat": 38.903980833333335, "bike_id": "2654949d63ea9d70e4c90c8e9cd1cb5a", "type": "electric_scooter", "is_reserved": 0, "lon": -77.06797333333333}, {"fusion_lat": 0.0, "name": "072fba731497f3a04d5232746093aad5", "is_disabled": 0, "rental_uris": {"android": "https://dc.lft.to/lastmile_qr_scan", "ios": "https://dc.lft.to/lastmile_qr_scan"}, "fusion_lon": 0.0, "lat": 38.885400833333335, "bike_id": "072fba731497f3a04d5232746093aad5", "type": "electric_scooter", "is_reserved": 0, "lon": -77.00065783333334}, {"fusion_lat": 0.0, "name": "c30bddf6c318596b174325b680e13e42", "is_disabled": 0, "rental_uris": {"android": "https://dc.lft.to/lastmile_qr_scan", "ios": "https://dc.lft.to/lastmile_qr_scan"}, "fusion_lon": 0.0, "lat": 38.917095, "bike_id": "c30bddf6c318596b174325b680e13e42", "type": "electric_scooter", "is_reserved": 0, "lon": -77.0235045}, {"fusion_lat": 0.0, "name": "2be1c42dd5e85571da7486b6aeda741e", "is_disabled": 0, "rental_uris": {"android": "https://dc.lft.to/lastmile_qr_scan", "ios": "https://dc.lft.to/lastmile_qr_scan"}, "fusion_lon": 0.0, "lat": 38.91242483333333, "bike_id": "2be1c42dd5e85571da7486b6aeda741e", "type": "electric_scooter", "is_reserved": 0, "lon": -77.047541}, {"fusion_lat": 0.0, "name": "b71f6ea8294c6411cd36a5b2104d83aa", "is_disabled": 0, "rental_uris": {"android": "https://dc.lft.to/lastmile_qr_scan", "ios": "https://dc.lft.to/lastmile_qr_scan"}, "fusion_lon": 0.0, "lat": 38.919356666666665, "bike_id": "b71f6ea8294c6411cd36a5b2104d83aa", "type": "electric_scooter", "is_reserved": 0, "lon": -77.03223433333334}, {"fusion_lat": 0.0, "name": "cc4fea42cbd62a4ea348fd028726026a", "is_disabled": 0, "rental_uris": {"android": "https://dc.lft.to/lastmile_qr_scan", "ios": "https://dc.lft.to/lastmile_qr_scan"}, "fusion_lon": 0.0, "lat": 38.8853795, "bike_id": "cc4fea42cbd62a4ea348fd028726026a", "type": "electric_scooter", "is_reserved": 0, "lon": -77.00064983333333}, {"fusion_lat": 0.0, "name": "49284a44c26660ccdc4a4e0325e5a400", "is_disabled": 0, "rental_uris": {"android": "https://dc.lft.to/lastmile_qr_scan", "ios": "https://dc.lft.to/lastmile_qr_scan"}, "fusion_lon": 0.0, "lat": 38.923650333333335, "bike_id": "49284a44c26660ccdc4a4e0325e5a400", "type": "electric_scooter", "is_reserved": 0, "lon": -77.04316466666667}, {"fusion_lat": 0.0, "name": "1cdb859977901a7abc9ce0098dea7fa5", "is_disabled": 0, "rental_uris": {"android": "https://dc.lft.to/lastmile_qr_scan", "ios": "https://dc.lft.to/lastmile_qr_scan"}, "fusion_lon": 0.0, "lat": 38.909729, "bike_id": "1cdb859977901a7abc9ce0098dea7fa5", "type": "electric_scooter", "is_reserved": 0, "lon": -77.0268095}, {"fusion_lat": 0.0, "name": "a9c22864577127c0b887ec405fe76a94", "is_disabled": 0, "rental_uris": {"android": "https://dc.lft.to/lastmile_qr_scan", "ios": "https://dc.lft.to/lastmile_qr_scan"}, "fusion_lon": 0.0, "lat": 38.887315, "bike_id": "a9c22864577127c0b887ec405fe76a94", "type": "electric_scooter", "is_reserved": 0, "lon": -77.0176865}, {"fusion_lat": 0.0, "name": "0be581c67846634fc6bb72948d1ae3c9", "is_disabled": 0, "rental_uris": {"android": "https://dc.lft.to/lastmile_qr_scan", "ios": "https://dc.lft.to/lastmile_qr_scan"}, "fusion_lon": 0.0, "lat": 38.93353233333333, "bike_id": "0be581c67846634fc6bb72948d1ae3c9", "type": "electric_scooter", "is_reserved": 0, "lon": -77.07358433333333}, {"fusion_lat": 0.0, "name": "81fc6f9a4809f2ceb7895973b8921a8b", "is_disabled": 0, "rental_uris": {"android": "https://dc.lft.to/lastmile_qr_scan", "ios": "https://dc.lft.to/lastmile_qr_scan"}, "fusion_lon": 0.0, "lat": 38.915532, "bike_id": "81fc6f9a4809f2ceb7895973b8921a8b", "type": "electric_scooter", "is_reserved": 0, "lon": -77.04158733333334}, {"fusion_lat": 0.0, "name": "9296dd68d253a1437ce02968341e096b", "is_disabled": 0, "rental_uris": {"android": "https://dc.lft.to/lastmile_qr_scan", "ios": "https://dc.lft.to/lastmile_qr_scan"}, "fusion_lon": 0.0, "lat": 38.917032666666664, "bike_id": "9296dd68d253a1437ce02968341e096b", "type": "electric_scooter", "is_reserved": 0, "lon": -77.02614016666666}, {"fusion_lat": 0.0, "name": "b976a17e46807286d3224f7ecf9c6b6b", "is_disabled": 0, "rental_uris": {"android": "https://dc.lft.to/lastmile_qr_scan", "ios": "https://dc.lft.to/lastmile_qr_scan"}, "fusion_lon": 0.0, "lat": 38.915512166666666, "bike_id": "b976a17e46807286d3224f7ecf9c6b6b", "type": "electric_scooter", "is_reserved": 0, "lon": -77.041559}, {"fusion_lat": 0.0, "name": "c796b3bdfc6f833cb0f08bf61e48f04d", "is_disabled": 0, "rental_uris": {"android": "https://dc.lft.to/lastmile_qr_scan", "ios": "https://dc.lft.to/lastmile_qr_scan"}, "fusion_lon": 0.0, "lat": 38.84937716666666, "bike_id": "c796b3bdfc6f833cb0f08bf61e48f04d", "type": "electric_bike", "is_reserved": 0, "lon": -77.07769166666667}, {"fusion_lat": 0.0, "name": "31916efdef1063ca0d184532a3960e14", "is_disabled": 0, "rental_uris": {"android": "https://dc.lft.to/lastmile_qr_scan", "ios": "https://dc.lft.to/lastmile_qr_scan"}, "fusion_lon": 0.0, "lat": 38.918391, "bike_id": "31916efdef1063ca0d184532a3960e14", "type": "electric_scooter", "is_reserved": 0, "lon": -77.01614083333334}, {"fusion_lat": 0.0, "name": "20af9eacd52b9995d45e28bcbe8cbe19", "is_disabled": 0, "rental_uris": {"android": "https://dc.lft.to/lastmile_qr_scan", "ios": "https://dc.lft.to/lastmile_qr_scan"}, "fusion_lon": 0.0, "lat": 38.92020733333333, "bike_id": "20af9eacd52b9995d45e28bcbe8cbe19", "type": "electric_scooter", "is_reserved": 0, "lon": -77.0818935}, {"fusion_lat": 0.0, "name": "619ce7a07be83304996c2c09fc36f3ba", "is_disabled": 0, "rental_uris": {"android": "https://dc.lft.to/lastmile_qr_scan", "ios": "https://dc.lft.to/lastmile_qr_scan"}, "fusion_lon": 0.0, "lat": 38.9207245, "bike_id": "619ce7a07be83304996c2c09fc36f3ba", "type": "electric_scooter", "is_reserved": 0, "lon": -77.03202383333333}, {"fusion_lat": 0.0, "name": "ff3411e0a83fa66ae474661233f2d5e7", "is_disabled": 0, "rental_uris": {"android": "https://dc.lft.to/lastmile_qr_scan", "ios": "https://dc.lft.to/lastmile_qr_scan"}, "fusion_lon": 0.0, "lat": 38.917010833333336, "bike_id": "ff3411e0a83fa66ae474661233f2d5e7", "type": "electric_scooter", "is_reserved": 0, "lon": -77.024329}, {"fusion_lat": 0.0, "name": "636559cb83f871729ab345cc287c54c2", "is_disabled": 0, "rental_uris": {"android": "https://dc.lft.to/lastmile_qr_scan", "ios": "https://dc.lft.to/lastmile_qr_scan"}, "fusion_lon": 0.0, "lat": 38.9644175, "bike_id": "636559cb83f871729ab345cc287c54c2", "type": "electric_bike", "is_reserved": 0, "lon": -77.02068366666667}, {"fusion_lat": 0.0, "name": "873321adf05a3d373460ab3c96b6df6f", "is_disabled": 0, "rental_uris": {"android": "https://dc.lft.to/lastmile_qr_scan", "ios": "https://dc.lft.to/lastmile_qr_scan"}, "fusion_lon": 0.0, "lat": 38.920050333333336, "bike_id": "873321adf05a3d373460ab3c96b6df6f", "type": "electric_scooter", "is_reserved": 0, "lon": -77.03196133333333}, {"fusion_lat": 0.0, "name": "01338f62498e01b59608f6aca17688cb", "is_disabled": 0, "rental_uris": {"android": "https://dc.lft.to/lastmile_qr_scan", "ios": "https://dc.lft.to/lastmile_qr_scan"}, "fusion_lon": 0.0, "lat": 38.91812066666667, "bike_id": "01338f62498e01b59608f6aca17688cb", "type": "electric_scooter", "is_reserved": 0, "lon": -77.02684766666667}, {"fusion_lat": 0.0, "name": "8285e264faf78641569159d4a92a1255", "is_disabled": 0, "rental_uris": {"android": "https://dc.lft.to/lastmile_qr_scan", "ios": "https://dc.lft.to/lastmile_qr_scan"}, "fusion_lon": 0.0, "lat": 38.911173, "bike_id": "8285e264faf78641569159d4a92a1255", "type": "electric_scooter", "is_reserved": 0, "lon": -77.04379283333333}, {"fusion_lat": 0.0, "name": "3b00937473b9cfc01e7bb4a14b586d50", "is_disabled": 0, "rental_uris": {"android": "https://dc.lft.to/lastmile_qr_scan", "ios": "https://dc.lft.to/lastmile_qr_scan"}, "fusion_lon": 0.0, "lat": 38.892366833333334, "bike_id": "3b00937473b9cfc01e7bb4a14b586d50", "type": "electric_scooter", "is_reserved": 0, "lon": -77.02380783333334}, {"fusion_lat": 0.0, "name": "51106fdab08a4cf706aa0d61009c4d9c", "is_disabled": 0, "rental_uris": {"android": "https://dc.lft.to/lastmile_qr_scan", "ios": "https://dc.lft.to/lastmile_qr_scan"}, "fusion_lon": 0.0, "lat": 38.962262, "bike_id": "51106fdab08a4cf706aa0d61009c4d9c", "type": "electric_bike", "is_reserved": 0, "lon": -77.02631983333333}, {"fusion_lat": 0.0, "name": "d44bc7c008d6b7f3f1ce2f93de7cf54b", "is_disabled": 0, "rental_uris": {"android": "https://dc.lft.to/lastmile_qr_scan", "ios": "https://dc.lft.to/lastmile_qr_scan"}, "fusion_lon": 0.0, "lat": 38.916345666666665, "bike_id": "d44bc7c008d6b7f3f1ce2f93de7cf54b", "type": "electric_scooter", "is_reserved": 0, "lon": -77.02967216666667}, {"fusion_lat": 0.0, "name": "816926502dcd722fdf90edde50919a97", "is_disabled": 0, "rental_uris": {"android": "https://dc.lft.to/lastmile_qr_scan", "ios": "https://dc.lft.to/lastmile_qr_scan"}, "fusion_lon": 0.0, "lat": 38.929013, "bike_id": "816926502dcd722fdf90edde50919a97", "type": "electric_scooter", "is_reserved": 0, "lon": -77.02158333333334}, {"fusion_lat": 0.0, "name": "f979ba81fb28e8741cbb727d965d99a7", "is_disabled": 0, "rental_uris": {"android": "https://dc.lft.to/lastmile_qr_scan", "ios": "https://dc.lft.to/lastmile_qr_scan"}, "fusion_lon": 0.0, "lat": 38.9062565, "bike_id": "f979ba81fb28e8741cbb727d965d99a7", "type": "electric_scooter", "is_reserved": 0, "lon": -77.02594516666667}, {"fusion_lat": 0.0, "name": "da849399889d13c566df9fc9ede04dbf", "is_disabled": 0, "rental_uris": {"android": "https://dc.lft.to/lastmile_qr_scan", "ios": "https://dc.lft.to/lastmile_qr_scan"}, "fusion_lon": 0.0, "lat": 38.911927666666664, "bike_id": "da849399889d13c566df9fc9ede04dbf", "type": "electric_scooter", "is_reserved": 0, "lon": -77.0417985}, {"fusion_lat": 0.0, "name": "036b92bffab381787413f84828aa2ba2", "is_disabled": 0, "rental_uris": {"android": "https://dc.lft.to/lastmile_qr_scan", "ios": "https://dc.lft.to/lastmile_qr_scan"}, "fusion_lon": 0.0, "lat": 38.91750183333333, "bike_id": "036b92bffab381787413f84828aa2ba2", "type": "electric_scooter", "is_reserved": 0, "lon": -77.06936616666667}, {"fusion_lat": 0.0, "name": "02d8ebf98eaeb477099a3d6b9924d6a2", "is_disabled": 0, "rental_uris": {"android": "https://dc.lft.to/lastmile_qr_scan", "ios": "https://dc.lft.to/lastmile_qr_scan"}, "fusion_lon": 0.0, "lat": 38.91282966666667, "bike_id": "02d8ebf98eaeb477099a3d6b9924d6a2", "type": "electric_scooter", "is_reserved": 0, "lon": -77.031619}, {"fusion_lat": 0.0, "name": "44aa51a2cb0f0f8e219b519cce9f79cc", "is_disabled": 0, "rental_uris": {"android": "https://dc.lft.to/lastmile_qr_scan", "ios": "https://dc.lft.to/lastmile_qr_scan"}, "fusion_lon": 0.0, "lat": 38.880134, "bike_id": "44aa51a2cb0f0f8e219b519cce9f79cc", "type": "electric_scooter", "is_reserved": 0, "lon": -76.9807355}, {"fusion_lat": 0.0, "name": "2e9e66bf3779b6581cf3536066c24bd3", "is_disabled": 0, "rental_uris": {"android": "https://dc.lft.to/lastmile_qr_scan", "ios": "https://dc.lft.to/lastmile_qr_scan"}, "fusion_lon": 0.0, "lat": 38.892228, "bike_id": "2e9e66bf3779b6581cf3536066c24bd3", "type": "electric_scooter", "is_reserved": 0, "lon": -77.033389}, {"fusion_lat": 0.0, "name": "40ed2daa456f81c05c25387d46b52b14", "is_disabled": 0, "rental_uris": {"android": "https://dc.lft.to/lastmile_qr_scan", "ios": "https://dc.lft.to/lastmile_qr_scan"}, "fusion_lon": 0.0, "lat": 38.9272825, "bike_id": "40ed2daa456f81c05c25387d46b52b14", "type": "electric_scooter", "is_reserved": 0, "lon": -77.03058133333333}, {"fusion_lat": 0.0, "name": "7b1349930096c9664009a6d6a3327f88", "is_disabled": 0, "rental_uris": {"android": "https://dc.lft.to/lastmile_qr_scan", "ios": "https://dc.lft.to/lastmile_qr_scan"}, "fusion_lon": 0.0, "lat": 38.87376966666667, "bike_id": "7b1349930096c9664009a6d6a3327f88", "type": "electric_scooter", "is_reserved": 0, "lon": -77.0012725}, {"fusion_lat": 0.0, "name": "baddeca51823fc7c0a585b57ba3297b9", "is_disabled": 0, "rental_uris": {"android": "https://dc.lft.to/lastmile_qr_scan", "ios": "https://dc.lft.to/lastmile_qr_scan"}, "fusion_lon": 0.0, "lat": 38.907484, "bike_id": "baddeca51823fc7c0a585b57ba3297b9", "type": "electric_scooter", "is_reserved": 0, "lon": -76.9354935}, {"fusion_lat": 0.0, "name": "413b0dcb54957ec3c4a629127e6c5b07", "is_disabled": 0, "rental_uris": {"android": "https://dc.lft.to/lastmile_qr_scan", "ios": "https://dc.lft.to/lastmile_qr_scan"}, "fusion_lon": 0.0, "lat": 38.81235866666667, "bike_id": "413b0dcb54957ec3c4a629127e6c5b07", "type": "electric_bike", "is_reserved": 0, "lon": -77.11789233333333}, {"fusion_lat": 0.0, "name": "331eb65784522fcbc8d20cf754f5e936", "is_disabled": 0, "rental_uris": {"android": "https://dc.lft.to/lastmile_qr_scan", "ios": "https://dc.lft.to/lastmile_qr_scan"}, "fusion_lon": 0.0, "lat": 38.807056833333334, "bike_id": "331eb65784522fcbc8d20cf754f5e936", "type": "electric_bike", "is_reserved": 0, "lon": -77.06175716666667}, {"fusion_lat": 0.0, "name": "445aafbdb376d298aee83e92a1c93e5b", "is_disabled": 0, "rental_uris": {"android": "https://dc.lft.to/lastmile_qr_scan", "ios": "https://dc.lft.to/lastmile_qr_scan"}, "fusion_lon": 0.0, "lat": 38.8928725, "bike_id": "445aafbdb376d298aee83e92a1c93e5b", "type": "electric_scooter", "is_reserved": 0, "lon": -76.92997533333333}, {"fusion_lat": 0.0, "name": "c34f412fd12be651f89af9ef8b1960a9", "is_disabled": 0, "rental_uris": {"android": "https://dc.lft.to/lastmile_qr_scan", "ios": "https://dc.lft.to/lastmile_qr_scan"}, "fusion_lon": 0.0, "lat": 38.91785816666667, "bike_id": "c34f412fd12be651f89af9ef8b1960a9", "type": "electric_scooter", "is_reserved": 0, "lon": -77.02286166666667}, {"fusion_lat": 0.0, "name": "43b37745b410c73b677b534c2958b442", "is_disabled": 0, "rental_uris": {"android": "https://dc.lft.to/lastmile_qr_scan", "ios": "https://dc.lft.to/lastmile_qr_scan"},