{"data": {"bikes": [{"rental_uris": {"ios": "https://dc.lft.to/lastmile_qr_scan", "android": "https://dc.lft.to/lastmile_qr_scan"}, "lon": -77.02690633333333, "type": "electric_bike", "fusion_lat": 0.0, "lat": 38.91139183333333, "name": "2f419381d6d71b701775be5e0d461a50", "fusion_lon": 0.0, "bike_id": "2f419381d6d71b701775be5e0d461a50", "is_disabled": 0, "is_reserved": 0}, {"rental_uris": {"ios": "https://dc.lft.to/lastmile_qr_scan", "android": "https://dc.lft.to/lastmile_qr_scan"}, "lon": -77.04020583333333, "type": "electric_scooter", "fusion_lat": 0.0, "lat": 38.90374333333333, "name": "2c5dc1a770f1911d357777aba2d58f0f", "fusion_lon": 0.0, "bike_id": "2c5dc1a770f1911d357777aba2d58f0f", "is_disabled": 0, "is_reserved": 0}, {"rental_uris": {"ios": "https://dc.lft.to/lastmile_qr_scan", "android": "https://dc.lft.to/lastmile_qr_scan"}, "lon": -77.0256265, "type": "electric_scooter", "fusion_lat": 0.0, "lat": 38.918111, "name": "24cddec00dd434413ac1b4dae0286e3b", "fusion_lon": 0.0, "bike_id": "24cddec00dd434413ac1b4dae0286e3b", "is_disabled": 0, "is_reserved": 0}, {"rental_uris": {"ios": "https://dc.lft.to/lastmile_qr_scan", "android": "https://dc.lft.to/lastmile_qr_scan"}, "lon": -77.04149383333333, "type": "electric_scooter", "fusion_lat": 0.0, "lat": 38.916778, "name": "cce66145e0d19ccf3adfeb6fe7ba6e16", "fusion_lon": 0.0, "bike_id": "cce66145e0d19ccf3adfeb6fe7ba6e16", "is_disabled": 0, "is_reserved": 0}, {"rental_uris": {"ios": "https://dc.lft.to/lastmile_qr_scan", "android": "https://dc.lft.to/lastmile_qr_scan"}, "lon": -77.05901533333333, "type": "electric_scooter", "fusion_lat": 0.0, "lat": 38.9008005, "name": "876713a510fd17009437d55e7b1c7c42", "fusion_lon": 0.0, "bike_id": "876713a510fd17009437d55e7b1c7c42", "is_disabled": 0, "is_reserved": 0}, {"rental_uris": {"ios": "https://dc.lft.to/lastmile_qr_scan", "android": "https://dc.lft.to/lastmile_qr_scan"}, "lon": -77.03079466666667, "type": "electric_scooter", "fusion_lat": 0.0, "lat": 38.8997925, "name": "35e740d51629285999cf063a59afc5cc", "fusion_lon": 0.0, "bike_id": "35e740d51629285999cf063a59afc5cc", "is_disabled": 0, "is_reserved": 0}, {"rental_uris": {"ios": "https://dc.lft.to/lastmile_qr_scan", "android": "https://dc.lft.to/lastmile_qr_scan"}, "lon": -77.023298, "type": "electric_scooter", "fusion_lat": 0.0, "lat": 38.88464116666667, "name": "5491e27abcf2e804990a25e041261bad", "fusion_lon": 0.0, "bike_id": "5491e27abcf2e804990a25e041261bad", "is_disabled": 0, "is_reserved": 0}, {"rental_uris": {"ios": "https://dc.lft.to/lastmile_qr_scan", "android": "https://dc.lft.to/lastmile_qr_scan"}, "lon": -77.00498383333333, "type": "electric_scooter", "fusion_lat": 0.0, "lat": 38.9057, "name": "b91c9a232276a8058e004bce5d277df8", "fusion_lon": 0.0, "bike_id": "b91c9a232276a8058e004bce5d277df8", "is_disabled": 0, "is_reserved": 0}, {"rental_uris": {"ios": "https://dc.lft.to/lastmile_qr_scan", "android": "https://dc.lft.to/lastmile_qr_scan"}, "lon": -77.023931, "type": "electric_scooter", "fusion_lat": 0.0, "lat": 38.898456, "name": "7e223483a817dfc0079b8574006f7eb4", "fusion_lon": 0.0, "bike_id": "7e223483a817dfc0079b8574006f7eb4", "is_disabled": 0, "is_reserved": 0}, {"rental_uris": {"ios": "https://dc.lft.to/lastmile_qr_scan", "android": "https://dc.lft.to/lastmile_qr_scan"}, "lon": -77.05351116666667, "type": "electric_scooter", "fusion_lat": 0.0, "lat": 38.902669, "name": "3475fc02619e325092bf87d1ddbb72a7", "fusion_lon": 0.0, "bike_id": "3475fc02619e325092bf87d1ddbb72a7", "is_disabled": 0, "is_reserved": 0}, {"rental_uris": {"ios": "https://dc.lft.to/lastmile_qr_scan", "android": "https://dc.lft.to/lastmile_qr_scan"}, "lon": -76.93097316666666, "type": "electric_scooter", "fusion_lat": 0.0, "lat": 38.9013905, "name": "7e670453dee53f9a2b4f971877aeb07d", "fusion_lon": 0.0, "bike_id": "7e670453dee53f9a2b4f971877aeb07d", "is_disabled": 0, "is_reserved": 0}, {"rental_uris": {"ios": "https://dc.lft.to/lastmile_qr_scan", "android": "https://dc.lft.to/lastmile_qr_scan"}, "lon": -76.995098, "type": "electric_scooter", "fusion_lat": 0.0, "lat": 38.8774415, "name": "0ae5a126c027c0681feb805357df1bc9", "fusion_lon": 0.0, "bike_id": "0ae5a126c027c0681feb805357df1bc9", "is_disabled": 0, "is_reserved": 0}, {"rental_uris": {"ios": "https://dc.lft.to/lastmile_qr_scan", "android": "https://dc.lft.to/lastmile_qr_scan"}, "lon": -77.033541, "type": "electric_scooter", "fusion_lat": 0.0, "lat": 38.8923285, "name": "da9af6d7918cdcb4fe50a634e90443d3", "fusion_lon": 0.0, "bike_id": "da9af6d7918cdcb4fe50a634e90443d3", "is_disabled": 0, "is_reserved": 0}, {"rental_uris": {"ios": "https://dc.lft.to/lastmile_qr_scan", "android": "https://dc.lft.to/lastmile_qr_scan"}, "lon": -77.03211616666667, "type": "electric_scooter", "fusion_lat": 0.0, "lat": 38.917019333333336, "name": "a7d155a080bac8493aed517c522385d3", "fusion_lon": 0.0, "bike_id": "a7d155a080bac8493aed517c522385d3", "is_disabled": 0, "is_reserved": 0}, {"rental_uris": {"ios": "https://dc.lft.to/lastmile_qr_scan", "android": "https://dc.lft.to/lastmile_qr_scan"}, "lon": -77.03175766666666, "type": "electric_scooter", "fusion_lat": 0.0, "lat": 38.913237333333335, "name": "062915098152e13226b289db74994e65", "fusion_lon": 0.0, "bike_id": "062915098152e13226b289db74994e65", "is_disabled": 0, "is_reserved": 0}, {"rental_uris": {"ios": "https://dc.lft.to/lastmile_qr_scan", "android": "https://dc.lft.to/lastmile_qr_scan"}, "lon": -77.01803366666667, "type": "electric_scooter", "fusion_lat": 0.0, "lat": 38.90396883333333, "name": "4ca879120c7910ca0ca06a5c59f68025", "fusion_lon": 0.0, "bike_id": "4ca879120c7910ca0ca06a5c59f68025", "is_disabled": 0, "is_reserved": 0}, {"rental_uris": {"ios": "https://dc.lft.to/lastmile_qr_scan", "android": "https://dc.lft.to/lastmile_qr_scan"}, "lon": -76.99254566666667, "type": "electric_scooter", "fusion_lat": 0.0, "lat": 38.919689166666664, "name": "d1bb2916ee79e6207b300ef0a6080b7c", "fusion_lon": 0.0, "bike_id": "d1bb2916ee79e6207b300ef0a6080b7c", "is_disabled": 0, "is_reserved": 0}, {"rental_uris": {"ios": "https://dc.lft.to/lastmile_qr_scan", "android": "https://dc.lft.to/lastmile_qr_scan"}, "lon": -77.03189316666666, "type": "electric_scooter", "fusion_lat": 0.0, "lat": 38.91484883333333, "name": "267a99456c3c196d947d7e76ccd946cf", "fusion_lon": 0.0, "bike_id": "267a99456c3c196d947d7e76ccd946cf", "is_disabled": 0, "is_reserved": 0}, {"rental_uris": {"ios": "https://dc.lft.to/lastmile_qr_scan", "android": "https://dc.lft.to/lastmile_qr_scan"}, "lon": -77.01203516666666, "type": "electric_scooter", "fusion_lat": 0.0, "lat": 38.915626333333336, "name": "6f9eaa2e7414a10a97a460511c355e97", "fusion_lon": 0.0, "bike_id": "6f9eaa2e7414a10a97a460511c355e97", "is_disabled": 0, "is_reserved": 0}, {"rental_uris": {"ios": "https://dc.lft.to/lastmile_qr_scan", "android": "https://dc.lft.to/lastmile_qr_scan"}, "lon": -77.05742166666667, "type": "electric_scooter", "fusion_lat": 0.0, "lat": 38.93396833333333, "name": "dc277fcef66547f4de1f78d7a65edeca", "fusion_lon": 0.0, "bike_id": "dc277fcef66547f4de1f78d7a65edeca", "is_disabled": 0, "is_reserved": 0}, {"rental_uris": {"ios": "https://dc.lft.to/lastmile_qr_scan", "android": "https://dc.lft.to/lastmile_qr_scan"}, "lon": -76.99759983333334, "type": "electric_scooter", "fusion_lat": 0.0, "lat": 38.921882, "name": "3ce755f1b5406e085ca421b35231d5f5", "fusion_lon": 0.0, "bike_id": "3ce755f1b5406e085ca421b35231d5f5", "is_disabled": 0, "is_reserved": 0}, {"rental_uris": {"ios": "https://dc.lft.to/lastmile_qr_scan", "android": "https://dc.lft.to/lastmile_qr_scan"}, "lon": -77.031985, "type": "electric_scooter", "fusion_lat": 0.0, "lat": 38.885677, "name": "49e610529c002af1f99f490ccf60d778", "fusion_lon": 0.0, "bike_id": "49e610529c002af1f99f490ccf60d778", "is_disabled": 0, "is_reserved": 0}, {"rental_uris": {"ios": "https://dc.lft.to/lastmile_qr_scan", "android": "https://dc.lft.to/lastmile_qr_scan"}, "lon": -77.11523666666666, "type": "electric_bike", "fusion_lat": 0.0, "lat": 38.8549315, "name": "08c0f0d6b7e931400a415168f5512b5e", "fusion_lon": 0.0, "bike_id": "08c0f0d6b7e931400a415168f5512b5e", "is_disabled": 0, "is_reserved": 0}, {"rental_uris": {"ios": "https://dc.lft.to/lastmile_qr_scan", "android": "https://dc.lft.to/lastmile_qr_scan"}, "lon": -77.02613266666667, "type": "electric_scooter", "fusion_lat": 0.0, "lat": 38.917092833333335, "name": "0d2a685360a149e7b6c439137ab75981", "fusion_lon": 0.0, "bike_id": "0d2a685360a149e7b6c439137ab75981", "is_disabled": 0, "is_reserved": 0}, {"rental_uris": {"ios": "https://dc.lft.to/lastmile_qr_scan", "android": "https://dc.lft.to/lastmile_qr_scan"}, "lon": -77.0177405, "type": "electric_scooter", "fusion_lat": 0.0, "lat": 38.88711933333333, "name": "d1b8b62801e4909f48425f21e6e295ef", "fusion_lon": 0.0, "bike_id": "d1b8b62801e4909f48425f21e6e295ef", "is_disabled": 0, "is_reserved": 0}, {"rental_uris": {"ios": "https://dc.lft.to/lastmile_qr_scan", "android": "https://dc.lft.to/lastmile_qr_scan"}, "lon": -76.98824716666667, "type": "electric_scooter", "fusion_lat": 0.0, "lat": 38.88021083333334, "name": "06cf039919515334fe1b16e232453f3b", "fusion_lon": 0.0, "bike_id": "06cf039919515334fe1b16e232453f3b", "is_disabled": 0, "is_reserved": 0}, {"rental_uris": {"ios": "https://dc.lft.to/lastmile_qr_scan", "android": "https://dc.lft.to/lastmile_qr_scan"}, "lon": -77.03269683333333, "type": "electric_scooter", "fusion_lat": 0.0, "lat": 38.929065666666666, "name": "229163fe0698db683c34855f4c4142bc", "fusion_lon": 0.0, "bike_id": "229163fe0698db683c34855f4c4142bc", "is_disabled": 0, "is_reserved": 0}, {"rental_uris": {"ios": "https://dc.lft.to/lastmile_qr_scan", "android": "https://dc.lft.to/lastmile_qr_scan"}, "lon": -77.12373066666666, "type": "electric_bike", "fusion_lat": 0.0, "lat": 38.84739116666667, "name": "c5b405fd9ea1e294a4a3dad0ca207a33", "fusion_lon": 0.0, "bike_id": "c5b405fd9ea1e294a4a3dad0ca207a33", "is_disabled": 0, "is_reserved": 0}, {"rental_uris": {"ios": "https://dc.lft.to/lastmile_qr_scan", "android": "https://dc.lft.to/lastmile_qr_scan"}, "lon": -77.05539433333334, "type": "electric_scooter", "fusion_lat": 0.0, "lat": 38.899683333333336, "name": "05beab172a55696e77f28515b624d6b7", "fusion_lon": 0.0, "bike_id": "05beab172a55696e77f28515b624d6b7", "is_disabled": 0, "is_reserved": 0}, {"rental_uris": {"ios": "https://dc.lft.to/lastmile_qr_scan", "android": "https://dc.lft.to/lastmile_qr_scan"}, "lon": -77.0274, "type": "electric_scooter", "fusion_lat": 0.0, "lat": 38.894798, "name": "aa0c2f371913b01c50fc10789cc8ed2b", "fusion_lon": 0.0, "bike_id": "aa0c2f371913b01c50fc10789cc8ed2b", "is_disabled": 0, "is_reserved": 0}, {"rental_uris": {"ios": "https://dc.lft.to/lastmile_qr_scan", "android": "https://dc.lft.to/lastmile_qr_scan"}, "lon": -77.0449795, "type": "electric_scooter", "fusion_lat": 0.0, "lat": 38.90054666666666, "name": "07ffb561dcb257ff2ae1ba974d640a03", "fusion_lon": 0.0, "bike_id": "07ffb561dcb257ff2ae1ba974d640a03", "is_disabled": 0, "is_reserved": 0}, {"rental_uris": {"ios": "https://dc.lft.to/lastmile_qr_scan", "android": "https://dc.lft.to/lastmile_qr_scan"}, "lon": -77.0706275, "type": "electric_scooter", "fusion_lat": 0.0, "lat": 38.90110266666667, "name": "c8fee914503ced20a534c447c293aa31", "fusion_lon": 0.0, "bike_id": "c8fee914503ced20a534c447c293aa31", "is_disabled": 0, "is_reserved": 0}, {"rental_uris": {"ios": "https://dc.lft.to/lastmile_qr_scan", "android": "https://dc.lft.to/lastmile_qr_scan"}, "lon": -77.033548, "type": "electric_scooter", "fusion_lat": 0.0, "lat": 38.89965633333333, "name": "5cac21259bead2555480c8bc63565039", "fusion_lon": 0.0, "bike_id": "5cac21259bead2555480c8bc63565039", "is_disabled": 0, "is_reserved": 0}, {"rental_uris": {"ios": "https://dc.lft.to/lastmile_qr_scan", "android": "https://dc.lft.to/lastmile_qr_scan"}, "lon": -77.00543583333334, "type": "electric_scooter", "fusion_lat": 0.0, "lat": 38.874594, "name": "6899704d621938bfde48861feade8f97", "fusion_lon": 0.0, "bike_id": "6899704d621938bfde48861feade8f97", "is_disabled": 0, "is_reserved": 0}, {"rental_uris": {"ios": "https://dc.lft.to/lastmile_qr_scan", "android": "https://dc.lft.to/lastmile_qr_scan"}, "lon": -77.05503416666667, "type": "electric_scooter", "fusion_lat": 0.0, "lat": 38.92978466666667, "name": "c1838896d87665ad2a7594eab8f1eda8", "fusion_lon": 0.0, "bike_id": "c1838896d87665ad2a7594eab8f1eda8", "is_disabled": 0, "is_reserved": 0}, {"rental_uris": {"ios": "https://dc.lft.to/lastmile_qr_scan", "android": "https://dc.lft.to/lastmile_qr_scan"}, "lon": -77.02715383333333, "type": "electric_scooter", "fusion_lat": 0.0, "lat": 38.917229666666664, "name": "b406728e42e749aad97d5ac253530bcc", "fusion_lon": 0.0, "bike_id": "b406728e42e749aad97d5ac253530bcc", "is_disabled": 0, "is_reserved": 0}, {"rental_uris": {"ios": "https://dc.lft.to/lastmile_qr_scan", "android": "https://dc.lft.to/lastmile_qr_scan"}, "lon": -76.99779383333333, "type": "electric_scooter", "fusion_lat": 0.0, "lat": 38.844220666666665, "name": "3ca6f96af15f92df63089ec7346821a1", "fusion_lon": 0.0, "bike_id": "3ca6f96af15f92df63089ec7346821a1", "is_disabled": 0, "is_reserved": 0}, {"rental_uris": {"ios": "https://dc.lft.to/lastmile_qr_scan", "android": "https://dc.lft.to/lastmile_qr_scan"}, "lon": -77.00649733333333, "type": "electric_scooter", "fusion_lat": 0.0, "lat": 38.91703366666667, "name": "3afd3e9c1c4d7fa4cfcaaf9fed287522", "fusion_lon": 0.0, "bike_id": "3afd3e9c1c4d7fa4cfcaaf9fed287522", "is_disabled": 0, "is_reserved": 0}, {"rental_uris": {"ios": "https://dc.lft.to/lastmile_qr_scan", "android": "https://dc.lft.to/lastmile_qr_scan"}, "lon": -77.06404216666667, "type": "electric_bike", "fusion_lat": 0.0, "lat": 38.843454, "name": "5aa6d3fd957b659dd6b80e1dae3583f8", "fusion_lon": 0.0, "bike_id": "5aa6d3fd957b659dd6b80e1dae3583f8", "is_disabled": 0, "is_reserved": 0}, {"rental_uris": {"ios": "https://dc.lft.to/lastmile_qr_scan", "android": "https://dc.lft.to/lastmile_qr_scan"}, "lon": -76.992771, "type": "electric_scooter", "fusion_lat": 0.0, "lat": 38.921338, "name": "e2883ec8d9588b14b1f73c7f8b663213", "fusion_lon": 0.0, "bike_id": "e2883ec8d9588b14b1f73c7f8b663213", "is_disabled": 0, "is_reserved": 0}, {"rental_uris": {"ios": "https://dc.lft.to/lastmile_qr_scan", "android": "https://dc.lft.to/lastmile_qr_scan"}, "lon": -76.98179083333333, "type": "electric_scooter", "fusion_lat": 0.0, "lat": 38.895802333333336, "name": "e9718436cd150a548b5c5e99abd42f88", "fusion_lon": 0.0, "bike_id": "e9718436cd150a548b5c5e99abd42f88", "is_disabled": 0, "is_reserved": 0}, {"rental_uris": {"ios": "https://dc.lft.to/lastmile_qr_scan", "android": "https://dc.lft.to/lastmile_qr_scan"}, "lon": -77.02876616666667, "type": "electric_scooter", "fusion_lat": 0.0, "lat": 38.90234366666667, "name": "1e7a9e6c065f3d993db082b8f4d2a5ea", "fusion_lon": 0.0, "bike_id": "1e7a9e6c065f3d993db082b8f4d2a5ea", "is_disabled": 0, "is_reserved": 0}, {"rental_uris": {"ios": "https://dc.lft.to/lastmile_qr_scan", "android": "https://dc.lft.to/lastmile_qr_scan"}, "lon": -77.04103783333333, "type": "electric_scooter", "fusion_lat": 0.0, "lat": 38.9176915, "name": "7cf76270a5f13108f2006e3e41dafa9f", "fusion_lon": 0.0, "bike_id": "7cf76270a5f13108f2006e3e41dafa9f", "is_disabled": 0, "is_reserved": 0}, {"rental_uris": {"ios": "https://dc.lft.to/lastmile_qr_scan", "android": "https://dc.lft.to/lastmile_qr_scan"}, "lon": -77.0217935, "type": "electric_scooter", "fusion_lat": 0.0, "lat": 38.939491833333335, "name": "811a25b91fdca7553a758cc7aa99eb9a", "fusion_lon": 0.0, "bike_id": "811a25b91fdca7553a758cc7aa99eb9a", "is_disabled": 0, "is_reserved": 0}, {"rental_uris": {"ios": "https://dc.lft.to/lastmile_qr_scan", "android": "https://dc.lft.to/lastmile_qr_scan"}, "lon": -76.982533, "type": "electric_scooter", "fusion_lat": 0.0, "lat": 38.90867433333333, "name": "1973da0d766aaa8b729a2ddfc3d9a658", "fusion_lon": 0.0, "bike_id": "1973da0d766aaa8b729a2ddfc3d9a658", "is_disabled": 0, "is_reserved": 0}, {"rental_uris": {"ios": "https://dc.lft.to/lastmile_qr_scan", "android": "https://dc.lft.to/lastmile_qr_scan"}, "lon": -77.00975033333333, "type": "electric_scooter", "fusion_lat": 0.0, "lat": 38.919228333333336, "name": "d25281a6ad1885baa4f6528090ec43ea", "fusion_lon": 0.0, "bike_id": "d25281a6ad1885baa4f6528090ec43ea", "is_disabled": 0, "is_reserved": 0}, {"rental_uris": {"ios": "https://dc.lft.to/lastmile_qr_scan", "android": "https://dc.lft.to/lastmile_qr_scan"}, "lon": -77.031841, "type": "electric_scooter", "fusion_lat": 0.0, "lat": 38.91319283333333, "name": "dab53a8745626b2e771a19d7fccc8129", "fusion_lon": 0.0, "bike_id": "dab53a8745626b2e771a19d7fccc8129", "is_disabled": 0, "is_reserved": 0}, {"rental_uris": {"ios": "https://dc.lft.to/lastmile_qr_scan", "android": "https://dc.lft.to/lastmile_qr_scan"}, "lon": -76.90955116666666, "type": "electric_bike", "fusion_lat": 0.0, "lat": 38.854281, "name": "e6118ede42c57e22c9f41c492c6a1880", "fusion_lon": 0.0, "bike_id": "e6118ede42c57e22c9f41c492c6a1880", "is_disabled": 0, "is_reserved": 0}, {"rental_uris": {"ios": "https://dc.lft.to/lastmile_qr_scan", "android": "https://dc.lft.to/lastmile_qr_scan"}, "lon": -77.03144416666666, "type": "electric_scooter", "fusion_lat": 0.0, "lat": 38.912684166666665, "name": "f07a97f6e62db2cce8cb6f1c96d22eb4", "fusion_lon": 0.0, "bike_id": "f07a97f6e62db2cce8cb6f1c96d22eb4", "is_disabled": 0, "is_reserved": 0}, {"rental_uris": {"ios": "https://dc.lft.to/lastmile_qr_scan", "android": "https://dc.lft.to/lastmile_qr_scan"}, "lon": -76.94892383333334, "type": "electric_scooter", "fusion_lat": 0.0, "lat": 38.89528633333333, "name": "0169a34a0a2c6b8e1870502310f35fc8", "fusion_lon": 0.0, "bike_id": "0169a34a0a2c6b8e1870502310f35fc8", "is_disabled": 0, "is_reserved": 0}, {"rental_uris": {"ios": "https://dc.lft.to/lastmile_qr_scan", "android": "https://dc.lft.to/lastmile_qr_scan"}, "lon": -77.04690883333333, "type": "electric_scooter", "fusion_lat": 0.0, "lat": 38.901158333333335, "name": "9de9514f2825026856c9eccaf2027b5a", "fusion_lon": 0.0, "bike_id": "9de9514f2825026856c9eccaf2027b5a", "is_disabled": 0, "is_reserved": 0}, {"rental_uris": {"ios": "https://dc.lft.to/lastmile_qr_scan", "android": "https://dc.lft.to/lastmile_qr_scan"}, "lon": -77.04094866666667, "type": "electric_scooter", "fusion_lat": 0.0, "lat": 38.917688, "name": "cb5f6e9be7837af763d08b112bd73912", "fusion_lon": 0.0, "bike_id": "cb5f6e9be7837af763d08b112bd73912", "is_disabled": 0, "is_reserved": 0}, {"rental_uris": {"ios": "https://dc.lft.to/lastmile_qr_scan", "android": "https://dc.lft.to/lastmile_qr_scan"}, "lon": -77.0243955, "type": "electric_scooter", "fusion_lat": 0.0, "lat": 38.902120833333335, "name": "74ae725663c2aac5a47f8a18e69163e7", "fusion_lon": 0.0, "bike_id": "74ae725663c2aac5a47f8a18e69163e7", "is_disabled": 0, "is_reserved": 0}, {"rental_uris": {"ios": "https://dc.lft.to/lastmile_qr_scan", "android": "https://dc.lft.to/lastmile_qr_scan"}, "lon": -77.04257016666666, "type": "electric_scooter", "fusion_lat": 0.0, "lat": 38.907670833333334, "name": "36114eef2bf5d5fd33b76d99a98ed9f9", "fusion_lon": 0.0, "bike_id": "36114eef2bf5d5fd33b76d99a98ed9f9", "is_disabled": 0, "is_reserved": 0}, {"rental_uris": {"ios": "https://dc.lft.to/lastmile_qr_scan", "android": "https://dc.lft.to/lastmile_qr_scan"}, "lon": -77.04800883333333, "type": "electric_scooter", "fusion_lat": 0.0, "lat": 38.892236, "name": "9108093b3d0aca801fb3bff40c09d03f", "fusion_lon": 0.0, "bike_id": "9108093b3d0aca801fb3bff40c09d03f", "is_disabled": 0, "is_reserved": 0}, {"rental_uris": {"ios": "https://dc.lft.to/lastmile_qr_scan", "android": "https://dc.lft.to/lastmile_qr_scan"}, "lon": -77.0230755, "type": "electric_scooter", "fusion_lat": 0.0, "lat": 38.918366166666665, "name": "548fb2141621d17149bf0f8c676b184f", "fusion_lon": 0.0, "bike_id": "548fb2141621d17149bf0f8c676b184f", "is_disabled": 0, "is_reserved": 0}, {"rental_uris": {"ios": "https://dc.lft.to/lastmile_qr_scan", "android": "https://dc.lft.to/lastmile_qr_scan"}, "lon": -77.031303, "type": "electric_scooter", "fusion_lat": 0.0, "lat": 38.92370833333333, "name": "6bed73bce4a93192071c65d7a666ab9e", "fusion_lon": 0.0, "bike_id": "6bed73bce4a93192071c65d7a666ab9e", "is_disabled": 0, "is_reserved": 0}, {"rental_uris": {"ios": "https://dc.lft.to/lastmile_qr_scan", "android": "https://dc.lft.to/lastmile_qr_scan"}, "lon": -77.01699416666666, "type": "electric_scooter", "fusion_lat": 0.0, "lat": 38.92004, "name": "f53691d65582b1c0a010cb287040ded3", "fusion_lon": 0.0, "bike_id": "f53691d65582b1c0a010cb287040ded3", "is_disabled": 0, "is_reserved": 0}, {"rental_uris": {"ios": "https://dc.lft.to/lastmile_qr_scan", "android": "https://dc.lft.to/lastmile_qr_scan"}, "lon": -77.01304816666666, "type": "electric_scooter", "fusion_lat": 0.0, "lat": 38.900562666666666, "name": "1bb493104d88f622dcfd23afe2945391", "fusion_lon": 0.0, "bike_id": "1bb493104d88f622dcfd23afe2945391", "is_disabled": 0, "is_reserved": 0}, {"rental_uris": {"ios": "https://dc.lft.to/lastmile_qr_scan", "android": "https://dc.lft.to/lastmile_qr_scan"}, "lon": -77.02494933333334, "type": "electric_scooter", "fusion_lat": 0.0, "lat": 38.918083833333334, "name": "99de0abe1771d67c24cf4961ba2ada76", "fusion_lon": 0.0, "bike_id": "99de0abe1771d67c24cf4961ba2ada76", "is_disabled": 0, "is_reserved": 0}, {"rental_uris": {"ios": "https://dc.lft.to/lastmile_qr_scan", "android": "https://dc.lft.to/lastmile_qr_scan"}, "lon": -76.9868195, "type": "electric_scooter", "fusion_lat": 0.0, "lat": 38.8821605, "name": "2d28ed49e687950d66cfa896433bdf58", "fusion_lon": 0.0, "bike_id": "2d28ed49e687950d66cfa896433bdf58", "is_disabled": 0, "is_reserved": 0}, {"rental_uris": {"ios": "https://dc.lft.to/lastmile_qr_scan", "android": "https://dc.lft.to/lastmile_qr_scan"}, "lon": -76.97959783333333, "type": "electric_scooter", "fusion_lat": 0.0, "lat": 38.9037845, "name": "2e8d42858335fa01b04c50efca9d799c", "fusion_lon": 0.0, "bike_id": "2e8d42858335fa01b04c50efca9d799c", "is_disabled": 0, "is_reserved": 0}, {"rental_uris": {"ios": "https://dc.lft.to/lastmile_qr_scan", "android": "https://dc.lft.to/lastmile_qr_scan"}, "lon": -77.05881616666667, "type": "electric_scooter", "fusion_lat": 0.0, "lat": 38.93636816666667, "name": "23aa1ee8c800636cfbf283b9763612b6", "fusion_lon": 0.0, "bike_id": "23aa1ee8c800636cfbf283b9763612b6", "is_disabled": 0, "is_reserved": 0}, {"rental_uris": {"ios": "https://dc.lft.to/lastmile_qr_scan", "android": "https://dc.lft.to/lastmile_qr_scan"}, "lon": -77.06304083333333, "type": "electric_scooter", "fusion_lat": 0.0, "lat": 38.91326633333333, "name": "2280c982c99285ce904ec67fdcd9b8d1", "fusion_lon": 0.0, "bike_id": "2280c982c99285ce904ec67fdcd9b8d1", "is_disabled": 0, "is_reserved": 0}, {"rental_uris": {"ios": "https://dc.lft.to/lastmile_qr_scan", "android": "https://dc.lft.to/lastmile_qr_scan"}, "lon": -77.03233216666666, "type": "electric_scooter", "fusion_lat": 0.0, "lat": 38.9096215, "name": "f6b086a92f8d6f8e4bd9ea1577691f0c", "fusion_lon": 0.0, "bike_id": "f6b086a92f8d6f8e4bd9ea1577691f0c", "is_disabled": 0, "is_reserved": 0}, {"rental_uris": {"ios": "https://dc.lft.to/lastmile_qr_scan", "android": "https://dc.lft.to/lastmile_qr_scan"}, "lon": -77.03116716666666, "type": "electric_scooter", "fusion_lat": 0.0, "lat": 38.913364333333334, "name": "f0c7fa7cb8338cc6eb904906bcd243a1", "fusion_lon": 0.0, "bike_id": "f0c7fa7cb8338cc6eb904906bcd243a1", "is_disabled": 0, "is_reserved": 0}, {"rental_uris": {"ios": "https://dc.lft.to/lastmile_qr_scan", "android": "https://dc.lft.to/lastmile_qr_scan"}, "lon": -77.0121, "type": "electric_scooter", "fusion_lat": 0.0, "lat": 38.91821483333333, "name": "100cbdc4c893825b9f4eef2262dee79a", "fusion_lon": 0.0, "bike_id": "100cbdc4c893825b9f4eef2262dee79a", "is_disabled": 0, "is_reserved": 0}, {"rental_uris": {"ios": "https://dc.lft.to/lastmile_qr_scan", "android": "https://dc.lft.to/lastmile_qr_scan"}, "lon": -76.97623, "type": "electric_scooter", "fusion_lat": 0.0, "lat": 38.9056845, "name": "befebe5e6920b62b8940374af045d275", "fusion_lon": 0.0, "bike_id": "befebe5e6920b62b8940374af045d275", "is_disabled": 0, "is_reserved": 0}, {"rental_uris": {"ios": "https://dc.lft.to/lastmile_qr_scan", "android": "https://dc.lft.to/lastmile_qr_scan"}, "lon": -77.02183583333333, "type": "electric_scooter", "fusion_lat": 0.0, "lat": 38.897066333333335, "name": "d9ce6b3f612ef2deee0cd5fedb005df8", "fusion_lon": 0.0, "bike_id": "d9ce6b3f612ef2deee0cd5fedb005df8", "is_disabled": 0, "is_reserved": 0}, {"rental_uris": {"ios": "https://dc.lft.to/lastmile_qr_scan", "android": "https://dc.lft.to/lastmile_qr_scan"}, "lon": -77.021264, "type": "electric_scooter", "fusion_lat": 0.0, "lat": 38.93102066666667, "name": "2a11272ef77a8476602e568ae6d21b1f", "fusion_lon": 0.0, "bike_id": "2a11272ef77a8476602e568ae6d21b1f", "is_disabled": 0, "is_reserved": 0}, {"rental_uris": {"ios": "https://dc.lft.to/lastmile_qr_scan", "android": "https://dc.lft.to/lastmile_qr_scan"}, "lon": -77.047388, "type": "electric_scooter", "fusion_lat": 0.0, "lat": 38.9129105, "name": "e05623641445b62688206863771ff073", "fusion_lon": 0.0, "bike_id": "e05623641445b62688206863771ff073", "is_disabled": 0, "is_reserved": 0}, {"rental_uris": {"ios": "https://dc.lft.to/lastmile_qr_scan", "android": "https://dc.lft.to/lastmile_qr_scan"}, "lon": -77.03230583333334, "type": "electric_scooter", "fusion_lat": 0.0, "lat": 38.9140915, "name": "16473e58b0458ae45890629c524f1edd", "fusion_lon": 0.0, "bike_id": "16473e58b0458ae45890629c524f1edd", "is_disabled": 0, "is_reserved": 0}, {"rental_uris": {"ios": "https://dc.lft.to/lastmile_qr_scan", "android": "https://dc.lft.to/lastmile_qr_scan"}, "lon": -76.957507, "type": "electric_scooter", "fusion_lat": 0.0, "lat": 38.8843285, "name": "464c6d362d00629742c919725761fdca", "fusion_lon": 0.0, "bike_id": "464c6d362d00629742c919725761fdca", "is_disabled": 0, "is_reserved": 0}, {"rental_uris": {"ios": "https://dc.lft.to/lastmile_qr_scan", "android": "https://dc.lft.to/lastmile_qr_scan"}, "lon": -77.0435585, "type": "electric_scooter", "fusion_lat": 0.0, "lat": 38.89669966666666, "name": "269fbb1f3653c2705aa3cea561dd3a4d", "fusion_lon": 0.0, "bike_id": "269fbb1f3653c2705aa3cea561dd3a4d", "is_disabled": 0, "is_reserved": 0}, {"rental_uris": {"ios": "https://dc.lft.to/lastmile_qr_scan", "android": "https://dc.lft.to/lastmile_qr_scan"}, "lon": -77.02615216666666, "type": "electric_scooter", "fusion_lat": 0.0, "lat": 38.9001325, "name": "d0633c39c1fccd37ecae57430e793375", "fusion_lon": 0.0, "bike_id": "d0633c39c1fccd37ecae57430e793375", "is_disabled": 0, "is_reserved": 0}, {"rental_uris": {"ios": "https://dc.lft.to/lastmile_qr_scan", "android": "https://dc.lft.to/lastmile_qr_scan"}, "lon": -77.12502316666667, "type": "electric_bike", "fusion_lat": 0.0, "lat": 39.02421983333333, "name": "6119cdf77f931b1a686559bd05ce8aad", "fusion_lon": 0.0, "bike_id": "6119cdf77f931b1a686559bd05ce8aad", "is_disabled": 0, "is_reserved": 0}, {"rental_uris": {"ios": "https://dc.lft.to/lastmile_qr_scan", "android": "https://dc.lft.to/lastmile_qr_scan"}, "lon": -77.01980883333333, "type": "electric_bike", "fusion_lat": 0.0, "lat": 38.96476116666667, "name": "dbff18bfe37085d544ef730d0ffc6ece", "fusion_lon": 0.0, "bike_id": "dbff18bfe37085d544ef730d0ffc6ece", "is_disabled": 0, "is_reserved": 0}, {"rental_uris": {"ios": "https://dc.lft.to/lastmile_qr_scan", "android": "https://dc.lft.to/lastmile_qr_scan"}, "lon": -77.0548805, "type": "electric_scooter", "fusion_lat": 0.0, "lat": 38.929740833333334, "name": "b909106aa0764606bdf6f3018c23f3e6", "fusion_lon": 0.0, "bike_id": "b909106aa0764606bdf6f3018c23f3e6", "is_disabled": 0, "is_reserved": 0}, {"rental_uris": {"ios": "https://dc.lft.to/lastmile_qr_scan", "android": "https://dc.lft.to/lastmile_qr_scan"}, "lon": -77.03075833333334, "type": "electric_scooter", "fusion_lat": 0.0, "lat": 38.9075975, "name": "390d5c18a9106943305be1f07b22af03", "fusion_lon": 0.0, "bike_id": "390d5c18a9106943305be1f07b22af03", "is_disabled": 0, "is_reserved": 0}, {"rental_uris": {"ios": "https://dc.lft.to/lastmile_qr_scan", "android": "https://dc.lft.to/lastmile_qr_scan"}, "lon": -77.04013166666667, "type": "electric_scooter", "fusion_lat": 0.0, "lat": 38.917983666666665, "name": "17d144c6e336410480eb49aa02779486", "fusion_lon": 0.0, "bike_id": "17d144c6e336410480eb49aa02779486", "is_disabled": 0, "is_reserved": 0}, {"rental_uris": {"ios": "https://dc.lft.to/lastmile_qr_scan", "android": "https://dc.lft.to/lastmile_qr_scan"}, "lon": -77.0754845, "type": "electric_scooter", "fusion_lat": 0.0, "lat": 38.92078466666667, "name": "12d6bddd20da25171398723054e6a195", "fusion_lon": 0.0, "bike_id": "12d6bddd20da25171398723054e6a195", "is_disabled": 0, "is_reserved": 0}, {"rental_uris": {"ios": "https://dc.lft.to/lastmile_qr_scan", "android": "https://dc.lft.to/lastmile_qr_scan"}, "lon": -77.0173085, "type": "electric_scooter", "fusion_lat": 0.0, "lat": 38.91680133333333, "name": "bd7b53322415acfd98ba91359ea2524b", "fusion_lon": 0.0, "bike_id": "bd7b53322415acfd98ba91359ea2524b", "is_disabled": 0, "is_reserved": 0}, {"rental_uris": {"ios": "https://dc.lft.to/lastmile_qr_scan", "android": "https://dc.lft.to/lastmile_qr_scan"}, "lon": -76.96062583333334, "type": "electric_bike", "fusion_lat": 0.0, "lat": 38.88403983333333, "name": "d16f4be321131521789aae264171168c", "fusion_lon": 0.0, "bike_id": "d16f4be321131521789aae264171168c", "is_disabled": 0, "is_reserved": 0}, {"rental_uris": {"ios": "https://dc.lft.to/lastmile_qr_scan", "android": "https://dc.lft.to/lastmile_qr_scan"}, "lon": -76.90817733333333, "type": "electric_bike", "fusion_lat": 0.0, "lat": 38.9945275, "name": "35cdc3040c9f13d994eed757a41e2e9c", "fusion_lon": 0.0, "bike_id": "35cdc3040c9f13d994eed757a41e2e9c", "is_disabled": 0, "is_reserved": 0}, {"rental_uris": {"ios": "https://dc.lft.to/lastmile_qr_scan", "android": "https://dc.lft.to/lastmile_qr_scan"}, "lon": -77.062973, "type": "electric_scooter", "fusion_lat": 0.0, "lat": 38.903947333333335, "name": "914e1f37ba56c333130e92ae2541b1e3", "fusion_lon": 0.0, "bike_id": "914e1f37ba56c333130e92ae2541b1e3", "is_disabled": 0, "is_reserved": 0}, {"rental_uris": {"ios": "https://dc.lft.to/lastmile_qr_scan", "android": "https://dc.lft.to/lastmile_qr_scan"}, "lon": -77.08259516666666, "type": "electric_scooter", "fusion_lat": 0.0, "lat": 38.935874, "name": "0313e5867de5e91e5efd033459723d81", "fusion_lon": 0.0, "bike_id": "0313e5867de5e91e5efd033459723d81", "is_disabled": 0, "is_reserved": 0}, {"rental_uris": {"ios": "https://dc.lft.to/lastmile_qr_scan", "android": "https://dc.lft.to/lastmile_qr_scan"}, "lon": -77.011279, "type": "electric_scooter", "fusion_lat": 0.0, "lat": 38.89523116666667, "name": "8f622553b3f0c6a57b3aea1c60cfd2e0", "fusion_lon": 0.0, "bike_id": "8f622553b3f0c6a57b3aea1c60cfd2e0", "is_disabled": 0, "is_reserved": 0}, {"rental_uris": {"ios": "https://dc.lft.to/lastmile_qr_scan", "android": "https://dc.lft.to/lastmile_qr_scan"}, "lon": -77.04814666666667, "type": "electric_scooter", "fusion_lat": 0.0, "lat": 38.91334416666667, "name": "aeb744e45b9a0156156a72835bc1af33", "fusion_lon": 0.0, "bike_id": "aeb744e45b9a0156156a72835bc1af33", "is_disabled": 0, "is_reserved": 0}, {"rental_uris": {"ios": "https://dc.lft.to/lastmile_qr_scan", "android": "https://dc.lft.to/lastmile_qr_scan"}, "lon": -77.03846066666667, "type": "electric_scooter", "fusion_lat": 0.0, "lat": 38.92557883333333, "name": "3a189dc11f1b3ba70c70972abcde2068", "fusion_lon": 0.0, "bike_id": "3a189dc11f1b3ba70c70972abcde2068", "is_disabled": 0, "is_reserved": 0}, {"rental_uris": {"ios": "https://dc.lft.to/lastmile_qr_scan", "android": "https://dc.lft.to/lastmile_qr_scan"}, "lon": -77.02821183333333, "type": "electric_scooter", "fusion_lat": 0.0, "lat": 38.887293666666665, "name": "08a823d5376aff1f0a44a32af1df418e", "fusion_lon": 0.0, "bike_id": "08a823d5376aff1f0a44a32af1df418e", "is_disabled": 0, "is_reserved": 0}, {"rental_uris": {"ios": "https://dc.lft.to/lastmile_qr_scan", "android": "https://dc.lft.to/lastmile_qr_scan"}, "lon": -77.04252716666667, "type": "electric_scooter", "fusion_lat": 0.0, "lat": 38.922158333333336, "name": "a96c6b6818f7e3f29d1ee18d64445627", "fusion_lon": 0.0, "bike_id": "a96c6b6818f7e3f29d1ee18d64445627", "is_disabled": 0, "is_reserved": 0}, {"rental_uris": {"ios": "https://dc.lft.to/lastmile_qr_scan", "android": "https://dc.lft.to/lastmile_qr_scan"}, "lon": -77.006718, "type": "electric_scooter", "fusion_lat": 0.0, "lat": 38.899914, "name": "9adc00065f69d0e9cd4f09b2b5e9b096", "fusion_lon": 0.0, "bike_id": "9adc00065f69d0e9cd4f09b2b5e9b096", "is_disabled": 0, "is_reserved": 0}, {"rental_uris": {"ios": "https://dc.lft.to/lastmile_qr_scan", "android": "https://dc.lft.to/lastmile_qr_scan"}, "lon": -77.04610616666666, "type": "electric_scooter", "fusion_lat": 0.0, "lat": 38.898268333333334, "name": "cfde1409f0d1171876e132a63f7810aa", "fusion_lon": 0.0, "bike_id": "cfde1409f0d1171876e132a63f7810aa", "is_disabled": 0, "is_reserved": 0}, {"rental_uris": {"ios": "https://dc.lft.to/lastmile_qr_scan", "android": "https://dc.lft.to/lastmile_qr_scan"}, "lon": -77.04876966666667, "type": "electric_scooter", "fusion_lat": 0.0, "lat": 38.903655666666666, "name": "db6a853206e6700df0578b8461472f6c", "fusion_lon": 0.0, "bike_id": "db6a853206e6700df0578b8461472f6c", "is_disabled": 0, "is_reserved": 0}, {"rental_uris": {"ios": "https://dc.lft.to/lastmile_qr_scan", "android": "https://dc.lft.to/lastmile_qr_scan"}, "lon": -77.031806, "type": "electric_scooter", "fusion_lat": 0.0, "lat": 38.91318916666667, "name": "2c67dd3ae897e2954983bd99294a1d9b", "fusion_lon": 0.0, "bike_id": "2c67dd3ae897e2954983bd99294a1d9b", "is_disabled": 0, "is_reserved": 0}, {"rental_uris": {"ios": "https://dc.lft.to/lastmile_qr_scan", "android": "https://dc.lft.to/lastmile_qr_scan"}, "lon": -77.06004916666667, "type": "electric_scooter", "fusion_lat": 0.0, "lat": 38.905302666666664, "name": "f551f668606eee08f963498c200b69de", "fusion_lon": 0.0, "bike_id": "f551f668606eee08f963498c200b69de", "is_disabled": 0, "is_reserved": 0}, {"rental_uris": {"ios": "https://dc.lft.to/lastmile_qr_scan", "android": "https://dc.lft.to/lastmile_qr_scan"}, "lon": -76.96862883333333, "type": "electric_scooter", "fusion_lat": 0.0, "lat": 38.860571166666666, "name": "6021a8597f0495f75c9893f0f031af70", "fusion_lon": 0.0, "bike_id": "6021a8597f0495f75c9893f0f031af70", "is_disabled": 0, "is_reserved": 0}, {"rental_uris": {"ios": "https://dc.lft.to/lastmile_qr_scan", "android": "https://dc.lft.to/lastmile_qr_scan"}, "lon": -77.10507883333334, "type": "electric_bike", "fusion_lat": 0.0, "lat": 38.928482, "name": "c0a9035f41d11710058a17e05020b935", "fusion_lon": 0.0, "bike_id": "c0a9035f41d11710058a17e05020b935", "is_disabled": 0, "is_reserved": 0}, {"rental_uris": {"ios": "https://dc.lft.to/lastmile_qr_scan", "android": "https://dc.lft.to/lastmile_qr_scan"}, "lon": -77.01531366666667, "type": "electric_scooter", "fusion_lat": 0.0, "lat": 38.887385333333334, "name": "0c64d020ed062a14af0635853f134bf9", "fusion_lon": 0.0, "bike_id": "0c64d020ed062a14af0635853f134bf9", "is_disabled": 0, "is_reserved": 0}, {"rental_uris": {"ios": "https://dc.lft.to/lastmile_qr_scan", "android": "https://dc.lft.to/lastmile_qr_scan"}, "lon": -77.04131616666666, "type": "electric_scooter", "fusion_lat": 0.0, "lat": 38.9243235, "name": "99ac28c6f2a639f520282504fcbbe6e1", "fusion_lon": 0.0, "bike_id": "99ac28c6f2a639f520282504fcbbe6e1", "is_disabled": 0, "is_reserved": 0}, {"rental_uris": {"ios": "https://dc.lft.to/lastmile_qr_scan", "android": "https://dc.lft.to/lastmile_qr_scan"}, "lon": -77.05366633333334, "type": "electric_scooter", "fusion_lat": 0.0, "lat": 38.92708866666667, "name": "c8588e25dff7feee78041e4479a37d01", "fusion_lon": 0.0, "bike_id": "c8588e25dff7feee78041e4479a37d01", "is_disabled": 0, "is_reserved": 0}, {"rental_uris": {"ios": "https://dc.lft.to/lastmile_qr_scan", "android": "https://dc.lft.to/lastmile_qr_scan"}, "lon": -77.02801066666666, "type": "electric_scooter", "fusion_lat": 0.0, "lat": 38.916827833333336, "name": "066371a3b2835f61ce39e808ab9440b7", "fusion_lon": 0.0, "bike_id": "066371a3b2835f61ce39e808ab9440b7", "is_disabled": 0, "is_reserved": 0}, {"rental_uris": {"ios": "https://dc.lft.to/lastmile_qr_scan", "android": "https://dc.lft.to/lastmile_qr_scan"}, "lon": -76.93807566666666, "type": "electric_scooter", "fusion_lat": 0.0, "lat": 38.9129945, "name": "02665568acfafddfcf413383eaf866e2", "fusion_lon": 0.0, "bike_id": "02665568acfafddfcf413383eaf866e2", "is_disabled": 0, "is_reserved": 0}, {"rental_uris": {"ios": "https://dc.lft.to/lastmile_qr_scan", "android": "https://dc.lft.to/lastmile_qr_scan"}, "lon": -77.03168616666666, "type": "electric_scooter", "fusion_lat": 0.0, "lat": 38.896054666666664, "name": "e34948778a9543ffcc31b2bae2ac9c4b", "fusion_lon": 0.0, "bike_id": "e34948778a9543ffcc31b2bae2ac9c4b", "is_disabled": 0, "is_reserved": 0}, {"rental_uris": {"ios": "https://dc.lft.to/lastmile_qr_scan", "android": "https://dc.lft.to/lastmile_qr_scan"}, "lon": -77.01760183333333, "type": "electric_scooter", "fusion_lat": 0.0, "lat": 38.9389715, "name": "31b0439c0fd1012b7226b333138209f7", "fusion_lon": 0.0, "bike_id": "31b0439c0fd1012b7226b333138209f7", "is_disabled": 0, "is_reserved": 0}, {"rental_uris": {"ios": "https://dc.lft.to/lastmile_qr_scan", "android": "https://dc.lft.to/lastmile_qr_scan"}, "lon": -77.061637, "type": "electric_scooter", "fusion_lat": 0.0, "lat": 38.942207333333336, "name": "cc66fa94bbe776007e041df774c6b4e1", "fusion_lon": 0.0, "bike_id": "cc66fa94bbe776007e041df774c6b4e1", "is_disabled": 0, "is_reserved": 0}, {"rental_uris": {"ios": "https://dc.lft.to/lastmile_qr_scan", "android": "https://dc.lft.to/lastmile_qr_scan"}, "lon": -77.03273833333333, "type": "electric_scooter", "fusion_lat": 0.0, "lat": 38.93721933333333, "name": "c0d7057ed8008bdcbdf5f51f1e8962d0", "fusion_lon": 0.0, "bike_id": "c0d7057ed8008bdcbdf5f51f1e8962d0", "is_disabled": 0, "is_reserved": 0}, {"rental_uris": {"ios": "https://dc.lft.to/lastmile_qr_scan", "android": "https://dc.lft.to/lastmile_qr_scan"}, "lon": -77.029655, "type": "electric_scooter", "fusion_lat": 0.0, "lat": 38.92028883333333, "name": "4ff78fc97065576fdbe9ef559440f032", "fusion_lon": 0.0, "bike_id": "4ff78fc97065576fdbe9ef559440f032", "is_disabled": 0, "is_reserved": 0}, {"rental_uris": {"ios": "https://dc.lft.to/lastmile_qr_scan", "android": "https://dc.lft.to/lastmile_qr_scan"}, "lon": -77.0483115, "type": "electric_scooter", "fusion_lat": 0.0, "lat": 38.896102, "name": "c66ab29f445a46d8d721f9f441c31504", "fusion_lon": 0.0, "bike_id": "c66ab29f445a46d8d721f9f441c31504", "is_disabled": 0, "is_reserved": 0}, {"rental_uris": {"ios": "https://dc.lft.to/lastmile_qr_scan", "android": "https://dc.lft.to/lastmile_qr_scan"}, "lon": -77.0293065, "type": "electric_scooter", "fusion_lat": 0.0, "lat": 38.90360583333333, "name": "9099b41dd6fdeb5dd40ee2a65367fbf5", "fusion_lon": 0.0, "bike_id": "9099b41dd6fdeb5dd40ee2a65367fbf5", "is_disabled": 0, "is_reserved": 0}, {"rental_uris": {"ios": "https://dc.lft.to/lastmile_qr_scan", "android": "https://dc.lft.to/lastmile_qr_scan"}, "lon": -76.98773833333334, "type": "electric_scooter", "fusion_lat": 0.0, "lat": 38.911746, "name": "019b0e41c053d821eaa80973f1f56de4", "fusion_lon": 0.0, "bike_id": "019b0e41c053d821eaa80973f1f56de4", "is_disabled": 0, "is_reserved": 0}, {"rental_uris": {"ios": "https://dc.lft.to/lastmile_qr_scan", "android": "https://dc.lft.to/lastmile_qr_scan"}, "lon": -76.97889183333334, "type": "electric_scooter", "fusion_lat": 0.0, "lat": 38.9167635, "name": "ef4006280463fc6c68fa5cb090f4cee8", "fusion_lon": 0.0, "bike_id": "ef4006280463fc6c68fa5cb090f4cee8", "is_disabled": 0, "is_reserved": 0}, {"rental_uris": {"ios": "https://dc.lft.to/lastmile_qr_scan", "android": "https://dc.lft.to/lastmile_qr_scan"}, "lon": -77.01192633333334, "type": "electric_scooter", "fusion_lat": 0.0, "lat": 38.911870666666665, "name": "1f7bb0be3c69017079566cbacc38ae9f", "fusion_lon": 0.0, "bike_id": "1f7bb0be3c69017079566cbacc38ae9f", "is_disabled": 0, "is_reserved": 0}, {"rental_uris": {"ios": "https://dc.lft.to/lastmile_qr_scan", "android": "https://dc.lft.to/lastmile_qr_scan"}, "lon": -77.047089, "type": "electric_scooter", "fusion_lat": 0.0, "lat": 38.897309166666666, "name": "5a328a915aa7e793acad0afb3487f54a", "fusion_lon": 0.0, "bike_id": "5a328a915aa7e793acad0afb3487f54a", "is_disabled": 0, "is_reserved": 0}, {"rental_uris": {"ios": "https://dc.lft.to/lastmile_qr_scan", "android": "https://dc.lft.to/lastmile_qr_scan"}, "lon": -77.04317366666666, "type": "electric_scooter", "fusion_lat": 0.0, "lat": 38.89588, "name": "8ee451a02708a881972877ce0ccc3ff4", "fusion_lon": 0.0, "bike_id": "8ee451a02708a881972877ce0ccc3ff4", "is_disabled": 0, "is_reserved": 0}, {"rental_uris": {"ios": "https://dc.lft.to/lastmile_qr_scan", "android": "https://dc.lft.to/lastmile_qr_scan"}, "lon": -77.04951783333334, "type": "electric_scooter", "fusion_lat": 0.0, "lat": 38.896314, "name": "72c06134b3d36e2507d8c9ea50d5cd2c", "fusion_lon": 0.0, "bike_id": "72c06134b3d36e2507d8c9ea50d5cd2c", "is_disabled": 0, "is_reserved": 0}, {"rental_uris": {"ios": "https://dc.lft.to/lastmile_qr_scan", "android": "https://dc.lft.to/lastmile_qr_scan"}, "lon": -77.0801525, "type": "electric_scooter", "fusion_lat": 0.0, "lat": 38.946009, "name": "c4f303c3823b30987c7b66823b05de73", "fusion_lon": 0.0, "bike_id": "c4f303c3823b30987c7b66823b05de73", "is_disabled": 0, "is_reserved": 0}, {"rental_uris": {"ios": "https://dc.lft.to/lastmile_qr_scan", "android": "https://dc.lft.to/lastmile_qr_scan"}, "lon": -77.04041833333333, "type": "electric_scooter", "fusion_lat": 0.0, "lat": 38.92558983333333, "name": "805aed48e4c43e2c04444badce025b7b", "fusion_lon": 0.0, "bike_id": "805aed48e4c43e2c04444badce025b7b", "is_disabled": 0, "is_reserved": 0}, {"rental_uris": {"ios": "https://dc.lft.to/lastmile_qr_scan", "android": "https://dc.lft.to/lastmile_qr_scan"}, "lon": -77.12740516666666, "type": "electric_bike", "fusion_lat": 0.0, "lat": 38.88819216666667, "name": "f1735cce4f6a59ce2f9136a33ba67d07", "fusion_lon": 0.0, "bike_id": "f1735cce4f6a59ce2f9136a33ba67d07", "is_disabled": 0, "is_reserved": 0}, {"rental_uris": {"ios": "https://dc.lft.to/lastmile_qr_scan", "android": "https://dc.lft.to/lastmile_qr_scan"}, "lon": -77.03324166666667, "type": "electric_scooter", "fusion_lat": 0.0, "lat": 38.89634383333333, "name": "98f67e4b5cf5f35e42ccf7b23ab5fe6c", "fusion_lon": 0.0, "bike_id": "98f67e4b5cf5f35e42ccf7b23ab5fe6c", "is_disabled": 0, "is_reserved": 0}, {"rental_uris": {"ios": "https://dc.lft.to/lastmile_qr_scan", "android": "https://dc.lft.to/lastmile_qr_scan"}, "lon": -77.00894566666666, "type": "electric_scooter", "fusion_lat": 0.0, "lat": 38.91225283333333, "name": "3b4f001c83fc183bfbe984ecc426dd5a", "fusion_lon": 0.0, "bike_id": "3b4f001c83fc183bfbe984ecc426dd5a", "is_disabled": 0, "is_reserved": 0}, {"rental_uris": {"ios": "https://dc.lft.to/lastmile_qr_scan", "android": "https://dc.lft.to/lastmile_qr_scan"}, "lon": -77.02393766666667, "type": "electric_scooter", "fusion_lat": 0.0, "lat": 38.916677166666666, "name": "0c0facdca994de9b045eaacdff727c49", "fusion_lon": 0.0, "bike_id": "0c0facdca994de9b045eaacdff727c49", "is_disabled": 0, "is_reserved": 0}, {"rental_uris": {"ios": "https://dc.lft.to/lastmile_qr_scan", "android": "https://dc.lft.to/lastmile_qr_scan"}, "lon": -76.93173283333333, "type": "electric_scooter", "fusion_lat": 0.0, "lat": 38.8988585, "name": "c51067ba5ed4564fcb0b5a074e29538c", "fusion_lon": 0.0, "bike_id": "c51067ba5ed4564fcb0b5a074e29538c", "is_disabled": 0, "is_reserved": 0}, {"rental_uris": {"ios": "https://dc.lft.to/lastmile_qr_scan", "android": "https://dc.lft.to/lastmile_qr_scan"}, "lon": -76.927127, "type": "electric_scooter", "fusion_lat": 0.0, "lat": 38.88765733333334, "name": "6f7f47289c9b6a3ea70d8cdac17415ed", "fusion_lon": 0.0, "bike_id": "6f7f47289c9b6a3ea70d8cdac17415ed", "is_disabled": 0, "is_reserved": 0}, {"rental_uris": {"ios": "https://dc.lft.to/lastmile_qr_scan", "android": "https://dc.lft.to/lastmile_qr_scan"}, "lon": -77.0455315, "type": "electric_scooter", "fusion_lat": 0.0, "lat": 38.91262616666667, "name": "687f07b7947cd5bef29b1fc4bf0f9b07", "fusion_lon": 0.0, "bike_id": "687f07b7947cd5bef29b1fc4bf0f9b07", "is_disabled": 0, "is_reserved": 0}, {"rental_uris": {"ios": "https://dc.lft.to/lastmile_qr_scan", "android": "https://dc.lft.to/lastmile_qr_scan"}, "lon": -77.03244383333333, "type": "electric_scooter", "fusion_lat": 0.0, "lat": 38.92881366666667, "name": "549d03dc5609476b035816d9f1c7a758", "fusion_lon": 0.0, "bike_id": "549d03dc5609476b035816d9f1c7a758", "is_disabled": 0, "is_reserved": 0}, {"rental_uris": {"ios": "https://dc.lft.to/lastmile_qr_scan", "android": "https://dc.lft.to/lastmile_qr_scan"}, "lon": -77.04334466666667, "type": "electric_scooter", "fusion_lat": 0.0, "lat": 38.92795566666667, "name": "ca0984653d699faf628ee23c42407e28", "fusion_lon": 0.0, "bike_id": "ca0984653d699faf628ee23c42407e28", "is_disabled": 0, "is_reserved": 0}, {"rental_uris": {"ios": "https://dc.lft.to/lastmile_qr_scan", "android": "https://dc.lft.to/lastmile_qr_scan"}, "lon": -77.04172633333333, "type": "electric_scooter", "fusion_lat": 0.0, "lat": 38.918989333333336, "name": "ec95945765eb3a1a6bf79e3a73de6741", "fusion_lon": 0.0, "bike_id": "ec95945765eb3a1a6bf79e3a73de6741", "is_disabled": 0, "is_reserved": 0}, {"rental_uris": {"ios": "https://dc.lft.to/lastmile_qr_scan", "android": "https://dc.lft.to/lastmile_qr_scan"}, "lon": -77.03208583333333, "type": "electric_scooter", "fusion_lat": 0.0, "lat": 38.89401383333333, "name": "5c25b9dca611d2a438e19b3b315b2837", "fusion_lon": 0.0, "bike_id": "5c25b9dca611d2a438e19b3b315b2837", "is_disabled": 0, "is_reserved": 0}, {"rental_uris": {"ios": "https://dc.lft.to/lastmile_qr_scan", "android": "https://dc.lft.to/lastmile_qr_scan"}, "lon": -76.99503183333333, "type": "electric_scooter", "fusion_lat": 0.0, "lat": 38.88624083333333, "name": "1dc83283d5bc53bf5f05412a02000e66", "fusion_lon": 0.0, "bike_id": "1dc83283d5bc53bf5f05412a02000e66", "is_disabled": 0, "is_reserved": 0}, {"rental_uris": {"ios": "https://dc.lft.to/lastmile_qr_scan", "android": "https://dc.lft.to/lastmile_qr_scan"}, "lon": -76.95753716666667, "type": "electric_scooter", "fusion_lat": 0.0, "lat": 38.886836333333335, "name": "fe72028ab88fbfc906f75bd2b023a601", "fusion_lon": 0.0, "bike_id": "fe72028ab88fbfc906f75bd2b023a601", "is_disabled": 0, "is_reserved": 0}, {"rental_uris": {"ios": "https://dc.lft.to/lastmile_qr_scan", "android": "https://dc.lft.to/lastmile_qr_scan"}, "lon": -76.9968165, "type": "electric_scooter", "fusion_lat": 0.0, "lat": 38.88686166666667, "name": "80bbab7ca0848983c6607042ef851d9d", "fusion_lon": 0.0, "bike_id": "80bbab7ca0848983c6607042ef851d9d", "is_disabled": 0, "is_reserved": 0}, {"rental_uris": {"ios": "https://dc.lft.to/lastmile_qr_scan", "android": "https://dc.lft.to/lastmile_qr_scan"}, "lon": -76.9588185, "type": "electric_scooter", "fusion_lat": 0.0, "lat": 38.85846133333333, "name": "5fff1eb9034b76cd966f71a94afc2251", "fusion_lon": 0.0, "bike_id": "5fff1eb9034b76cd966f71a94afc2251", "is_disabled": 0, "is_reserved": 0}, {"rental_uris": {"ios": "https://dc.lft.to/lastmile_qr_scan", "android": "https://dc.lft.to/lastmile_qr_scan"}, "lon": -76.98022983333334, "type": "electric_scooter", "fusion_lat": 0.0, "lat": 38.90375483333333, "name": "4ddaca87254a51b92e9bdbb533eec350", "fusion_lon": 0.0, "bike_id": "4ddaca87254a51b92e9bdbb533eec350", "is_disabled": 0, "is_reserved": 0}, {"rental_uris": {"ios": "https://dc.lft.to/lastmile_qr_scan", "android": "https://dc.lft.to/lastmile_qr_scan"}, "lon": -76.9983965, "type": "electric_bike", "fusion_lat": 0.0, "lat": 38.839154, "name": "d80c3e2f690106cd8684d1ace46582b0", "fusion_lon": 0.0, "bike_id": "d80c3e2f690106cd8684d1ace46582b0", "is_disabled": 0, "is_reserved": 0}, {"rental_uris": {"ios": "https://dc.lft.to/lastmile_qr_scan", "android": "https://dc.lft.to/lastmile_qr_scan"}, "lon": -77.06543716666667, "type": "electric_scooter", "fusion_lat": 0.0, "lat": 38.9048005, "name": "77cc5a8bd79e3f63675c9369023c858e", "fusion_lon": 0.0, "bike_id": "77cc5a8bd79e3f63675c9369023c858e", "is_disabled": 0, "is_reserved": 0}, {"rental_uris": {"ios": "https://dc.lft.to/lastmile_qr_scan", "android": "https://dc.lft.to/lastmile_qr_scan"}, "lon": -77.0093115, "type": "electric_scooter", "fusion_lat": 0.0, "lat": 38.8719715, "name": "10f6a0bacda8eedb4f9032e312dd3590", "fusion_lon": 0.0, "bike_id": "10f6a0bacda8eedb4f9032e312dd3590", "is_disabled": 0, "is_reserved": 0}, {"rental_uris": {"ios": "https://dc.lft.to/lastmile_qr_scan", "android": "https://dc.lft.to/lastmile_qr_scan"}, "lon": -77.040575, "type": "electric_scooter", "fusion_lat": 0.0, "lat": 38.92643983333333, "name": "0e48d0a2b84150f1a87cda99fbc58a21", "fusion_lon": 0.0, "bike_id": "0e48d0a2b84150f1a87cda99fbc58a21", "is_disabled": 0, "is_reserved": 0}, {"rental_uris": {"ios": "https://dc.lft.to/lastmile_qr_scan", "android": "https://dc.lft.to/lastmile_qr_scan"}, "lon": -77.06888816666667, "type": "electric_scooter", "fusion_lat": 0.0, "lat": 38.94032, "name": "9a6e7cf14cd0685d964a8ccf4ecccdc2", "fusion_lon": 0.0, "bike_id": "9a6e7cf14cd0685d964a8ccf4ecccdc2", "is_disabled": 0, "is_reserved": 0}, {"rental_uris": {"ios": "https://dc.lft.to/lastmile_qr_scan", "android": "https://dc.lft.to/lastmile_qr_scan"}, "lon": -77.07046716666666, "type": "electric_bike", "fusion_lat": 0.0, "lat": 38.82443716666667, "name": "34887300d2eeacad6cc59ea701f4bfe8", "fusion_lon": 0.0, "bike_id": "34887300d2eeacad6cc59ea701f4bfe8", "is_disabled": 0, "is_reserved": 0}, {"rental_uris": {"ios": "https://dc.lft.to/lastmile_qr_scan", "android": "https://dc.lft.to/lastmile_qr_scan"}, "lon": -77.03968616666667, "type": "electric_scooter", "fusion_lat": 0.0, "lat": 38.90256766666667, "name": "fad232e5bf47b1779a9e67045275b8e2", "fusion_lon": 0.0, "bike_id": "fad232e5bf47b1779a9e67045275b8e2", "is_disabled": 0, "is_reserved": 0}, {"rental_uris": {"ios": "https://dc.lft.to/lastmile_qr_scan", "android": "https://dc.lft.to/lastmile_qr_scan"}, "lon": -77.02242466666667, "type": "electric_scooter", "fusion_lat": 0.0, "lat": 38.916449166666666, "name": "4b8e795eb748102ba1cb462874feb3d5", "fusion_lon": 0.0, "bike_id": "4b8e795eb748102ba1cb462874feb3d5", "is_disabled": 0, "is_reserved": 0}, {"rental_uris": {"ios": "https://dc.lft.to/lastmile_qr_scan", "android": "https://dc.lft.to/lastmile_qr_scan"}, "lon": -77.04384833333333, "type": "electric_scooter", "fusion_lat": 0.0, "lat": 38.92068116666667, "name": "c00691b531c359855fdae4edf656b745", "fusion_lon": 0.0, "bike_id": "c00691b531c359855fdae4edf656b745", "is_disabled": 0, "is_reserved": 0}, {"rental_uris": {"ios": "https://dc.lft.to/lastmile_qr_scan", "android": "https://dc.lft.to/lastmile_qr_scan"}, "lon": -77.04129833333333, "type": "electric_scooter", "fusion_lat": 0.0, "lat": 38.922045, "name": "d05d919f067f2527ed7021da936e9173", "fusion_lon": 0.0, "bike_id": "d05d919f067f2527ed7021da936e9173", "is_disabled": 0, "is_reserved": 0}, {"rental_uris": {"ios": "https://dc.lft.to/lastmile_qr_scan", "android": "https://dc.lft.to/lastmile_qr_scan"}, "lon": -77.06361316666667, "type": "electric_scooter", "fusion_lat": 0.0, "lat": 38.909357166666666, "name": "bcfcede9a1cf694991c1e446aa3c8861", "fusion_lon": 0.0, "bike_id": "bcfcede9a1cf694991c1e446aa3c8861", "is_disabled": 0, "is_reserved": 0}, {"rental_uris": {"ios": "https://dc.lft.to/lastmile_qr_scan", "android": "https://dc.lft.to/lastmile_qr_scan"}, "lon": -77.02386083333333, "type": "electric_bike", "fusion_lat": 0.0, "lat": 38.994288166666664, "name": "e0173274c69297d0400e66aaeb40b7f0", "fusion_lon": 0.0, "bike_id": "e0173274c69297d0400e66aaeb40b7f0", "is_disabled": 0, "is_reserved": 0}, {"rental_uris": {"ios": "https://dc.lft.to/lastmile_qr_scan", "android": "https://dc.lft.to/lastmile_qr_scan"}, "lon": -76.999464, "type": "electric_scooter", "fusion_lat": 0.0, "lat": 38.84290166666667, "name": "692195b4823053616a610df3c01ad71a", "fusion_lon": 0.0, "bike_id": "692195b4823053616a610df3c01ad71a", "is_disabled": 0, "is_reserved": 0}, {"rental_uris": {"ios": "https://dc.lft.to/lastmile_qr_scan", "android": "https://dc.lft.to/lastmile_qr_scan"}, "lon": -77.0119555, "type": "electric_scooter", "fusion_lat": 0.0, "lat": 38.91546066666667, "name": "aac9378f7850268a5989b6ca241cda09", "fusion_lon": 0.0, "bike_id": "aac9378f7850268a5989b6ca241cda09", "is_disabled": 0, "is_reserved": 0}, {"rental_uris": {"ios": "https://dc.lft.to/lastmile_qr_scan", "android": "https://dc.lft.to/lastmile_qr_scan"}, "lon": -76.91598016666667, "type": "electric_bike", "fusion_lat": 0.0, "lat": 38.87978483333333, "name": "ad3d30eac0b71f33eb74e26e5922157d", "fusion_lon": 0.0, "bike_id": "ad3d30eac0b71f33eb74e26e5922157d", "is_disabled": 0, "is_reserved": 0}, {"rental_uris": {"ios": "https://dc.lft.to/lastmile_qr_scan", "android": "https://dc.lft.to/lastmile_qr_scan"}, "lon": -76.94631866666667, "type": "electric_scooter", "fusion_lat": 0.0, "lat": 38.8983225, "name": "6bf1a2ff70d5d8c4dcd89f708ba1f870", "fusion_lon": 0.0, "bike_id": "6bf1a2ff70d5d8c4dcd89f708ba1f870", "is_disabled": 0, "is_reserved": 0}, {"rental_uris": {"ios": "https://dc.lft.to/lastmile_qr_scan", "android": "https://dc.lft.to/lastmile_qr_scan"}, "lon": -77.031796, "type": "electric_scooter", "fusion_lat": 0.0, "lat": 38.913275, "name": "5ae7e2a4bdec80a0a82ad2d2617021b4", "fusion_lon": 0.0, "bike_id": "5ae7e2a4bdec80a0a82ad2d2617021b4", "is_disabled": 0, "is_reserved": 0}, {"rental_uris": {"ios": "https://dc.lft.to/lastmile_qr_scan", "android": "https://dc.lft.to/lastmile_qr_scan"}, "lon": -77.01222066666666, "type": "electric_scooter", "fusion_lat": 0.0, "lat": 38.91713566666667, "name": "3079ac29810a8879154c77ca3e276814", "fusion_lon": 0.0, "bike_id": "3079ac29810a8879154c77ca3e276814", "is_disabled": 0, "is_reserved": 0}, {"rental_uris": {"ios": "https://dc.lft.to/lastmile_qr_scan", "android": "https://dc.lft.to/lastmile_qr_scan"}, "lon": -76.97934516666666, "type": "electric_scooter", "fusion_lat": 0.0, "lat": 38.90672216666667, "name": "7f16fb00294aeab6ec0b4935b857b21d", "fusion_lon": 0.0, "bike_id": "7f16fb00294aeab6ec0b4935b857b21d", "is_disabled": 0, "is_reserved": 0}, {"rental_uris": {"ios": "https://dc.lft.to/lastmile_qr_scan", "android": "https://dc.lft.to/lastmile_qr_scan"}, "lon": -77.10455266666666, "type": "electric_bike", "fusion_lat": 0.0, "lat": 38.8963885, "name": "dbd98e4ad89dc40a291fe259156acafd", "fusion_lon": 0.0, "bike_id": "dbd98e4ad89dc40a291fe259156acafd", "is_disabled": 0, "is_reserved": 0}, {"rental_uris": {"ios": "https://dc.lft.to/lastmile_qr_scan", "android": "https://dc.lft.to/lastmile_qr_scan"}, "lon": -77.02379966666666, "type": "electric_scooter", "fusion_lat": 0.0, "lat": 38.93226966666667, "name": "6fed6450a506a248513337769eb259c5", "fusion_lon": 0.0, "bike_id": "6fed6450a506a248513337769eb259c5", "is_disabled": 0, "is_reserved": 0}, {"rental_uris": {"ios": "https://dc.lft.to/lastmile_qr_scan", "android": "https://dc.lft.to/lastmile_qr_scan"}, "lon": -77.04544133333333, "type": "electric_scooter", "fusion_lat": 0.0, "lat": 38.934005666666664, "name": "081b30ea452c8f0067f1f9d7d45c9ec7", "fusion_lon": 0.0, "bike_id": "081b30ea452c8f0067f1f9d7d45c9ec7", "is_disabled": 0, "is_reserved": 0}, {"rental_uris": {"ios": "https://dc.lft.to/lastmile_qr_scan", "android": "https://dc.lft.to/lastmile_qr_scan"}, "lon": -77.02590616666667, "type": "electric_scooter", "fusion_lat": 0.0, "lat": 38.92993233333333, "name": "a34e35cc751343d7d83870569b53583d", "fusion_lon": 0.0, "bike_id": "a34e35cc751343d7d83870569b53583d", "is_disabled": 0, "is_reserved": 0}, {"rental_uris": {"ios": "https://dc.lft.to/lastmile_qr_scan", "android": "https://dc.lft.to/lastmile_qr_scan"}, "lon": -76.98905333333333, "type": "electric_scooter", "fusion_lat": 0.0, "lat": 38.900097, "name": "496325efb5052c9e856b1ac21401d028", "fusion_lon": 0.0, "bike_id": "496325efb5052c9e856b1ac21401d028", "is_disabled": 0, "is_reserved": 0}, {"rental_uris": {"ios": "https://dc.lft.to/lastmile_qr_scan", "android": "https://dc.lft.to/lastmile_qr_scan"}, "lon": -77.0137605, "type": "electric_scooter", "fusion_lat": 0.0, "lat": 38.899149666666666, "name": "739fcbf51728c25cc26c06b5574538b6", "fusion_lon": 0.0, "bike_id": "739fcbf51728c25cc26c06b5574538b6", "is_disabled": 0, "is_reserved": 0}, {"rental_uris": {"ios": "https://dc.lft.to/lastmile_qr_scan", "android": "https://dc.lft.to/lastmile_qr_scan"}, "lon": -77.02134, "type": "electric_scooter", "fusion_lat": 0.0, "lat": 38.91272416666666, "name": "d791ccc287ce22d07b852e1d0f0a3a10", "fusion_lon": 0.0, "bike_id": "d791ccc287ce22d07b852e1d0f0a3a10", "is_disabled": 0, "is_reserved": 0}, {"rental_uris": {"ios": "https://dc.lft.to/lastmile_qr_scan", "android": "https://dc.lft.to/lastmile_qr_scan"}, "lon": -77.0270845, "type": "electric_scooter", "fusion_lat": 0.0, "lat": 38.94996583333333, "name": "fbdc3f19db0ea304ef24f8e0c4a9fdbd", "fusion_lon": 0.0, "bike_id": "fbdc3f19db0ea304ef24f8e0c4a9fdbd", "is_disabled": 0, "is_reserved": 0}, {"rental_uris": {"ios": "https://dc.lft.to/lastmile_qr_scan", "android": "https://dc.lft.to/lastmile_qr_scan"}, "lon": -77.03014466666667, "type": "electric_scooter", "fusion_lat": 0.0, "lat": 38.8973855, "name": "ece32c7cf42792c0afe81985ad2f67c5", "fusion_lon": 0.0, "bike_id": "ece32c7cf42792c0afe81985ad2f67c5", "is_disabled": 0, "is_reserved": 0}, {"rental_uris": {"ios": "https://dc.lft.to/lastmile_qr_scan", "android": "https://dc.lft.to/lastmile_qr_scan"}, "lon": -76.93822533333334, "type": "electric_scooter", "fusion_lat": 0.0, "lat": 38.897535833333336, "name": "c4632ec5cb5c4bc092be21fa54ba3fae", "fusion_lon": 0.0, "bike_id": "c4632ec5cb5c4bc092be21fa54ba3fae", "is_disabled": 0, "is_reserved": 0}, {"rental_uris": {"ios": "https://dc.lft.to/lastmile_qr_scan", "android": "https://dc.lft.to/lastmile_qr_scan"}, "lon": -77.0042625, "type": "electric_scooter", "fusion_lat": 0.0, "lat": 38.903917166666666, "name": "07c1d67e74d514be8e790129d30f98be", "fusion_lon": 0.0, "bike_id": "07c1d67e74d514be8e790129d30f98be", "is_disabled": 0, "is_reserved": 0}, {"rental_uris": {"ios": "https://dc.lft.to/lastmile_qr_scan", "android": "https://dc.lft.to/lastmile_qr_scan"}, "lon": -77.03205716666666, "type": "electric_scooter", "fusion_lat": 0.0, "lat": 38.914249166666664, "name": "d198324466875ce7a8a291f5995f8a71", "fusion_lon": 0.0, "bike_id": "d198324466875ce7a8a291f5995f8a71", "is_disabled": 0, "is_reserved": 0}, {"rental_uris": {"ios": "https://dc.lft.to/lastmile_qr_scan", "android": "https://dc.lft.to/lastmile_qr_scan"}, "lon": -77.03508716666667, "type": "electric_scooter", "fusion_lat": 0.0, "lat": 38.92146283333334, "name": "e3466e147a86aa94832b1059ddf4bdf5", "fusion_lon": 0.0, "bike_id": "e3466e147a86aa94832b1059ddf4bdf5", "is_disabled": 0, "is_reserved": 0}, {"rental_uris": {"ios": "https://dc.lft.to/lastmile_qr_scan", "android": "https://dc.lft.to/lastmile_qr_scan"}, "lon": -77.00115566666666, "type": "electric_scooter", "fusion_lat": 0.0, "lat": 38.894352166666664, "name": "24a157463c82db5e24e0668c22784df1", "fusion_lon": 0.0, "bike_id": "24a157463c82db5e24e0668c22784df1", "is_disabled": 0, "is_reserved": 0}, {"rental_uris": {"ios": "https://dc.lft.to/lastmile_qr_scan", "android": "https://dc.lft.to/lastmile_qr_scan"}, "lon": -77.04416783333333, "type": "electric_scooter", "fusion_lat": 0.0, "lat": 38.9213235, "name": "a29b8e4b407b863798db075972951289", "fusion_lon": 0.0, "bike_id": "a29b8e4b407b863798db075972951289", "is_disabled": 0, "is_reserved": 0}, {"rental_uris": {"ios": "https://dc.lft.to/lastmile_qr_scan", "android": "https://dc.lft.to/lastmile_qr_scan"}, "lon": -77.05788483333333, "type": "electric_scooter", "fusion_lat": 0.0, "lat": 38.905103833333335, "name": "9b56ac1648e9df51c1da7080da8c8f18", "fusion_lon": 0.0, "bike_id": "9b56ac1648e9df51c1da7080da8c8f18", "is_disabled": 0, "is_reserved": 0}, {"rental_uris": {"ios": "https://dc.lft.to/lastmile_qr_scan", "android": "https://dc.lft.to/lastmile_qr_scan"}, "lon": -77.02961383333333, "type": "electric_scooter", "fusion_lat": 0.0, "lat": 38.904641166666664, "name": "fdf71d5ef7e475552b03225bd7c9454f", "fusion_lon": 0.0, "bike_id": "fdf71d5ef7e475552b03225bd7c9454f", "is_disabled": 0, "is_reserved": 0}, {"rental_uris": {"ios": "https://dc.lft.to/lastmile_qr_scan", "android": "https://dc.lft.to/lastmile_qr_scan"}, "lon": -76.96505883333333, "type": "electric_scooter", "fusion_lat": 0.0, "lat": 38.8764535, "name": "fd5b6c37cc1976c6e89ba3691212c820", "fusion_lon": 0.0, "bike_id": "fd5b6c37cc1976c6e89ba3691212c820", "is_disabled": 0, "is_reserved": 0}, {"rental_uris": {"ios": "https://dc.lft.to/lastmile_qr_scan", "android": "https://dc.lft.to/lastmile_qr_scan"}, "lon": -77.02381333333334, "type": "electric_scooter", "fusion_lat": 0.0, "lat": 38.9320155, "name": "6e309e173fc248f4ad5ef8614a2b1d6d", "fusion_lon": 0.0, "bike_id": "6e309e173fc248f4ad5ef8614a2b1d6d", "is_disabled": 0, "is_reserved": 0}, {"rental_uris": {"ios": "https://dc.lft.to/lastmile_qr_scan", "android": "https://dc.lft.to/lastmile_qr_scan"}, "lon": -77.0279465, "type": "electric_scooter", "fusion_lat": 0.0, "lat": 38.92469233333333, "name": "416da884397f246847115581f631b1d3", "fusion_lon": 0.0, "bike_id": "416da884397f246847115581f631b1d3", "is_disabled": 0, "is_reserved": 0}, {"rental_uris": {"ios": "https://dc.lft.to/lastmile_qr_scan", "android": "https://dc.lft.to/lastmile_qr_scan"}, "lon": -77.0217975, "type": "electric_scooter", "fusion_lat": 0.0, "lat": 38.88411333333333, "name": "1daaac4133b3b27fb20b0542e3552dd4", "fusion_lon": 0.0, "bike_id": "1daaac4133b3b27fb20b0542e3552dd4", "is_disabled": 0, "is_reserved": 0}, {"rental_uris": {"ios": "https://dc.lft.to/lastmile_qr_scan", "android": "https://dc.lft.to/lastmile_qr_scan"}, "lon": -77.02343583333334, "type": "electric_scooter", "fusion_lat": 0.0, "lat": 38.9155845, "name": "c366d28acdb035ede2da90b04f9ebb25", "fusion_lon": 0.0, "bike_id": "c366d28acdb035ede2da90b04f9ebb25", "is_disabled": 0, "is_reserved": 0}, {"rental_uris": {"ios": "https://dc.lft.to/lastmile_qr_scan", "android": "https://dc.lft.to/lastmile_qr_scan"}, "lon": -77.00252366666666, "type": "electric_scooter", "fusion_lat": 0.0, "lat": 38.919222, "name": "8c95e3b7903041795cf0a837ae9cf520", "fusion_lon": 0.0, "bike_id": "8c95e3b7903041795cf0a837ae9cf520", "is_disabled": 0, "is_reserved": 0}, {"rental_uris": {"ios": "https://dc.lft.to/lastmile_qr_scan", "android": "https://dc.lft.to/lastmile_qr_scan"}, "lon": -77.007621, "type": "electric_scooter", "fusion_lat": 0.0, "lat": 38.871101333333336, "name": "ae95fe4182254992ea120648ef4f974e", "fusion_lon": 0.0, "bike_id": "ae95fe4182254992ea120648ef4f974e", "is_disabled": 0, "is_reserved": 0}, {"rental_uris": {"ios": "https://dc.lft.to/lastmile_qr_scan", "android": "https://dc.lft.to/lastmile_qr_scan"}, "lon": -76.94633116666667, "type": "electric_scooter", "fusion_lat": 0.0, "lat": 38.89837633333333, "name": "ad43eb2831fe7eccea2453d378bc539e", "fusion_lon": 0.0, "bike_id": "ad43eb2831fe7eccea2453d378bc539e", "is_disabled": 0, "is_reserved": 0}, {"rental_uris": {"ios": "https://dc.lft.to/lastmile_qr_scan", "android": "https://dc.lft.to/lastmile_qr_scan"}, "lon": -77.03227066666666, "type": "electric_scooter", "fusion_lat": 0.0, "lat": 38.91402033333333, "name": "48ee33ede4021c00d019615f142735cc", "fusion_lon": 0.0, "bike_id": "48ee33ede4021c00d019615f142735cc", "is_disabled": 0, "is_reserved": 0}, {"rental_uris": {"ios": "https://dc.lft.to/lastmile_qr_scan", "android": "https://dc.lft.to/lastmile_qr_scan"}, "lon": -77.03214516666667, "type": "electric_scooter", "fusion_lat": 0.0, "lat": 38.916911999999996, "name": "6fe3b7b3fa04259bfbaa606e4bcf0349", "fusion_lon": 0.0, "bike_id": "6fe3b7b3fa04259bfbaa606e4bcf0349", "is_disabled": 0, "is_reserved": 0}, {"rental_uris": {"ios": "https://dc.lft.to/lastmile_qr_scan", "android": "https://dc.lft.to/lastmile_qr_scan"}, "lon": -76.983542, "type": "electric_scooter", "fusion_lat": 0.0, "lat": 38.915213333333334, "name": "3b53be4a289d2aeae295eaa106d8fd22", "fusion_lon": 0.0, "bike_id": "3b53be4a289d2aeae295eaa106d8fd22", "is_disabled": 0, "is_reserved": 0}, {"rental_uris": {"ios": "https://dc.lft.to/lastmile_qr_scan", "android": "https://dc.lft.to/lastmile_qr_scan"}, "lon": -77.03219333333334, "type": "electric_scooter", "fusion_lat": 0.0, "lat": 38.9119255, "name": "9103bc5f2d7f705ff0dd4add5e036f3c", "fusion_lon": 0.0, "bike_id": "9103bc5f2d7f705ff0dd4add5e036f3c", "is_disabled": 0, "is_reserved": 0}, {"rental_uris": {"ios": "https://dc.lft.to/lastmile_qr_scan", "android": "https://dc.lft.to/lastmile_qr_scan"}, "lon": -76.99035416666666, "type": "electric_scooter", "fusion_lat": 0.0, "lat": 38.858706166666664, "name": "b7c874ec6e9eab2f525dbf98673c2910", "fusion_lon": 0.0, "bike_id": "b7c874ec6e9eab2f525dbf98673c2910", "is_disabled": 0, "is_reserved": 0}, {"rental_uris": {"ios": "https://dc.lft.to/lastmile_qr_scan", "android": "https://dc.lft.to/lastmile_qr_scan"}, "lon": -77.00913883333334, "type": "electric_scooter", "fusion_lat": 0.0, "lat": 38.912394, "name": "6fb5d950833211080119772586a1d49e", "fusion_lon": 0.0, "bike_id": "6fb5d950833211080119772586a1d49e", "is_disabled": 0, "is_reserved": 0}, {"rental_uris": {"ios": "https://dc.lft.to/lastmile_qr_scan", "android": "https://dc.lft.to/lastmile_qr_scan"}, "lon": -76.97610683333333, "type": "electric_bike", "fusion_lat": 0.0, "lat": 38.91309, "name": "230cb018ed182397100d1b0b434e8e85", "fusion_lon": 0.0, "bike_id": "230cb018ed182397100d1b0b434e8e85", "is_disabled": 0, "is_reserved": 0}, {"rental_uris": {"ios": "https://dc.lft.to/lastmile_qr_scan", "android": "https://dc.lft.to/lastmile_qr_scan"}, "lon": -77.043838, "type": "electric_scooter", "fusion_lat": 0.0, "lat": 38.92278866666667, "name": "d21b811f606cff50f1df8f1e8672b14b", "fusion_lon": 0.0, "bike_id": "d21b811f606cff50f1df8f1e8672b14b", "is_disabled": 0, "is_reserved": 0}, {"rental_uris": {"ios": "https://dc.lft.to/lastmile_qr_scan", "android": "https://dc.lft.to/lastmile_qr_scan"}, "lon": -77.0668995, "type": "electric_scooter", "fusion_lat": 0.0, "lat": 38.9096475, "name": "31e59baef4a90c27ec1df207ba2196c7", "fusion_lon": 0.0, "bike_id": "31e59baef4a90c27ec1df207ba2196c7", "is_disabled": 0, "is_reserved": 0}, {"rental_uris": {"ios": "https://dc.lft.to/lastmile_qr_scan", "android": "https://dc.lft.to/lastmile_qr_scan"}, "lon": -77.0935265, "type": "electric_bike", "fusion_lat": 0.0, "lat": 38.806506, "name": "a25e6d3fb59926110393c08d10fab04e", "fusion_lon": 0.0, "bike_id": "a25e6d3fb59926110393c08d10fab04e", "is_disabled": 0, "is_reserved": 0}, {"rental_uris": {"ios": "https://dc.lft.to/lastmile_qr_scan", "android": "https://dc.lft.to/lastmile_qr_scan"}, "lon": -77.082003, "type": "electric_bike", "fusion_lat": 0.0, "lat": 38.922053, "name": "54e203dbc09c7373604d586165c74ac7", "fusion_lon": 0.0, "bike_id": "54e203dbc09c7373604d586165c74ac7", "is_disabled": 0, "is_reserved": 0}, {"rental_uris": {"ios": "https://dc.lft.to/lastmile_qr_scan", "android": "https://dc.lft.to/lastmile_qr_scan"}, "lon": -76.9814945, "type": "electric_scooter", "fusion_lat": 0.0, "lat": 38.87695016666667, "name": "28271dfedbfe5ded093bd1d43a4e288a", "fusion_lon": 0.0, "bike_id": "28271dfedbfe5ded093bd1d43a4e288a", "is_disabled": 0, "is_reserved": 0}, {"rental_uris": {"ios": "https://dc.lft.to/lastmile_qr_scan", "android": "https://dc.lft.to/lastmile_qr_scan"}, "lon": -77.04716533333334, "type": "electric_scooter", "fusion_lat": 0.0, "lat": 38.90851583333333, "name": "3771f5473bfb598f672fd4b0adeeb180", "fusion_lon": 0.0, "bike_id": "3771f5473bfb598f672fd4b0adeeb180", "is_disabled": 0, "is_reserved": 0}, {"rental_uris": {"ios": "https://dc.lft.to/lastmile_qr_scan", "android": "https://dc.lft.to/lastmile_qr_scan"}, "lon": -77.00266433333333, "type": "electric_bike", "fusion_lat": 0.0, "lat": 38.91174016666667, "name": "c55aa85ea998694d576be3480f5a07de", "fusion_lon": 0.0, "bike_id": "c55aa85ea998694d576be3480f5a07de", "is_disabled": 0, "is_reserved": 0}, {"rental_uris": {"ios": "https://dc.lft.to/lastmile_qr_scan", "android": "https://dc.lft.to/lastmile_qr_scan"}, "lon": -77.031196, "type": "electric_scooter", "fusion_lat": 0.0, "lat": 38.91703116666667, "name": "60acc1a923d5ef6203dd76486e8db54b", "fusion_lon": 0.0, "bike_id": "60acc1a923d5ef6203dd76486e8db54b", "is_disabled": 0, "is_reserved": 0}, {"rental_uris": {"ios": "https://dc.lft.to/lastmile_qr_scan", "android": "https://dc.lft.to/lastmile_qr_scan"}, "lon": -77.038475, "type": "electric_scooter", "fusion_lat": 0.0, "lat": 38.9112635, "name": "c3129dbae29e1a336bda82fe479a8652", "fusion_lon": 0.0, "bike_id": "c3129dbae29e1a336bda82fe479a8652", "is_disabled": 0, "is_reserved": 0}, {"rental_uris": {"ios": "https://dc.lft.to/lastmile_qr_scan", "android": "https://dc.lft.to/lastmile_qr_scan"}, "lon": -77.04610183333334, "type": "electric_scooter", "fusion_lat": 0.0, "lat": 38.90261266666667, "name": "94016b07bee2978193bd35f2e79df9ef", "fusion_lon": 0.0, "bike_id": "94016b07bee2978193bd35f2e79df9ef", "is_disabled": 0, "is_reserved": 0}, {"rental_uris": {"ios": "https://dc.lft.to/lastmile_qr_scan", "android": "https://dc.lft.to/lastmile_qr_scan"}, "lon": -77.00104716666667, "type": "electric_scooter", "fusion_lat": 0.0, "lat": 38.8943125, "name": "cccd8bdf615a0f3823ca2384187c4955", "fusion_lon": 0.0, "bike_id": "cccd8bdf615a0f3823ca2384187c4955", "is_disabled": 0, "is_reserved": 0}, {"rental_uris": {"ios": "https://dc.lft.to/lastmile_qr_scan", "android": "https://dc.lft.to/lastmile_qr_scan"}, "lon": -77.0660445, "type": "electric_scooter", "fusion_lat": 0.0, "lat": 38.90538, "name": "60e8d7b37c21c47ffb6c65db5e15ee0c", "fusion_lon": 0.0, "bike_id": "60e8d7b37c21c47ffb6c65db5e15ee0c", "is_disabled": 0, "is_reserved": 0}, {"rental_uris": {"ios": "https://dc.lft.to/lastmile_qr_scan", "android": "https://dc.lft.to/lastmile_qr_scan"}, "lon": -77.02205983333333, "type": "electric_scooter", "fusion_lat": 0.0, "lat": 38.91478583333333, "name": "d2e872431a2563830ed6b5f079f1aa5d", "fusion_lon": 0.0, "bike_id": "d2e872431a2563830ed6b5f079f1aa5d", "is_disabled": 0, "is_reserved": 0}, {"rental_uris": {"ios": "https://dc.lft.to/lastmile_qr_scan", "android": "https://dc.lft.to/lastmile_qr_scan"}, "lon": -77.02927983333333, "type": "electric_scooter", "fusion_lat": 0.0, "lat": 38.8821935, "name": "1242c5c4e97edfc2910c9ba55dbac58c", "fusion_lon": 0.0, "bike_id": "1242c5c4e97edfc2910c9ba55dbac58c", "is_disabled": 0, "is_reserved": 0}, {"rental_uris": {"ios": "https://dc.lft.to/lastmile_qr_scan", "android": "https://dc.lft.to/lastmile_qr_scan"}, "lon": -77.01868083333333, "type": "electric_scooter", "fusion_lat": 0.0, "lat": 38.948917, "name": "20fd55c85f6e18e8f46cfffa34ba5d09", "fusion_lon": 0.0, "bike_id": "20fd55c85f6e18e8f46cfffa34ba5d09", "is_disabled": 0, "is_reserved": 0}, {"rental_uris": {"ios": "https://dc.lft.to/lastmile_qr_scan", "android": "https://dc.lft.to/lastmile_qr_scan"}, "lon": -76.96525316666667, "type": "electric_scooter", "fusion_lat": 0.0, "lat": 38.876254833333334, "name": "1bd7a4e480eb70d63cd7a246c0804cc6", "fusion_lon": 0.0, "bike_id": "1bd7a4e480eb70d63cd7a246c0804cc6", "is_disabled": 0, "is_reserved": 0}, {"rental_uris": {"ios": "https://dc.lft.to/lastmile_qr_scan", "android": "https://dc.lft.to/lastmile_qr_scan"}, "lon": -77.04776933333333, "type": "electric_scooter", "fusion_lat": 0.0, "lat": 38.8976635, "name": "a4313d35eb0b276354291ebec11a9142", "fusion_lon": 0.0, "bike_id": "a4313d35eb0b276354291ebec11a9142", "is_disabled": 0, "is_reserved": 0}, {"rental_uris": {"ios": "https://dc.lft.to/lastmile_qr_scan", "android": "https://dc.lft.to/lastmile_qr_scan"}, "lon": -76.99742433333333, "type": "electric_scooter", "fusion_lat": 0.0, "lat": 38.909333833333335, "name": "cd809904818a772b94028a6dff3529e4", "fusion_lon": 0.0, "bike_id": "cd809904818a772b94028a6dff3529e4", "is_disabled": 0, "is_reserved": 0}, {"rental_uris": {"ios": "https://dc.lft.to/lastmile_qr_scan", "android": "https://dc.lft.to/lastmile_qr_scan"}, "lon": -77.0437725, "type": "electric_scooter", "fusion_lat": 0.0, "lat": 38.920646833333336, "name": "5bf41bb9719703287ffa9d4229447b35", "fusion_lon": 0.0, "bike_id": "5bf41bb9719703287ffa9d4229447b35", "is_disabled": 0, "is_reserved": 0}, {"rental_uris": {"ios": "https://dc.lft.to/lastmile_qr_scan", "android": "https://dc.lft.to/lastmile_qr_scan"}, "lon": -77.04157216666667, "type": "electric_scooter", "fusion_lat": 0.0, "lat": 38.90992416666667, "name": "d629c788f18318513229790c656eb406", "fusion_lon": 0.0, "bike_id": "d629c788f18318513229790c656eb406", "is_disabled": 0, "is_reserved": 0}, {"rental_uris": {"ios": "https://dc.lft.to/lastmile_qr_scan", "android": "https://dc.lft.to/lastmile_qr_scan"}, "lon": -77.03207983333333, "type": "electric_scooter", "fusion_lat": 0.0, "lat": 38.91497833333333, "name": "7d6542e772d76a3292a57d9ff22d1787", "fusion_lon": 0.0, "bike_id": "7d6542e772d76a3292a57d9ff22d1787", "is_disabled": 0, "is_reserved": 0}, {"rental_uris": {"ios": "https://dc.lft.to/lastmile_qr_scan", "android": "https://dc.lft.to/lastmile_qr_scan"}, "lon": -76.99168283333333, "type": "electric_scooter", "fusion_lat": 0.0, "lat": 38.87920183333333, "name": "944d7fcd71bb35720a8edd26e8a132d7", "fusion_lon": 0.0, "bike_id": "944d7fcd71bb35720a8edd26e8a132d7", "is_disabled": 0, "is_reserved": 0}, {"rental_uris": {"ios": "https://dc.lft.to/lastmile_qr_scan", "android": "https://dc.lft.to/lastmile_qr_scan"}, "lon": -77.048056, "type": "electric_scooter", "fusion_lat": 0.0, "lat": 38.892210166666665, "name": "83022a1e8e0f31f8099b006bfd91c450", "fusion_lon": 0.0, "bike_id": "83022a1e8e0f31f8099b006bfd91c450", "is_disabled": 0, "is_reserved": 0}, {"rental_uris": {"ios": "https://dc.lft.to/lastmile_qr_scan", "android": "https://dc.lft.to/lastmile_qr_scan"}, "lon": -77.04626133333333, "type": "electric_bike", "fusion_lat": 0.0, "lat": 38.99904033333333, "name": "e222276d74c1aa2b4be5e2b66fc22be4", "fusion_lon": 0.0, "bike_id": "e222276d74c1aa2b4be5e2b66fc22be4", "is_disabled": 0, "is_reserved": 0}, {"rental_uris": {"ios": "https://dc.lft.to/lastmile_qr_scan", "android": "https://dc.lft.to/lastmile_qr_scan"}, "lon": -77.06475766666667, "type": "electric_bike", "fusion_lat": 0.0, "lat": 38.973799666666665, "name": "550c92405e3109413d7537727bc5c247", "fusion_lon": 0.0, "bike_id": "550c92405e3109413d7537727bc5c247", "is_disabled": 0, "is_reserved": 0}, {"rental_uris": {"ios": "https://dc.lft.to/lastmile_qr_scan", "android": "https://dc.lft.to/lastmile_qr_scan"}, "lon": -77.032716, "type": "electric_scooter", "fusion_lat": 0.0, "lat": 38.92841583333333, "name": "f4e1d598a99f57c507652827c534d8c2", "fusion_lon": 0.0, "bike_id": "f4e1d598a99f57c507652827c534d8c2", "is_disabled": 0, "is_reserved": 0}, {"rental_uris": {"ios": "https://dc.lft.to/lastmile_qr_scan", "android": "https://dc.lft.to/lastmile_qr_scan"}, "lon": -77.03381666666667, "type": "electric_scooter", "fusion_lat": 0.0, "lat": 38.91026183333334, "name": "c8c1d0707ccaf77d9ee9e0df9ac9cdf7", "fusion_lon": 0.0, "bike_id": "c8c1d0707ccaf77d9ee9e0df9ac9cdf7", "is_disabled": 0, "is_reserved": 0}, {"rental_uris": {"ios": "https://dc.lft.to/lastmile_qr_scan", "android": "https://dc.lft.to/lastmile_qr_scan"}, "lon": -77.02388233333333, "type": "electric_scooter", "fusion_lat": 0.0, "lat": 38.93371066666667, "name": "aaf2226766b1cc34ecd74e2aff007a90", "fusion_lon": 0.0, "bike_id": "aaf2226766b1cc34ecd74e2aff007a90", "is_disabled": 0, "is_reserved": 0}, {"rental_uris": {"ios": "https://dc.lft.to/lastmile_qr_scan", "android": "https://dc.lft.to/lastmile_qr_scan"}, "lon": -77.001236, "type": "electric_scooter", "fusion_lat": 0.0, "lat": 38.92456133333334, "name": "8e6f2c84abaf75d53337ec990b24036c", "fusion_lon": 0.0, "bike_id": "8e6f2c84abaf75d53337ec990b24036c", "is_disabled": 0, "is_reserved": 0}, {"rental_uris": {"ios": "https://dc.lft.to/lastmile_qr_scan", "android": "https://dc.lft.to/lastmile_qr_scan"}, "lon": -77.03211383333333, "type": "electric_scooter", "fusion_lat": 0.0, "lat": 38.915617833333336, "name": "ce45e1982bd62b26f1641ab4431d5b2a", "fusion_lon": 0.0, "bike_id": "ce45e1982bd62b26f1641ab4431d5b2a", "is_disabled": 0, "is_reserved": 0}, {"rental_uris": {"ios": "https://dc.lft.to/lastmile_qr_scan", "android": "https://dc.lft.to/lastmile_qr_scan"}, "lon": -76.978313, "type": "electric_bike", "fusion_lat": 0.0, "lat": 38.846045833333335, "name": "a825edb7192f61d97612ef8e67f852c9", "fusion_lon": 0.0, "bike_id": "a825edb7192f61d97612ef8e67f852c9", "is_disabled": 0, "is_reserved": 0}, {"rental_uris": {"ios": "https://dc.lft.to/lastmile_qr_scan", "android": "https://dc.lft.to/lastmile_qr_scan"}, "lon": -77.0625305, "type": "electric_scooter", "fusion_lat": 0.0, "lat": 38.902817166666665, "name": "116e265a5f0fbd15aa31ff64ecd8d4ea", "fusion_lon": 0.0, "bike_id": "116e265a5f0fbd15aa31ff64ecd8d4ea", "is_disabled": 0, "is_reserved": 0}, {"rental_uris": {"ios": "https://dc.lft.to/lastmile_qr_scan", "android": "https://dc.lft.to/lastmile_qr_scan"}, "lon": -77.03433583333333, "type": "electric_scooter", "fusion_lat": 0.0, "lat": 38.9179105, "name": "b7b4e282e37f773ae680a80b126d1198", "fusion_lon": 0.0, "bike_id": "b7b4e282e37f773ae680a80b126d1198", "is_disabled": 0, "is_reserved": 0}, {"rental_uris": {"ios": "https://dc.lft.to/lastmile_qr_scan", "android": "https://dc.lft.to/lastmile_qr_scan"}, "lon": -77.12627133333334, "type": "electric_bike", "fusion_lat": 0.0, "lat": 39.05808666666667, "name": "670566d5de265341cff4f5b3a203d893", "fusion_lon": 0.0, "bike_id": "670566d5de265341cff4f5b3a203d893", "is_disabled": 0, "is_reserved": 0}, {"rental_uris": {"ios": "https://dc.lft.to/lastmile_qr_scan", "android": "https://dc.lft.to/lastmile_qr_scan"}, "lon": -77.05123466666667, "type": "electric_bike", "fusion_lat": 0.0, "lat": 38.99969883333333, "name": "2aa547193697321ccb07837fbdec8e40", "fusion_lon": 0.0, "bike_id": "2aa547193697321ccb07837fbdec8e40", "is_disabled": 0, "is_reserved": 0}, {"rental_uris": {"ios": "https://dc.lft.to/lastmile_qr_scan", "android": "https://dc.lft.to/lastmile_qr_scan"}, "lon": -77.03191033333333, "type": "electric_scooter", "fusion_lat": 0.0, "lat": 38.8935775, "name": "c347c4574c72a22b57c88d0498bfe367", "fusion_lon": 0.0, "bike_id": "c347c4574c72a22b57c88d0498bfe367", "is_disabled": 0, "is_reserved": 0}, {"rental_uris": {"ios": "https://dc.lft.to/lastmile_qr_scan", "android": "https://dc.lft.to/lastmile_qr_scan"}, "lon": -77.0416165, "type": "electric_scooter", "fusion_lat": 0.0, "lat": 38.9139535, "name": "6fb5f50b3c906519642e83dc8d17e911", "fusion_lon": 0.0, "bike_id": "6fb5f50b3c906519642e83dc8d17e911", "is_disabled": 0, "is_reserved": 0}, {"rental_uris": {"ios": "https://dc.lft.to/lastmile_qr_scan", "android": "https://dc.lft.to/lastmile_qr_scan"}, "lon": -77.0332585, "type": "electric_scooter", "fusion_lat": 0.0, "lat": 38.898393166666665, "name": "7b62ed62a8a938c924a53a7afe82aaec", "fusion_lon": 0.0, "bike_id": "7b62ed62a8a938c924a53a7afe82aaec", "is_disabled": 0, "is_reserved": 0}, {"rental_uris": {"ios": "https://dc.lft.to/lastmile_qr_scan", "android": "https://dc.lft.to/lastmile_qr_scan"}, "lon": -77.02664266666666, "type": "electric_bike", "fusion_lat": 0.0, "lat": 38.9881005, "name": "0d49980ff5c90cc60f6a44351d2a40b2", "fusion_lon": 0.0, "bike_id": "0d49980ff5c90cc60f6a44351d2a40b2", "is_disabled": 0, "is_reserved": 0}, {"rental_uris": {"ios": "https://dc.lft.to/lastmile_qr_scan", "android": "https://dc.lft.to/lastmile_qr_scan"}, "lon": -77.04408416666666, "type": "electric_scooter", "fusion_lat": 0.0, "lat": 38.91314366666667, "name": "d61d474158f2177c0fe448d9a056d08b", "fusion_lon": 0.0, "bike_id": "d61d474158f2177c0fe448d9a056d08b", "is_disabled": 0, "is_reserved": 0}, {"rental_uris": {"ios": "https://dc.lft.to/lastmile_qr_scan", "android": "https://dc.lft.to/lastmile_qr_scan"}, "lon": -76.97999366666667, "type": "electric_bike", "fusion_lat": 0.0, "lat": 38.900178333333336, "name": "d64f962529a333bd829b6efbbaf9a153", "fusion_lon": 0.0, "bike_id": "d64f962529a333bd829b6efbbaf9a153", "is_disabled": 0, "is_reserved": 0}, {"rental_uris": {"ios": "https://dc.lft.to/lastmile_qr_scan", "android": "https://dc.lft.to/lastmile_qr_scan"}, "lon": -77.04026416666666, "type": "electric_scooter", "fusion_lat": 0.0, "lat": 38.923720333333335, "name": "65176a3ddd5336ca506b9d3c2d372035", "fusion_lon": 0.0, "bike_id": "65176a3ddd5336ca506b9d3c2d372035", "is_disabled": 0, "is_reserved": 0}, {"rental_uris": {"ios": "https://dc.lft.to/lastmile_qr_scan", "android": "https://dc.lft.to/lastmile_qr_scan"}, "lon": -77.039449, "type": "electric_scooter", "fusion_lat": 0.0, "lat": 38.89974333333333, "name": "904588b0ba1453637ed04469643d1e57", "fusion_lon": 0.0, "bike_id": "904588b0ba1453637ed04469643d1e57", "is_disabled": 0, "is_reserved": 0}, {"rental_uris": {"ios": "https://dc.lft.to/lastmile_qr_scan", "android": "https://dc.lft.to/lastmile_qr_scan"}, "lon": -77.01319666666667, "type": "electric_scooter", "fusion_lat": 0.0, "lat": 38.897397, "name": "655f0ee21a46c13eba65040dc4188f58", "fusion_lon": 0.0, "bike_id": "655f0ee21a46c13eba65040dc4188f58", "is_disabled": 0, "is_reserved": 0}, {"rental_uris": {"ios": "https://dc.lft.to/lastmile_qr_scan", "android": "https://dc.lft.to/lastmile_qr_scan"}, "lon": -76.95898683333333, "type": "electric_scooter", "fusion_lat": 0.0, "lat": 38.9268725, "name": "3b21656d02597b5e4212a5d636cf4f78", "fusion_lon": 0.0, "bike_id": "3b21656d02597b5e4212a5d636cf4f78", "is_disabled": 0, "is_reserved": 0}, {"rental_uris": {"ios": "https://dc.lft.to/lastmile_qr_scan", "android": "https://dc.lft.to/lastmile_qr_scan"}, "lon": -77.0232935, "type": "electric_scooter", "fusion_lat": 0.0, "lat": 38.8939445, "name": "88c4b8e6653552bb6ef01043f6b0915d", "fusion_lon": 0.0, "bike_id": "88c4b8e6653552bb6ef01043f6b0915d", "is_disabled": 0, "is_reserved": 0}, {"rental_uris": {"ios": "https://dc.lft.to/lastmile_qr_scan", "android": "https://dc.lft.to/lastmile_qr_scan"}, "lon": -77.03284166666667, "type": "electric_scooter", "fusion_lat": 0.0, "lat": 38.937400833333335, "name": "b07bd822d267c958393e519f59f4201f", "fusion_lon": 0.0, "bike_id": "b07bd822d267c958393e519f59f4201f", "is_disabled": 0, "is_reserved": 0}, {"rental_uris": {"ios": "https://dc.lft.to/lastmile_qr_scan", "android": "https://dc.lft.to/lastmile_qr_scan"}, "lon": -76.9520205, "type": "electric_bike", "fusion_lat": 0.0, "lat": 38.90683283333333, "name": "517ecedeb5e9ac214aad2ded511c2cd6", "fusion_lon": 0.0, "bike_id": "517ecedeb5e9ac214aad2ded511c2cd6", "is_disabled": 0, "is_reserved": 0}, {"rental_uris": {"ios": "https://dc.lft.to/lastmile_qr_scan", "android": "https://dc.lft.to/lastmile_qr_scan"}, "lon": -77.0541265, "type": "electric_scooter", "fusion_lat": 0.0, "lat": 38.93500483333333, "name": "b2dd9df506e56b02322bfd36f168535c", "fusion_lon": 0.0, "bike_id": "b2dd9df506e56b02322bfd36f168535c", "is_disabled": 0, "is_reserved": 0}, {"rental_uris": {"ios": "https://dc.lft.to/lastmile_qr_scan", "android": "https://dc.lft.to/lastmile_qr_scan"}, "lon": -77.01372966666666, "type": "electric_scooter", "fusion_lat": 0.0, "lat": 38.88651616666667, "name": "c2c4167bbaafc4b45932ebaf9b554852", "fusion_lon": 0.0, "bike_id": "c2c4167bbaafc4b45932ebaf9b554852", "is_disabled": 0, "is_reserved": 0}, {"rental_uris": {"ios": "https://dc.lft.to/lastmile_qr_scan", "android": "https://dc.lft.to/lastmile_qr_scan"}, "lon": -77.09136716666667, "type": "electric_bike", "fusion_lat": 0.0, "lat": 38.804194833333334, "name": "0b71082504c32b8c40f93437f3d82e8c", "fusion_lon": 0.0, "bike_id": "0b71082504c32b8c40f93437f3d82e8c", "is_disabled": 0, "is_reserved": 0}, {"rental_uris": {"ios": "https://dc.lft.to/lastmile_qr_scan", "android": "https://dc.lft.to/lastmile_qr_scan"}, "lon": -77.03133716666666, "type": "electric_scooter", "fusion_lat": 0.0, "lat": 38.906251166666664, "name": "03959fd2c0727121f452c15e35d91666", "fusion_lon": 0.0, "bike_id": "03959fd2c0727121f452c15e35d91666", "is_disabled": 0, "is_reserved": 0}, {"rental_uris": {"ios": "https://dc.lft.to/lastmile_qr_scan", "android": "https://dc.lft.to/lastmile_qr_scan"}, "lon": -77.04145783333334, "type": "electric_scooter", "fusion_lat": 0.0, "lat": 38.917045, "name": "8b6b90ed94a1c037718c5e55001c1ca6", "fusion_lon": 0.0, "bike_id": "8b6b90ed94a1c037718c5e55001c1ca6", "is_disabled": 0, "is_reserved": 0}, {"rental_uris": {"ios": "https://dc.lft.to/lastmile_qr_scan", "android": "https://dc.lft.to/lastmile_qr_scan"}, "lon": -76.99505616666667, "type": "electric_bike", "fusion_lat": 0.0, "lat": 38.999994, "name": "6f1a489b15c634032671fdb6b6756a63", "fusion_lon": 0.0, "bike_id": "6f1a489b15c634032671fdb6b6756a63", "is_disabled": 0, "is_reserved": 0}, {"rental_uris": {"ios": "https://dc.lft.to/lastmile_qr_scan", "android": "https://dc.lft.to/lastmile_qr_scan"}, "lon": -77.05341566666667, "type": "electric_scooter", "fusion_lat": 0.0, "lat": 38.90583783333334, "name": "7118440aea9a72b3d22364edbb5e0fe7", "fusion_lon": 0.0, "bike_id": "7118440aea9a72b3d22364edbb5e0fe7", "is_disabled": 0, "is_reserved": 0}, {"rental_uris": {"ios": "https://dc.lft.to/lastmile_qr_scan", "android": "https://dc.lft.to/lastmile_qr_scan"}, "lon": -77.06373783333333, "type": "electric_scooter", "fusion_lat": 0.0, "lat": 38.94423166666667, "name": "fa3dc6ae2cd61b466879298d7cc443f0", "fusion_lon": 0.0, "bike_id": "fa3dc6ae2cd61b466879298d7cc443f0", "is_disabled": 0, "is_reserved": 0}, {"rental_uris": {"ios": "https://dc.lft.to/lastmile_qr_scan", "android": "https://dc.lft.to/lastmile_qr_scan"}, "lon": -77.0261625, "type": "electric_scooter", "fusion_lat": 0.0, "lat": 38.9339535, "name": "e44b7780a8f397f09d5bb1eb512a55f5", "fusion_lon": 0.0, "bike_id": "e44b7780a8f397f09d5bb1eb512a55f5", "is_disabled": 0, "is_reserved": 0}, {"rental_uris": {"ios": "https://dc.lft.to/lastmile_qr_scan", "android": "https://dc.lft.to/lastmile_qr_scan"}, "lon": -77.031763, "type": "electric_scooter", "fusion_lat": 0.0, "lat": 38.91266983333333, "name": "c17781a1c5bbfe85762fc328ee659d94", "fusion_lon": 0.0, "bike_id": "c17781a1c5bbfe85762fc328ee659d94", "is_disabled": 0, "is_reserved": 0}, {"rental_uris": {"ios": "https://dc.lft.to/lastmile_qr_scan", "android": "https://dc.lft.to/lastmile_qr_scan"}, "lon": -77.01702183333333, "type": "electric_scooter", "fusion_lat": 0.0, "lat": 38.913833, "name": "eb52301fa779386ee05b7bb9e0693020", "fusion_lon": 0.0, "bike_id": "eb52301fa779386ee05b7bb9e0693020", "is_disabled": 0, "is_reserved": 0}, {"rental_uris": {"ios": "https://dc.lft.to/lastmile_qr_scan", "android": "https://dc.lft.to/lastmile_qr_scan"}, "lon": -77.03179516666667, "type": "electric_scooter", "fusion_lat": 0.0, "lat": 38.9139035, "name": "f6f5281ad717a5c32930fe2b185b8fcf", "fusion_lon": 0.0, "bike_id": "f6f5281ad717a5c32930fe2b185b8fcf", "is_disabled": 0, "is_reserved": 0}, {"rental_uris": {"ios": "https://dc.lft.to/lastmile_qr_scan", "android": "https://dc.lft.to/lastmile_qr_scan"}, "lon": -77.0383785, "type": "electric_scooter", "fusion_lat": 0.0, "lat": 38.9076255, "name": "d2308fc227615922cc3dd3cb5173cfd4", "fusion_lon": 0.0, "bike_id": "d2308fc227615922cc3dd3cb5173cfd4", "is_disabled": 0, "is_reserved": 0}, {"rental_uris": {"ios": "https://dc.lft.to/lastmile_qr_scan", "android": "https://dc.lft.to/lastmile_qr_scan"}, "lon": -77.00923483333334, "type": "electric_scooter", "fusion_lat": 0.0, "lat": 38.910545666666664, "name": "0313237b56203faf8d6d68cd5c50014a", "fusion_lon": 0.0, "bike_id": "0313237b56203faf8d6d68cd5c50014a", "is_disabled": 0, "is_reserved": 0}, {"rental_uris": {"ios": "https://dc.lft.to/lastmile_qr_scan", "android": "https://dc.lft.to/lastmile_qr_scan"}, "lon": -77.03547083333333, "type": "electric_scooter", "fusion_lat": 0.0, "lat": 38.903586833333335, "name": "7215dae7dc28fe65ed3961b841ab314b", "fusion_lon": 0.0, "bike_id": "7215dae7dc28fe65ed3961b841ab314b", "is_disabled": 0, "is_reserved": 0}, {"rental_uris": {"ios": "https://dc.lft.to/lastmile_qr_scan", "android": "https://dc.lft.to/lastmile_qr_scan"}, "lon": -76.99982433333334, "type": "electric_scooter", "fusion_lat": 0.0, "lat": 38.8383405, "name": "ae261e4c145a2157aa3dcb3ac90d6a5e", "fusion_lon": 0.0, "bike_id": "ae261e4c145a2157aa3dcb3ac90d6a5e", "is_disabled": 0, "is_reserved": 0}, {"rental_uris": {"ios": "https://dc.lft.to/lastmile_qr_scan", "android": "https://dc.lft.to/lastmile_qr_scan"}, "lon": -77.00509616666666, "type": "electric_scooter", "fusion_lat": 0.0, "lat": 38.91706883333333, "name": "4e8dd658a31132e12854f775eee16fa7", "fusion_lon": 0.0, "bike_id": "4e8dd658a31132e12854f775eee16fa7", "is_disabled": 0, "is_reserved": 0}, {"rental_uris": {"ios": "https://dc.lft.to/lastmile_qr_scan", "android": "https://dc.lft.to/lastmile_qr_scan"}, "lon": -77.01233483333333, "type": "electric_scooter", "fusion_lat": 0.0, "lat": 38.915479166666664, "name": "c2c0855c333ffde77344af6871bac948", "fusion_lon": 0.0, "bike_id": "c2c0855c333ffde77344af6871bac948", "is_disabled": 0, "is_reserved": 0}, {"rental_uris": {"ios": "https://dc.lft.to/lastmile_qr_scan", "android": "https://dc.lft.to/lastmile_qr_scan"}, "lon": -77.02966533333333, "type": "electric_scooter", "fusion_lat": 0.0, "lat": 38.906344833333335, "name": "010eef36d0fc7900a366ff4a94f2f904", "fusion_lon": 0.0, "bike_id": "010eef36d0fc7900a366ff4a94f2f904", "is_disabled": 0, "is_reserved": 0}, {"rental_uris": {"ios": "https://dc.lft.to/lastmile_qr_scan", "android": "https://dc.lft.to/lastmile_qr_scan"}, "lon": -77.0409475, "type": "electric_scooter", "fusion_lat": 0.0, "lat": 38.91731766666667, "name": "8e2dd95e903b269630934ca560e88a1a", "fusion_lon": 0.0, "bike_id": "8e2dd95e903b269630934ca560e88a1a", "is_disabled": 0, "is_reserved": 0}, {"rental_uris": {"ios": "https://dc.lft.to/lastmile_qr_scan", "android": "https://dc.lft.to/lastmile_qr_scan"}, "lon": -76.9861275, "type": "electric_scooter", "fusion_lat": 0.0, "lat": 38.8682675, "name": "5d66c9044aeb3949cda717ff0301bcbf", "fusion_lon": 0.0, "bike_id": "5d66c9044aeb3949cda717ff0301bcbf", "is_disabled": 0, "is_reserved": 0}, {"rental_uris": {"ios": "https://dc.lft.to/lastmile_qr_scan", "android": "https://dc.lft.to/lastmile_qr_scan"}, "lon": -76.998263, "type": "electric_scooter", "fusion_lat": 0.0, "lat": 38.8853365, "name": "cb3101ce894aae52c6b106b49808823d", "fusion_lon": 0.0, "bike_id": "cb3101ce894aae52c6b106b49808823d", "is_disabled": 0, "is_reserved": 0}, {"rental_uris": {"ios": "https://dc.lft.to/lastmile_qr_scan", "android": "https://dc.lft.to/lastmile_qr_scan"}, "lon": -77.1359765, "type": "electric_bike", "fusion_lat": 0.0, "lat": 39.05344683333333, "name": "74a44a4d7cd7c8dbcbfc9fc31507e413", "fusion_lon": 0.0, "bike_id": "74a44a4d7cd7c8dbcbfc9fc31507e413", "is_disabled": 0, "is_reserved": 0}, {"rental_uris": {"ios": "https://dc.lft.to/lastmile_qr_scan", "android": "https://dc.lft.to/lastmile_qr_scan"}, "lon": -76.987145, "type": "electric_scooter", "fusion_lat": 0.0, "lat": 38.862697, "name": "03258a366856b30a016733fd9bbe6a6b", "fusion_lon": 0.0, "bike_id": "03258a366856b30a016733fd9bbe6a6b", "is_disabled": 0, "is_reserved": 0}, {"rental_uris": {"ios": "https://dc.lft.to/lastmile_qr_scan", "android": "https://dc.lft.to/lastmile_qr_scan"}, "lon": -77.012667, "type": "electric_scooter", "fusion_lat": 0.0, "lat": 38.899652333333336, "name": "9abb380f02b47109297ce67ff33c9ba8", "fusion_lon": 0.0, "bike_id": "9abb380f02b47109297ce67ff33c9ba8", "is_disabled": 0, "is_reserved": 0}, {"rental_uris": {"ios": "https://dc.lft.to/lastmile_qr_scan", "android": "https://dc.lft.to/lastmile_qr_scan"}, "lon": -77.04171183333334, "type": "electric_scooter", "fusion_lat": 0.0, "lat": 38.900559666666666, "name": "b13130aee75f985e1fc238974045b8a9", "fusion_lon": 0.0, "bike_id": "b13130aee75f985e1fc238974045b8a9", "is_disabled": 0, "is_reserved": 0}, {"rental_uris": {"ios": "https://dc.lft.to/lastmile_qr_scan", "android": "https://dc.lft.to/lastmile_qr_scan"}, "lon": -77.02732, "type": "electric_scooter", "fusion_lat": 0.0, "lat": 38.881464666666666, "name": "171b3b221680ff4b4da82d5f12922b13", "fusion_lon": 0.0, "bike_id": "171b3b221680ff4b4da82d5f12922b13", "is_disabled": 0, "is_reserved": 0}, {"rental_uris": {"ios": "https://dc.lft.to/lastmile_qr_scan", "android": "https://dc.lft.to/lastmile_qr_scan"}, "lon": -76.98906616666666, "type": "electric_scooter", "fusion_lat": 0.0, "lat": 38.900105, "name": "64ea468539a9653bddfc7a8a79e1988e", "fusion_lon": 0.0, "bike_id": "64ea468539a9653bddfc7a8a79e1988e", "is_disabled": 0, "is_reserved": 0}, {"rental_uris": {"ios": "https://dc.lft.to/lastmile_qr_scan", "android": "https://dc.lft.to/lastmile_qr_scan"}, "lon": -77.1290065, "type": "electric_bike", "fusion_lat": 0.0, "lat": 38.86374566666667, "name": "91879ecf7da62938563b16498a93415e", "fusion_lon": 0.0, "bike_id": "91879ecf7da62938563b16498a93415e", "is_disabled": 0, "is_reserved": 0}, {"rental_uris": {"ios": "https://dc.lft.to/lastmile_qr_scan", "android": "https://dc.lft.to/lastmile_qr_scan"}, "lon": -77.02862683333333, "type": "electric_scooter", "fusion_lat": 0.0, "lat": 38.934595333333334, "name": "13468657a74f782ee0bc506abbbaa4b2", "fusion_lon": 0.0, "bike_id": "13468657a74f782ee0bc506abbbaa4b2", "is_disabled": 0, "is_reserved": 0}, {"rental_uris": {"ios": "https://dc.lft.to/lastmile_qr_scan", "android": "https://dc.lft.to/lastmile_qr_scan"}, "lon": -77.02394183333334, "type": "electric_scooter", "fusion_lat": 0.0, "lat": 38.915873833333336, "name": "d307e6406a50d2073d916effff0bd790", "fusion_lon": 0.0, "bike_id": "d307e6406a50d2073d916effff0bd790", "is_disabled": 0, "is_reserved": 0}, {"rental_uris": {"ios": "https://dc.lft.to/lastmile_qr_scan", "android": "https://dc.lft.to/lastmile_qr_scan"}, "lon": -77.03036316666666, "type": "electric_scooter", "fusion_lat": 0.0, "lat": 38.902704, "name": "c4c9ecb890c28aa99087eb684c3437c0", "fusion_lon": 0.0, "bike_id": "c4c9ecb890c28aa99087eb684c3437c0", "is_disabled": 0, "is_reserved": 0}, {"rental_uris": {"ios": "https://dc.lft.to/lastmile_qr_scan", "android": "https://dc.lft.to/lastmile_qr_scan"}, "lon": -77.03787533333333, "type": "electric_scooter", "fusion_lat": 0.0, "lat": 38.90554266666667, "name": "02e26e17e63dad2c22a416e967d90dc5", "fusion_lon": 0.0, "bike_id": "02e26e17e63dad2c22a416e967d90dc5", "is_disabled": 0, "is_reserved": 0}, {"rental_uris": {"ios": "https://dc.lft.to/lastmile_qr_scan", "android": "https://dc.lft.to/lastmile_qr_scan"}, "lon": -77.03188433333334, "type": "electric_scooter", "fusion_lat": 0.0, "lat": 38.91133933333333, "name": "bebf43349d18123ab1a97a136a3023ef", "fusion_lon": 0.0, "bike_id": "bebf43349d18123ab1a97a136a3023ef", "is_disabled": 0, "is_reserved": 0}, {"rental_uris": {"ios": "https://dc.lft.to/lastmile_qr_scan", "android": "https://dc.lft.to/lastmile_qr_scan"}, "lon": -77.036588, "type": "electric_scooter", "fusion_lat": 0.0, "lat": 38.935829, "name": "a1351b21268440e1a3a8b04dd7c60e6d", "fusion_lon": 0.0, "bike_id": "a1351b21268440e1a3a8b04dd7c60e6d", "is_disabled": 0, "is_reserved": 0}, {"rental_uris": {"ios": "https://dc.lft.to/lastmile_qr_scan", "android": "https://dc.lft.to/lastmile_qr_scan"}, "lon": -77.025268, "type": "electric_scooter", "fusion_lat": 0.0, "lat": 38.94303516666667, "name": "01d9202abc0e11f75c9bd89627e77a6f", "fusion_lon": 0.0, "bike_id": "01d9202abc0e11f75c9bd89627e77a6f", "is_disabled": 0, "is_reserved": 0}, {"rental_uris": {"ios": "https://dc.lft.to/lastmile_qr_scan", "android": "https://dc.lft.to/lastmile_qr_scan"}, "lon": -77.0033415, "type": "electric_scooter", "fusion_lat": 0.0, "lat": 38.907208, "name": "ac78ae16d9147835e16b3a3f8da6f68e", "fusion_lon": 0.0, "bike_id": "ac78ae16d9147835e16b3a3f8da6f68e", "is_disabled": 0, "is_reserved": 0}, {"rental_uris": {"ios": "https://dc.lft.to/lastmile_qr_scan", "android": "https://dc.lft.to/lastmile_qr_scan"}, "lon": -77.0264875, "type": "electric_scooter", "fusion_lat": 0.0, "lat": 38.93035483333333, "name": "f2801e4c60664777113db85685d47745", "fusion_lon": 0.0, "bike_id": "f2801e4c60664777113db85685d47745", "is_disabled": 0, "is_reserved": 0}, {"rental_uris": {"ios": "https://dc.lft.to/lastmile_qr_scan", "android": "https://dc.lft.to/lastmile_qr_scan"}, "lon": -77.04039533333334, "type": "electric_scooter", "fusion_lat": 0.0, "lat": 38.924683, "name": "f221e41a0844b33f31bea355c7739228", "fusion_lon": 0.0, "bike_id": "f221e41a0844b33f31bea355c7739228", "is_disabled": 0, "is_reserved": 0}, {"rental_uris": {"ios": "https://dc.lft.to/lastmile_qr_scan", "android": "https://dc.lft.to/lastmile_qr_scan"}, "lon": -77.017546, "type": "electric_scooter", "fusion_lat": 0.0, "lat": 38.88595183333334, "name": "c35f8c7e99db1b3267dc04635eb2cdb7", "fusion_lon": 0.0, "bike_id": "c35f8c7e99db1b3267dc04635eb2cdb7", "is_disabled": 0, "is_reserved": 0}, {"rental_uris": {"ios": "https://dc.lft.to/lastmile_qr_scan", "android": "https://dc.lft.to/lastmile_qr_scan"}, "lon": -77.07244066666667, "type": "electric_scooter", "fusion_lat": 0.0, "lat": 38.933743, "name": "5d164213a373e7b52519fc841c499baa", "fusion_lon": 0.0, "bike_id": "5d164213a373e7b52519fc841c499baa", "is_disabled": 0, "is_reserved": 0}, {"rental_uris": {"ios": "https://dc.lft.to/lastmile_qr_scan", "android": "https://dc.lft.to/lastmile_qr_scan"}, "lon": -77.0260295, "type": "electric_scooter", "fusion_lat": 0.0, "lat": 38.916694166666666, "name": "b8d8e4079ba6e0b9b844e3800b9d45ea", "fusion_lon": 0.0, "bike_id": "b8d8e4079ba6e0b9b844e3800b9d45ea", "is_disabled": 0, "is_reserved": 0}, {"rental_uris": {"ios": "https://dc.lft.to/lastmile_qr_scan", "android": "https://dc.lft.to/lastmile_qr_scan"}, "lon": -77.07212266666667, "type": "electric_scooter", "fusion_lat": 0.0, "lat": 38.93475083333333, "name": "e17560277edd87da94666f7d1d89f0f3", "fusion_lon": 0.0, "bike_id": "e17560277edd87da94666f7d1d89f0f3", "is_disabled": 0, "is_reserved": 0}, {"rental_uris": {"ios": "https://dc.lft.to/lastmile_qr_scan", "android": "https://dc.lft.to/lastmile_qr_scan"}, "lon": -77.05392116666667, "type": "electric_scooter", "fusion_lat": 0.0, "lat": 38.92790383333333, "name": "858e82e3018ff544beface8b5ee52ec8", "fusion_lon": 0.0, "bike_id": "858e82e3018ff544beface8b5ee52ec8", "is_disabled": 0, "is_reserved": 0}, {"rental_uris": {"ios": "https://dc.lft.to/lastmile_qr_scan", "android": "https://dc.lft.to/lastmile_qr_scan"}, "lon": -77.05916333333333, "type": "electric_scooter", "fusion_lat": 0.0, "lat": 38.904401, "name": "ede46172591070c701bf7c835aaa20b3", "fusion_lon": 0.0, "bike_id": "ede46172591070c701bf7c835aaa20b3", "is_disabled": 0, "is_reserved": 0}, {"rental_uris": {"ios": "https://dc.lft.to/lastmile_qr_scan", "android": "https://dc.lft.to/lastmile_qr_scan"}, "lon": -76.99249016666667, "type": "electric_bike", "fusion_lat": 0.0, "lat": 38.92545, "name": "2f8a596d1a992bcdaeb3bf48451a12c2", "fusion_lon": 0.0, "bike_id": "2f8a596d1a992bcdaeb3bf48451a12c2", "is_disabled": 0, "is_reserved": 0}, {"rental_uris": {"ios": "https://dc.lft.to/lastmile_qr_scan", "android": "https://dc.lft.to/lastmile_qr_scan"}, "lon": -76.98024333333333, "type": "electric_scooter", "fusion_lat": 0.0, "lat": 38.88767816666667, "name": "f029b89f3b43b5d62c91297c4ea10e56", "fusion_lon": 0.0, "bike_id": "f029b89f3b43b5d62c91297c4ea10e56", "is_disabled": 0, "is_reserved": 0}, {"rental_uris": {"ios": "https://dc.lft.to/lastmile_qr_scan", "android": "https://dc.lft.to/lastmile_qr_scan"}, "lon": -77.02340666666667, "type": "electric_bike", "fusion_lat": 0.0, "lat": 38.944737, "name": "35ce3447f6730631732ace55d8029579", "fusion_lon": 0.0, "bike_id": "35ce3447f6730631732ace55d8029579", "is_disabled": 0, "is_reserved": 0}, {"rental_uris": {"ios": "https://dc.lft.to/lastmile_qr_scan", "android": "https://dc.lft.to/lastmile_qr_scan"}, "lon": -76.98906383333333, "type": "electric_scooter", "fusion_lat": 0.0, "lat": 38.866855, "name": "6df4eaa125c066f62c3ec95e3daefd4d", "fusion_lon": 0.0, "bike_id": "6df4eaa125c066f62c3ec95e3daefd4d", "is_disabled": 0, "is_reserved": 0}, {"rental_uris": {"ios": "https://dc.lft.to/lastmile_qr_scan", "android": "https://dc.lft.to/lastmile_qr_scan"},