{"data": {"bikes": [{"bike_id": "14891f947eeed74dab369a3e1a82e464", "type": "electric_bike", "is_disabled": 0, "lat": 38.94363216666667, "rental_uris": {"ios": "https://dc.lft.to/lastmile_qr_scan", "android": "https://dc.lft.to/lastmile_qr_scan"}, "is_reserved": 0, "fusion_lon": 0.0, "fusion_lat": 0.0, "lon": -76.96781316666667, "name": "14891f947eeed74dab369a3e1a82e464"}, {"bike_id": "1c6ff9f521726cfcd09789b1f221a9f2", "type": "electric_scooter", "is_disabled": 0, "lat": 38.92330066666667, "rental_uris": {"ios": "https://dc.lft.to/lastmile_qr_scan", "android": "https://dc.lft.to/lastmile_qr_scan"}, "is_reserved": 0, "fusion_lon": 0.0, "fusion_lat": 0.0, "lon": -77.04610816666667, "name": "1c6ff9f521726cfcd09789b1f221a9f2"}, {"bike_id": "2abc7ddf3115d7cb14731487efd14468", "type": "electric_scooter", "is_disabled": 0, "lat": 38.900114333333335, "rental_uris": {"ios": "https://dc.lft.to/lastmile_qr_scan", "android": "https://dc.lft.to/lastmile_qr_scan"}, "is_reserved": 0, "fusion_lon": 0.0, "fusion_lat": 0.0, "lon": -77.00667966666667, "name": "2abc7ddf3115d7cb14731487efd14468"}, {"bike_id": "3eeb2b622e6432f742bf06f9de76180b", "type": "electric_scooter", "is_disabled": 0, "lat": 38.90600233333333, "rental_uris": {"ios": "https://dc.lft.to/lastmile_qr_scan", "android": "https://dc.lft.to/lastmile_qr_scan"}, "is_reserved": 0, "fusion_lon": 0.0, "fusion_lat": 0.0, "lon": -77.00598733333334, "name": "3eeb2b622e6432f742bf06f9de76180b"}, {"bike_id": "a28093bcff41a94ceaac9d1119f17e38", "type": "electric_scooter", "is_disabled": 0, "lat": 38.8954255, "rental_uris": {"ios": "https://dc.lft.to/lastmile_qr_scan", "android": "https://dc.lft.to/lastmile_qr_scan"}, "is_reserved": 0, "fusion_lon": 0.0, "fusion_lat": 0.0, "lon": -76.949263, "name": "a28093bcff41a94ceaac9d1119f17e38"}, {"bike_id": "07a5bf2c97f37f46555f75edb0dec4f7", "type": "electric_scooter", "is_disabled": 0, "lat": 38.92288033333333, "rental_uris": {"ios": "https://dc.lft.to/lastmile_qr_scan", "android": "https://dc.lft.to/lastmile_qr_scan"}, "is_reserved": 0, "fusion_lon": 0.0, "fusion_lat": 0.0, "lon": -77.0224585, "name": "07a5bf2c97f37f46555f75edb0dec4f7"}, {"bike_id": "7b810f63a1a296ad05785396f1ae0203", "type": "electric_scooter", "is_disabled": 0, "lat": 38.926216333333336, "rental_uris": {"ios": "https://dc.lft.to/lastmile_qr_scan", "android": "https://dc.lft.to/lastmile_qr_scan"}, "is_reserved": 0, "fusion_lon": 0.0, "fusion_lat": 0.0, "lon": -77.02335033333334, "name": "7b810f63a1a296ad05785396f1ae0203"}, {"bike_id": "4826dd8f8615626cba31c3b5fcfffd56", "type": "electric_scooter", "is_disabled": 0, "lat": 38.924512, "rental_uris": {"ios": "https://dc.lft.to/lastmile_qr_scan", "android": "https://dc.lft.to/lastmile_qr_scan"}, "is_reserved": 0, "fusion_lon": 0.0, "fusion_lat": 0.0, "lon": -77.04114483333333, "name": "4826dd8f8615626cba31c3b5fcfffd56"}, {"bike_id": "3e4033e0af73f92ab9f2efe68be4df54", "type": "electric_scooter", "is_disabled": 0, "lat": 38.9156565, "rental_uris": {"ios": "https://dc.lft.to/lastmile_qr_scan", "android": "https://dc.lft.to/lastmile_qr_scan"}, "is_reserved": 0, "fusion_lon": 0.0, "fusion_lat": 0.0, "lon": -77.03229183333333, "name": "3e4033e0af73f92ab9f2efe68be4df54"}, {"bike_id": "109fff002e3de044b34fa1dcfe168fd3", "type": "electric_scooter", "is_disabled": 0, "lat": 38.91771983333334, "rental_uris": {"ios": "https://dc.lft.to/lastmile_qr_scan", "android": "https://dc.lft.to/lastmile_qr_scan"}, "is_reserved": 0, "fusion_lon": 0.0, "fusion_lat": 0.0, "lon": -77.0346695, "name": "109fff002e3de044b34fa1dcfe168fd3"}, {"bike_id": "4549a4ca73658890292b81c2d9a095c3", "type": "electric_scooter", "is_disabled": 0, "lat": 38.90738616666667, "rental_uris": {"ios": "https://dc.lft.to/lastmile_qr_scan", "android": "https://dc.lft.to/lastmile_qr_scan"}, "is_reserved": 0, "fusion_lon": 0.0, "fusion_lat": 0.0, "lon": -77.0316465, "name": "4549a4ca73658890292b81c2d9a095c3"}, {"bike_id": "58d381a5549e53fcfbac58ad54300858", "type": "electric_bike", "is_disabled": 0, "lat": 38.808255833333334, "rental_uris": {"ios": "https://dc.lft.to/lastmile_qr_scan", "android": "https://dc.lft.to/lastmile_qr_scan"}, "is_reserved": 0, "fusion_lon": 0.0, "fusion_lat": 0.0, "lon": -77.10140483333333, "name": "58d381a5549e53fcfbac58ad54300858"}, {"bike_id": "322bb92cc4a08deb6c7938017f588a46", "type": "electric_scooter", "is_disabled": 0, "lat": 38.910174833333336, "rental_uris": {"ios": "https://dc.lft.to/lastmile_qr_scan", "android": "https://dc.lft.to/lastmile_qr_scan"}, "is_reserved": 0, "fusion_lon": 0.0, "fusion_lat": 0.0, "lon": -77.00919516666667, "name": "322bb92cc4a08deb6c7938017f588a46"}, {"bike_id": "d5e3735d7ae76959eda8e09e9909eda9", "type": "electric_scooter", "is_disabled": 0, "lat": 38.917445, "rental_uris": {"ios": "https://dc.lft.to/lastmile_qr_scan", "android": "https://dc.lft.to/lastmile_qr_scan"}, "is_reserved": 0, "fusion_lon": 0.0, "fusion_lat": 0.0, "lon": -77.04076416666666, "name": "d5e3735d7ae76959eda8e09e9909eda9"}, {"bike_id": "846d6c945321e967c8bc17db33687d19", "type": "electric_scooter", "is_disabled": 0, "lat": 38.83099266666667, "rental_uris": {"ios": "https://dc.lft.to/lastmile_qr_scan", "android": "https://dc.lft.to/lastmile_qr_scan"}, "is_reserved": 0, "fusion_lon": 0.0, "fusion_lat": 0.0, "lon": -77.051641, "name": "846d6c945321e967c8bc17db33687d19"}, {"bike_id": "da4128b38f875572077fb6e680069e76", "type": "electric_scooter", "is_disabled": 0, "lat": 38.914117833333336, "rental_uris": {"ios": "https://dc.lft.to/lastmile_qr_scan", "android": "https://dc.lft.to/lastmile_qr_scan"}, "is_reserved": 0, "fusion_lon": 0.0, "fusion_lat": 0.0, "lon": -77.02120266666667, "name": "da4128b38f875572077fb6e680069e76"}, {"bike_id": "6b9bb78bc95bce7b0aa61fb6f48d60bd", "type": "electric_scooter", "is_disabled": 0, "lat": 38.907357166666664, "rental_uris": {"ios": "https://dc.lft.to/lastmile_qr_scan", "android": "https://dc.lft.to/lastmile_qr_scan"}, "is_reserved": 0, "fusion_lon": 0.0, "fusion_lat": 0.0, "lon": -76.97967933333334, "name": "6b9bb78bc95bce7b0aa61fb6f48d60bd"}, {"bike_id": "53f586656d04e5440ae99d02c43e2613", "type": "electric_scooter", "is_disabled": 0, "lat": 38.867307833333335, "rental_uris": {"ios": "https://dc.lft.to/lastmile_qr_scan", "android": "https://dc.lft.to/lastmile_qr_scan"}, "is_reserved": 0, "fusion_lon": 0.0, "fusion_lat": 0.0, "lon": -76.978569, "name": "53f586656d04e5440ae99d02c43e2613"}, {"bike_id": "8d1c1dd989cbc17d0f33bdc101af819e", "type": "electric_scooter", "is_disabled": 0, "lat": 38.90826066666666, "rental_uris": {"ios": "https://dc.lft.to/lastmile_qr_scan", "android": "https://dc.lft.to/lastmile_qr_scan"}, "is_reserved": 0, "fusion_lon": 0.0, "fusion_lat": 0.0, "lon": -77.04498283333334, "name": "8d1c1dd989cbc17d0f33bdc101af819e"}, {"bike_id": "45c3fef723530c556f4b824648086688", "type": "electric_scooter", "is_disabled": 0, "lat": 38.902880333333336, "rental_uris": {"ios": "https://dc.lft.to/lastmile_qr_scan", "android": "https://dc.lft.to/lastmile_qr_scan"}, "is_reserved": 0, "fusion_lon": 0.0, "fusion_lat": 0.0, "lon": -77.00323733333333, "name": "45c3fef723530c556f4b824648086688"}, {"bike_id": "efadd73cf3ea8504118d6b478a1789ca", "type": "electric_scooter", "is_disabled": 0, "lat": 38.858944666666666, "rental_uris": {"ios": "https://dc.lft.to/lastmile_qr_scan", "android": "https://dc.lft.to/lastmile_qr_scan"}, "is_reserved": 0, "fusion_lon": 0.0, "fusion_lat": 0.0, "lon": -76.99725666666667, "name": "efadd73cf3ea8504118d6b478a1789ca"}, {"bike_id": "f2015a8c201cf9e5215d3ded24d0661a", "type": "electric_scooter", "is_disabled": 0, "lat": 38.93177683333333, "rental_uris": {"ios": "https://dc.lft.to/lastmile_qr_scan", "android": "https://dc.lft.to/lastmile_qr_scan"}, "is_reserved": 0, "fusion_lon": 0.0, "fusion_lat": 0.0, "lon": -77.0281475, "name": "f2015a8c201cf9e5215d3ded24d0661a"}, {"bike_id": "26f6cca94202eaa61d3f9eade64ece6e", "type": "electric_scooter", "is_disabled": 0, "lat": 38.89342366666666, "rental_uris": {"ios": "https://dc.lft.to/lastmile_qr_scan", "android": "https://dc.lft.to/lastmile_qr_scan"}, "is_reserved": 0, "fusion_lon": 0.0, "fusion_lat": 0.0, "lon": -76.993825, "name": "26f6cca94202eaa61d3f9eade64ece6e"}, {"bike_id": "5e12895c9a1a3e6acb9e80ec6975ec97", "type": "electric_scooter", "is_disabled": 0, "lat": 38.89986866666667, "rental_uris": {"ios": "https://dc.lft.to/lastmile_qr_scan", "android": "https://dc.lft.to/lastmile_qr_scan"}, "is_reserved": 0, "fusion_lon": 0.0, "fusion_lat": 0.0, "lon": -76.94999983333334, "name": "5e12895c9a1a3e6acb9e80ec6975ec97"}, {"bike_id": "61399021f99460dcfd0ac9eb8bb21bf8", "type": "electric_scooter", "is_disabled": 0, "lat": 38.90536616666667, "rental_uris": {"ios": "https://dc.lft.to/lastmile_qr_scan", "android": "https://dc.lft.to/lastmile_qr_scan"}, "is_reserved": 0, "fusion_lon": 0.0, "fusion_lat": 0.0, "lon": -77.05706883333333, "name": "61399021f99460dcfd0ac9eb8bb21bf8"}, {"bike_id": "770017f63c735cf14b496b3d070cf508", "type": "electric_bike", "is_disabled": 0, "lat": 38.863360666666665, "rental_uris": {"ios": "https://dc.lft.to/lastmile_qr_scan", "android": "https://dc.lft.to/lastmile_qr_scan"}, "is_reserved": 0, "fusion_lon": 0.0, "fusion_lat": 0.0, "lon": -76.98721016666667, "name": "770017f63c735cf14b496b3d070cf508"}, {"bike_id": "cd031984e5d4586a9f2bffbf6dfab144", "type": "electric_scooter", "is_disabled": 0, "lat": 38.93771233333333, "rental_uris": {"ios": "https://dc.lft.to/lastmile_qr_scan", "android": "https://dc.lft.to/lastmile_qr_scan"}, "is_reserved": 0, "fusion_lon": 0.0, "fusion_lat": 0.0, "lon": -77.01970516666667, "name": "cd031984e5d4586a9f2bffbf6dfab144"}, {"bike_id": "d5ff6f5ed43e5f500c4c42d17929bfef", "type": "electric_scooter", "is_disabled": 0, "lat": 38.92970316666667, "rental_uris": {"ios": "https://dc.lft.to/lastmile_qr_scan", "android": "https://dc.lft.to/lastmile_qr_scan"}, "is_reserved": 0, "fusion_lon": 0.0, "fusion_lat": 0.0, "lon": -77.031997, "name": "d5ff6f5ed43e5f500c4c42d17929bfef"}, {"bike_id": "cf24e6388fc53946b78b42fa0bd1075d", "type": "electric_scooter", "is_disabled": 0, "lat": 38.91629066666667, "rental_uris": {"ios": "https://dc.lft.to/lastmile_qr_scan", "android": "https://dc.lft.to/lastmile_qr_scan"}, "is_reserved": 0, "fusion_lon": 0.0, "fusion_lat": 0.0, "lon": -77.0296225, "name": "cf24e6388fc53946b78b42fa0bd1075d"}, {"bike_id": "11501b807125bf721b474a91dd87be39", "type": "electric_scooter", "is_disabled": 0, "lat": 38.905167, "rental_uris": {"ios": "https://dc.lft.to/lastmile_qr_scan", "android": "https://dc.lft.to/lastmile_qr_scan"}, "is_reserved": 0, "fusion_lon": 0.0, "fusion_lat": 0.0, "lon": -77.06202433333333, "name": "11501b807125bf721b474a91dd87be39"}, {"bike_id": "08bf43bde93624f66b425bb68b4fb5e7", "type": "electric_scooter", "is_disabled": 0, "lat": 38.93728183333333, "rental_uris": {"ios": "https://dc.lft.to/lastmile_qr_scan", "android": "https://dc.lft.to/lastmile_qr_scan"}, "is_reserved": 0, "fusion_lon": 0.0, "fusion_lat": 0.0, "lon": -77.03294783333334, "name": "08bf43bde93624f66b425bb68b4fb5e7"}, {"bike_id": "975a8e98b327db2f4a3a2adc852139b7", "type": "electric_scooter", "is_disabled": 0, "lat": 38.93601616666667, "rental_uris": {"ios": "https://dc.lft.to/lastmile_qr_scan", "android": "https://dc.lft.to/lastmile_qr_scan"}, "is_reserved": 0, "fusion_lon": 0.0, "fusion_lat": 0.0, "lon": -77.03652583333333, "name": "975a8e98b327db2f4a3a2adc852139b7"}, {"bike_id": "0a9b9bf7300af896744b9716cbcb2f79", "type": "electric_scooter", "is_disabled": 0, "lat": 38.938512833333334, "rental_uris": {"ios": "https://dc.lft.to/lastmile_qr_scan", "android": "https://dc.lft.to/lastmile_qr_scan"}, "is_reserved": 0, "fusion_lon": 0.0, "fusion_lat": 0.0, "lon": -77.0326815, "name": "0a9b9bf7300af896744b9716cbcb2f79"}, {"bike_id": "20e76d9f1a4d0d67cdc6114ba93d8895", "type": "electric_scooter", "is_disabled": 0, "lat": 38.90154483333333, "rental_uris": {"ios": "https://dc.lft.to/lastmile_qr_scan", "android": "https://dc.lft.to/lastmile_qr_scan"}, "is_reserved": 0, "fusion_lon": 0.0, "fusion_lat": 0.0, "lon": -77.00855316666667, "name": "20e76d9f1a4d0d67cdc6114ba93d8895"}, {"bike_id": "8ad9f8fca74105a2e642d4712a32d4de", "type": "electric_bike", "is_disabled": 0, "lat": 38.90270783333333, "rental_uris": {"ios": "https://dc.lft.to/lastmile_qr_scan", "android": "https://dc.lft.to/lastmile_qr_scan"}, "is_reserved": 0, "fusion_lon": 0.0, "fusion_lat": 0.0, "lon": -77.01765783333333, "name": "8ad9f8fca74105a2e642d4712a32d4de"}, {"bike_id": "8a12dead01ab4f61c9ec953fff7c44a1", "type": "electric_scooter", "is_disabled": 0, "lat": 38.90683533333333, "rental_uris": {"ios": "https://dc.lft.to/lastmile_qr_scan", "android": "https://dc.lft.to/lastmile_qr_scan"}, "is_reserved": 0, "fusion_lon": 0.0, "fusion_lat": 0.0, "lon": -77.0269655, "name": "8a12dead01ab4f61c9ec953fff7c44a1"}, {"bike_id": "8db9ba39ec2d3b29ee6b6667381f3232", "type": "electric_scooter", "is_disabled": 0, "lat": 38.90360183333333, "rental_uris": {"ios": "https://dc.lft.to/lastmile_qr_scan", "android": "https://dc.lft.to/lastmile_qr_scan"}, "is_reserved": 0, "fusion_lon": 0.0, "fusion_lat": 0.0, "lon": -77.01875416666667, "name": "8db9ba39ec2d3b29ee6b6667381f3232"}, {"bike_id": "3ea75e92d7449105598f64a5eb144717", "type": "electric_scooter", "is_disabled": 0, "lat": 38.922631, "rental_uris": {"ios": "https://dc.lft.to/lastmile_qr_scan", "android": "https://dc.lft.to/lastmile_qr_scan"}, "is_reserved": 0, "fusion_lon": 0.0, "fusion_lat": 0.0, "lon": -77.00049466666667, "name": "3ea75e92d7449105598f64a5eb144717"}, {"bike_id": "2e37796bf6d4106796322a4667be549b", "type": "electric_scooter", "is_disabled": 0, "lat": 38.91152966666667, "rental_uris": {"ios": "https://dc.lft.to/lastmile_qr_scan", "android": "https://dc.lft.to/lastmile_qr_scan"}, "is_reserved": 0, "fusion_lon": 0.0, "fusion_lat": 0.0, "lon": -77.03835033333333, "name": "2e37796bf6d4106796322a4667be549b"}, {"bike_id": "41c4964955d76e04b125c8e89595109e", "type": "electric_bike", "is_disabled": 0, "lat": 38.861943833333335, "rental_uris": {"ios": "https://dc.lft.to/lastmile_qr_scan", "android": "https://dc.lft.to/lastmile_qr_scan"}, "is_reserved": 0, "fusion_lon": 0.0, "fusion_lat": 0.0, "lon": -76.94810933333333, "name": "41c4964955d76e04b125c8e89595109e"}, {"bike_id": "5a42b1f35f45d5e81b8e94fc86d1c1e2", "type": "electric_scooter", "is_disabled": 0, "lat": 38.895948833333335, "rental_uris": {"ios": "https://dc.lft.to/lastmile_qr_scan", "android": "https://dc.lft.to/lastmile_qr_scan"}, "is_reserved": 0, "fusion_lon": 0.0, "fusion_lat": 0.0, "lon": -77.00502166666666, "name": "5a42b1f35f45d5e81b8e94fc86d1c1e2"}, {"bike_id": "20d16e6570723b47a16f64d5b33ef623", "type": "electric_scooter", "is_disabled": 0, "lat": 38.909742666666666, "rental_uris": {"ios": "https://dc.lft.to/lastmile_qr_scan", "android": "https://dc.lft.to/lastmile_qr_scan"}, "is_reserved": 0, "fusion_lon": 0.0, "fusion_lat": 0.0, "lon": -77.0386715, "name": "20d16e6570723b47a16f64d5b33ef623"}, {"bike_id": "32d0f396234b0c0c7b385da8683cea7e", "type": "electric_scooter", "is_disabled": 0, "lat": 38.90008016666667, "rental_uris": {"ios": "https://dc.lft.to/lastmile_qr_scan", "android": "https://dc.lft.to/lastmile_qr_scan"}, "is_reserved": 0, "fusion_lon": 0.0, "fusion_lat": 0.0, "lon": -77.0449725, "name": "32d0f396234b0c0c7b385da8683cea7e"}, {"bike_id": "72b20cf5031fba4097c9fee0f66052fb", "type": "electric_scooter", "is_disabled": 0, "lat": 38.937903666666664, "rental_uris": {"ios": "https://dc.lft.to/lastmile_qr_scan", "android": "https://dc.lft.to/lastmile_qr_scan"}, "is_reserved": 0, "fusion_lon": 0.0, "fusion_lat": 0.0, "lon": -77.03299533333333, "name": "72b20cf5031fba4097c9fee0f66052fb"}, {"bike_id": "4f67dc76cddd1b08c5622bcbd6df5b28", "type": "electric_scooter", "is_disabled": 0, "lat": 38.89876433333333, "rental_uris": {"ios": "https://dc.lft.to/lastmile_qr_scan", "android": "https://dc.lft.to/lastmile_qr_scan"}, "is_reserved": 0, "fusion_lon": 0.0, "fusion_lat": 0.0, "lon": -76.93184966666666, "name": "4f67dc76cddd1b08c5622bcbd6df5b28"}, {"bike_id": "69259a38445b8164dcd130c17fdb1379", "type": "electric_scooter", "is_disabled": 0, "lat": 38.888588666666664, "rental_uris": {"ios": "https://dc.lft.to/lastmile_qr_scan", "android": "https://dc.lft.to/lastmile_qr_scan"}, "is_reserved": 0, "fusion_lon": 0.0, "fusion_lat": 0.0, "lon": -77.00056733333334, "name": "69259a38445b8164dcd130c17fdb1379"}, {"bike_id": "23ddd69d2f4aae76705443648fb4e30d", "type": "electric_bike", "is_disabled": 0, "lat": 38.88245466666667, "rental_uris": {"ios": "https://dc.lft.to/lastmile_qr_scan", "android": "https://dc.lft.to/lastmile_qr_scan"}, "is_reserved": 0, "fusion_lon": 0.0, "fusion_lat": 0.0, "lon": -76.96255233333333, "name": "23ddd69d2f4aae76705443648fb4e30d"}, {"bike_id": "3f3ffb4e683229ee49cd2e548618299c", "type": "electric_scooter", "is_disabled": 0, "lat": 38.844349666666666, "rental_uris": {"ios": "https://dc.lft.to/lastmile_qr_scan", "android": "https://dc.lft.to/lastmile_qr_scan"}, "is_reserved": 0, "fusion_lon": 0.0, "fusion_lat": 0.0, "lon": -76.99781866666666, "name": "3f3ffb4e683229ee49cd2e548618299c"}, {"bike_id": "823f5234b0ad6d2b697db6265881e1e1", "type": "electric_bike", "is_disabled": 0, "lat": 39.0431415, "rental_uris": {"ios": "https://dc.lft.to/lastmile_qr_scan", "android": "https://dc.lft.to/lastmile_qr_scan"}, "is_reserved": 0, "fusion_lon": 0.0, "fusion_lat": 0.0, "lon": -77.05159883333333, "name": "823f5234b0ad6d2b697db6265881e1e1"}, {"bike_id": "2ccc513801d40ef954162c693ada10a8", "type": "electric_scooter", "is_disabled": 0, "lat": 38.90585466666667, "rental_uris": {"ios": "https://dc.lft.to/lastmile_qr_scan", "android": "https://dc.lft.to/lastmile_qr_scan"}, "is_reserved": 0, "fusion_lon": 0.0, "fusion_lat": 0.0, "lon": -77.0346795, "name": "2ccc513801d40ef954162c693ada10a8"}, {"bike_id": "d0f9a51a0faca57e67d112293f39a3d3", "type": "electric_scooter", "is_disabled": 0, "lat": 38.93292866666667, "rental_uris": {"ios": "https://dc.lft.to/lastmile_qr_scan", "android": "https://dc.lft.to/lastmile_qr_scan"}, "is_reserved": 0, "fusion_lon": 0.0, "fusion_lat": 0.0, "lon": -77.035409, "name": "d0f9a51a0faca57e67d112293f39a3d3"}, {"bike_id": "618b64cf44629d1adc610d2bfd16d498", "type": "electric_bike", "is_disabled": 0, "lat": 38.9074285, "rental_uris": {"ios": "https://dc.lft.to/lastmile_qr_scan", "android": "https://dc.lft.to/lastmile_qr_scan"}, "is_reserved": 0, "fusion_lon": 0.0, "fusion_lat": 0.0, "lon": -76.98679516666667, "name": "618b64cf44629d1adc610d2bfd16d498"}, {"bike_id": "93fbd7833a5f753efd8023884ef4d581", "type": "electric_bike", "is_disabled": 0, "lat": 38.823789833333336, "rental_uris": {"ios": "https://dc.lft.to/lastmile_qr_scan", "android": "https://dc.lft.to/lastmile_qr_scan"}, "is_reserved": 0, "fusion_lon": 0.0, "fusion_lat": 0.0, "lon": -77.00223416666667, "name": "93fbd7833a5f753efd8023884ef4d581"}, {"bike_id": "15cdbac675e2168b3d8d071067f08def", "type": "electric_scooter", "is_disabled": 0, "lat": 38.9235895, "rental_uris": {"ios": "https://dc.lft.to/lastmile_qr_scan", "android": "https://dc.lft.to/lastmile_qr_scan"}, "is_reserved": 0, "fusion_lon": 0.0, "fusion_lat": 0.0, "lon": -77.05282183333334, "name": "15cdbac675e2168b3d8d071067f08def"}, {"bike_id": "a087dfe5ee0a6815584ec09d8f5bc0e9", "type": "electric_scooter", "is_disabled": 0, "lat": 38.87946866666667, "rental_uris": {"ios": "https://dc.lft.to/lastmile_qr_scan", "android": "https://dc.lft.to/lastmile_qr_scan"}, "is_reserved": 0, "fusion_lon": 0.0, "fusion_lat": 0.0, "lon": -77.02360616666667, "name": "a087dfe5ee0a6815584ec09d8f5bc0e9"}, {"bike_id": "76835178c7ab39689f91e543f37eddd3", "type": "electric_scooter", "is_disabled": 0, "lat": 38.8976615, "rental_uris": {"ios": "https://dc.lft.to/lastmile_qr_scan", "android": "https://dc.lft.to/lastmile_qr_scan"}, "is_reserved": 0, "fusion_lon": 0.0, "fusion_lat": 0.0, "lon": -77.022286, "name": "76835178c7ab39689f91e543f37eddd3"}, {"bike_id": "d02fc7a80dc63a11e7035151c968c889", "type": "electric_scooter", "is_disabled": 0, "lat": 38.893578833333336, "rental_uris": {"ios": "https://dc.lft.to/lastmile_qr_scan", "android": "https://dc.lft.to/lastmile_qr_scan"}, "is_reserved": 0, "fusion_lon": 0.0, "fusion_lat": 0.0, "lon": -76.949345, "name": "d02fc7a80dc63a11e7035151c968c889"}, {"bike_id": "28cf176ca2b0fbb66af4092005d48c91", "type": "electric_scooter", "is_disabled": 0, "lat": 38.902449, "rental_uris": {"ios": "https://dc.lft.to/lastmile_qr_scan", "android": "https://dc.lft.to/lastmile_qr_scan"}, "is_reserved": 0, "fusion_lon": 0.0, "fusion_lat": 0.0, "lon": -77.046347, "name": "28cf176ca2b0fbb66af4092005d48c91"}, {"bike_id": "44d562a3df3bd19205dbef4f86769644", "type": "electric_scooter", "is_disabled": 0, "lat": 38.89607633333333, "rental_uris": {"ios": "https://dc.lft.to/lastmile_qr_scan", "android": "https://dc.lft.to/lastmile_qr_scan"}, "is_reserved": 0, "fusion_lon": 0.0, "fusion_lat": 0.0, "lon": -77.0543805, "name": "44d562a3df3bd19205dbef4f86769644"}, {"bike_id": "f1838f1c34d5de840d45d3c783ba5ea5", "type": "electric_scooter", "is_disabled": 0, "lat": 38.91998733333333, "rental_uris": {"ios": "https://dc.lft.to/lastmile_qr_scan", "android": "https://dc.lft.to/lastmile_qr_scan"}, "is_reserved": 0, "fusion_lon": 0.0, "fusion_lat": 0.0, "lon": -77.04182316666666, "name": "f1838f1c34d5de840d45d3c783ba5ea5"}, {"bike_id": "07b4c695404ad5a7a9f2b35d917880c7", "type": "electric_scooter", "is_disabled": 0, "lat": 38.90366133333333, "rental_uris": {"ios": "https://dc.lft.to/lastmile_qr_scan", "android": "https://dc.lft.to/lastmile_qr_scan"}, "is_reserved": 0, "fusion_lon": 0.0, "fusion_lat": 0.0, "lon": -76.9994735, "name": "07b4c695404ad5a7a9f2b35d917880c7"}, {"bike_id": "a623c76d4a9e2b29e616fa294debe00e", "type": "electric_scooter", "is_disabled": 0, "lat": 38.9279965, "rental_uris": {"ios": "https://dc.lft.to/lastmile_qr_scan", "android": "https://dc.lft.to/lastmile_qr_scan"}, "is_reserved": 0, "fusion_lon": 0.0, "fusion_lat": 0.0, "lon": -77.03205733333333, "name": "a623c76d4a9e2b29e616fa294debe00e"}, {"bike_id": "653078b5bd16bbf4f17cc49c76fb7ca3", "type": "electric_scooter", "is_disabled": 0, "lat": 38.91574633333333, "rental_uris": {"ios": "https://dc.lft.to/lastmile_qr_scan", "android": "https://dc.lft.to/lastmile_qr_scan"}, "is_reserved": 0, "fusion_lon": 0.0, "fusion_lat": 0.0, "lon": -77.050085, "name": "653078b5bd16bbf4f17cc49c76fb7ca3"}, {"bike_id": "ab33e33e2781eb788122fb3241ab8509", "type": "electric_scooter", "is_disabled": 0, "lat": 38.914047, "rental_uris": {"ios": "https://dc.lft.to/lastmile_qr_scan", "android": "https://dc.lft.to/lastmile_qr_scan"}, "is_reserved": 0, "fusion_lon": 0.0, "fusion_lat": 0.0, "lon": -77.03176616666667, "name": "ab33e33e2781eb788122fb3241ab8509"}, {"bike_id": "48eed7bd811205b4a37bf95644363a6b", "type": "electric_scooter", "is_disabled": 0, "lat": 38.904101, "rental_uris": {"ios": "https://dc.lft.to/lastmile_qr_scan", "android": "https://dc.lft.to/lastmile_qr_scan"}, "is_reserved": 0, "fusion_lon": 0.0, "fusion_lat": 0.0, "lon": -77.005841, "name": "48eed7bd811205b4a37bf95644363a6b"}, {"bike_id": "58f5b2d28b925f89b61b0a9dc5b67928", "type": "electric_scooter", "is_disabled": 0, "lat": 38.905411666666666, "rental_uris": {"ios": "https://dc.lft.to/lastmile_qr_scan", "android": "https://dc.lft.to/lastmile_qr_scan"}, "is_reserved": 0, "fusion_lon": 0.0, "fusion_lat": 0.0, "lon": -77.06888216666667, "name": "58f5b2d28b925f89b61b0a9dc5b67928"}, {"bike_id": "1315cff409d3c38ad846844426a54c7e", "type": "electric_scooter", "is_disabled": 0, "lat": 38.88744466666667, "rental_uris": {"ios": "https://dc.lft.to/lastmile_qr_scan", "android": "https://dc.lft.to/lastmile_qr_scan"}, "is_reserved": 0, "fusion_lon": 0.0, "fusion_lat": 0.0, "lon": -76.99627833333334, "name": "1315cff409d3c38ad846844426a54c7e"}, {"bike_id": "5f426b3c128749f964a3796f382d03f3", "type": "electric_bike", "is_disabled": 0, "lat": 39.05493383333334, "rental_uris": {"ios": "https://dc.lft.to/lastmile_qr_scan", "android": "https://dc.lft.to/lastmile_qr_scan"}, "is_reserved": 0, "fusion_lon": 0.0, "fusion_lat": 0.0, "lon": -77.11786716666667, "name": "5f426b3c128749f964a3796f382d03f3"}, {"bike_id": "b14a7190e461f48ccf33241d6d6bedf8", "type": "electric_scooter", "is_disabled": 0, "lat": 38.90836433333333, "rental_uris": {"ios": "https://dc.lft.to/lastmile_qr_scan", "android": "https://dc.lft.to/lastmile_qr_scan"}, "is_reserved": 0, "fusion_lon": 0.0, "fusion_lat": 0.0, "lon": -77.02204183333333, "name": "b14a7190e461f48ccf33241d6d6bedf8"}, {"bike_id": "a450e4248ad867d2b9814fd593f7f53b", "type": "electric_bike", "is_disabled": 0, "lat": 39.03731466666667, "rental_uris": {"ios": "https://dc.lft.to/lastmile_qr_scan", "android": "https://dc.lft.to/lastmile_qr_scan"}, "is_reserved": 0, "fusion_lon": 0.0, "fusion_lat": 0.0, "lon": -77.05475833333334, "name": "a450e4248ad867d2b9814fd593f7f53b"}, {"bike_id": "1612f4889e488a8b5020202a85170989", "type": "electric_bike", "is_disabled": 0, "lat": 38.90830666666667, "rental_uris": {"ios": "https://dc.lft.to/lastmile_qr_scan", "android": "https://dc.lft.to/lastmile_qr_scan"}, "is_reserved": 0, "fusion_lon": 0.0, "fusion_lat": 0.0, "lon": -76.94159333333333, "name": "1612f4889e488a8b5020202a85170989"}, {"bike_id": "5ce79dfba9e4e469dcfbe39029f7a33c", "type": "electric_scooter", "is_disabled": 0, "lat": 38.93636816666667, "rental_uris": {"ios": "https://dc.lft.to/lastmile_qr_scan", "android": "https://dc.lft.to/lastmile_qr_scan"}, "is_reserved": 0, "fusion_lon": 0.0, "fusion_lat": 0.0, "lon": -77.058865, "name": "5ce79dfba9e4e469dcfbe39029f7a33c"}, {"bike_id": "ec1e75ee374d0dd95c50cabd18c82870", "type": "electric_scooter", "is_disabled": 0, "lat": 38.90559983333333, "rental_uris": {"ios": "https://dc.lft.to/lastmile_qr_scan", "android": "https://dc.lft.to/lastmile_qr_scan"}, "is_reserved": 0, "fusion_lon": 0.0, "fusion_lat": 0.0, "lon": -77.03825633333334, "name": "ec1e75ee374d0dd95c50cabd18c82870"}, {"bike_id": "63ed29e0eb36ce5cd3bfee640afd8282", "type": "electric_scooter", "is_disabled": 0, "lat": 38.9065095, "rental_uris": {"ios": "https://dc.lft.to/lastmile_qr_scan", "android": "https://dc.lft.to/lastmile_qr_scan"}, "is_reserved": 0, "fusion_lon": 0.0, "fusion_lat": 0.0, "lon": -77.01438416666667, "name": "63ed29e0eb36ce5cd3bfee640afd8282"}, {"bike_id": "4e8a044c934e1178c15f684307fd9079", "type": "electric_scooter", "is_disabled": 0, "lat": 38.90534783333333, "rental_uris": {"ios": "https://dc.lft.to/lastmile_qr_scan", "android": "https://dc.lft.to/lastmile_qr_scan"}, "is_reserved": 0, "fusion_lon": 0.0, "fusion_lat": 0.0, "lon": -77.05683083333334, "name": "4e8a044c934e1178c15f684307fd9079"}, {"bike_id": "9061bc5906620b245f2431179496a267", "type": "electric_scooter", "is_disabled": 0, "lat": 38.906931166666666, "rental_uris": {"ios": "https://dc.lft.to/lastmile_qr_scan", "android": "https://dc.lft.to/lastmile_qr_scan"}, "is_reserved": 0, "fusion_lon": 0.0, "fusion_lat": 0.0, "lon": -77.06370483333333, "name": "9061bc5906620b245f2431179496a267"}, {"bike_id": "7b3f3c3812bca4c14f410883560f6b3a", "type": "electric_scooter", "is_disabled": 0, "lat": 38.94212116666667, "rental_uris": {"ios": "https://dc.lft.to/lastmile_qr_scan", "android": "https://dc.lft.to/lastmile_qr_scan"}, "is_reserved": 0, "fusion_lon": 0.0, "fusion_lat": 0.0, "lon": -77.0258375, "name": "7b3f3c3812bca4c14f410883560f6b3a"}, {"bike_id": "970f096a77b777886506a2c1f24b7ce5", "type": "electric_scooter", "is_disabled": 0, "lat": 38.8987685, "rental_uris": {"ios": "https://dc.lft.to/lastmile_qr_scan", "android": "https://dc.lft.to/lastmile_qr_scan"}, "is_reserved": 0, "fusion_lon": 0.0, "fusion_lat": 0.0, "lon": -76.93185483333333, "name": "970f096a77b777886506a2c1f24b7ce5"}, {"bike_id": "abe93f6fade8cbc165edefa626c658d7", "type": "electric_scooter", "is_disabled": 0, "lat": 38.935408, "rental_uris": {"ios": "https://dc.lft.to/lastmile_qr_scan", "android": "https://dc.lft.to/lastmile_qr_scan"}, "is_reserved": 0, "fusion_lon": 0.0, "fusion_lat": 0.0, "lon": -77.03416816666666, "name": "abe93f6fade8cbc165edefa626c658d7"}, {"bike_id": "54b291e466d4c9b926a21393df24bef6", "type": "electric_scooter", "is_disabled": 0, "lat": 38.9117805, "rental_uris": {"ios": "https://dc.lft.to/lastmile_qr_scan", "android": "https://dc.lft.to/lastmile_qr_scan"}, "is_reserved": 0, "fusion_lon": 0.0, "fusion_lat": 0.0, "lon": -77.02963283333334, "name": "54b291e466d4c9b926a21393df24bef6"}, {"bike_id": "d16ff722118bc68729257f77f917142d", "type": "electric_scooter", "is_disabled": 0, "lat": 38.924879, "rental_uris": {"ios": "https://dc.lft.to/lastmile_qr_scan", "android": "https://dc.lft.to/lastmile_qr_scan"}, "is_reserved": 0, "fusion_lon": 0.0, "fusion_lat": 0.0, "lon": -77.05759483333334, "name": "d16ff722118bc68729257f77f917142d"}, {"bike_id": "6bf8a1c280c6a082e8ac6793fc0dec0c", "type": "electric_scooter", "is_disabled": 0, "lat": 38.929298, "rental_uris": {"ios": "https://dc.lft.to/lastmile_qr_scan", "android": "https://dc.lft.to/lastmile_qr_scan"}, "is_reserved": 0, "fusion_lon": 0.0, "fusion_lat": 0.0, "lon": -77.0327985, "name": "6bf8a1c280c6a082e8ac6793fc0dec0c"}, {"bike_id": "8002e03a79d29314ef15f81e2a54b57f", "type": "electric_scooter", "is_disabled": 0, "lat": 38.93362466666667, "rental_uris": {"ios": "https://dc.lft.to/lastmile_qr_scan", "android": "https://dc.lft.to/lastmile_qr_scan"}, "is_reserved": 0, "fusion_lon": 0.0, "fusion_lat": 0.0, "lon": -77.08859916666667, "name": "8002e03a79d29314ef15f81e2a54b57f"}, {"bike_id": "4c33e418c768460b375513729ab22d24", "type": "electric_scooter", "is_disabled": 0, "lat": 38.9236385, "rental_uris": {"ios": "https://dc.lft.to/lastmile_qr_scan", "android": "https://dc.lft.to/lastmile_qr_scan"}, "is_reserved": 0, "fusion_lon": 0.0, "fusion_lat": 0.0, "lon": -77.01971333333333, "name": "4c33e418c768460b375513729ab22d24"}, {"bike_id": "85df0439bdcd232b1da5e51a697f12a5", "type": "electric_scooter", "is_disabled": 0, "lat": 38.9141905, "rental_uris": {"ios": "https://dc.lft.to/lastmile_qr_scan", "android": "https://dc.lft.to/lastmile_qr_scan"}, "is_reserved": 0, "fusion_lon": 0.0, "fusion_lat": 0.0, "lon": -77.03906466666666, "name": "85df0439bdcd232b1da5e51a697f12a5"}, {"bike_id": "5ab489482d773f85df88184e2e159454", "type": "electric_scooter", "is_disabled": 0, "lat": 38.86626533333333, "rental_uris": {"ios": "https://dc.lft.to/lastmile_qr_scan", "android": "https://dc.lft.to/lastmile_qr_scan"}, "is_reserved": 0, "fusion_lon": 0.0, "fusion_lat": 0.0, "lon": -76.98718983333333, "name": "5ab489482d773f85df88184e2e159454"}, {"bike_id": "7390a02535b9ea7409eee5ed4b4f12c1", "type": "electric_scooter", "is_disabled": 0, "lat": 38.903767, "rental_uris": {"ios": "https://dc.lft.to/lastmile_qr_scan", "android": "https://dc.lft.to/lastmile_qr_scan"}, "is_reserved": 0, "fusion_lon": 0.0, "fusion_lat": 0.0, "lon": -77.02405566666667, "name": "7390a02535b9ea7409eee5ed4b4f12c1"}, {"bike_id": "2847e7829dffb3fc8e569f5598748f2a", "type": "electric_scooter", "is_disabled": 0, "lat": 38.926584, "rental_uris": {"ios": "https://dc.lft.to/lastmile_qr_scan", "android": "https://dc.lft.to/lastmile_qr_scan"}, "is_reserved": 0, "fusion_lon": 0.0, "fusion_lat": 0.0, "lon": -77.0372665, "name": "2847e7829dffb3fc8e569f5598748f2a"}, {"bike_id": "4232937d1abd57f7614f95899b2c0f2f", "type": "electric_scooter", "is_disabled": 0, "lat": 38.91561466666667, "rental_uris": {"ios": "https://dc.lft.to/lastmile_qr_scan", "android": "https://dc.lft.to/lastmile_qr_scan"}, "is_reserved": 0, "fusion_lon": 0.0, "fusion_lat": 0.0, "lon": -77.04508983333334, "name": "4232937d1abd57f7614f95899b2c0f2f"}, {"bike_id": "a9f56e1880649e04fc52254cb8ab810c", "type": "electric_scooter", "is_disabled": 0, "lat": 38.90510333333334, "rental_uris": {"ios": "https://dc.lft.to/lastmile_qr_scan", "android": "https://dc.lft.to/lastmile_qr_scan"}, "is_reserved": 0, "fusion_lon": 0.0, "fusion_lat": 0.0, "lon": -77.04161016666667, "name": "a9f56e1880649e04fc52254cb8ab810c"}, {"bike_id": "49fd36b0e8b9833543971f14ac1fb3a1", "type": "electric_scooter", "is_disabled": 0, "lat": 38.91603166666667, "rental_uris": {"ios": "https://dc.lft.to/lastmile_qr_scan", "android": "https://dc.lft.to/lastmile_qr_scan"}, "is_reserved": 0, "fusion_lon": 0.0, "fusion_lat": 0.0, "lon": -77.02300916666667, "name": "49fd36b0e8b9833543971f14ac1fb3a1"}, {"bike_id": "4e0ad8c2443ff7c735702fa043de774b", "type": "electric_scooter", "is_disabled": 0, "lat": 38.92421233333334, "rental_uris": {"ios": "https://dc.lft.to/lastmile_qr_scan", "android": "https://dc.lft.to/lastmile_qr_scan"}, "is_reserved": 0, "fusion_lon": 0.0, "fusion_lat": 0.0, "lon": -77.02009833333334, "name": "4e0ad8c2443ff7c735702fa043de774b"}, {"bike_id": "b0cd212fcf8ff27f35429b22030b6150", "type": "electric_scooter", "is_disabled": 0, "lat": 38.9055255, "rental_uris": {"ios": "https://dc.lft.to/lastmile_qr_scan", "android": "https://dc.lft.to/lastmile_qr_scan"}, "is_reserved": 0, "fusion_lon": 0.0, "fusion_lat": 0.0, "lon": -77.0059265, "name": "b0cd212fcf8ff27f35429b22030b6150"}, {"bike_id": "cd583b72ea22d4e585d7daf84d6f6d64", "type": "electric_scooter", "is_disabled": 0, "lat": 38.90967033333333, "rental_uris": {"ios": "https://dc.lft.to/lastmile_qr_scan", "android": "https://dc.lft.to/lastmile_qr_scan"}, "is_reserved": 0, "fusion_lon": 0.0, "fusion_lat": 0.0, "lon": -77.0336705, "name": "cd583b72ea22d4e585d7daf84d6f6d64"}, {"bike_id": "82febe500676aba8b889f92c5d0339a0", "type": "electric_scooter", "is_disabled": 0, "lat": 38.944802, "rental_uris": {"ios": "https://dc.lft.to/lastmile_qr_scan", "android": "https://dc.lft.to/lastmile_qr_scan"}, "is_reserved": 0, "fusion_lon": 0.0, "fusion_lat": 0.0, "lon": -77.06369483333333, "name": "82febe500676aba8b889f92c5d0339a0"}, {"bike_id": "02c0b352a3c2be2ea82fe7257a8e917b", "type": "electric_bike", "is_disabled": 0, "lat": 38.87298716666667, "rental_uris": {"ios": "https://dc.lft.to/lastmile_qr_scan", "android": "https://dc.lft.to/lastmile_qr_scan"}, "is_reserved": 0, "fusion_lon": 0.0, "fusion_lat": 0.0, "lon": -77.1392785, "name": "02c0b352a3c2be2ea82fe7257a8e917b"}, {"bike_id": "fd9909b6af3223b83a672467c2a9d456", "type": "electric_scooter", "is_disabled": 0, "lat": 38.90311283333333, "rental_uris": {"ios": "https://dc.lft.to/lastmile_qr_scan", "android": "https://dc.lft.to/lastmile_qr_scan"}, "is_reserved": 0, "fusion_lon": 0.0, "fusion_lat": 0.0, "lon": -76.983575, "name": "fd9909b6af3223b83a672467c2a9d456"}, {"bike_id": "3cf845440c4b5acdaa18d3672576c663", "type": "electric_scooter", "is_disabled": 0, "lat": 38.927505833333335, "rental_uris": {"ios": "https://dc.lft.to/lastmile_qr_scan", "android": "https://dc.lft.to/lastmile_qr_scan"}, "is_reserved": 0, "fusion_lon": 0.0, "fusion_lat": 0.0, "lon": -77.02427483333334, "name": "3cf845440c4b5acdaa18d3672576c663"}, {"bike_id": "5e9e1c8a3f3e194e07dbff1942b40e05", "type": "electric_scooter", "is_disabled": 0, "lat": 38.9154005, "rental_uris": {"ios": "https://dc.lft.to/lastmile_qr_scan", "android": "https://dc.lft.to/lastmile_qr_scan"}, "is_reserved": 0, "fusion_lon": 0.0, "fusion_lat": 0.0, "lon": -77.01268633333333, "name": "5e9e1c8a3f3e194e07dbff1942b40e05"}, {"bike_id": "b6750d48078b1e92e2e381ad28f3b291", "type": "electric_scooter", "is_disabled": 0, "lat": 38.898987166666664, "rental_uris": {"ios": "https://dc.lft.to/lastmile_qr_scan", "android": "https://dc.lft.to/lastmile_qr_scan"}, "is_reserved": 0, "fusion_lon": 0.0, "fusion_lat": 0.0, "lon": -77.02166683333333, "name": "b6750d48078b1e92e2e381ad28f3b291"}, {"bike_id": "f861a604b220aac851746cef5f95b01c", "type": "electric_scooter", "is_disabled": 0, "lat": 38.936179333333335, "rental_uris": {"ios": "https://dc.lft.to/lastmile_qr_scan", "android": "https://dc.lft.to/lastmile_qr_scan"}, "is_reserved": 0, "fusion_lon": 0.0, "fusion_lat": 0.0, "lon": -77.06755316666667, "name": "f861a604b220aac851746cef5f95b01c"}, {"bike_id": "fea420322dda623dcafc55eb8f3eeb23", "type": "electric_scooter", "is_disabled": 0, "lat": 38.9369175, "rental_uris": {"ios": "https://dc.lft.to/lastmile_qr_scan", "android": "https://dc.lft.to/lastmile_qr_scan"}, "is_reserved": 0, "fusion_lon": 0.0, "fusion_lat": 0.0, "lon": -77.019432, "name": "fea420322dda623dcafc55eb8f3eeb23"}, {"bike_id": "56ee4112f36baef7f8cd046defa432e3", "type": "electric_scooter", "is_disabled": 0, "lat": 38.936017166666666, "rental_uris": {"ios": "https://dc.lft.to/lastmile_qr_scan", "android": "https://dc.lft.to/lastmile_qr_scan"}, "is_reserved": 0, "fusion_lon": 0.0, "fusion_lat": 0.0, "lon": -77.03800716666667, "name": "56ee4112f36baef7f8cd046defa432e3"}, {"bike_id": "7319b15bd43e473a5517f91e7fd9e5ab", "type": "electric_scooter", "is_disabled": 0, "lat": 38.937580833333335, "rental_uris": {"ios": "https://dc.lft.to/lastmile_qr_scan", "android": "https://dc.lft.to/lastmile_qr_scan"}, "is_reserved": 0, "fusion_lon": 0.0, "fusion_lat": 0.0, "lon": -77.024784, "name": "7319b15bd43e473a5517f91e7fd9e5ab"}, {"bike_id": "babe70547920ad09d85ba7a7b4aeb094", "type": "electric_scooter", "is_disabled": 0, "lat": 38.879192833333335, "rental_uris": {"ios": "https://dc.lft.to/lastmile_qr_scan", "android": "https://dc.lft.to/lastmile_qr_scan"}, "is_reserved": 0, "fusion_lon": 0.0, "fusion_lat": 0.0, "lon": -77.008839, "name": "babe70547920ad09d85ba7a7b4aeb094"}, {"bike_id": "634bc5a44fd16aaa6c475d633e8f28ac", "type": "electric_scooter", "is_disabled": 0, "lat": 38.923275333333336, "rental_uris": {"ios": "https://dc.lft.to/lastmile_qr_scan", "android": "https://dc.lft.to/lastmile_qr_scan"}, "is_reserved": 0, "fusion_lon": 0.0, "fusion_lat": 0.0, "lon": -77.03776333333333, "name": "634bc5a44fd16aaa6c475d633e8f28ac"}, {"bike_id": "da877590629e1df0ba84fb90f0c14ae4", "type": "electric_scooter", "is_disabled": 0, "lat": 38.901216, "rental_uris": {"ios": "https://dc.lft.to/lastmile_qr_scan", "android": "https://dc.lft.to/lastmile_qr_scan"}, "is_reserved": 0, "fusion_lon": 0.0, "fusion_lat": 0.0, "lon": -76.92955316666666, "name": "da877590629e1df0ba84fb90f0c14ae4"}, {"bike_id": "99790c1a12576390ae3a9699b36b6fb6", "type": "electric_scooter", "is_disabled": 0, "lat": 38.90274483333334, "rental_uris": {"ios": "https://dc.lft.to/lastmile_qr_scan", "android": "https://dc.lft.to/lastmile_qr_scan"}, "is_reserved": 0, "fusion_lon": 0.0, "fusion_lat": 0.0, "lon": -77.00357983333333, "name": "99790c1a12576390ae3a9699b36b6fb6"}, {"bike_id": "a361e2719b9c6c544c5e2993c35ec198", "type": "electric_scooter", "is_disabled": 0, "lat": 38.87336083333334, "rental_uris": {"ios": "https://dc.lft.to/lastmile_qr_scan", "android": "https://dc.lft.to/lastmile_qr_scan"}, "is_reserved": 0, "fusion_lon": 0.0, "fusion_lat": 0.0, "lon": -76.96788116666667, "name": "a361e2719b9c6c544c5e2993c35ec198"}, {"bike_id": "524cbc14ba7281a9705120777f5df46a", "type": "electric_bike", "is_disabled": 0, "lat": 38.97399866666667, "rental_uris": {"ios": "https://dc.lft.to/lastmile_qr_scan", "android": "https://dc.lft.to/lastmile_qr_scan"}, "is_reserved": 0, "fusion_lon": 0.0, "fusion_lat": 0.0, "lon": -77.06457483333334, "name": "524cbc14ba7281a9705120777f5df46a"}, {"bike_id": "db3cea8aca74e0cdc07000d8ae8b5696", "type": "electric_scooter", "is_disabled": 0, "lat": 38.899071, "rental_uris": {"ios": "https://dc.lft.to/lastmile_qr_scan", "android": "https://dc.lft.to/lastmile_qr_scan"}, "is_reserved": 0, "fusion_lon": 0.0, "fusion_lat": 0.0, "lon": -77.03921783333334, "name": "db3cea8aca74e0cdc07000d8ae8b5696"}, {"bike_id": "15b9a2802d7cc65bfd3fecef4b6129a2", "type": "electric_scooter", "is_disabled": 0, "lat": 38.956269, "rental_uris": {"ios": "https://dc.lft.to/lastmile_qr_scan", "android": "https://dc.lft.to/lastmile_qr_scan"}, "is_reserved": 0, "fusion_lon": 0.0, "fusion_lat": 0.0, "lon": -77.03621666666666, "name": "15b9a2802d7cc65bfd3fecef4b6129a2"}, {"bike_id": "a87eadd52878596976b5b80433a21ff8", "type": "electric_scooter", "is_disabled": 0, "lat": 38.910507, "rental_uris": {"ios": "https://dc.lft.to/lastmile_qr_scan", "android": "https://dc.lft.to/lastmile_qr_scan"}, "is_reserved": 0, "fusion_lon": 0.0, "fusion_lat": 0.0, "lon": -77.04345016666667, "name": "a87eadd52878596976b5b80433a21ff8"}, {"bike_id": "351a34750b7565c0f0bf39f43b96b549", "type": "electric_scooter", "is_disabled": 0, "lat": 38.871777, "rental_uris": {"ios": "https://dc.lft.to/lastmile_qr_scan", "android": "https://dc.lft.to/lastmile_qr_scan"}, "is_reserved": 0, "fusion_lon": 0.0, "fusion_lat": 0.0, "lon": -77.00610083333333, "name": "351a34750b7565c0f0bf39f43b96b549"}, {"bike_id": "ca8c4877fd2076606a18a1f0a46f7ca0", "type": "electric_scooter", "is_disabled": 0, "lat": 38.938951833333334, "rental_uris": {"ios": "https://dc.lft.to/lastmile_qr_scan", "android": "https://dc.lft.to/lastmile_qr_scan"}, "is_reserved": 0, "fusion_lon": 0.0, "fusion_lat": 0.0, "lon": -77.03327883333333, "name": "ca8c4877fd2076606a18a1f0a46f7ca0"}, {"bike_id": "e4012310cfbfe8d1d5ad7d2a3419d590", "type": "electric_scooter", "is_disabled": 0, "lat": 38.91744683333334, "rental_uris": {"ios": "https://dc.lft.to/lastmile_qr_scan", "android": "https://dc.lft.to/lastmile_qr_scan"}, "is_reserved": 0, "fusion_lon": 0.0, "fusion_lat": 0.0, "lon": -77.02806733333334, "name": "e4012310cfbfe8d1d5ad7d2a3419d590"}, {"bike_id": "277ace585a90601dbd6c2c075f715f48", "type": "electric_scooter", "is_disabled": 0, "lat": 38.9257935, "rental_uris": {"ios": "https://dc.lft.to/lastmile_qr_scan", "android": "https://dc.lft.to/lastmile_qr_scan"}, "is_reserved": 0, "fusion_lon": 0.0, "fusion_lat": 0.0, "lon": -77.022877, "name": "277ace585a90601dbd6c2c075f715f48"}, {"bike_id": "ae23348134c65088a99658ab318fe993", "type": "electric_bike", "is_disabled": 0, "lat": 38.864861, "rental_uris": {"ios": "https://dc.lft.to/lastmile_qr_scan", "android": "https://dc.lft.to/lastmile_qr_scan"}, "is_reserved": 0, "fusion_lon": 0.0, "fusion_lat": 0.0, "lon": -76.977485, "name": "ae23348134c65088a99658ab318fe993"}, {"bike_id": "20a7c58e3aceaf63d111f4928b0b0b8f", "type": "electric_scooter", "is_disabled": 0, "lat": 38.8928555, "rental_uris": {"ios": "https://dc.lft.to/lastmile_qr_scan", "android": "https://dc.lft.to/lastmile_qr_scan"}, "is_reserved": 0, "fusion_lon": 0.0, "fusion_lat": 0.0, "lon": -77.026305, "name": "20a7c58e3aceaf63d111f4928b0b0b8f"}, {"bike_id": "ec507dc9c41c55373c360ec6ee07a39e", "type": "electric_bike", "is_disabled": 0, "lat": 38.808266833333334, "rental_uris": {"ios": "https://dc.lft.to/lastmile_qr_scan", "android": "https://dc.lft.to/lastmile_qr_scan"}, "is_reserved": 0, "fusion_lon": 0.0, "fusion_lat": 0.0, "lon": -77.101426, "name": "ec507dc9c41c55373c360ec6ee07a39e"}, {"bike_id": "a977707cb3749fd604d16b18f735786f", "type": "electric_scooter", "is_disabled": 0, "lat": 38.8663185, "rental_uris": {"ios": "https://dc.lft.to/lastmile_qr_scan", "android": "https://dc.lft.to/lastmile_qr_scan"}, "is_reserved": 0, "fusion_lon": 0.0, "fusion_lat": 0.0, "lon": -76.98718466666666, "name": "a977707cb3749fd604d16b18f735786f"}, {"bike_id": "30f3f07adb663b0069515bd73a6acd00", "type": "electric_scooter", "is_disabled": 0, "lat": 38.870703666666664, "rental_uris": {"ios": "https://dc.lft.to/lastmile_qr_scan", "android": "https://dc.lft.to/lastmile_qr_scan"}, "is_reserved": 0, "fusion_lon": 0.0, "fusion_lat": 0.0, "lon": -76.98126216666667, "name": "30f3f07adb663b0069515bd73a6acd00"}, {"bike_id": "860c23daf7d854fa2380a10a41d55506", "type": "electric_scooter", "is_disabled": 0, "lat": 38.914872833333334, "rental_uris": {"ios": "https://dc.lft.to/lastmile_qr_scan", "android": "https://dc.lft.to/lastmile_qr_scan"}, "is_reserved": 0, "fusion_lon": 0.0, "fusion_lat": 0.0, "lon": -77.0249995, "name": "860c23daf7d854fa2380a10a41d55506"}, {"bike_id": "154a2ebe7b10ccef4b63aab2dab5dfd9", "type": "electric_scooter", "is_disabled": 0, "lat": 38.94198633333333, "rental_uris": {"ios": "https://dc.lft.to/lastmile_qr_scan", "android": "https://dc.lft.to/lastmile_qr_scan"}, "is_reserved": 0, "fusion_lon": 0.0, "fusion_lat": 0.0, "lon": -77.025479, "name": "154a2ebe7b10ccef4b63aab2dab5dfd9"}, {"bike_id": "142ef402a40521502fa2f1d5a3b3e717", "type": "electric_scooter", "is_disabled": 0, "lat": 38.85817, "rental_uris": {"ios": "https://dc.lft.to/lastmile_qr_scan", "android": "https://dc.lft.to/lastmile_qr_scan"}, "is_reserved": 0, "fusion_lon": 0.0, "fusion_lat": 0.0, "lon": -76.98926866666666, "name": "142ef402a40521502fa2f1d5a3b3e717"}, {"bike_id": "6032fbe932aef99715ed3fa9eff4dc64", "type": "electric_scooter", "is_disabled": 0, "lat": 38.93981616666667, "rental_uris": {"ios": "https://dc.lft.to/lastmile_qr_scan", "android": "https://dc.lft.to/lastmile_qr_scan"}, "is_reserved": 0, "fusion_lon": 0.0, "fusion_lat": 0.0, "lon": -77.02871333333333, "name": "6032fbe932aef99715ed3fa9eff4dc64"}, {"bike_id": "12a3f6a801f4444c168f95a8653693a7", "type": "electric_scooter", "is_disabled": 0, "lat": 38.900771166666665, "rental_uris": {"ios": "https://dc.lft.to/lastmile_qr_scan", "android": "https://dc.lft.to/lastmile_qr_scan"}, "is_reserved": 0, "fusion_lon": 0.0, "fusion_lat": 0.0, "lon": -77.04691166666667, "name": "12a3f6a801f4444c168f95a8653693a7"}, {"bike_id": "033b1ff102e14559a082cef07c440d74", "type": "electric_scooter", "is_disabled": 0, "lat": 38.9126405, "rental_uris": {"ios": "https://dc.lft.to/lastmile_qr_scan", "android": "https://dc.lft.to/lastmile_qr_scan"}, "is_reserved": 0, "fusion_lon": 0.0, "fusion_lat": 0.0, "lon": -77.00221133333334, "name": "033b1ff102e14559a082cef07c440d74"}, {"bike_id": "c395c980ca4db2d5d37b6d7bdfd2b8c6", "type": "electric_scooter", "is_disabled": 0, "lat": 38.9000635, "rental_uris": {"ios": "https://dc.lft.to/lastmile_qr_scan", "android": "https://dc.lft.to/lastmile_qr_scan"}, "is_reserved": 0, "fusion_lon": 0.0, "fusion_lat": 0.0, "lon": -77.00378533333334, "name": "c395c980ca4db2d5d37b6d7bdfd2b8c6"}, {"bike_id": "78a1b224ed4adb1546897f0a5d5d1539", "type": "electric_bike", "is_disabled": 0, "lat": 38.80396283333333, "rental_uris": {"ios": "https://dc.lft.to/lastmile_qr_scan", "android": "https://dc.lft.to/lastmile_qr_scan"}, "is_reserved": 0, "fusion_lon": 0.0, "fusion_lat": 0.0, "lon": -77.05559333333333, "name": "78a1b224ed4adb1546897f0a5d5d1539"}, {"bike_id": "45dea7765ae73834bdc41313e53d2533", "type": "electric_scooter", "is_disabled": 0, "lat": 38.892582166666664, "rental_uris": {"ios": "https://dc.lft.to/lastmile_qr_scan", "android": "https://dc.lft.to/lastmile_qr_scan"}, "is_reserved": 0, "fusion_lon": 0.0, "fusion_lat": 0.0, "lon": -77.03346166666667, "name": "45dea7765ae73834bdc41313e53d2533"}, {"bike_id": "eefd1ab56039fc0fe41ff2551d55e8cc", "type": "electric_scooter", "is_disabled": 0, "lat": 38.901945, "rental_uris": {"ios": "https://dc.lft.to/lastmile_qr_scan", "android": "https://dc.lft.to/lastmile_qr_scan"}, "is_reserved": 0, "fusion_lon": 0.0, "fusion_lat": 0.0, "lon": -76.98844733333334, "name": "eefd1ab56039fc0fe41ff2551d55e8cc"}, {"bike_id": "81a0cf17dd21c55f085f3d38ebd4cd9e", "type": "electric_scooter", "is_disabled": 0, "lat": 38.89228283333333, "rental_uris": {"ios": "https://dc.lft.to/lastmile_qr_scan", "android": "https://dc.lft.to/lastmile_qr_scan"}, "is_reserved": 0, "fusion_lon": 0.0, "fusion_lat": 0.0, "lon": -77.02375983333333, "name": "81a0cf17dd21c55f085f3d38ebd4cd9e"}, {"bike_id": "f55d21841567949bb708fca6428d9172", "type": "electric_scooter", "is_disabled": 0, "lat": 38.898445833333334, "rental_uris": {"ios": "https://dc.lft.to/lastmile_qr_scan", "android": "https://dc.lft.to/lastmile_qr_scan"}, "is_reserved": 0, "fusion_lon": 0.0, "fusion_lat": 0.0, "lon": -76.94634233333333, "name": "f55d21841567949bb708fca6428d9172"}, {"bike_id": "418e3a014ff0bd6b7b11d58ed6297cd7", "type": "electric_scooter", "is_disabled": 0, "lat": 38.913658, "rental_uris": {"ios": "https://dc.lft.to/lastmile_qr_scan", "android": "https://dc.lft.to/lastmile_qr_scan"}, "is_reserved": 0, "fusion_lon": 0.0, "fusion_lat": 0.0, "lon": -77.04567566666667, "name": "418e3a014ff0bd6b7b11d58ed6297cd7"}, {"bike_id": "b79a0e821bbed0b423fd2431811932fc", "type": "electric_scooter", "is_disabled": 0, "lat": 38.87477, "rental_uris": {"ios": "https://dc.lft.to/lastmile_qr_scan", "android": "https://dc.lft.to/lastmile_qr_scan"}, "is_reserved": 0, "fusion_lon": 0.0, "fusion_lat": 0.0, "lon": -77.010716, "name": "b79a0e821bbed0b423fd2431811932fc"}, {"bike_id": "93ba629abaa4bfac11efe59c1c8df3b8", "type": "electric_scooter", "is_disabled": 0, "lat": 38.90047933333334, "rental_uris": {"ios": "https://dc.lft.to/lastmile_qr_scan", "android": "https://dc.lft.to/lastmile_qr_scan"}, "is_reserved": 0, "fusion_lon": 0.0, "fusion_lat": 0.0, "lon": -77.013907, "name": "93ba629abaa4bfac11efe59c1c8df3b8"}, {"bike_id": "ad91d6272e9d943d9d149e653b0fc0c7", "type": "electric_scooter", "is_disabled": 0, "lat": 38.9407835, "rental_uris": {"ios": "https://dc.lft.to/lastmile_qr_scan", "android": "https://dc.lft.to/lastmile_qr_scan"}, "is_reserved": 0, "fusion_lon": 0.0, "fusion_lat": 0.0, "lon": -77.052193, "name": "ad91d6272e9d943d9d149e653b0fc0c7"}, {"bike_id": "c6c54a87417a942f1a6dc0fc027ca5d1", "type": "electric_scooter", "is_disabled": 0, "lat": 38.92471366666667, "rental_uris": {"ios": "https://dc.lft.to/lastmile_qr_scan", "android": "https://dc.lft.to/lastmile_qr_scan"}, "is_reserved": 0, "fusion_lon": 0.0, "fusion_lat": 0.0, "lon": -77.05209266666667, "name": "c6c54a87417a942f1a6dc0fc027ca5d1"}, {"bike_id": "564b7d796c5d23037faabc01bc6a1817", "type": "electric_scooter", "is_disabled": 0, "lat": 38.90040283333333, "rental_uris": {"ios": "https://dc.lft.to/lastmile_qr_scan", "android": "https://dc.lft.to/lastmile_qr_scan"}, "is_reserved": 0, "fusion_lon": 0.0, "fusion_lat": 0.0, "lon": -77.03665666666667, "name": "564b7d796c5d23037faabc01bc6a1817"}, {"bike_id": "1934fc6574e6fd584f5fd43028a039d2", "type": "electric_scooter", "is_disabled": 0, "lat": 38.9086435, "rental_uris": {"ios": "https://dc.lft.to/lastmile_qr_scan", "android": "https://dc.lft.to/lastmile_qr_scan"}, "is_reserved": 0, "fusion_lon": 0.0, "fusion_lat": 0.0, "lon": -77.04490083333333, "name": "1934fc6574e6fd584f5fd43028a039d2"}, {"bike_id": "ce625e4c6c335258a058da5eda9916f4", "type": "electric_scooter", "is_disabled": 0, "lat": 38.885043833333334, "rental_uris": {"ios": "https://dc.lft.to/lastmile_qr_scan", "android": "https://dc.lft.to/lastmile_qr_scan"}, "is_reserved": 0, "fusion_lon": 0.0, "fusion_lat": 0.0, "lon": -77.01732, "name": "ce625e4c6c335258a058da5eda9916f4"}, {"bike_id": "ad478aa3aa049d81f2b5780d42dc1bf5", "type": "electric_scooter", "is_disabled": 0, "lat": 38.910727333333334, "rental_uris": {"ios": "https://dc.lft.to/lastmile_qr_scan", "android": "https://dc.lft.to/lastmile_qr_scan"}, "is_reserved": 0, "fusion_lon": 0.0, "fusion_lat": 0.0, "lon": -77.03849116666666, "name": "ad478aa3aa049d81f2b5780d42dc1bf5"}, {"bike_id": "59e3caf34e49db59118e2e8eb43583f4", "type": "electric_scooter", "is_disabled": 0, "lat": 38.86683133333333, "rental_uris": {"ios": "https://dc.lft.to/lastmile_qr_scan", "android": "https://dc.lft.to/lastmile_qr_scan"}, "is_reserved": 0, "fusion_lon": 0.0, "fusion_lat": 0.0, "lon": -76.985776, "name": "59e3caf34e49db59118e2e8eb43583f4"}, {"bike_id": "b4a62b527e631cdf54ba1d77ba8afa97", "type": "electric_scooter", "is_disabled": 0, "lat": 38.87388166666667, "rental_uris": {"ios": "https://dc.lft.to/lastmile_qr_scan", "android": "https://dc.lft.to/lastmile_qr_scan"}, "is_reserved": 0, "fusion_lon": 0.0, "fusion_lat": 0.0, "lon": -77.04343466666667, "name": "b4a62b527e631cdf54ba1d77ba8afa97"}, {"bike_id": "aef9d52004f91ea02cd52dec3a5075a9", "type": "electric_scooter", "is_disabled": 0, "lat": 38.9056365, "rental_uris": {"ios": "https://dc.lft.to/lastmile_qr_scan", "android": "https://dc.lft.to/lastmile_qr_scan"}, "is_reserved": 0, "fusion_lon": 0.0, "fusion_lat": 0.0, "lon": -77.02843366666667, "name": "aef9d52004f91ea02cd52dec3a5075a9"}, {"bike_id": "56303165a49e345ea31c382553b8bec8", "type": "electric_scooter", "is_disabled": 0, "lat": 38.9182625, "rental_uris": {"ios": "https://dc.lft.to/lastmile_qr_scan", "android": "https://dc.lft.to/lastmile_qr_scan"}, "is_reserved": 0, "fusion_lon": 0.0, "fusion_lat": 0.0, "lon": -77.04944516666667, "name": "56303165a49e345ea31c382553b8bec8"}, {"bike_id": "e9a07d924ab470c196a087a44d769c1e", "type": "electric_scooter", "is_disabled": 0, "lat": 38.905319166666665, "rental_uris": {"ios": "https://dc.lft.to/lastmile_qr_scan", "android": "https://dc.lft.to/lastmile_qr_scan"}, "is_reserved": 0, "fusion_lon": 0.0, "fusion_lat": 0.0, "lon": -77.056767, "name": "e9a07d924ab470c196a087a44d769c1e"}, {"bike_id": "b1eafc36dc223ac13d154aa0d32ccb58", "type": "electric_scooter", "is_disabled": 0, "lat": 38.87095516666667, "rental_uris": {"ios": "https://dc.lft.to/lastmile_qr_scan", "android": "https://dc.lft.to/lastmile_qr_scan"}, "is_reserved": 0, "fusion_lon": 0.0, "fusion_lat": 0.0, "lon": -76.96588433333334, "name": "b1eafc36dc223ac13d154aa0d32ccb58"}, {"bike_id": "c7159f4f3169aa896a6a8ef3aa6121b0", "type": "electric_scooter", "is_disabled": 0, "lat": 38.91703, "rental_uris": {"ios": "https://dc.lft.to/lastmile_qr_scan", "android": "https://dc.lft.to/lastmile_qr_scan"}, "is_reserved": 0, "fusion_lon": 0.0, "fusion_lat": 0.0, "lon": -77.0066025, "name": "c7159f4f3169aa896a6a8ef3aa6121b0"}, {"bike_id": "95491c61b612472ce3e7435242949f49", "type": "electric_scooter", "is_disabled": 0, "lat": 38.911162166666664, "rental_uris": {"ios": "https://dc.lft.to/lastmile_qr_scan", "android": "https://dc.lft.to/lastmile_qr_scan"}, "is_reserved": 0, "fusion_lon": 0.0, "fusion_lat": 0.0, "lon": -77.038187, "name": "95491c61b612472ce3e7435242949f49"}, {"bike_id": "884a77e54b56ad8d9cb26ec3c47fd28b", "type": "electric_scooter", "is_disabled": 0, "lat": 38.91238033333333, "rental_uris": {"ios": "https://dc.lft.to/lastmile_qr_scan", "android": "https://dc.lft.to/lastmile_qr_scan"}, "is_reserved": 0, "fusion_lon": 0.0, "fusion_lat": 0.0, "lon": -77.0121135, "name": "884a77e54b56ad8d9cb26ec3c47fd28b"}, {"bike_id": "53794325916673e60284768f13d2184f", "type": "electric_scooter", "is_disabled": 0, "lat": 38.8782775, "rental_uris": {"ios": "https://dc.lft.to/lastmile_qr_scan", "android": "https://dc.lft.to/lastmile_qr_scan"}, "is_reserved": 0, "fusion_lon": 0.0, "fusion_lat": 0.0, "lon": -76.96312316666666, "name": "53794325916673e60284768f13d2184f"}, {"bike_id": "9046d1eba61cd99deacc7775fe3cf4c8", "type": "electric_scooter", "is_disabled": 0, "lat": 38.866995333333335, "rental_uris": {"ios": "https://dc.lft.to/lastmile_qr_scan", "android": "https://dc.lft.to/lastmile_qr_scan"}, "is_reserved": 0, "fusion_lon": 0.0, "fusion_lat": 0.0, "lon": -76.98717483333333, "name": "9046d1eba61cd99deacc7775fe3cf4c8"}, {"bike_id": "90e930fdd5129e76a28ab0052b1bb93f", "type": "electric_scooter", "is_disabled": 0, "lat": 38.90398716666667, "rental_uris": {"ios": "https://dc.lft.to/lastmile_qr_scan", "android": "https://dc.lft.to/lastmile_qr_scan"}, "is_reserved": 0, "fusion_lon": 0.0, "fusion_lat": 0.0, "lon": -77.06362033333333, "name": "90e930fdd5129e76a28ab0052b1bb93f"}, {"bike_id": "cca8f70e57594d752b6a5047e0aed7c7", "type": "electric_scooter", "is_disabled": 0, "lat": 38.90014133333333, "rental_uris": {"ios": "https://dc.lft.to/lastmile_qr_scan", "android": "https://dc.lft.to/lastmile_qr_scan"}, "is_reserved": 0, "fusion_lon": 0.0, "fusion_lat": 0.0, "lon": -77.0417855, "name": "cca8f70e57594d752b6a5047e0aed7c7"}, {"bike_id": "ab912a88d69f0dd59192a849c22c642d", "type": "electric_scooter", "is_disabled": 0, "lat": 38.940903666666664, "rental_uris": {"ios": "https://dc.lft.to/lastmile_qr_scan", "android": "https://dc.lft.to/lastmile_qr_scan"}, "is_reserved": 0, "fusion_lon": 0.0, "fusion_lat": 0.0, "lon": -77.02723633333333, "name": "ab912a88d69f0dd59192a849c22c642d"}, {"bike_id": "08526b42e7ab40a0ca715603267a31dd", "type": "electric_bike", "is_disabled": 0, "lat": 39.05284183333333, "rental_uris": {"ios": "https://dc.lft.to/lastmile_qr_scan", "android": "https://dc.lft.to/lastmile_qr_scan"}, "is_reserved": 0, "fusion_lon": 0.0, "fusion_lat": 0.0, "lon": -77.0807495, "name": "08526b42e7ab40a0ca715603267a31dd"}, {"bike_id": "d0542fd881f24b57f3f612c1366ef99a", "type": "electric_scooter", "is_disabled": 0, "lat": 38.910498, "rental_uris": {"ios": "https://dc.lft.to/lastmile_qr_scan", "android": "https://dc.lft.to/lastmile_qr_scan"}, "is_reserved": 0, "fusion_lon": 0.0, "fusion_lat": 0.0, "lon": -77.026847, "name": "d0542fd881f24b57f3f612c1366ef99a"}, {"bike_id": "2b0c488ce2b3ca3463d0c2f681bace02", "type": "electric_scooter", "is_disabled": 0, "lat": 38.956851666666665, "rental_uris": {"ios": "https://dc.lft.to/lastmile_qr_scan", "android": "https://dc.lft.to/lastmile_qr_scan"}, "is_reserved": 0, "fusion_lon": 0.0, "fusion_lat": 0.0, "lon": -77.02404483333333, "name": "2b0c488ce2b3ca3463d0c2f681bace02"}, {"bike_id": "65237f6320dd23096b252677ea7ed452", "type": "electric_scooter", "is_disabled": 0, "lat": 38.907280166666666, "rental_uris": {"ios": "https://dc.lft.to/lastmile_qr_scan", "android": "https://dc.lft.to/lastmile_qr_scan"}, "is_reserved": 0, "fusion_lon": 0.0, "fusion_lat": 0.0, "lon": -77.05324283333333, "name": "65237f6320dd23096b252677ea7ed452"}, {"bike_id": "151ce7477c10f29740c797295cccf8f9", "type": "electric_scooter", "is_disabled": 0, "lat": 38.9268645, "rental_uris": {"ios": "https://dc.lft.to/lastmile_qr_scan", "android": "https://dc.lft.to/lastmile_qr_scan"}, "is_reserved": 0, "fusion_lon": 0.0, "fusion_lat": 0.0, "lon": -77.02160616666667, "name": "151ce7477c10f29740c797295cccf8f9"}, {"bike_id": "c4f6b51a4b4d63ebe38ee831c06f465b", "type": "electric_scooter", "is_disabled": 0, "lat": 38.920672833333334, "rental_uris": {"ios": "https://dc.lft.to/lastmile_qr_scan", "android": "https://dc.lft.to/lastmile_qr_scan"}, "is_reserved": 0, "fusion_lon": 0.0, "fusion_lat": 0.0, "lon": -77.03463016666667, "name": "c4f6b51a4b4d63ebe38ee831c06f465b"}, {"bike_id": "387de67f96429389a7005dc43f692a88", "type": "electric_scooter", "is_disabled": 0, "lat": 38.9110035, "rental_uris": {"ios": "https://dc.lft.to/lastmile_qr_scan", "android": "https://dc.lft.to/lastmile_qr_scan"}, "is_reserved": 0, "fusion_lon": 0.0, "fusion_lat": 0.0, "lon": -77.044813, "name": "387de67f96429389a7005dc43f692a88"}, {"bike_id": "612d61e92d45aeaade9803bfa557f0d2", "type": "electric_scooter", "is_disabled": 0, "lat": 38.91561683333333, "rental_uris": {"ios": "https://dc.lft.to/lastmile_qr_scan", "android": "https://dc.lft.to/lastmile_qr_scan"}, "is_reserved": 0, "fusion_lon": 0.0, "fusion_lat": 0.0, "lon": -77.03175883333333, "name": "612d61e92d45aeaade9803bfa557f0d2"}, {"bike_id": "a6ccbc7f176c9578cd5ec0737596a32e", "type": "electric_scooter", "is_disabled": 0, "lat": 38.88478683333334, "rental_uris": {"ios": "https://dc.lft.to/lastmile_qr_scan", "android": "https://dc.lft.to/lastmile_qr_scan"}, "is_reserved": 0, "fusion_lon": 0.0, "fusion_lat": 0.0, "lon": -77.01499283333334, "name": "a6ccbc7f176c9578cd5ec0737596a32e"}, {"bike_id": "d11c117bf4afba6343cfcde6b01cdcef", "type": "electric_scooter", "is_disabled": 0, "lat": 38.917058833333336, "rental_uris": {"ios": "https://dc.lft.to/lastmile_qr_scan", "android": "https://dc.lft.to/lastmile_qr_scan"}, "is_reserved": 0, "fusion_lon": 0.0, "fusion_lat": 0.0, "lon": -77.0412735, "name": "d11c117bf4afba6343cfcde6b01cdcef"}, {"bike_id": "f78ecec80fdc45608096491c02925534", "type": "electric_scooter", "is_disabled": 0, "lat": 38.916638, "rental_uris": {"ios": "https://dc.lft.to/lastmile_qr_scan", "android": "https://dc.lft.to/lastmile_qr_scan"}, "is_reserved": 0, "fusion_lon": 0.0, "fusion_lat": 0.0, "lon": -77.03857166666667, "name": "f78ecec80fdc45608096491c02925534"}, {"bike_id": "64ed610975de296ec3be52bfc55ad6fc", "type": "electric_scooter", "is_disabled": 0, "lat": 38.90607283333333, "rental_uris": {"ios": "https://dc.lft.to/lastmile_qr_scan", "android": "https://dc.lft.to/lastmile_qr_scan"}, "is_reserved": 0, "fusion_lon": 0.0, "fusion_lat": 0.0, "lon": -77.06302916666667, "name": "64ed610975de296ec3be52bfc55ad6fc"}, {"bike_id": "3ddc4495102f0d7e1ac534eda2c910e7", "type": "electric_scooter", "is_disabled": 0, "lat": 38.91472016666667, "rental_uris": {"ios": "https://dc.lft.to/lastmile_qr_scan", "android": "https://dc.lft.to/lastmile_qr_scan"}, "is_reserved": 0, "fusion_lon": 0.0, "fusion_lat": 0.0, "lon": -77.0318675, "name": "3ddc4495102f0d7e1ac534eda2c910e7"}, {"bike_id": "4844b97681dc74e9c79971e20c3a5009", "type": "electric_scooter", "is_disabled": 0, "lat": 38.92257, "rental_uris": {"ios": "https://dc.lft.to/lastmile_qr_scan", "android": "https://dc.lft.to/lastmile_qr_scan"}, "is_reserved": 0, "fusion_lon": 0.0, "fusion_lat": 0.0, "lon": -77.03298416666667, "name": "4844b97681dc74e9c79971e20c3a5009"}, {"bike_id": "9fc724ac5a1351f86344840abd9cdbf3", "type": "electric_scooter", "is_disabled": 0, "lat": 38.928081666666664, "rental_uris": {"ios": "https://dc.lft.to/lastmile_qr_scan", "android": "https://dc.lft.to/lastmile_qr_scan"}, "is_reserved": 0, "fusion_lon": 0.0, "fusion_lat": 0.0, "lon": -77.0269395, "name": "9fc724ac5a1351f86344840abd9cdbf3"}, {"bike_id": "7c2f5efac9b827e5019332862fe304bf", "type": "electric_scooter", "is_disabled": 0, "lat": 38.914160833333334, "rental_uris": {"ios": "https://dc.lft.to/lastmile_qr_scan", "android": "https://dc.lft.to/lastmile_qr_scan"}, "is_reserved": 0, "fusion_lon": 0.0, "fusion_lat": 0.0, "lon": -77.02251666666666, "name": "7c2f5efac9b827e5019332862fe304bf"}, {"bike_id": "3144825917fa3758a8799c3c2c81d47c", "type": "electric_scooter", "is_disabled": 0, "lat": 38.911933833333336, "rental_uris": {"ios": "https://dc.lft.to/lastmile_qr_scan", "android": "https://dc.lft.to/lastmile_qr_scan"}, "is_reserved": 0, "fusion_lon": 0.0, "fusion_lat": 0.0, "lon": -77.02987566666667, "name": "3144825917fa3758a8799c3c2c81d47c"}, {"bike_id": "a02313fdd27d74c0ed651ab4dc1dc043", "type": "electric_scooter", "is_disabled": 0, "lat": 38.895475833333336, "rental_uris": {"ios": "https://dc.lft.to/lastmile_qr_scan", "android": "https://dc.lft.to/lastmile_qr_scan"}, "is_reserved": 0, "fusion_lon": 0.0, "fusion_lat": 0.0, "lon": -76.92951116666667, "name": "a02313fdd27d74c0ed651ab4dc1dc043"}, {"bike_id": "55e0306610ff52d3df51f58a4a4a871a", "type": "electric_scooter", "is_disabled": 0, "lat": 38.87286183333333, "rental_uris": {"ios": "https://dc.lft.to/lastmile_qr_scan", "android": "https://dc.lft.to/lastmile_qr_scan"}, "is_reserved": 0, "fusion_lon": 0.0, "fusion_lat": 0.0, "lon": -76.977309, "name": "55e0306610ff52d3df51f58a4a4a871a"}, {"bike_id": "1f2bb0162667f6b7efe74469228ab999", "type": "electric_scooter", "is_disabled": 0, "lat": 38.90564916666666, "rental_uris": {"ios": "https://dc.lft.to/lastmile_qr_scan", "android": "https://dc.lft.to/lastmile_qr_scan"}, "is_reserved": 0, "fusion_lon": 0.0, "fusion_lat": 0.0, "lon": -76.98142433333334, "name": "1f2bb0162667f6b7efe74469228ab999"}, {"bike_id": "6f6771b7cb89ae59f7b46c64b64d62ea", "type": "electric_scooter", "is_disabled": 0, "lat": 38.914061, "rental_uris": {"ios": "https://dc.lft.to/lastmile_qr_scan", "android": "https://dc.lft.to/lastmile_qr_scan"}, "is_reserved": 0, "fusion_lon": 0.0, "fusion_lat": 0.0, "lon": -77.03221483333333, "name": "6f6771b7cb89ae59f7b46c64b64d62ea"}, {"bike_id": "6da8bd35305f9ae38d17a468df388a44", "type": "electric_scooter", "is_disabled": 0, "lat": 38.926743333333334, "rental_uris": {"ios": "https://dc.lft.to/lastmile_qr_scan", "android": "https://dc.lft.to/lastmile_qr_scan"}, "is_reserved": 0, "fusion_lon": 0.0, "fusion_lat": 0.0, "lon": -77.0434395, "name": "6da8bd35305f9ae38d17a468df388a44"}, {"bike_id": "1fc4fec7cddbbe501790bdfdc46ab052", "type": "electric_scooter", "is_disabled": 0, "lat": 38.89491733333333, "rental_uris": {"ios": "https://dc.lft.to/lastmile_qr_scan", "android": "https://dc.lft.to/lastmile_qr_scan"}, "is_reserved": 0, "fusion_lon": 0.0, "fusion_lat": 0.0, "lon": -77.00056766666667, "name": "1fc4fec7cddbbe501790bdfdc46ab052"}, {"bike_id": "8a5b4b330eb7ef6d8556d92f41dcf8d8", "type": "electric_scooter", "is_disabled": 0, "lat": 38.911393833333335, "rental_uris": {"ios": "https://dc.lft.to/lastmile_qr_scan", "android": "https://dc.lft.to/lastmile_qr_scan"}, "is_reserved": 0, "fusion_lon": 0.0, "fusion_lat": 0.0, "lon": -77.06533483333334, "name": "8a5b4b330eb7ef6d8556d92f41dcf8d8"}, {"bike_id": "edff4223dcf6942acb0c144f9fc6cba7", "type": "electric_bike", "is_disabled": 0, "lat": 38.857883666666666, "rental_uris": {"ios": "https://dc.lft.to/lastmile_qr_scan", "android": "https://dc.lft.to/lastmile_qr_scan"}, "is_reserved": 0, "fusion_lon": 0.0, "fusion_lat": 0.0, "lon": -77.12019516666666, "name": "edff4223dcf6942acb0c144f9fc6cba7"}, {"bike_id": "c00150befcd01d4c6a5ebd8735dc2080", "type": "electric_scooter", "is_disabled": 0, "lat": 38.88403616666667, "rental_uris": {"ios": "https://dc.lft.to/lastmile_qr_scan", "android": "https://dc.lft.to/lastmile_qr_scan"}, "is_reserved": 0, "fusion_lon": 0.0, "fusion_lat": 0.0, "lon": -77.03196933333334, "name": "c00150befcd01d4c6a5ebd8735dc2080"}, {"bike_id": "5a300fcd2755fa5b1d1d36b001ed3493", "type": "electric_scooter", "is_disabled": 0, "lat": 38.93292116666667, "rental_uris": {"ios": "https://dc.lft.to/lastmile_qr_scan", "android": "https://dc.lft.to/lastmile_qr_scan"}, "is_reserved": 0, "fusion_lon": 0.0, "fusion_lat": 0.0, "lon": -77.04119566666667, "name": "5a300fcd2755fa5b1d1d36b001ed3493"}, {"bike_id": "f334fc727cb35705ab9ac42deb4abff1", "type": "electric_bike", "is_disabled": 0, "lat": 38.95598183333333, "rental_uris": {"ios": "https://dc.lft.to/lastmile_qr_scan", "android": "https://dc.lft.to/lastmile_qr_scan"}, "is_reserved": 0, "fusion_lon": 0.0, "fusion_lat": 0.0, "lon": -77.087986, "name": "f334fc727cb35705ab9ac42deb4abff1"}, {"bike_id": "3e685c5eb3a69fc281bef45b2e11d94d", "type": "electric_scooter", "is_disabled": 0, "lat": 38.93540333333333, "rental_uris": {"ios": "https://dc.lft.to/lastmile_qr_scan", "android": "https://dc.lft.to/lastmile_qr_scan"}, "is_reserved": 0, "fusion_lon": 0.0, "fusion_lat": 0.0, "lon": -77.05826366666666, "name": "3e685c5eb3a69fc281bef45b2e11d94d"}, {"bike_id": "82709bcf86b6e3e78d3a9bfa53b02761", "type": "electric_scooter", "is_disabled": 0, "lat": 38.9055535, "rental_uris": {"ios": "https://dc.lft.to/lastmile_qr_scan", "android": "https://dc.lft.to/lastmile_qr_scan"}, "is_reserved": 0, "fusion_lon": 0.0, "fusion_lat": 0.0, "lon": -77.05005533333333, "name": "82709bcf86b6e3e78d3a9bfa53b02761"}, {"bike_id": "748df466652c0579e7ae8435c377a1d2", "type": "electric_bike", "is_disabled": 0, "lat": 38.8922265, "rental_uris": {"ios": "https://dc.lft.to/lastmile_qr_scan", "android": "https://dc.lft.to/lastmile_qr_scan"}, "is_reserved": 0, "fusion_lon": 0.0, "fusion_lat": 0.0, "lon": -76.9708375, "name": "748df466652c0579e7ae8435c377a1d2"}, {"bike_id": "b4386b5f792a95919eeb94c6d9c3bc6b", "type": "electric_scooter", "is_disabled": 0, "lat": 38.91257183333333, "rental_uris": {"ios": "https://dc.lft.to/lastmile_qr_scan", "android": "https://dc.lft.to/lastmile_qr_scan"}, "is_reserved": 0, "fusion_lon": 0.0, "fusion_lat": 0.0, "lon": -77.0321395, "name": "b4386b5f792a95919eeb94c6d9c3bc6b"}, {"bike_id": "af1d50229905263d14cd57135327a1e1", "type": "electric_scooter", "is_disabled": 0, "lat": 38.892734, "rental_uris": {"ios": "https://dc.lft.to/lastmile_qr_scan", "android": "https://dc.lft.to/lastmile_qr_scan"}, "is_reserved": 0, "fusion_lon": 0.0, "fusion_lat": 0.0, "lon": -77.02401966666666, "name": "af1d50229905263d14cd57135327a1e1"}, {"bike_id": "aa4acdcab01ddf2b2eb3cad7d3e0e84a", "type": "electric_bike", "is_disabled": 0, "lat": 38.92448016666667, "rental_uris": {"ios": "https://dc.lft.to/lastmile_qr_scan", "android": "https://dc.lft.to/lastmile_qr_scan"}, "is_reserved": 0, "fusion_lon": 0.0, "fusion_lat": 0.0, "lon": -77.225663, "name": "aa4acdcab01ddf2b2eb3cad7d3e0e84a"}, {"bike_id": "83e85afcdbfdd329ef2c88a63c1e8171", "type": "electric_scooter", "is_disabled": 0, "lat": 38.91115416666667, "rental_uris": {"ios": "https://dc.lft.to/lastmile_qr_scan", "android": "https://dc.lft.to/lastmile_qr_scan"}, "is_reserved": 0, "fusion_lon": 0.0, "fusion_lat": 0.0, "lon": -77.03920266666667, "name": "83e85afcdbfdd329ef2c88a63c1e8171"}, {"bike_id": "4517910355e55d53c7eb03666ec2f769", "type": "electric_scooter", "is_disabled": 0, "lat": 38.92316183333333, "rental_uris": {"ios": "https://dc.lft.to/lastmile_qr_scan", "android": "https://dc.lft.to/lastmile_qr_scan"}, "is_reserved": 0, "fusion_lon": 0.0, "fusion_lat": 0.0, "lon": -77.04208566666667, "name": "4517910355e55d53c7eb03666ec2f769"}, {"bike_id": "14fbb301ccdcaf4f8debe7ed0cd1b266", "type": "electric_scooter", "is_disabled": 0, "lat": 38.90637016666667, "rental_uris": {"ios": "https://dc.lft.to/lastmile_qr_scan", "android": "https://dc.lft.to/lastmile_qr_scan"}, "is_reserved": 0, "fusion_lon": 0.0, "fusion_lat": 0.0, "lon": -77.01005266666667, "name": "14fbb301ccdcaf4f8debe7ed0cd1b266"}, {"bike_id": "0cdf5b916bab8de74c78467434c087c1", "type": "electric_scooter", "is_disabled": 0, "lat": 38.923754833333334, "rental_uris": {"ios": "https://dc.lft.to/lastmile_qr_scan", "android": "https://dc.lft.to/lastmile_qr_scan"}, "is_reserved": 0, "fusion_lon": 0.0, "fusion_lat": 0.0, "lon": -77.05255466666667, "name": "0cdf5b916bab8de74c78467434c087c1"}, {"bike_id": "4c3e0ea95bc200453b5002eb92af3299", "type": "electric_scooter", "is_disabled": 0, "lat": 38.935248, "rental_uris": {"ios": "https://dc.lft.to/lastmile_qr_scan", "android": "https://dc.lft.to/lastmile_qr_scan"}, "is_reserved": 0, "fusion_lon": 0.0, "fusion_lat": 0.0, "lon": -77.02964566666667, "name": "4c3e0ea95bc200453b5002eb92af3299"}, {"bike_id": "0dd66385d6ffe6da5577e74638b869fc", "type": "electric_scooter", "is_disabled": 0, "lat": 38.97209133333333, "rental_uris": {"ios": "https://dc.lft.to/lastmile_qr_scan", "android": "https://dc.lft.to/lastmile_qr_scan"}, "is_reserved": 0, "fusion_lon": 0.0, "fusion_lat": 0.0, "lon": -77.02695366666667, "name": "0dd66385d6ffe6da5577e74638b869fc"}, {"bike_id": "45a814fdd90f1cab3b37e250f484ae8d", "type": "electric_bike", "is_disabled": 0, "lat": 38.95245416666667, "rental_uris": {"ios": "https://dc.lft.to/lastmile_qr_scan", "android": "https://dc.lft.to/lastmile_qr_scan"}, "is_reserved": 0, "fusion_lon": 0.0, "fusion_lat": 0.0, "lon": -76.97674883333333, "name": "45a814fdd90f1cab3b37e250f484ae8d"}, {"bike_id": "0f76b02fa96ea1dbaa90164b2ddee8e4", "type": "electric_scooter", "is_disabled": 0, "lat": 38.912471833333335, "rental_uris": {"ios": "https://dc.lft.to/lastmile_qr_scan", "android": "https://dc.lft.to/lastmile_qr_scan"}, "is_reserved": 0, "fusion_lon": 0.0, "fusion_lat": 0.0, "lon": -77.02223383333333, "name": "0f76b02fa96ea1dbaa90164b2ddee8e4"}, {"bike_id": "127aff8c4e423bdd99b2fa6e39ba5c76", "type": "electric_scooter", "is_disabled": 0, "lat": 38.90385, "rental_uris": {"ios": "https://dc.lft.to/lastmile_qr_scan", "android": "https://dc.lft.to/lastmile_qr_scan"}, "is_reserved": 0, "fusion_lon": 0.0, "fusion_lat": 0.0, "lon": -77.00774433333333, "name": "127aff8c4e423bdd99b2fa6e39ba5c76"}, {"bike_id": "1a93a6c86f1a123cbf0d5d0f323a04ee", "type": "electric_bike", "is_disabled": 0, "lat": 38.964713, "rental_uris": {"ios": "https://dc.lft.to/lastmile_qr_scan", "android": "https://dc.lft.to/lastmile_qr_scan"}, "is_reserved": 0, "fusion_lon": 0.0, "fusion_lat": 0.0, "lon": -77.03563866666667, "name": "1a93a6c86f1a123cbf0d5d0f323a04ee"}, {"bike_id": "5c47945bbb7f5d72a37b0703b5948b6d", "type": "electric_scooter", "is_disabled": 0, "lat": 38.885585, "rental_uris": {"ios": "https://dc.lft.to/lastmile_qr_scan", "android": "https://dc.lft.to/lastmile_qr_scan"}, "is_reserved": 0, "fusion_lon": 0.0, "fusion_lat": 0.0, "lon": -77.00205083333333, "name": "5c47945bbb7f5d72a37b0703b5948b6d"}, {"bike_id": "745da56719dbd76b419407f11f48ee61", "type": "electric_scooter", "is_disabled": 0, "lat": 38.93676766666667, "rental_uris": {"ios": "https://dc.lft.to/lastmile_qr_scan", "android": "https://dc.lft.to/lastmile_qr_scan"}, "is_reserved": 0, "fusion_lon": 0.0, "fusion_lat": 0.0, "lon": -77.0359345, "name": "745da56719dbd76b419407f11f48ee61"}, {"bike_id": "987a977a7e7a6e3fca583b4959ba5a6d", "type": "electric_scooter", "is_disabled": 0, "lat": 38.9247585, "rental_uris": {"ios": "https://dc.lft.to/lastmile_qr_scan", "android": "https://dc.lft.to/lastmile_qr_scan"}, "is_reserved": 0, "fusion_lon": 0.0, "fusion_lat": 0.0, "lon": -77.03549066666666, "name": "987a977a7e7a6e3fca583b4959ba5a6d"}, {"bike_id": "9b61f0e708e3d56edb1dfe52eb36f6a0", "type": "electric_scooter", "is_disabled": 0, "lat": 38.9429445, "rental_uris": {"ios": "https://dc.lft.to/lastmile_qr_scan", "android": "https://dc.lft.to/lastmile_qr_scan"}, "is_reserved": 0, "fusion_lon": 0.0, "fusion_lat": 0.0, "lon": -77.02175866666667, "name": "9b61f0e708e3d56edb1dfe52eb36f6a0"}, {"bike_id": "0c4b26b086f6c2429ff3f23d6b3feca1", "type": "electric_scooter", "is_disabled": 0, "lat": 38.920642666666666, "rental_uris": {"ios": "https://dc.lft.to/lastmile_qr_scan", "android": "https://dc.lft.to/lastmile_qr_scan"}, "is_reserved": 0, "fusion_lon": 0.0, "fusion_lat": 0.0, "lon": -77.02190233333333, "name": "0c4b26b086f6c2429ff3f23d6b3feca1"}, {"bike_id": "67fbaae752c8f6613d343496aaf85cb0", "type": "electric_scooter", "is_disabled": 0, "lat": 38.91378316666667, "rental_uris": {"ios": "https://dc.lft.to/lastmile_qr_scan", "android": "https://dc.lft.to/lastmile_qr_scan"}, "is_reserved": 0, "fusion_lon": 0.0, "fusion_lat": 0.0, "lon": -77.0413315, "name": "67fbaae752c8f6613d343496aaf85cb0"}, {"bike_id": "a5e75b6684cb60df10779858e51abaae", "type": "electric_scooter", "is_disabled": 0, "lat": 38.89956383333333, "rental_uris": {"ios": "https://dc.lft.to/lastmile_qr_scan", "android": "https://dc.lft.to/lastmile_qr_scan"}, "is_reserved": 0, "fusion_lon": 0.0, "fusion_lat": 0.0, "lon": -76.92625, "name": "a5e75b6684cb60df10779858e51abaae"}, {"bike_id": "fa399a24458e6d1b59ed9b9304cabb2f", "type": "electric_scooter", "is_disabled": 0, "lat": 38.90987116666667, "rental_uris": {"ios": "https://dc.lft.to/lastmile_qr_scan", "android": "https://dc.lft.to/lastmile_qr_scan"}, "is_reserved": 0, "fusion_lon": 0.0, "fusion_lat": 0.0, "lon": -77.03376333333334, "name": "fa399a24458e6d1b59ed9b9304cabb2f"}, {"bike_id": "5813227cda8493b6e383de4d2eab69ec", "type": "electric_scooter", "is_disabled": 0, "lat": 38.89225116666667, "rental_uris": {"ios": "https://dc.lft.to/lastmile_qr_scan", "android": "https://dc.lft.to/lastmile_qr_scan"}, "is_reserved": 0, "fusion_lon": 0.0, "fusion_lat": 0.0, "lon": -77.03221083333334, "name": "5813227cda8493b6e383de4d2eab69ec"}, {"bike_id": "1e6efe7d1f4cb6f7d00dd1276863cb7c", "type": "electric_scooter", "is_disabled": 0, "lat": 38.9110295, "rental_uris": {"ios": "https://dc.lft.to/lastmile_qr_scan", "android": "https://dc.lft.to/lastmile_qr_scan"}, "is_reserved": 0, "fusion_lon": 0.0, "fusion_lat": 0.0, "lon": -77.02187133333334, "name": "1e6efe7d1f4cb6f7d00dd1276863cb7c"}, {"bike_id": "242730ef09a4d8bba8c178d108bf7682", "type": "electric_scooter", "is_disabled": 0, "lat": 38.92481383333333, "rental_uris": {"ios": "https://dc.lft.to/lastmile_qr_scan", "android": "https://dc.lft.to/lastmile_qr_scan"}, "is_reserved": 0, "fusion_lon": 0.0, "fusion_lat": 0.0, "lon": -77.057632, "name": "242730ef09a4d8bba8c178d108bf7682"}, {"bike_id": "6f8802f0639a4246d645700082fd3aef", "type": "electric_scooter", "is_disabled": 0, "lat": 38.92827333333334, "rental_uris": {"ios": "https://dc.lft.to/lastmile_qr_scan", "android": "https://dc.lft.to/lastmile_qr_scan"}, "is_reserved": 0, "fusion_lon": 0.0, "fusion_lat": 0.0, "lon": -77.043508, "name": "6f8802f0639a4246d645700082fd3aef"}, {"bike_id": "e3ec74df9bbe0a5341a43818ae5baace", "type": "electric_scooter", "is_disabled": 0, "lat": 38.915936, "rental_uris": {"ios": "https://dc.lft.to/lastmile_qr_scan", "android": "https://dc.lft.to/lastmile_qr_scan"}, "is_reserved": 0, "fusion_lon": 0.0, "fusion_lat": 0.0, "lon": -77.04530933333334, "name": "e3ec74df9bbe0a5341a43818ae5baace"}, {"bike_id": "842c9e33a2a10ba1497d3e4cada0654b", "type": "electric_scooter", "is_disabled": 0, "lat": 38.914701, "rental_uris": {"ios": "https://dc.lft.to/lastmile_qr_scan", "android": "https://dc.lft.to/lastmile_qr_scan"}, "is_reserved": 0, "fusion_lon": 0.0, "fusion_lat": 0.0, "lon": -77.03195533333333, "name": "842c9e33a2a10ba1497d3e4cada0654b"}, {"bike_id": "cc37beac1fdeadcd2e30858cb126936d", "type": "electric_scooter", "is_disabled": 0, "lat": 38.8662925, "rental_uris": {"ios": "https://dc.lft.to/lastmile_qr_scan", "android": "https://dc.lft.to/lastmile_qr_scan"}, "is_reserved": 0, "fusion_lon": 0.0, "fusion_lat": 0.0, "lon": -76.9871465, "name": "cc37beac1fdeadcd2e30858cb126936d"}, {"bike_id": "831e7ba4617afab3c92ebbe910327def", "type": "electric_scooter", "is_disabled": 0, "lat": 38.92708666666667, "rental_uris": {"ios": "https://dc.lft.to/lastmile_qr_scan", "android": "https://dc.lft.to/lastmile_qr_scan"}, "is_reserved": 0, "fusion_lon": 0.0, "fusion_lat": 0.0, "lon": -77.0373345, "name": "831e7ba4617afab3c92ebbe910327def"}, {"bike_id": "d6a952f488af52f0dcd7865edebb58aa", "type": "electric_scooter", "is_disabled": 0, "lat": 38.9008375, "rental_uris": {"ios": "https://dc.lft.to/lastmile_qr_scan", "android": "https://dc.lft.to/lastmile_qr_scan"}, "is_reserved": 0, "fusion_lon": 0.0, "fusion_lat": 0.0, "lon": -77.03813033333333, "name": "d6a952f488af52f0dcd7865edebb58aa"}, {"bike_id": "a4e84c922f26226b3c7c68fd2a4a99c9", "type": "electric_scooter", "is_disabled": 0, "lat": 38.89114633333333, "rental_uris": {"ios": "https://dc.lft.to/lastmile_qr_scan", "android": "https://dc.lft.to/lastmile_qr_scan"}, "is_reserved": 0, "fusion_lon": 0.0, "fusion_lat": 0.0, "lon": -76.99159933333334, "name": "a4e84c922f26226b3c7c68fd2a4a99c9"}, {"bike_id": "f59a5dc7af68cd894308ef5c560f561d", "type": "electric_scooter", "is_disabled": 0, "lat": 38.91261683333333, "rental_uris": {"ios": "https://dc.lft.to/lastmile_qr_scan", "android": "https://dc.lft.to/lastmile_qr_scan"}, "is_reserved": 0, "fusion_lon": 0.0, "fusion_lat": 0.0, "lon": -77.0678965, "name": "f59a5dc7af68cd894308ef5c560f561d"}, {"bike_id": "5a3f137021ace11af717e0173f66fb8d", "type": "electric_scooter", "is_disabled": 0, "lat": 38.91890433333333, "rental_uris": {"ios": "https://dc.lft.to/lastmile_qr_scan", "android": "https://dc.lft.to/lastmile_qr_scan"}, "is_reserved": 0, "fusion_lon": 0.0, "fusion_lat": 0.0, "lon": -77.04604083333334, "name": "5a3f137021ace11af717e0173f66fb8d"}, {"bike_id": "e0e5c9624e9c3758af0224226af3b86d", "type": "electric_scooter", "is_disabled": 0, "lat": 38.86217466666667, "rental_uris": {"ios": "https://dc.lft.to/lastmile_qr_scan", "android": "https://dc.lft.to/lastmile_qr_scan"}, "is_reserved": 0, "fusion_lon": 0.0, "fusion_lat": 0.0, "lon": -76.994859, "name": "e0e5c9624e9c3758af0224226af3b86d"}, {"bike_id": "3074cbf2c561a652b5305bafbb8b49e4", "type": "electric_scooter", "is_disabled": 0, "lat": 38.914839, "rental_uris": {"ios": "https://dc.lft.to/lastmile_qr_scan", "android": "https://dc.lft.to/lastmile_qr_scan"}, "is_reserved": 0, "fusion_lon": 0.0, "fusion_lat": 0.0, "lon": -77.00283183333333, "name": "3074cbf2c561a652b5305bafbb8b49e4"}, {"bike_id": "0c608459e2eda51f61e4612573e864e6", "type": "electric_scooter", "is_disabled": 0, "lat": 38.93946116666667, "rental_uris": {"ios": "https://dc.lft.to/lastmile_qr_scan", "android": "https://dc.lft.to/lastmile_qr_scan"}, "is_reserved": 0, "fusion_lon": 0.0, "fusion_lat": 0.0, "lon": -77.0724625, "name": "0c608459e2eda51f61e4612573e864e6"}, {"bike_id": "9cc307159d57683d3b405b8d4d931b30", "type": "electric_scooter", "is_disabled": 0, "lat": 38.916857666666665, "rental_uris": {"ios": "https://dc.lft.to/lastmile_qr_scan", "android": "https://dc.lft.to/lastmile_qr_scan"}, "is_reserved": 0, "fusion_lon": 0.0, "fusion_lat": 0.0, "lon": -77.029533, "name": "9cc307159d57683d3b405b8d4d931b30"}, {"bike_id": "cddd1bd1b0dcf3e48f43633052bd995c", "type": "electric_scooter", "is_disabled": 0, "lat": 38.92291266666667, "rental_uris": {"ios": "https://dc.lft.to/lastmile_qr_scan", "android": "https://dc.lft.to/lastmile_qr_scan"}, "is_reserved": 0, "fusion_lon": 0.0, "fusion_lat": 0.0, "lon": -77.02067633333333, "name": "cddd1bd1b0dcf3e48f43633052bd995c"}, {"bike_id": "d116e34fc408054eeacbafb7d7e7d275", "type": "electric_scooter", "is_disabled": 0, "lat": 38.905415833333336, "rental_uris": {"ios": "https://dc.lft.to/lastmile_qr_scan", "android": "https://dc.lft.to/lastmile_qr_scan"}, "is_reserved": 0, "fusion_lon": 0.0, "fusion_lat": 0.0, "lon": -77.0218525, "name": "d116e34fc408054eeacbafb7d7e7d275"}, {"bike_id": "b83ad7fc25209261486f46d974177b0d", "type": "electric_bike", "is_disabled": 0, "lat": 38.9051665, "rental_uris": {"ios": "https://dc.lft.to/lastmile_qr_scan", "android": "https://dc.lft.to/lastmile_qr_scan"}, "is_reserved": 0, "fusion_lon": 0.0, "fusion_lat": 0.0, "lon": -77.05675716666667, "name": "b83ad7fc25209261486f46d974177b0d"}, {"bike_id": "db50300f9eabd74e6104e4d8313179dc", "type": "electric_scooter", "is_disabled": 0, "lat": 38.902664, "rental_uris": {"ios": "https://dc.lft.to/lastmile_qr_scan", "android": "https://dc.lft.to/lastmile_qr_scan"}, "is_reserved": 0, "fusion_lon": 0.0, "fusion_lat": 0.0, "lon": -77.04481733333333, "name": "db50300f9eabd74e6104e4d8313179dc"}, {"bike_id": "9f960e200afe555b7d746e8c268fa4ca", "type": "electric_scooter", "is_disabled": 0, "lat": 38.92455533333333, "rental_uris": {"ios": "https://dc.lft.to/lastmile_qr_scan", "android": "https://dc.lft.to/lastmile_qr_scan"}, "is_reserved": 0, "fusion_lon": 0.0, "fusion_lat": 0.0, "lon": -77.03975983333333, "name": "9f960e200afe555b7d746e8c268fa4ca"}, {"bike_id": "9740c537592fce68e4c432a549e3966c", "type": "electric_scooter", "is_disabled": 0, "lat": 38.90975983333333, "rental_uris": {"ios": "https://dc.lft.to/lastmile_qr_scan", "android": "https://dc.lft.to/lastmile_qr_scan"}, "is_reserved": 0, "fusion_lon": 0.0, "fusion_lat": 0.0, "lon": -77.03266566666667, "name": "9740c537592fce68e4c432a549e3966c"}, {"bike_id": "356aba11568c2c37240507a8376ca22b", "type": "electric_scooter", "is_disabled": 0, "lat": 38.93256083333333, "rental_uris": {"ios": "https://dc.lft.to/lastmile_qr_scan", "android": "https://dc.lft.to/lastmile_qr_scan"}, "is_reserved": 0, "fusion_lon": 0.0, "fusion_lat": 0.0, "lon": -77.03854283333334, "name": "356aba11568c2c37240507a8376ca22b"}, {"bike_id": "d6a3083b2a8dfe875d8c509adb9cf6fe", "type": "electric_scooter", "is_disabled": 0, "lat": 38.89757433333333, "rental_uris": {"ios": "https://dc.lft.to/lastmile_qr_scan", "android": "https://dc.lft.to/lastmile_qr_scan"}, "is_reserved": 0, "fusion_lon": 0.0, "fusion_lat": 0.0, "lon": -77.02604283333334, "name": "d6a3083b2a8dfe875d8c509adb9cf6fe"}, {"bike_id": "c18cc744f7edb9628b80b848416ed99d", "type": "electric_bike", "is_disabled": 0, "lat": 39.050573166666666, "rental_uris": {"ios": "https://dc.lft.to/lastmile_qr_scan", "android": "https://dc.lft.to/lastmile_qr_scan"}, "is_reserved": 0, "fusion_lon": 0.0, "fusion_lat": 0.0, "lon": -77.0514635, "name": "c18cc744f7edb9628b80b848416ed99d"}, {"bike_id": "75f3f62934422d10fb53c9a3b632b752", "type": "electric_scooter", "is_disabled": 0, "lat": 38.89380633333333, "rental_uris": {"ios": "https://dc.lft.to/lastmile_qr_scan", "android": "https://dc.lft.to/lastmile_qr_scan"}, "is_reserved": 0, "fusion_lon": 0.0, "fusion_lat": 0.0, "lon": -77.02868916666667, "name": "75f3f62934422d10fb53c9a3b632b752"}, {"bike_id": "485da3b377233337a7e4ff227a5da256", "type": "electric_scooter", "is_disabled": 0, "lat": 38.9368065, "rental_uris": {"ios": "https://dc.lft.to/lastmile_qr_scan", "android": "https://dc.lft.to/lastmile_qr_scan"}, "is_reserved": 0, "fusion_lon": 0.0, "fusion_lat": 0.0, "lon": -77.035795, "name": "485da3b377233337a7e4ff227a5da256"}, {"bike_id": "d4fb1ef211789e489af67c33f2bcea55", "type": "electric_scooter", "is_disabled": 0, "lat": 38.9110465, "rental_uris": {"ios": "https://dc.lft.to/lastmile_qr_scan", "android": "https://dc.lft.to/lastmile_qr_scan"}, "is_reserved": 0, "fusion_lon": 0.0, "fusion_lat": 0.0, "lon": -77.03445633333334, "name": "d4fb1ef211789e489af67c33f2bcea55"}, {"bike_id": "b9c7206830901aa09647fc963425efe2", "type": "electric_scooter", "is_disabled": 0, "lat": 38.89766733333333, "rental_uris": {"ios": "https://dc.lft.to/lastmile_qr_scan", "android": "https://dc.lft.to/lastmile_qr_scan"}, "is_reserved": 0, "fusion_lon": 0.0, "fusion_lat": 0.0, "lon": -77.02235916666666, "name": "b9c7206830901aa09647fc963425efe2"}, {"bike_id": "59b1890749de74b7f996c768524ea634", "type": "electric_scooter", "is_disabled": 0, "lat": 38.876325666666666, "rental_uris": {"ios": "https://dc.lft.to/lastmile_qr_scan", "android": "https://dc.lft.to/lastmile_qr_scan"}, "is_reserved": 0, "fusion_lon": 0.0, "fusion_lat": 0.0, "lon": -77.00951833333333, "name": "59b1890749de74b7f996c768524ea634"}, {"bike_id": "143783c1a67c9e53ae8646c32c5c1919", "type": "electric_scooter", "is_disabled": 0, "lat": 38.91032516666667, "rental_uris": {"ios": "https://dc.lft.to/lastmile_qr_scan", "android": "https://dc.lft.to/lastmile_qr_scan"}, "is_reserved": 0, "fusion_lon": 0.0, "fusion_lat": 0.0, "lon": -77.0425745, "name": "143783c1a67c9e53ae8646c32c5c1919"}, {"bike_id": "8d458d15708a2f3e8541265b627b5c00", "type": "electric_scooter", "is_disabled": 0, "lat": 38.890039333333334, "rental_uris": {"ios": "https://dc.lft.to/lastmile_qr_scan", "android": "https://dc.lft.to/lastmile_qr_scan"}, "is_reserved": 0, "fusion_lon": 0.0, "fusion_lat": 0.0, "lon": -76.93745416666667, "name": "8d458d15708a2f3e8541265b627b5c00"}, {"bike_id": "285b526231fb580f83b3b0e11dd83363", "type": "electric_bike", "is_disabled": 0, "lat": 38.83242383333334, "rental_uris": {"ios": "https://dc.lft.to/lastmile_qr_scan", "android": "https://dc.lft.to/lastmile_qr_scan"}, "is_reserved": 0, "fusion_lon": 0.0, "fusion_lat": 0.0, "lon": -76.94622016666666, "name": "285b526231fb580f83b3b0e11dd83363"}, {"bike_id": "887b1c383b56b90f64461015fd420928", "type": "electric_scooter", "is_disabled": 0, "lat": 38.906676833333336, "rental_uris": {"ios": "https://dc.lft.to/lastmile_qr_scan", "android": "https://dc.lft.to/lastmile_qr_scan"}, "is_reserved": 0, "fusion_lon": 0.0, "fusion_lat": 0.0, "lon": -77.02707816666667, "name": "887b1c383b56b90f64461015fd420928"}, {"bike_id": "d3d496d7a79c3ca79be7c357fbd83b8e", "type": "electric_scooter", "is_disabled": 0, "lat": 38.923375, "rental_uris": {"ios": "https://dc.lft.to/lastmile_qr_scan", "android": "https://dc.lft.to/lastmile_qr_scan"}, "is_reserved": 0, "fusion_lon": 0.0, "fusion_lat": 0.0, "lon": -77.03525533333334, "name": "d3d496d7a79c3ca79be7c357fbd83b8e"}, {"bike_id": "9cd02496bd9e7160d5b65393958d45c1", "type": "electric_scooter", "is_disabled": 0, "lat": 38.90409616666667, "rental_uris": {"ios": "https://dc.lft.to/lastmile_qr_scan", "android": "https://dc.lft.to/lastmile_qr_scan"}, "is_reserved": 0, "fusion_lon": 0.0, "fusion_lat": 0.0, "lon": -76.9733375, "name": "9cd02496bd9e7160d5b65393958d45c1"}, {"bike_id": "5c76a222389a66dbdc253ae88b30f18d", "type": "electric_scooter", "is_disabled": 0, "lat": 38.90005266666667, "rental_uris": {"ios": "https://dc.lft.to/lastmile_qr_scan", "android": "https://dc.lft.to/lastmile_qr_scan"}, "is_reserved": 0, "fusion_lon": 0.0, "fusion_lat": 0.0, "lon": -77.04482, "name": "5c76a222389a66dbdc253ae88b30f18d"}, {"bike_id": "58427ca852b3fc6451fdb1dd32cf5e26", "type": "electric_bike", "is_disabled": 0, "lat": 38.944726333333335, "rental_uris": {"ios": "https://dc.lft.to/lastmile_qr_scan", "android": "https://dc.lft.to/lastmile_qr_scan"}, "is_reserved": 0, "fusion_lon": 0.0, "fusion_lat": 0.0, "lon": -76.98689383333334, "name": "58427ca852b3fc6451fdb1dd32cf5e26"}, {"bike_id": "5a85b9e55c278df76a7c0c76c12f4ec3", "type": "electric_scooter", "is_disabled": 0, "lat": 38.91031066666667, "rental_uris": {"ios": "https://dc.lft.to/lastmile_qr_scan", "android": "https://dc.lft.to/lastmile_qr_scan"}, "is_reserved": 0, "fusion_lon": 0.0, "fusion_lat": 0.0, "lon": -76.98669383333333, "name": "5a85b9e55c278df76a7c0c76c12f4ec3"}, {"bike_id": "858db6c49487bf9575846f50e5e18701", "type": "electric_scooter", "is_disabled": 0, "lat": 38.904205166666664, "rental_uris": {"ios": "https://dc.lft.to/lastmile_qr_scan", "android": "https://dc.lft.to/lastmile_qr_scan"}, "is_reserved": 0, "fusion_lon": 0.0, "fusion_lat": 0.0, "lon": -77.06861116666667, "name": "858db6c49487bf9575846f50e5e18701"}, {"bike_id": "d26ca9545a3ac8a5cd179e9269d6fab2", "type": "electric_scooter", "is_disabled": 0, "lat": 38.93004533333333, "rental_uris": {"ios": "https://dc.lft.to/lastmile_qr_scan", "android": "https://dc.lft.to/lastmile_qr_scan"}, "is_reserved": 0, "fusion_lon": 0.0, "fusion_lat": 0.0, "lon": -77.0377085, "name": "d26ca9545a3ac8a5cd179e9269d6fab2"}, {"bike_id": "cdd2b69d0fd479cd9270d0defe1b099d", "type": "electric_scooter", "is_disabled": 0, "lat": 38.90959, "rental_uris": {"ios": "https://dc.lft.to/lastmile_qr_scan", "android": "https://dc.lft.to/lastmile_qr_scan"}, "is_reserved": 0, "fusion_lon": 0.0, "fusion_lat": 0.0, "lon": -77.04481433333333, "name": "cdd2b69d0fd479cd9270d0defe1b099d"}, {"bike_id": "fc6a861d6e5bf77b424e4e4c93316fd5", "type": "electric_scooter", "is_disabled": 0, "lat": 38.923309, "rental_uris": {"ios": "https://dc.lft.to/lastmile_qr_scan", "android": "https://dc.lft.to/lastmile_qr_scan"}, "is_reserved": 0, "fusion_lon": 0.0, "fusion_lat": 0.0, "lon": -77.0361355, "name": "fc6a861d6e5bf77b424e4e4c93316fd5"}, {"bike_id": "a2bae8c4fa15eb186e2676a73815244a", "type": "electric_scooter", "is_disabled": 0, "lat": 38.86662166666667, "rental_uris": {"ios": "https://dc.lft.to/lastmile_qr_scan", "android": "https://dc.lft.to/lastmile_qr_scan"}, "is_reserved": 0, "fusion_lon": 0.0, "fusion_lat": 0.0, "lon": -76.988843, "name": "a2bae8c4fa15eb186e2676a73815244a"}, {"bike_id": "ac453b2746818e14bb6f6bd95ca852ba", "type": "electric_scooter", "is_disabled": 0, "lat": 38.9290935, "rental_uris": {"ios": "https://dc.lft.to/lastmile_qr_scan", "android": "https://dc.lft.to/lastmile_qr_scan"}, "is_reserved": 0, "fusion_lon": 0.0, "fusion_lat": 0.0, "lon": -77.0227095, "name": "ac453b2746818e14bb6f6bd95ca852ba"}, {"bike_id": "91e1938d45fe550d656587fa9d95bf66", "type": "electric_scooter", "is_disabled": 0, "lat": 38.89864733333334, "rental_uris": {"ios": "https://dc.lft.to/lastmile_qr_scan", "android": "https://dc.lft.to/lastmile_qr_scan"}, "is_reserved": 0, "fusion_lon": 0.0, "fusion_lat": 0.0, "lon": -77.04074383333334, "name": "91e1938d45fe550d656587fa9d95bf66"}, {"bike_id": "d30fa68a9d7a55801e4d278205d7b762", "type": "electric_scooter", "is_disabled": 0, "lat": 38.923672333333336, "rental_uris": {"ios": "https://dc.lft.to/lastmile_qr_scan", "android": "https://dc.lft.to/lastmile_qr_scan"}, "is_reserved": 0, "fusion_lon": 0.0, "fusion_lat": 0.0, "lon": -77.0512655, "name": "d30fa68a9d7a55801e4d278205d7b762"}, {"bike_id": "49c8ff95850d81f10cffe4469541eae5", "type": "electric_scooter", "is_disabled": 0, "lat": 38.887624, "rental_uris": {"ios": "https://dc.lft.to/lastmile_qr_scan", "android": "https://dc.lft.to/lastmile_qr_scan"}, "is_reserved": 0, "fusion_lon": 0.0, "fusion_lat": 0.0, "lon": -76.955939, "name": "49c8ff95850d81f10cffe4469541eae5"}, {"bike_id": "9e1b639588f062ffe47c404c539c7d75", "type": "electric_scooter", "is_disabled": 0, "lat": 38.905414, "rental_uris": {"ios": "https://dc.lft.to/lastmile_qr_scan", "android": "https://dc.lft.to/lastmile_qr_scan"}, "is_reserved": 0, "fusion_lon": 0.0, "fusion_lat": 0.0, "lon": -77.05695683333333, "name": "9e1b639588f062ffe47c404c539c7d75"}, {"bike_id": "8485e8fad18f4e5c3afdcc0a2c9b57ec", "type": "electric_scooter", "is_disabled": 0, "lat": 38.92386366666667, "rental_uris": {"ios": "https://dc.lft.to/lastmile_qr_scan", "android": "https://dc.lft.to/lastmile_qr_scan"}, "is_reserved": 0, "fusion_lon": 0.0, "fusion_lat": 0.0, "lon": -77.04082183333334, "name": "8485e8fad18f4e5c3afdcc0a2c9b57ec"}, {"bike_id": "f872942cb78c8e1e7c2551be8cf8e2a4", "type": "electric_scooter", "is_disabled": 0, "lat": 38.950239, "rental_uris": {"ios": "https://dc.lft.to/lastmile_qr_scan", "android": "https://dc.lft.to/lastmile_qr_scan"}, "is_reserved": 0, "fusion_lon": 0.0, "fusion_lat": 0.0, "lon": -77.008793, "name": "f872942cb78c8e1e7c2551be8cf8e2a4"}, {"bike_id": "f3349c7e5b8de450d991283c10424918", "type": "electric_scooter", "is_disabled": 0, "lat": 38.92319333333333, "rental_uris": {"ios": "https://dc.lft.to/lastmile_qr_scan", "android": "https://dc.lft.to/lastmile_qr_scan"}, "is_reserved": 0, "fusion_lon": 0.0, "fusion_lat": 0.0, "lon": -77.02139066666666, "name": "f3349c7e5b8de450d991283c10424918"}, {"bike_id": "992843cf077181389a52c969564053d4", "type": "electric_bike", "is_disabled": 0, "lat": 38.845263833333334, "rental_uris": {"ios": "https://dc.lft.to/lastmile_qr_scan", "android": "https://dc.lft.to/lastmile_qr_scan"}, "is_reserved": 0, "fusion_lon": 0.0, "fusion_lat": 0.0, "lon": -76.97398116666666, "name": "992843cf077181389a52c969564053d4"}, {"bike_id": "9949f59320e42a162866627e36d9b824", "type": "electric_scooter", "is_disabled": 0, "lat": 38.93212033333333, "rental_uris": {"ios": "https://dc.lft.to/lastmile_qr_scan", "android": "https://dc.lft.to/lastmile_qr_scan"}, "is_reserved": 0, "fusion_lon": 0.0, "fusion_lat": 0.0, "lon": -77.03511933333333, "name": "9949f59320e42a162866627e36d9b824"}, {"bike_id": "301dd287a60fd4b805349cfd7837ef91", "type": "electric_scooter", "is_disabled": 0, "lat": 38.928659833333334, "rental_uris": {"ios": "https://dc.lft.to/lastmile_qr_scan", "android": "https://dc.lft.to/lastmile_qr_scan"}, "is_reserved": 0, "fusion_lon": 0.0, "fusion_lat": 0.0, "lon": -77.03266583333334, "name": "301dd287a60fd4b805349cfd7837ef91"}, {"bike_id": "26dc388fc7c27b7daae68d48ffc1d50a", "type": "electric_bike", "is_disabled": 0, "lat": 38.898068333333335, "rental_uris": {"ios": "https://dc.lft.to/lastmile_qr_scan", "android": "https://dc.lft.to/lastmile_qr_scan"}, "is_reserved": 0, "fusion_lon": 0.0, "fusion_lat": 0.0, "lon": -76.9906585, "name": "26dc388fc7c27b7daae68d48ffc1d50a"}, {"bike_id": "db80c526d555c9616e1e0e6e16d684ab", "type": "electric_scooter", "is_disabled": 0, "lat": 38.905944, "rental_uris": {"ios": "https://dc.lft.to/lastmile_qr_scan", "android": "https://dc.lft.to/lastmile_qr_scan"}, "is_reserved": 0, "fusion_lon": 0.0, "fusion_lat": 0.0, "lon": -77.068058, "name": "db80c526d555c9616e1e0e6e16d684ab"}, {"bike_id": "16235e88d0b5f7d82b6c13104a454177", "type": "electric_bike", "is_disabled": 0, "lat": 38.87079883333333, "rental_uris": {"ios": "https://dc.lft.to/lastmile_qr_scan", "android": "https://dc.lft.to/lastmile_qr_scan"}, "is_reserved": 0, "fusion_lon": 0.0, "fusion_lat": 0.0, "lon": -77.01213266666667, "name": "16235e88d0b5f7d82b6c13104a454177"}, {"bike_id": "367d118dc214ff9fa393df7578f95eb9", "type": "electric_scooter", "is_disabled": 0, "lat": 38.93205716666667, "rental_uris": {"ios": "https://dc.lft.to/lastmile_qr_scan", "android": "https://dc.lft.to/lastmile_qr_scan"}, "is_reserved": 0, "fusion_lon": 0.0, "fusion_lat": 0.0, "lon": -77.0367025, "name": "367d118dc214ff9fa393df7578f95eb9"}, {"bike_id": "03c21ab3b1c06913683c3d790d5b69d5", "type": "electric_scooter", "is_disabled": 0, "lat": 38.92090116666667, "rental_uris": {"ios": "https://dc.lft.to/lastmile_qr_scan", "android": "https://dc.lft.to/lastmile_qr_scan"}, "is_reserved": 0, "fusion_lon": 0.0, "fusion_lat": 0.0, "lon": -77.03159716666667, "name": "03c21ab3b1c06913683c3d790d5b69d5"}, {"bike_id": "3c9a3d0ee9f03a5992022ffdced0dcfe", "type": "electric_bike", "is_disabled": 0, "lat": 38.8593615, "rental_uris": {"ios": "https://dc.lft.to/lastmile_qr_scan", "android": "https://dc.lft.to/lastmile_qr_scan"}, "is_reserved": 0, "fusion_lon": 0.0, "fusion_lat": 0.0, "lon": -77.1183095, "name": "3c9a3d0ee9f03a5992022ffdced0dcfe"}, {"bike_id": "92ee2237ea3ba8f958d790cf822a4c40", "type": "electric_bike", "is_disabled": 0, "lat": 38.823651, "rental_uris": {"ios": "https://dc.lft.to/lastmile_qr_scan", "android": "https://dc.lft.to/lastmile_qr_scan"}, "is_reserved": 0, "fusion_lon": 0.0, "fusion_lat": 0.0, "lon": -77.002123, "name": "92ee2237ea3ba8f958d790cf822a4c40"}, {"bike_id": "966c4a0308a385617091433193fbdbf7", "type": "electric_scooter", "is_disabled": 0, "lat": 38.92223333333333, "rental_uris": {"ios": "https://dc.lft.to/lastmile_qr_scan", "android": "https://dc.lft.to/lastmile_qr_scan"}, "is_reserved": 0, "fusion_lon": 0.0, "fusion_lat": 0.0, "lon": -77.04698733333333, "name": "966c4a0308a385617091433193fbdbf7"}, {"bike_id": "9f75a02edd348ec7f5186f663c6f0159", "type": "electric_scooter", "is_disabled": 0, "lat": 38.9262285, "rental_uris": {"ios": "https://dc.lft.to/lastmile_qr_scan", "android": "https://dc.lft.to/lastmile_qr_scan"}, "is_reserved": 0, "fusion_lon": 0.0, "fusion_lat": 0.0, "lon": -77.043332, "name": "9f75a02edd348ec7f5186f663c6f0159"}, {"bike_id": "7982faa7acfb8368029c85ddf430cf59", "type": "electric_scooter", "is_disabled": 0, "lat": 38.90076883333333, "rental_uris": {"ios": "https://dc.lft.to/lastmile_qr_scan", "android": "https://dc.lft.to/lastmile_qr_scan"}, "is_reserved": 0, "fusion_lon": 0.0, "fusion_lat": 0.0, "lon": -77.05132833333333, "name": "7982faa7acfb8368029c85ddf430cf59"}, {"bike_id": "aada3d3625b471935b1069376eaded92", "type": "electric_scooter", "is_disabled": 0, "lat": 38.90064683333333, "rental_uris": {"ios": "https://dc.lft.to/lastmile_qr_scan", "android": "https://dc.lft.to/lastmile_qr_scan"}, "is_reserved": 0, "fusion_lon": 0.0, "fusion_lat": 0.0, "lon": -77.01922966666666, "name": "aada3d3625b471935b1069376eaded92"}, {"bike_id": "4d8d3ade80f992d138add39eca1e69d6", "type": "electric_scooter", "is_disabled": 0, "lat": 38.8950165, "rental_uris": {"ios": "https://dc.lft.to/lastmile_qr_scan", "android": "https://dc.lft.to/lastmile_qr_scan"}, "is_reserved": 0, "fusion_lon": 0.0, "fusion_lat": 0.0, "lon": -76.9347845, "name": "4d8d3ade80f992d138add39eca1e69d6"}, {"bike_id": "7ada4d4e8d246ee55b0b8d303e8eeee1", "type": "electric_scooter", "is_disabled": 0, "lat": 38.897527, "rental_uris": {"ios": "https://dc.lft.to/lastmile_qr_scan", "android": "https://dc.lft.to/lastmile_qr_scan"}, "is_reserved": 0, "fusion_lon": 0.0, "fusion_lat": 0.0, "lon": -77.04661733333333, "name": "7ada4d4e8d246ee55b0b8d303e8eeee1"}, {"bike_id": "ae5ca2e4e32d888f9d0c743d99a793b9", "type": "electric_scooter", "is_disabled": 0, "lat": 38.86692883333333, "rental_uris": {"ios": "https://dc.lft.to/lastmile_qr_scan", "android": "https://dc.lft.to/lastmile_qr_scan"}, "is_reserved": 0, "fusion_lon": 0.0, "fusion_lat": 0.0, "lon": -76.98565016666667, "name": "ae5ca2e4e32d888f9d0c743d99a793b9"}, {"bike_id": "107b87031067b7f9f9a5b3d5decf8d79", "type": "electric_bike", "is_disabled": 0, "lat": 38.8483275, "rental_uris": {"ios": "https://dc.lft.to/lastmile_qr_scan", "android": "https://dc.lft.to/lastmile_qr_scan"}, "is_reserved": 0, "fusion_lon": 0.0, "fusion_lat": 0.0, "lon": -77.07914183333334, "name": "107b87031067b7f9f9a5b3d5decf8d79"}, {"bike_id": "fdd77c962036db8881068439c0aa96ce", "type": "electric_scooter", "is_disabled": 0, "lat": 38.915087166666666, "rental_uris": {"ios": "https://dc.lft.to/lastmile_qr_scan", "android": "https://dc.lft.to/lastmile_qr_scan"}, "is_reserved": 0, "fusion_lon": 0.0, "fusion_lat": 0.0, "lon": -77.02287066666666, "name": "fdd77c962036db8881068439c0aa96ce"}, {"bike_id": "66385cb5dd027b2621139515381287dc", "type": "electric_scooter", "is_disabled": 0, "lat": 38.94338883333333, "rental_uris": {"ios": "https://dc.lft.to/lastmile_qr_scan", "android": "https://dc.lft.to/lastmile_qr_scan"}, "is_reserved": 0, "fusion_lon": 0.0, "fusion_lat": 0.0, "lon": -77.06136383333333, "name": "66385cb5dd027b2621139515381287dc"}, {"bike_id": "82755083c1d33ab4e0b22d3cfb8582ce", "type": "electric_scooter", "is_disabled": 0, "lat": 38.92550333333333, "rental_uris": {"ios": "https://dc.lft.to/lastmile_qr_scan", "android": "https://dc.lft.to/lastmile_qr_scan"}, "is_reserved": 0, "fusion_lon": 0.0, "fusion_lat": 0.0, "lon": -77.03360666666667, "name": "82755083c1d33ab4e0b22d3cfb8582ce"},