{"data": {"bikes": [{"name": "10e6b804cd1dff17d23bf54c75b9cad1", "type": "electric_scooter", "lat": 38.92737316666667, "is_reserved": 0, "lon": -77.02491666666667, "fusion_lon": 0.0, "is_disabled": 0, "fusion_lat": 0.0, "bike_id": "10e6b804cd1dff17d23bf54c75b9cad1", "rental_uris": {"ios": "https://dc.lft.to/lastmile_qr_scan", "android": "https://dc.lft.to/lastmile_qr_scan"}}, {"name": "d8e12e2838ccaaf2f18ad6520cdd0a36", "type": "electric_scooter", "lat": 38.93908483333333, "is_reserved": 0, "lon": -77.0604465, "fusion_lon": 0.0, "is_disabled": 0, "fusion_lat": 0.0, "bike_id": "d8e12e2838ccaaf2f18ad6520cdd0a36", "rental_uris": {"ios": "https://dc.lft.to/lastmile_qr_scan", "android": "https://dc.lft.to/lastmile_qr_scan"}}, {"name": "cfe41aa58e371430a68fc20b320ff607", "type": "electric_scooter", "lat": 38.88346166666667, "is_reserved": 0, "lon": -77.01545483333334, "fusion_lon": 0.0, "is_disabled": 0, "fusion_lat": 0.0, "bike_id": "cfe41aa58e371430a68fc20b320ff607", "rental_uris": {"ios": "https://dc.lft.to/lastmile_qr_scan", "android": "https://dc.lft.to/lastmile_qr_scan"}}, {"name": "ae37b0cdd802fc5b309e2a234db77656", "type": "electric_scooter", "lat": 38.885340666666664, "is_reserved": 0, "lon": -77.00582966666667, "fusion_lon": 0.0, "is_disabled": 0, "fusion_lat": 0.0, "bike_id": "ae37b0cdd802fc5b309e2a234db77656", "rental_uris": {"ios": "https://dc.lft.to/lastmile_qr_scan", "android": "https://dc.lft.to/lastmile_qr_scan"}}, {"name": "b6cf5bed51a587800f5c2e038dfaffc9", "type": "electric_scooter", "lat": 38.89232416666667, "is_reserved": 0, "lon": -77.01273716666667, "fusion_lon": 0.0, "is_disabled": 0, "fusion_lat": 0.0, "bike_id": "b6cf5bed51a587800f5c2e038dfaffc9", "rental_uris": {"ios": "https://dc.lft.to/lastmile_qr_scan", "android": "https://dc.lft.to/lastmile_qr_scan"}}, {"name": "0f659cda6d11acb7785703b1aa7080dd", "type": "electric_scooter", "lat": 38.88028883333333, "is_reserved": 0, "lon": -76.988382, "fusion_lon": 0.0, "is_disabled": 0, "fusion_lat": 0.0, "bike_id": "0f659cda6d11acb7785703b1aa7080dd", "rental_uris": {"ios": "https://dc.lft.to/lastmile_qr_scan", "android": "https://dc.lft.to/lastmile_qr_scan"}}, {"name": "98f19b6ee18b6d9b294d8ab4282ea267", "type": "electric_scooter", "lat": 38.89991366666667, "is_reserved": 0, "lon": -77.04024566666666, "fusion_lon": 0.0, "is_disabled": 0, "fusion_lat": 0.0, "bike_id": "98f19b6ee18b6d9b294d8ab4282ea267", "rental_uris": {"ios": "https://dc.lft.to/lastmile_qr_scan", "android": "https://dc.lft.to/lastmile_qr_scan"}}, {"name": "c14e3ce58feca8620a2dd09dd43028aa", "type": "electric_scooter", "lat": 38.901652166666665, "is_reserved": 0, "lon": -77.01614116666667, "fusion_lon": 0.0, "is_disabled": 0, "fusion_lat": 0.0, "bike_id": "c14e3ce58feca8620a2dd09dd43028aa", "rental_uris": {"ios": "https://dc.lft.to/lastmile_qr_scan", "android": "https://dc.lft.to/lastmile_qr_scan"}}, {"name": "ec407d3ea2c7f6ff108240534fb70a01", "type": "electric_scooter", "lat": 38.91006466666666, "is_reserved": 0, "lon": -76.996787, "fusion_lon": 0.0, "is_disabled": 0, "fusion_lat": 0.0, "bike_id": "ec407d3ea2c7f6ff108240534fb70a01", "rental_uris": {"ios": "https://dc.lft.to/lastmile_qr_scan", "android": "https://dc.lft.to/lastmile_qr_scan"}}, {"name": "b0ed6814a258f12374c502f3ac19a33a", "type": "electric_scooter", "lat": 38.906396666666666, "is_reserved": 0, "lon": -77.0433585, "fusion_lon": 0.0, "is_disabled": 0, "fusion_lat": 0.0, "bike_id": "b0ed6814a258f12374c502f3ac19a33a", "rental_uris": {"ios": "https://dc.lft.to/lastmile_qr_scan", "android": "https://dc.lft.to/lastmile_qr_scan"}}, {"name": "42a9307fdd7ce58bca7695b960977478", "type": "electric_scooter", "lat": 38.90082016666667, "is_reserved": 0, "lon": -77.05907383333333, "fusion_lon": 0.0, "is_disabled": 0, "fusion_lat": 0.0, "bike_id": "42a9307fdd7ce58bca7695b960977478", "rental_uris": {"ios": "https://dc.lft.to/lastmile_qr_scan", "android": "https://dc.lft.to/lastmile_qr_scan"}}, {"name": "acf520ca9980d5fa0eea536d8acaaabb", "type": "electric_scooter", "lat": 38.90517166666667, "is_reserved": 0, "lon": -77.053242, "fusion_lon": 0.0, "is_disabled": 0, "fusion_lat": 0.0, "bike_id": "acf520ca9980d5fa0eea536d8acaaabb", "rental_uris": {"ios": "https://dc.lft.to/lastmile_qr_scan", "android": "https://dc.lft.to/lastmile_qr_scan"}}, {"name": "0506042f6c9a0caff615a70ef3cf4e09", "type": "electric_scooter", "lat": 38.9253585, "is_reserved": 0, "lon": -77.02638966666666, "fusion_lon": 0.0, "is_disabled": 0, "fusion_lat": 0.0, "bike_id": "0506042f6c9a0caff615a70ef3cf4e09", "rental_uris": {"ios": "https://dc.lft.to/lastmile_qr_scan", "android": "https://dc.lft.to/lastmile_qr_scan"}}, {"name": "f8a508d2df86a48bcee6406cc83c4458", "type": "electric_scooter", "lat": 38.949829, "is_reserved": 0, "lon": -77.06686016666667, "fusion_lon": 0.0, "is_disabled": 0, "fusion_lat": 0.0, "bike_id": "f8a508d2df86a48bcee6406cc83c4458", "rental_uris": {"ios": "https://dc.lft.to/lastmile_qr_scan", "android": "https://dc.lft.to/lastmile_qr_scan"}}, {"name": "150b5c04dc3baf51b1b95d5f543700eb", "type": "electric_scooter", "lat": 38.9347765, "is_reserved": 0, "lon": -77.07266666666666, "fusion_lon": 0.0, "is_disabled": 0, "fusion_lat": 0.0, "bike_id": "150b5c04dc3baf51b1b95d5f543700eb", "rental_uris": {"ios": "https://dc.lft.to/lastmile_qr_scan", "android": "https://dc.lft.to/lastmile_qr_scan"}}, {"name": "fca935ca2211d8514fb1a8cddde03a85", "type": "electric_scooter", "lat": 38.90725066666667, "is_reserved": 0, "lon": -76.98600183333333, "fusion_lon": 0.0, "is_disabled": 0, "fusion_lat": 0.0, "bike_id": "fca935ca2211d8514fb1a8cddde03a85", "rental_uris": {"ios": "https://dc.lft.to/lastmile_qr_scan", "android": "https://dc.lft.to/lastmile_qr_scan"}}, {"name": "331acddbac2308c97a32e8cde2c9f358", "type": "electric_scooter", "lat": 38.91348833333333, "is_reserved": 0, "lon": -77.02082633333333, "fusion_lon": 0.0, "is_disabled": 0, "fusion_lat": 0.0, "bike_id": "331acddbac2308c97a32e8cde2c9f358", "rental_uris": {"ios": "https://dc.lft.to/lastmile_qr_scan", "android": "https://dc.lft.to/lastmile_qr_scan"}}, {"name": "471b6e2e27fbcb8582f474438914a1ae", "type": "electric_bike", "lat": 38.850623166666665, "is_reserved": 0, "lon": -76.9733065, "fusion_lon": 0.0, "is_disabled": 0, "fusion_lat": 0.0, "bike_id": "471b6e2e27fbcb8582f474438914a1ae", "rental_uris": {"ios": "https://dc.lft.to/lastmile_qr_scan", "android": "https://dc.lft.to/lastmile_qr_scan"}}, {"name": "ac02d5138863fe1dea4b8e30a54b204b", "type": "electric_scooter", "lat": 38.909002, "is_reserved": 0, "lon": -77.02296866666667, "fusion_lon": 0.0, "is_disabled": 0, "fusion_lat": 0.0, "bike_id": "ac02d5138863fe1dea4b8e30a54b204b", "rental_uris": {"ios": "https://dc.lft.to/lastmile_qr_scan", "android": "https://dc.lft.to/lastmile_qr_scan"}}, {"name": "990523419d099a414642cbbcf0ac856f", "type": "electric_scooter", "lat": 38.932024166666665, "is_reserved": 0, "lon": -77.03852333333333, "fusion_lon": 0.0, "is_disabled": 0, "fusion_lat": 0.0, "bike_id": "990523419d099a414642cbbcf0ac856f", "rental_uris": {"ios": "https://dc.lft.to/lastmile_qr_scan", "android": "https://dc.lft.to/lastmile_qr_scan"}}, {"name": "084f9e9b90ba2decb6492b68e55b93d8", "type": "electric_scooter", "lat": 38.916977833333334, "is_reserved": 0, "lon": -77.00810666666666, "fusion_lon": 0.0, "is_disabled": 0, "fusion_lat": 0.0, "bike_id": "084f9e9b90ba2decb6492b68e55b93d8", "rental_uris": {"ios": "https://dc.lft.to/lastmile_qr_scan", "android": "https://dc.lft.to/lastmile_qr_scan"}}, {"name": "f8fe8839b60b9ae86452f6ff0b2ee140", "type": "electric_scooter", "lat": 38.89477883333333, "is_reserved": 0, "lon": -76.98597366666667, "fusion_lon": 0.0, "is_disabled": 0, "fusion_lat": 0.0, "bike_id": "f8fe8839b60b9ae86452f6ff0b2ee140", "rental_uris": {"ios": "https://dc.lft.to/lastmile_qr_scan", "android": "https://dc.lft.to/lastmile_qr_scan"}}, {"name": "d0d0989bef2988d1097d3ed2c6aab446", "type": "electric_scooter", "lat": 38.93775933333333, "is_reserved": 0, "lon": -77.03261833333333, "fusion_lon": 0.0, "is_disabled": 0, "fusion_lat": 0.0, "bike_id": "d0d0989bef2988d1097d3ed2c6aab446", "rental_uris": {"ios": "https://dc.lft.to/lastmile_qr_scan", "android": "https://dc.lft.to/lastmile_qr_scan"}}, {"name": "5662f9fa265e248982a2ed7684109512", "type": "electric_scooter", "lat": 38.90382483333333, "is_reserved": 0, "lon": -77.0406225, "fusion_lon": 0.0, "is_disabled": 0, "fusion_lat": 0.0, "bike_id": "5662f9fa265e248982a2ed7684109512", "rental_uris": {"ios": "https://dc.lft.to/lastmile_qr_scan", "android": "https://dc.lft.to/lastmile_qr_scan"}}, {"name": "62eb65160136491a2e3bcaee70c9d919", "type": "electric_scooter", "lat": 38.89986866666667, "is_reserved": 0, "lon": -77.02279833333333, "fusion_lon": 0.0, "is_disabled": 0, "fusion_lat": 0.0, "bike_id": "62eb65160136491a2e3bcaee70c9d919", "rental_uris": {"ios": "https://dc.lft.to/lastmile_qr_scan", "android": "https://dc.lft.to/lastmile_qr_scan"}}, {"name": "d45949b4eb0d86eac4716c46875b0196", "type": "electric_scooter", "lat": 38.9428135, "is_reserved": 0, "lon": -77.0250555, "fusion_lon": 0.0, "is_disabled": 0, "fusion_lat": 0.0, "bike_id": "d45949b4eb0d86eac4716c46875b0196", "rental_uris": {"ios": "https://dc.lft.to/lastmile_qr_scan", "android": "https://dc.lft.to/lastmile_qr_scan"}}, {"name": "e60367283b6471f9e6f44759b42e3cf5", "type": "electric_scooter", "lat": 38.90671316666667, "is_reserved": 0, "lon": -77.02703316666667, "fusion_lon": 0.0, "is_disabled": 0, "fusion_lat": 0.0, "bike_id": "e60367283b6471f9e6f44759b42e3cf5", "rental_uris": {"ios": "https://dc.lft.to/lastmile_qr_scan", "android": "https://dc.lft.to/lastmile_qr_scan"}}, {"name": "f39f7d7135800a4941462bae027e6065", "type": "electric_scooter", "lat": 38.899714333333336, "is_reserved": 0, "lon": -76.93776216666667, "fusion_lon": 0.0, "is_disabled": 0, "fusion_lat": 0.0, "bike_id": "f39f7d7135800a4941462bae027e6065", "rental_uris": {"ios": "https://dc.lft.to/lastmile_qr_scan", "android": "https://dc.lft.to/lastmile_qr_scan"}}, {"name": "4fd3cc87e5c139afaf4b7314f8f45147", "type": "electric_scooter", "lat": 38.905151000000004, "is_reserved": 0, "lon": -77.07016866666666, "fusion_lon": 0.0, "is_disabled": 0, "fusion_lat": 0.0, "bike_id": "4fd3cc87e5c139afaf4b7314f8f45147", "rental_uris": {"ios": "https://dc.lft.to/lastmile_qr_scan", "android": "https://dc.lft.to/lastmile_qr_scan"}}, {"name": "eab1a94a7ce3c017eec99f2e45e2d2c7", "type": "electric_scooter", "lat": 38.909791166666665, "is_reserved": 0, "lon": -77.00918316666667, "fusion_lon": 0.0, "is_disabled": 0, "fusion_lat": 0.0, "bike_id": "eab1a94a7ce3c017eec99f2e45e2d2c7", "rental_uris": {"ios": "https://dc.lft.to/lastmile_qr_scan", "android": "https://dc.lft.to/lastmile_qr_scan"}}, {"name": "dc3b07508ea172b0f2bbaa1d6a84152e", "type": "electric_scooter", "lat": 38.93493816666667, "is_reserved": 0, "lon": -77.0328315, "fusion_lon": 0.0, "is_disabled": 0, "fusion_lat": 0.0, "bike_id": "dc3b07508ea172b0f2bbaa1d6a84152e", "rental_uris": {"ios": "https://dc.lft.to/lastmile_qr_scan", "android": "https://dc.lft.to/lastmile_qr_scan"}}, {"name": "7f6fa9fde0c64784a6c629713c6ecdcb", "type": "electric_scooter", "lat": 38.892239333333336, "is_reserved": 0, "lon": -77.0453935, "fusion_lon": 0.0, "is_disabled": 0, "fusion_lat": 0.0, "bike_id": "7f6fa9fde0c64784a6c629713c6ecdcb", "rental_uris": {"ios": "https://dc.lft.to/lastmile_qr_scan", "android": "https://dc.lft.to/lastmile_qr_scan"}}, {"name": "2c02bed9d7c5b38d08638b9bbe95256b", "type": "electric_scooter", "lat": 38.9056645, "is_reserved": 0, "lon": -76.98145883333333, "fusion_lon": 0.0, "is_disabled": 0, "fusion_lat": 0.0, "bike_id": "2c02bed9d7c5b38d08638b9bbe95256b", "rental_uris": {"ios": "https://dc.lft.to/lastmile_qr_scan", "android": "https://dc.lft.to/lastmile_qr_scan"}}, {"name": "b1a6e6444979da237745c4b1d664f023", "type": "electric_scooter", "lat": 38.897250166666666, "is_reserved": 0, "lon": -77.0293445, "fusion_lon": 0.0, "is_disabled": 0, "fusion_lat": 0.0, "bike_id": "b1a6e6444979da237745c4b1d664f023", "rental_uris": {"ios": "https://dc.lft.to/lastmile_qr_scan", "android": "https://dc.lft.to/lastmile_qr_scan"}}, {"name": "3aafed6990a8176bec5fde14e7eef549", "type": "electric_scooter", "lat": 38.91864433333333, "is_reserved": 0, "lon": -77.04171516666666, "fusion_lon": 0.0, "is_disabled": 0, "fusion_lat": 0.0, "bike_id": "3aafed6990a8176bec5fde14e7eef549", "rental_uris": {"ios": "https://dc.lft.to/lastmile_qr_scan", "android": "https://dc.lft.to/lastmile_qr_scan"}}, {"name": "ad3dc44a992b01c9f5c87f13df68b2a2", "type": "electric_scooter", "lat": 38.87675816666667, "is_reserved": 0, "lon": -77.00061916666667, "fusion_lon": 0.0, "is_disabled": 0, "fusion_lat": 0.0, "bike_id": "ad3dc44a992b01c9f5c87f13df68b2a2", "rental_uris": {"ios": "https://dc.lft.to/lastmile_qr_scan", "android": "https://dc.lft.to/lastmile_qr_scan"}}, {"name": "3d15c7224872d6e46cefdea27fd852cb", "type": "electric_scooter", "lat": 38.899693666666664, "is_reserved": 0, "lon": -77.02697416666666, "fusion_lon": 0.0, "is_disabled": 0, "fusion_lat": 0.0, "bike_id": "3d15c7224872d6e46cefdea27fd852cb", "rental_uris": {"ios": "https://dc.lft.to/lastmile_qr_scan", "android": "https://dc.lft.to/lastmile_qr_scan"}}, {"name": "d9f3430f7edff4bc681e535afef69b62", "type": "electric_scooter", "lat": 38.91113166666667, "is_reserved": 0, "lon": -77.0452785, "fusion_lon": 0.0, "is_disabled": 0, "fusion_lat": 0.0, "bike_id": "d9f3430f7edff4bc681e535afef69b62", "rental_uris": {"ios": "https://dc.lft.to/lastmile_qr_scan", "android": "https://dc.lft.to/lastmile_qr_scan"}}, {"name": "8b414b7585db73d9a9523161f859cedb", "type": "electric_scooter", "lat": 38.90259416666667, "is_reserved": 0, "lon": -77.03408683333333, "fusion_lon": 0.0, "is_disabled": 0, "fusion_lat": 0.0, "bike_id": "8b414b7585db73d9a9523161f859cedb", "rental_uris": {"ios": "https://dc.lft.to/lastmile_qr_scan", "android": "https://dc.lft.to/lastmile_qr_scan"}}, {"name": "a65a655a2d33e1e4d48eea0703accd90", "type": "electric_scooter", "lat": 38.91491716666667, "is_reserved": 0, "lon": -77.0393, "fusion_lon": 0.0, "is_disabled": 0, "fusion_lat": 0.0, "bike_id": "a65a655a2d33e1e4d48eea0703accd90", "rental_uris": {"ios": "https://dc.lft.to/lastmile_qr_scan", "android": "https://dc.lft.to/lastmile_qr_scan"}}, {"name": "01d979074eeb1af8f3ad19e934631414", "type": "electric_scooter", "lat": 38.93980716666667, "is_reserved": 0, "lon": -77.02593716666667, "fusion_lon": 0.0, "is_disabled": 0, "fusion_lat": 0.0, "bike_id": "01d979074eeb1af8f3ad19e934631414", "rental_uris": {"ios": "https://dc.lft.to/lastmile_qr_scan", "android": "https://dc.lft.to/lastmile_qr_scan"}}, {"name": "1cd3f69b31221684f42ffc60a5151183", "type": "electric_scooter", "lat": 38.8988375, "is_reserved": 0, "lon": -77.03336916666666, "fusion_lon": 0.0, "is_disabled": 0, "fusion_lat": 0.0, "bike_id": "1cd3f69b31221684f42ffc60a5151183", "rental_uris": {"ios": "https://dc.lft.to/lastmile_qr_scan", "android": "https://dc.lft.to/lastmile_qr_scan"}}, {"name": "b1286454e4e260b8f93a8d5d0a83c690", "type": "electric_scooter", "lat": 38.9017045, "is_reserved": 0, "lon": -77.0320125, "fusion_lon": 0.0, "is_disabled": 0, "fusion_lat": 0.0, "bike_id": "b1286454e4e260b8f93a8d5d0a83c690", "rental_uris": {"ios": "https://dc.lft.to/lastmile_qr_scan", "android": "https://dc.lft.to/lastmile_qr_scan"}}, {"name": "87ef1b54ba7e85887c966bb1a02cac36", "type": "electric_scooter", "lat": 38.91398433333333, "is_reserved": 0, "lon": -77.031847, "fusion_lon": 0.0, "is_disabled": 0, "fusion_lat": 0.0, "bike_id": "87ef1b54ba7e85887c966bb1a02cac36", "rental_uris": {"ios": "https://dc.lft.to/lastmile_qr_scan", "android": "https://dc.lft.to/lastmile_qr_scan"}}, {"name": "78749e86bc38c48e73551d13a033e635", "type": "electric_bike", "lat": 38.880460666666664, "is_reserved": 0, "lon": -77.01324383333333, "fusion_lon": 0.0, "is_disabled": 0, "fusion_lat": 0.0, "bike_id": "78749e86bc38c48e73551d13a033e635", "rental_uris": {"ios": "https://dc.lft.to/lastmile_qr_scan", "android": "https://dc.lft.to/lastmile_qr_scan"}}, {"name": "f06f091c6a090d71425d2fc7111fee54", "type": "electric_scooter", "lat": 38.885308, "is_reserved": 0, "lon": -77.00583866666666, "fusion_lon": 0.0, "is_disabled": 0, "fusion_lat": 0.0, "bike_id": "f06f091c6a090d71425d2fc7111fee54", "rental_uris": {"ios": "https://dc.lft.to/lastmile_qr_scan", "android": "https://dc.lft.to/lastmile_qr_scan"}}, {"name": "3da818cad6e255493902866efe413fbe", "type": "electric_scooter", "lat": 38.905933166666664, "is_reserved": 0, "lon": -77.05124216666667, "fusion_lon": 0.0, "is_disabled": 0, "fusion_lat": 0.0, "bike_id": "3da818cad6e255493902866efe413fbe", "rental_uris": {"ios": "https://dc.lft.to/lastmile_qr_scan", "android": "https://dc.lft.to/lastmile_qr_scan"}}, {"name": "cf7a6d3f41554ff6608ea03a189a8f1a", "type": "electric_scooter", "lat": 38.89935533333333, "is_reserved": 0, "lon": -77.046681, "fusion_lon": 0.0, "is_disabled": 0, "fusion_lat": 0.0, "bike_id": "cf7a6d3f41554ff6608ea03a189a8f1a", "rental_uris": {"ios": "https://dc.lft.to/lastmile_qr_scan", "android": "https://dc.lft.to/lastmile_qr_scan"}}, {"name": "a965228729d26efbd9e987778afb4995", "type": "electric_scooter", "lat": 38.927678666666665, "is_reserved": 0, "lon": -77.02713716666666, "fusion_lon": 0.0, "is_disabled": 0, "fusion_lat": 0.0, "bike_id": "a965228729d26efbd9e987778afb4995", "rental_uris": {"ios": "https://dc.lft.to/lastmile_qr_scan", "android": "https://dc.lft.to/lastmile_qr_scan"}}, {"name": "ab751d93e6a8165d922be07bda98742c", "type": "electric_scooter", "lat": 38.911173, "is_reserved": 0, "lon": -77.00249516666666, "fusion_lon": 0.0, "is_disabled": 0, "fusion_lat": 0.0, "bike_id": "ab751d93e6a8165d922be07bda98742c", "rental_uris": {"ios": "https://dc.lft.to/lastmile_qr_scan", "android": "https://dc.lft.to/lastmile_qr_scan"}}, {"name": "45e73d89918540727920e314385fc8a1", "type": "electric_bike", "lat": 38.877319, "is_reserved": 0, "lon": -77.118462, "fusion_lon": 0.0, "is_disabled": 0, "fusion_lat": 0.0, "bike_id": "45e73d89918540727920e314385fc8a1", "rental_uris": {"ios": "https://dc.lft.to/lastmile_qr_scan", "android": "https://dc.lft.to/lastmile_qr_scan"}}, {"name": "ca8d40ed1c9c2a6a71ac85a51c629a97", "type": "electric_scooter", "lat": 38.91301633333333, "is_reserved": 0, "lon": -77.04033516666667, "fusion_lon": 0.0, "is_disabled": 0, "fusion_lat": 0.0, "bike_id": "ca8d40ed1c9c2a6a71ac85a51c629a97", "rental_uris": {"ios": "https://dc.lft.to/lastmile_qr_scan", "android": "https://dc.lft.to/lastmile_qr_scan"}}, {"name": "dd03aa3e16aea2c774167f200190a9d4", "type": "electric_scooter", "lat": 38.901779, "is_reserved": 0, "lon": -77.04659116666667, "fusion_lon": 0.0, "is_disabled": 0, "fusion_lat": 0.0, "bike_id": "dd03aa3e16aea2c774167f200190a9d4", "rental_uris": {"ios": "https://dc.lft.to/lastmile_qr_scan", "android": "https://dc.lft.to/lastmile_qr_scan"}}, {"name": "cdeaa41457c5084fa0f638cb83ddf42c", "type": "electric_scooter", "lat": 38.93674983333333, "is_reserved": 0, "lon": -77.0362435, "fusion_lon": 0.0, "is_disabled": 0, "fusion_lat": 0.0, "bike_id": "cdeaa41457c5084fa0f638cb83ddf42c", "rental_uris": {"ios": "https://dc.lft.to/lastmile_qr_scan", "android": "https://dc.lft.to/lastmile_qr_scan"}}, {"name": "2c7b3479fda918b53ea0d7768ba3e00c", "type": "electric_scooter", "lat": 38.91214433333333, "is_reserved": 0, "lon": -77.02796466666666, "fusion_lon": 0.0, "is_disabled": 0, "fusion_lat": 0.0, "bike_id": "2c7b3479fda918b53ea0d7768ba3e00c", "rental_uris": {"ios": "https://dc.lft.to/lastmile_qr_scan", "android": "https://dc.lft.to/lastmile_qr_scan"}}, {"name": "28ab9d0a0f6170cfcb8eb97ee9904f16", "type": "electric_scooter", "lat": 38.91404716666667, "is_reserved": 0, "lon": -77.03216783333333, "fusion_lon": 0.0, "is_disabled": 0, "fusion_lat": 0.0, "bike_id": "28ab9d0a0f6170cfcb8eb97ee9904f16", "rental_uris": {"ios": "https://dc.lft.to/lastmile_qr_scan", "android": "https://dc.lft.to/lastmile_qr_scan"}}, {"name": "22fea28e00d80de45cf01576c85132eb", "type": "electric_scooter", "lat": 38.88350616666666, "is_reserved": 0, "lon": -76.98554933333334, "fusion_lon": 0.0, "is_disabled": 0, "fusion_lat": 0.0, "bike_id": "22fea28e00d80de45cf01576c85132eb", "rental_uris": {"ios": "https://dc.lft.to/lastmile_qr_scan", "android": "https://dc.lft.to/lastmile_qr_scan"}}, {"name": "c98115177d41a2994ebdc7640d0b6080", "type": "electric_scooter", "lat": 38.897299833333335, "is_reserved": 0, "lon": -77.00152466666667, "fusion_lon": 0.0, "is_disabled": 0, "fusion_lat": 0.0, "bike_id": "c98115177d41a2994ebdc7640d0b6080", "rental_uris": {"ios": "https://dc.lft.to/lastmile_qr_scan", "android": "https://dc.lft.to/lastmile_qr_scan"}}, {"name": "c5139703e3d00fac9e586b286ae0ab2a", "type": "electric_scooter", "lat": 38.914082, "is_reserved": 0, "lon": -77.041304, "fusion_lon": 0.0, "is_disabled": 0, "fusion_lat": 0.0, "bike_id": "c5139703e3d00fac9e586b286ae0ab2a", "rental_uris": {"ios": "https://dc.lft.to/lastmile_qr_scan", "android": "https://dc.lft.to/lastmile_qr_scan"}}, {"name": "9ab511366a9303c006a260d4330b926c", "type": "electric_scooter", "lat": 38.883112833333335, "is_reserved": 0, "lon": -77.01758183333334, "fusion_lon": 0.0, "is_disabled": 0, "fusion_lat": 0.0, "bike_id": "9ab511366a9303c006a260d4330b926c", "rental_uris": {"ios": "https://dc.lft.to/lastmile_qr_scan", "android": "https://dc.lft.to/lastmile_qr_scan"}}, {"name": "03031755a7100b43878e1aa2df4308df", "type": "electric_scooter", "lat": 38.918173833333334, "is_reserved": 0, "lon": -77.04513983333334, "fusion_lon": 0.0, "is_disabled": 0, "fusion_lat": 0.0, "bike_id": "03031755a7100b43878e1aa2df4308df", "rental_uris": {"ios": "https://dc.lft.to/lastmile_qr_scan", "android": "https://dc.lft.to/lastmile_qr_scan"}}, {"name": "a23b3b20432f5ccdd3f0e0bd764321ff", "type": "electric_scooter", "lat": 38.939486333333335, "is_reserved": 0, "lon": -77.0326115, "fusion_lon": 0.0, "is_disabled": 0, "fusion_lat": 0.0, "bike_id": "a23b3b20432f5ccdd3f0e0bd764321ff", "rental_uris": {"ios": "https://dc.lft.to/lastmile_qr_scan", "android": "https://dc.lft.to/lastmile_qr_scan"}}, {"name": "73d5e51d3f10ae5c3d5ca0778bfa583f", "type": "electric_scooter", "lat": 38.91106333333333, "is_reserved": 0, "lon": -77.04231583333333, "fusion_lon": 0.0, "is_disabled": 0, "fusion_lat": 0.0, "bike_id": "73d5e51d3f10ae5c3d5ca0778bfa583f", "rental_uris": {"ios": "https://dc.lft.to/lastmile_qr_scan", "android": "https://dc.lft.to/lastmile_qr_scan"}}, {"name": "9ef739ecd7aca147fd5f91afa089df23", "type": "electric_bike", "lat": 38.85221266666667, "is_reserved": 0, "lon": -77.129572, "fusion_lon": 0.0, "is_disabled": 0, "fusion_lat": 0.0, "bike_id": "9ef739ecd7aca147fd5f91afa089df23", "rental_uris": {"ios": "https://dc.lft.to/lastmile_qr_scan", "android": "https://dc.lft.to/lastmile_qr_scan"}}, {"name": "d2ed58c59d575cd8aa78e10544e0c816", "type": "electric_scooter", "lat": 38.939517, "is_reserved": 0, "lon": -77.03259966666667, "fusion_lon": 0.0, "is_disabled": 0, "fusion_lat": 0.0, "bike_id": "d2ed58c59d575cd8aa78e10544e0c816", "rental_uris": {"ios": "https://dc.lft.to/lastmile_qr_scan", "android": "https://dc.lft.to/lastmile_qr_scan"}}, {"name": "6fab245b22aaf1a1ececfd331390af1c", "type": "electric_bike", "lat": 38.83233366666666, "is_reserved": 0, "lon": -77.00727433333333, "fusion_lon": 0.0, "is_disabled": 0, "fusion_lat": 0.0, "bike_id": "6fab245b22aaf1a1ececfd331390af1c", "rental_uris": {"ios": "https://dc.lft.to/lastmile_qr_scan", "android": "https://dc.lft.to/lastmile_qr_scan"}}, {"name": "c47f5113342d5126ae73c4fca9e35dfd", "type": "electric_scooter", "lat": 38.9028445, "is_reserved": 0, "lon": -77.04061983333334, "fusion_lon": 0.0, "is_disabled": 0, "fusion_lat": 0.0, "bike_id": "c47f5113342d5126ae73c4fca9e35dfd", "rental_uris": {"ios": "https://dc.lft.to/lastmile_qr_scan", "android": "https://dc.lft.to/lastmile_qr_scan"}}, {"name": "84e7a4ce905c53f279bede93a8e7ab55", "type": "electric_scooter", "lat": 38.88049016666667, "is_reserved": 0, "lon": -76.95985516666667, "fusion_lon": 0.0, "is_disabled": 0, "fusion_lat": 0.0, "bike_id": "84e7a4ce905c53f279bede93a8e7ab55", "rental_uris": {"ios": "https://dc.lft.to/lastmile_qr_scan", "android": "https://dc.lft.to/lastmile_qr_scan"}}, {"name": "46d15575f57667b72b61743cd3e5b9a4", "type": "electric_scooter", "lat": 38.863521166666665, "is_reserved": 0, "lon": -76.990652, "fusion_lon": 0.0, "is_disabled": 0, "fusion_lat": 0.0, "bike_id": "46d15575f57667b72b61743cd3e5b9a4", "rental_uris": {"ios": "https://dc.lft.to/lastmile_qr_scan", "android": "https://dc.lft.to/lastmile_qr_scan"}}, {"name": "a3b63556ac2fd9f662389b6d04eaff30", "type": "electric_bike", "lat": 38.865935, "is_reserved": 0, "lon": -76.93229183333334, "fusion_lon": 0.0, "is_disabled": 0, "fusion_lat": 0.0, "bike_id": "a3b63556ac2fd9f662389b6d04eaff30", "rental_uris": {"ios": "https://dc.lft.to/lastmile_qr_scan", "android": "https://dc.lft.to/lastmile_qr_scan"}}, {"name": "1dae96a480d3c64c5adeeadd18d705be", "type": "electric_scooter", "lat": 38.916841166666664, "is_reserved": 0, "lon": -77.02971616666666, "fusion_lon": 0.0, "is_disabled": 0, "fusion_lat": 0.0, "bike_id": "1dae96a480d3c64c5adeeadd18d705be", "rental_uris": {"ios": "https://dc.lft.to/lastmile_qr_scan", "android": "https://dc.lft.to/lastmile_qr_scan"}}, {"name": "e482cf28d7638fabcc3228a9021b2ef9", "type": "electric_scooter", "lat": 38.917278333333336, "is_reserved": 0, "lon": -77.03839433333333, "fusion_lon": 0.0, "is_disabled": 0, "fusion_lat": 0.0, "bike_id": "e482cf28d7638fabcc3228a9021b2ef9", "rental_uris": {"ios": "https://dc.lft.to/lastmile_qr_scan", "android": "https://dc.lft.to/lastmile_qr_scan"}}, {"name": "89f3532281e400a147439a9ba6d770a9", "type": "electric_scooter", "lat": 38.927596666666666, "is_reserved": 0, "lon": -77.053817, "fusion_lon": 0.0, "is_disabled": 0, "fusion_lat": 0.0, "bike_id": "89f3532281e400a147439a9ba6d770a9", "rental_uris": {"ios": "https://dc.lft.to/lastmile_qr_scan", "android": "https://dc.lft.to/lastmile_qr_scan"}}, {"name": "7c5bb4ac1836834e49d15d7daa669f5d", "type": "electric_scooter", "lat": 38.88358433333333, "is_reserved": 0, "lon": -76.98559083333333, "fusion_lon": 0.0, "is_disabled": 0, "fusion_lat": 0.0, "bike_id": "7c5bb4ac1836834e49d15d7daa669f5d", "rental_uris": {"ios": "https://dc.lft.to/lastmile_qr_scan", "android": "https://dc.lft.to/lastmile_qr_scan"}}, {"name": "8ca1a47e6a02f4aaa643b2977289b375", "type": "electric_bike", "lat": 38.98454666666667, "is_reserved": 0, "lon": -76.95525066666667, "fusion_lon": 0.0, "is_disabled": 0, "fusion_lat": 0.0, "bike_id": "8ca1a47e6a02f4aaa643b2977289b375", "rental_uris": {"ios": "https://dc.lft.to/lastmile_qr_scan", "android": "https://dc.lft.to/lastmile_qr_scan"}}, {"name": "adb0ab31c8a6a85a4804632077413a9c", "type": "electric_scooter", "lat": 38.91697033333333, "is_reserved": 0, "lon": -77.0290535, "fusion_lon": 0.0, "is_disabled": 0, "fusion_lat": 0.0, "bike_id": "adb0ab31c8a6a85a4804632077413a9c", "rental_uris": {"ios": "https://dc.lft.to/lastmile_qr_scan", "android": "https://dc.lft.to/lastmile_qr_scan"}}, {"name": "4809ba7bfb375180b778cb05a5581200", "type": "electric_scooter", "lat": 38.844264, "is_reserved": 0, "lon": -76.99778916666666, "fusion_lon": 0.0, "is_disabled": 0, "fusion_lat": 0.0, "bike_id": "4809ba7bfb375180b778cb05a5581200", "rental_uris": {"ios": "https://dc.lft.to/lastmile_qr_scan", "android": "https://dc.lft.to/lastmile_qr_scan"}}, {"name": "39f0da8371cf47ab6504ec48e98050a9", "type": "electric_scooter", "lat": 38.8826755, "is_reserved": 0, "lon": -76.99511166666667, "fusion_lon": 0.0, "is_disabled": 0, "fusion_lat": 0.0, "bike_id": "39f0da8371cf47ab6504ec48e98050a9", "rental_uris": {"ios": "https://dc.lft.to/lastmile_qr_scan", "android": "https://dc.lft.to/lastmile_qr_scan"}}, {"name": "bc4c5c0a4a8b025ed057e2b82532ccbc", "type": "electric_scooter", "lat": 38.93533383333333, "is_reserved": 0, "lon": -77.03405266666667, "fusion_lon": 0.0, "is_disabled": 0, "fusion_lat": 0.0, "bike_id": "bc4c5c0a4a8b025ed057e2b82532ccbc", "rental_uris": {"ios": "https://dc.lft.to/lastmile_qr_scan", "android": "https://dc.lft.to/lastmile_qr_scan"}}, {"name": "27af1e294d1b1c958b0a8cb9e2af080f", "type": "electric_bike", "lat": 38.854284166666666, "is_reserved": 0, "lon": -76.90956466666667, "fusion_lon": 0.0, "is_disabled": 0, "fusion_lat": 0.0, "bike_id": "27af1e294d1b1c958b0a8cb9e2af080f", "rental_uris": {"ios": "https://dc.lft.to/lastmile_qr_scan", "android": "https://dc.lft.to/lastmile_qr_scan"}}, {"name": "c72eb499bd3a0e10760da3475fa29ed7", "type": "electric_bike", "lat": 38.810505, "is_reserved": 0, "lon": -77.08510033333333, "fusion_lon": 0.0, "is_disabled": 0, "fusion_lat": 0.0, "bike_id": "c72eb499bd3a0e10760da3475fa29ed7", "rental_uris": {"ios": "https://dc.lft.to/lastmile_qr_scan", "android": "https://dc.lft.to/lastmile_qr_scan"}}, {"name": "9377035d4db9a2dce2b04e90ac2198f1", "type": "electric_scooter", "lat": 38.93063983333333, "is_reserved": 0, "lon": -77.03159133333334, "fusion_lon": 0.0, "is_disabled": 0, "fusion_lat": 0.0, "bike_id": "9377035d4db9a2dce2b04e90ac2198f1", "rental_uris": {"ios": "https://dc.lft.to/lastmile_qr_scan", "android": "https://dc.lft.to/lastmile_qr_scan"}}, {"name": "58fd8637631d18f59ce00babbe87ec36", "type": "electric_scooter", "lat": 38.911917833333334, "is_reserved": 0, "lon": -77.00773216666667, "fusion_lon": 0.0, "is_disabled": 0, "fusion_lat": 0.0, "bike_id": "58fd8637631d18f59ce00babbe87ec36", "rental_uris": {"ios": "https://dc.lft.to/lastmile_qr_scan", "android": "https://dc.lft.to/lastmile_qr_scan"}}, {"name": "461129c10ddb3c879956eb29d48a9de4", "type": "electric_scooter", "lat": 38.899182, "is_reserved": 0, "lon": -77.0329825, "fusion_lon": 0.0, "is_disabled": 0, "fusion_lat": 0.0, "bike_id": "461129c10ddb3c879956eb29d48a9de4", "rental_uris": {"ios": "https://dc.lft.to/lastmile_qr_scan", "android": "https://dc.lft.to/lastmile_qr_scan"}}, {"name": "f8942b774d17ec88970bdd54e4643abf", "type": "electric_scooter", "lat": 38.892222833333335, "is_reserved": 0, "lon": -77.04536416666667, "fusion_lon": 0.0, "is_disabled": 0, "fusion_lat": 0.0, "bike_id": "f8942b774d17ec88970bdd54e4643abf", "rental_uris": {"ios": "https://dc.lft.to/lastmile_qr_scan", "android": "https://dc.lft.to/lastmile_qr_scan"}}, {"name": "0dc61a93c59cfdaa11a26ddc97b45f31", "type": "electric_scooter", "lat": 38.92177433333333, "is_reserved": 0, "lon": -76.993904, "fusion_lon": 0.0, "is_disabled": 0, "fusion_lat": 0.0, "bike_id": "0dc61a93c59cfdaa11a26ddc97b45f31", "rental_uris": {"ios": "https://dc.lft.to/lastmile_qr_scan", "android": "https://dc.lft.to/lastmile_qr_scan"}}, {"name": "12326ef7665633a17062f0fe968e19d4", "type": "electric_bike", "lat": 39.0268435, "is_reserved": 0, "lon": -77.12602483333333, "fusion_lon": 0.0, "is_disabled": 0, "fusion_lat": 0.0, "bike_id": "12326ef7665633a17062f0fe968e19d4", "rental_uris": {"ios": "https://dc.lft.to/lastmile_qr_scan", "android": "https://dc.lft.to/lastmile_qr_scan"}}, {"name": "ab853046fedf6e16703fb8cd8760f1b0", "type": "electric_scooter", "lat": 38.92905716666667, "is_reserved": 0, "lon": -77.02162533333333, "fusion_lon": 0.0, "is_disabled": 0, "fusion_lat": 0.0, "bike_id": "ab853046fedf6e16703fb8cd8760f1b0", "rental_uris": {"ios": "https://dc.lft.to/lastmile_qr_scan", "android": "https://dc.lft.to/lastmile_qr_scan"}}, {"name": "dae85635b1002fd8de72fc423f6f0151", "type": "electric_scooter", "lat": 38.92669733333334, "is_reserved": 0, "lon": -76.995371, "fusion_lon": 0.0, "is_disabled": 0, "fusion_lat": 0.0, "bike_id": "dae85635b1002fd8de72fc423f6f0151", "rental_uris": {"ios": "https://dc.lft.to/lastmile_qr_scan", "android": "https://dc.lft.to/lastmile_qr_scan"}}, {"name": "0c280e26b10ed4281f248730f974262f", "type": "electric_scooter", "lat": 38.885658666666664, "is_reserved": 0, "lon": -76.94870383333334, "fusion_lon": 0.0, "is_disabled": 0, "fusion_lat": 0.0, "bike_id": "0c280e26b10ed4281f248730f974262f", "rental_uris": {"ios": "https://dc.lft.to/lastmile_qr_scan", "android": "https://dc.lft.to/lastmile_qr_scan"}}, {"name": "020390feb3b6497648a342c22b7b9378", "type": "electric_scooter", "lat": 38.89809233333333, "is_reserved": 0, "lon": -77.031298, "fusion_lon": 0.0, "is_disabled": 0, "fusion_lat": 0.0, "bike_id": "020390feb3b6497648a342c22b7b9378", "rental_uris": {"ios": "https://dc.lft.to/lastmile_qr_scan", "android": "https://dc.lft.to/lastmile_qr_scan"}}, {"name": "936b24609d29061eaacd7109b5cd9ea8", "type": "electric_scooter", "lat": 38.962475166666664, "is_reserved": 0, "lon": -77.0297745, "fusion_lon": 0.0, "is_disabled": 0, "fusion_lat": 0.0, "bike_id": "936b24609d29061eaacd7109b5cd9ea8", "rental_uris": {"ios": "https://dc.lft.to/lastmile_qr_scan", "android": "https://dc.lft.to/lastmile_qr_scan"}}, {"name": "23fc1e3195411282c06537751aeddc2a", "type": "electric_scooter", "lat": 38.917659666666665, "is_reserved": 0, "lon": -77.0271205, "fusion_lon": 0.0, "is_disabled": 0, "fusion_lat": 0.0, "bike_id": "23fc1e3195411282c06537751aeddc2a", "rental_uris": {"ios": "https://dc.lft.to/lastmile_qr_scan", "android": "https://dc.lft.to/lastmile_qr_scan"}}, {"name": "170ede176cbbd73853c462b89b967b6f", "type": "electric_scooter", "lat": 38.8988205, "is_reserved": 0, "lon": -77.03336133333333, "fusion_lon": 0.0, "is_disabled": 0, "fusion_lat": 0.0, "bike_id": "170ede176cbbd73853c462b89b967b6f", "rental_uris": {"ios": "https://dc.lft.to/lastmile_qr_scan", "android": "https://dc.lft.to/lastmile_qr_scan"}}, {"name": "63681fc8fdfd339cd1fb272c47c6d985", "type": "electric_scooter", "lat": 38.91121966666667, "is_reserved": 0, "lon": -77.0382905, "fusion_lon": 0.0, "is_disabled": 0, "fusion_lat": 0.0, "bike_id": "63681fc8fdfd339cd1fb272c47c6d985", "rental_uris": {"ios": "https://dc.lft.to/lastmile_qr_scan", "android": "https://dc.lft.to/lastmile_qr_scan"}}, {"name": "1e0b8f55e9d8425741135134067a7715", "type": "electric_scooter", "lat": 38.9076915, "is_reserved": 0, "lon": -77.03573716666666, "fusion_lon": 0.0, "is_disabled": 0, "fusion_lat": 0.0, "bike_id": "1e0b8f55e9d8425741135134067a7715", "rental_uris": {"ios": "https://dc.lft.to/lastmile_qr_scan", "android": "https://dc.lft.to/lastmile_qr_scan"}}, {"name": "c286e5f836328ff4e530f9194acab66a", "type": "electric_scooter", "lat": 38.9128535, "is_reserved": 0, "lon": -77.03142116666666, "fusion_lon": 0.0, "is_disabled": 0, "fusion_lat": 0.0, "bike_id": "c286e5f836328ff4e530f9194acab66a", "rental_uris": {"ios": "https://dc.lft.to/lastmile_qr_scan", "android": "https://dc.lft.to/lastmile_qr_scan"}}, {"name": "6c35a8bd0bce5b91fd23b0296e0717f4", "type": "electric_scooter", "lat": 38.89223833333333, "is_reserved": 0, "lon": -77.0433255, "fusion_lon": 0.0, "is_disabled": 0, "fusion_lat": 0.0, "bike_id": "6c35a8bd0bce5b91fd23b0296e0717f4", "rental_uris": {"ios": "https://dc.lft.to/lastmile_qr_scan", "android": "https://dc.lft.to/lastmile_qr_scan"}}, {"name": "515c86eed57095166b1aa683dad4e115", "type": "electric_scooter", "lat": 38.89468683333333, "is_reserved": 0, "lon": -77.0220315, "fusion_lon": 0.0, "is_disabled": 0, "fusion_lat": 0.0, "bike_id": "515c86eed57095166b1aa683dad4e115", "rental_uris": {"ios": "https://dc.lft.to/lastmile_qr_scan", "android": "https://dc.lft.to/lastmile_qr_scan"}}, {"name": "f82603d943c6d2230ac63ef52002f2a7", "type": "electric_scooter", "lat": 38.91402633333333, "is_reserved": 0, "lon": -77.0083785, "fusion_lon": 0.0, "is_disabled": 0, "fusion_lat": 0.0, "bike_id": "f82603d943c6d2230ac63ef52002f2a7", "rental_uris": {"ios": "https://dc.lft.to/lastmile_qr_scan", "android": "https://dc.lft.to/lastmile_qr_scan"}}, {"name": "11182a0358e3375082071b9a52ba04cc", "type": "electric_bike", "lat": 38.867558, "is_reserved": 0, "lon": -76.94532616666666, "fusion_lon": 0.0, "is_disabled": 0, "fusion_lat": 0.0, "bike_id": "11182a0358e3375082071b9a52ba04cc", "rental_uris": {"ios": "https://dc.lft.to/lastmile_qr_scan", "android": "https://dc.lft.to/lastmile_qr_scan"}}, {"name": "1f14180161172349b5fef06fa48d7c75", "type": "electric_scooter", "lat": 38.92016516666666, "is_reserved": 0, "lon": -77.03965416666666, "fusion_lon": 0.0, "is_disabled": 0, "fusion_lat": 0.0, "bike_id": "1f14180161172349b5fef06fa48d7c75", "rental_uris": {"ios": "https://dc.lft.to/lastmile_qr_scan", "android": "https://dc.lft.to/lastmile_qr_scan"}}, {"name": "33ae5e2aace6b422e4002d5d9977256f", "type": "electric_scooter", "lat": 38.91011833333334, "is_reserved": 0, "lon": -77.04427116666666, "fusion_lon": 0.0, "is_disabled": 0, "fusion_lat": 0.0, "bike_id": "33ae5e2aace6b422e4002d5d9977256f", "rental_uris": {"ios": "https://dc.lft.to/lastmile_qr_scan", "android": "https://dc.lft.to/lastmile_qr_scan"}}, {"name": "879688d25be3cd39de92edd22a59d20c", "type": "electric_scooter", "lat": 38.8767385, "is_reserved": 0, "lon": -77.00075916666667, "fusion_lon": 0.0, "is_disabled": 0, "fusion_lat": 0.0, "bike_id": "879688d25be3cd39de92edd22a59d20c", "rental_uris": {"ios": "https://dc.lft.to/lastmile_qr_scan", "android": "https://dc.lft.to/lastmile_qr_scan"}}, {"name": "5049ff594113d9310e0a1c7f896515d2", "type": "electric_scooter", "lat": 38.892200333333335, "is_reserved": 0, "lon": -77.02144616666666, "fusion_lon": 0.0, "is_disabled": 0, "fusion_lat": 0.0, "bike_id": "5049ff594113d9310e0a1c7f896515d2", "rental_uris": {"ios": "https://dc.lft.to/lastmile_qr_scan", "android": "https://dc.lft.to/lastmile_qr_scan"}}, {"name": "73fdbe1d0191c7c9a0f36e379f6a3b6c", "type": "electric_scooter", "lat": 38.8912865, "is_reserved": 0, "lon": -77.003504, "fusion_lon": 0.0, "is_disabled": 0, "fusion_lat": 0.0, "bike_id": "73fdbe1d0191c7c9a0f36e379f6a3b6c", "rental_uris": {"ios": "https://dc.lft.to/lastmile_qr_scan", "android": "https://dc.lft.to/lastmile_qr_scan"}}, {"name": "93aa009a181820d5d833710c1a946b7a", "type": "electric_scooter", "lat": 38.89574183333333, "is_reserved": 0, "lon": -77.02562816666666, "fusion_lon": 0.0, "is_disabled": 0, "fusion_lat": 0.0, "bike_id": "93aa009a181820d5d833710c1a946b7a", "rental_uris": {"ios": "https://dc.lft.to/lastmile_qr_scan", "android": "https://dc.lft.to/lastmile_qr_scan"}}, {"name": "46287f08df80d472a1a759c39bd540d3", "type": "electric_scooter", "lat": 38.903721, "is_reserved": 0, "lon": -77.050825, "fusion_lon": 0.0, "is_disabled": 0, "fusion_lat": 0.0, "bike_id": "46287f08df80d472a1a759c39bd540d3", "rental_uris": {"ios": "https://dc.lft.to/lastmile_qr_scan", "android": "https://dc.lft.to/lastmile_qr_scan"}}, {"name": "05c2e962ed1248845097850f0912bdd5", "type": "electric_bike", "lat": 39.03046066666667, "is_reserved": 0, "lon": -77.09479233333333, "fusion_lon": 0.0, "is_disabled": 0, "fusion_lat": 0.0, "bike_id": "05c2e962ed1248845097850f0912bdd5", "rental_uris": {"ios": "https://dc.lft.to/lastmile_qr_scan", "android": "https://dc.lft.to/lastmile_qr_scan"}}, {"name": "c863883e9c830c687a73d924781f25a1", "type": "electric_scooter", "lat": 38.88385016666667, "is_reserved": 0, "lon": -77.01969716666666, "fusion_lon": 0.0, "is_disabled": 0, "fusion_lat": 0.0, "bike_id": "c863883e9c830c687a73d924781f25a1", "rental_uris": {"ios": "https://dc.lft.to/lastmile_qr_scan", "android": "https://dc.lft.to/lastmile_qr_scan"}}, {"name": "4b83480b8cad55f8cd15ca23b9e145f0", "type": "electric_scooter", "lat": 38.90669583333333, "is_reserved": 0, "lon": -77.027165, "fusion_lon": 0.0, "is_disabled": 0, "fusion_lat": 0.0, "bike_id": "4b83480b8cad55f8cd15ca23b9e145f0", "rental_uris": {"ios": "https://dc.lft.to/lastmile_qr_scan", "android": "https://dc.lft.to/lastmile_qr_scan"}}, {"name": "e57539234c15d78929846c058ccad0c3", "type": "electric_scooter", "lat": 38.908335, "is_reserved": 0, "lon": -77.0008165, "fusion_lon": 0.0, "is_disabled": 0, "fusion_lat": 0.0, "bike_id": "e57539234c15d78929846c058ccad0c3", "rental_uris": {"ios": "https://dc.lft.to/lastmile_qr_scan", "android": "https://dc.lft.to/lastmile_qr_scan"}}, {"name": "315810259ec24512479b803114c471e5", "type": "electric_scooter", "lat": 38.91811766666667, "is_reserved": 0, "lon": -77.00168683333334, "fusion_lon": 0.0, "is_disabled": 0, "fusion_lat": 0.0, "bike_id": "315810259ec24512479b803114c471e5", "rental_uris": {"ios": "https://dc.lft.to/lastmile_qr_scan", "android": "https://dc.lft.to/lastmile_qr_scan"}}, {"name": "7e45666871bd4fe15f96650e1ca2d6d6", "type": "electric_scooter", "lat": 38.913229, "is_reserved": 0, "lon": -77.019698, "fusion_lon": 0.0, "is_disabled": 0, "fusion_lat": 0.0, "bike_id": "7e45666871bd4fe15f96650e1ca2d6d6", "rental_uris": {"ios": "https://dc.lft.to/lastmile_qr_scan", "android": "https://dc.lft.to/lastmile_qr_scan"}}, {"name": "107b6af45801fcfe1361656a63fa64b6", "type": "electric_scooter", "lat": 38.907678833333335, "is_reserved": 0, "lon": -77.029775, "fusion_lon": 0.0, "is_disabled": 0, "fusion_lat": 0.0, "bike_id": "107b6af45801fcfe1361656a63fa64b6", "rental_uris": {"ios": "https://dc.lft.to/lastmile_qr_scan", "android": "https://dc.lft.to/lastmile_qr_scan"}}, {"name": "df5720bfd4909d8100c1cfc58c2b1b11", "type": "electric_scooter", "lat": 38.92838866666666, "is_reserved": 0, "lon": -77.05445166666667, "fusion_lon": 0.0, "is_disabled": 0, "fusion_lat": 0.0, "bike_id": "df5720bfd4909d8100c1cfc58c2b1b11", "rental_uris": {"ios": "https://dc.lft.to/lastmile_qr_scan", "android": "https://dc.lft.to/lastmile_qr_scan"}}, {"name": "72dcb779e7eda107802bb2c4140171d2", "type": "electric_scooter", "lat": 38.908282, "is_reserved": 0, "lon": -76.99695666666666, "fusion_lon": 0.0, "is_disabled": 0, "fusion_lat": 0.0, "bike_id": "72dcb779e7eda107802bb2c4140171d2", "rental_uris": {"ios": "https://dc.lft.to/lastmile_qr_scan", "android": "https://dc.lft.to/lastmile_qr_scan"}}, {"name": "f858d2619c9508eb9c052bb4a38cd9b1", "type": "electric_scooter", "lat": 38.9043335, "is_reserved": 0, "lon": -77.0284705, "fusion_lon": 0.0, "is_disabled": 0, "fusion_lat": 0.0, "bike_id": "f858d2619c9508eb9c052bb4a38cd9b1", "rental_uris": {"ios": "https://dc.lft.to/lastmile_qr_scan", "android": "https://dc.lft.to/lastmile_qr_scan"}}, {"name": "6fc3462c6dbf828199918e549ba85fc4", "type": "electric_bike", "lat": 39.030418, "is_reserved": 0, "lon": -77.09482616666666, "fusion_lon": 0.0, "is_disabled": 0, "fusion_lat": 0.0, "bike_id": "6fc3462c6dbf828199918e549ba85fc4", "rental_uris": {"ios": "https://dc.lft.to/lastmile_qr_scan", "android": "https://dc.lft.to/lastmile_qr_scan"}}, {"name": "d435c7410f8a4e1dc18b95697b50db3e", "type": "electric_scooter", "lat": 38.923228333333334, "is_reserved": 0, "lon": -77.02976416666667, "fusion_lon": 0.0, "is_disabled": 0, "fusion_lat": 0.0, "bike_id": "d435c7410f8a4e1dc18b95697b50db3e", "rental_uris": {"ios": "https://dc.lft.to/lastmile_qr_scan", "android": "https://dc.lft.to/lastmile_qr_scan"}}, {"name": "20e477ecf600f5c57b357aa1be6a44a1", "type": "electric_scooter", "lat": 38.90530283333333, "is_reserved": 0, "lon": -77.051931, "fusion_lon": 0.0, "is_disabled": 0, "fusion_lat": 0.0, "bike_id": "20e477ecf600f5c57b357aa1be6a44a1", "rental_uris": {"ios": "https://dc.lft.to/lastmile_qr_scan", "android": "https://dc.lft.to/lastmile_qr_scan"}}, {"name": "007b35a60d523da55d7168c33059ae55", "type": "electric_scooter", "lat": 38.918469, "is_reserved": 0, "lon": -77.06151783333334, "fusion_lon": 0.0, "is_disabled": 0, "fusion_lat": 0.0, "bike_id": "007b35a60d523da55d7168c33059ae55", "rental_uris": {"ios": "https://dc.lft.to/lastmile_qr_scan", "android": "https://dc.lft.to/lastmile_qr_scan"}}, {"name": "d98711c5207a65bd43decc8799ed44cb", "type": "electric_bike", "lat": 38.929322, "is_reserved": 0, "lon": -77.03269883333333, "fusion_lon": 0.0, "is_disabled": 0, "fusion_lat": 0.0, "bike_id": "d98711c5207a65bd43decc8799ed44cb", "rental_uris": {"ios": "https://dc.lft.to/lastmile_qr_scan", "android": "https://dc.lft.to/lastmile_qr_scan"}}, {"name": "42c27455e1c4046eaf048f9710e426a8", "type": "electric_bike", "lat": 38.970578, "is_reserved": 0, "lon": -76.93616316666666, "fusion_lon": 0.0, "is_disabled": 0, "fusion_lat": 0.0, "bike_id": "42c27455e1c4046eaf048f9710e426a8", "rental_uris": {"ios": "https://dc.lft.to/lastmile_qr_scan", "android": "https://dc.lft.to/lastmile_qr_scan"}}, {"name": "06fb316e5391d4a7d488f5538709b2b9", "type": "electric_scooter", "lat": 38.912236166666666, "is_reserved": 0, "lon": -77.04499116666666, "fusion_lon": 0.0, "is_disabled": 0, "fusion_lat": 0.0, "bike_id": "06fb316e5391d4a7d488f5538709b2b9", "rental_uris": {"ios": "https://dc.lft.to/lastmile_qr_scan", "android": "https://dc.lft.to/lastmile_qr_scan"}}, {"name": "fb7f44baf1f85c9ef42a8a38122186c4", "type": "electric_scooter", "lat": 38.93720483333333, "is_reserved": 0, "lon": -77.03646416666666, "fusion_lon": 0.0, "is_disabled": 0, "fusion_lat": 0.0, "bike_id": "fb7f44baf1f85c9ef42a8a38122186c4", "rental_uris": {"ios": "https://dc.lft.to/lastmile_qr_scan", "android": "https://dc.lft.to/lastmile_qr_scan"}}, {"name": "1b9a1de2028a05f61e61530a45563a73", "type": "electric_scooter", "lat": 38.91801516666666, "is_reserved": 0, "lon": -77.0302345, "fusion_lon": 0.0, "is_disabled": 0, "fusion_lat": 0.0, "bike_id": "1b9a1de2028a05f61e61530a45563a73", "rental_uris": {"ios": "https://dc.lft.to/lastmile_qr_scan", "android": "https://dc.lft.to/lastmile_qr_scan"}}, {"name": "2ae30a48744d3263f1634bae97ee30f6", "type": "electric_scooter", "lat": 38.9025535, "is_reserved": 0, "lon": -77.03976516666667, "fusion_lon": 0.0, "is_disabled": 0, "fusion_lat": 0.0, "bike_id": "2ae30a48744d3263f1634bae97ee30f6", "rental_uris": {"ios": "https://dc.lft.to/lastmile_qr_scan", "android": "https://dc.lft.to/lastmile_qr_scan"}}, {"name": "d7c7b3c042f01ebcb8acd5f9eef308ea", "type": "electric_scooter", "lat": 38.933065666666664, "is_reserved": 0, "lon": -77.037683, "fusion_lon": 0.0, "is_disabled": 0, "fusion_lat": 0.0, "bike_id": "d7c7b3c042f01ebcb8acd5f9eef308ea", "rental_uris": {"ios": "https://dc.lft.to/lastmile_qr_scan", "android": "https://dc.lft.to/lastmile_qr_scan"}}, {"name": "012c6229ded8edacefbe896be8f2ac03", "type": "electric_scooter", "lat": 38.88723183333333, "is_reserved": 0, "lon": -77.02831583333334, "fusion_lon": 0.0, "is_disabled": 0, "fusion_lat": 0.0, "bike_id": "012c6229ded8edacefbe896be8f2ac03", "rental_uris": {"ios": "https://dc.lft.to/lastmile_qr_scan", "android": "https://dc.lft.to/lastmile_qr_scan"}}, {"name": "eb1f7049a414d3f4ec742cff3927fa27", "type": "electric_scooter", "lat": 38.90622716666667, "is_reserved": 0, "lon": -77.05142583333334, "fusion_lon": 0.0, "is_disabled": 0, "fusion_lat": 0.0, "bike_id": "eb1f7049a414d3f4ec742cff3927fa27", "rental_uris": {"ios": "https://dc.lft.to/lastmile_qr_scan", "android": "https://dc.lft.to/lastmile_qr_scan"}}, {"name": "9ed121b9d2cc9aac1e78d087982ba432", "type": "electric_scooter", "lat": 38.934740166666664, "is_reserved": 0, "lon": -77.02933716666666, "fusion_lon": 0.0, "is_disabled": 0, "fusion_lat": 0.0, "bike_id": "9ed121b9d2cc9aac1e78d087982ba432", "rental_uris": {"ios": "https://dc.lft.to/lastmile_qr_scan", "android": "https://dc.lft.to/lastmile_qr_scan"}}, {"name": "8dced92c8f1e0cce376e4a117d69a4c5", "type": "electric_scooter", "lat": 38.92057466666667, "is_reserved": 0, "lon": -77.02355433333334, "fusion_lon": 0.0, "is_disabled": 0, "fusion_lat": 0.0, "bike_id": "8dced92c8f1e0cce376e4a117d69a4c5", "rental_uris": {"ios": "https://dc.lft.to/lastmile_qr_scan", "android": "https://dc.lft.to/lastmile_qr_scan"}}, {"name": "a897d56bf2484570947f7df9d5f0bf2d", "type": "electric_scooter", "lat": 38.8949955, "is_reserved": 0, "lon": -77.01120366666666, "fusion_lon": 0.0, "is_disabled": 0, "fusion_lat": 0.0, "bike_id": "a897d56bf2484570947f7df9d5f0bf2d", "rental_uris": {"ios": "https://dc.lft.to/lastmile_qr_scan", "android": "https://dc.lft.to/lastmile_qr_scan"}}, {"name": "15f274ebfa44d2f4d693c04fdae22db6", "type": "electric_scooter", "lat": 38.936074833333336, "is_reserved": 0, "lon": -77.05861666666667, "fusion_lon": 0.0, "is_disabled": 0, "fusion_lat": 0.0, "bike_id": "15f274ebfa44d2f4d693c04fdae22db6", "rental_uris": {"ios": "https://dc.lft.to/lastmile_qr_scan", "android": "https://dc.lft.to/lastmile_qr_scan"}}, {"name": "e7f1b28a5d002de9c5abf5bf23234634", "type": "electric_scooter", "lat": 38.8984515, "is_reserved": 0, "lon": -77.042741, "fusion_lon": 0.0, "is_disabled": 0, "fusion_lat": 0.0, "bike_id": "e7f1b28a5d002de9c5abf5bf23234634", "rental_uris": {"ios": "https://dc.lft.to/lastmile_qr_scan", "android": "https://dc.lft.to/lastmile_qr_scan"}}, {"name": "80adcc073c51c18dabcfa646e1e02ccf", "type": "electric_bike", "lat": 39.029313, "is_reserved": 0, "lon": -77.04928816666667, "fusion_lon": 0.0, "is_disabled": 0, "fusion_lat": 0.0, "bike_id": "80adcc073c51c18dabcfa646e1e02ccf", "rental_uris": {"ios": "https://dc.lft.to/lastmile_qr_scan", "android": "https://dc.lft.to/lastmile_qr_scan"}}, {"name": "8027e2a727f48af2bed7ab59c9003384", "type": "electric_scooter", "lat": 38.910072666666665, "is_reserved": 0, "lon": -77.0442385, "fusion_lon": 0.0, "is_disabled": 0, "fusion_lat": 0.0, "bike_id": "8027e2a727f48af2bed7ab59c9003384", "rental_uris": {"ios": "https://dc.lft.to/lastmile_qr_scan", "android": "https://dc.lft.to/lastmile_qr_scan"}}, {"name": "5667e9dfca63e47a4321609323c0fe87", "type": "electric_scooter", "lat": 38.96823533333333, "is_reserved": 0, "lon": -77.01788883333333, "fusion_lon": 0.0, "is_disabled": 0, "fusion_lat": 0.0, "bike_id": "5667e9dfca63e47a4321609323c0fe87", "rental_uris": {"ios": "https://dc.lft.to/lastmile_qr_scan", "android": "https://dc.lft.to/lastmile_qr_scan"}}, {"name": "5e258c625e12a6203577e72d050a9dd9", "type": "electric_scooter", "lat": 38.895336666666665, "is_reserved": 0, "lon": -77.048426, "fusion_lon": 0.0, "is_disabled": 0, "fusion_lat": 0.0, "bike_id": "5e258c625e12a6203577e72d050a9dd9", "rental_uris": {"ios": "https://dc.lft.to/lastmile_qr_scan", "android": "https://dc.lft.to/lastmile_qr_scan"}}, {"name": "0ec188fdc7dac9f6ffa2c74c90d71340", "type": "electric_scooter", "lat": 38.903673833333336, "is_reserved": 0, "lon": -77.03388566666666, "fusion_lon": 0.0, "is_disabled": 0, "fusion_lat": 0.0, "bike_id": "0ec188fdc7dac9f6ffa2c74c90d71340", "rental_uris": {"ios": "https://dc.lft.to/lastmile_qr_scan", "android": "https://dc.lft.to/lastmile_qr_scan"}}, {"name": "4c60b239ec4e40fdc1aca81e11e730ad", "type": "electric_scooter", "lat": 38.874306833333335, "is_reserved": 0, "lon": -77.02069483333334, "fusion_lon": 0.0, "is_disabled": 0, "fusion_lat": 0.0, "bike_id": "4c60b239ec4e40fdc1aca81e11e730ad", "rental_uris": {"ios": "https://dc.lft.to/lastmile_qr_scan", "android": "https://dc.lft.to/lastmile_qr_scan"}}, {"name": "7fb59d6a3d3020babe8139e0d629c861", "type": "electric_scooter", "lat": 38.915287166666666, "is_reserved": 0, "lon": -77.04610783333334, "fusion_lon": 0.0, "is_disabled": 0, "fusion_lat": 0.0, "bike_id": "7fb59d6a3d3020babe8139e0d629c861", "rental_uris": {"ios": "https://dc.lft.to/lastmile_qr_scan", "android": "https://dc.lft.to/lastmile_qr_scan"}}, {"name": "b872e84c5b619a988e07cadac8ba50fb", "type": "electric_scooter", "lat": 38.90729816666666, "is_reserved": 0, "lon": -77.010921, "fusion_lon": 0.0, "is_disabled": 0, "fusion_lat": 0.0, "bike_id": "b872e84c5b619a988e07cadac8ba50fb", "rental_uris": {"ios": "https://dc.lft.to/lastmile_qr_scan", "android": "https://dc.lft.to/lastmile_qr_scan"}}, {"name": "f1bc04ed9c0c495df073425dd2953542", "type": "electric_bike", "lat": 38.9365035, "is_reserved": 0, "lon": -77.03283066666667, "fusion_lon": 0.0, "is_disabled": 0, "fusion_lat": 0.0, "bike_id": "f1bc04ed9c0c495df073425dd2953542", "rental_uris": {"ios": "https://dc.lft.to/lastmile_qr_scan", "android": "https://dc.lft.to/lastmile_qr_scan"}}, {"name": "e34368fd58627dc82808cd569e18859e", "type": "electric_scooter", "lat": 38.8764785, "is_reserved": 0, "lon": -77.00441766666667, "fusion_lon": 0.0, "is_disabled": 0, "fusion_lat": 0.0, "bike_id": "e34368fd58627dc82808cd569e18859e", "rental_uris": {"ios": "https://dc.lft.to/lastmile_qr_scan", "android": "https://dc.lft.to/lastmile_qr_scan"}}, {"name": "2abe097bdd73dc78b346497ee1948e1e", "type": "electric_scooter", "lat": 38.914125166666665, "is_reserved": 0, "lon": -77.0390315, "fusion_lon": 0.0, "is_disabled": 0, "fusion_lat": 0.0, "bike_id": "2abe097bdd73dc78b346497ee1948e1e", "rental_uris": {"ios": "https://dc.lft.to/lastmile_qr_scan", "android": "https://dc.lft.to/lastmile_qr_scan"}}, {"name": "3d1b78ad1881f2edce780eee3ee9daa7", "type": "electric_scooter", "lat": 38.899974, "is_reserved": 0, "lon": -76.98565083333334, "fusion_lon": 0.0, "is_disabled": 0, "fusion_lat": 0.0, "bike_id": "3d1b78ad1881f2edce780eee3ee9daa7", "rental_uris": {"ios": "https://dc.lft.to/lastmile_qr_scan", "android": "https://dc.lft.to/lastmile_qr_scan"}}, {"name": "4aef2800cfc3b0ba359c7ea00ecc6ee8", "type": "electric_scooter", "lat": 38.895594, "is_reserved": 0, "lon": -77.04999866666667, "fusion_lon": 0.0, "is_disabled": 0, "fusion_lat": 0.0, "bike_id": "4aef2800cfc3b0ba359c7ea00ecc6ee8", "rental_uris": {"ios": "https://dc.lft.to/lastmile_qr_scan", "android": "https://dc.lft.to/lastmile_qr_scan"}}, {"name": "7f495ebebc7b095fad3c2074bf1b2246", "type": "electric_scooter", "lat": 38.912659, "is_reserved": 0, "lon": -77.03154916666666, "fusion_lon": 0.0, "is_disabled": 0, "fusion_lat": 0.0, "bike_id": "7f495ebebc7b095fad3c2074bf1b2246", "rental_uris": {"ios": "https://dc.lft.to/lastmile_qr_scan", "android": "https://dc.lft.to/lastmile_qr_scan"}}, {"name": "f3347b0b501c3db4ba8981c870df70c8", "type": "electric_scooter", "lat": 38.917736, "is_reserved": 0, "lon": -77.02707383333333, "fusion_lon": 0.0, "is_disabled": 0, "fusion_lat": 0.0, "bike_id": "f3347b0b501c3db4ba8981c870df70c8", "rental_uris": {"ios": "https://dc.lft.to/lastmile_qr_scan", "android": "https://dc.lft.to/lastmile_qr_scan"}}, {"name": "4a21b8f59c2453bd335f3489d207f520", "type": "electric_scooter", "lat": 38.892221666666664, "is_reserved": 0, "lon": -77.04369783333334, "fusion_lon": 0.0, "is_disabled": 0, "fusion_lat": 0.0, "bike_id": "4a21b8f59c2453bd335f3489d207f520", "rental_uris": {"ios": "https://dc.lft.to/lastmile_qr_scan", "android": "https://dc.lft.to/lastmile_qr_scan"}}, {"name": "a3ce249e5f1d7772ec1f28c0b566a4c2", "type": "electric_scooter", "lat": 38.911819666666666, "is_reserved": 0, "lon": -77.04005016666666, "fusion_lon": 0.0, "is_disabled": 0, "fusion_lat": 0.0, "bike_id": "a3ce249e5f1d7772ec1f28c0b566a4c2", "rental_uris": {"ios": "https://dc.lft.to/lastmile_qr_scan", "android": "https://dc.lft.to/lastmile_qr_scan"}}, {"name": "b5527e1b6da29ccc7033062b957560b7", "type": "electric_scooter", "lat": 38.914127666666666, "is_reserved": 0, "lon": -77.00978416666666, "fusion_lon": 0.0, "is_disabled": 0, "fusion_lat": 0.0, "bike_id": "b5527e1b6da29ccc7033062b957560b7", "rental_uris": {"ios": "https://dc.lft.to/lastmile_qr_scan", "android": "https://dc.lft.to/lastmile_qr_scan"}}, {"name": "63c01eb2aa3cc6c0afb8fb78a73365e1", "type": "electric_scooter", "lat": 38.919513, "is_reserved": 0, "lon": -77.02378683333333, "fusion_lon": 0.0, "is_disabled": 0, "fusion_lat": 0.0, "bike_id": "63c01eb2aa3cc6c0afb8fb78a73365e1", "rental_uris": {"ios": "https://dc.lft.to/lastmile_qr_scan", "android": "https://dc.lft.to/lastmile_qr_scan"}}, {"name": "5f5b26b0c07b904b27d7e8b3e066377d", "type": "electric_scooter", "lat": 38.905866333333336, "is_reserved": 0, "lon": -77.00268133333333, "fusion_lon": 0.0, "is_disabled": 0, "fusion_lat": 0.0, "bike_id": "5f5b26b0c07b904b27d7e8b3e066377d", "rental_uris": {"ios": "https://dc.lft.to/lastmile_qr_scan", "android": "https://dc.lft.to/lastmile_qr_scan"}}, {"name": "dbe92df628b97a88d7fc26da22a9d18a", "type": "electric_scooter", "lat": 38.90349766666667, "is_reserved": 0, "lon": -77.02569666666666, "fusion_lon": 0.0, "is_disabled": 0, "fusion_lat": 0.0, "bike_id": "dbe92df628b97a88d7fc26da22a9d18a", "rental_uris": {"ios": "https://dc.lft.to/lastmile_qr_scan", "android": "https://dc.lft.to/lastmile_qr_scan"}}, {"name": "b6b662af57bb0bd6a3132cfb9ec33a47", "type": "electric_scooter", "lat": 38.879759, "is_reserved": 0, "lon": -77.02419933333333, "fusion_lon": 0.0, "is_disabled": 0, "fusion_lat": 0.0, "bike_id": "b6b662af57bb0bd6a3132cfb9ec33a47", "rental_uris": {"ios": "https://dc.lft.to/lastmile_qr_scan", "android": "https://dc.lft.to/lastmile_qr_scan"}}, {"name": "fbedeb3df11a41c9b41f41bcfcb352a7", "type": "electric_scooter", "lat": 38.896687, "is_reserved": 0, "lon": -76.94726633333333, "fusion_lon": 0.0, "is_disabled": 0, "fusion_lat": 0.0, "bike_id": "fbedeb3df11a41c9b41f41bcfcb352a7", "rental_uris": {"ios": "https://dc.lft.to/lastmile_qr_scan", "android": "https://dc.lft.to/lastmile_qr_scan"}}, {"name": "0cd4ee5b7323945bd9f2a49c9a908db5", "type": "electric_scooter", "lat": 38.89457516666667, "is_reserved": 0, "lon": -77.00344916666667, "fusion_lon": 0.0, "is_disabled": 0, "fusion_lat": 0.0, "bike_id": "0cd4ee5b7323945bd9f2a49c9a908db5", "rental_uris": {"ios": "https://dc.lft.to/lastmile_qr_scan", "android": "https://dc.lft.to/lastmile_qr_scan"}}, {"name": "7f8fb61058f920dbd90d987c3eacbf46", "type": "electric_scooter", "lat": 38.89981133333333, "is_reserved": 0, "lon": -77.0271935, "fusion_lon": 0.0, "is_disabled": 0, "fusion_lat": 0.0, "bike_id": "7f8fb61058f920dbd90d987c3eacbf46", "rental_uris": {"ios": "https://dc.lft.to/lastmile_qr_scan", "android": "https://dc.lft.to/lastmile_qr_scan"}}, {"name": "883ec8f96517874432c7a314b068ac62", "type": "electric_scooter", "lat": 38.9023045, "is_reserved": 0, "lon": -76.97412933333334, "fusion_lon": 0.0, "is_disabled": 0, "fusion_lat": 0.0, "bike_id": "883ec8f96517874432c7a314b068ac62", "rental_uris": {"ios": "https://dc.lft.to/lastmile_qr_scan", "android": "https://dc.lft.to/lastmile_qr_scan"}}, {"name": "ce411a1f178ae2775ee6b52d455146a3", "type": "electric_scooter", "lat": 38.907746333333336, "is_reserved": 0, "lon": -77.07164483333334, "fusion_lon": 0.0, "is_disabled": 0, "fusion_lat": 0.0, "bike_id": "ce411a1f178ae2775ee6b52d455146a3", "rental_uris": {"ios": "https://dc.lft.to/lastmile_qr_scan", "android": "https://dc.lft.to/lastmile_qr_scan"}}, {"name": "c9c758c9b470c57220a3cd268462109f", "type": "electric_scooter", "lat": 38.88285166666667, "is_reserved": 0, "lon": -76.98606466666666, "fusion_lon": 0.0, "is_disabled": 0, "fusion_lat": 0.0, "bike_id": "c9c758c9b470c57220a3cd268462109f", "rental_uris": {"ios": "https://dc.lft.to/lastmile_qr_scan", "android": "https://dc.lft.to/lastmile_qr_scan"}}, {"name": "b9b53c77e1a56e5f48704f13eb8d16ae", "type": "electric_scooter", "lat": 38.900365, "is_reserved": 0, "lon": -77.0020345, "fusion_lon": 0.0, "is_disabled": 0, "fusion_lat": 0.0, "bike_id": "b9b53c77e1a56e5f48704f13eb8d16ae", "rental_uris": {"ios": "https://dc.lft.to/lastmile_qr_scan", "android": "https://dc.lft.to/lastmile_qr_scan"}}, {"name": "6ac1d34a623c9af766daccec78298b13", "type": "electric_scooter", "lat": 38.8682625, "is_reserved": 0, "lon": -76.986128, "fusion_lon": 0.0, "is_disabled": 0, "fusion_lat": 0.0, "bike_id": "6ac1d34a623c9af766daccec78298b13", "rental_uris": {"ios": "https://dc.lft.to/lastmile_qr_scan", "android": "https://dc.lft.to/lastmile_qr_scan"}}, {"name": "1bad160087aea9fa46abe810c7ff8797", "type": "electric_scooter", "lat": 38.92482416666667, "is_reserved": 0, "lon": -77.0299805, "fusion_lon": 0.0, "is_disabled": 0, "fusion_lat": 0.0, "bike_id": "1bad160087aea9fa46abe810c7ff8797", "rental_uris": {"ios": "https://dc.lft.to/lastmile_qr_scan", "android": "https://dc.lft.to/lastmile_qr_scan"}}, {"name": "19ad6fe7f3f6ba3c268c4f403549b98a", "type": "electric_scooter", "lat": 38.91596883333333, "is_reserved": 0, "lon": -77.042559, "fusion_lon": 0.0, "is_disabled": 0, "fusion_lat": 0.0, "bike_id": "19ad6fe7f3f6ba3c268c4f403549b98a", "rental_uris": {"ios": "https://dc.lft.to/lastmile_qr_scan", "android": "https://dc.lft.to/lastmile_qr_scan"}}, {"name": "ab6ed3062c272d58960712374ddaa09e", "type": "electric_scooter", "lat": 38.905682, "is_reserved": 0, "lon": -77.04865666666667, "fusion_lon": 0.0, "is_disabled": 0, "fusion_lat": 0.0, "bike_id": "ab6ed3062c272d58960712374ddaa09e", "rental_uris": {"ios": "https://dc.lft.to/lastmile_qr_scan", "android": "https://dc.lft.to/lastmile_qr_scan"}}, {"name": "84b3bff9e36e12bca7f116c0014cc54d", "type": "electric_scooter", "lat": 38.9284845, "is_reserved": 0, "lon": -77.01409983333333, "fusion_lon": 0.0, "is_disabled": 0, "fusion_lat": 0.0, "bike_id": "84b3bff9e36e12bca7f116c0014cc54d", "rental_uris": {"ios": "https://dc.lft.to/lastmile_qr_scan", "android": "https://dc.lft.to/lastmile_qr_scan"}}, {"name": "d1d2e8f8288dd4cacdcb1c9ea06fb5cb", "type": "electric_scooter", "lat": 38.8958545, "is_reserved": 0, "lon": -76.9371715, "fusion_lon": 0.0, "is_disabled": 0, "fusion_lat": 0.0, "bike_id": "d1d2e8f8288dd4cacdcb1c9ea06fb5cb", "rental_uris": {"ios": "https://dc.lft.to/lastmile_qr_scan", "android": "https://dc.lft.to/lastmile_qr_scan"}}, {"name": "18a684999341ca72f3f94ae83fd18f87", "type": "electric_scooter", "lat": 38.909717666666666, "is_reserved": 0, "lon": -77.04555033333334, "fusion_lon": 0.0, "is_disabled": 0, "fusion_lat": 0.0, "bike_id": "18a684999341ca72f3f94ae83fd18f87", "rental_uris": {"ios": "https://dc.lft.to/lastmile_qr_scan", "android": "https://dc.lft.to/lastmile_qr_scan"}}, {"name": "202a9315cde08643d733369ec2cd4216", "type": "electric_scooter", "lat": 38.903045666666664, "is_reserved": 0, "lon": -77.03474366666667, "fusion_lon": 0.0, "is_disabled": 0, "fusion_lat": 0.0, "bike_id": "202a9315cde08643d733369ec2cd4216", "rental_uris": {"ios": "https://dc.lft.to/lastmile_qr_scan", "android": "https://dc.lft.to/lastmile_qr_scan"}}, {"name": "02040e12c08016421c73b0012d8bc3ed", "type": "electric_scooter", "lat": 38.84295016666667, "is_reserved": 0, "lon": -76.99949516666666, "fusion_lon": 0.0, "is_disabled": 0, "fusion_lat": 0.0, "bike_id": "02040e12c08016421c73b0012d8bc3ed", "rental_uris": {"ios": "https://dc.lft.to/lastmile_qr_scan", "android": "https://dc.lft.to/lastmile_qr_scan"}}, {"name": "5a2cc81d0e678c77fbf6610f503e2846", "type": "electric_scooter", "lat": 38.90448266666667, "is_reserved": 0, "lon": -76.99621783333333, "fusion_lon": 0.0, "is_disabled": 0, "fusion_lat": 0.0, "bike_id": "5a2cc81d0e678c77fbf6610f503e2846", "rental_uris": {"ios": "https://dc.lft.to/lastmile_qr_scan", "android": "https://dc.lft.to/lastmile_qr_scan"}}, {"name": "19ea78bc63e95f874f863433acfaaaa4", "type": "electric_scooter", "lat": 38.912045666666664, "is_reserved": 0, "lon": -77.076083, "fusion_lon": 0.0, "is_disabled": 0, "fusion_lat": 0.0, "bike_id": "19ea78bc63e95f874f863433acfaaaa4", "rental_uris": {"ios": "https://dc.lft.to/lastmile_qr_scan", "android": "https://dc.lft.to/lastmile_qr_scan"}}, {"name": "ed5c2564965b58823d26ef672b967b62", "type": "electric_scooter", "lat": 38.9052075, "is_reserved": 0, "lon": -77.00610333333333, "fusion_lon": 0.0, "is_disabled": 0, "fusion_lat": 0.0, "bike_id": "ed5c2564965b58823d26ef672b967b62", "rental_uris": {"ios": "https://dc.lft.to/lastmile_qr_scan", "android": "https://dc.lft.to/lastmile_qr_scan"}}, {"name": "2dbca0cf4a440a533a048b34a9cf44e7", "type": "electric_scooter", "lat": 38.8783535, "is_reserved": 0, "lon": -76.99039116666667, "fusion_lon": 0.0, "is_disabled": 0, "fusion_lat": 0.0, "bike_id": "2dbca0cf4a440a533a048b34a9cf44e7", "rental_uris": {"ios": "https://dc.lft.to/lastmile_qr_scan", "android": "https://dc.lft.to/lastmile_qr_scan"}}, {"name": "5855df4125e8342eca59d8d88e5928f8", "type": "electric_scooter", "lat": 38.92326583333333, "is_reserved": 0, "lon": -77.03501366666667, "fusion_lon": 0.0, "is_disabled": 0, "fusion_lat": 0.0, "bike_id": "5855df4125e8342eca59d8d88e5928f8", "rental_uris": {"ios": "https://dc.lft.to/lastmile_qr_scan", "android": "https://dc.lft.to/lastmile_qr_scan"}}, {"name": "da88e4627bf0cb97036fc25b53e941c4", "type": "electric_scooter", "lat": 38.93491933333333, "is_reserved": 0, "lon": -77.03285716666667, "fusion_lon": 0.0, "is_disabled": 0, "fusion_lat": 0.0, "bike_id": "da88e4627bf0cb97036fc25b53e941c4", "rental_uris": {"ios": "https://dc.lft.to/lastmile_qr_scan", "android": "https://dc.lft.to/lastmile_qr_scan"}}, {"name": "9065da648c880d78ea54a2ec9b0bb926", "type": "electric_scooter", "lat": 38.910075, "is_reserved": 0, "lon": -76.99411266666667, "fusion_lon": 0.0, "is_disabled": 0, "fusion_lat": 0.0, "bike_id": "9065da648c880d78ea54a2ec9b0bb926", "rental_uris": {"ios": "https://dc.lft.to/lastmile_qr_scan", "android": "https://dc.lft.to/lastmile_qr_scan"}}, {"name": "38d979410ebae88e91e96ae69b344238", "type": "electric_scooter", "lat": 38.85620766666667, "is_reserved": 0, "lon": -76.98020183333334, "fusion_lon": 0.0, "is_disabled": 0, "fusion_lat": 0.0, "bike_id": "38d979410ebae88e91e96ae69b344238", "rental_uris": {"ios": "https://dc.lft.to/lastmile_qr_scan", "android": "https://dc.lft.to/lastmile_qr_scan"}}, {"name": "41a451d460953b5739ad9d4534929c73", "type": "electric_scooter", "lat": 38.91270133333333, "is_reserved": 0, "lon": -77.0608945, "fusion_lon": 0.0, "is_disabled": 0, "fusion_lat": 0.0, "bike_id": "41a451d460953b5739ad9d4534929c73", "rental_uris": {"ios": "https://dc.lft.to/lastmile_qr_scan", "android": "https://dc.lft.to/lastmile_qr_scan"}}, {"name": "a542885dade4fe34a38740e1e3eac2f6", "type": "electric_scooter", "lat": 38.914615166666664, "is_reserved": 0, "lon": -77.01791466666667, "fusion_lon": 0.0, "is_disabled": 0, "fusion_lat": 0.0, "bike_id": "a542885dade4fe34a38740e1e3eac2f6", "rental_uris": {"ios": "https://dc.lft.to/lastmile_qr_scan", "android": "https://dc.lft.to/lastmile_qr_scan"}}, {"name": "9ff16ee5b087134504ad0b1ea11d311b", "type": "electric_scooter", "lat": 38.905695, "is_reserved": 0, "lon": -77.02491716666667, "fusion_lon": 0.0, "is_disabled": 0, "fusion_lat": 0.0, "bike_id": "9ff16ee5b087134504ad0b1ea11d311b", "rental_uris": {"ios": "https://dc.lft.to/lastmile_qr_scan", "android": "https://dc.lft.to/lastmile_qr_scan"}}, {"name": "364f4a273ebe1297aee7af8e061d2332", "type": "electric_scooter", "lat": 38.897345, "is_reserved": 0, "lon": -76.947198, "fusion_lon": 0.0, "is_disabled": 0, "fusion_lat": 0.0, "bike_id": "364f4a273ebe1297aee7af8e061d2332", "rental_uris": {"ios": "https://dc.lft.to/lastmile_qr_scan", "android": "https://dc.lft.to/lastmile_qr_scan"}}, {"name": "d09d8512010999282784deca1812284b", "type": "electric_scooter", "lat": 38.9203025, "is_reserved": 0, "lon": -77.011189, "fusion_lon": 0.0, "is_disabled": 0, "fusion_lat": 0.0, "bike_id": "d09d8512010999282784deca1812284b", "rental_uris": {"ios": "https://dc.lft.to/lastmile_qr_scan", "android": "https://dc.lft.to/lastmile_qr_scan"}}, {"name": "2e4160a34e48d3b757541aa0a81ff917", "type": "electric_scooter", "lat": 38.9053715, "is_reserved": 0, "lon": -77.0503765, "fusion_lon": 0.0, "is_disabled": 0, "fusion_lat": 0.0, "bike_id": "2e4160a34e48d3b757541aa0a81ff917", "rental_uris": {"ios": "https://dc.lft.to/lastmile_qr_scan", "android": "https://dc.lft.to/lastmile_qr_scan"}}, {"name": "5779e7b1fd39be051a856ecb997019af", "type": "electric_scooter", "lat": 38.902417666666665, "is_reserved": 0, "lon": -77.03165716666666, "fusion_lon": 0.0, "is_disabled": 0, "fusion_lat": 0.0, "bike_id": "5779e7b1fd39be051a856ecb997019af", "rental_uris": {"ios": "https://dc.lft.to/lastmile_qr_scan", "android": "https://dc.lft.to/lastmile_qr_scan"}}, {"name": "227f70cc01400cbb6dcd5a6df3c58f63", "type": "electric_scooter", "lat": 38.9214945, "is_reserved": 0, "lon": -77.03509216666667, "fusion_lon": 0.0, "is_disabled": 0, "fusion_lat": 0.0, "bike_id": "227f70cc01400cbb6dcd5a6df3c58f63", "rental_uris": {"ios": "https://dc.lft.to/lastmile_qr_scan", "android": "https://dc.lft.to/lastmile_qr_scan"}}, {"name": "e307b59f346f19f932154ad7f1f08b9e", "type": "electric_scooter", "lat": 38.91210816666667, "is_reserved": 0, "lon": -77.07601016666666, "fusion_lon": 0.0, "is_disabled": 0, "fusion_lat": 0.0, "bike_id": "e307b59f346f19f932154ad7f1f08b9e", "rental_uris": {"ios": "https://dc.lft.to/lastmile_qr_scan", "android": "https://dc.lft.to/lastmile_qr_scan"}}, {"name": "a19d1d9e93d81e2a56c28060743df323", "type": "electric_scooter", "lat": 38.905715, "is_reserved": 0, "lon": -77.05714783333333, "fusion_lon": 0.0, "is_disabled": 0, "fusion_lat": 0.0, "bike_id": "a19d1d9e93d81e2a56c28060743df323", "rental_uris": {"ios": "https://dc.lft.to/lastmile_qr_scan", "android": "https://dc.lft.to/lastmile_qr_scan"}}, {"name": "2b8090160f05335d2d79527821db152a", "type": "electric_scooter", "lat": 38.97477266666667, "is_reserved": 0, "lon": -77.01898433333334, "fusion_lon": 0.0, "is_disabled": 0, "fusion_lat": 0.0, "bike_id": "2b8090160f05335d2d79527821db152a", "rental_uris": {"ios": "https://dc.lft.to/lastmile_qr_scan", "android": "https://dc.lft.to/lastmile_qr_scan"}}, {"name": "4526e3bf67539b8a3465fd520c6e72b1", "type": "electric_scooter", "lat": 38.94447383333333, "is_reserved": 0, "lon": -77.0635275, "fusion_lon": 0.0, "is_disabled": 0, "fusion_lat": 0.0, "bike_id": "4526e3bf67539b8a3465fd520c6e72b1", "rental_uris": {"ios": "https://dc.lft.to/lastmile_qr_scan", "android": "https://dc.lft.to/lastmile_qr_scan"}}, {"name": "3a9c89074a0552d3094b42213f0e68e3", "type": "electric_scooter", "lat": 38.842963, "is_reserved": 0, "lon": -76.99946883333334, "fusion_lon": 0.0, "is_disabled": 0, "fusion_lat": 0.0, "bike_id": "3a9c89074a0552d3094b42213f0e68e3", "rental_uris": {"ios": "https://dc.lft.to/lastmile_qr_scan", "android": "https://dc.lft.to/lastmile_qr_scan"}}, {"name": "7705bce1633668a8ad3acc19dfc82977", "type": "electric_scooter", "lat": 38.901456333333336, "is_reserved": 0, "lon": -77.0444045, "fusion_lon": 0.0, "is_disabled": 0, "fusion_lat": 0.0, "bike_id": "7705bce1633668a8ad3acc19dfc82977", "rental_uris": {"ios": "https://dc.lft.to/lastmile_qr_scan", "android": "https://dc.lft.to/lastmile_qr_scan"}}, {"name": "3b87450a615fe2f84892afc9cdd6e8dd", "type": "electric_bike", "lat": 38.9462165, "is_reserved": 0, "lon": -76.9462725, "fusion_lon": 0.0, "is_disabled": 0, "fusion_lat": 0.0, "bike_id": "3b87450a615fe2f84892afc9cdd6e8dd", "rental_uris": {"ios": "https://dc.lft.to/lastmile_qr_scan", "android": "https://dc.lft.to/lastmile_qr_scan"}}, {"name": "13adeeb5afcd91d4b82ba1b862881a87", "type": "electric_scooter", "lat": 38.867007666666666, "is_reserved": 0, "lon": -76.98710866666667, "fusion_lon": 0.0, "is_disabled": 0, "fusion_lat": 0.0, "bike_id": "13adeeb5afcd91d4b82ba1b862881a87", "rental_uris": {"ios": "https://dc.lft.to/lastmile_qr_scan", "android": "https://dc.lft.to/lastmile_qr_scan"}}, {"name": "79e93dea3620281fa0c9af8ca83a6fb9", "type": "electric_scooter", "lat": 38.90554916666667, "is_reserved": 0, "lon": -77.04390466666666, "fusion_lon": 0.0, "is_disabled": 0, "fusion_lat": 0.0, "bike_id": "79e93dea3620281fa0c9af8ca83a6fb9", "rental_uris": {"ios": "https://dc.lft.to/lastmile_qr_scan", "android": "https://dc.lft.to/lastmile_qr_scan"}}, {"name": "d340705f910170ab1063a8fd06d9c795", "type": "electric_scooter", "lat": 38.897595833333334, "is_reserved": 0, "lon": -77.007715, "fusion_lon": 0.0, "is_disabled": 0, "fusion_lat": 0.0, "bike_id": "d340705f910170ab1063a8fd06d9c795", "rental_uris": {"ios": "https://dc.lft.to/lastmile_qr_scan", "android": "https://dc.lft.to/lastmile_qr_scan"}}, {"name": "fc19c16fa6ab9be707cbbefcff101e10", "type": "electric_scooter", "lat": 38.89609166666666, "is_reserved": 0, "lon": -77.05076166666667, "fusion_lon": 0.0, "is_disabled": 0, "fusion_lat": 0.0, "bike_id": "fc19c16fa6ab9be707cbbefcff101e10", "rental_uris": {"ios": "https://dc.lft.to/lastmile_qr_scan", "android": "https://dc.lft.to/lastmile_qr_scan"}}, {"name": "5052c48a8691487240d85547af3660d8", "type": "electric_scooter", "lat": 38.92223116666667, "is_reserved": 0, "lon": -77.042496, "fusion_lon": 0.0, "is_disabled": 0, "fusion_lat": 0.0, "bike_id": "5052c48a8691487240d85547af3660d8", "rental_uris": {"ios": "https://dc.lft.to/lastmile_qr_scan", "android": "https://dc.lft.to/lastmile_qr_scan"}}, {"name": "0f799bf27f9c67837820e5a998db3d73", "type": "electric_scooter", "lat": 38.931255166666666, "is_reserved": 0, "lon": -77.03602016666666, "fusion_lon": 0.0, "is_disabled": 0, "fusion_lat": 0.0, "bike_id": "0f799bf27f9c67837820e5a998db3d73", "rental_uris": {"ios": "https://dc.lft.to/lastmile_qr_scan", "android": "https://dc.lft.to/lastmile_qr_scan"}}, {"name": "a9ecfb7b9add70a90cfff1450936b3fa", "type": "electric_scooter", "lat": 38.93897316666666, "is_reserved": 0, "lon": -77.03281266666667, "fusion_lon": 0.0, "is_disabled": 0, "fusion_lat": 0.0, "bike_id": "a9ecfb7b9add70a90cfff1450936b3fa", "rental_uris": {"ios": "https://dc.lft.to/lastmile_qr_scan", "android": "https://dc.lft.to/lastmile_qr_scan"}}, {"name": "914b992326c2c052456a730310110042", "type": "electric_scooter", "lat": 38.898705, "is_reserved": 0, "lon": -77.03330233333334, "fusion_lon": 0.0, "is_disabled": 0, "fusion_lat": 0.0, "bike_id": "914b992326c2c052456a730310110042", "rental_uris": {"ios": "https://dc.lft.to/lastmile_qr_scan", "android": "https://dc.lft.to/lastmile_qr_scan"}}, {"name": "612c275d31186c1e00240ef6670aa0a7", "type": "electric_scooter", "lat": 38.92535066666667, "is_reserved": 0, "lon": -77.032182, "fusion_lon": 0.0, "is_disabled": 0, "fusion_lat": 0.0, "bike_id": "612c275d31186c1e00240ef6670aa0a7", "rental_uris": {"ios": "https://dc.lft.to/lastmile_qr_scan", "android": "https://dc.lft.to/lastmile_qr_scan"}}, {"name": "c52073d258a27e7279644ac48308544c", "type": "electric_scooter", "lat": 38.8728805, "is_reserved": 0, "lon": -77.009868, "fusion_lon": 0.0, "is_disabled": 0, "fusion_lat": 0.0, "bike_id": "c52073d258a27e7279644ac48308544c", "rental_uris": {"ios": "https://dc.lft.to/lastmile_qr_scan", "android": "https://dc.lft.to/lastmile_qr_scan"}}, {"name": "9961a2708e452bc46cc5446e66cc6855", "type": "electric_scooter", "lat": 38.90257733333333, "is_reserved": 0, "lon": -77.0384905, "fusion_lon": 0.0, "is_disabled": 0, "fusion_lat": 0.0, "bike_id": "9961a2708e452bc46cc5446e66cc6855", "rental_uris": {"ios": "https://dc.lft.to/lastmile_qr_scan", "android": "https://dc.lft.to/lastmile_qr_scan"}}, {"name": "6bb49ae879a09b7e8220eca704de5ae1", "type": "electric_bike", "lat": 38.897773, "is_reserved": 0, "lon": -76.90443916666666, "fusion_lon": 0.0, "is_disabled": 0, "fusion_lat": 0.0, "bike_id": "6bb49ae879a09b7e8220eca704de5ae1", "rental_uris": {"ios": "https://dc.lft.to/lastmile_qr_scan", "android": "https://dc.lft.to/lastmile_qr_scan"}}, {"name": "fbb314909dc9638bcdbccd2827cce41f", "type": "electric_scooter", "lat": 38.899314333333336, "is_reserved": 0, "lon": -77.03168766666667, "fusion_lon": 0.0, "is_disabled": 0, "fusion_lat": 0.0, "bike_id": "fbb314909dc9638bcdbccd2827cce41f", "rental_uris": {"ios": "https://dc.lft.to/lastmile_qr_scan", "android": "https://dc.lft.to/lastmile_qr_scan"}}, {"name": "e8de6402baa1c9767816b09b46396797", "type": "electric_scooter", "lat": 38.898378, "is_reserved": 0, "lon": -77.01207333333333, "fusion_lon": 0.0, "is_disabled": 0, "fusion_lat": 0.0, "bike_id": "e8de6402baa1c9767816b09b46396797", "rental_uris": {"ios": "https://dc.lft.to/lastmile_qr_scan", "android": "https://dc.lft.to/lastmile_qr_scan"}}, {"name": "63f9069573f5d5e77913ee24128291fd", "type": "electric_scooter", "lat": 38.931189333333336, "is_reserved": 0, "lon": -77.020888, "fusion_lon": 0.0, "is_disabled": 0, "fusion_lat": 0.0, "bike_id": "63f9069573f5d5e77913ee24128291fd", "rental_uris": {"ios": "https://dc.lft.to/lastmile_qr_scan", "android": "https://dc.lft.to/lastmile_qr_scan"}}, {"name": "2f3864831456c7841742e0b7a9d18718", "type": "electric_scooter", "lat": 38.92265866666666, "is_reserved": 0, "lon": -77.03405066666667, "fusion_lon": 0.0, "is_disabled": 0, "fusion_lat": 0.0, "bike_id": "2f3864831456c7841742e0b7a9d18718", "rental_uris": {"ios": "https://dc.lft.to/lastmile_qr_scan", "android": "https://dc.lft.to/lastmile_qr_scan"}}, {"name": "501e6994d57544a1792dcf5e8b0a0db9", "type": "electric_scooter", "lat": 38.93257166666667, "is_reserved": 0, "lon": -77.03998433333334, "fusion_lon": 0.0, "is_disabled": 0, "fusion_lat": 0.0, "bike_id": "501e6994d57544a1792dcf5e8b0a0db9", "rental_uris": {"ios": "https://dc.lft.to/lastmile_qr_scan", "android": "https://dc.lft.to/lastmile_qr_scan"}}, {"name": "b1cf949885f258476549baf532df83a6", "type": "electric_scooter", "lat": 38.90472366666667, "is_reserved": 0, "lon": -77.03535716666667, "fusion_lon": 0.0, "is_disabled": 0, "fusion_lat": 0.0, "bike_id": "b1cf949885f258476549baf532df83a6", "rental_uris": {"ios": "https://dc.lft.to/lastmile_qr_scan", "android": "https://dc.lft.to/lastmile_qr_scan"}}, {"name": "52cb9634662f22cad22cff531c314cdc", "type": "electric_scooter", "lat": 38.9055425, "is_reserved": 0, "lon": -77.00219933333334, "fusion_lon": 0.0, "is_disabled": 0, "fusion_lat": 0.0, "bike_id": "52cb9634662f22cad22cff531c314cdc", "rental_uris": {"ios": "https://dc.lft.to/lastmile_qr_scan", "android": "https://dc.lft.to/lastmile_qr_scan"}}, {"name": "45d27c3e23d0566b63335b91f2ce8a8c", "type": "electric_scooter", "lat": 38.9023845, "is_reserved": 0, "lon": -77.002017, "fusion_lon": 0.0, "is_disabled": 0, "fusion_lat": 0.0, "bike_id": "45d27c3e23d0566b63335b91f2ce8a8c", "rental_uris": {"ios": "https://dc.lft.to/lastmile_qr_scan", "android": "https://dc.lft.to/lastmile_qr_scan"}}, {"name": "6cc12804519275e3033e4e3e598d434b", "type": "electric_scooter", "lat": 38.904447, "is_reserved": 0, "lon": -77.0515635, "fusion_lon": 0.0, "is_disabled": 0, "fusion_lat": 0.0, "bike_id": "6cc12804519275e3033e4e3e598d434b", "rental_uris": {"ios": "https://dc.lft.to/lastmile_qr_scan", "android": "https://dc.lft.to/lastmile_qr_scan"}}, {"name": "565d1c9439d1c31219a2cb334d8be2a2", "type": "electric_scooter", "lat": 38.902631666666665, "is_reserved": 0, "lon": -77.0344625, "fusion_lon": 0.0, "is_disabled": 0, "fusion_lat": 0.0, "bike_id": "565d1c9439d1c31219a2cb334d8be2a2", "rental_uris": {"ios": "https://dc.lft.to/lastmile_qr_scan", "android": "https://dc.lft.to/lastmile_qr_scan"}}, {"name": "8e5545ec775b6429f1b41b2025ed61a2", "type": "electric_bike", "lat": 38.93689166666667, "is_reserved": 0, "lon": -77.05649016666666, "fusion_lon": 0.0, "is_disabled": 0, "fusion_lat": 0.0, "bike_id": "8e5545ec775b6429f1b41b2025ed61a2", "rental_uris": {"ios": "https://dc.lft.to/lastmile_qr_scan", "android": "https://dc.lft.to/lastmile_qr_scan"}}, {"name": "8da754d0d703d7e8f0263081f6ae3884", "type": "electric_scooter", "lat": 38.8621895, "is_reserved": 0, "lon": -76.994963, "fusion_lon": 0.0, "is_disabled": 0, "fusion_lat": 0.0, "bike_id": "8da754d0d703d7e8f0263081f6ae3884", "rental_uris": {"ios": "https://dc.lft.to/lastmile_qr_scan", "android": "https://dc.lft.to/lastmile_qr_scan"}}, {"name": "10f4a5bc41e3a0db68469ec490e50556", "type": "electric_scooter", "lat": 38.9062195, "is_reserved": 0, "lon": -76.98318166666667, "fusion_lon": 0.0, "is_disabled": 0, "fusion_lat": 0.0, "bike_id": "10f4a5bc41e3a0db68469ec490e50556", "rental_uris": {"ios": "https://dc.lft.to/lastmile_qr_scan", "android": "https://dc.lft.to/lastmile_qr_scan"}}, {"name": "271f472fff6ff563ed180a8675250992", "type": "electric_scooter", "lat": 38.9192545, "is_reserved": 0, "lon": -77.03201633333333, "fusion_lon": 0.0, "is_disabled": 0, "fusion_lat": 0.0, "bike_id": "271f472fff6ff563ed180a8675250992", "rental_uris": {"ios": "https://dc.lft.to/lastmile_qr_scan", "android": "https://dc.lft.to/lastmile_qr_scan"}}, {"name": "2afd5a3448e1020dc289b1f6af0fba61", "type": "electric_scooter", "lat": 38.891052333333334, "is_reserved": 0, "lon": -76.98706283333334, "fusion_lon": 0.0, "is_disabled": 0, "fusion_lat": 0.0, "bike_id": "2afd5a3448e1020dc289b1f6af0fba61", "rental_uris": {"ios": "https://dc.lft.to/lastmile_qr_scan", "android": "https://dc.lft.to/lastmile_qr_scan"}}, {"name": "1bc484455bdf3c5853e0931571164a21", "type": "electric_scooter", "lat": 38.930584833333334, "is_reserved": 0, "lon": -77.02323083333333, "fusion_lon": 0.0, "is_disabled": 0, "fusion_lat": 0.0, "bike_id": "1bc484455bdf3c5853e0931571164a21", "rental_uris": {"ios": "https://dc.lft.to/lastmile_qr_scan", "android": "https://dc.lft.to/lastmile_qr_scan"}}, {"name": "55d6886018ce12ea40d57d2ef9b45c6a", "type": "electric_scooter", "lat": 38.9244565, "is_reserved": 0, "lon": -77.02979133333334, "fusion_lon": 0.0, "is_disabled": 0, "fusion_lat": 0.0, "bike_id": "55d6886018ce12ea40d57d2ef9b45c6a", "rental_uris": {"ios": "https://dc.lft.to/lastmile_qr_scan", "android": "https://dc.lft.to/lastmile_qr_scan"}}, {"name": "37be79b03534af220017a064c6208ba9", "type": "electric_scooter", "lat": 38.86369966666667, "is_reserved": 0, "lon": -77.013674, "fusion_lon": 0.0, "is_disabled": 0, "fusion_lat": 0.0, "bike_id": "37be79b03534af220017a064c6208ba9", "rental_uris": {"ios": "https://dc.lft.to/lastmile_qr_scan", "android": "https://dc.lft.to/lastmile_qr_scan"}}, {"name": "c344aa1a167898f1eef1113902318719", "type": "electric_scooter", "lat": 38.883483, "is_reserved": 0, "lon": -76.94943383333333, "fusion_lon": 0.0, "is_disabled": 0, "fusion_lat": 0.0, "bike_id": "c344aa1a167898f1eef1113902318719", "rental_uris": {"ios": "https://dc.lft.to/lastmile_qr_scan", "android": "https://dc.lft.to/lastmile_qr_scan"}}, {"name": "0611004d1b020a8d82c80ee19f4f06cb", "type": "electric_scooter", "lat": 38.89222983333333, "is_reserved": 0, "lon": -77.04644466666667, "fusion_lon": 0.0, "is_disabled": 0, "fusion_lat": 0.0, "bike_id": "0611004d1b020a8d82c80ee19f4f06cb", "rental_uris": {"ios": "https://dc.lft.to/lastmile_qr_scan", "android": "https://dc.lft.to/lastmile_qr_scan"}}, {"name": "b7eef69c2b7603617989ceec2d16313c", "type": "electric_scooter", "lat": 38.9103305, "is_reserved": 0, "lon": -77.03835666666667, "fusion_lon": 0.0, "is_disabled": 0, "fusion_lat": 0.0, "bike_id": "b7eef69c2b7603617989ceec2d16313c", "rental_uris": {"ios": "https://dc.lft.to/lastmile_qr_scan", "android": "https://dc.lft.to/lastmile_qr_scan"}}, {"name": "abdad83f0ab5ec2e976ab1f4d133dee1", "type": "electric_scooter", "lat": 38.89222133333333, "is_reserved": 0, "lon": -77.04262866666667, "fusion_lon": 0.0, "is_disabled": 0, "fusion_lat": 0.0, "bike_id": "abdad83f0ab5ec2e976ab1f4d133dee1", "rental_uris": {"ios": "https://dc.lft.to/lastmile_qr_scan", "android": "https://dc.lft.to/lastmile_qr_scan"}}, {"name": "db27f5174616c3aaf5415f9ff6579f07", "type": "electric_scooter", "lat": 38.9255465, "is_reserved": 0, "lon": -77.06286033333333, "fusion_lon": 0.0, "is_disabled": 0, "fusion_lat": 0.0, "bike_id": "db27f5174616c3aaf5415f9ff6579f07", "rental_uris": {"ios": "https://dc.lft.to/lastmile_qr_scan", "android": "https://dc.lft.to/lastmile_qr_scan"}}, {"name": "e7cb45f87bac0d3118b67940bacdbfea", "type": "electric_scooter", "lat": 38.92427033333333, "is_reserved": 0, "lon": -77.05181333333333, "fusion_lon": 0.0, "is_disabled": 0, "fusion_lat": 0.0, "bike_id": "e7cb45f87bac0d3118b67940bacdbfea", "rental_uris": {"ios": "https://dc.lft.to/lastmile_qr_scan", "android": "https://dc.lft.to/lastmile_qr_scan"}}, {"name": "b5d561bbfb67713eb89c813572cc3a8b", "type": "electric_scooter", "lat": 38.91253283333333, "is_reserved": 0, "lon": -77.00767216666667, "fusion_lon": 0.0, "is_disabled": 0, "fusion_lat": 0.0, "bike_id": "b5d561bbfb67713eb89c813572cc3a8b", "rental_uris": {"ios": "https://dc.lft.to/lastmile_qr_scan", "android": "https://dc.lft.to/lastmile_qr_scan"}}, {"name": "e2220af6469dc1c27bea553292f71807", "type": "electric_scooter", "lat": 38.894765166666666, "is_reserved": 0, "lon": -77.01095033333333, "fusion_lon": 0.0, "is_disabled": 0, "fusion_lat": 0.0, "bike_id": "e2220af6469dc1c27bea553292f71807", "rental_uris": {"ios": "https://dc.lft.to/lastmile_qr_scan", "android": "https://dc.lft.to/lastmile_qr_scan"}}, {"name": "071cccfa27261acd456fc6b1c3aaaa95", "type": "electric_scooter", "lat": 38.901617333333334, "is_reserved": 0, "lon": -77.02923666666666, "fusion_lon": 0.0, "is_disabled": 0, "fusion_lat": 0.0, "bike_id": "071cccfa27261acd456fc6b1c3aaaa95", "rental_uris": {"ios": "https://dc.lft.to/lastmile_qr_scan", "android": "https://dc.lft.to/lastmile_qr_scan"}}, {"name": "59a66b0d5f656b7481b649b2ef937ff8", "type": "electric_bike", "lat": 38.928585, "is_reserved": 0, "lon": -77.10676666666667, "fusion_lon": 0.0, "is_disabled": 0, "fusion_lat": 0.0, "bike_id": "59a66b0d5f656b7481b649b2ef937ff8", "rental_uris": {"ios": "https://dc.lft.to/lastmile_qr_scan", "android": "https://dc.lft.to/lastmile_qr_scan"}}, {"name": "85d6df0602d27ea67ef601475ebd5eb3", "type": "electric_scooter", "lat": 38.901177833333335, "is_reserved": 0, "lon": -77.04472683333333, "fusion_lon": 0.0, "is_disabled": 0, "fusion_lat": 0.0, "bike_id": "85d6df0602d27ea67ef601475ebd5eb3", "rental_uris": {"ios": "https://dc.lft.to/lastmile_qr_scan", "android": "https://dc.lft.to/lastmile_qr_scan"}}, {"name": "d58156a60ac5b063e0f556dbeec1b6a5", "type": "electric_scooter", "lat": 38.921591666666664, "is_reserved": 0, "lon": -77.0402915, "fusion_lon": 0.0, "is_disabled": 0, "fusion_lat": 0.0, "bike_id": "d58156a60ac5b063e0f556dbeec1b6a5", "rental_uris": {"ios": "https://dc.lft.to/lastmile_qr_scan", "android": "https://dc.lft.to/lastmile_qr_scan"}}, {"name": "e464881a84d76a1d0a9940fd93b48ce7", "type": "electric_scooter", "lat": 38.93289333333333, "is_reserved": 0, "lon": -77.039842, "fusion_lon": 0.0, "is_disabled": 0, "fusion_lat": 0.0, "bike_id": "e464881a84d76a1d0a9940fd93b48ce7", "rental_uris": {"ios": "https://dc.lft.to/lastmile_qr_scan", "android": "https://dc.lft.to/lastmile_qr_scan"}}, {"name": "bf359f4f376450a32e4f91c45f0c46b2", "type": "electric_scooter", "lat": 38.9126635, "is_reserved": 0, "lon": -77.0294415, "fusion_lon": 0.0, "is_disabled": 0, "fusion_lat": 0.0, "bike_id": "bf359f4f376450a32e4f91c45f0c46b2", "rental_uris": {"ios": "https://dc.lft.to/lastmile_qr_scan", "android": "https://dc.lft.to/lastmile_qr_scan"}}, {"name": "e16c685f10e7092793ab339e60573bfc", "type": "electric_scooter", "lat": 38.88691, "is_reserved": 0, "lon": -76.957582, "fusion_lon": 0.0, "is_disabled": 0, "fusion_lat": 0.0, "bike_id": "e16c685f10e7092793ab339e60573bfc", "rental_uris": {"ios": "https://dc.lft.to/lastmile_qr_scan", "android": "https://dc.lft.to/lastmile_qr_scan"}}, {"name": "1977dbcd357ae81243093087bd91fccb", "type": "electric_scooter", "lat": 38.894575, "is_reserved": 0, "lon": -77.0192075, "fusion_lon": 0.0, "is_disabled": 0, "fusion_lat": 0.0, "bike_id": "1977dbcd357ae81243093087bd91fccb", "rental_uris": {"ios": "https://dc.lft.to/lastmile_qr_scan", "android": "https://dc.lft.to/lastmile_qr_scan"}}, {"name": "465f75abf595fe603cf099f8c225dec1", "type": "electric_scooter", "lat": 38.86516616666667, "is_reserved": 0, "lon": -76.99036733333334, "fusion_lon": 0.0, "is_disabled": 0, "fusion_lat": 0.0, "bike_id": "465f75abf595fe603cf099f8c225dec1", "rental_uris": {"ios": "https://dc.lft.to/lastmile_qr_scan", "android": "https://dc.lft.to/lastmile_qr_scan"}}, {"name": "6a6f1944539ffdfc1bcdae389ed42817", "type": "electric_bike", "lat": 38.838234666666665, "is_reserved": 0, "lon": -76.9968025, "fusion_lon": 0.0, "is_disabled": 0, "fusion_lat": 0.0, "bike_id": "6a6f1944539ffdfc1bcdae389ed42817", "rental_uris": {"ios": "https://dc.lft.to/lastmile_qr_scan", "android": "https://dc.lft.to/lastmile_qr_scan"}}, {"name": "c178dbf354bcf024d2c10af8066a9bee", "type": "electric_scooter", "lat": 38.89739083333333, "is_reserved": 0, "lon": -76.93844316666667, "fusion_lon": 0.0, "is_disabled": 0, "fusion_lat": 0.0, "bike_id": "c178dbf354bcf024d2c10af8066a9bee", "rental_uris": {"ios": "https://dc.lft.to/lastmile_qr_scan", "android": "https://dc.lft.to/lastmile_qr_scan"}}, {"name": "ed40d43322ccdd0566000d05afb5b15c", "type": "electric_scooter", "lat": 38.892297666666664, "is_reserved": 0, "lon": -77.0152695, "fusion_lon": 0.0, "is_disabled": 0, "fusion_lat": 0.0, "bike_id": "ed40d43322ccdd0566000d05afb5b15c", "rental_uris": {"ios": "https://dc.lft.to/lastmile_qr_scan", "android": "https://dc.lft.to/lastmile_qr_scan"}}, {"name": "235fed36d8e0a748e68f240472a9ea09", "type": "electric_scooter", "lat": 38.9058375, "is_reserved": 0, "lon": -77.06521383333333, "fusion_lon": 0.0, "is_disabled": 0, "fusion_lat": 0.0, "bike_id": "235fed36d8e0a748e68f240472a9ea09", "rental_uris": {"ios": "https://dc.lft.to/lastmile_qr_scan", "android": "https://dc.lft.to/lastmile_qr_scan"}}, {"name": "81ad3e126cd2657c23d3e0852336f821", "type": "electric_bike", "lat": 38.8884695, "is_reserved": 0, "lon": -77.08274766666666, "fusion_lon": 0.0, "is_disabled": 0, "fusion_lat": 0.0, "bike_id": "81ad3e126cd2657c23d3e0852336f821", "rental_uris": {"ios": "https://dc.lft.to/lastmile_qr_scan", "android": "https://dc.lft.to/lastmile_qr_scan"}}, {"name": "8aba5c409db9d6f14975d4a26292543d", "type": "electric_scooter", "lat": 38.9216035, "is_reserved": 0, "lon": -77.0421975, "fusion_lon": 0.0, "is_disabled": 0, "fusion_lat": 0.0, "bike_id": "8aba5c409db9d6f14975d4a26292543d", "rental_uris": {"ios": "https://dc.lft.to/lastmile_qr_scan", "android": "https://dc.lft.to/lastmile_qr_scan"}}, {"name": "3da0c52fb8f2eab548b475ae8d681cef", "type": "electric_scooter", "lat": 38.917767833333336, "is_reserved": 0, "lon": -77.02364966666667, "fusion_lon": 0.0, "is_disabled": 0, "fusion_lat": 0.0, "bike_id": "3da0c52fb8f2eab548b475ae8d681cef", "rental_uris": {"ios": "https://dc.lft.to/lastmile_qr_scan", "android": "https://dc.lft.to/lastmile_qr_scan"}}, {"name": "75d95e3e87e3c85518aba4b3dac6371f", "type": "electric_scooter", "lat": 38.894809333333335, "is_reserved": 0, "lon": -76.99519183333334, "fusion_lon": 0.0, "is_disabled": 0, "fusion_lat": 0.0, "bike_id": "75d95e3e87e3c85518aba4b3dac6371f", "rental_uris": {"ios": "https://dc.lft.to/lastmile_qr_scan", "android": "https://dc.lft.to/lastmile_qr_scan"}}, {"name": "c64306df5777198e45354a31c28aaeae", "type": "electric_scooter", "lat": 38.86670483333333, "is_reserved": 0, "lon": -76.98451916666667, "fusion_lon": 0.0, "is_disabled": 0, "fusion_lat": 0.0, "bike_id": "c64306df5777198e45354a31c28aaeae", "rental_uris": {"ios": "https://dc.lft.to/lastmile_qr_scan", "android": "https://dc.lft.to/lastmile_qr_scan"}}, {"name": "bbd94642b5a9ef6eca6419da0414163a", "type": "electric_bike", "lat": 38.990900333333336, "is_reserved": 0, "lon": -76.8749615, "fusion_lon": 0.0, "is_disabled": 0, "fusion_lat": 0.0, "bike_id": "bbd94642b5a9ef6eca6419da0414163a", "rental_uris": {"ios": "https://dc.lft.to/lastmile_qr_scan", "android": "https://dc.lft.to/lastmile_qr_scan"}}, {"name": "6ccd2259f126aa529c102a48abeac286", "type": "electric_scooter", "lat": 38.9484375, "is_reserved": 0, "lon": -77.027126, "fusion_lon": 0.0, "is_disabled": 0, "fusion_lat": 0.0, "bike_id": "6ccd2259f126aa529c102a48abeac286", "rental_uris": {"ios": "https://dc.lft.to/lastmile_qr_scan", "android": "https://dc.lft.to/lastmile_qr_scan"}}, {"name": "cadd7925f62a43bda654437a2c993274", "type": "electric_scooter", "lat": 38.87673233333334, "is_reserved": 0, "lon": -77.017842, "fusion_lon": 0.0, "is_disabled": 0, "fusion_lat": 0.0, "bike_id": "cadd7925f62a43bda654437a2c993274", "rental_uris": {"ios": "https://dc.lft.to/lastmile_qr_scan", "android": "https://dc.lft.to/lastmile_qr_scan"}}, {"name": "e93c275bbeae7ce7d2c9196a591825a6", "type": "electric_scooter", "lat": 38.924433666666665, "is_reserved": 0, "lon": -77.0335465, "fusion_lon": 0.0, "is_disabled": 0, "fusion_lat": 0.0, "bike_id": "e93c275bbeae7ce7d2c9196a591825a6", "rental_uris": {"ios": "https://dc.lft.to/lastmile_qr_scan", "android": "https://dc.lft.to/lastmile_qr_scan"}}, {"name": "0eb8c850a43ec4b424f9e8d5ff1a905d", "type": "electric_scooter", "lat": 38.8922775, "is_reserved": 0, "lon": -77.04639333333333, "fusion_lon": 0.0, "is_disabled": 0, "fusion_lat": 0.0, "bike_id": "0eb8c850a43ec4b424f9e8d5ff1a905d", "rental_uris": {"ios": "https://dc.lft.to/lastmile_qr_scan", "android": "https://dc.lft.to/lastmile_qr_scan"}}, {"name": "f876850f35ed0b758eb86c9cf98f368e", "type": "electric_scooter", "lat": 38.89969716666667, "is_reserved": 0, "lon": -77.05704866666666, "fusion_lon": 0.0, "is_disabled": 0, "fusion_lat": 0.0, "bike_id": "f876850f35ed0b758eb86c9cf98f368e", "rental_uris": {"ios": "https://dc.lft.to/lastmile_qr_scan", "android": "https://dc.lft.to/lastmile_qr_scan"}}, {"name": "d8190e539d5db35540205c800b9aab4e", "type": "electric_scooter", "lat": 38.93610916666667, "is_reserved": 0, "lon": -77.05859783333334, "fusion_lon": 0.0, "is_disabled": 0, "fusion_lat": 0.0, "bike_id": "d8190e539d5db35540205c800b9aab4e", "rental_uris": {"ios": "https://dc.lft.to/lastmile_qr_scan", "android": "https://dc.lft.to/lastmile_qr_scan"}}, {"name": "e49da15565d37216c8cf0dda88a05c5f", "type": "electric_scooter", "lat": 38.906694, "is_reserved": 0, "lon": -77.0386925, "fusion_lon": 0.0, "is_disabled": 0, "fusion_lat": 0.0, "bike_id": "e49da15565d37216c8cf0dda88a05c5f", "rental_uris": {"ios": "https://dc.lft.to/lastmile_qr_scan", "android": "https://dc.lft.to/lastmile_qr_scan"}}, {"name": "48910b060dfd1384f603c2998efa4fa2", "type": "electric_bike", "lat": 38.828649, "is_reserved": 0, "lon": -77.1122545, "fusion_lon": 0.0, "is_disabled": 0, "fusion_lat": 0.0, "bike_id": "48910b060dfd1384f603c2998efa4fa2", "rental_uris": {"ios": "https://dc.lft.to/lastmile_qr_scan", "android": "https://dc.lft.to/lastmile_qr_scan"}}, {"name": "9f6c21091ecbaf367be23709d1aa73d8", "type": "electric_scooter", "lat": 38.90661816666667, "is_reserved": 0, "lon": -77.03871966666667, "fusion_lon": 0.0, "is_disabled": 0, "fusion_lat": 0.0, "bike_id": "9f6c21091ecbaf367be23709d1aa73d8", "rental_uris": {"ios": "https://dc.lft.to/lastmile_qr_scan", "android": "https://dc.lft.to/lastmile_qr_scan"}}, {"name": "f0ef1f62378795a0ab5091ceb41f66cc", "type": "electric_scooter", "lat": 38.88398133333333, "is_reserved": 0, "lon": -77.01536233333333, "fusion_lon": 0.0, "is_disabled": 0, "fusion_lat": 0.0, "bike_id": "f0ef1f62378795a0ab5091ceb41f66cc", "rental_uris": {"ios": "https://dc.lft.to/lastmile_qr_scan", "android": "https://dc.lft.to/lastmile_qr_scan"}}, {"name": "c9dfbaf81a139b67a1c86d4a3c130c7d", "type": "electric_scooter", "lat": 38.924493166666664, "is_reserved": 0, "lon": -77.02036033333333, "fusion_lon": 0.0, "is_disabled": 0, "fusion_lat": 0.0, "bike_id": "c9dfbaf81a139b67a1c86d4a3c130c7d", "rental_uris": {"ios": "https://dc.lft.to/lastmile_qr_scan", "android": "https://dc.lft.to/lastmile_qr_scan"}}, {"name": "91c688aa6d07e16e2ab069f5f2656356", "type": "electric_scooter", "lat": 38.86415866666667, "is_reserved": 0, "lon": -76.98041716666667, "fusion_lon": 0.0, "is_disabled": 0, "fusion_lat": 0.0, "bike_id": "91c688aa6d07e16e2ab069f5f2656356", "rental_uris": {"ios": "https://dc.lft.to/lastmile_qr_scan", "android": "https://dc.lft.to/lastmile_qr_scan"}}, {"name": "ae71c8b7e6a88511c8367bec87c6079c", "type": "electric_scooter", "lat": 38.97238566666667, "is_reserved": 0, "lon": -77.02715666666667, "fusion_lon": 0.0, "is_disabled": 0, "fusion_lat": 0.0, "bike_id": "ae71c8b7e6a88511c8367bec87c6079c", "rental_uris": {"ios": "https://dc.lft.to/lastmile_qr_scan", "android": "https://dc.lft.to/lastmile_qr_scan"}}, {"name": "8a8a9cbe2b1c4c6cdf1111f6bf6a09e8", "type": "electric_scooter", "lat": 38.85527033333334, "is_reserved": 0, "lon": -76.96918716666667, "fusion_lon": 0.0, "is_disabled": 0, "fusion_lat": 0.0, "bike_id": "8a8a9cbe2b1c4c6cdf1111f6bf6a09e8", "rental_uris": {"ios": "https://dc.lft.to/lastmile_qr_scan", "android": "https://dc.lft.to/lastmile_qr_scan"}}, {"name": "59589f271e878465ac848300bfa53e6a", "type": "electric_bike", "lat": 38.89964, "is_reserved": 0, "lon": -76.98676116666667, "fusion_lon": 0.0, "is_disabled": 0, "fusion_lat": 0.0, "bike_id": "59589f271e878465ac848300bfa53e6a", "rental_uris": {"ios": "https://dc.lft.to/lastmile_qr_scan", "android": "https://dc.lft.to/lastmile_qr_scan"}}, {"name": "e1eb58f1c0c8a6bea7b9f06288e7c673", "type": "electric_scooter", "lat": 38.9014425, "is_reserved": 0, "lon": -77.03338233333334, "fusion_lon": 0.0, "is_disabled": 0, "fusion_lat": 0.0, "bike_id": "e1eb58f1c0c8a6bea7b9f06288e7c673", "rental_uris": {"ios": "https://dc.lft.to/lastmile_qr_scan", "android": "https://dc.lft.to/lastmile_qr_scan"}}, {"name": "9e716a458625b7e90a7ef2f89631c462", "type": "electric_scooter", "lat": 38.899984833333335, "is_reserved": 0, "lon": -76.99504266666666, "fusion_lon": 0.0, "is_disabled": 0, "fusion_lat": 0.0, "bike_id": "9e716a458625b7e90a7ef2f89631c462", "rental_uris": {"ios": "https://dc.lft.to/lastmile_qr_scan", "android": "https://dc.lft.to/lastmile_qr_scan"}}, {"name": "df5af6464333afafa69b36b1e1502a2d", "type": "electric_scooter", "lat": 38.9248275, "is_reserved": 0, "lon": -77.05215583333333, "fusion_lon": 0.0, "is_disabled": 0, "fusion_lat": 0.0, "bike_id": "df5af6464333afafa69b36b1e1502a2d", "rental_uris": {"ios": "https://dc.lft.to/lastmile_qr_scan", "android": "https://dc.lft.to/lastmile_qr_scan"}}, {"name": "bddbda37456dc5935d243e7fbbffa22b", "type": "electric_scooter", "lat": 38.92611766666667, "is_reserved": 0, "lon": -77.02163533333334, "fusion_lon": 0.0, "is_disabled": 0, "fusion_lat": 0.0, "bike_id": "bddbda37456dc5935d243e7fbbffa22b", "rental_uris": {"ios": "https://dc.lft.to/lastmile_qr_scan", "android": "https://dc.lft.to/lastmile_qr_scan"}}, {"name": "3d8fc8c370c1ac8d819fe1c6dfbe9b3a", "type": "electric_scooter", "lat": 38.90522216666667, "is_reserved": 0, "lon": -77.04993133333333, "fusion_lon": 0.0, "is_disabled": 0, "fusion_lat": 0.0, "bike_id": "3d8fc8c370c1ac8d819fe1c6dfbe9b3a", "rental_uris": {"ios": "https://dc.lft.to/lastmile_qr_scan", "android": "https://dc.lft.to/lastmile_qr_scan"}}, {"name": "63b5481f9e3014f123a284a3808c0757", "type": "electric_bike", "lat": 38.89638016666667, "is_reserved": 0, "lon": -77.10457766666667, "fusion_lon": 0.0, "is_disabled": 0, "fusion_lat": 0.0, "bike_id": "63b5481f9e3014f123a284a3808c0757", "rental_uris": {"ios": "https://dc.lft.to/lastmile_qr_scan", "android": "https://dc.lft.to/lastmile_qr_scan"}}, {"name": "766ad4b0e56991ccbad52a79379a08a0", "type": "electric_scooter", "lat": 38.88404083333333, "is_reserved": 0, "lon": -76.98583466666666, "fusion_lon": 0.0, "is_disabled": 0, "fusion_lat": 0.0, "bike_id": "766ad4b0e56991ccbad52a79379a08a0", "rental_uris": {"ios": "https://dc.lft.to/lastmile_qr_scan", "android": "https://dc.lft.to/lastmile_qr_scan"}}, {"name": "a51c5e3eb9338459060d9a4c9bf8e2de", "type": "electric_scooter", "lat": 38.9417745, "is_reserved": 0, "lon": -77.03392716666667, "fusion_lon": 0.0, "is_disabled": 0, "fusion_lat": 0.0, "bike_id": "a51c5e3eb9338459060d9a4c9bf8e2de", "rental_uris": {"ios": "https://dc.lft.to/lastmile_qr_scan", "android": "https://dc.lft.to/lastmile_qr_scan"}}, {"name": "794f08b107e861b8f0a57f11aeb03b4f", "type": "electric_scooter", "lat": 38.89401383333333, "is_reserved": 0, "lon": -76.948087, "fusion_lon": 0.0, "is_disabled": 0, "fusion_lat": 0.0, "bike_id": "794f08b107e861b8f0a57f11aeb03b4f", "rental_uris": {"ios": "https://dc.lft.to/lastmile_qr_scan", "android": "https://dc.lft.to/lastmile_qr_scan"}}, {"name": "4d05373be044258e4a6537a098448cdc", "type": "electric_scooter", "lat": 38.917905, "is_reserved": 0, "lon": -77.03600316666666, "fusion_lon": 0.0, "is_disabled": 0, "fusion_lat": 0.0, "bike_id": "4d05373be044258e4a6537a098448cdc", "rental_uris": {"ios": "https://dc.lft.to/lastmile_qr_scan", "android": "https://dc.lft.to/lastmile_qr_scan"}}, {"name": "cc7fd0f76041ae3672bfa7f4be12ce0f", "type": "electric_scooter", "lat": 38.911978, "is_reserved": 0, "lon": -77.04538383333333, "fusion_lon": 0.0, "is_disabled": 0, "fusion_lat": 0.0, "bike_id": "cc7fd0f76041ae3672bfa7f4be12ce0f", "rental_uris": {"ios": "https://dc.lft.to/lastmile_qr_scan", "android": "https://dc.lft.to/lastmile_qr_scan"}}, {"name": "55fdf6773eb79fa94a030147b22ba6b5", "type": "electric_scooter", "lat": 38.89202133333333, "is_reserved": 0, "lon": -77.00237166666666, "fusion_lon": 0.0, "is_disabled": 0, "fusion_lat": 0.0, "bike_id": "55fdf6773eb79fa94a030147b22ba6b5", "rental_uris": {"ios": "https://dc.lft.to/lastmile_qr_scan", "android": "https://dc.lft.to/lastmile_qr_scan"}}, {"name": "e7f605bb53aa0a33e07d81adc87d276a", "type": "electric_scooter", "lat": 38.93356583333333, "is_reserved": 0, "lon": -77.06939766666666, "fusion_lon": 0.0, "is_disabled": 0, "fusion_lat": 0.0, "bike_id": "e7f605bb53aa0a33e07d81adc87d276a", "rental_uris": {"ios": "https://dc.lft.to/lastmile_qr_scan", "android": "https://dc.lft.to/lastmile_qr_scan"}},