{"data": {"bikes": [{"rental_uris": {"ios": "https://dc.lft.to/lastmile_qr_scan", "android": "https://dc.lft.to/lastmile_qr_scan"}, "lon": -77.02001083333333, "type": "electric_scooter", "fusion_lat": 0.0, "lat": 38.905614166666666, "name": "abc47144797b06dbfc1fba356caf60b1", "fusion_lon": 0.0, "bike_id": "abc47144797b06dbfc1fba356caf60b1", "is_disabled": 0, "is_reserved": 0}, {"rental_uris": {"ios": "https://dc.lft.to/lastmile_qr_scan", "android": "https://dc.lft.to/lastmile_qr_scan"}, "lon": -77.043016, "type": "electric_scooter", "fusion_lat": 0.0, "lat": 38.905484, "name": "f22c6b24e622dc1d6ffd93c46f818c1e", "fusion_lon": 0.0, "bike_id": "f22c6b24e622dc1d6ffd93c46f818c1e", "is_disabled": 0, "is_reserved": 0}, {"rental_uris": {"ios": "https://dc.lft.to/lastmile_qr_scan", "android": "https://dc.lft.to/lastmile_qr_scan"}, "lon": -77.0288655, "type": "electric_scooter", "fusion_lat": 0.0, "lat": 38.90719266666667, "name": "b015084e02d0ce800e014533b26d595b", "fusion_lon": 0.0, "bike_id": "b015084e02d0ce800e014533b26d595b", "is_disabled": 0, "is_reserved": 0}, {"rental_uris": {"ios": "https://dc.lft.to/lastmile_qr_scan", "android": "https://dc.lft.to/lastmile_qr_scan"}, "lon": -77.04540466666667, "type": "electric_scooter", "fusion_lat": 0.0, "lat": 38.90370883333333, "name": "df09cd18450c83602bf58751bea84e98", "fusion_lon": 0.0, "bike_id": "df09cd18450c83602bf58751bea84e98", "is_disabled": 0, "is_reserved": 0}, {"rental_uris": {"ios": "https://dc.lft.to/lastmile_qr_scan", "android": "https://dc.lft.to/lastmile_qr_scan"}, "lon": -77.02264866666667, "type": "electric_scooter", "fusion_lat": 0.0, "lat": 38.89603016666667, "name": "e0f852ad72f792e8c4ec9861f723827e", "fusion_lon": 0.0, "bike_id": "e0f852ad72f792e8c4ec9861f723827e", "is_disabled": 0, "is_reserved": 0}, {"rental_uris": {"ios": "https://dc.lft.to/lastmile_qr_scan", "android": "https://dc.lft.to/lastmile_qr_scan"}, "lon": -77.0214245, "type": "electric_bike", "fusion_lat": 0.0, "lat": 38.973312, "name": "e8da2252a5a47bfa7061ebbcc5a1132a", "fusion_lon": 0.0, "bike_id": "e8da2252a5a47bfa7061ebbcc5a1132a", "is_disabled": 0, "is_reserved": 0}, {"rental_uris": {"ios": "https://dc.lft.to/lastmile_qr_scan", "android": "https://dc.lft.to/lastmile_qr_scan"}, "lon": -77.01206083333334, "type": "electric_scooter", "fusion_lat": 0.0, "lat": 38.920373, "name": "e8ee068a455a8f50b890899ca445a6a8", "fusion_lon": 0.0, "bike_id": "e8ee068a455a8f50b890899ca445a6a8", "is_disabled": 0, "is_reserved": 0}, {"rental_uris": {"ios": "https://dc.lft.to/lastmile_qr_scan", "android": "https://dc.lft.to/lastmile_qr_scan"}, "lon": -77.02457933333334, "type": "electric_scooter", "fusion_lat": 0.0, "lat": 38.916950166666666, "name": "1a47a208b5367692a17107f28bb2d8d7", "fusion_lon": 0.0, "bike_id": "1a47a208b5367692a17107f28bb2d8d7", "is_disabled": 0, "is_reserved": 0}, {"rental_uris": {"ios": "https://dc.lft.to/lastmile_qr_scan", "android": "https://dc.lft.to/lastmile_qr_scan"}, "lon": -76.99143483333333, "type": "electric_scooter", "fusion_lat": 0.0, "lat": 38.893459166666666, "name": "ee9723f87b306e96d0aa3d51d79b4422", "fusion_lon": 0.0, "bike_id": "ee9723f87b306e96d0aa3d51d79b4422", "is_disabled": 0, "is_reserved": 0}, {"rental_uris": {"ios": "https://dc.lft.to/lastmile_qr_scan", "android": "https://dc.lft.to/lastmile_qr_scan"}, "lon": -77.03771583333334, "type": "electric_scooter", "fusion_lat": 0.0, "lat": 38.91691683333333, "name": "1fde778593c6fc68130a29af42cd9268", "fusion_lon": 0.0, "bike_id": "1fde778593c6fc68130a29af42cd9268", "is_disabled": 0, "is_reserved": 0}, {"rental_uris": {"ios": "https://dc.lft.to/lastmile_qr_scan", "android": "https://dc.lft.to/lastmile_qr_scan"}, "lon": -77.04871766666666, "type": "electric_scooter", "fusion_lat": 0.0, "lat": 38.90648783333334, "name": "e7144a89ec7568e7043b33ae0d13c1f2", "fusion_lon": 0.0, "bike_id": "e7144a89ec7568e7043b33ae0d13c1f2", "is_disabled": 0, "is_reserved": 0}, {"rental_uris": {"ios": "https://dc.lft.to/lastmile_qr_scan", "android": "https://dc.lft.to/lastmile_qr_scan"}, "lon": -77.0271235, "type": "electric_scooter", "fusion_lat": 0.0, "lat": 38.91677466666667, "name": "6c62024d2b80561e44ef6e0915e5fc89", "fusion_lon": 0.0, "bike_id": "6c62024d2b80561e44ef6e0915e5fc89", "is_disabled": 0, "is_reserved": 0}, {"rental_uris": {"ios": "https://dc.lft.to/lastmile_qr_scan", "android": "https://dc.lft.to/lastmile_qr_scan"}, "lon": -76.98438433333334, "type": "electric_scooter", "fusion_lat": 0.0, "lat": 38.9146135, "name": "1beee0d0c0aa246876dcf9e3f94418d9", "fusion_lon": 0.0, "bike_id": "1beee0d0c0aa246876dcf9e3f94418d9", "is_disabled": 0, "is_reserved": 0}, {"rental_uris": {"ios": "https://dc.lft.to/lastmile_qr_scan", "android": "https://dc.lft.to/lastmile_qr_scan"}, "lon": -77.04376533333334, "type": "electric_scooter", "fusion_lat": 0.0, "lat": 38.920682666666664, "name": "8d453b626157a49c5ff8ec4af5fd56e1", "fusion_lon": 0.0, "bike_id": "8d453b626157a49c5ff8ec4af5fd56e1", "is_disabled": 0, "is_reserved": 0}, {"rental_uris": {"ios": "https://dc.lft.to/lastmile_qr_scan", "android": "https://dc.lft.to/lastmile_qr_scan"}, "lon": -77.0529155, "type": "electric_scooter", "fusion_lat": 0.0, "lat": 38.910616833333336, "name": "1c2472efbba4c8e3b007e5aab8ee9b73", "fusion_lon": 0.0, "bike_id": "1c2472efbba4c8e3b007e5aab8ee9b73", "is_disabled": 0, "is_reserved": 0}, {"rental_uris": {"ios": "https://dc.lft.to/lastmile_qr_scan", "android": "https://dc.lft.to/lastmile_qr_scan"}, "lon": -76.8953405, "type": "electric_bike", "fusion_lat": 0.0, "lat": 38.94554316666667, "name": "1b2bc1fc241db33b082816dcfe164c17", "fusion_lon": 0.0, "bike_id": "1b2bc1fc241db33b082816dcfe164c17", "is_disabled": 0, "is_reserved": 0}, {"rental_uris": {"ios": "https://dc.lft.to/lastmile_qr_scan", "android": "https://dc.lft.to/lastmile_qr_scan"}, "lon": -77.045642, "type": "electric_scooter", "fusion_lat": 0.0, "lat": 38.91404166666667, "name": "a792f9a9a604f51b88635ba3c937b675", "fusion_lon": 0.0, "bike_id": "a792f9a9a604f51b88635ba3c937b675", "is_disabled": 0, "is_reserved": 0}, {"rental_uris": {"ios": "https://dc.lft.to/lastmile_qr_scan", "android": "https://dc.lft.to/lastmile_qr_scan"}, "lon": -77.01585566666667, "type": "electric_scooter", "fusion_lat": 0.0, "lat": 38.9164495, "name": "000c54c2683d9b1ef7d3c10de2f85af9", "fusion_lon": 0.0, "bike_id": "000c54c2683d9b1ef7d3c10de2f85af9", "is_disabled": 0, "is_reserved": 0}, {"rental_uris": {"ios": "https://dc.lft.to/lastmile_qr_scan", "android": "https://dc.lft.to/lastmile_qr_scan"}, "lon": -77.01419733333333, "type": "electric_scooter", "fusion_lat": 0.0, "lat": 38.91562916666667, "name": "08045e7928b0f1e38efce7f8dbbbd891", "fusion_lon": 0.0, "bike_id": "08045e7928b0f1e38efce7f8dbbbd891", "is_disabled": 0, "is_reserved": 0}, {"rental_uris": {"ios": "https://dc.lft.to/lastmile_qr_scan", "android": "https://dc.lft.to/lastmile_qr_scan"}, "lon": -77.00917616666666, "type": "electric_scooter", "fusion_lat": 0.0, "lat": 38.910977, "name": "44a7c2c10cbc782e22cdd7c294fd24be", "fusion_lon": 0.0, "bike_id": "44a7c2c10cbc782e22cdd7c294fd24be", "is_disabled": 0, "is_reserved": 0}, {"rental_uris": {"ios": "https://dc.lft.to/lastmile_qr_scan", "android": "https://dc.lft.to/lastmile_qr_scan"}, "lon": -76.97996516666667, "type": "electric_bike", "fusion_lat": 0.0, "lat": 38.862827, "name": "d29f43403b8cbc6951bc27daa50a3af5", "fusion_lon": 0.0, "bike_id": "d29f43403b8cbc6951bc27daa50a3af5", "is_disabled": 0, "is_reserved": 0}, {"rental_uris": {"ios": "https://dc.lft.to/lastmile_qr_scan", "android": "https://dc.lft.to/lastmile_qr_scan"}, "lon": -77.02398516666666, "type": "electric_scooter", "fusion_lat": 0.0, "lat": 38.895211, "name": "c165578abe7e2866b12d2401200d9a60", "fusion_lon": 0.0, "bike_id": "c165578abe7e2866b12d2401200d9a60", "is_disabled": 0, "is_reserved": 0}, {"rental_uris": {"ios": "https://dc.lft.to/lastmile_qr_scan", "android": "https://dc.lft.to/lastmile_qr_scan"}, "lon": -76.930964, "type": "electric_scooter", "fusion_lat": 0.0, "lat": 38.9014205, "name": "beb92d7b9d61166c5042598b32476fc2", "fusion_lon": 0.0, "bike_id": "beb92d7b9d61166c5042598b32476fc2", "is_disabled": 0, "is_reserved": 0}, {"rental_uris": {"ios": "https://dc.lft.to/lastmile_qr_scan", "android": "https://dc.lft.to/lastmile_qr_scan"}, "lon": -77.053458, "type": "electric_scooter", "fusion_lat": 0.0, "lat": 38.902631166666666, "name": "4be0ec91c40ccf8691f0190b1529ab52", "fusion_lon": 0.0, "bike_id": "4be0ec91c40ccf8691f0190b1529ab52", "is_disabled": 0, "is_reserved": 0}, {"rental_uris": {"ios": "https://dc.lft.to/lastmile_qr_scan", "android": "https://dc.lft.to/lastmile_qr_scan"}, "lon": -77.0500725, "type": "electric_scooter", "fusion_lat": 0.0, "lat": 38.901852166666664, "name": "330088a1be874acb5c7905b9a3ea4d74", "fusion_lon": 0.0, "bike_id": "330088a1be874acb5c7905b9a3ea4d74", "is_disabled": 0, "is_reserved": 0}, {"rental_uris": {"ios": "https://dc.lft.to/lastmile_qr_scan", "android": "https://dc.lft.to/lastmile_qr_scan"}, "lon": -77.02698366666667, "type": "electric_scooter", "fusion_lat": 0.0, "lat": 38.91815233333333, "name": "43498bb50e39131d0486325656e5f31a", "fusion_lon": 0.0, "bike_id": "43498bb50e39131d0486325656e5f31a", "is_disabled": 0, "is_reserved": 0}, {"rental_uris": {"ios": "https://dc.lft.to/lastmile_qr_scan", "android": "https://dc.lft.to/lastmile_qr_scan"}, "lon": -77.041557, "type": "electric_scooter", "fusion_lat": 0.0, "lat": 38.916135833333335, "name": "36d7b47071e90d3c3b23fa64768bf64a", "fusion_lon": 0.0, "bike_id": "36d7b47071e90d3c3b23fa64768bf64a", "is_disabled": 0, "is_reserved": 0}, {"rental_uris": {"ios": "https://dc.lft.to/lastmile_qr_scan", "android": "https://dc.lft.to/lastmile_qr_scan"}, "lon": -76.95469033333333, "type": "electric_bike", "fusion_lat": 0.0, "lat": 38.88641466666667, "name": "522ad042cf21cc0fae71404efc6a8b36", "fusion_lon": 0.0, "bike_id": "522ad042cf21cc0fae71404efc6a8b36", "is_disabled": 0, "is_reserved": 0}, {"rental_uris": {"ios": "https://dc.lft.to/lastmile_qr_scan", "android": "https://dc.lft.to/lastmile_qr_scan"}, "lon": -77.02959783333333, "type": "electric_scooter", "fusion_lat": 0.0, "lat": 38.925685, "name": "39b47a7d2f4e8f932ef36657aeee7fe7", "fusion_lon": 0.0, "bike_id": "39b47a7d2f4e8f932ef36657aeee7fe7", "is_disabled": 0, "is_reserved": 0}, {"rental_uris": {"ios": "https://dc.lft.to/lastmile_qr_scan", "android": "https://dc.lft.to/lastmile_qr_scan"}, "lon": -77.01238516666666, "type": "electric_scooter", "fusion_lat": 0.0, "lat": 38.917126, "name": "894b9ac325291928e015d31a88f659bc", "fusion_lon": 0.0, "bike_id": "894b9ac325291928e015d31a88f659bc", "is_disabled": 0, "is_reserved": 0}, {"rental_uris": {"ios": "https://dc.lft.to/lastmile_qr_scan", "android": "https://dc.lft.to/lastmile_qr_scan"}, "lon": -77.052231, "type": "electric_scooter", "fusion_lat": 0.0, "lat": 38.89809366666667, "name": "0cc1b3606a00cf18fa18ea009a401be3", "fusion_lon": 0.0, "bike_id": "0cc1b3606a00cf18fa18ea009a401be3", "is_disabled": 0, "is_reserved": 0}, {"rental_uris": {"ios": "https://dc.lft.to/lastmile_qr_scan", "android": "https://dc.lft.to/lastmile_qr_scan"}, "lon": -77.03198983333333, "type": "electric_scooter", "fusion_lat": 0.0, "lat": 38.900332, "name": "1397a21e65a4f3a545f235d33ff108ba", "fusion_lon": 0.0, "bike_id": "1397a21e65a4f3a545f235d33ff108ba", "is_disabled": 0, "is_reserved": 0}, {"rental_uris": {"ios": "https://dc.lft.to/lastmile_qr_scan", "android": "https://dc.lft.to/lastmile_qr_scan"}, "lon": -77.04119583333333, "type": "electric_scooter", "fusion_lat": 0.0, "lat": 38.933324, "name": "a82005ef86bb678552ec0dbe7b831cc9", "fusion_lon": 0.0, "bike_id": "a82005ef86bb678552ec0dbe7b831cc9", "is_disabled": 0, "is_reserved": 0}, {"rental_uris": {"ios": "https://dc.lft.to/lastmile_qr_scan", "android": "https://dc.lft.to/lastmile_qr_scan"}, "lon": -77.05977333333334, "type": "electric_scooter", "fusion_lat": 0.0, "lat": 38.935538333333334, "name": "520cd400b76b0e1738aeb58900e1d840", "fusion_lon": 0.0, "bike_id": "520cd400b76b0e1738aeb58900e1d840", "is_disabled": 0, "is_reserved": 0}, {"rental_uris": {"ios": "https://dc.lft.to/lastmile_qr_scan", "android": "https://dc.lft.to/lastmile_qr_scan"}, "lon": -77.02692816666666, "type": "electric_scooter", "fusion_lat": 0.0, "lat": 38.916316333333334, "name": "92ad6ce966542ff15066b330088aa76c", "fusion_lon": 0.0, "bike_id": "92ad6ce966542ff15066b330088aa76c", "is_disabled": 0, "is_reserved": 0}, {"rental_uris": {"ios": "https://dc.lft.to/lastmile_qr_scan", "android": "https://dc.lft.to/lastmile_qr_scan"}, "lon": -77.01532666666667, "type": "electric_scooter", "fusion_lat": 0.0, "lat": 38.887410833333334, "name": "3c9603ed96ad15c1667ab82ac0c20e9e", "fusion_lon": 0.0, "bike_id": "3c9603ed96ad15c1667ab82ac0c20e9e", "is_disabled": 0, "is_reserved": 0}, {"rental_uris": {"ios": "https://dc.lft.to/lastmile_qr_scan", "android": "https://dc.lft.to/lastmile_qr_scan"}, "lon": -76.97455883333333, "type": "electric_scooter", "fusion_lat": 0.0, "lat": 38.865406166666666, "name": "4453ec5f51844059f3d6a4aaa72d26fe", "fusion_lon": 0.0, "bike_id": "4453ec5f51844059f3d6a4aaa72d26fe", "is_disabled": 0, "is_reserved": 0}, {"rental_uris": {"ios": "https://dc.lft.to/lastmile_qr_scan", "android": "https://dc.lft.to/lastmile_qr_scan"}, "lon": -76.99060933333334, "type": "electric_scooter", "fusion_lat": 0.0, "lat": 38.86357116666667, "name": "607ee7124881c1aab0aeb0ac9385f614", "fusion_lon": 0.0, "bike_id": "607ee7124881c1aab0aeb0ac9385f614", "is_disabled": 0, "is_reserved": 0}, {"rental_uris": {"ios": "https://dc.lft.to/lastmile_qr_scan", "android": "https://dc.lft.to/lastmile_qr_scan"}, "lon": -77.11796616666666, "type": "electric_bike", "fusion_lat": 0.0, "lat": 38.898354166666664, "name": "c6788361fffbba6b3722fd429d7b87ae", "fusion_lon": 0.0, "bike_id": "c6788361fffbba6b3722fd429d7b87ae", "is_disabled": 0, "is_reserved": 0}, {"rental_uris": {"ios": "https://dc.lft.to/lastmile_qr_scan", "android": "https://dc.lft.to/lastmile_qr_scan"}, "lon": -76.98786783333334, "type": "electric_bike", "fusion_lat": 0.0, "lat": 38.9041915, "name": "01df142dd5b7abb475e05dd1495e798f", "fusion_lon": 0.0, "bike_id": "01df142dd5b7abb475e05dd1495e798f", "is_disabled": 0, "is_reserved": 0}, {"rental_uris": {"ios": "https://dc.lft.to/lastmile_qr_scan", "android": "https://dc.lft.to/lastmile_qr_scan"}, "lon": -77.02590466666666, "type": "electric_scooter", "fusion_lat": 0.0, "lat": 38.915581833333334, "name": "bbe48744da200b9420c7f0ed5479e9ec", "fusion_lon": 0.0, "bike_id": "bbe48744da200b9420c7f0ed5479e9ec", "is_disabled": 0, "is_reserved": 0}, {"rental_uris": {"ios": "https://dc.lft.to/lastmile_qr_scan", "android": "https://dc.lft.to/lastmile_qr_scan"}, "lon": -77.036985, "type": "electric_scooter", "fusion_lat": 0.0, "lat": 38.9264735, "name": "31e12b4d2b58a694303e35e26deaf13f", "fusion_lon": 0.0, "bike_id": "31e12b4d2b58a694303e35e26deaf13f", "is_disabled": 0, "is_reserved": 0}, {"rental_uris": {"ios": "https://dc.lft.to/lastmile_qr_scan", "android": "https://dc.lft.to/lastmile_qr_scan"}, "lon": -77.0322965, "type": "electric_scooter", "fusion_lat": 0.0, "lat": 38.920024166666664, "name": "0da4027aa6a49f455a993337038e0a53", "fusion_lon": 0.0, "bike_id": "0da4027aa6a49f455a993337038e0a53", "is_disabled": 0, "is_reserved": 0}, {"rental_uris": {"ios": "https://dc.lft.to/lastmile_qr_scan", "android": "https://dc.lft.to/lastmile_qr_scan"}, "lon": -77.00227816666667, "type": "electric_scooter", "fusion_lat": 0.0, "lat": 38.9057595, "name": "cf637734d581287656b081834ca3332b", "fusion_lon": 0.0, "bike_id": "cf637734d581287656b081834ca3332b", "is_disabled": 0, "is_reserved": 0}, {"rental_uris": {"ios": "https://dc.lft.to/lastmile_qr_scan", "android": "https://dc.lft.to/lastmile_qr_scan"}, "lon": -77.10521033333333, "type": "electric_bike", "fusion_lat": 0.0, "lat": 38.85172016666667, "name": "54f56da8b96ee7861c8d93377d995e93", "fusion_lon": 0.0, "bike_id": "54f56da8b96ee7861c8d93377d995e93", "is_disabled": 0, "is_reserved": 0}, {"rental_uris": {"ios": "https://dc.lft.to/lastmile_qr_scan", "android": "https://dc.lft.to/lastmile_qr_scan"}, "lon": -77.02826533333334, "type": "electric_scooter", "fusion_lat": 0.0, "lat": 38.93191366666667, "name": "243c0fd99117501f7b41dac1b7addcae", "fusion_lon": 0.0, "bike_id": "243c0fd99117501f7b41dac1b7addcae", "is_disabled": 0, "is_reserved": 0}, {"rental_uris": {"ios": "https://dc.lft.to/lastmile_qr_scan", "android": "https://dc.lft.to/lastmile_qr_scan"}, "lon": -77.022498, "type": "electric_scooter", "fusion_lat": 0.0, "lat": 38.923083, "name": "b6766caa42ea738e329f2a0b83731ca6", "fusion_lon": 0.0, "bike_id": "b6766caa42ea738e329f2a0b83731ca6", "is_disabled": 0, "is_reserved": 0}, {"rental_uris": {"ios": "https://dc.lft.to/lastmile_qr_scan", "android": "https://dc.lft.to/lastmile_qr_scan"}, "lon": -77.04429133333333, "type": "electric_scooter", "fusion_lat": 0.0, "lat": 38.918058333333335, "name": "cd1ce09c37d542e667babeb6a9268d7a", "fusion_lon": 0.0, "bike_id": "cd1ce09c37d542e667babeb6a9268d7a", "is_disabled": 0, "is_reserved": 0}, {"rental_uris": {"ios": "https://dc.lft.to/lastmile_qr_scan", "android": "https://dc.lft.to/lastmile_qr_scan"}, "lon": -76.9677815, "type": "electric_scooter", "fusion_lat": 0.0, "lat": 38.86143333333333, "name": "1dd36c5afa14def8ee5619e2b714f6b8", "fusion_lon": 0.0, "bike_id": "1dd36c5afa14def8ee5619e2b714f6b8", "is_disabled": 0, "is_reserved": 0}, {"rental_uris": {"ios": "https://dc.lft.to/lastmile_qr_scan", "android": "https://dc.lft.to/lastmile_qr_scan"}, "lon": -77.0029495, "type": "electric_scooter", "fusion_lat": 0.0, "lat": 38.905780166666666, "name": "4208c586714635405810ca8b2bcc6c63", "fusion_lon": 0.0, "bike_id": "4208c586714635405810ca8b2bcc6c63", "is_disabled": 0, "is_reserved": 0}, {"rental_uris": {"ios": "https://dc.lft.to/lastmile_qr_scan", "android": "https://dc.lft.to/lastmile_qr_scan"}, "lon": -76.9841205, "type": "electric_scooter", "fusion_lat": 0.0, "lat": 38.91385, "name": "364808c4c04e28324b37e6a96bb9c690", "fusion_lon": 0.0, "bike_id": "364808c4c04e28324b37e6a96bb9c690", "is_disabled": 0, "is_reserved": 0}, {"rental_uris": {"ios": "https://dc.lft.to/lastmile_qr_scan", "android": "https://dc.lft.to/lastmile_qr_scan"}, "lon": -77.03212383333333, "type": "electric_scooter", "fusion_lat": 0.0, "lat": 38.911884, "name": "b0985700f0e8a64993123a641f24f951", "fusion_lon": 0.0, "bike_id": "b0985700f0e8a64993123a641f24f951", "is_disabled": 0, "is_reserved": 0}, {"rental_uris": {"ios": "https://dc.lft.to/lastmile_qr_scan", "android": "https://dc.lft.to/lastmile_qr_scan"}, "lon": -77.00283216666666, "type": "electric_scooter", "fusion_lat": 0.0, "lat": 38.909244, "name": "ea8bc4022163b9ee6796e8dd9f671780", "fusion_lon": 0.0, "bike_id": "ea8bc4022163b9ee6796e8dd9f671780", "is_disabled": 0, "is_reserved": 0}, {"rental_uris": {"ios": "https://dc.lft.to/lastmile_qr_scan", "android": "https://dc.lft.to/lastmile_qr_scan"}, "lon": -76.98579183333334, "type": "electric_scooter", "fusion_lat": 0.0, "lat": 38.8616295, "name": "e8f376874e706d9f09c58abf6ef8ade4", "fusion_lon": 0.0, "bike_id": "e8f376874e706d9f09c58abf6ef8ade4", "is_disabled": 0, "is_reserved": 0}, {"rental_uris": {"ios": "https://dc.lft.to/lastmile_qr_scan", "android": "https://dc.lft.to/lastmile_qr_scan"}, "lon": -76.997693, "type": "electric_bike", "fusion_lat": 0.0, "lat": 38.90932, "name": "52b98be96700e72180fa9297f5e0a52d", "fusion_lon": 0.0, "bike_id": "52b98be96700e72180fa9297f5e0a52d", "is_disabled": 0, "is_reserved": 0}, {"rental_uris": {"ios": "https://dc.lft.to/lastmile_qr_scan", "android": "https://dc.lft.to/lastmile_qr_scan"}, "lon": -77.02311, "type": "electric_scooter", "fusion_lat": 0.0, "lat": 38.878866, "name": "d76a94e1611e3cc58d8f2c61608516ca", "fusion_lon": 0.0, "bike_id": "d76a94e1611e3cc58d8f2c61608516ca", "is_disabled": 0, "is_reserved": 0}, {"rental_uris": {"ios": "https://dc.lft.to/lastmile_qr_scan", "android": "https://dc.lft.to/lastmile_qr_scan"}, "lon": -77.030563, "type": "electric_scooter", "fusion_lat": 0.0, "lat": 38.91262666666667, "name": "32d8c9682dfb4d9c0a5bc9fc0639134e", "fusion_lon": 0.0, "bike_id": "32d8c9682dfb4d9c0a5bc9fc0639134e", "is_disabled": 0, "is_reserved": 0}, {"rental_uris": {"ios": "https://dc.lft.to/lastmile_qr_scan", "android": "https://dc.lft.to/lastmile_qr_scan"}, "lon": -77.04476333333334, "type": "electric_scooter", "fusion_lat": 0.0, "lat": 38.896749666666665, "name": "1200b1e39d6de6520e9daf45074ba30f", "fusion_lon": 0.0, "bike_id": "1200b1e39d6de6520e9daf45074ba30f", "is_disabled": 0, "is_reserved": 0}, {"rental_uris": {"ios": "https://dc.lft.to/lastmile_qr_scan", "android": "https://dc.lft.to/lastmile_qr_scan"}, "lon": -77.04283033333333, "type": "electric_scooter", "fusion_lat": 0.0, "lat": 38.905499, "name": "8e180a02d7c53691b211f566028fdf67", "fusion_lon": 0.0, "bike_id": "8e180a02d7c53691b211f566028fdf67", "is_disabled": 0, "is_reserved": 0}, {"rental_uris": {"ios": "https://dc.lft.to/lastmile_qr_scan", "android": "https://dc.lft.to/lastmile_qr_scan"}, "lon": -77.0034545, "type": "electric_scooter", "fusion_lat": 0.0, "lat": 38.90815333333333, "name": "3a42468f5a83c9a7d3139911300a2908", "fusion_lon": 0.0, "bike_id": "3a42468f5a83c9a7d3139911300a2908", "is_disabled": 0, "is_reserved": 0}, {"rental_uris": {"ios": "https://dc.lft.to/lastmile_qr_scan", "android": "https://dc.lft.to/lastmile_qr_scan"}, "lon": -77.011072, "type": "electric_scooter", "fusion_lat": 0.0, "lat": 38.89503416666667, "name": "e0076d65ab93755853ec53f5f897a786", "fusion_lon": 0.0, "bike_id": "e0076d65ab93755853ec53f5f897a786", "is_disabled": 0, "is_reserved": 0}, {"rental_uris": {"ios": "https://dc.lft.to/lastmile_qr_scan", "android": "https://dc.lft.to/lastmile_qr_scan"}, "lon": -77.005178, "type": "electric_scooter", "fusion_lat": 0.0, "lat": 38.874698, "name": "88d074e5c6b4949b3118441f5f973bce", "fusion_lon": 0.0, "bike_id": "88d074e5c6b4949b3118441f5f973bce", "is_disabled": 0, "is_reserved": 0}, {"rental_uris": {"ios": "https://dc.lft.to/lastmile_qr_scan", "android": "https://dc.lft.to/lastmile_qr_scan"}, "lon": -76.97558116666667, "type": "electric_scooter", "fusion_lat": 0.0, "lat": 38.90437566666667, "name": "1164bd148b023906bdf8d41ba566252a", "fusion_lon": 0.0, "bike_id": "1164bd148b023906bdf8d41ba566252a", "is_disabled": 0, "is_reserved": 0}, {"rental_uris": {"ios": "https://dc.lft.to/lastmile_qr_scan", "android": "https://dc.lft.to/lastmile_qr_scan"}, "lon": -76.97799916666666, "type": "electric_scooter", "fusion_lat": 0.0, "lat": 38.90315783333333, "name": "89eea098a55fe7dd62a3d10af208112e", "fusion_lon": 0.0, "bike_id": "89eea098a55fe7dd62a3d10af208112e", "is_disabled": 0, "is_reserved": 0}, {"rental_uris": {"ios": "https://dc.lft.to/lastmile_qr_scan", "android": "https://dc.lft.to/lastmile_qr_scan"}, "lon": -76.9888745, "type": "electric_scooter", "fusion_lat": 0.0, "lat": 38.866572833333336, "name": "c933d01ef7c36f0829e35ea25a440a2c", "fusion_lon": 0.0, "bike_id": "c933d01ef7c36f0829e35ea25a440a2c", "is_disabled": 0, "is_reserved": 0}, {"rental_uris": {"ios": "https://dc.lft.to/lastmile_qr_scan", "android": "https://dc.lft.to/lastmile_qr_scan"}, "lon": -77.06123266666667, "type": "electric_bike", "fusion_lat": 0.0, "lat": 38.9020195, "name": "3438e27f17cbfd46dae1aeaac37480ea", "fusion_lon": 0.0, "bike_id": "3438e27f17cbfd46dae1aeaac37480ea", "is_disabled": 0, "is_reserved": 0}, {"rental_uris": {"ios": "https://dc.lft.to/lastmile_qr_scan", "android": "https://dc.lft.to/lastmile_qr_scan"}, "lon": -77.02608183333334, "type": "electric_scooter", "fusion_lat": 0.0, "lat": 38.90530833333333, "name": "5d8d8c7c274e4422aca967016590cf1e", "fusion_lon": 0.0, "bike_id": "5d8d8c7c274e4422aca967016590cf1e", "is_disabled": 0, "is_reserved": 0}, {"rental_uris": {"ios": "https://dc.lft.to/lastmile_qr_scan", "android": "https://dc.lft.to/lastmile_qr_scan"}, "lon": -77.05515716666666, "type": "electric_scooter", "fusion_lat": 0.0, "lat": 38.927930833333335, "name": "e49056ee1c6b1385f6af753eb88c314b", "fusion_lon": 0.0, "bike_id": "e49056ee1c6b1385f6af753eb88c314b", "is_disabled": 0, "is_reserved": 0}, {"rental_uris": {"ios": "https://dc.lft.to/lastmile_qr_scan", "android": "https://dc.lft.to/lastmile_qr_scan"}, "lon": -77.021349, "type": "electric_scooter", "fusion_lat": 0.0, "lat": 38.89479466666667, "name": "893b502286052a5e99fc38cc53b6bbcf", "fusion_lon": 0.0, "bike_id": "893b502286052a5e99fc38cc53b6bbcf", "is_disabled": 0, "is_reserved": 0}, {"rental_uris": {"ios": "https://dc.lft.to/lastmile_qr_scan", "android": "https://dc.lft.to/lastmile_qr_scan"}, "lon": -77.02745816666666, "type": "electric_scooter", "fusion_lat": 0.0, "lat": 38.939620166666664, "name": "a4e9d5f1abd791afbe652ff14da88a27", "fusion_lon": 0.0, "bike_id": "a4e9d5f1abd791afbe652ff14da88a27", "is_disabled": 0, "is_reserved": 0}, {"rental_uris": {"ios": "https://dc.lft.to/lastmile_qr_scan", "android": "https://dc.lft.to/lastmile_qr_scan"}, "lon": -77.00065283333333, "type": "electric_scooter", "fusion_lat": 0.0, "lat": 38.907235, "name": "9c888df7ed3f25780ceac950e876a975", "fusion_lon": 0.0, "bike_id": "9c888df7ed3f25780ceac950e876a975", "is_disabled": 0, "is_reserved": 0}, {"rental_uris": {"ios": "https://dc.lft.to/lastmile_qr_scan", "android": "https://dc.lft.to/lastmile_qr_scan"}, "lon": -77.01739083333334, "type": "electric_bike", "fusion_lat": 0.0, "lat": 39.0001705, "name": "e4e29e9e9e1e8f8fa246be009ff64058", "fusion_lon": 0.0, "bike_id": "e4e29e9e9e1e8f8fa246be009ff64058", "is_disabled": 0, "is_reserved": 0}, {"rental_uris": {"ios": "https://dc.lft.to/lastmile_qr_scan", "android": "https://dc.lft.to/lastmile_qr_scan"}, "lon": -77.03467383333333, "type": "electric_scooter", "fusion_lat": 0.0, "lat": 38.92155433333333, "name": "34c537f636bafbd68370fe95c6f6a0db", "fusion_lon": 0.0, "bike_id": "34c537f636bafbd68370fe95c6f6a0db", "is_disabled": 0, "is_reserved": 0}, {"rental_uris": {"ios": "https://dc.lft.to/lastmile_qr_scan", "android": "https://dc.lft.to/lastmile_qr_scan"}, "lon": -77.05695833333333, "type": "electric_scooter", "fusion_lat": 0.0, "lat": 38.90554433333333, "name": "7c71176f0e8fd643ef4aa7a3ff445c8b", "fusion_lon": 0.0, "bike_id": "7c71176f0e8fd643ef4aa7a3ff445c8b", "is_disabled": 0, "is_reserved": 0}, {"rental_uris": {"ios": "https://dc.lft.to/lastmile_qr_scan", "android": "https://dc.lft.to/lastmile_qr_scan"}, "lon": -77.09674433333333, "type": "electric_scooter", "fusion_lat": 0.0, "lat": 38.917651666666664, "name": "695463219219385b595a9968a87832af", "fusion_lon": 0.0, "bike_id": "695463219219385b595a9968a87832af", "is_disabled": 0, "is_reserved": 0}, {"rental_uris": {"ios": "https://dc.lft.to/lastmile_qr_scan", "android": "https://dc.lft.to/lastmile_qr_scan"}, "lon": -77.04054683333334, "type": "electric_scooter", "fusion_lat": 0.0, "lat": 38.9267155, "name": "64a3ae6fa5fd3be23ccd80dd601310c2", "fusion_lon": 0.0, "bike_id": "64a3ae6fa5fd3be23ccd80dd601310c2", "is_disabled": 0, "is_reserved": 0}, {"rental_uris": {"ios": "https://dc.lft.to/lastmile_qr_scan", "android": "https://dc.lft.to/lastmile_qr_scan"}, "lon": -76.988837, "type": "electric_scooter", "fusion_lat": 0.0, "lat": 38.86656583333333, "name": "5d0c55717800434b8f2c6f328e92cc62", "fusion_lon": 0.0, "bike_id": "5d0c55717800434b8f2c6f328e92cc62", "is_disabled": 0, "is_reserved": 0}, {"rental_uris": {"ios": "https://dc.lft.to/lastmile_qr_scan", "android": "https://dc.lft.to/lastmile_qr_scan"}, "lon": -77.04684816666666, "type": "electric_scooter", "fusion_lat": 0.0, "lat": 38.896083, "name": "3bfeeab9e4cd1770dc3fc255b6dcfbf9", "fusion_lon": 0.0, "bike_id": "3bfeeab9e4cd1770dc3fc255b6dcfbf9", "is_disabled": 0, "is_reserved": 0}, {"rental_uris": {"ios": "https://dc.lft.to/lastmile_qr_scan", "android": "https://dc.lft.to/lastmile_qr_scan"}, "lon": -77.031824, "type": "electric_scooter", "fusion_lat": 0.0, "lat": 38.91808133333333, "name": "92528ae142788b6f21169fd3fbdb9efd", "fusion_lon": 0.0, "bike_id": "92528ae142788b6f21169fd3fbdb9efd", "is_disabled": 0, "is_reserved": 0}, {"rental_uris": {"ios": "https://dc.lft.to/lastmile_qr_scan", "android": "https://dc.lft.to/lastmile_qr_scan"}, "lon": -76.97699083333333, "type": "electric_scooter", "fusion_lat": 0.0, "lat": 38.90254266666667, "name": "ffd7aed7f3d4e226bfcf60a3a8c99aa9", "fusion_lon": 0.0, "bike_id": "ffd7aed7f3d4e226bfcf60a3a8c99aa9", "is_disabled": 0, "is_reserved": 0}, {"rental_uris": {"ios": "https://dc.lft.to/lastmile_qr_scan", "android": "https://dc.lft.to/lastmile_qr_scan"}, "lon": -76.93747816666666, "type": "electric_scooter", "fusion_lat": 0.0, "lat": 38.912892, "name": "063cf82827cc710e1775cee093198006", "fusion_lon": 0.0, "bike_id": "063cf82827cc710e1775cee093198006", "is_disabled": 0, "is_reserved": 0}, {"rental_uris": {"ios": "https://dc.lft.to/lastmile_qr_scan", "android": "https://dc.lft.to/lastmile_qr_scan"}, "lon": -77.01061516666667, "type": "electric_scooter", "fusion_lat": 0.0, "lat": 38.8757995, "name": "7fef612e1acd3ef3e8f1100c2026ddb4", "fusion_lon": 0.0, "bike_id": "7fef612e1acd3ef3e8f1100c2026ddb4", "is_disabled": 0, "is_reserved": 0}, {"rental_uris": {"ios": "https://dc.lft.to/lastmile_qr_scan", "android": "https://dc.lft.to/lastmile_qr_scan"}, "lon": -77.042681, "type": "electric_scooter", "fusion_lat": 0.0, "lat": 38.91699333333333, "name": "34dbc145b1e3b76148d317f896a15d9e", "fusion_lon": 0.0, "bike_id": "34dbc145b1e3b76148d317f896a15d9e", "is_disabled": 0, "is_reserved": 0}, {"rental_uris": {"ios": "https://dc.lft.to/lastmile_qr_scan", "android": "https://dc.lft.to/lastmile_qr_scan"}, "lon": -77.05128666666667, "type": "electric_scooter", "fusion_lat": 0.0, "lat": 38.902325166666664, "name": "e300d396d8d85be8ac4e1da185487029", "fusion_lon": 0.0, "bike_id": "e300d396d8d85be8ac4e1da185487029", "is_disabled": 0, "is_reserved": 0}, {"rental_uris": {"ios": "https://dc.lft.to/lastmile_qr_scan", "android": "https://dc.lft.to/lastmile_qr_scan"}, "lon": -77.03259816666667, "type": "electric_scooter", "fusion_lat": 0.0, "lat": 38.93873833333333, "name": "bc0a0f23683cdb585aa87dc2c3cde383", "fusion_lon": 0.0, "bike_id": "bc0a0f23683cdb585aa87dc2c3cde383", "is_disabled": 0, "is_reserved": 0}, {"rental_uris": {"ios": "https://dc.lft.to/lastmile_qr_scan", "android": "https://dc.lft.to/lastmile_qr_scan"}, "lon": -77.02307333333333, "type": "electric_scooter", "fusion_lat": 0.0, "lat": 38.929840166666665, "name": "a73cbdef8c2a464616e98b24b5a6bea6", "fusion_lon": 0.0, "bike_id": "a73cbdef8c2a464616e98b24b5a6bea6", "is_disabled": 0, "is_reserved": 0}, {"rental_uris": {"ios": "https://dc.lft.to/lastmile_qr_scan", "android": "https://dc.lft.to/lastmile_qr_scan"}, "lon": -77.02181583333333, "type": "electric_bike", "fusion_lat": 0.0, "lat": 38.91316966666667, "name": "997a5ae56a8ff9f92e8147a779ab157f", "fusion_lon": 0.0, "bike_id": "997a5ae56a8ff9f92e8147a779ab157f", "is_disabled": 0, "is_reserved": 0}, {"rental_uris": {"ios": "https://dc.lft.to/lastmile_qr_scan", "android": "https://dc.lft.to/lastmile_qr_scan"}, "lon": -77.02978283333333, "type": "electric_scooter", "fusion_lat": 0.0, "lat": 38.962283666666664, "name": "9cf8e2a681e32137f1ae2019742624c9", "fusion_lon": 0.0, "bike_id": "9cf8e2a681e32137f1ae2019742624c9", "is_disabled": 0, "is_reserved": 0}, {"rental_uris": {"ios": "https://dc.lft.to/lastmile_qr_scan", "android": "https://dc.lft.to/lastmile_qr_scan"}, "lon": -77.02580116666667, "type": "electric_scooter", "fusion_lat": 0.0, "lat": 38.8823185, "name": "6c2bbd22050e2edf583626453f873b6c", "fusion_lon": 0.0, "bike_id": "6c2bbd22050e2edf583626453f873b6c", "is_disabled": 0, "is_reserved": 0}, {"rental_uris": {"ios": "https://dc.lft.to/lastmile_qr_scan", "android": "https://dc.lft.to/lastmile_qr_scan"}, "lon": -76.99837866666667, "type": "electric_scooter", "fusion_lat": 0.0, "lat": 38.900075666666666, "name": "867067a0f6b826ddb874be777e1d0b13", "fusion_lon": 0.0, "bike_id": "867067a0f6b826ddb874be777e1d0b13", "is_disabled": 0, "is_reserved": 0}, {"rental_uris": {"ios": "https://dc.lft.to/lastmile_qr_scan", "android": "https://dc.lft.to/lastmile_qr_scan"}, "lon": -77.01089016666667, "type": "electric_scooter", "fusion_lat": 0.0, "lat": 38.91629733333333, "name": "903309201f430c98181094058cf8b706", "fusion_lon": 0.0, "bike_id": "903309201f430c98181094058cf8b706", "is_disabled": 0, "is_reserved": 0}, {"rental_uris": {"ios": "https://dc.lft.to/lastmile_qr_scan", "android": "https://dc.lft.to/lastmile_qr_scan"}, "lon": -77.02993016666667, "type": "electric_scooter", "fusion_lat": 0.0, "lat": 38.89513616666667, "name": "0f852ea4ca70eefa14c24bf3c37c368c", "fusion_lon": 0.0, "bike_id": "0f852ea4ca70eefa14c24bf3c37c368c", "is_disabled": 0, "is_reserved": 0}, {"rental_uris": {"ios": "https://dc.lft.to/lastmile_qr_scan", "android": "https://dc.lft.to/lastmile_qr_scan"}, "lon": -76.99518983333333, "type": "electric_scooter", "fusion_lat": 0.0, "lat": 38.86262, "name": "bbc70eb9965faad3aca427e2d7fd6857", "fusion_lon": 0.0, "bike_id": "bbc70eb9965faad3aca427e2d7fd6857", "is_disabled": 0, "is_reserved": 0}, {"rental_uris": {"ios": "https://dc.lft.to/lastmile_qr_scan", "android": "https://dc.lft.to/lastmile_qr_scan"}, "lon": -77.02691633333333, "type": "electric_scooter", "fusion_lat": 0.0, "lat": 38.92405183333333, "name": "5215e546580768647e1554020d4f49b3", "fusion_lon": 0.0, "bike_id": "5215e546580768647e1554020d4f49b3", "is_disabled": 0, "is_reserved": 0}, {"rental_uris": {"ios": "https://dc.lft.to/lastmile_qr_scan", "android": "https://dc.lft.to/lastmile_qr_scan"}, "lon": -77.036384, "type": "electric_scooter", "fusion_lat": 0.0, "lat": 38.91735833333333, "name": "78f5d0b3000fdf8a7334f3faa7dd9cd3", "fusion_lon": 0.0, "bike_id": "78f5d0b3000fdf8a7334f3faa7dd9cd3", "is_disabled": 0, "is_reserved": 0}, {"rental_uris": {"ios": "https://dc.lft.to/lastmile_qr_scan", "android": "https://dc.lft.to/lastmile_qr_scan"}, "lon": -77.0219655, "type": "electric_scooter", "fusion_lat": 0.0, "lat": 38.887155, "name": "aab2c6165c491c8949004ae0de448117", "fusion_lon": 0.0, "bike_id": "aab2c6165c491c8949004ae0de448117", "is_disabled": 0, "is_reserved": 0}, {"rental_uris": {"ios": "https://dc.lft.to/lastmile_qr_scan", "android": "https://dc.lft.to/lastmile_qr_scan"}, "lon": -77.03522033333333, "type": "electric_scooter", "fusion_lat": 0.0, "lat": 38.92415283333333, "name": "952c64586947437f185c80cf39cd9185", "fusion_lon": 0.0, "bike_id": "952c64586947437f185c80cf39cd9185", "is_disabled": 0, "is_reserved": 0}, {"rental_uris": {"ios": "https://dc.lft.to/lastmile_qr_scan", "android": "https://dc.lft.to/lastmile_qr_scan"}, "lon": -77.01071966666666, "type": "electric_scooter", "fusion_lat": 0.0, "lat": 38.907317, "name": "6f473c5442076ab30e99c4b45c73401a", "fusion_lon": 0.0, "bike_id": "6f473c5442076ab30e99c4b45c73401a", "is_disabled": 0, "is_reserved": 0}, {"rental_uris": {"ios": "https://dc.lft.to/lastmile_qr_scan", "android": "https://dc.lft.to/lastmile_qr_scan"}, "lon": -77.0369835, "type": "electric_scooter", "fusion_lat": 0.0, "lat": 38.92643733333333, "name": "9b2cf183b0b5eb75912dc31d91774ca5", "fusion_lon": 0.0, "bike_id": "9b2cf183b0b5eb75912dc31d91774ca5", "is_disabled": 0, "is_reserved": 0}, {"rental_uris": {"ios": "https://dc.lft.to/lastmile_qr_scan", "android": "https://dc.lft.to/lastmile_qr_scan"}, "lon": -77.055801, "type": "electric_scooter", "fusion_lat": 0.0, "lat": 38.92782783333333, "name": "bdf28a1cfc15d7cc4b98925ff68d515b", "fusion_lon": 0.0, "bike_id": "bdf28a1cfc15d7cc4b98925ff68d515b", "is_disabled": 0, "is_reserved": 0}, {"rental_uris": {"ios": "https://dc.lft.to/lastmile_qr_scan", "android": "https://dc.lft.to/lastmile_qr_scan"}, "lon": -76.95734316666666, "type": "electric_scooter", "fusion_lat": 0.0, "lat": 38.891883166666666, "name": "126b1c7e949037736113ed133887d1e6", "fusion_lon": 0.0, "bike_id": "126b1c7e949037736113ed133887d1e6", "is_disabled": 0, "is_reserved": 0}, {"rental_uris": {"ios": "https://dc.lft.to/lastmile_qr_scan", "android": "https://dc.lft.to/lastmile_qr_scan"}, "lon": -77.02947416666666, "type": "electric_scooter", "fusion_lat": 0.0, "lat": 38.90508366666667, "name": "5f6d629076896408a70bb1cf6d7669ff", "fusion_lon": 0.0, "bike_id": "5f6d629076896408a70bb1cf6d7669ff", "is_disabled": 0, "is_reserved": 0}, {"rental_uris": {"ios": "https://dc.lft.to/lastmile_qr_scan", "android": "https://dc.lft.to/lastmile_qr_scan"}, "lon": -77.0302645, "type": "electric_scooter", "fusion_lat": 0.0, "lat": 38.89725933333333, "name": "68a9f276e29ab7510022cae1925102b8", "fusion_lon": 0.0, "bike_id": "68a9f276e29ab7510022cae1925102b8", "is_disabled": 0, "is_reserved": 0}, {"rental_uris": {"ios": "https://dc.lft.to/lastmile_qr_scan", "android": "https://dc.lft.to/lastmile_qr_scan"}, "lon": -77.02868633333334, "type": "electric_scooter", "fusion_lat": 0.0, "lat": 38.91694966666667, "name": "b49fd9297fad32740895c056d7dfc599", "fusion_lon": 0.0, "bike_id": "b49fd9297fad32740895c056d7dfc599", "is_disabled": 0, "is_reserved": 0}, {"rental_uris": {"ios": "https://dc.lft.to/lastmile_qr_scan", "android": "https://dc.lft.to/lastmile_qr_scan"}, "lon": -77.03718666666667, "type": "electric_scooter", "fusion_lat": 0.0, "lat": 38.95181633333333, "name": "c7c77b98f3e5253907aacad9d82f0198", "fusion_lon": 0.0, "bike_id": "c7c77b98f3e5253907aacad9d82f0198", "is_disabled": 0, "is_reserved": 0}, {"rental_uris": {"ios": "https://dc.lft.to/lastmile_qr_scan", "android": "https://dc.lft.to/lastmile_qr_scan"}, "lon": -77.0254185, "type": "electric_scooter", "fusion_lat": 0.0, "lat": 38.918184, "name": "a1a3972d2f0f37f43a87d78b786be98b", "fusion_lon": 0.0, "bike_id": "a1a3972d2f0f37f43a87d78b786be98b", "is_disabled": 0, "is_reserved": 0}, {"rental_uris": {"ios": "https://dc.lft.to/lastmile_qr_scan", "android": "https://dc.lft.to/lastmile_qr_scan"}, "lon": -77.044901, "type": "electric_scooter", "fusion_lat": 0.0, "lat": 38.91285416666667, "name": "c52223baa852797ba7b88718bb844a46", "fusion_lon": 0.0, "bike_id": "c52223baa852797ba7b88718bb844a46", "is_disabled": 0, "is_reserved": 0}, {"rental_uris": {"ios": "https://dc.lft.to/lastmile_qr_scan", "android": "https://dc.lft.to/lastmile_qr_scan"}, "lon": -77.04120416666666, "type": "electric_scooter", "fusion_lat": 0.0, "lat": 38.92155983333333, "name": "9b46b3f1883d27859bbb73126b8345d5", "fusion_lon": 0.0, "bike_id": "9b46b3f1883d27859bbb73126b8345d5", "is_disabled": 0, "is_reserved": 0}, {"rental_uris": {"ios": "https://dc.lft.to/lastmile_qr_scan", "android": "https://dc.lft.to/lastmile_qr_scan"}, "lon": -76.98616783333334, "type": "electric_scooter", "fusion_lat": 0.0, "lat": 38.86819066666666, "name": "e84dbac6bd618122ff964e51c84ffa5c", "fusion_lon": 0.0, "bike_id": "e84dbac6bd618122ff964e51c84ffa5c", "is_disabled": 0, "is_reserved": 0}, {"rental_uris": {"ios": "https://dc.lft.to/lastmile_qr_scan", "android": "https://dc.lft.to/lastmile_qr_scan"}, "lon": -76.989624, "type": "electric_scooter", "fusion_lat": 0.0, "lat": 38.900198833333334, "name": "95534908d22a25e7ff1eb5d6f3cdf56c", "fusion_lon": 0.0, "bike_id": "95534908d22a25e7ff1eb5d6f3cdf56c", "is_disabled": 0, "is_reserved": 0}, {"rental_uris": {"ios": "https://dc.lft.to/lastmile_qr_scan", "android": "https://dc.lft.to/lastmile_qr_scan"}, "lon": -77.12896916666666, "type": "electric_bike", "fusion_lat": 0.0, "lat": 38.86378716666667, "name": "4d56f4899b4360e1f062726798977e39", "fusion_lon": 0.0, "bike_id": "4d56f4899b4360e1f062726798977e39", "is_disabled": 0, "is_reserved": 0}, {"rental_uris": {"ios": "https://dc.lft.to/lastmile_qr_scan", "android": "https://dc.lft.to/lastmile_qr_scan"}, "lon": -77.03175666666667, "type": "electric_scooter", "fusion_lat": 0.0, "lat": 38.88735766666667, "name": "88575158fce69e772118f9be17cee8bd", "fusion_lon": 0.0, "bike_id": "88575158fce69e772118f9be17cee8bd", "is_disabled": 0, "is_reserved": 0}, {"rental_uris": {"ios": "https://dc.lft.to/lastmile_qr_scan", "android": "https://dc.lft.to/lastmile_qr_scan"}, "lon": -77.067765, "type": "electric_bike", "fusion_lat": 0.0, "lat": 38.91542283333333, "name": "5ecdb1aec0f8175054be23617b4f18d5", "fusion_lon": 0.0, "bike_id": "5ecdb1aec0f8175054be23617b4f18d5", "is_disabled": 0, "is_reserved": 0}, {"rental_uris": {"ios": "https://dc.lft.to/lastmile_qr_scan", "android": "https://dc.lft.to/lastmile_qr_scan"}, "lon": -77.04379333333333, "type": "electric_scooter", "fusion_lat": 0.0, "lat": 38.91029616666667, "name": "f2d9621d9020c125c94c8b8ac7f47cc6", "fusion_lon": 0.0, "bike_id": "f2d9621d9020c125c94c8b8ac7f47cc6", "is_disabled": 0, "is_reserved": 0}, {"rental_uris": {"ios": "https://dc.lft.to/lastmile_qr_scan", "android": "https://dc.lft.to/lastmile_qr_scan"}, "lon": -77.03221516666666, "type": "electric_scooter", "fusion_lat": 0.0, "lat": 38.92669216666667, "name": "8f85ec0b0437c1f960be8c92b1836f14", "fusion_lon": 0.0, "bike_id": "8f85ec0b0437c1f960be8c92b1836f14", "is_disabled": 0, "is_reserved": 0}, {"rental_uris": {"ios": "https://dc.lft.to/lastmile_qr_scan", "android": "https://dc.lft.to/lastmile_qr_scan"}, "lon": -77.02432933333333, "type": "electric_scooter", "fusion_lat": 0.0, "lat": 38.926556166666664, "name": "82a060b28fb8df265a117cca595929a7", "fusion_lon": 0.0, "bike_id": "82a060b28fb8df265a117cca595929a7", "is_disabled": 0, "is_reserved": 0}, {"rental_uris": {"ios": "https://dc.lft.to/lastmile_qr_scan", "android": "https://dc.lft.to/lastmile_qr_scan"}, "lon": -76.98702933333334, "type": "electric_scooter", "fusion_lat": 0.0, "lat": 38.86701633333333, "name": "603fa1a47e49da2ed693dbd77f674b5a", "fusion_lon": 0.0, "bike_id": "603fa1a47e49da2ed693dbd77f674b5a", "is_disabled": 0, "is_reserved": 0}, {"rental_uris": {"ios": "https://dc.lft.to/lastmile_qr_scan", "android": "https://dc.lft.to/lastmile_qr_scan"}, "lon": -76.93172433333334, "type": "electric_scooter", "fusion_lat": 0.0, "lat": 38.898838, "name": "d321e34474c89d944569bd402cbf1ad8", "fusion_lon": 0.0, "bike_id": "d321e34474c89d944569bd402cbf1ad8", "is_disabled": 0, "is_reserved": 0}, {"rental_uris": {"ios": "https://dc.lft.to/lastmile_qr_scan", "android": "https://dc.lft.to/lastmile_qr_scan"}, "lon": -77.0328945, "type": "electric_scooter", "fusion_lat": 0.0, "lat": 38.909837, "name": "e1ce42d089db46307fdf26f1415ff628", "fusion_lon": 0.0, "bike_id": "e1ce42d089db46307fdf26f1415ff628", "is_disabled": 0, "is_reserved": 0}, {"rental_uris": {"ios": "https://dc.lft.to/lastmile_qr_scan", "android": "https://dc.lft.to/lastmile_qr_scan"}, "lon": -76.9371685, "type": "electric_scooter", "fusion_lat": 0.0, "lat": 38.895897166666664, "name": "ef7a2b4055513684953c4d40864abbe7", "fusion_lon": 0.0, "bike_id": "ef7a2b4055513684953c4d40864abbe7", "is_disabled": 0, "is_reserved": 0}, {"rental_uris": {"ios": "https://dc.lft.to/lastmile_qr_scan", "android": "https://dc.lft.to/lastmile_qr_scan"}, "lon": -77.04110283333333, "type": "electric_scooter", "fusion_lat": 0.0, "lat": 38.924446833333334, "name": "6491d2832ea64b465e3c5ab5b3048982", "fusion_lon": 0.0, "bike_id": "6491d2832ea64b465e3c5ab5b3048982", "is_disabled": 0, "is_reserved": 0}, {"rental_uris": {"ios": "https://dc.lft.to/lastmile_qr_scan", "android": "https://dc.lft.to/lastmile_qr_scan"}, "lon": -76.974891, "type": "electric_bike", "fusion_lat": 0.0, "lat": 38.9200735, "name": "06c60dbbacff1ce6cb5f29b23e400024", "fusion_lon": 0.0, "bike_id": "06c60dbbacff1ce6cb5f29b23e400024", "is_disabled": 0, "is_reserved": 0}, {"rental_uris": {"ios": "https://dc.lft.to/lastmile_qr_scan", "android": "https://dc.lft.to/lastmile_qr_scan"}, "lon": -77.02593733333333, "type": "electric_scooter", "fusion_lat": 0.0, "lat": 38.89265433333333, "name": "948591a847076e49c5ab9355509df218", "fusion_lon": 0.0, "bike_id": "948591a847076e49c5ab9355509df218", "is_disabled": 0, "is_reserved": 0}, {"rental_uris": {"ios": "https://dc.lft.to/lastmile_qr_scan", "android": "https://dc.lft.to/lastmile_qr_scan"}, "lon": -77.02482766666667, "type": "electric_scooter", "fusion_lat": 0.0, "lat": 38.9171, "name": "08489c3d79f5aa318051f2cfac9f02a5", "fusion_lon": 0.0, "bike_id": "08489c3d79f5aa318051f2cfac9f02a5", "is_disabled": 0, "is_reserved": 0}, {"rental_uris": {"ios": "https://dc.lft.to/lastmile_qr_scan", "android": "https://dc.lft.to/lastmile_qr_scan"}, "lon": -77.04862966666667, "type": "electric_scooter", "fusion_lat": 0.0, "lat": 38.908525, "name": "8376715765478a068b4a72bcc1407607", "fusion_lon": 0.0, "bike_id": "8376715765478a068b4a72bcc1407607", "is_disabled": 0, "is_reserved": 0}, {"rental_uris": {"ios": "https://dc.lft.to/lastmile_qr_scan", "android": "https://dc.lft.to/lastmile_qr_scan"}, "lon": -77.06086766666667, "type": "electric_scooter", "fusion_lat": 0.0, "lat": 38.912743666666664, "name": "213e7243d9d4ebce269fcc3d6e4789ea", "fusion_lon": 0.0, "bike_id": "213e7243d9d4ebce269fcc3d6e4789ea", "is_disabled": 0, "is_reserved": 0}, {"rental_uris": {"ios": "https://dc.lft.to/lastmile_qr_scan", "android": "https://dc.lft.to/lastmile_qr_scan"}, "lon": -77.032228, "type": "electric_scooter", "fusion_lat": 0.0, "lat": 38.926728, "name": "a72f6b558eeadd4fcadac1a0d396d955", "fusion_lon": 0.0, "bike_id": "a72f6b558eeadd4fcadac1a0d396d955", "is_disabled": 0, "is_reserved": 0}, {"rental_uris": {"ios": "https://dc.lft.to/lastmile_qr_scan", "android": "https://dc.lft.to/lastmile_qr_scan"}, "lon": -77.02338833333333, "type": "electric_scooter", "fusion_lat": 0.0, "lat": 38.92518116666667, "name": "5eb36156f80f7f8f5bd396b234324c28", "fusion_lon": 0.0, "bike_id": "5eb36156f80f7f8f5bd396b234324c28", "is_disabled": 0, "is_reserved": 0}, {"rental_uris": {"ios": "https://dc.lft.to/lastmile_qr_scan", "android": "https://dc.lft.to/lastmile_qr_scan"}, "lon": -77.00894316666667, "type": "electric_scooter", "fusion_lat": 0.0, "lat": 38.91420516666667, "name": "55b1c8e2eb74c2cad16a98c9b5a4695e", "fusion_lon": 0.0, "bike_id": "55b1c8e2eb74c2cad16a98c9b5a4695e", "is_disabled": 0, "is_reserved": 0}, {"rental_uris": {"ios": "https://dc.lft.to/lastmile_qr_scan", "android": "https://dc.lft.to/lastmile_qr_scan"}, "lon": -77.05806, "type": "electric_scooter", "fusion_lat": 0.0, "lat": 38.93454833333333, "name": "0cad2dd83fef1301110c25d6c84fbe78", "fusion_lon": 0.0, "bike_id": "0cad2dd83fef1301110c25d6c84fbe78", "is_disabled": 0, "is_reserved": 0}, {"rental_uris": {"ios": "https://dc.lft.to/lastmile_qr_scan", "android": "https://dc.lft.to/lastmile_qr_scan"}, "lon": -77.05644916666667, "type": "electric_bike", "fusion_lat": 0.0, "lat": 38.92407216666667, "name": "e2582014cd8e1fcf83db28163c26590c", "fusion_lon": 0.0, "bike_id": "e2582014cd8e1fcf83db28163c26590c", "is_disabled": 0, "is_reserved": 0}, {"rental_uris": {"ios": "https://dc.lft.to/lastmile_qr_scan", "android": "https://dc.lft.to/lastmile_qr_scan"}, "lon": -77.03514133333333, "type": "electric_scooter", "fusion_lat": 0.0, "lat": 38.935944166666665, "name": "81e0b045dfe669b2c8a98bf30b425e16", "fusion_lon": 0.0, "bike_id": "81e0b045dfe669b2c8a98bf30b425e16", "is_disabled": 0, "is_reserved": 0}, {"rental_uris": {"ios": "https://dc.lft.to/lastmile_qr_scan", "android": "https://dc.lft.to/lastmile_qr_scan"}, "lon": -76.97399383333334, "type": "electric_scooter", "fusion_lat": 0.0, "lat": 38.90162883333333, "name": "6ed68ecae31206610fb27fda64a58ff9", "fusion_lon": 0.0, "bike_id": "6ed68ecae31206610fb27fda64a58ff9", "is_disabled": 0, "is_reserved": 0}, {"rental_uris": {"ios": "https://dc.lft.to/lastmile_qr_scan", "android": "https://dc.lft.to/lastmile_qr_scan"}, "lon": -77.04022466666666, "type": "electric_bike", "fusion_lat": 0.0, "lat": 38.900993166666666, "name": "506b2ed2553f7b029730c834bbdab737", "fusion_lon": 0.0, "bike_id": "506b2ed2553f7b029730c834bbdab737", "is_disabled": 0, "is_reserved": 0}, {"rental_uris": {"ios": "https://dc.lft.to/lastmile_qr_scan", "android": "https://dc.lft.to/lastmile_qr_scan"}, "lon": -77.050789, "type": "electric_scooter", "fusion_lat": 0.0, "lat": 38.900506666666665, "name": "19bbdb516c30db878983dabcce23e5ff", "fusion_lon": 0.0, "bike_id": "19bbdb516c30db878983dabcce23e5ff", "is_disabled": 0, "is_reserved": 0}, {"rental_uris": {"ios": "https://dc.lft.to/lastmile_qr_scan", "android": "https://dc.lft.to/lastmile_qr_scan"}, "lon": -77.06279333333333, "type": "electric_scooter", "fusion_lat": 0.0, "lat": 38.91247, "name": "8c95d1355a73fbc2356d68a9858a5d69", "fusion_lon": 0.0, "bike_id": "8c95d1355a73fbc2356d68a9858a5d69", "is_disabled": 0, "is_reserved": 0}, {"rental_uris": {"ios": "https://dc.lft.to/lastmile_qr_scan", "android": "https://dc.lft.to/lastmile_qr_scan"}, "lon": -76.99773266666666, "type": "electric_scooter", "fusion_lat": 0.0, "lat": 38.844254666666664, "name": "e7772c2ecf3e704e0ba9cc4e40c01417", "fusion_lon": 0.0, "bike_id": "e7772c2ecf3e704e0ba9cc4e40c01417", "is_disabled": 0, "is_reserved": 0}, {"rental_uris": {"ios": "https://dc.lft.to/lastmile_qr_scan", "android": "https://dc.lft.to/lastmile_qr_scan"}, "lon": -77.01789666666667, "type": "electric_scooter", "fusion_lat": 0.0, "lat": 38.94118783333333, "name": "72e824815d0337759f279a6f768d2859", "fusion_lon": 0.0, "bike_id": "72e824815d0337759f279a6f768d2859", "is_disabled": 0, "is_reserved": 0}, {"rental_uris": {"ios": "https://dc.lft.to/lastmile_qr_scan", "android": "https://dc.lft.to/lastmile_qr_scan"}, "lon": -77.04313266666666, "type": "electric_scooter", "fusion_lat": 0.0, "lat": 38.909538833333336, "name": "d351bcec2e3d70b156bea89aab44d364", "fusion_lon": 0.0, "bike_id": "d351bcec2e3d70b156bea89aab44d364", "is_disabled": 0, "is_reserved": 0}, {"rental_uris": {"ios": "https://dc.lft.to/lastmile_qr_scan", "android": "https://dc.lft.to/lastmile_qr_scan"}, "lon": -77.02178533333333, "type": "electric_scooter", "fusion_lat": 0.0, "lat": 38.91000566666666, "name": "c3ae92f3538470fbdd3b2ead0bc7ff70", "fusion_lon": 0.0, "bike_id": "c3ae92f3538470fbdd3b2ead0bc7ff70", "is_disabled": 0, "is_reserved": 0}, {"rental_uris": {"ios": "https://dc.lft.to/lastmile_qr_scan", "android": "https://dc.lft.to/lastmile_qr_scan"}, "lon": -77.01791683333333, "type": "electric_scooter", "fusion_lat": 0.0, "lat": 38.9012685, "name": "ebdaa730bb4a381f74142a8c02a3a70e", "fusion_lon": 0.0, "bike_id": "ebdaa730bb4a381f74142a8c02a3a70e", "is_disabled": 0, "is_reserved": 0}, {"rental_uris": {"ios": "https://dc.lft.to/lastmile_qr_scan", "android": "https://dc.lft.to/lastmile_qr_scan"}, "lon": -77.0317805, "type": "electric_scooter", "fusion_lat": 0.0, "lat": 38.909803333333336, "name": "cbea645c3ad69d32b99dda17ac49f610", "fusion_lon": 0.0, "bike_id": "cbea645c3ad69d32b99dda17ac49f610", "is_disabled": 0, "is_reserved": 0}, {"rental_uris": {"ios": "https://dc.lft.to/lastmile_qr_scan", "android": "https://dc.lft.to/lastmile_qr_scan"}, "lon": -76.9498275, "type": "electric_scooter", "fusion_lat": 0.0, "lat": 38.89363133333333, "name": "5b6653973d95aa3b4c6c59d79b81a4a2", "fusion_lon": 0.0, "bike_id": "5b6653973d95aa3b4c6c59d79b81a4a2", "is_disabled": 0, "is_reserved": 0}, {"rental_uris": {"ios": "https://dc.lft.to/lastmile_qr_scan", "android": "https://dc.lft.to/lastmile_qr_scan"}, "lon": -77.02965416666666, "type": "electric_scooter", "fusion_lat": 0.0, "lat": 38.900511, "name": "71226318b57125e9b61ae63d91a1069a", "fusion_lon": 0.0, "bike_id": "71226318b57125e9b61ae63d91a1069a", "is_disabled": 0, "is_reserved": 0}, {"rental_uris": {"ios": "https://dc.lft.to/lastmile_qr_scan", "android": "https://dc.lft.to/lastmile_qr_scan"}, "lon": -77.03584066666667, "type": "electric_scooter", "fusion_lat": 0.0, "lat": 38.93245016666667, "name": "af35c3a3b580ed281313b4e552c85377", "fusion_lon": 0.0, "bike_id": "af35c3a3b580ed281313b4e552c85377", "is_disabled": 0, "is_reserved": 0}, {"rental_uris": {"ios": "https://dc.lft.to/lastmile_qr_scan", "android": "https://dc.lft.to/lastmile_qr_scan"}, "lon": -77.07847333333333, "type": "electric_scooter", "fusion_lat": 0.0, "lat": 38.93158616666667, "name": "63bc8f1fd101f76c5428e8379f0b3314", "fusion_lon": 0.0, "bike_id": "63bc8f1fd101f76c5428e8379f0b3314", "is_disabled": 0, "is_reserved": 0}, {"rental_uris": {"ios": "https://dc.lft.to/lastmile_qr_scan", "android": "https://dc.lft.to/lastmile_qr_scan"}, "lon": -77.04166933333333, "type": "electric_scooter", "fusion_lat": 0.0, "lat": 38.900478666666665, "name": "9774bd6d2a6843fd41f51576156748bc", "fusion_lon": 0.0, "bike_id": "9774bd6d2a6843fd41f51576156748bc", "is_disabled": 0, "is_reserved": 0}, {"rental_uris": {"ios": "https://dc.lft.to/lastmile_qr_scan", "android": "https://dc.lft.to/lastmile_qr_scan"}, "lon": -77.01254833333333, "type": "electric_scooter", "fusion_lat": 0.0, "lat": 38.899656666666665, "name": "cfccfc9a26047f58f19fe0bf385532fe", "fusion_lon": 0.0, "bike_id": "cfccfc9a26047f58f19fe0bf385532fe", "is_disabled": 0, "is_reserved": 0}, {"rental_uris": {"ios": "https://dc.lft.to/lastmile_qr_scan", "android": "https://dc.lft.to/lastmile_qr_scan"}, "lon": -77.01011883333334, "type": "electric_scooter", "fusion_lat": 0.0, "lat": 38.894917, "name": "c7029f9cc553cee34dc63f2453181eba", "fusion_lon": 0.0, "bike_id": "c7029f9cc553cee34dc63f2453181eba", "is_disabled": 0, "is_reserved": 0}, {"rental_uris": {"ios": "https://dc.lft.to/lastmile_qr_scan", "android": "https://dc.lft.to/lastmile_qr_scan"}, "lon": -76.99147316666667, "type": "electric_scooter", "fusion_lat": 0.0, "lat": 38.9004045, "name": "457525b1771219cb9e76933541246858", "fusion_lon": 0.0, "bike_id": "457525b1771219cb9e76933541246858", "is_disabled": 0, "is_reserved": 0}, {"rental_uris": {"ios": "https://dc.lft.to/lastmile_qr_scan", "android": "https://dc.lft.to/lastmile_qr_scan"}, "lon": -77.13594466666666, "type": "electric_bike", "fusion_lat": 0.0, "lat": 39.053481166666664, "name": "6526348f7882c8cddeaf93c4123b9531", "fusion_lon": 0.0, "bike_id": "6526348f7882c8cddeaf93c4123b9531", "is_disabled": 0, "is_reserved": 0}, {"rental_uris": {"ios": "https://dc.lft.to/lastmile_qr_scan", "android": "https://dc.lft.to/lastmile_qr_scan"}, "lon": -77.02208966666667, "type": "electric_scooter", "fusion_lat": 0.0, "lat": 38.8873935, "name": "4731612b6247d40ee473dca0ce528c41", "fusion_lon": 0.0, "bike_id": "4731612b6247d40ee473dca0ce528c41", "is_disabled": 0, "is_reserved": 0}, {"rental_uris": {"ios": "https://dc.lft.to/lastmile_qr_scan", "android": "https://dc.lft.to/lastmile_qr_scan"}, "lon": -76.98715366666667, "type": "electric_scooter", "fusion_lat": 0.0, "lat": 38.862659666666666, "name": "6f7e0331057a3b3d0e76d939d014e998", "fusion_lon": 0.0, "bike_id": "6f7e0331057a3b3d0e76d939d014e998", "is_disabled": 0, "is_reserved": 0}, {"rental_uris": {"ios": "https://dc.lft.to/lastmile_qr_scan", "android": "https://dc.lft.to/lastmile_qr_scan"}, "lon": -76.90813016666667, "type": "electric_bike", "fusion_lat": 0.0, "lat": 38.994543666666665, "name": "e1b7704603a3ad1a5b711cc2d91381c3", "fusion_lon": 0.0, "bike_id": "e1b7704603a3ad1a5b711cc2d91381c3", "is_disabled": 0, "is_reserved": 0}, {"rental_uris": {"ios": "https://dc.lft.to/lastmile_qr_scan", "android": "https://dc.lft.to/lastmile_qr_scan"}, "lon": -77.04814766666667, "type": "electric_scooter", "fusion_lat": 0.0, "lat": 38.91335433333333, "name": "02bd668e26ab0b65817510d3041abfc6", "fusion_lon": 0.0, "bike_id": "02bd668e26ab0b65817510d3041abfc6", "is_disabled": 0, "is_reserved": 0}, {"rental_uris": {"ios": "https://dc.lft.to/lastmile_qr_scan", "android": "https://dc.lft.to/lastmile_qr_scan"}, "lon": -77.081946, "type": "electric_scooter", "fusion_lat": 0.0, "lat": 38.9492835, "name": "2731676125314ecaaf9a3134e18c5c6e", "fusion_lon": 0.0, "bike_id": "2731676125314ecaaf9a3134e18c5c6e", "is_disabled": 0, "is_reserved": 0}, {"rental_uris": {"ios": "https://dc.lft.to/lastmile_qr_scan", "android": "https://dc.lft.to/lastmile_qr_scan"}, "lon": -77.01092983333334, "type": "electric_bike", "fusion_lat": 0.0, "lat": 38.873048833333335, "name": "a4667957202ae08c2df7a6cbab76737f", "fusion_lon": 0.0, "bike_id": "a4667957202ae08c2df7a6cbab76737f", "is_disabled": 0, "is_reserved": 0}, {"rental_uris": {"ios": "https://dc.lft.to/lastmile_qr_scan", "android": "https://dc.lft.to/lastmile_qr_scan"}, "lon": -77.02793583333333, "type": "electric_scooter", "fusion_lat": 0.0, "lat": 38.930832, "name": "202e4ff2fd4f78526b10bc13f0609c7e", "fusion_lon": 0.0, "bike_id": "202e4ff2fd4f78526b10bc13f0609c7e", "is_disabled": 0, "is_reserved": 0}, {"rental_uris": {"ios": "https://dc.lft.to/lastmile_qr_scan", "android": "https://dc.lft.to/lastmile_qr_scan"}, "lon": -77.02264783333334, "type": "electric_scooter", "fusion_lat": 0.0, "lat": 38.92413033333333, "name": "a77f0ef73ec4b70bab8666bebbe7c876", "fusion_lon": 0.0, "bike_id": "a77f0ef73ec4b70bab8666bebbe7c876", "is_disabled": 0, "is_reserved": 0}, {"rental_uris": {"ios": "https://dc.lft.to/lastmile_qr_scan", "android": "https://dc.lft.to/lastmile_qr_scan"}, "lon": -77.02976933333333, "type": "electric_scooter", "fusion_lat": 0.0, "lat": 38.9244065, "name": "793dbdca53bff131a210fb709414673b", "fusion_lon": 0.0, "bike_id": "793dbdca53bff131a210fb709414673b", "is_disabled": 0, "is_reserved": 0}, {"rental_uris": {"ios": "https://dc.lft.to/lastmile_qr_scan", "android": "https://dc.lft.to/lastmile_qr_scan"}, "lon": -77.0238195, "type": "electric_scooter", "fusion_lat": 0.0, "lat": 38.907098500000004, "name": "ef3cff8775752a9d64c26a51f7a95466", "fusion_lon": 0.0, "bike_id": "ef3cff8775752a9d64c26a51f7a95466", "is_disabled": 0, "is_reserved": 0}, {"rental_uris": {"ios": "https://dc.lft.to/lastmile_qr_scan", "android": "https://dc.lft.to/lastmile_qr_scan"}, "lon": -76.9995155, "type": "electric_scooter", "fusion_lat": 0.0, "lat": 38.9086715, "name": "116a3c79a331840efdc2497d3bce8ae2", "fusion_lon": 0.0, "bike_id": "116a3c79a331840efdc2497d3bce8ae2", "is_disabled": 0, "is_reserved": 0}, {"rental_uris": {"ios": "https://dc.lft.to/lastmile_qr_scan", "android": "https://dc.lft.to/lastmile_qr_scan"}, "lon": -77.04177083333333, "type": "electric_scooter", "fusion_lat": 0.0, "lat": 38.91964733333333, "name": "e635fa2d50046314364bc991c53e4299", "fusion_lon": 0.0, "bike_id": "e635fa2d50046314364bc991c53e4299", "is_disabled": 0, "is_reserved": 0}, {"rental_uris": {"ios": "https://dc.lft.to/lastmile_qr_scan", "android": "https://dc.lft.to/lastmile_qr_scan"}, "lon": -77.02307916666666, "type": "electric_scooter", "fusion_lat": 0.0, "lat": 38.916148, "name": "39570f87171ae69cf8a53f5703e10be2", "fusion_lon": 0.0, "bike_id": "39570f87171ae69cf8a53f5703e10be2", "is_disabled": 0, "is_reserved": 0}, {"rental_uris": {"ios": "https://dc.lft.to/lastmile_qr_scan", "android": "https://dc.lft.to/lastmile_qr_scan"}, "lon": -77.02435516666667, "type": "electric_scooter", "fusion_lat": 0.0, "lat": 38.93721566666667, "name": "a9b9c752d30cf4ac6e3d0b17a0bd5e0a", "fusion_lon": 0.0, "bike_id": "a9b9c752d30cf4ac6e3d0b17a0bd5e0a", "is_disabled": 0, "is_reserved": 0}, {"rental_uris": {"ios": "https://dc.lft.to/lastmile_qr_scan", "android": "https://dc.lft.to/lastmile_qr_scan"}, "lon": -76.98992766666667, "type": "electric_scooter", "fusion_lat": 0.0, "lat": 38.903917666666665, "name": "36ac7aafdaadf2091e3c07c5b1e0fdf0", "fusion_lon": 0.0, "bike_id": "36ac7aafdaadf2091e3c07c5b1e0fdf0", "is_disabled": 0, "is_reserved": 0}, {"rental_uris": {"ios": "https://dc.lft.to/lastmile_qr_scan", "android": "https://dc.lft.to/lastmile_qr_scan"}, "lon": -77.010143, "type": "electric_scooter", "fusion_lat": 0.0, "lat": 38.918146166666666, "name": "9e42a0b6c6741dc079392dd302f02aa5", "fusion_lon": 0.0, "bike_id": "9e42a0b6c6741dc079392dd302f02aa5", "is_disabled": 0, "is_reserved": 0}, {"rental_uris": {"ios": "https://dc.lft.to/lastmile_qr_scan", "android": "https://dc.lft.to/lastmile_qr_scan"}, "lon": -77.054025, "type": "electric_scooter", "fusion_lat": 0.0, "lat": 38.901613, "name": "b14fcb4bd4a79c24c0c57a1ae3060b81", "fusion_lon": 0.0, "bike_id": "b14fcb4bd4a79c24c0c57a1ae3060b81", "is_disabled": 0, "is_reserved": 0}, {"rental_uris": {"ios": "https://dc.lft.to/lastmile_qr_scan", "android": "https://dc.lft.to/lastmile_qr_scan"}, "lon": -76.98873783333333, "type": "electric_scooter", "fusion_lat": 0.0, "lat": 38.832266833333335, "name": "7bc606d48eb57cdf45d03055c87926ea", "fusion_lon": 0.0, "bike_id": "7bc606d48eb57cdf45d03055c87926ea", "is_disabled": 0, "is_reserved": 0}, {"rental_uris": {"ios": "https://dc.lft.to/lastmile_qr_scan", "android": "https://dc.lft.to/lastmile_qr_scan"}, "lon": -77.0538345, "type": "electric_scooter", "fusion_lat": 0.0, "lat": 38.9024655, "name": "94ab8bc84de0070b3bce633d75fdbbc4", "fusion_lon": 0.0, "bike_id": "94ab8bc84de0070b3bce633d75fdbbc4", "is_disabled": 0, "is_reserved": 0}, {"rental_uris": {"ios": "https://dc.lft.to/lastmile_qr_scan", "android": "https://dc.lft.to/lastmile_qr_scan"}, "lon": -76.99269916666667, "type": "electric_scooter", "fusion_lat": 0.0, "lat": 38.92139783333333, "name": "e54abc28c3b8b240c681d9a5a365b937", "fusion_lon": 0.0, "bike_id": "e54abc28c3b8b240c681d9a5a365b937", "is_disabled": 0, "is_reserved": 0}, {"rental_uris": {"ios": "https://dc.lft.to/lastmile_qr_scan", "android": "https://dc.lft.to/lastmile_qr_scan"}, "lon": -77.01681783333333, "type": "electric_bike", "fusion_lat": 0.0, "lat": 38.97524, "name": "617bac10a1ef633524cef6e8128d97f4", "fusion_lon": 0.0, "bike_id": "617bac10a1ef633524cef6e8128d97f4", "is_disabled": 0, "is_reserved": 0}, {"rental_uris": {"ios": "https://dc.lft.to/lastmile_qr_scan", "android": "https://dc.lft.to/lastmile_qr_scan"}, "lon": -77.031958, "type": "electric_scooter", "fusion_lat": 0.0, "lat": 38.89946316666666, "name": "7f21b371b5a33c718361ed2eea30190c", "fusion_lon": 0.0, "bike_id": "7f21b371b5a33c718361ed2eea30190c", "is_disabled": 0, "is_reserved": 0}, {"rental_uris": {"ios": "https://dc.lft.to/lastmile_qr_scan", "android": "https://dc.lft.to/lastmile_qr_scan"}, "lon": -77.04265516666666, "type": "electric_scooter", "fusion_lat": 0.0, "lat": 38.895905666666664, "name": "d56ba4cd8bc7c68ab0f38e5ca8f1fe53", "fusion_lon": 0.0, "bike_id": "d56ba4cd8bc7c68ab0f38e5ca8f1fe53", "is_disabled": 0, "is_reserved": 0}, {"rental_uris": {"ios": "https://dc.lft.to/lastmile_qr_scan", "android": "https://dc.lft.to/lastmile_qr_scan"}, "lon": -77.02417216666667, "type": "electric_scooter", "fusion_lat": 0.0, "lat": 38.926596, "name": "63c811125b48f57f0b095b5bc707ef77", "fusion_lon": 0.0, "bike_id": "63c811125b48f57f0b095b5bc707ef77", "is_disabled": 0, "is_reserved": 0}, {"rental_uris": {"ios": "https://dc.lft.to/lastmile_qr_scan", "android": "https://dc.lft.to/lastmile_qr_scan"}, "lon": -77.0639985, "type": "electric_bike", "fusion_lat": 0.0, "lat": 38.843493, "name": "f670a654beeff66901da9ac96665e9c0", "fusion_lon": 0.0, "bike_id": "f670a654beeff66901da9ac96665e9c0", "is_disabled": 0, "is_reserved": 0}, {"rental_uris": {"ios": "https://dc.lft.to/lastmile_qr_scan", "android": "https://dc.lft.to/lastmile_qr_scan"}, "lon": -77.0219915, "type": "electric_bike", "fusion_lat": 0.0, "lat": 38.8925435, "name": "3ff408da825064d274544a8a7f71e482", "fusion_lon": 0.0, "bike_id": "3ff408da825064d274544a8a7f71e482", "is_disabled": 0, "is_reserved": 0}, {"rental_uris": {"ios": "https://dc.lft.to/lastmile_qr_scan", "android": "https://dc.lft.to/lastmile_qr_scan"}, "lon": -76.9836905, "type": "electric_scooter", "fusion_lat": 0.0, "lat": 38.895507, "name": "f56c882da84d699519b38ccca755f0b9", "fusion_lon": 0.0, "bike_id": "f56c882da84d699519b38ccca755f0b9", "is_disabled": 0, "is_reserved": 0}, {"rental_uris": {"ios": "https://dc.lft.to/lastmile_qr_scan", "android": "https://dc.lft.to/lastmile_qr_scan"}, "lon": -76.95893683333334, "type": "electric_bike", "fusion_lat": 0.0, "lat": 38.98507033333333, "name": "dec1b5c59f2b57115f9b9a55008c23ed", "fusion_lon": 0.0, "bike_id": "dec1b5c59f2b57115f9b9a55008c23ed", "is_disabled": 0, "is_reserved": 0}, {"rental_uris": {"ios": "https://dc.lft.to/lastmile_qr_scan", "android": "https://dc.lft.to/lastmile_qr_scan"}, "lon": -77.05473033333334, "type": "electric_scooter", "fusion_lat": 0.0, "lat": 38.893912666666665, "name": "cdb94e3bfbca09e8f58ee3612d7cbf64", "fusion_lon": 0.0, "bike_id": "cdb94e3bfbca09e8f58ee3612d7cbf64", "is_disabled": 0, "is_reserved": 0}, {"rental_uris": {"ios": "https://dc.lft.to/lastmile_qr_scan", "android": "https://dc.lft.to/lastmile_qr_scan"}, "lon": -77.02413966666667, "type": "electric_scooter", "fusion_lat": 0.0, "lat": 38.8922175, "name": "ffcec97a87fa532fa8323809339e1399", "fusion_lon": 0.0, "bike_id": "ffcec97a87fa532fa8323809339e1399", "is_disabled": 0, "is_reserved": 0}, {"rental_uris": {"ios": "https://dc.lft.to/lastmile_qr_scan", "android": "https://dc.lft.to/lastmile_qr_scan"}, "lon": -77.02211016666666, "type": "electric_scooter", "fusion_lat": 0.0, "lat": 38.89607316666667, "name": "2d8f321dee16bf8a217c6e2807753fae", "fusion_lon": 0.0, "bike_id": "2d8f321dee16bf8a217c6e2807753fae", "is_disabled": 0, "is_reserved": 0}, {"rental_uris": {"ios": "https://dc.lft.to/lastmile_qr_scan", "android": "https://dc.lft.to/lastmile_qr_scan"}, "lon": -76.93228616666667, "type": "electric_bike", "fusion_lat": 0.0, "lat": 38.86597, "name": "37daa1fcdf596aaf24020ee9ea2f478d", "fusion_lon": 0.0, "bike_id": "37daa1fcdf596aaf24020ee9ea2f478d", "is_disabled": 0, "is_reserved": 0}, {"rental_uris": {"ios": "https://dc.lft.to/lastmile_qr_scan", "android": "https://dc.lft.to/lastmile_qr_scan"}, "lon": -77.1295755, "type": "electric_bike", "fusion_lat": 0.0, "lat": 38.852170666666666, "name": "6d6698d1e2e4f00d0fc7f00568253b46", "fusion_lon": 0.0, "bike_id": "6d6698d1e2e4f00d0fc7f00568253b46", "is_disabled": 0, "is_reserved": 0}, {"rental_uris": {"ios": "https://dc.lft.to/lastmile_qr_scan", "android": "https://dc.lft.to/lastmile_qr_scan"}, "lon": -77.04344316666666, "type": "electric_scooter", "fusion_lat": 0.0, "lat": 38.915959666666666, "name": "8b4422ed055ab3269be735383eaa6b69", "fusion_lon": 0.0, "bike_id": "8b4422ed055ab3269be735383eaa6b69", "is_disabled": 0, "is_reserved": 0}, {"rental_uris": {"ios": "https://dc.lft.to/lastmile_qr_scan", "android": "https://dc.lft.to/lastmile_qr_scan"}, "lon": -77.01977916666667, "type": "electric_scooter", "fusion_lat": 0.0, "lat": 38.878412833333336, "name": "e5e075ad6dd93af9a3792fcded16e174", "fusion_lon": 0.0, "bike_id": "e5e075ad6dd93af9a3792fcded16e174", "is_disabled": 0, "is_reserved": 0}, {"rental_uris": {"ios": "https://dc.lft.to/lastmile_qr_scan", "android": "https://dc.lft.to/lastmile_qr_scan"}, "lon": -77.05872033333333, "type": "electric_scooter", "fusion_lat": 0.0, "lat": 38.905294166666664, "name": "3d1172178c69663c53548987ca78b123", "fusion_lon": 0.0, "bike_id": "3d1172178c69663c53548987ca78b123", "is_disabled": 0, "is_reserved": 0}, {"rental_uris": {"ios": "https://dc.lft.to/lastmile_qr_scan", "android": "https://dc.lft.to/lastmile_qr_scan"}, "lon": -76.97290366666667, "type": "electric_scooter", "fusion_lat": 0.0, "lat": 38.903400166666664, "name": "81770d9fd7508ac3783919aa7c8e664e", "fusion_lon": 0.0, "bike_id": "81770d9fd7508ac3783919aa7c8e664e", "is_disabled": 0, "is_reserved": 0}, {"rental_uris": {"ios": "https://dc.lft.to/lastmile_qr_scan", "android": "https://dc.lft.to/lastmile_qr_scan"}, "lon": -76.99690583333333, "type": "electric_scooter", "fusion_lat": 0.0, "lat": 38.900732, "name": "2c77cc33d3d5380a766e275a6397519c", "fusion_lon": 0.0, "bike_id": "2c77cc33d3d5380a766e275a6397519c", "is_disabled": 0, "is_reserved": 0}, {"rental_uris": {"ios": "https://dc.lft.to/lastmile_qr_scan", "android": "https://dc.lft.to/lastmile_qr_scan"}, "lon": -76.95987883333333, "type": "electric_scooter", "fusion_lat": 0.0, "lat": 38.880433833333335, "name": "5b2cf1fb55b532f2cd760341c99a92e7", "fusion_lon": 0.0, "bike_id": "5b2cf1fb55b532f2cd760341c99a92e7", "is_disabled": 0, "is_reserved": 0}, {"rental_uris": {"ios": "https://dc.lft.to/lastmile_qr_scan", "android": "https://dc.lft.to/lastmile_qr_scan"}, "lon": -77.00209566666666, "type": "electric_scooter", "fusion_lat": 0.0, "lat": 38.90022866666666, "name": "def4f40ac5fdeab7cc9dd9d628fd3b14", "fusion_lon": 0.0, "bike_id": "def4f40ac5fdeab7cc9dd9d628fd3b14", "is_disabled": 0, "is_reserved": 0}, {"rental_uris": {"ios": "https://dc.lft.to/lastmile_qr_scan", "android": "https://dc.lft.to/lastmile_qr_scan"}, "lon": -77.048052, "type": "electric_bike", "fusion_lat": 0.0, "lat": 38.88814433333334, "name": "ad1a52f6a88b913e6548e672aa46a9e2", "fusion_lon": 0.0, "bike_id": "ad1a52f6a88b913e6548e672aa46a9e2", "is_disabled": 0, "is_reserved": 0}, {"rental_uris": {"ios": "https://dc.lft.to/lastmile_qr_scan", "android": "https://dc.lft.to/lastmile_qr_scan"}, "lon": -76.95751316666667, "type": "electric_scooter", "fusion_lat": 0.0, "lat": 38.88436216666667, "name": "35a2ef25a2a754cdbc01c7fbc550bfdb", "fusion_lon": 0.0, "bike_id": "35a2ef25a2a754cdbc01c7fbc550bfdb", "is_disabled": 0, "is_reserved": 0}, {"rental_uris": {"ios": "https://dc.lft.to/lastmile_qr_scan", "android": "https://dc.lft.to/lastmile_qr_scan"}, "lon": -77.02374783333333, "type": "electric_scooter", "fusion_lat": 0.0, "lat": 38.896152, "name": "a86f1ddab3f73a958a5f2a76f9017a64", "fusion_lon": 0.0, "bike_id": "a86f1ddab3f73a958a5f2a76f9017a64", "is_disabled": 0, "is_reserved": 0}, {"rental_uris": {"ios": "https://dc.lft.to/lastmile_qr_scan", "android": "https://dc.lft.to/lastmile_qr_scan"}, "lon": -76.949167, "type": "electric_scooter", "fusion_lat": 0.0, "lat": 38.895196166666665, "name": "2fcd0612400950c0a7c851991588d610", "fusion_lon": 0.0, "bike_id": "2fcd0612400950c0a7c851991588d610", "is_disabled": 0, "is_reserved": 0}, {"rental_uris": {"ios": "https://dc.lft.to/lastmile_qr_scan", "android": "https://dc.lft.to/lastmile_qr_scan"}, "lon": -76.96503116666666, "type": "electric_scooter", "fusion_lat": 0.0, "lat": 38.876494666666666, "name": "8f239cb2055b7cb2b4fb3851f973221a", "fusion_lon": 0.0, "bike_id": "8f239cb2055b7cb2b4fb3851f973221a", "is_disabled": 0, "is_reserved": 0}, {"rental_uris": {"ios": "https://dc.lft.to/lastmile_qr_scan", "android": "https://dc.lft.to/lastmile_qr_scan"}, "lon": -77.00717883333333, "type": "electric_scooter", "fusion_lat": 0.0, "lat": 38.90469316666667, "name": "f718f03d32f788d68c7aa115af13ef6c", "fusion_lon": 0.0, "bike_id": "f718f03d32f788d68c7aa115af13ef6c", "is_disabled": 0, "is_reserved": 0}, {"rental_uris": {"ios": "https://dc.lft.to/lastmile_qr_scan", "android": "https://dc.lft.to/lastmile_qr_scan"}, "lon": -77.15266183333334, "type": "electric_bike", "fusion_lat": 0.0, "lat": 39.10567266666666, "name": "051a077d7921b2f72c47db1d3d754663", "fusion_lon": 0.0, "bike_id": "051a077d7921b2f72c47db1d3d754663", "is_disabled": 0, "is_reserved": 0}, {"rental_uris": {"ios": "https://dc.lft.to/lastmile_qr_scan", "android": "https://dc.lft.to/lastmile_qr_scan"}, "lon": -77.04331533333334, "type": "electric_scooter", "fusion_lat": 0.0, "lat": 38.910243333333334, "name": "15acc2ca7b94d21e3337048da2878850", "fusion_lon": 0.0, "bike_id": "15acc2ca7b94d21e3337048da2878850", "is_disabled": 0, "is_reserved": 0}, {"rental_uris": {"ios": "https://dc.lft.to/lastmile_qr_scan", "android": "https://dc.lft.to/lastmile_qr_scan"}, "lon": -76.93171816666667, "type": "electric_scooter", "fusion_lat": 0.0, "lat": 38.898853333333335, "name": "b691df8fdf3a5d1236f27e69f2cbf169", "fusion_lon": 0.0, "bike_id": "b691df8fdf3a5d1236f27e69f2cbf169", "is_disabled": 0, "is_reserved": 0}, {"rental_uris": {"ios": "https://dc.lft.to/lastmile_qr_scan", "android": "https://dc.lft.to/lastmile_qr_scan"}, "lon": -77.026429, "type": "electric_scooter", "fusion_lat": 0.0, "lat": 38.984969666666665, "name": "627162b6a33428a0a1f14f53d839ace3", "fusion_lon": 0.0, "bike_id": "627162b6a33428a0a1f14f53d839ace3", "is_disabled": 0, "is_reserved": 0}, {"rental_uris": {"ios": "https://dc.lft.to/lastmile_qr_scan", "android": "https://dc.lft.to/lastmile_qr_scan"}, "lon": -77.05061066666667, "type": "electric_scooter", "fusion_lat": 0.0, "lat": 38.92356733333333, "name": "fb079d40d7b489a3b09b7e502dd5960c", "fusion_lon": 0.0, "bike_id": "fb079d40d7b489a3b09b7e502dd5960c", "is_disabled": 0, "is_reserved": 0}, {"rental_uris": {"ios": "https://dc.lft.to/lastmile_qr_scan", "android": "https://dc.lft.to/lastmile_qr_scan"}, "lon": -77.057471, "type": "electric_scooter", "fusion_lat": 0.0, "lat": 38.904907666666666, "name": "8f2efc977212e12299a37d01d04b1c5d", "fusion_lon": 0.0, "bike_id": "8f2efc977212e12299a37d01d04b1c5d", "is_disabled": 0, "is_reserved": 0}, {"rental_uris": {"ios": "https://dc.lft.to/lastmile_qr_scan", "android": "https://dc.lft.to/lastmile_qr_scan"}, "lon": -76.9732515, "type": "electric_bike", "fusion_lat": 0.0, "lat": 38.85066883333333, "name": "9a82d2704eb089c5e927d5429615d13f", "fusion_lon": 0.0, "bike_id": "9a82d2704eb089c5e927d5429615d13f", "is_disabled": 0, "is_reserved": 0}, {"rental_uris": {"ios": "https://dc.lft.to/lastmile_qr_scan", "android": "https://dc.lft.to/lastmile_qr_scan"}, "lon": -77.034413, "type": "electric_scooter", "fusion_lat": 0.0, "lat": 38.9182275, "name": "21f408d6322f28544a6fa1a1d6d2b6f6", "fusion_lon": 0.0, "bike_id": "21f408d6322f28544a6fa1a1d6d2b6f6", "is_disabled": 0, "is_reserved": 0}, {"rental_uris": {"ios": "https://dc.lft.to/lastmile_qr_scan", "android": "https://dc.lft.to/lastmile_qr_scan"}, "lon": -77.0366575, "type": "electric_scooter", "fusion_lat": 0.0, "lat": 38.929934333333335, "name": "dc89e64e7762c0c05df7dd3959df934b", "fusion_lon": 0.0, "bike_id": "dc89e64e7762c0c05df7dd3959df934b", "is_disabled": 0, "is_reserved": 0}, {"rental_uris": {"ios": "https://dc.lft.to/lastmile_qr_scan", "android": "https://dc.lft.to/lastmile_qr_scan"}, "lon": -77.03227216666667, "type": "electric_scooter", "fusion_lat": 0.0, "lat": 38.93874816666667, "name": "8b27cbaf9e066fe8f9ab710ae7f89e73", "fusion_lon": 0.0, "bike_id": "8b27cbaf9e066fe8f9ab710ae7f89e73", "is_disabled": 0, "is_reserved": 0}, {"rental_uris": {"ios": "https://dc.lft.to/lastmile_qr_scan", "android": "https://dc.lft.to/lastmile_qr_scan"}, "lon": -77.045933, "type": "electric_scooter", "fusion_lat": 0.0, "lat": 38.90242683333334, "name": "45a6e14ad9ce3ae8eb84804a8aee6ca3", "fusion_lon": 0.0, "bike_id": "45a6e14ad9ce3ae8eb84804a8aee6ca3", "is_disabled": 0, "is_reserved": 0}, {"rental_uris": {"ios": "https://dc.lft.to/lastmile_qr_scan", "android": "https://dc.lft.to/lastmile_qr_scan"}, "lon": -77.05031066666666, "type": "electric_scooter", "fusion_lat": 0.0, "lat": 38.89658, "name": "54f1ff1f1f5ee8a25d56053e96d13c46", "fusion_lon": 0.0, "bike_id": "54f1ff1f1f5ee8a25d56053e96d13c46", "is_disabled": 0, "is_reserved": 0}, {"rental_uris": {"ios": "https://dc.lft.to/lastmile_qr_scan", "android": "https://dc.lft.to/lastmile_qr_scan"}, "lon": -77.04682433333333, "type": "electric_scooter", "fusion_lat": 0.0, "lat": 38.896082, "name": "0d2d2ba0d5d9e51e945e59a6582ef5fd", "fusion_lon": 0.0, "bike_id": "0d2d2ba0d5d9e51e945e59a6582ef5fd", "is_disabled": 0, "is_reserved": 0}, {"rental_uris": {"ios": "https://dc.lft.to/lastmile_qr_scan", "android": "https://dc.lft.to/lastmile_qr_scan"}, "lon": -76.97726083333333, "type": "electric_scooter", "fusion_lat": 0.0, "lat": 38.872480333333336, "name": "0c8969dec9fdb87dc9b974acfa8c7dc6", "fusion_lon": 0.0, "bike_id": "0c8969dec9fdb87dc9b974acfa8c7dc6", "is_disabled": 0, "is_reserved": 0}, {"rental_uris": {"ios": "https://dc.lft.to/lastmile_qr_scan", "android": "https://dc.lft.to/lastmile_qr_scan"}, "lon": -77.054194, "type": "electric_scooter", "fusion_lat": 0.0, "lat": 38.92834033333333, "name": "14f6a81ed171b43caa9e2d621288bf2f", "fusion_lon": 0.0, "bike_id": "14f6a81ed171b43caa9e2d621288bf2f", "is_disabled": 0, "is_reserved": 0}, {"rental_uris": {"ios": "https://dc.lft.to/lastmile_qr_scan", "android": "https://dc.lft.to/lastmile_qr_scan"}, "lon": -77.05041916666667, "type": "electric_scooter", "fusion_lat": 0.0, "lat": 38.92362716666667, "name": "c23d4c8deb4eff1ab240f1112b1a63d6", "fusion_lon": 0.0, "bike_id": "c23d4c8deb4eff1ab240f1112b1a63d6", "is_disabled": 0, "is_reserved": 0}, {"rental_uris": {"ios": "https://dc.lft.to/lastmile_qr_scan", "android": "https://dc.lft.to/lastmile_qr_scan"}, "lon": -77.047581, "type": "electric_scooter", "fusion_lat": 0.0, "lat": 38.91243866666667, "name": "7fa58c408e2fdf8d6819f29ef8b6433b", "fusion_lon": 0.0, "bike_id": "7fa58c408e2fdf8d6819f29ef8b6433b", "is_disabled": 0, "is_reserved": 0}, {"rental_uris": {"ios": "https://dc.lft.to/lastmile_qr_scan", "android": "https://dc.lft.to/lastmile_qr_scan"}, "lon": -77.03184183333333, "type": "electric_scooter", "fusion_lat": 0.0, "lat": 38.88733883333333, "name": "ff73753908fa1ce0e906b15cb6f2d164", "fusion_lon": 0.0, "bike_id": "ff73753908fa1ce0e906b15cb6f2d164", "is_disabled": 0, "is_reserved": 0}, {"rental_uris": {"ios": "https://dc.lft.to/lastmile_qr_scan", "android": "https://dc.lft.to/lastmile_qr_scan"}, "lon": -77.00785883333333, "type": "electric_bike", "fusion_lat": 0.0, "lat": 38.92698633333333, "name": "459cfcafd624f2e8a9b607ef2bb52566", "fusion_lon": 0.0, "bike_id": "459cfcafd624f2e8a9b607ef2bb52566", "is_disabled": 0, "is_reserved": 0}, {"rental_uris": {"ios": "https://dc.lft.to/lastmile_qr_scan", "android": "https://dc.lft.to/lastmile_qr_scan"}, "lon": -77.03203666666667, "type": "electric_scooter", "fusion_lat": 0.0, "lat": 38.88739966666667, "name": "a6ff97bcb1f0d34021b4431490e710ea", "fusion_lon": 0.0, "bike_id": "a6ff97bcb1f0d34021b4431490e710ea", "is_disabled": 0, "is_reserved": 0}, {"rental_uris": {"ios": "https://dc.lft.to/lastmile_qr_scan", "android": "https://dc.lft.to/lastmile_qr_scan"}, "lon": -77.03768483333333, "type": "electric_scooter", "fusion_lat": 0.0, "lat": 38.920115333333335, "name": "f2c71ce7c69521f0b83045a1c8e6f4de", "fusion_lon": 0.0, "bike_id": "f2c71ce7c69521f0b83045a1c8e6f4de", "is_disabled": 0, "is_reserved": 0}, {"rental_uris": {"ios": "https://dc.lft.to/lastmile_qr_scan", "android": "https://dc.lft.to/lastmile_qr_scan"}, "lon": -77.05320983333333, "type": "electric_scooter", "fusion_lat": 0.0, "lat": 38.900234166666664, "name": "d8fa4bf2083b84a05a92bf79c893fd0d", "fusion_lon": 0.0, "bike_id": "d8fa4bf2083b84a05a92bf79c893fd0d", "is_disabled": 0, "is_reserved": 0}, {"rental_uris": {"ios": "https://dc.lft.to/lastmile_qr_scan", "android": "https://dc.lft.to/lastmile_qr_scan"}, "lon": -77.3609505, "type": "electric_bike", "fusion_lat": 0.0, "lat": 38.939560666666665, "name": "90575c2b200f2b93a4e9a3db3472e336", "fusion_lon": 0.0, "bike_id": "90575c2b200f2b93a4e9a3db3472e336", "is_disabled": 0, "is_reserved": 0}, {"rental_uris": {"ios": "https://dc.lft.to/lastmile_qr_scan", "android": "https://dc.lft.to/lastmile_qr_scan"}, "lon": -76.979844, "type": "electric_bike", "fusion_lat": 0.0, "lat": 38.87751866666667, "name": "e55a9772f86d5eddf63d2adfdac806c1", "fusion_lon": 0.0, "bike_id": "e55a9772f86d5eddf63d2adfdac806c1", "is_disabled": 0, "is_reserved": 0}, {"rental_uris": {"ios": "https://dc.lft.to/lastmile_qr_scan", "android": "https://dc.lft.to/lastmile_qr_scan"}, "lon": -77.009241, "type": "electric_scooter", "fusion_lat": 0.0, "lat": 38.90245133333333, "name": "9c0f7c42e4e81a1b0be7e97b2d7245c3", "fusion_lon": 0.0, "bike_id": "9c0f7c42e4e81a1b0be7e97b2d7245c3", "is_disabled": 0, "is_reserved": 0}, {"rental_uris": {"ios": "https://dc.lft.to/lastmile_qr_scan", "android": "https://dc.lft.to/lastmile_qr_scan"}, "lon": -76.92529716666667, "type": "electric_bike", "fusion_lat": 0.0, "lat": 38.959330333333334, "name": "c99bcd65cdb83d6977304bc65426be8b", "fusion_lon": 0.0, "bike_id": "c99bcd65cdb83d6977304bc65426be8b", "is_disabled": 0, "is_reserved": 0}, {"rental_uris": {"ios": "https://dc.lft.to/lastmile_qr_scan", "android": "https://dc.lft.to/lastmile_qr_scan"}, "lon": -77.02080983333333, "type": "electric_scooter", "fusion_lat": 0.0, "lat": 38.915766833333336, "name": "7fbb1db815467a985b5d841bf9b09427", "fusion_lon": 0.0, "bike_id": "7fbb1db815467a985b5d841bf9b09427", "is_disabled": 0, "is_reserved": 0}, {"rental_uris": {"ios": "https://dc.lft.to/lastmile_qr_scan", "android": "https://dc.lft.to/lastmile_qr_scan"}, "lon": -77.03401316666667, "type": "electric_scooter", "fusion_lat": 0.0, "lat": 38.899388333333334, "name": "287018cf4605dcace84df26a7f998fe6", "fusion_lon": 0.0, "bike_id": "287018cf4605dcace84df26a7f998fe6", "is_disabled": 0, "is_reserved": 0}, {"rental_uris": {"ios": "https://dc.lft.to/lastmile_qr_scan", "android": "https://dc.lft.to/lastmile_qr_scan"}, "lon": -77.02183733333334, "type": "electric_scooter", "fusion_lat": 0.0, "lat": 38.8984055, "name": "cba0343806f0e3837be44b71137e1f83", "fusion_lon": 0.0, "bike_id": "cba0343806f0e3837be44b71137e1f83", "is_disabled": 0, "is_reserved": 0}, {"rental_uris": {"ios": "https://dc.lft.to/lastmile_qr_scan", "android": "https://dc.lft.to/lastmile_qr_scan"}, "lon": -77.02876433333333, "type": "electric_scooter", "fusion_lat": 0.0, "lat": 38.9033525, "name": "cb819453d854f88dbdbda5fc8c43782a", "fusion_lon": 0.0, "bike_id": "cb819453d854f88dbdbda5fc8c43782a", "is_disabled": 0, "is_reserved": 0}, {"rental_uris": {"ios": "https://dc.lft.to/lastmile_qr_scan", "android": "https://dc.lft.to/lastmile_qr_scan"}, "lon": -77.06508883333333, "type": "electric_scooter", "fusion_lat": 0.0, "lat": 38.90394516666667, "name": "a0fd056ce47afd403c6fe055e766a153", "fusion_lon": 0.0, "bike_id": "a0fd056ce47afd403c6fe055e766a153", "is_disabled": 0, "is_reserved": 0}, {"rental_uris": {"ios": "https://dc.lft.to/lastmile_qr_scan", "android": "https://dc.lft.to/lastmile_qr_scan"}, "lon": -77.00608083333333, "type": "electric_scooter", "fusion_lat": 0.0, "lat": 38.87464966666667, "name": "8632a9cfa4f5b152aa1a5fe9d3e3eb89", "fusion_lon": 0.0, "bike_id": "8632a9cfa4f5b152aa1a5fe9d3e3eb89", "is_disabled": 0, "is_reserved": 0}, {"rental_uris": {"ios": "https://dc.lft.to/lastmile_qr_scan", "android": "https://dc.lft.to/lastmile_qr_scan"}, "lon": -77.01823533333334, "type": "electric_scooter", "fusion_lat": 0.0, "lat": 38.9008455, "name": "53eefb1a59d7c567cf9880be792fcaf1", "fusion_lon": 0.0, "bike_id": "53eefb1a59d7c567cf9880be792fcaf1", "is_disabled": 0, "is_reserved": 0}, {"rental_uris": {"ios": "https://dc.lft.to/lastmile_qr_scan", "android": "https://dc.lft.to/lastmile_qr_scan"}, "lon": -77.00720766666667, "type": "electric_scooter", "fusion_lat": 0.0, "lat": 38.913415666666666, "name": "bf46a2f42030440a5f3a74a59ef7ae6f", "fusion_lon": 0.0, "bike_id": "bf46a2f42030440a5f3a74a59ef7ae6f", "is_disabled": 0, "is_reserved": 0}, {"rental_uris": {"ios": "https://dc.lft.to/lastmile_qr_scan", "android": "https://dc.lft.to/lastmile_qr_scan"}, "lon": -76.98127916666667, "type": "electric_scooter", "fusion_lat": 0.0, "lat": 38.857103, "name": "28cb1d24b2b6073d240a835295d157b6", "fusion_lon": 0.0, "bike_id": "28cb1d24b2b6073d240a835295d157b6", "is_disabled": 0, "is_reserved": 0}, {"rental_uris": {"ios": "https://dc.lft.to/lastmile_qr_scan", "android": "https://dc.lft.to/lastmile_qr_scan"}, "lon": -77.05907833333333, "type": "electric_bike", "fusion_lat": 0.0, "lat": 38.902297, "name": "85d1c23f9ef9e7b463716fbfe018e3d5", "fusion_lon": 0.0, "bike_id": "85d1c23f9ef9e7b463716fbfe018e3d5", "is_disabled": 0, "is_reserved": 0}, {"rental_uris": {"ios": "https://dc.lft.to/lastmile_qr_scan", "android": "https://dc.lft.to/lastmile_qr_scan"}, "lon": -77.01213666666666, "type": "electric_scooter", "fusion_lat": 0.0, "lat": 38.91548316666667, "name": "c3e2906f30896fd10461e2e7aa44a6ee", "fusion_lon": 0.0, "bike_id": "c3e2906f30896fd10461e2e7aa44a6ee", "is_disabled": 0, "is_reserved": 0}, {"rental_uris": {"ios": "https://dc.lft.to/lastmile_qr_scan", "android": "https://dc.lft.to/lastmile_qr_scan"}, "lon": -77.054741, "type": "electric_scooter", "fusion_lat": 0.0, "lat": 38.9106465, "name": "f0210293f9cc2077a6865d895de4f0ee", "fusion_lon": 0.0, "bike_id": "f0210293f9cc2077a6865d895de4f0ee", "is_disabled": 0, "is_reserved": 0}, {"rental_uris": {"ios": "https://dc.lft.to/lastmile_qr_scan", "android": "https://dc.lft.to/lastmile_qr_scan"}, "lon": -77.02287416666667, "type": "electric_scooter", "fusion_lat": 0.0, "lat": 38.897084, "name": "370203cf94d902c7888aa3ec8571eb40", "fusion_lon": 0.0, "bike_id": "370203cf94d902c7888aa3ec8571eb40", "is_disabled": 0, "is_reserved": 0}, {"rental_uris": {"ios": "https://dc.lft.to/lastmile_qr_scan", "android": "https://dc.lft.to/lastmile_qr_scan"}, "lon": -77.04717866666667, "type": "electric_scooter", "fusion_lat": 0.0, "lat": 38.89968366666667, "name": "e04fb5c33bbf2f661a8d5b79e6fb19a7", "fusion_lon": 0.0, "bike_id": "e04fb5c33bbf2f661a8d5b79e6fb19a7", "is_disabled": 0, "is_reserved": 0}, {"rental_uris": {"ios": "https://dc.lft.to/lastmile_qr_scan", "android": "https://dc.lft.to/lastmile_qr_scan"}, "lon": -77.080485, "type": "electric_bike", "fusion_lat": 0.0, "lat": 38.84842616666667, "name": "969a9491c56721ac34147e1ae96de5dd", "fusion_lon": 0.0, "bike_id": "969a9491c56721ac34147e1ae96de5dd", "is_disabled": 0, "is_reserved": 0}, {"rental_uris": {"ios": "https://dc.lft.to/lastmile_qr_scan", "android": "https://dc.lft.to/lastmile_qr_scan"}, "lon": -76.99458333333334, "type": "electric_scooter", "fusion_lat": 0.0, "lat": 38.851656166666665, "name": "8fcecb45db390c3283c166e769637976", "fusion_lon": 0.0, "bike_id": "8fcecb45db390c3283c166e769637976", "is_disabled": 0, "is_reserved": 0}, {"rental_uris": {"ios": "https://dc.lft.to/lastmile_qr_scan", "android": "https://dc.lft.to/lastmile_qr_scan"}, "lon": -77.0554205, "type": "electric_scooter", "fusion_lat": 0.0, "lat": 38.92535383333333, "name": "3c889a3103d210c55eed5ea029065b59", "fusion_lon": 0.0, "bike_id": "3c889a3103d210c55eed5ea029065b59", "is_disabled": 0, "is_reserved": 0}, {"rental_uris": {"ios": "https://dc.lft.to/lastmile_qr_scan", "android": "https://dc.lft.to/lastmile_qr_scan"}, "lon": -77.0355915, "type": "electric_scooter", "fusion_lat": 0.0, "lat": 38.9398345, "name": "bdbe0d5eaba03d72d09005f31ec779f1", "fusion_lon": 0.0, "bike_id": "bdbe0d5eaba03d72d09005f31ec779f1", "is_disabled": 0, "is_reserved": 0}, {"rental_uris": {"ios": "https://dc.lft.to/lastmile_qr_scan", "android": "https://dc.lft.to/lastmile_qr_scan"}, "lon": -76.93961216666666, "type": "electric_scooter", "fusion_lat": 0.0, "lat": 38.8996825, "name": "e6bb35376d3544bdd1e29d5b876fa7d8", "fusion_lon": 0.0, "bike_id": "e6bb35376d3544bdd1e29d5b876fa7d8", "is_disabled": 0, "is_reserved": 0}, {"rental_uris": {"ios": "https://dc.lft.to/lastmile_qr_scan", "android": "https://dc.lft.to/lastmile_qr_scan"}, "lon": -77.0213775, "type": "electric_scooter", "fusion_lat": 0.0, "lat": 38.89487533333333, "name": "0a6bf04cd4d474c9b2e8c1e161fd207b", "fusion_lon": 0.0, "bike_id": "0a6bf04cd4d474c9b2e8c1e161fd207b", "is_disabled": 0, "is_reserved": 0}, {"rental_uris": {"ios": "https://dc.lft.to/lastmile_qr_scan", "android": "https://dc.lft.to/lastmile_qr_scan"}, "lon": -76.95742066666666, "type": "electric_scooter", "fusion_lat": 0.0, "lat": 38.884288833333336, "name": "35276da39b9854ecc5d23ef2c332fd14", "fusion_lon": 0.0, "bike_id": "35276da39b9854ecc5d23ef2c332fd14", "is_disabled": 0, "is_reserved": 0}, {"rental_uris": {"ios": "https://dc.lft.to/lastmile_qr_scan", "android": "https://dc.lft.to/lastmile_qr_scan"}, "lon": -77.04336633333334, "type": "electric_scooter", "fusion_lat": 0.0, "lat": 38.907220833333334, "name": "a528805d3b40455baf05035131b75225", "fusion_lon": 0.0, "bike_id": "a528805d3b40455baf05035131b75225", "is_disabled": 0, "is_reserved": 0}, {"rental_uris": {"ios": "https://dc.lft.to/lastmile_qr_scan", "android": "https://dc.lft.to/lastmile_qr_scan"}, "lon": -77.03209716666667, "type": "electric_scooter", "fusion_lat": 0.0, "lat": 38.892373166666665, "name": "ad14800402f5d0fc222c0d8bd0a991f2", "fusion_lon": 0.0, "bike_id": "ad14800402f5d0fc222c0d8bd0a991f2", "is_disabled": 0, "is_reserved": 0}, {"rental_uris": {"ios": "https://dc.lft.to/lastmile_qr_scan", "android": "https://dc.lft.to/lastmile_qr_scan"}, "lon": -77.03236666666666, "type": "electric_scooter", "fusion_lat": 0.0, "lat": 38.92768233333334, "name": "1b0e85de3e1934f0dd1ffc07ffa62b12", "fusion_lon": 0.0, "bike_id": "1b0e85de3e1934f0dd1ffc07ffa62b12", "is_disabled": 0, "is_reserved": 0}, {"rental_uris": {"ios": "https://dc.lft.to/lastmile_qr_scan", "android": "https://dc.lft.to/lastmile_qr_scan"}, "lon": -77.01192066666667, "type": "electric_scooter", "fusion_lat": 0.0, "lat": 38.90022033333333, "name": "298c90cc915bdfc796021f2e14e81868", "fusion_lon": 0.0, "bike_id": "298c90cc915bdfc796021f2e14e81868", "is_disabled": 0, "is_reserved": 0}, {"rental_uris": {"ios": "https://dc.lft.to/lastmile_qr_scan", "android": "https://dc.lft.to/lastmile_qr_scan"}, "lon": -77.00777016666666, "type": "electric_scooter", "fusion_lat": 0.0, "lat": 38.906593, "name": "4417f19a9ac30da75baa1a5c26d0d1d9", "fusion_lon": 0.0, "bike_id": "4417f19a9ac30da75baa1a5c26d0d1d9", "is_disabled": 0, "is_reserved": 0}, {"rental_uris": {"ios": "https://dc.lft.to/lastmile_qr_scan", "android": "https://dc.lft.to/lastmile_qr_scan"}, "lon": -77.04168583333333, "type": "electric_scooter", "fusion_lat": 0.0, "lat": 38.91794633333333, "name": "a7aaacbca37f3a14871d975d8504e354", "fusion_lon": 0.0, "bike_id": "a7aaacbca37f3a14871d975d8504e354", "is_disabled": 0, "is_reserved": 0}, {"rental_uris": {"ios": "https://dc.lft.to/lastmile_qr_scan", "android": "https://dc.lft.to/lastmile_qr_scan"}, "lon": -77.0143285, "type": "electric_scooter", "fusion_lat": 0.0, "lat": 38.90645133333334, "name": "115f9161ba52ad8e84e1410e0e099c68", "fusion_lon": 0.0, "bike_id": "115f9161ba52ad8e84e1410e0e099c68", "is_disabled": 0, "is_reserved": 0}, {"rental_uris": {"ios": "https://dc.lft.to/lastmile_qr_scan", "android": "https://dc.lft.to/lastmile_qr_scan"}, "lon": -77.01363916666666, "type": "electric_scooter", "fusion_lat": 0.0, "lat": 38.86371966666667, "name": "c531f1ffb95b4f3ef1fbec7ee6fe46cb", "fusion_lon": 0.0, "bike_id": "c531f1ffb95b4f3ef1fbec7ee6fe46cb", "is_disabled": 0, "is_reserved": 0}, {"rental_uris": {"ios": "https://dc.lft.to/lastmile_qr_scan", "android": "https://dc.lft.to/lastmile_qr_scan"}, "lon": -77.03552166666667, "type": "electric_scooter", "fusion_lat": 0.0, "lat": 38.918062, "name": "081850b71c841d1c3dd3e8efc0e36293", "fusion_lon": 0.0, "bike_id": "081850b71c841d1c3dd3e8efc0e36293", "is_disabled": 0, "is_reserved": 0}, {"rental_uris": {"ios": "https://dc.lft.to/lastmile_qr_scan", "android": "https://dc.lft.to/lastmile_qr_scan"}, "lon": -77.0363635, "type": "electric_scooter", "fusion_lat": 0.0, "lat": 38.90374766666667, "name": "9946beea79269f9f01da000a3f3a1848", "fusion_lon": 0.0, "bike_id": "9946beea79269f9f01da000a3f3a1848", "is_disabled": 0, "is_reserved": 0}, {"rental_uris": {"ios": "https://dc.lft.to/lastmile_qr_scan", "android": "https://dc.lft.to/lastmile_qr_scan"}, "lon": -77.02412166666667, "type": "electric_scooter", "fusion_lat": 0.0, "lat": 38.89222266666667, "name": "dce3ac91a079ca3e84deb22a54748cec", "fusion_lon": 0.0, "bike_id": "dce3ac91a079ca3e84deb22a54748cec", "is_disabled": 0, "is_reserved": 0}, {"rental_uris": {"ios": "https://dc.lft.to/lastmile_qr_scan", "android": "https://dc.lft.to/lastmile_qr_scan"}, "lon": -77.04268066666667, "type": "electric_scooter", "fusion_lat": 0.0, "lat": 38.922417333333335, "name": "84ab993f0e763775a7999366aa1273f0", "fusion_lon": 0.0, "bike_id": "84ab993f0e763775a7999366aa1273f0", "is_disabled": 0, "is_reserved": 0}, {"rental_uris": {"ios": "https://dc.lft.to/lastmile_qr_scan", "android": "https://dc.lft.to/lastmile_qr_scan"}, "lon": -77.0694695, "type": "electric_scooter", "fusion_lat": 0.0, "lat": 38.90516433333333, "name": "838adef4823eb8f6941fc3bd3b6f71e1", "fusion_lon": 0.0, "bike_id": "838adef4823eb8f6941fc3bd3b6f71e1", "is_disabled": 0, "is_reserved": 0}, {"rental_uris": {"ios": "https://dc.lft.to/lastmile_qr_scan", "android": "https://dc.lft.to/lastmile_qr_scan"}, "lon": -77.02477883333333, "type": "electric_scooter", "fusion_lat": 0.0, "lat": 38.938191, "name": "15e5efa5dbbbf00363e962c3fd8b7f34", "fusion_lon": 0.0, "bike_id": "15e5efa5dbbbf00363e962c3fd8b7f34", "is_disabled": 0, "is_reserved": 0}, {"rental_uris": {"ios": "https://dc.lft.to/lastmile_qr_scan", "android": "https://dc.lft.to/lastmile_qr_scan"}, "lon": -77.00090333333333, "type": "electric_scooter", "fusion_lat": 0.0, "lat": 38.907435166666666, "name": "3f17bb46c8ebb4c67a51aa58973cf48e", "fusion_lon": 0.0, "bike_id": "3f17bb46c8ebb4c67a51aa58973cf48e", "is_disabled": 0, "is_reserved": 0}, {"rental_uris": {"ios": "https://dc.lft.to/lastmile_qr_scan", "android": "https://dc.lft.to/lastmile_qr_scan"}, "lon": -77.02957483333333, "type": "electric_scooter", "fusion_lat": 0.0, "lat": 38.9464605, "name": "ee48726d3966bc307f106684540fcb47", "fusion_lon": 0.0, "bike_id": "ee48726d3966bc307f106684540fcb47", "is_disabled": 0, "is_reserved": 0}, {"rental_uris": {"ios": "https://dc.lft.to/lastmile_qr_scan", "android": "https://dc.lft.to/lastmile_qr_scan"}, "lon": -77.03865983333333, "type": "electric_scooter", "fusion_lat": 0.0, "lat": 38.902657, "name": "37e768e5c0e3c4fef381045a74446d6e", "fusion_lon": 0.0, "bike_id": "37e768e5c0e3c4fef381045a74446d6e", "is_disabled": 0, "is_reserved": 0}, {"rental_uris": {"ios": "https://dc.lft.to/lastmile_qr_scan", "android": "https://dc.lft.to/lastmile_qr_scan"}, "lon": -77.01352333333334, "type": "electric_scooter", "fusion_lat": 0.0, "lat": 38.89574233333333, "name": "a922d29e16e78a896c1b809a7582c2b5", "fusion_lon": 0.0, "bike_id": "a922d29e16e78a896c1b809a7582c2b5", "is_disabled": 0, "is_reserved": 0}, {"rental_uris": {"ios": "https://dc.lft.to/lastmile_qr_scan", "android": "https://dc.lft.to/lastmile_qr_scan"}, "lon": -77.02656033333334, "type": "electric_scooter", "fusion_lat": 0.0, "lat": 38.9056795, "name": "9ea94020a55a811fc37d01aa4a141d26", "fusion_lon": 0.0, "bike_id": "9ea94020a55a811fc37d01aa4a141d26", "is_disabled": 0, "is_reserved": 0}, {"rental_uris": {"ios": "https://dc.lft.to/lastmile_qr_scan", "android": "https://dc.lft.to/lastmile_qr_scan"}, "lon": -77.0240245, "type": "electric_scooter", "fusion_lat": 0.0, "lat": 38.9370505, "name": "7faaa704c71462c8bcea3194a5d92892", "fusion_lon": 0.0, "bike_id": "7faaa704c71462c8bcea3194a5d92892", "is_disabled": 0, "is_reserved": 0}, {"rental_uris": {"ios": "https://dc.lft.to/lastmile_qr_scan", "android": "https://dc.lft.to/lastmile_qr_scan"}, "lon": -77.02761, "type": "electric_scooter", "fusion_lat": 0.0, "lat": 38.91551283333333, "name": "8a4f1e318536618f15030b13da48c325", "fusion_lon": 0.0, "bike_id": "8a4f1e318536618f15030b13da48c325", "is_disabled": 0, "is_reserved": 0}, {"rental_uris": {"ios": "https://dc.lft.to/lastmile_qr_scan", "android": "https://dc.lft.to/lastmile_qr_scan"}, "lon": -77.00206883333334, "type": "electric_scooter", "fusion_lat": 0.0, "lat": 38.900373333333334, "name": "3470ee600da2c6e5324d953dc8c61f94", "fusion_lon": 0.0, "bike_id": "3470ee600da2c6e5324d953dc8c61f94", "is_disabled": 0, "is_reserved": 0}, {"rental_uris": {"ios": "https://dc.lft.to/lastmile_qr_scan", "android": "https://dc.lft.to/lastmile_qr_scan"}, "lon": -77.125032, "type": "electric_bike", "fusion_lat": 0.0, "lat": 39.02419833333333, "name": "928de1803014821692c0a2fbb566b29f", "fusion_lon": 0.0, "bike_id": "928de1803014821692c0a2fbb566b29f", "is_disabled": 0, "is_reserved": 0}, {"rental_uris": {"ios": "https://dc.lft.to/lastmile_qr_scan", "android": "https://dc.lft.to/lastmile_qr_scan"}, "lon": -77.00587716666666, "type": "electric_scooter", "fusion_lat": 0.0, "lat": 38.9156095, "name": "485c1184e65404e15309f26a3a9a1577", "fusion_lon": 0.0, "bike_id": "485c1184e65404e15309f26a3a9a1577", "is_disabled": 0, "is_reserved": 0}, {"rental_uris": {"ios": "https://dc.lft.to/lastmile_qr_scan", "android": "https://dc.lft.to/lastmile_qr_scan"}, "lon": -76.96751633333334, "type": "electric_bike", "fusion_lat": 0.0, "lat": 38.875496166666665, "name": "8a839d9796dae529886eb38dc02d7efb", "fusion_lon": 0.0, "bike_id": "8a839d9796dae529886eb38dc02d7efb", "is_disabled": 0, "is_reserved": 0}, {"rental_uris": {"ios": "https://dc.lft.to/lastmile_qr_scan", "android": "https://dc.lft.to/lastmile_qr_scan"}, "lon": -77.01106916666667, "type": "electric_scooter", "fusion_lat": 0.0, "lat": 38.90013116666667, "name": "6794ff16c4c11273e633ceb806546866", "fusion_lon": 0.0, "bike_id": "6794ff16c4c11273e633ceb806546866", "is_disabled": 0, "is_reserved": 0}, {"rental_uris": {"ios": "https://dc.lft.to/lastmile_qr_scan", "android": "https://dc.lft.to/lastmile_qr_scan"}, "lon": -77.02202233333334, "type": "electric_scooter", "fusion_lat": 0.0, "lat": 38.90534733333333, "name": "fa3b5323999eae084836f190d19a2915", "fusion_lon": 0.0, "bike_id": "fa3b5323999eae084836f190d19a2915", "is_disabled": 0, "is_reserved": 0}, {"rental_uris": {"ios": "https://dc.lft.to/lastmile_qr_scan", "android": "https://dc.lft.to/lastmile_qr_scan"}, "lon": -76.9826285, "type": "electric_scooter", "fusion_lat": 0.0, "lat": 38.86353283333333, "name": "d7747df1bd842914cce83bcaacbaba24", "fusion_lon": 0.0, "bike_id": "d7747df1bd842914cce83bcaacbaba24", "is_disabled": 0, "is_reserved": 0}, {"rental_uris": {"ios": "https://dc.lft.to/lastmile_qr_scan", "android": "https://dc.lft.to/lastmile_qr_scan"}, "lon": -77.050076, "type": "electric_scooter", "fusion_lat": 0.0, "lat": 38.90734366666667, "name": "9eaf62d897f96cebe56410724242dcde", "fusion_lon": 0.0, "bike_id": "9eaf62d897f96cebe56410724242dcde", "is_disabled": 0, "is_reserved": 0}, {"rental_uris": {"ios": "https://dc.lft.to/lastmile_qr_scan", "android": "https://dc.lft.to/lastmile_qr_scan"}, "lon": -77.04012, "type": "electric_scooter", "fusion_lat": 0.0, "lat": 38.932542, "name": "b42f9ae318468999a7704b01c40c2199", "fusion_lon": 0.0, "bike_id": "b42f9ae318468999a7704b01c40c2199", "is_disabled": 0, "is_reserved": 0}, {"rental_uris": {"ios": "https://dc.lft.to/lastmile_qr_scan", "android": "https://dc.lft.to/lastmile_qr_scan"}, "lon": -76.99686383333334, "type": "electric_scooter", "fusion_lat": 0.0, "lat": 38.9002565, "name": "c0e49dae0ea90769185f03b4822314dc", "fusion_lon": 0.0, "bike_id": "c0e49dae0ea90769185f03b4822314dc", "is_disabled": 0, "is_reserved": 0}, {"rental_uris": {"ios": "https://dc.lft.to/lastmile_qr_scan", "android": "https://dc.lft.to/lastmile_qr_scan"}, "lon": -77.05071416666667, "type": "electric_scooter", "fusion_lat": 0.0, "lat": 38.90071433333333, "name": "5dbdb6f646de882d74cdb4d7cb54070d", "fusion_lon": 0.0, "bike_id": "5dbdb6f646de882d74cdb4d7cb54070d", "is_disabled": 0, "is_reserved": 0}, {"rental_uris": {"ios": "https://dc.lft.to/lastmile_qr_scan", "android": "https://dc.lft.to/lastmile_qr_scan"}, "lon": -77.02019816666666, "type": "electric_scooter", "fusion_lat": 0.0, "lat": 38.91649666666667, "name": "b2fa3e0a2a8cc4c17492df9dcbc58f48", "fusion_lon": 0.0, "bike_id": "b2fa3e0a2a8cc4c17492df9dcbc58f48", "is_disabled": 0, "is_reserved": 0}, {"rental_uris": {"ios": "https://dc.lft.to/lastmile_qr_scan", "android": "https://dc.lft.to/lastmile_qr_scan"}, "lon": -77.178386, "type": "electric_bike", "fusion_lat": 0.0, "lat": 39.08856816666667, "name": "10bdb7b699d7104aabc0802b3e171813", "fusion_lon": 0.0, "bike_id": "10bdb7b699d7104aabc0802b3e171813", "is_disabled": 0, "is_reserved": 0}, {"rental_uris": {"ios": "https://dc.lft.to/lastmile_qr_scan", "android": "https://dc.lft.to/lastmile_qr_scan"}, "lon": -76.98709233333334, "type": "electric_scooter", "fusion_lat": 0.0, "lat": 38.902736833333336, "name": "b51521b3e46ef2ba19a3a2467177592e", "fusion_lon": 0.0, "bike_id": "b51521b3e46ef2ba19a3a2467177592e", "is_disabled": 0, "is_reserved": 0}, {"rental_uris": {"ios": "https://dc.lft.to/lastmile_qr_scan", "android": "https://dc.lft.to/lastmile_qr_scan"}, "lon": -76.99500166666667, "type": "electric_scooter", "fusion_lat": 0.0, "lat": 38.86249883333333, "name": "cde04b4e38e8e00843fa9fb44b62a532", "fusion_lon": 0.0, "bike_id": "cde04b4e38e8e00843fa9fb44b62a532", "is_disabled": 0, "is_reserved": 0}, {"rental_uris": {"ios": "https://dc.lft.to/lastmile_qr_scan", "android": "https://dc.lft.to/lastmile_qr_scan"}, "lon": -76.9889665, "type": "electric_scooter", "fusion_lat": 0.0, "lat": 38.86696633333333, "name": "d55817658d9629dafc626ff0deb56cf5", "fusion_lon": 0.0, "bike_id": "d55817658d9629dafc626ff0deb56cf5", "is_disabled": 0, "is_reserved": 0}, {"rental_uris": {"ios": "https://dc.lft.to/lastmile_qr_scan", "android": "https://dc.lft.to/lastmile_qr_scan"}, "lon": -77.05699333333334, "type": "electric_scooter", "fusion_lat": 0.0, "lat": 38.905433333333335, "name": "05563679b70eeb6db6e45fda4922904f", "fusion_lon": 0.0, "bike_id": "05563679b70eeb6db6e45fda4922904f", "is_disabled": 0, "is_reserved": 0},