{"data": {"bikes": [{"name": "46c608a4d93ac22ecaea21d9aac6d1df", "fusion_lat": 0.0, "type": "electric_scooter", "lat": 38.91265033333333, "is_reserved": 0, "is_disabled": 0, "fusion_lon": 0.0, "bike_id": "46c608a4d93ac22ecaea21d9aac6d1df", "lon": -77.03870883333333, "rental_uris": {"ios": "https://dc.lft.to/lastmile_qr_scan", "android": "https://dc.lft.to/lastmile_qr_scan"}}, {"name": "93ab09f119c894434f34d1f55ee3f3c6", "fusion_lat": 0.0, "type": "electric_scooter", "lat": 38.90401283333333, "is_reserved": 0, "is_disabled": 0, "fusion_lon": 0.0, "bike_id": "93ab09f119c894434f34d1f55ee3f3c6", "lon": -77.0642915, "rental_uris": {"ios": "https://dc.lft.to/lastmile_qr_scan", "android": "https://dc.lft.to/lastmile_qr_scan"}}, {"name": "4009db9d4fd2d4c9a2a77c82280a97fa", "fusion_lat": 0.0, "type": "electric_scooter", "lat": 38.932629166666665, "is_reserved": 0, "is_disabled": 0, "fusion_lon": 0.0, "bike_id": "4009db9d4fd2d4c9a2a77c82280a97fa", "lon": -77.03897433333333, "rental_uris": {"ios": "https://dc.lft.to/lastmile_qr_scan", "android": "https://dc.lft.to/lastmile_qr_scan"}}, {"name": "5e999962903fda3d55fc57c491291be9", "fusion_lat": 0.0, "type": "electric_scooter", "lat": 38.93620816666667, "is_reserved": 0, "is_disabled": 0, "fusion_lon": 0.0, "bike_id": "5e999962903fda3d55fc57c491291be9", "lon": -77.03211516666667, "rental_uris": {"ios": "https://dc.lft.to/lastmile_qr_scan", "android": "https://dc.lft.to/lastmile_qr_scan"}}, {"name": "01cce916179a7da59d264a77719a3207", "fusion_lat": 0.0, "type": "electric_scooter", "lat": 38.91168733333333, "is_reserved": 0, "is_disabled": 0, "fusion_lon": 0.0, "bike_id": "01cce916179a7da59d264a77719a3207", "lon": -77.01129483333334, "rental_uris": {"ios": "https://dc.lft.to/lastmile_qr_scan", "android": "https://dc.lft.to/lastmile_qr_scan"}}, {"name": "135556d83f28f5150a8b819438fbed90", "fusion_lat": 0.0, "type": "electric_scooter", "lat": 38.8876545, "is_reserved": 0, "is_disabled": 0, "fusion_lon": 0.0, "bike_id": "135556d83f28f5150a8b819438fbed90", "lon": -76.95601266666667, "rental_uris": {"ios": "https://dc.lft.to/lastmile_qr_scan", "android": "https://dc.lft.to/lastmile_qr_scan"}}, {"name": "5a0dbf707d1b04d06c735b0d1266d346", "fusion_lat": 0.0, "type": "electric_scooter", "lat": 38.9342695, "is_reserved": 0, "is_disabled": 0, "fusion_lon": 0.0, "bike_id": "5a0dbf707d1b04d06c735b0d1266d346", "lon": -77.04001033333333, "rental_uris": {"ios": "https://dc.lft.to/lastmile_qr_scan", "android": "https://dc.lft.to/lastmile_qr_scan"}}, {"name": "a99280ace8f1af953cac7bd788e14419", "fusion_lat": 0.0, "type": "electric_scooter", "lat": 38.918076, "is_reserved": 0, "is_disabled": 0, "fusion_lon": 0.0, "bike_id": "a99280ace8f1af953cac7bd788e14419", "lon": -77.032149, "rental_uris": {"ios": "https://dc.lft.to/lastmile_qr_scan", "android": "https://dc.lft.to/lastmile_qr_scan"}}, {"name": "35913dae54499e7795c1ba3658a41f33", "fusion_lat": 0.0, "type": "electric_scooter", "lat": 38.9036255, "is_reserved": 0, "is_disabled": 0, "fusion_lon": 0.0, "bike_id": "35913dae54499e7795c1ba3658a41f33", "lon": -77.0033895, "rental_uris": {"ios": "https://dc.lft.to/lastmile_qr_scan", "android": "https://dc.lft.to/lastmile_qr_scan"}}, {"name": "e3ef78f19e178bc71f4daf624a714a4b", "fusion_lat": 0.0, "type": "electric_scooter", "lat": 38.876605833333336, "is_reserved": 0, "is_disabled": 0, "fusion_lon": 0.0, "bike_id": "e3ef78f19e178bc71f4daf624a714a4b", "lon": -77.008244, "rental_uris": {"ios": "https://dc.lft.to/lastmile_qr_scan", "android": "https://dc.lft.to/lastmile_qr_scan"}}, {"name": "20de0fdb3046753b34829d500fbb7dbc", "fusion_lat": 0.0, "type": "electric_scooter", "lat": 38.905652, "is_reserved": 0, "is_disabled": 0, "fusion_lon": 0.0, "bike_id": "20de0fdb3046753b34829d500fbb7dbc", "lon": -77.01813383333334, "rental_uris": {"ios": "https://dc.lft.to/lastmile_qr_scan", "android": "https://dc.lft.to/lastmile_qr_scan"}}, {"name": "1b77c963f0a3677773c0bbcf7fd95bd2", "fusion_lat": 0.0, "type": "electric_scooter", "lat": 38.902448166666666, "is_reserved": 0, "is_disabled": 0, "fusion_lon": 0.0, "bike_id": "1b77c963f0a3677773c0bbcf7fd95bd2", "lon": -76.97407516666667, "rental_uris": {"ios": "https://dc.lft.to/lastmile_qr_scan", "android": "https://dc.lft.to/lastmile_qr_scan"}}, {"name": "7715d9c6359501e223b6cfd89476cae3", "fusion_lat": 0.0, "type": "electric_scooter", "lat": 38.883299666666666, "is_reserved": 0, "is_disabled": 0, "fusion_lon": 0.0, "bike_id": "7715d9c6359501e223b6cfd89476cae3", "lon": -77.02326316666667, "rental_uris": {"ios": "https://dc.lft.to/lastmile_qr_scan", "android": "https://dc.lft.to/lastmile_qr_scan"}}, {"name": "770c842e2c6d441019f9b7f1483bc517", "fusion_lat": 0.0, "type": "electric_scooter", "lat": 38.909650666666664, "is_reserved": 0, "is_disabled": 0, "fusion_lon": 0.0, "bike_id": "770c842e2c6d441019f9b7f1483bc517", "lon": -77.02742266666667, "rental_uris": {"ios": "https://dc.lft.to/lastmile_qr_scan", "android": "https://dc.lft.to/lastmile_qr_scan"}}, {"name": "af3811d927531e1199bddd4e9fb569f9", "fusion_lat": 0.0, "type": "electric_bike", "lat": 38.96761766666667, "is_reserved": 0, "is_disabled": 0, "fusion_lon": 0.0, "bike_id": "af3811d927531e1199bddd4e9fb569f9", "lon": -77.09163166666667, "rental_uris": {"ios": "https://dc.lft.to/lastmile_qr_scan", "android": "https://dc.lft.to/lastmile_qr_scan"}}, {"name": "f5d0d580134e48549917019ecd48f707", "fusion_lat": 0.0, "type": "electric_scooter", "lat": 38.9056315, "is_reserved": 0, "is_disabled": 0, "fusion_lon": 0.0, "bike_id": "f5d0d580134e48549917019ecd48f707", "lon": -77.03426683333333, "rental_uris": {"ios": "https://dc.lft.to/lastmile_qr_scan", "android": "https://dc.lft.to/lastmile_qr_scan"}}, {"name": "518cacb03a39f04ad4f6f16df29145b2", "fusion_lat": 0.0, "type": "electric_bike", "lat": 38.861591, "is_reserved": 0, "is_disabled": 0, "fusion_lon": 0.0, "bike_id": "518cacb03a39f04ad4f6f16df29145b2", "lon": -77.13095416666667, "rental_uris": {"ios": "https://dc.lft.to/lastmile_qr_scan", "android": "https://dc.lft.to/lastmile_qr_scan"}}, {"name": "7395215751b805c8af054be8fccbb439", "fusion_lat": 0.0, "type": "electric_scooter", "lat": 38.9217815, "is_reserved": 0, "is_disabled": 0, "fusion_lon": 0.0, "bike_id": "7395215751b805c8af054be8fccbb439", "lon": -77.026638, "rental_uris": {"ios": "https://dc.lft.to/lastmile_qr_scan", "android": "https://dc.lft.to/lastmile_qr_scan"}}, {"name": "a1bd8fd872c45a8bb2fa52f889e51cb2", "fusion_lat": 0.0, "type": "electric_scooter", "lat": 38.90140066666667, "is_reserved": 0, "is_disabled": 0, "fusion_lon": 0.0, "bike_id": "a1bd8fd872c45a8bb2fa52f889e51cb2", "lon": -77.03968566666667, "rental_uris": {"ios": "https://dc.lft.to/lastmile_qr_scan", "android": "https://dc.lft.to/lastmile_qr_scan"}}, {"name": "c11dc559d3ed2ab4a06491221ba32f39", "fusion_lat": 0.0, "type": "electric_scooter", "lat": 38.917425333333334, "is_reserved": 0, "is_disabled": 0, "fusion_lon": 0.0, "bike_id": "c11dc559d3ed2ab4a06491221ba32f39", "lon": -77.0363785, "rental_uris": {"ios": "https://dc.lft.to/lastmile_qr_scan", "android": "https://dc.lft.to/lastmile_qr_scan"}}, {"name": "ffbfa606a4d16bf6f955127c68588361", "fusion_lat": 0.0, "type": "electric_scooter", "lat": 38.913399166666665, "is_reserved": 0, "is_disabled": 0, "fusion_lon": 0.0, "bike_id": "ffbfa606a4d16bf6f955127c68588361", "lon": -77.00228016666667, "rental_uris": {"ios": "https://dc.lft.to/lastmile_qr_scan", "android": "https://dc.lft.to/lastmile_qr_scan"}}, {"name": "95742d45075c092b22e1819280f13594", "fusion_lat": 0.0, "type": "electric_scooter", "lat": 38.9141015, "is_reserved": 0, "is_disabled": 0, "fusion_lon": 0.0, "bike_id": "95742d45075c092b22e1819280f13594", "lon": -77.00806033333333, "rental_uris": {"ios": "https://dc.lft.to/lastmile_qr_scan", "android": "https://dc.lft.to/lastmile_qr_scan"}}, {"name": "184872f9835b9cb99a9d97c51ffdae8e", "fusion_lat": 0.0, "type": "electric_scooter", "lat": 38.916925, "is_reserved": 0, "is_disabled": 0, "fusion_lon": 0.0, "bike_id": "184872f9835b9cb99a9d97c51ffdae8e", "lon": -77.03142616666666, "rental_uris": {"ios": "https://dc.lft.to/lastmile_qr_scan", "android": "https://dc.lft.to/lastmile_qr_scan"}}, {"name": "1555cfac8ee0f1ae0f45139f14ef480f", "fusion_lat": 0.0, "type": "electric_scooter", "lat": 38.911442666666666, "is_reserved": 0, "is_disabled": 0, "fusion_lon": 0.0, "bike_id": "1555cfac8ee0f1ae0f45139f14ef480f", "lon": -77.01989033333334, "rental_uris": {"ios": "https://dc.lft.to/lastmile_qr_scan", "android": "https://dc.lft.to/lastmile_qr_scan"}}, {"name": "0fd5e983aebf83f9b7fb1ddd055efc84", "fusion_lat": 0.0, "type": "electric_scooter", "lat": 38.941169333333335, "is_reserved": 0, "is_disabled": 0, "fusion_lon": 0.0, "bike_id": "0fd5e983aebf83f9b7fb1ddd055efc84", "lon": -77.017937, "rental_uris": {"ios": "https://dc.lft.to/lastmile_qr_scan", "android": "https://dc.lft.to/lastmile_qr_scan"}}, {"name": "09fd82308cb79f0086fcffd197d66446", "fusion_lat": 0.0, "type": "electric_scooter", "lat": 38.909722, "is_reserved": 0, "is_disabled": 0, "fusion_lon": 0.0, "bike_id": "09fd82308cb79f0086fcffd197d66446", "lon": -77.02179216666667, "rental_uris": {"ios": "https://dc.lft.to/lastmile_qr_scan", "android": "https://dc.lft.to/lastmile_qr_scan"}}, {"name": "78362238d36d40d6df1f840d3e9a9529", "fusion_lat": 0.0, "type": "electric_bike", "lat": 38.834383333333335, "is_reserved": 0, "is_disabled": 0, "fusion_lon": 0.0, "bike_id": "78362238d36d40d6df1f840d3e9a9529", "lon": -77.00831616666666, "rental_uris": {"ios": "https://dc.lft.to/lastmile_qr_scan", "android": "https://dc.lft.to/lastmile_qr_scan"}}, {"name": "9da302a8e5ee1810e36d4384fc00f581", "fusion_lat": 0.0, "type": "electric_bike", "lat": 38.869063833333335, "is_reserved": 0, "is_disabled": 0, "fusion_lon": 0.0, "bike_id": "9da302a8e5ee1810e36d4384fc00f581", "lon": -77.1318305, "rental_uris": {"ios": "https://dc.lft.to/lastmile_qr_scan", "android": "https://dc.lft.to/lastmile_qr_scan"}}, {"name": "f7ce285420430e31c208464611f75767", "fusion_lat": 0.0, "type": "electric_scooter", "lat": 38.876548166666666, "is_reserved": 0, "is_disabled": 0, "fusion_lon": 0.0, "bike_id": "f7ce285420430e31c208464611f75767", "lon": -77.00780816666666, "rental_uris": {"ios": "https://dc.lft.to/lastmile_qr_scan", "android": "https://dc.lft.to/lastmile_qr_scan"}}, {"name": "1e7e60412fee4ee65f9ce0bc3112d6d9", "fusion_lat": 0.0, "type": "electric_bike", "lat": 38.91921516666667, "is_reserved": 0, "is_disabled": 0, "fusion_lon": 0.0, "bike_id": "1e7e60412fee4ee65f9ce0bc3112d6d9", "lon": -77.04600916666666, "rental_uris": {"ios": "https://dc.lft.to/lastmile_qr_scan", "android": "https://dc.lft.to/lastmile_qr_scan"}}, {"name": "e7df172b19eff6e56b6121d5aff56374", "fusion_lat": 0.0, "type": "electric_bike", "lat": 38.924521, "is_reserved": 0, "is_disabled": 0, "fusion_lon": 0.0, "bike_id": "e7df172b19eff6e56b6121d5aff56374", "lon": -76.99048016666667, "rental_uris": {"ios": "https://dc.lft.to/lastmile_qr_scan", "android": "https://dc.lft.to/lastmile_qr_scan"}}, {"name": "a333b171f18b090392c06e351dbeb380", "fusion_lat": 0.0, "type": "electric_scooter", "lat": 38.918174666666665, "is_reserved": 0, "is_disabled": 0, "fusion_lon": 0.0, "bike_id": "a333b171f18b090392c06e351dbeb380", "lon": -77.02793466666667, "rental_uris": {"ios": "https://dc.lft.to/lastmile_qr_scan", "android": "https://dc.lft.to/lastmile_qr_scan"}}, {"name": "4f16b3b86ebdf97f0f71e226ec4ab356", "fusion_lat": 0.0, "type": "electric_scooter", "lat": 38.91057083333333, "is_reserved": 0, "is_disabled": 0, "fusion_lon": 0.0, "bike_id": "4f16b3b86ebdf97f0f71e226ec4ab356", "lon": -77.04272333333333, "rental_uris": {"ios": "https://dc.lft.to/lastmile_qr_scan", "android": "https://dc.lft.to/lastmile_qr_scan"}}, {"name": "b935f0f4854f0dd6ea7a44d35887de66", "fusion_lat": 0.0, "type": "electric_scooter", "lat": 38.90064616666667, "is_reserved": 0, "is_disabled": 0, "fusion_lon": 0.0, "bike_id": "b935f0f4854f0dd6ea7a44d35887de66", "lon": -77.033687, "rental_uris": {"ios": "https://dc.lft.to/lastmile_qr_scan", "android": "https://dc.lft.to/lastmile_qr_scan"}}, {"name": "b9c735aae156049c4fee992855bd72c6", "fusion_lat": 0.0, "type": "electric_scooter", "lat": 38.8936015, "is_reserved": 0, "is_disabled": 0, "fusion_lon": 0.0, "bike_id": "b9c735aae156049c4fee992855bd72c6", "lon": -76.94984216666667, "rental_uris": {"ios": "https://dc.lft.to/lastmile_qr_scan", "android": "https://dc.lft.to/lastmile_qr_scan"}}, {"name": "fc3dd90ce1e69a3ef576f32f04f00039", "fusion_lat": 0.0, "type": "electric_scooter", "lat": 38.84433666666666, "is_reserved": 0, "is_disabled": 0, "fusion_lon": 0.0, "bike_id": "fc3dd90ce1e69a3ef576f32f04f00039", "lon": -76.99725016666666, "rental_uris": {"ios": "https://dc.lft.to/lastmile_qr_scan", "android": "https://dc.lft.to/lastmile_qr_scan"}}, {"name": "2fe7125ecc39a8408755b89de206bbbc", "fusion_lat": 0.0, "type": "electric_scooter", "lat": 38.90701283333333, "is_reserved": 0, "is_disabled": 0, "fusion_lon": 0.0, "bike_id": "2fe7125ecc39a8408755b89de206bbbc", "lon": -77.02386066666666, "rental_uris": {"ios": "https://dc.lft.to/lastmile_qr_scan", "android": "https://dc.lft.to/lastmile_qr_scan"}}, {"name": "52520c815e16f2d47ac53ac65260cdf2", "fusion_lat": 0.0, "type": "electric_scooter", "lat": 38.91710966666667, "is_reserved": 0, "is_disabled": 0, "fusion_lon": 0.0, "bike_id": "52520c815e16f2d47ac53ac65260cdf2", "lon": -77.0321805, "rental_uris": {"ios": "https://dc.lft.to/lastmile_qr_scan", "android": "https://dc.lft.to/lastmile_qr_scan"}}, {"name": "d93b034128c08ffee9ef6b2080a3dac0", "fusion_lat": 0.0, "type": "electric_scooter", "lat": 38.90208883333333, "is_reserved": 0, "is_disabled": 0, "fusion_lon": 0.0, "bike_id": "d93b034128c08ffee9ef6b2080a3dac0", "lon": -77.05121866666667, "rental_uris": {"ios": "https://dc.lft.to/lastmile_qr_scan", "android": "https://dc.lft.to/lastmile_qr_scan"}}, {"name": "adb4e5c7659aafa13fe704e17fbcd26d", "fusion_lat": 0.0, "type": "electric_scooter", "lat": 38.93151983333333, "is_reserved": 0, "is_disabled": 0, "fusion_lon": 0.0, "bike_id": "adb4e5c7659aafa13fe704e17fbcd26d", "lon": -77.029642, "rental_uris": {"ios": "https://dc.lft.to/lastmile_qr_scan", "android": "https://dc.lft.to/lastmile_qr_scan"}}, {"name": "a74bb93e65d197493814702ad6b6118f", "fusion_lat": 0.0, "type": "electric_scooter", "lat": 38.900530833333335, "is_reserved": 0, "is_disabled": 0, "fusion_lon": 0.0, "bike_id": "a74bb93e65d197493814702ad6b6118f", "lon": -77.02969616666667, "rental_uris": {"ios": "https://dc.lft.to/lastmile_qr_scan", "android": "https://dc.lft.to/lastmile_qr_scan"}}, {"name": "417c1a8990d13c4f6bc42e45011000a0", "fusion_lat": 0.0, "type": "electric_scooter", "lat": 38.89609683333333, "is_reserved": 0, "is_disabled": 0, "fusion_lon": 0.0, "bike_id": "417c1a8990d13c4f6bc42e45011000a0", "lon": -77.04687166666666, "rental_uris": {"ios": "https://dc.lft.to/lastmile_qr_scan", "android": "https://dc.lft.to/lastmile_qr_scan"}}, {"name": "fa22dc91e7350e1a296b8c094486be4c", "fusion_lat": 0.0, "type": "electric_scooter", "lat": 38.913361333333334, "is_reserved": 0, "is_disabled": 0, "fusion_lon": 0.0, "bike_id": "fa22dc91e7350e1a296b8c094486be4c", "lon": -77.031236, "rental_uris": {"ios": "https://dc.lft.to/lastmile_qr_scan", "android": "https://dc.lft.to/lastmile_qr_scan"}}, {"name": "cf9e0c156fcf5a98725021115f975a80", "fusion_lat": 0.0, "type": "electric_bike", "lat": 38.968356166666666, "is_reserved": 0, "is_disabled": 0, "fusion_lon": 0.0, "bike_id": "cf9e0c156fcf5a98725021115f975a80", "lon": -77.03329166666667, "rental_uris": {"ios": "https://dc.lft.to/lastmile_qr_scan", "android": "https://dc.lft.to/lastmile_qr_scan"}}, {"name": "eb2b9fe2e623b0e859b5a5a36a238453", "fusion_lat": 0.0, "type": "electric_scooter", "lat": 38.900746166666664, "is_reserved": 0, "is_disabled": 0, "fusion_lon": 0.0, "bike_id": "eb2b9fe2e623b0e859b5a5a36a238453", "lon": -77.05199283333333, "rental_uris": {"ios": "https://dc.lft.to/lastmile_qr_scan", "android": "https://dc.lft.to/lastmile_qr_scan"}}, {"name": "9cdb8d12a2ec29433589a13d2543a0d5", "fusion_lat": 0.0, "type": "electric_scooter", "lat": 38.93207866666667, "is_reserved": 0, "is_disabled": 0, "fusion_lon": 0.0, "bike_id": "9cdb8d12a2ec29433589a13d2543a0d5", "lon": -77.027311, "rental_uris": {"ios": "https://dc.lft.to/lastmile_qr_scan", "android": "https://dc.lft.to/lastmile_qr_scan"}}, {"name": "9c33ef93d8cf89e3f76bae3c1e4eeabe", "fusion_lat": 0.0, "type": "electric_scooter", "lat": 38.9177875, "is_reserved": 0, "is_disabled": 0, "fusion_lon": 0.0, "bike_id": "9c33ef93d8cf89e3f76bae3c1e4eeabe", "lon": -77.029557, "rental_uris": {"ios": "https://dc.lft.to/lastmile_qr_scan", "android": "https://dc.lft.to/lastmile_qr_scan"}}, {"name": "4b4af1243ea8cb8bd7c2392df6aa3d16", "fusion_lat": 0.0, "type": "electric_scooter", "lat": 38.8954595, "is_reserved": 0, "is_disabled": 0, "fusion_lon": 0.0, "bike_id": "4b4af1243ea8cb8bd7c2392df6aa3d16", "lon": -77.01076833333333, "rental_uris": {"ios": "https://dc.lft.to/lastmile_qr_scan", "android": "https://dc.lft.to/lastmile_qr_scan"}}, {"name": "636123ae17530ebf481abe3787ad002e", "fusion_lat": 0.0, "type": "electric_scooter", "lat": 38.89922683333333, "is_reserved": 0, "is_disabled": 0, "fusion_lon": 0.0, "bike_id": "636123ae17530ebf481abe3787ad002e", "lon": -77.03914933333333, "rental_uris": {"ios": "https://dc.lft.to/lastmile_qr_scan", "android": "https://dc.lft.to/lastmile_qr_scan"}}, {"name": "2811f6739d253c4094317128817d2b74", "fusion_lat": 0.0, "type": "electric_scooter", "lat": 38.87498683333333, "is_reserved": 0, "is_disabled": 0, "fusion_lon": 0.0, "bike_id": "2811f6739d253c4094317128817d2b74", "lon": -77.00180283333333, "rental_uris": {"ios": "https://dc.lft.to/lastmile_qr_scan", "android": "https://dc.lft.to/lastmile_qr_scan"}}, {"name": "327925dfa2e2a034689f95553e61acb7", "fusion_lat": 0.0, "type": "electric_scooter", "lat": 38.9122205, "is_reserved": 0, "is_disabled": 0, "fusion_lon": 0.0, "bike_id": "327925dfa2e2a034689f95553e61acb7", "lon": -77.04485516666666, "rental_uris": {"ios": "https://dc.lft.to/lastmile_qr_scan", "android": "https://dc.lft.to/lastmile_qr_scan"}}, {"name": "6f2b8efb72386de8e7188cc706edf190", "fusion_lat": 0.0, "type": "electric_scooter", "lat": 38.899663333333336, "is_reserved": 0, "is_disabled": 0, "fusion_lon": 0.0, "bike_id": "6f2b8efb72386de8e7188cc706edf190", "lon": -77.0313145, "rental_uris": {"ios": "https://dc.lft.to/lastmile_qr_scan", "android": "https://dc.lft.to/lastmile_qr_scan"}}, {"name": "a9777dd40b1260b9d83669e35db93d80", "fusion_lat": 0.0, "type": "electric_scooter", "lat": 38.903188, "is_reserved": 0, "is_disabled": 0, "fusion_lon": 0.0, "bike_id": "a9777dd40b1260b9d83669e35db93d80", "lon": -77.04160266666666, "rental_uris": {"ios": "https://dc.lft.to/lastmile_qr_scan", "android": "https://dc.lft.to/lastmile_qr_scan"}}, {"name": "ccee2566f202a4963b3eeb26ebcde1f4", "fusion_lat": 0.0, "type": "electric_scooter", "lat": 38.930679833333336, "is_reserved": 0, "is_disabled": 0, "fusion_lon": 0.0, "bike_id": "ccee2566f202a4963b3eeb26ebcde1f4", "lon": -77.039582, "rental_uris": {"ios": "https://dc.lft.to/lastmile_qr_scan", "android": "https://dc.lft.to/lastmile_qr_scan"}}, {"name": "2cf11cb1fd2a90c58a992d6af85d2872", "fusion_lat": 0.0, "type": "electric_scooter", "lat": 38.93395666666667, "is_reserved": 0, "is_disabled": 0, "fusion_lon": 0.0, "bike_id": "2cf11cb1fd2a90c58a992d6af85d2872", "lon": -77.073851, "rental_uris": {"ios": "https://dc.lft.to/lastmile_qr_scan", "android": "https://dc.lft.to/lastmile_qr_scan"}}, {"name": "9e4002da301363b82fc8e275af636e8a", "fusion_lat": 0.0, "type": "electric_scooter", "lat": 38.86271, "is_reserved": 0, "is_disabled": 0, "fusion_lon": 0.0, "bike_id": "9e4002da301363b82fc8e275af636e8a", "lon": -76.98721516666667, "rental_uris": {"ios": "https://dc.lft.to/lastmile_qr_scan", "android": "https://dc.lft.to/lastmile_qr_scan"}}, {"name": "79431ea1cd08fe4505772cc80e696404", "fusion_lat": 0.0, "type": "electric_bike", "lat": 38.886179166666665, "is_reserved": 0, "is_disabled": 0, "fusion_lon": 0.0, "bike_id": "79431ea1cd08fe4505772cc80e696404", "lon": -77.10755416666667, "rental_uris": {"ios": "https://dc.lft.to/lastmile_qr_scan", "android": "https://dc.lft.to/lastmile_qr_scan"}}, {"name": "b0f776c8f52e6b724b73be2111cdd7b0", "fusion_lat": 0.0, "type": "electric_bike", "lat": 39.053490333333336, "is_reserved": 0, "is_disabled": 0, "fusion_lon": 0.0, "bike_id": "b0f776c8f52e6b724b73be2111cdd7b0", "lon": -77.1359565, "rental_uris": {"ios": "https://dc.lft.to/lastmile_qr_scan", "android": "https://dc.lft.to/lastmile_qr_scan"}}, {"name": "4daf11adebc1a21d592c7d45f76d7827", "fusion_lat": 0.0, "type": "electric_scooter", "lat": 38.916653833333335, "is_reserved": 0, "is_disabled": 0, "fusion_lon": 0.0, "bike_id": "4daf11adebc1a21d592c7d45f76d7827", "lon": -77.028889, "rental_uris": {"ios": "https://dc.lft.to/lastmile_qr_scan", "android": "https://dc.lft.to/lastmile_qr_scan"}}, {"name": "eecaef2def4e5dfaed23c049dd5ab4a9", "fusion_lat": 0.0, "type": "electric_scooter", "lat": 38.89498116666667, "is_reserved": 0, "is_disabled": 0, "fusion_lon": 0.0, "bike_id": "eecaef2def4e5dfaed23c049dd5ab4a9", "lon": -77.01016183333333, "rental_uris": {"ios": "https://dc.lft.to/lastmile_qr_scan", "android": "https://dc.lft.to/lastmile_qr_scan"}}, {"name": "68e5d9b46278e207d9cc0ba19bec069c", "fusion_lat": 0.0, "type": "electric_scooter", "lat": 38.909845833333335, "is_reserved": 0, "is_disabled": 0, "fusion_lon": 0.0, "bike_id": "68e5d9b46278e207d9cc0ba19bec069c", "lon": -77.03822033333333, "rental_uris": {"ios": "https://dc.lft.to/lastmile_qr_scan", "android": "https://dc.lft.to/lastmile_qr_scan"}}, {"name": "fc545b41fb48b7ba077fb1ff9b243ec3", "fusion_lat": 0.0, "type": "electric_scooter", "lat": 38.90439516666667, "is_reserved": 0, "is_disabled": 0, "fusion_lon": 0.0, "bike_id": "fc545b41fb48b7ba077fb1ff9b243ec3", "lon": -77.03107366666667, "rental_uris": {"ios": "https://dc.lft.to/lastmile_qr_scan", "android": "https://dc.lft.to/lastmile_qr_scan"}}, {"name": "c8837f1284f009a03303b14e3bed6373", "fusion_lat": 0.0, "type": "electric_bike", "lat": 38.8443105, "is_reserved": 0, "is_disabled": 0, "fusion_lon": 0.0, "bike_id": "c8837f1284f009a03303b14e3bed6373", "lon": -77.11263733333334, "rental_uris": {"ios": "https://dc.lft.to/lastmile_qr_scan", "android": "https://dc.lft.to/lastmile_qr_scan"}}, {"name": "d4bfb2f6b01649a5e1b89eb9c3bd04bb", "fusion_lat": 0.0, "type": "electric_scooter", "lat": 38.91709183333333, "is_reserved": 0, "is_disabled": 0, "fusion_lon": 0.0, "bike_id": "d4bfb2f6b01649a5e1b89eb9c3bd04bb", "lon": -77.038647, "rental_uris": {"ios": "https://dc.lft.to/lastmile_qr_scan", "android": "https://dc.lft.to/lastmile_qr_scan"}}, {"name": "9893d1641d7291b486bc33ce2611150e", "fusion_lat": 0.0, "type": "electric_scooter", "lat": 38.908443166666665, "is_reserved": 0, "is_disabled": 0, "fusion_lon": 0.0, "bike_id": "9893d1641d7291b486bc33ce2611150e", "lon": -77.02595533333333, "rental_uris": {"ios": "https://dc.lft.to/lastmile_qr_scan", "android": "https://dc.lft.to/lastmile_qr_scan"}}, {"name": "d8288c29201c0716300d232a45f97aeb", "fusion_lat": 0.0, "type": "electric_scooter", "lat": 38.9617545, "is_reserved": 0, "is_disabled": 0, "fusion_lon": 0.0, "bike_id": "d8288c29201c0716300d232a45f97aeb", "lon": -77.0322685, "rental_uris": {"ios": "https://dc.lft.to/lastmile_qr_scan", "android": "https://dc.lft.to/lastmile_qr_scan"}}, {"name": "2ae52c83acb28453c3ebf7dbf5cb384a", "fusion_lat": 0.0, "type": "electric_scooter", "lat": 38.915565, "is_reserved": 0, "is_disabled": 0, "fusion_lon": 0.0, "bike_id": "2ae52c83acb28453c3ebf7dbf5cb384a", "lon": -77.03834366666666, "rental_uris": {"ios": "https://dc.lft.to/lastmile_qr_scan", "android": "https://dc.lft.to/lastmile_qr_scan"}}, {"name": "edfb1f0cf25bb0f71eb892e18cdc29b5", "fusion_lat": 0.0, "type": "electric_scooter", "lat": 38.912538, "is_reserved": 0, "is_disabled": 0, "fusion_lon": 0.0, "bike_id": "edfb1f0cf25bb0f71eb892e18cdc29b5", "lon": -77.04533333333333, "rental_uris": {"ios": "https://dc.lft.to/lastmile_qr_scan", "android": "https://dc.lft.to/lastmile_qr_scan"}}, {"name": "310e82452365e7310ccffcfc90e9a0bb", "fusion_lat": 0.0, "type": "electric_bike", "lat": 39.02426633333334, "is_reserved": 0, "is_disabled": 0, "fusion_lon": 0.0, "bike_id": "310e82452365e7310ccffcfc90e9a0bb", "lon": -77.12506666666667, "rental_uris": {"ios": "https://dc.lft.to/lastmile_qr_scan", "android": "https://dc.lft.to/lastmile_qr_scan"}}, {"name": "c61494c0325b273c0330e2d8950a2411", "fusion_lat": 0.0, "type": "electric_scooter", "lat": 38.90008733333333, "is_reserved": 0, "is_disabled": 0, "fusion_lon": 0.0, "bike_id": "c61494c0325b273c0330e2d8950a2411", "lon": -77.0412365, "rental_uris": {"ios": "https://dc.lft.to/lastmile_qr_scan", "android": "https://dc.lft.to/lastmile_qr_scan"}}, {"name": "a384ec3be668f249154c59fea60d9d4b", "fusion_lat": 0.0, "type": "electric_scooter", "lat": 38.9226805, "is_reserved": 0, "is_disabled": 0, "fusion_lon": 0.0, "bike_id": "a384ec3be668f249154c59fea60d9d4b", "lon": -77.03406183333334, "rental_uris": {"ios": "https://dc.lft.to/lastmile_qr_scan", "android": "https://dc.lft.to/lastmile_qr_scan"}}, {"name": "269827b3d256e281c830e7078b87afc3", "fusion_lat": 0.0, "type": "electric_bike", "lat": 38.966227333333336, "is_reserved": 0, "is_disabled": 0, "fusion_lon": 0.0, "bike_id": "269827b3d256e281c830e7078b87afc3", "lon": -76.944215, "rental_uris": {"ios": "https://dc.lft.to/lastmile_qr_scan", "android": "https://dc.lft.to/lastmile_qr_scan"}}, {"name": "558c74c134067262e8d003046f4339b1", "fusion_lat": 0.0, "type": "electric_scooter", "lat": 38.9060805, "is_reserved": 0, "is_disabled": 0, "fusion_lon": 0.0, "bike_id": "558c74c134067262e8d003046f4339b1", "lon": -77.0562405, "rental_uris": {"ios": "https://dc.lft.to/lastmile_qr_scan", "android": "https://dc.lft.to/lastmile_qr_scan"}}, {"name": "9178e36b0042ad38fb41cb6b69c91396", "fusion_lat": 0.0, "type": "electric_scooter", "lat": 38.8918215, "is_reserved": 0, "is_disabled": 0, "fusion_lon": 0.0, "bike_id": "9178e36b0042ad38fb41cb6b69c91396", "lon": -76.95740166666667, "rental_uris": {"ios": "https://dc.lft.to/lastmile_qr_scan", "android": "https://dc.lft.to/lastmile_qr_scan"}}, {"name": "a8c66ac752facbec18e656a5389019b2", "fusion_lat": 0.0, "type": "electric_scooter", "lat": 38.930376333333335, "is_reserved": 0, "is_disabled": 0, "fusion_lon": 0.0, "bike_id": "a8c66ac752facbec18e656a5389019b2", "lon": -77.02955666666666, "rental_uris": {"ios": "https://dc.lft.to/lastmile_qr_scan", "android": "https://dc.lft.to/lastmile_qr_scan"}}, {"name": "addeb4d53bc608858ee9ce9f3cad6601", "fusion_lat": 0.0, "type": "electric_scooter", "lat": 38.926911833333335, "is_reserved": 0, "is_disabled": 0, "fusion_lon": 0.0, "bike_id": "addeb4d53bc608858ee9ce9f3cad6601", "lon": -77.02302116666667, "rental_uris": {"ios": "https://dc.lft.to/lastmile_qr_scan", "android": "https://dc.lft.to/lastmile_qr_scan"}}, {"name": "c17cb49be162947549064c234e9707d5", "fusion_lat": 0.0, "type": "electric_scooter", "lat": 38.9261985, "is_reserved": 0, "is_disabled": 0, "fusion_lon": 0.0, "bike_id": "c17cb49be162947549064c234e9707d5", "lon": -77.04419166666666, "rental_uris": {"ios": "https://dc.lft.to/lastmile_qr_scan", "android": "https://dc.lft.to/lastmile_qr_scan"}}, {"name": "903b03e5ca2befcfb0ad4fa3046f07ac", "fusion_lat": 0.0, "type": "electric_scooter", "lat": 38.918119833333336, "is_reserved": 0, "is_disabled": 0, "fusion_lon": 0.0, "bike_id": "903b03e5ca2befcfb0ad4fa3046f07ac", "lon": -77.04624633333333, "rental_uris": {"ios": "https://dc.lft.to/lastmile_qr_scan", "android": "https://dc.lft.to/lastmile_qr_scan"}}, {"name": "9009a5efd76e7ddeedb2693435221066", "fusion_lat": 0.0, "type": "electric_scooter", "lat": 38.92181566666667, "is_reserved": 0, "is_disabled": 0, "fusion_lon": 0.0, "bike_id": "9009a5efd76e7ddeedb2693435221066", "lon": -77.04284233333334, "rental_uris": {"ios": "https://dc.lft.to/lastmile_qr_scan", "android": "https://dc.lft.to/lastmile_qr_scan"}}, {"name": "7e6ad372b6043287eb1be79b9ba43ebf", "fusion_lat": 0.0, "type": "electric_scooter", "lat": 38.91932283333333, "is_reserved": 0, "is_disabled": 0, "fusion_lon": 0.0, "bike_id": "7e6ad372b6043287eb1be79b9ba43ebf", "lon": -77.023814, "rental_uris": {"ios": "https://dc.lft.to/lastmile_qr_scan", "android": "https://dc.lft.to/lastmile_qr_scan"}}, {"name": "c430f2bd5986a5c25317ef6a219035a6", "fusion_lat": 0.0, "type": "electric_scooter", "lat": 38.9406275, "is_reserved": 0, "is_disabled": 0, "fusion_lon": 0.0, "bike_id": "c430f2bd5986a5c25317ef6a219035a6", "lon": -77.02963133333333, "rental_uris": {"ios": "https://dc.lft.to/lastmile_qr_scan", "android": "https://dc.lft.to/lastmile_qr_scan"}}, {"name": "9d0b9cef1bbc7228635bbaf26df99076", "fusion_lat": 0.0, "type": "electric_scooter", "lat": 38.9074075, "is_reserved": 0, "is_disabled": 0, "fusion_lon": 0.0, "bike_id": "9d0b9cef1bbc7228635bbaf26df99076", "lon": -77.02690433333333, "rental_uris": {"ios": "https://dc.lft.to/lastmile_qr_scan", "android": "https://dc.lft.to/lastmile_qr_scan"}}, {"name": "4b203099b91455e4de0912730169db74", "fusion_lat": 0.0, "type": "electric_scooter", "lat": 38.925690333333336, "is_reserved": 0, "is_disabled": 0, "fusion_lon": 0.0, "bike_id": "4b203099b91455e4de0912730169db74", "lon": -77.02843483333334, "rental_uris": {"ios": "https://dc.lft.to/lastmile_qr_scan", "android": "https://dc.lft.to/lastmile_qr_scan"}}, {"name": "adc01157d21cbb9ed2148cfb2cdf7f8f", "fusion_lat": 0.0, "type": "electric_scooter", "lat": 38.890061833333334, "is_reserved": 0, "is_disabled": 0, "fusion_lon": 0.0, "bike_id": "adc01157d21cbb9ed2148cfb2cdf7f8f", "lon": -77.04898816666666, "rental_uris": {"ios": "https://dc.lft.to/lastmile_qr_scan", "android": "https://dc.lft.to/lastmile_qr_scan"}}, {"name": "48d4b8265045058f53dfbe828c87a606", "fusion_lat": 0.0, "type": "electric_scooter", "lat": 38.9128295, "is_reserved": 0, "is_disabled": 0, "fusion_lon": 0.0, "bike_id": "48d4b8265045058f53dfbe828c87a606", "lon": -77.04497933333333, "rental_uris": {"ios": "https://dc.lft.to/lastmile_qr_scan", "android": "https://dc.lft.to/lastmile_qr_scan"}}, {"name": "b539104189237b520acace24f5528843", "fusion_lat": 0.0, "type": "electric_scooter", "lat": 38.9156125, "is_reserved": 0, "is_disabled": 0, "fusion_lon": 0.0, "bike_id": "b539104189237b520acace24f5528843", "lon": -77.01722666666667, "rental_uris": {"ios": "https://dc.lft.to/lastmile_qr_scan", "android": "https://dc.lft.to/lastmile_qr_scan"}}, {"name": "924591c7bb45b9527ef6866f7d3a3a02", "fusion_lat": 0.0, "type": "electric_scooter", "lat": 38.92156083333333, "is_reserved": 0, "is_disabled": 0, "fusion_lon": 0.0, "bike_id": "924591c7bb45b9527ef6866f7d3a3a02", "lon": -77.04120766666666, "rental_uris": {"ios": "https://dc.lft.to/lastmile_qr_scan", "android": "https://dc.lft.to/lastmile_qr_scan"}}, {"name": "909b5b4115db2712df4ac6594f6875e9", "fusion_lat": 0.0, "type": "electric_scooter", "lat": 38.906142, "is_reserved": 0, "is_disabled": 0, "fusion_lon": 0.0, "bike_id": "909b5b4115db2712df4ac6594f6875e9", "lon": -77.04686533333333, "rental_uris": {"ios": "https://dc.lft.to/lastmile_qr_scan", "android": "https://dc.lft.to/lastmile_qr_scan"}}, {"name": "58f16332c58a6c4b07db140c1692a777", "fusion_lat": 0.0, "type": "electric_scooter", "lat": 38.984721666666665, "is_reserved": 0, "is_disabled": 0, "fusion_lon": 0.0, "bike_id": "58f16332c58a6c4b07db140c1692a777", "lon": -77.02642283333333, "rental_uris": {"ios": "https://dc.lft.to/lastmile_qr_scan", "android": "https://dc.lft.to/lastmile_qr_scan"}}, {"name": "5033e293798ec455453c8c540ee3a12d", "fusion_lat": 0.0, "type": "electric_scooter", "lat": 38.91564316666667, "is_reserved": 0, "is_disabled": 0, "fusion_lon": 0.0, "bike_id": "5033e293798ec455453c8c540ee3a12d", "lon": -77.029451, "rental_uris": {"ios": "https://dc.lft.to/lastmile_qr_scan", "android": "https://dc.lft.to/lastmile_qr_scan"}}, {"name": "744d985e41280411386646abf0b0f4b7", "fusion_lat": 0.0, "type": "electric_scooter", "lat": 38.91292633333333, "is_reserved": 0, "is_disabled": 0, "fusion_lon": 0.0, "bike_id": "744d985e41280411386646abf0b0f4b7", "lon": -77.06163933333333, "rental_uris": {"ios": "https://dc.lft.to/lastmile_qr_scan", "android": "https://dc.lft.to/lastmile_qr_scan"}}, {"name": "babd875397fd6cf85fba421205ef572f", "fusion_lat": 0.0, "type": "electric_scooter", "lat": 38.942924833333336, "is_reserved": 0, "is_disabled": 0, "fusion_lon": 0.0, "bike_id": "babd875397fd6cf85fba421205ef572f", "lon": -77.021714, "rental_uris": {"ios": "https://dc.lft.to/lastmile_qr_scan", "android": "https://dc.lft.to/lastmile_qr_scan"}}, {"name": "f567e1a6e4c55213f7699c50ef8da1fa", "fusion_lat": 0.0, "type": "electric_bike", "lat": 38.892177833333335, "is_reserved": 0, "is_disabled": 0, "fusion_lon": 0.0, "bike_id": "f567e1a6e4c55213f7699c50ef8da1fa", "lon": -77.10781883333334, "rental_uris": {"ios": "https://dc.lft.to/lastmile_qr_scan", "android": "https://dc.lft.to/lastmile_qr_scan"}}, {"name": "72f0eb83b3c1a2dae21babd4e0fe5bc8", "fusion_lat": 0.0, "type": "electric_scooter", "lat": 38.90945816666667, "is_reserved": 0, "is_disabled": 0, "fusion_lon": 0.0, "bike_id": "72f0eb83b3c1a2dae21babd4e0fe5bc8", "lon": -77.02691833333333, "rental_uris": {"ios": "https://dc.lft.to/lastmile_qr_scan", "android": "https://dc.lft.to/lastmile_qr_scan"}}, {"name": "81f151f9fbd7683c21f956cb5e6c79b3", "fusion_lat": 0.0, "type": "electric_scooter", "lat": 38.86691883333334, "is_reserved": 0, "is_disabled": 0, "fusion_lon": 0.0, "bike_id": "81f151f9fbd7683c21f956cb5e6c79b3", "lon": -76.98907016666666, "rental_uris": {"ios": "https://dc.lft.to/lastmile_qr_scan", "android": "https://dc.lft.to/lastmile_qr_scan"}}, {"name": "978a4dfc722127071dcd5f1de774de46", "fusion_lat": 0.0, "type": "electric_scooter", "lat": 38.90279433333333, "is_reserved": 0, "is_disabled": 0, "fusion_lon": 0.0, "bike_id": "978a4dfc722127071dcd5f1de774de46", "lon": -77.03473816666667, "rental_uris": {"ios": "https://dc.lft.to/lastmile_qr_scan", "android": "https://dc.lft.to/lastmile_qr_scan"}}, {"name": "e0b147b02e7f7b77b93735bcb06edc35", "fusion_lat": 0.0, "type": "electric_bike", "lat": 38.952861166666665, "is_reserved": 0, "is_disabled": 0, "fusion_lon": 0.0, "bike_id": "e0b147b02e7f7b77b93735bcb06edc35", "lon": -77.06976, "rental_uris": {"ios": "https://dc.lft.to/lastmile_qr_scan", "android": "https://dc.lft.to/lastmile_qr_scan"}}, {"name": "933be81a4a85a9b190c3df3e277dfed5", "fusion_lat": 0.0, "type": "electric_scooter", "lat": 38.92189966666667, "is_reserved": 0, "is_disabled": 0, "fusion_lon": 0.0, "bike_id": "933be81a4a85a9b190c3df3e277dfed5", "lon": -77.04011983333334, "rental_uris": {"ios": "https://dc.lft.to/lastmile_qr_scan", "android": "https://dc.lft.to/lastmile_qr_scan"}}, {"name": "1c08e1ec6b8e0b12f5dad3eab10be6bd", "fusion_lat": 0.0, "type": "electric_scooter", "lat": 38.8838125, "is_reserved": 0, "is_disabled": 0, "fusion_lon": 0.0, "bike_id": "1c08e1ec6b8e0b12f5dad3eab10be6bd", "lon": -77.026239, "rental_uris": {"ios": "https://dc.lft.to/lastmile_qr_scan", "android": "https://dc.lft.to/lastmile_qr_scan"}}, {"name": "a05ee800a0efe98e8242fe2bd1d85fcb", "fusion_lat": 0.0, "type": "electric_scooter", "lat": 38.891907, "is_reserved": 0, "is_disabled": 0, "fusion_lon": 0.0, "bike_id": "a05ee800a0efe98e8242fe2bd1d85fcb", "lon": -77.01582966666666, "rental_uris": {"ios": "https://dc.lft.to/lastmile_qr_scan", "android": "https://dc.lft.to/lastmile_qr_scan"}}, {"name": "11ead3a2b019170aa8a36d9d764825e6", "fusion_lat": 0.0, "type": "electric_scooter", "lat": 38.910699666666666, "is_reserved": 0, "is_disabled": 0, "fusion_lon": 0.0, "bike_id": "11ead3a2b019170aa8a36d9d764825e6", "lon": -77.06718083333334, "rental_uris": {"ios": "https://dc.lft.to/lastmile_qr_scan", "android": "https://dc.lft.to/lastmile_qr_scan"}}, {"name": "bfaa015d54e44f9ab4489945597b95a2", "fusion_lat": 0.0, "type": "electric_scooter", "lat": 38.923898333333334, "is_reserved": 0, "is_disabled": 0, "fusion_lon": 0.0, "bike_id": "bfaa015d54e44f9ab4489945597b95a2", "lon": -77.0297905, "rental_uris": {"ios": "https://dc.lft.to/lastmile_qr_scan", "android": "https://dc.lft.to/lastmile_qr_scan"}}, {"name": "a498f0c7ecb350dac822039f4c467ff3", "fusion_lat": 0.0, "type": "electric_scooter", "lat": 38.909651, "is_reserved": 0, "is_disabled": 0, "fusion_lon": 0.0, "bike_id": "a498f0c7ecb350dac822039f4c467ff3", "lon": -77.03883083333334, "rental_uris": {"ios": "https://dc.lft.to/lastmile_qr_scan", "android": "https://dc.lft.to/lastmile_qr_scan"}}, {"name": "09d1c7eb31444ffb45f5dbf4d42f1df2", "fusion_lat": 0.0, "type": "electric_scooter", "lat": 38.873002, "is_reserved": 0, "is_disabled": 0, "fusion_lon": 0.0, "bike_id": "09d1c7eb31444ffb45f5dbf4d42f1df2", "lon": -77.00985283333333, "rental_uris": {"ios": "https://dc.lft.to/lastmile_qr_scan", "android": "https://dc.lft.to/lastmile_qr_scan"}}, {"name": "2d92bac30220711fbc91bcacdaa938ec", "fusion_lat": 0.0, "type": "electric_scooter", "lat": 38.907978, "is_reserved": 0, "is_disabled": 0, "fusion_lon": 0.0, "bike_id": "2d92bac30220711fbc91bcacdaa938ec", "lon": -77.01815316666666, "rental_uris": {"ios": "https://dc.lft.to/lastmile_qr_scan", "android": "https://dc.lft.to/lastmile_qr_scan"}}, {"name": "22a21e9a92060e7a0d3c785117c3458c", "fusion_lat": 0.0, "type": "electric_bike", "lat": 38.89346283333333, "is_reserved": 0, "is_disabled": 0, "fusion_lon": 0.0, "bike_id": "22a21e9a92060e7a0d3c785117c3458c", "lon": -76.99135516666666, "rental_uris": {"ios": "https://dc.lft.to/lastmile_qr_scan", "android": "https://dc.lft.to/lastmile_qr_scan"}}, {"name": "a3ab365b5cdd37b5382deb4b3d23878a", "fusion_lat": 0.0, "type": "electric_scooter", "lat": 38.92823833333333, "is_reserved": 0, "is_disabled": 0, "fusion_lon": 0.0, "bike_id": "a3ab365b5cdd37b5382deb4b3d23878a", "lon": -77.02255033333333, "rental_uris": {"ios": "https://dc.lft.to/lastmile_qr_scan", "android": "https://dc.lft.to/lastmile_qr_scan"}}, {"name": "3e165b3faec3d2b84ec7d68a2c87df65", "fusion_lat": 0.0, "type": "electric_scooter", "lat": 38.875742833333334, "is_reserved": 0, "is_disabled": 0, "fusion_lon": 0.0, "bike_id": "3e165b3faec3d2b84ec7d68a2c87df65", "lon": -77.01060116666666, "rental_uris": {"ios": "https://dc.lft.to/lastmile_qr_scan", "android": "https://dc.lft.to/lastmile_qr_scan"}}, {"name": "24c8657b4a0b1dde9d6721963c21ba48", "fusion_lat": 0.0, "type": "electric_scooter", "lat": 38.91290766666667, "is_reserved": 0, "is_disabled": 0, "fusion_lon": 0.0, "bike_id": "24c8657b4a0b1dde9d6721963c21ba48", "lon": -76.93748133333334, "rental_uris": {"ios": "https://dc.lft.to/lastmile_qr_scan", "android": "https://dc.lft.to/lastmile_qr_scan"}}, {"name": "6b1e2c1821e99b92128bd9e095e4ae88", "fusion_lat": 0.0, "type": "electric_scooter", "lat": 38.92961316666667, "is_reserved": 0, "is_disabled": 0, "fusion_lon": 0.0, "bike_id": "6b1e2c1821e99b92128bd9e095e4ae88", "lon": -77.04111066666667, "rental_uris": {"ios": "https://dc.lft.to/lastmile_qr_scan", "android": "https://dc.lft.to/lastmile_qr_scan"}}, {"name": "7741032e82d75c93877861573127c82e", "fusion_lat": 0.0, "type": "electric_scooter", "lat": 38.91405866666667, "is_reserved": 0, "is_disabled": 0, "fusion_lon": 0.0, "bike_id": "7741032e82d75c93877861573127c82e", "lon": -77.039538, "rental_uris": {"ios": "https://dc.lft.to/lastmile_qr_scan", "android": "https://dc.lft.to/lastmile_qr_scan"}}, {"name": "95153eb33a226cb8832e01b7b903ac48", "fusion_lat": 0.0, "type": "electric_scooter", "lat": 38.917711, "is_reserved": 0, "is_disabled": 0, "fusion_lon": 0.0, "bike_id": "95153eb33a226cb8832e01b7b903ac48", "lon": -77.09671083333333, "rental_uris": {"ios": "https://dc.lft.to/lastmile_qr_scan", "android": "https://dc.lft.to/lastmile_qr_scan"}}, {"name": "6a1d42d33789a04c3f7c53fabd4acc38", "fusion_lat": 0.0, "type": "electric_scooter", "lat": 38.9199455, "is_reserved": 0, "is_disabled": 0, "fusion_lon": 0.0, "bike_id": "6a1d42d33789a04c3f7c53fabd4acc38", "lon": -77.02376833333334, "rental_uris": {"ios": "https://dc.lft.to/lastmile_qr_scan", "android": "https://dc.lft.to/lastmile_qr_scan"}}, {"name": "e0cfa76490c9301fec3d9da97d55aabd", "fusion_lat": 0.0, "type": "electric_scooter", "lat": 38.8665775, "is_reserved": 0, "is_disabled": 0, "fusion_lon": 0.0, "bike_id": "e0cfa76490c9301fec3d9da97d55aabd", "lon": -76.98882766666667, "rental_uris": {"ios": "https://dc.lft.to/lastmile_qr_scan", "android": "https://dc.lft.to/lastmile_qr_scan"}}, {"name": "f4f30dd6c0ee4461be0427d56c5b211d", "fusion_lat": 0.0, "type": "electric_scooter", "lat": 38.8962515, "is_reserved": 0, "is_disabled": 0, "fusion_lon": 0.0, "bike_id": "f4f30dd6c0ee4461be0427d56c5b211d", "lon": -77.04462283333334, "rental_uris": {"ios": "https://dc.lft.to/lastmile_qr_scan", "android": "https://dc.lft.to/lastmile_qr_scan"}}, {"name": "8cb63e24815661eff802a5773b709abe", "fusion_lat": 0.0, "type": "electric_scooter", "lat": 38.91111816666667, "is_reserved": 0, "is_disabled": 0, "fusion_lon": 0.0, "bike_id": "8cb63e24815661eff802a5773b709abe", "lon": -77.0246435, "rental_uris": {"ios": "https://dc.lft.to/lastmile_qr_scan", "android": "https://dc.lft.to/lastmile_qr_scan"}}, {"name": "83ab200926e1c18d9eca5b7d1512c59d", "fusion_lat": 0.0, "type": "electric_scooter", "lat": 38.902570833333336, "is_reserved": 0, "is_disabled": 0, "fusion_lon": 0.0, "bike_id": "83ab200926e1c18d9eca5b7d1512c59d", "lon": -76.97705516666667, "rental_uris": {"ios": "https://dc.lft.to/lastmile_qr_scan", "android": "https://dc.lft.to/lastmile_qr_scan"}}, {"name": "7a160b0aa4e3e3a2629df5a311b89359", "fusion_lat": 0.0, "type": "electric_scooter", "lat": 38.9114485, "is_reserved": 0, "is_disabled": 0, "fusion_lon": 0.0, "bike_id": "7a160b0aa4e3e3a2629df5a311b89359", "lon": -77.01682283333334, "rental_uris": {"ios": "https://dc.lft.to/lastmile_qr_scan", "android": "https://dc.lft.to/lastmile_qr_scan"}}, {"name": "2241f554843f452b1cc810745610f2f7", "fusion_lat": 0.0, "type": "electric_scooter", "lat": 38.92113166666667, "is_reserved": 0, "is_disabled": 0, "fusion_lon": 0.0, "bike_id": "2241f554843f452b1cc810745610f2f7", "lon": -77.04388683333333, "rental_uris": {"ios": "https://dc.lft.to/lastmile_qr_scan", "android": "https://dc.lft.to/lastmile_qr_scan"}}, {"name": "37d0d8712a892bcb58d7598b7e031f30", "fusion_lat": 0.0, "type": "electric_scooter", "lat": 38.928855666666664, "is_reserved": 0, "is_disabled": 0, "fusion_lon": 0.0, "bike_id": "37d0d8712a892bcb58d7598b7e031f30", "lon": -77.02311866666666, "rental_uris": {"ios": "https://dc.lft.to/lastmile_qr_scan", "android": "https://dc.lft.to/lastmile_qr_scan"}}, {"name": "dbeeffaa66cbd0ff2449237055e84eed", "fusion_lat": 0.0, "type": "electric_scooter", "lat": 38.898378, "is_reserved": 0, "is_disabled": 0, "fusion_lon": 0.0, "bike_id": "dbeeffaa66cbd0ff2449237055e84eed", "lon": -77.03316533333333, "rental_uris": {"ios": "https://dc.lft.to/lastmile_qr_scan", "android": "https://dc.lft.to/lastmile_qr_scan"}}, {"name": "5017715339f805ab41fcddd33b69e084", "fusion_lat": 0.0, "type": "electric_scooter", "lat": 38.8988935, "is_reserved": 0, "is_disabled": 0, "fusion_lon": 0.0, "bike_id": "5017715339f805ab41fcddd33b69e084", "lon": -77.0217205, "rental_uris": {"ios": "https://dc.lft.to/lastmile_qr_scan", "android": "https://dc.lft.to/lastmile_qr_scan"}}, {"name": "368eb4c46ff30d4a465c1d2c2dbd36df", "fusion_lat": 0.0, "type": "electric_scooter", "lat": 38.905410333333336, "is_reserved": 0, "is_disabled": 0, "fusion_lon": 0.0, "bike_id": "368eb4c46ff30d4a465c1d2c2dbd36df", "lon": -77.04737666666666, "rental_uris": {"ios": "https://dc.lft.to/lastmile_qr_scan", "android": "https://dc.lft.to/lastmile_qr_scan"}}, {"name": "c43aeedd17ab0077bc9f6945e01ea279", "fusion_lat": 0.0, "type": "electric_scooter", "lat": 38.935015, "is_reserved": 0, "is_disabled": 0, "fusion_lon": 0.0, "bike_id": "c43aeedd17ab0077bc9f6945e01ea279", "lon": -77.02537516666666, "rental_uris": {"ios": "https://dc.lft.to/lastmile_qr_scan", "android": "https://dc.lft.to/lastmile_qr_scan"}}, {"name": "f687c0a08f9084c205afcb09ce88fda1", "fusion_lat": 0.0, "type": "electric_scooter", "lat": 38.88917166666667, "is_reserved": 0, "is_disabled": 0, "fusion_lon": 0.0, "bike_id": "f687c0a08f9084c205afcb09ce88fda1", "lon": -76.95375166666666, "rental_uris": {"ios": "https://dc.lft.to/lastmile_qr_scan", "android": "https://dc.lft.to/lastmile_qr_scan"}}, {"name": "2620d852212e4e34a985dc436ded685c", "fusion_lat": 0.0, "type": "electric_scooter", "lat": 38.912498666666664, "is_reserved": 0, "is_disabled": 0, "fusion_lon": 0.0, "bike_id": "2620d852212e4e34a985dc436ded685c", "lon": -77.03207433333333, "rental_uris": {"ios": "https://dc.lft.to/lastmile_qr_scan", "android": "https://dc.lft.to/lastmile_qr_scan"}}, {"name": "a5062022c839761a1d4f9fee66ae038f", "fusion_lat": 0.0, "type": "electric_scooter", "lat": 38.888255, "is_reserved": 0, "is_disabled": 0, "fusion_lon": 0.0, "bike_id": "a5062022c839761a1d4f9fee66ae038f", "lon": -77.049403, "rental_uris": {"ios": "https://dc.lft.to/lastmile_qr_scan", "android": "https://dc.lft.to/lastmile_qr_scan"}}, {"name": "76fd2c914d5d52d60bad7e1f9f220475", "fusion_lat": 0.0, "type": "electric_scooter", "lat": 38.917092333333336, "is_reserved": 0, "is_disabled": 0, "fusion_lon": 0.0, "bike_id": "76fd2c914d5d52d60bad7e1f9f220475", "lon": -77.03772483333333, "rental_uris": {"ios": "https://dc.lft.to/lastmile_qr_scan", "android": "https://dc.lft.to/lastmile_qr_scan"}}, {"name": "e706dd2c812da796ef9c5cfffe94cdcb", "fusion_lat": 0.0, "type": "electric_scooter", "lat": 38.9106985, "is_reserved": 0, "is_disabled": 0, "fusion_lon": 0.0, "bike_id": "e706dd2c812da796ef9c5cfffe94cdcb", "lon": -77.00852766666667, "rental_uris": {"ios": "https://dc.lft.to/lastmile_qr_scan", "android": "https://dc.lft.to/lastmile_qr_scan"}}, {"name": "00e04c21c8f5141abe20722322062f0b", "fusion_lat": 0.0, "type": "electric_bike", "lat": 38.91549283333333, "is_reserved": 0, "is_disabled": 0, "fusion_lon": 0.0, "bike_id": "00e04c21c8f5141abe20722322062f0b", "lon": -77.06755683333333, "rental_uris": {"ios": "https://dc.lft.to/lastmile_qr_scan", "android": "https://dc.lft.to/lastmile_qr_scan"}}, {"name": "328035713325ed4ff4ab4caac05da41e", "fusion_lat": 0.0, "type": "electric_scooter", "lat": 38.92012233333333, "is_reserved": 0, "is_disabled": 0, "fusion_lon": 0.0, "bike_id": "328035713325ed4ff4ab4caac05da41e", "lon": -77.03117833333333, "rental_uris": {"ios": "https://dc.lft.to/lastmile_qr_scan", "android": "https://dc.lft.to/lastmile_qr_scan"}}, {"name": "9992218522452e974108ca57ee693283", "fusion_lat": 0.0, "type": "electric_scooter", "lat": 38.926279666666666, "is_reserved": 0, "is_disabled": 0, "fusion_lon": 0.0, "bike_id": "9992218522452e974108ca57ee693283", "lon": -77.03785533333334, "rental_uris": {"ios": "https://dc.lft.to/lastmile_qr_scan", "android": "https://dc.lft.to/lastmile_qr_scan"}}, {"name": "5685f0397f2c8691deb81772d21601d4", "fusion_lat": 0.0, "type": "electric_scooter", "lat": 38.892438166666665, "is_reserved": 0, "is_disabled": 0, "fusion_lon": 0.0, "bike_id": "5685f0397f2c8691deb81772d21601d4", "lon": -77.01515983333333, "rental_uris": {"ios": "https://dc.lft.to/lastmile_qr_scan", "android": "https://dc.lft.to/lastmile_qr_scan"}}, {"name": "fa2dc79b99ac74958695e252d7ccba0e", "fusion_lat": 0.0, "type": "electric_bike", "lat": 38.863779, "is_reserved": 0, "is_disabled": 0, "fusion_lon": 0.0, "bike_id": "fa2dc79b99ac74958695e252d7ccba0e", "lon": -77.12899333333333, "rental_uris": {"ios": "https://dc.lft.to/lastmile_qr_scan", "android": "https://dc.lft.to/lastmile_qr_scan"}}, {"name": "c2247fe492482771e9920f3fbda85cca", "fusion_lat": 0.0, "type": "electric_scooter", "lat": 38.899604833333335, "is_reserved": 0, "is_disabled": 0, "fusion_lon": 0.0, "bike_id": "c2247fe492482771e9920f3fbda85cca", "lon": -77.01610116666667, "rental_uris": {"ios": "https://dc.lft.to/lastmile_qr_scan", "android": "https://dc.lft.to/lastmile_qr_scan"}}, {"name": "2b94318d163cc0697bb46d3a657ac7ed", "fusion_lat": 0.0, "type": "electric_bike", "lat": 38.970911666666666, "is_reserved": 0, "is_disabled": 0, "fusion_lon": 0.0, "bike_id": "2b94318d163cc0697bb46d3a657ac7ed", "lon": -77.06969, "rental_uris": {"ios": "https://dc.lft.to/lastmile_qr_scan", "android": "https://dc.lft.to/lastmile_qr_scan"}}, {"name": "15131d41536451a60828bfb5f97456e4", "fusion_lat": 0.0, "type": "electric_scooter", "lat": 38.909316, "is_reserved": 0, "is_disabled": 0, "fusion_lon": 0.0, "bike_id": "15131d41536451a60828bfb5f97456e4", "lon": -77.03862283333333, "rental_uris": {"ios": "https://dc.lft.to/lastmile_qr_scan", "android": "https://dc.lft.to/lastmile_qr_scan"}}, {"name": "f07245dbbee3a39cf37d21a59990c9b9", "fusion_lat": 0.0, "type": "electric_bike", "lat": 39.033466, "is_reserved": 0, "is_disabled": 0, "fusion_lon": 0.0, "bike_id": "f07245dbbee3a39cf37d21a59990c9b9", "lon": -77.0491235, "rental_uris": {"ios": "https://dc.lft.to/lastmile_qr_scan", "android": "https://dc.lft.to/lastmile_qr_scan"}}, {"name": "23ad3cef1b2db8d2c1049e27a13dfa99", "fusion_lat": 0.0, "type": "electric_scooter", "lat": 38.901848333333334, "is_reserved": 0, "is_disabled": 0, "fusion_lon": 0.0, "bike_id": "23ad3cef1b2db8d2c1049e27a13dfa99", "lon": -77.02174233333334, "rental_uris": {"ios": "https://dc.lft.to/lastmile_qr_scan", "android": "https://dc.lft.to/lastmile_qr_scan"}}, {"name": "21949a1bff8c64ff98cf2b7ed2f63777", "fusion_lat": 0.0, "type": "electric_scooter", "lat": 38.901606, "is_reserved": 0, "is_disabled": 0, "fusion_lon": 0.0, "bike_id": "21949a1bff8c64ff98cf2b7ed2f63777", "lon": -77.0539655, "rental_uris": {"ios": "https://dc.lft.to/lastmile_qr_scan", "android": "https://dc.lft.to/lastmile_qr_scan"}}, {"name": "34c8b5153a6846ca1da5f6e746184681", "fusion_lat": 0.0, "type": "electric_scooter", "lat": 38.93891983333333, "is_reserved": 0, "is_disabled": 0, "fusion_lon": 0.0, "bike_id": "34c8b5153a6846ca1da5f6e746184681", "lon": -77.03263383333334, "rental_uris": {"ios": "https://dc.lft.to/lastmile_qr_scan", "android": "https://dc.lft.to/lastmile_qr_scan"}}, {"name": "64edd6ae28cf13cc0a0c818767a3ba45", "fusion_lat": 0.0, "type": "electric_scooter", "lat": 38.9054385, "is_reserved": 0, "is_disabled": 0, "fusion_lon": 0.0, "bike_id": "64edd6ae28cf13cc0a0c818767a3ba45", "lon": -77.062604, "rental_uris": {"ios": "https://dc.lft.to/lastmile_qr_scan", "android": "https://dc.lft.to/lastmile_qr_scan"}}, {"name": "352757080a492839f3c052a1600c9648", "fusion_lat": 0.0, "type": "electric_scooter", "lat": 38.93895666666667, "is_reserved": 0, "is_disabled": 0, "fusion_lon": 0.0, "bike_id": "352757080a492839f3c052a1600c9648", "lon": -77.06044733333333, "rental_uris": {"ios": "https://dc.lft.to/lastmile_qr_scan", "android": "https://dc.lft.to/lastmile_qr_scan"}}, {"name": "aabda864a3b8a07916c676b8860a723b", "fusion_lat": 0.0, "type": "electric_scooter", "lat": 38.91804283333333, "is_reserved": 0, "is_disabled": 0, "fusion_lon": 0.0, "bike_id": "aabda864a3b8a07916c676b8860a723b", "lon": -77.0101775, "rental_uris": {"ios": "https://dc.lft.to/lastmile_qr_scan", "android": "https://dc.lft.to/lastmile_qr_scan"}}, {"name": "1f1f50e5f4d30e65e5f866caa0688e91", "fusion_lat": 0.0, "type": "electric_scooter", "lat": 38.88367733333333, "is_reserved": 0, "is_disabled": 0, "fusion_lon": 0.0, "bike_id": "1f1f50e5f4d30e65e5f866caa0688e91", "lon": -77.03176133333334, "rental_uris": {"ios": "https://dc.lft.to/lastmile_qr_scan", "android": "https://dc.lft.to/lastmile_qr_scan"}}, {"name": "95ba64b08891015d55c6cabe25a903f7", "fusion_lat": 0.0, "type": "electric_scooter", "lat": 38.91676233333333, "is_reserved": 0, "is_disabled": 0, "fusion_lon": 0.0, "bike_id": "95ba64b08891015d55c6cabe25a903f7", "lon": -77.0298005, "rental_uris": {"ios": "https://dc.lft.to/lastmile_qr_scan", "android": "https://dc.lft.to/lastmile_qr_scan"}}, {"name": "c56abc79378e013b653142ed4d608731", "fusion_lat": 0.0, "type": "electric_scooter", "lat": 38.91260333333334, "is_reserved": 0, "is_disabled": 0, "fusion_lon": 0.0, "bike_id": "c56abc79378e013b653142ed4d608731", "lon": -77.00955216666667, "rental_uris": {"ios": "https://dc.lft.to/lastmile_qr_scan", "android": "https://dc.lft.to/lastmile_qr_scan"}}, {"name": "251eef1c5f9691087f63b989e8defcba", "fusion_lat": 0.0, "type": "electric_scooter", "lat": 38.936393833333334, "is_reserved": 0, "is_disabled": 0, "fusion_lon": 0.0, "bike_id": "251eef1c5f9691087f63b989e8defcba", "lon": -77.0365925, "rental_uris": {"ios": "https://dc.lft.to/lastmile_qr_scan", "android": "https://dc.lft.to/lastmile_qr_scan"}}, {"name": "9b6337f4a60400f6c7e4456389035521", "fusion_lat": 0.0, "type": "electric_bike", "lat": 38.966275, "is_reserved": 0, "is_disabled": 0, "fusion_lon": 0.0, "bike_id": "9b6337f4a60400f6c7e4456389035521", "lon": -76.976715, "rental_uris": {"ios": "https://dc.lft.to/lastmile_qr_scan", "android": "https://dc.lft.to/lastmile_qr_scan"}}, {"name": "4670cdf211ec3405aa4e5f5657730767", "fusion_lat": 0.0, "type": "electric_scooter", "lat": 38.9197975, "is_reserved": 0, "is_disabled": 0, "fusion_lon": 0.0, "bike_id": "4670cdf211ec3405aa4e5f5657730767", "lon": -77.03970016666666, "rental_uris": {"ios": "https://dc.lft.to/lastmile_qr_scan", "android": "https://dc.lft.to/lastmile_qr_scan"}}, {"name": "f4c0d20e5994cad0b5e7aa85fbd724cf", "fusion_lat": 0.0, "type": "electric_scooter", "lat": 38.920200333333334, "is_reserved": 0, "is_disabled": 0, "fusion_lon": 0.0, "bike_id": "f4c0d20e5994cad0b5e7aa85fbd724cf", "lon": -77.014125, "rental_uris": {"ios": "https://dc.lft.to/lastmile_qr_scan", "android": "https://dc.lft.to/lastmile_qr_scan"}}, {"name": "0f957eb29c8e654bdab8f4d342f9cc76", "fusion_lat": 0.0, "type": "electric_scooter", "lat": 38.9004025, "is_reserved": 0, "is_disabled": 0, "fusion_lon": 0.0, "bike_id": "0f957eb29c8e654bdab8f4d342f9cc76", "lon": -77.03251466666667, "rental_uris": {"ios": "https://dc.lft.to/lastmile_qr_scan", "android": "https://dc.lft.to/lastmile_qr_scan"}}, {"name": "e37c3b4cae43f40140a08e775d602005", "fusion_lat": 0.0, "type": "electric_scooter", "lat": 38.900466, "is_reserved": 0, "is_disabled": 0, "fusion_lon": 0.0, "bike_id": "e37c3b4cae43f40140a08e775d602005", "lon": -77.02975416666666, "rental_uris": {"ios": "https://dc.lft.to/lastmile_qr_scan", "android": "https://dc.lft.to/lastmile_qr_scan"}}, {"name": "f3fb344caf346db3d37e4c14b375f3a6", "fusion_lat": 0.0, "type": "electric_scooter", "lat": 38.93466383333333, "is_reserved": 0, "is_disabled": 0, "fusion_lon": 0.0, "bike_id": "f3fb344caf346db3d37e4c14b375f3a6", "lon": -77.0326365, "rental_uris": {"ios": "https://dc.lft.to/lastmile_qr_scan", "android": "https://dc.lft.to/lastmile_qr_scan"}}, {"name": "21898a67a210c998ce5ca6d1da2b867c", "fusion_lat": 0.0, "type": "electric_bike", "lat": 38.94274383333333, "is_reserved": 0, "is_disabled": 0, "fusion_lon": 0.0, "bike_id": "21898a67a210c998ce5ca6d1da2b867c", "lon": -76.98071883333333, "rental_uris": {"ios": "https://dc.lft.to/lastmile_qr_scan", "android": "https://dc.lft.to/lastmile_qr_scan"}}, {"name": "70d9871a81a285456191d806d3e0e702", "fusion_lat": 0.0, "type": "electric_scooter", "lat": 38.88602816666667, "is_reserved": 0, "is_disabled": 0, "fusion_lon": 0.0, "bike_id": "70d9871a81a285456191d806d3e0e702", "lon": -77.019688, "rental_uris": {"ios": "https://dc.lft.to/lastmile_qr_scan", "android": "https://dc.lft.to/lastmile_qr_scan"}}, {"name": "ad170c640fa442767b9af559f4226e86", "fusion_lat": 0.0, "type": "electric_scooter", "lat": 38.90267516666667, "is_reserved": 0, "is_disabled": 0, "fusion_lon": 0.0, "bike_id": "ad170c640fa442767b9af559f4226e86", "lon": -77.01542416666666, "rental_uris": {"ios": "https://dc.lft.to/lastmile_qr_scan", "android": "https://dc.lft.to/lastmile_qr_scan"}}, {"name": "0d7c65b19605ba94c15deb2cf48dd696", "fusion_lat": 0.0, "type": "electric_scooter", "lat": 38.9422965, "is_reserved": 0, "is_disabled": 0, "fusion_lon": 0.0, "bike_id": "0d7c65b19605ba94c15deb2cf48dd696", "lon": -77.0216195, "rental_uris": {"ios": "https://dc.lft.to/lastmile_qr_scan", "android": "https://dc.lft.to/lastmile_qr_scan"}}, {"name": "7d9e7864bae1f9c939b6525cf8d2b821", "fusion_lat": 0.0, "type": "electric_bike", "lat": 38.87477716666667, "is_reserved": 0, "is_disabled": 0, "fusion_lon": 0.0, "bike_id": "7d9e7864bae1f9c939b6525cf8d2b821", "lon": -76.965354, "rental_uris": {"ios": "https://dc.lft.to/lastmile_qr_scan", "android": "https://dc.lft.to/lastmile_qr_scan"}}, {"name": "5515316c47c3faa3928423e019a6f9c9", "fusion_lat": 0.0, "type": "electric_scooter", "lat": 38.921799, "is_reserved": 0, "is_disabled": 0, "fusion_lon": 0.0, "bike_id": "5515316c47c3faa3928423e019a6f9c9", "lon": -77.02662533333333, "rental_uris": {"ios": "https://dc.lft.to/lastmile_qr_scan", "android": "https://dc.lft.to/lastmile_qr_scan"}}, {"name": "af8e8e8b30cbed6829f9a70a90313579", "fusion_lat": 0.0, "type": "electric_scooter", "lat": 38.931510833333334, "is_reserved": 0, "is_disabled": 0, "fusion_lon": 0.0, "bike_id": "af8e8e8b30cbed6829f9a70a90313579", "lon": -77.038787, "rental_uris": {"ios": "https://dc.lft.to/lastmile_qr_scan", "android": "https://dc.lft.to/lastmile_qr_scan"}}, {"name": "28dffa0eef15aa8021ce9063c03ca600", "fusion_lat": 0.0, "type": "electric_scooter", "lat": 38.917845666666665, "is_reserved": 0, "is_disabled": 0, "fusion_lon": 0.0, "bike_id": "28dffa0eef15aa8021ce9063c03ca600", "lon": -77.02343583333334, "rental_uris": {"ios": "https://dc.lft.to/lastmile_qr_scan", "android": "https://dc.lft.to/lastmile_qr_scan"}}, {"name": "8dc55941caa7b420a10257f956e17827", "fusion_lat": 0.0, "type": "electric_scooter", "lat": 38.89222183333333, "is_reserved": 0, "is_disabled": 0, "fusion_lon": 0.0, "bike_id": "8dc55941caa7b420a10257f956e17827", "lon": -77.02229933333334, "rental_uris": {"ios": "https://dc.lft.to/lastmile_qr_scan", "android": "https://dc.lft.to/lastmile_qr_scan"}}, {"name": "d780c5ed65b344977a68d7fb832ea3f5", "fusion_lat": 0.0, "type": "electric_scooter", "lat": 38.88398866666667, "is_reserved": 0, "is_disabled": 0, "fusion_lon": 0.0, "bike_id": "d780c5ed65b344977a68d7fb832ea3f5", "lon": -77.02632883333334, "rental_uris": {"ios": "https://dc.lft.to/lastmile_qr_scan", "android": "https://dc.lft.to/lastmile_qr_scan"}}, {"name": "0ad6c23056337b3aafdf4ba78667b87a", "fusion_lat": 0.0, "type": "electric_scooter", "lat": 38.8758395, "is_reserved": 0, "is_disabled": 0, "fusion_lon": 0.0, "bike_id": "0ad6c23056337b3aafdf4ba78667b87a", "lon": -77.0106265, "rental_uris": {"ios": "https://dc.lft.to/lastmile_qr_scan", "android": "https://dc.lft.to/lastmile_qr_scan"}}, {"name": "9fbf3099881dbbb34370fcd3ff52091e", "fusion_lat": 0.0, "type": "electric_scooter", "lat": 38.918034666666664, "is_reserved": 0, "is_disabled": 0, "fusion_lon": 0.0, "bike_id": "9fbf3099881dbbb34370fcd3ff52091e", "lon": -77.0281925, "rental_uris": {"ios": "https://dc.lft.to/lastmile_qr_scan", "android": "https://dc.lft.to/lastmile_qr_scan"}}, {"name": "72229ff1217a82d0b75ce9133bc3474c", "fusion_lat": 0.0, "type": "electric_scooter", "lat": 38.907008833333336, "is_reserved": 0, "is_disabled": 0, "fusion_lon": 0.0, "bike_id": "72229ff1217a82d0b75ce9133bc3474c", "lon": -77.023824, "rental_uris": {"ios": "https://dc.lft.to/lastmile_qr_scan", "android": "https://dc.lft.to/lastmile_qr_scan"}}, {"name": "1551920f90d88d165330c18fba702a9e", "fusion_lat": 0.0, "type": "electric_scooter", "lat": 38.920639, "is_reserved": 0, "is_disabled": 0, "fusion_lon": 0.0, "bike_id": "1551920f90d88d165330c18fba702a9e", "lon": -77.04249933333334, "rental_uris": {"ios": "https://dc.lft.to/lastmile_qr_scan", "android": "https://dc.lft.to/lastmile_qr_scan"}}, {"name": "fbc5020084be17f2ac70065cb77e9658", "fusion_lat": 0.0, "type": "electric_scooter", "lat": 38.907202833333336, "is_reserved": 0, "is_disabled": 0, "fusion_lon": 0.0, "bike_id": "fbc5020084be17f2ac70065cb77e9658", "lon": -77.0344205, "rental_uris": {"ios": "https://dc.lft.to/lastmile_qr_scan", "android": "https://dc.lft.to/lastmile_qr_scan"}}, {"name": "f0b0c741ef2e75acf67354a047f756ac", "fusion_lat": 0.0, "type": "electric_scooter", "lat": 38.927482166666664, "is_reserved": 0, "is_disabled": 0, "fusion_lon": 0.0, "bike_id": "f0b0c741ef2e75acf67354a047f756ac", "lon": -77.03473833333334, "rental_uris": {"ios": "https://dc.lft.to/lastmile_qr_scan", "android": "https://dc.lft.to/lastmile_qr_scan"}}, {"name": "e2e8cb3091123353dce25758f542019e", "fusion_lat": 0.0, "type": "electric_bike", "lat": 38.80754833333334, "is_reserved": 0, "is_disabled": 0, "fusion_lon": 0.0, "bike_id": "e2e8cb3091123353dce25758f542019e", "lon": -77.09452616666667, "rental_uris": {"ios": "https://dc.lft.to/lastmile_qr_scan", "android": "https://dc.lft.to/lastmile_qr_scan"}}, {"name": "514a7c677839e3058385ebbb3723952e", "fusion_lat": 0.0, "type": "electric_scooter", "lat": 38.920573833333336, "is_reserved": 0, "is_disabled": 0, "fusion_lon": 0.0, "bike_id": "514a7c677839e3058385ebbb3723952e", "lon": -76.99884566666667, "rental_uris": {"ios": "https://dc.lft.to/lastmile_qr_scan", "android": "https://dc.lft.to/lastmile_qr_scan"}}, {"name": "6caf6fddd7a6cdf6ae80f0297cbf44e4", "fusion_lat": 0.0, "type": "electric_scooter", "lat": 38.86662716666667, "is_reserved": 0, "is_disabled": 0, "fusion_lon": 0.0, "bike_id": "6caf6fddd7a6cdf6ae80f0297cbf44e4", "lon": -76.98887266666667, "rental_uris": {"ios": "https://dc.lft.to/lastmile_qr_scan", "android": "https://dc.lft.to/lastmile_qr_scan"}}, {"name": "c5339f85b0efeebb99a69a00716e3586", "fusion_lat": 0.0, "type": "electric_bike", "lat": 38.95557566666667, "is_reserved": 0, "is_disabled": 0, "fusion_lon": 0.0, "bike_id": "c5339f85b0efeebb99a69a00716e3586", "lon": -77.07090783333334, "rental_uris": {"ios": "https://dc.lft.to/lastmile_qr_scan", "android": "https://dc.lft.to/lastmile_qr_scan"}}, {"name": "48cd148c6a8bf01e247bde94696d1b2a", "fusion_lat": 0.0, "type": "electric_scooter", "lat": 38.9057545, "is_reserved": 0, "is_disabled": 0, "fusion_lon": 0.0, "bike_id": "48cd148c6a8bf01e247bde94696d1b2a", "lon": -77.022053, "rental_uris": {"ios": "https://dc.lft.to/lastmile_qr_scan", "android": "https://dc.lft.to/lastmile_qr_scan"}}, {"name": "54b39e915bd809466056666f9ab8b3a8", "fusion_lat": 0.0, "type": "electric_bike", "lat": 38.89651816666667, "is_reserved": 0, "is_disabled": 0, "fusion_lon": 0.0, "bike_id": "54b39e915bd809466056666f9ab8b3a8", "lon": -77.10456966666666, "rental_uris": {"ios": "https://dc.lft.to/lastmile_qr_scan", "android": "https://dc.lft.to/lastmile_qr_scan"}}, {"name": "dd6d36ded631bb0ea9f2ba4a02f43e43", "fusion_lat": 0.0, "type": "electric_scooter", "lat": 38.895884833333334, "is_reserved": 0, "is_disabled": 0, "fusion_lon": 0.0, "bike_id": "dd6d36ded631bb0ea9f2ba4a02f43e43", "lon": -76.94858883333333, "rental_uris": {"ios": "https://dc.lft.to/lastmile_qr_scan", "android": "https://dc.lft.to/lastmile_qr_scan"}}, {"name": "dcf778565719a13677ef5ef11ef067ea", "fusion_lat": 0.0, "type": "electric_bike", "lat": 38.868717333333336, "is_reserved": 0, "is_disabled": 0, "fusion_lon": 0.0, "bike_id": "dcf778565719a13677ef5ef11ef067ea", "lon": -76.9166445, "rental_uris": {"ios": "https://dc.lft.to/lastmile_qr_scan", "android": "https://dc.lft.to/lastmile_qr_scan"}}, {"name": "d167d83ae8e640d34b454e2ec5d043f6", "fusion_lat": 0.0, "type": "electric_scooter", "lat": 38.923529333333335, "is_reserved": 0, "is_disabled": 0, "fusion_lon": 0.0, "bike_id": "d167d83ae8e640d34b454e2ec5d043f6", "lon": -77.050613, "rental_uris": {"ios": "https://dc.lft.to/lastmile_qr_scan", "android": "https://dc.lft.to/lastmile_qr_scan"}}, {"name": "4da175abd53d26f1b4ef217d5db3db68", "fusion_lat": 0.0, "type": "electric_scooter", "lat": 38.874747, "is_reserved": 0, "is_disabled": 0, "fusion_lon": 0.0, "bike_id": "4da175abd53d26f1b4ef217d5db3db68", "lon": -77.010655, "rental_uris": {"ios": "https://dc.lft.to/lastmile_qr_scan", "android": "https://dc.lft.to/lastmile_qr_scan"}}, {"name": "e1e863674a210e94ff73820cf2cf49a8", "fusion_lat": 0.0, "type": "electric_scooter", "lat": 38.92180533333333, "is_reserved": 0, "is_disabled": 0, "fusion_lon": 0.0, "bike_id": "e1e863674a210e94ff73820cf2cf49a8", "lon": -77.02420766666667, "rental_uris": {"ios": "https://dc.lft.to/lastmile_qr_scan", "android": "https://dc.lft.to/lastmile_qr_scan"}}, {"name": "078877025d726d192d0f7630ea2f1338", "fusion_lat": 0.0, "type": "electric_scooter", "lat": 38.90807, "is_reserved": 0, "is_disabled": 0, "fusion_lon": 0.0, "bike_id": "078877025d726d192d0f7630ea2f1338", "lon": -77.03827783333334, "rental_uris": {"ios": "https://dc.lft.to/lastmile_qr_scan", "android": "https://dc.lft.to/lastmile_qr_scan"}}, {"name": "1245c8f7f67bd68d773449150085542e", "fusion_lat": 0.0, "type": "electric_scooter", "lat": 38.915436, "is_reserved": 0, "is_disabled": 0, "fusion_lon": 0.0, "bike_id": "1245c8f7f67bd68d773449150085542e", "lon": -77.03861166666667, "rental_uris": {"ios": "https://dc.lft.to/lastmile_qr_scan", "android": "https://dc.lft.to/lastmile_qr_scan"}}, {"name": "c170620d32a58037f9f2dc7f3860c580", "fusion_lat": 0.0, "type": "electric_scooter", "lat": 38.906247666666665, "is_reserved": 0, "is_disabled": 0, "fusion_lon": 0.0, "bike_id": "c170620d32a58037f9f2dc7f3860c580", "lon": -77.00261566666667, "rental_uris": {"ios": "https://dc.lft.to/lastmile_qr_scan", "android": "https://dc.lft.to/lastmile_qr_scan"}}, {"name": "0c03c94754d42571c7a3059b75b09c24", "fusion_lat": 0.0, "type": "electric_scooter", "lat": 38.91699716666667, "is_reserved": 0, "is_disabled": 0, "fusion_lon": 0.0, "bike_id": "0c03c94754d42571c7a3059b75b09c24", "lon": -77.03941416666666, "rental_uris": {"ios": "https://dc.lft.to/lastmile_qr_scan", "android": "https://dc.lft.to/lastmile_qr_scan"}}, {"name": "9832a604e2b21a07d519945bcdede42b", "fusion_lat": 0.0, "type": "electric_scooter", "lat": 38.91414616666667, "is_reserved": 0, "is_disabled": 0, "fusion_lon": 0.0, "bike_id": "9832a604e2b21a07d519945bcdede42b", "lon": -77.00972666666667, "rental_uris": {"ios": "https://dc.lft.to/lastmile_qr_scan", "android": "https://dc.lft.to/lastmile_qr_scan"}}, {"name": "082c3b91336702e4f38b6d81cd55cd06", "fusion_lat": 0.0, "type": "electric_scooter", "lat": 38.91869883333333, "is_reserved": 0, "is_disabled": 0, "fusion_lon": 0.0, "bike_id": "082c3b91336702e4f38b6d81cd55cd06", "lon": -77.03499366666667, "rental_uris": {"ios": "https://dc.lft.to/lastmile_qr_scan", "android": "https://dc.lft.to/lastmile_qr_scan"}}, {"name": "0874c81c7b8648339b242b1fbc4be946", "fusion_lat": 0.0, "type": "electric_scooter", "lat": 38.90565433333333, "is_reserved": 0, "is_disabled": 0, "fusion_lon": 0.0, "bike_id": "0874c81c7b8648339b242b1fbc4be946", "lon": -77.00529516666667, "rental_uris": {"ios": "https://dc.lft.to/lastmile_qr_scan", "android": "https://dc.lft.to/lastmile_qr_scan"}}, {"name": "1c21c41bd58f5ea1b56cf825812c4f07", "fusion_lat": 0.0, "type": "electric_scooter", "lat": 38.919925, "is_reserved": 0, "is_disabled": 0, "fusion_lon": 0.0, "bike_id": "1c21c41bd58f5ea1b56cf825812c4f07", "lon": -77.0239425, "rental_uris": {"ios": "https://dc.lft.to/lastmile_qr_scan", "android": "https://dc.lft.to/lastmile_qr_scan"}}, {"name": "13e6619e7da8a05280e77ff11ea4373e", "fusion_lat": 0.0, "type": "electric_scooter", "lat": 38.91808, "is_reserved": 0, "is_disabled": 0, "fusion_lon": 0.0, "bike_id": "13e6619e7da8a05280e77ff11ea4373e", "lon": -77.03996916666667, "rental_uris": {"ios": "https://dc.lft.to/lastmile_qr_scan", "android": "https://dc.lft.to/lastmile_qr_scan"}}, {"name": "ab8a5d460cde527108c2c2608689bba7", "fusion_lat": 0.0, "type": "electric_bike", "lat": 39.08903033333333, "is_reserved": 0, "is_disabled": 0, "fusion_lon": 0.0, "bike_id": "ab8a5d460cde527108c2c2608689bba7", "lon": -77.1784835, "rental_uris": {"ios": "https://dc.lft.to/lastmile_qr_scan", "android": "https://dc.lft.to/lastmile_qr_scan"}}, {"name": "22f7928b376f0b15e2df983d4404c349", "fusion_lat": 0.0, "type": "electric_scooter", "lat": 38.8873355, "is_reserved": 0, "is_disabled": 0, "fusion_lon": 0.0, "bike_id": "22f7928b376f0b15e2df983d4404c349", "lon": -77.01766416666666, "rental_uris": {"ios": "https://dc.lft.to/lastmile_qr_scan", "android": "https://dc.lft.to/lastmile_qr_scan"}}, {"name": "714584dabb73bbf62dd056d3890bbc16", "fusion_lat": 0.0, "type": "electric_bike", "lat": 38.8461015, "is_reserved": 0, "is_disabled": 0, "fusion_lon": 0.0, "bike_id": "714584dabb73bbf62dd056d3890bbc16", "lon": -76.978308, "rental_uris": {"ios": "https://dc.lft.to/lastmile_qr_scan", "android": "https://dc.lft.to/lastmile_qr_scan"}}, {"name": "2f36782142b9a4b4e12eedd7083893da", "fusion_lat": 0.0, "type": "electric_scooter", "lat": 38.90804833333333, "is_reserved": 0, "is_disabled": 0, "fusion_lon": 0.0, "bike_id": "2f36782142b9a4b4e12eedd7083893da", "lon": -77.03824016666667, "rental_uris": {"ios": "https://dc.lft.to/lastmile_qr_scan", "android": "https://dc.lft.to/lastmile_qr_scan"}}, {"name": "52577ed7132e2fc42b84df43c2a346a7", "fusion_lat": 0.0, "type": "electric_scooter", "lat": 38.9287775, "is_reserved": 0, "is_disabled": 0, "fusion_lon": 0.0, "bike_id": "52577ed7132e2fc42b84df43c2a346a7", "lon": -77.01402933333334, "rental_uris": {"ios": "https://dc.lft.to/lastmile_qr_scan", "android": "https://dc.lft.to/lastmile_qr_scan"}}, {"name": "b9b2471d8ed4b8bd194c041a4c6d40a6", "fusion_lat": 0.0, "type": "electric_bike", "lat": 38.9536195, "is_reserved": 0, "is_disabled": 0, "fusion_lon": 0.0, "bike_id": "b9b2471d8ed4b8bd194c041a4c6d40a6", "lon": -76.98092533333333, "rental_uris": {"ios": "https://dc.lft.to/lastmile_qr_scan", "android": "https://dc.lft.to/lastmile_qr_scan"}}, {"name": "3475e4fe9350b73b67dbe2bea5637c5e", "fusion_lat": 0.0, "type": "electric_bike", "lat": 39.05813833333333, "is_reserved": 0, "is_disabled": 0, "fusion_lon": 0.0, "bike_id": "3475e4fe9350b73b67dbe2bea5637c5e", "lon": -77.12627566666667, "rental_uris": {"ios": "https://dc.lft.to/lastmile_qr_scan", "android": "https://dc.lft.to/lastmile_qr_scan"}}, {"name": "70ca175312f13f308699a7c68dd6fbab", "fusion_lat": 0.0, "type": "electric_scooter", "lat": 38.919344833333334, "is_reserved": 0, "is_disabled": 0, "fusion_lon": 0.0, "bike_id": "70ca175312f13f308699a7c68dd6fbab", "lon": -77.03183533333333, "rental_uris": {"ios": "https://dc.lft.to/lastmile_qr_scan", "android": "https://dc.lft.to/lastmile_qr_scan"}}, {"name": "11b2cab158f00f33d5809f0374e00a6c", "fusion_lat": 0.0, "type": "electric_scooter", "lat": 38.90111733333333, "is_reserved": 0, "is_disabled": 0, "fusion_lon": 0.0, "bike_id": "11b2cab158f00f33d5809f0374e00a6c", "lon": -77.01785283333334, "rental_uris": {"ios": "https://dc.lft.to/lastmile_qr_scan", "android": "https://dc.lft.to/lastmile_qr_scan"}}, {"name": "92c1fac39cade13c54c6aac2f30a8acf", "fusion_lat": 0.0, "type": "electric_scooter", "lat": 38.87639683333333, "is_reserved": 0, "is_disabled": 0, "fusion_lon": 0.0, "bike_id": "92c1fac39cade13c54c6aac2f30a8acf", "lon": -77.00815033333333, "rental_uris": {"ios": "https://dc.lft.to/lastmile_qr_scan", "android": "https://dc.lft.to/lastmile_qr_scan"}}, {"name": "c1d58aee0902f84798010ef14f9e88fe", "fusion_lat": 0.0, "type": "electric_scooter", "lat": 38.925050166666665, "is_reserved": 0, "is_disabled": 0, "fusion_lon": 0.0, "bike_id": "c1d58aee0902f84798010ef14f9e88fe", "lon": -77.02166216666667, "rental_uris": {"ios": "https://dc.lft.to/lastmile_qr_scan", "android": "https://dc.lft.to/lastmile_qr_scan"}}, {"name": "1ba214e5340c6324c2bcb89dd1c9dcd2", "fusion_lat": 0.0, "type": "electric_scooter", "lat": 38.8842785, "is_reserved": 0, "is_disabled": 0, "fusion_lon": 0.0, "bike_id": "1ba214e5340c6324c2bcb89dd1c9dcd2", "lon": -77.01941066666667, "rental_uris": {"ios": "https://dc.lft.to/lastmile_qr_scan", "android": "https://dc.lft.to/lastmile_qr_scan"}}, {"name": "6afb720223e4d69a5e98a654b46baa7b", "fusion_lat": 0.0, "type": "electric_scooter", "lat": 38.8997295, "is_reserved": 0, "is_disabled": 0, "fusion_lon": 0.0, "bike_id": "6afb720223e4d69a5e98a654b46baa7b", "lon": -77.05703466666667, "rental_uris": {"ios": "https://dc.lft.to/lastmile_qr_scan", "android": "https://dc.lft.to/lastmile_qr_scan"}}, {"name": "59f6e86a4af83965fc48265b5b3cf125", "fusion_lat": 0.0, "type": "electric_scooter", "lat": 38.87663516666667, "is_reserved": 0, "is_disabled": 0, "fusion_lon": 0.0, "bike_id": "59f6e86a4af83965fc48265b5b3cf125", "lon": -77.00758733333333, "rental_uris": {"ios": "https://dc.lft.to/lastmile_qr_scan", "android": "https://dc.lft.to/lastmile_qr_scan"}}, {"name": "1fec47f9dc63896e50d9015229a98534", "fusion_lat": 0.0, "type": "electric_scooter", "lat": 38.91804533333333, "is_reserved": 0, "is_disabled": 0, "fusion_lon": 0.0, "bike_id": "1fec47f9dc63896e50d9015229a98534", "lon": -77.03443433333334, "rental_uris": {"ios": "https://dc.lft.to/lastmile_qr_scan", "android": "https://dc.lft.to/lastmile_qr_scan"}}, {"name": "adecd0c901900f2803a809ab9b219b8a", "fusion_lat": 0.0, "type": "electric_scooter", "lat": 38.89610966666667, "is_reserved": 0, "is_disabled": 0, "fusion_lon": 0.0, "bike_id": "adecd0c901900f2803a809ab9b219b8a", "lon": -77.04755066666667, "rental_uris": {"ios": "https://dc.lft.to/lastmile_qr_scan", "android": "https://dc.lft.to/lastmile_qr_scan"}}, {"name": "d1fe9852ac70e5558f8ec595258f080f", "fusion_lat": 0.0, "type": "electric_scooter", "lat": 38.91807416666666, "is_reserved": 0, "is_disabled": 0, "fusion_lon": 0.0, "bike_id": "d1fe9852ac70e5558f8ec595258f080f", "lon": -77.04000216666667, "rental_uris": {"ios": "https://dc.lft.to/lastmile_qr_scan", "android": "https://dc.lft.to/lastmile_qr_scan"}}, {"name": "6339beff89fd6b20e8d3e4a0625c76a3", "fusion_lat": 0.0, "type": "electric_scooter", "lat": 38.930947333333336, "is_reserved": 0, "is_disabled": 0, "fusion_lon": 0.0, "bike_id": "6339beff89fd6b20e8d3e4a0625c76a3", "lon": -77.03440633333334, "rental_uris": {"ios": "https://dc.lft.to/lastmile_qr_scan", "android": "https://dc.lft.to/lastmile_qr_scan"}}, {"name": "bb843d2df832ec4afbddf2957bba68ee", "fusion_lat": 0.0, "type": "electric_scooter", "lat": 38.9139845, "is_reserved": 0, "is_disabled": 0, "fusion_lon": 0.0, "bike_id": "bb843d2df832ec4afbddf2957bba68ee", "lon": -77.04173766666666, "rental_uris": {"ios": "https://dc.lft.to/lastmile_qr_scan", "android": "https://dc.lft.to/lastmile_qr_scan"}}, {"name": "2098c3e9bf48a767ddc5ef8dddd7e58d", "fusion_lat": 0.0, "type": "electric_bike", "lat": 38.828781166666666, "is_reserved": 0, "is_disabled": 0, "fusion_lon": 0.0, "bike_id": "2098c3e9bf48a767ddc5ef8dddd7e58d", "lon": -77.1122075, "rental_uris": {"ios": "https://dc.lft.to/lastmile_qr_scan", "android": "https://dc.lft.to/lastmile_qr_scan"}}, {"name": "d13897f82ef8096dd3644b229500e7fc", "fusion_lat": 0.0, "type": "electric_bike", "lat": 38.99091833333333, "is_reserved": 0, "is_disabled": 0, "fusion_lon": 0.0, "bike_id": "d13897f82ef8096dd3644b229500e7fc", "lon": -76.8749565, "rental_uris": {"ios": "https://dc.lft.to/lastmile_qr_scan", "android": "https://dc.lft.to/lastmile_qr_scan"}}, {"name": "40cf45b3025fda126e681c74e3c9dba1", "fusion_lat": 0.0, "type": "electric_scooter", "lat": 38.909612, "is_reserved": 0, "is_disabled": 0, "fusion_lon": 0.0, "bike_id": "40cf45b3025fda126e681c74e3c9dba1", "lon": -77.02747233333334, "rental_uris": {"ios": "https://dc.lft.to/lastmile_qr_scan", "android": "https://dc.lft.to/lastmile_qr_scan"}}, {"name": "dbc80bc2a6b10d6203e0c72833779187", "fusion_lat": 0.0, "type": "electric_scooter", "lat": 38.90515533333333, "is_reserved": 0, "is_disabled": 0, "fusion_lon": 0.0, "bike_id": "dbc80bc2a6b10d6203e0c72833779187", "lon": -77.06892416666666, "rental_uris": {"ios": "https://dc.lft.to/lastmile_qr_scan", "android": "https://dc.lft.to/lastmile_qr_scan"}}, {"name": "a4fdc9dc51548c528da8999a6abc91e8", "fusion_lat": 0.0, "type": "electric_scooter", "lat": 38.938262, "is_reserved": 0, "is_disabled": 0, "fusion_lon": 0.0, "bike_id": "a4fdc9dc51548c528da8999a6abc91e8", "lon": -77.02467766666666, "rental_uris": {"ios": "https://dc.lft.to/lastmile_qr_scan", "android": "https://dc.lft.to/lastmile_qr_scan"}}, {"name": "f7d34d9a2c2bc411876730a4f21702ce", "fusion_lat": 0.0, "type": "electric_scooter", "lat": 38.9260165, "is_reserved": 0, "is_disabled": 0, "fusion_lon": 0.0, "bike_id": "f7d34d9a2c2bc411876730a4f21702ce", "lon": -77.02492533333333, "rental_uris": {"ios": "https://dc.lft.to/lastmile_qr_scan", "android": "https://dc.lft.to/lastmile_qr_scan"}}, {"name": "7a09e53b415dfe6b0951d34fe201251d", "fusion_lat": 0.0, "type": "electric_scooter", "lat": 38.863728, "is_reserved": 0, "is_disabled": 0, "fusion_lon": 0.0, "bike_id": "7a09e53b415dfe6b0951d34fe201251d", "lon": -77.01364783333334, "rental_uris": {"ios": "https://dc.lft.to/lastmile_qr_scan", "android": "https://dc.lft.to/lastmile_qr_scan"}}, {"name": "1be9e18b2adc57489a2034cd1e58ce94", "fusion_lat": 0.0, "type": "electric_scooter", "lat": 38.93614983333333, "is_reserved": 0, "is_disabled": 0, "fusion_lon": 0.0, "bike_id": "1be9e18b2adc57489a2034cd1e58ce94", "lon": -77.05590316666667, "rental_uris": {"ios": "https://dc.lft.to/lastmile_qr_scan", "android": "https://dc.lft.to/lastmile_qr_scan"}}, {"name": "90ee78cbefc39c34cbb2dcee299312f4", "fusion_lat": 0.0, "type": "electric_scooter", "lat": 38.900830166666665, "is_reserved": 0, "is_disabled": 0, "fusion_lon": 0.0, "bike_id": "90ee78cbefc39c34cbb2dcee299312f4", "lon": -77.01774233333333, "rental_uris": {"ios": "https://dc.lft.to/lastmile_qr_scan", "android": "https://dc.lft.to/lastmile_qr_scan"}}, {"name": "f475a6a17e758baf3cdc49cc52c1145c", "fusion_lat": 0.0, "type": "electric_scooter", "lat": 38.906451833333335, "is_reserved": 0, "is_disabled": 0, "fusion_lon": 0.0, "bike_id": "f475a6a17e758baf3cdc49cc52c1145c", "lon": -77.01398116666667, "rental_uris": {"ios": "https://dc.lft.to/lastmile_qr_scan", "android": "https://dc.lft.to/lastmile_qr_scan"}}, {"name": "eb1ae66fc278deecaaaf0c3a9007d0cb", "fusion_lat": 0.0, "type": "electric_scooter", "lat": 38.893754, "is_reserved": 0, "is_disabled": 0, "fusion_lon": 0.0, "bike_id": "eb1ae66fc278deecaaaf0c3a9007d0cb", "lon": -77.01186983333334, "rental_uris": {"ios": "https://dc.lft.to/lastmile_qr_scan", "android": "https://dc.lft.to/lastmile_qr_scan"}}, {"name": "64350286eaeaf749ca387c93e6c0dfdc", "fusion_lat": 0.0, "type": "electric_scooter", "lat": 38.9002515, "is_reserved": 0, "is_disabled": 0, "fusion_lon": 0.0, "bike_id": "64350286eaeaf749ca387c93e6c0dfdc", "lon": -77.01220833333333, "rental_uris": {"ios": "https://dc.lft.to/lastmile_qr_scan", "android": "https://dc.lft.to/lastmile_qr_scan"}}, {"name": "1fb73cb1419eee07e69f17d8c0373058", "fusion_lat": 0.0, "type": "electric_bike", "lat": 38.905072833333335, "is_reserved": 0, "is_disabled": 0, "fusion_lon": 0.0, "bike_id": "1fb73cb1419eee07e69f17d8c0373058", "lon": -77.02944916666667, "rental_uris": {"ios": "https://dc.lft.to/lastmile_qr_scan", "android": "https://dc.lft.to/lastmile_qr_scan"}}, {"name": "5222c73eccfe7498a622fff86740ba7c", "fusion_lat": 0.0, "type": "electric_bike", "lat": 38.85619033333333, "is_reserved": 0, "is_disabled": 0, "fusion_lon": 0.0, "bike_id": "5222c73eccfe7498a622fff86740ba7c", "lon": -77.08541483333333, "rental_uris": {"ios": "https://dc.lft.to/lastmile_qr_scan", "android": "https://dc.lft.to/lastmile_qr_scan"}}, {"name": "a906a0a251bdb0f73242b86a4c407e57", "fusion_lat": 0.0, "type": "electric_scooter", "lat": 38.86657116666667, "is_reserved": 0, "is_disabled": 0, "fusion_lon": 0.0, "bike_id": "a906a0a251bdb0f73242b86a4c407e57", "lon": -76.98885266666667, "rental_uris": {"ios": "https://dc.lft.to/lastmile_qr_scan", "android": "https://dc.lft.to/lastmile_qr_scan"}}, {"name": "ad0ac963e50e360ca0fa95c46a47a8de", "fusion_lat": 0.0, "type": "electric_scooter", "lat": 38.91256883333333, "is_reserved": 0, "is_disabled": 0, "fusion_lon": 0.0, "bike_id": "ad0ac963e50e360ca0fa95c46a47a8de", "lon": -77.03872816666667, "rental_uris": {"ios": "https://dc.lft.to/lastmile_qr_scan", "android": "https://dc.lft.to/lastmile_qr_scan"}}, {"name": "675087bd35bc2842001b468c27a9b45b", "fusion_lat": 0.0, "type": "electric_scooter", "lat": 38.90261866666667, "is_reserved": 0, "is_disabled": 0, "fusion_lon": 0.0, "bike_id": "675087bd35bc2842001b468c27a9b45b", "lon": -77.0392745, "rental_uris": {"ios": "https://dc.lft.to/lastmile_qr_scan", "android": "https://dc.lft.to/lastmile_qr_scan"}}, {"name": "8e5af7618684242f7f8e9c8e2671c539", "fusion_lat": 0.0, "type": "electric_scooter", "lat": 38.91854933333333, "is_reserved": 0, "is_disabled": 0, "fusion_lon": 0.0, "bike_id": "8e5af7618684242f7f8e9c8e2671c539", "lon": -77.0449945, "rental_uris": {"ios": "https://dc.lft.to/lastmile_qr_scan", "android": "https://dc.lft.to/lastmile_qr_scan"}}, {"name": "b884981d8fe8b28b917edb588b49abab", "fusion_lat": 0.0, "type": "electric_scooter", "lat": 38.90541183333333, "is_reserved": 0, "is_disabled": 0, "fusion_lon": 0.0, "bike_id": "b884981d8fe8b28b917edb588b49abab", "lon": -77.06266883333333, "rental_uris": {"ios": "https://dc.lft.to/lastmile_qr_scan", "android": "https://dc.lft.to/lastmile_qr_scan"}}, {"name": "d9fe250703ed813f9bf85a62c9a97456", "fusion_lat": 0.0, "type": "electric_scooter", "lat": 38.93080583333333, "is_reserved": 0, "is_disabled": 0, "fusion_lon": 0.0, "bike_id": "d9fe250703ed813f9bf85a62c9a97456", "lon": -77.02793916666667, "rental_uris": {"ios": "https://dc.lft.to/lastmile_qr_scan", "android": "https://dc.lft.to/lastmile_qr_scan"}}, {"name": "95ac99b156a3d9afd8a50f1086cbdc10", "fusion_lat": 0.0, "type": "electric_scooter", "lat": 38.90512, "is_reserved": 0, "is_disabled": 0, "fusion_lon": 0.0, "bike_id": "95ac99b156a3d9afd8a50f1086cbdc10", "lon": -77.02947483333334, "rental_uris": {"ios": "https://dc.lft.to/lastmile_qr_scan", "android": "https://dc.lft.to/lastmile_qr_scan"}}, {"name": "51247fadd979b32922ae56442fe5dc79", "fusion_lat": 0.0, "type": "electric_scooter", "lat": 38.9032675, "is_reserved": 0, "is_disabled": 0, "fusion_lon": 0.0, "bike_id": "51247fadd979b32922ae56442fe5dc79", "lon": -77.03646716666667, "rental_uris": {"ios": "https://dc.lft.to/lastmile_qr_scan", "android": "https://dc.lft.to/lastmile_qr_scan"}}, {"name": "495f0c1b506ae40a00d6cc219d08336a", "fusion_lat": 0.0, "type": "electric_scooter", "lat": 38.90726183333334, "is_reserved": 0, "is_disabled": 0, "fusion_lon": 0.0, "bike_id": "495f0c1b506ae40a00d6cc219d08336a", "lon": -77.0079945, "rental_uris": {"ios": "https://dc.lft.to/lastmile_qr_scan", "android": "https://dc.lft.to/lastmile_qr_scan"}}, {"name": "57e9caedf8e7c8acaeb57f1851cf7fb1", "fusion_lat": 0.0, "type": "electric_scooter", "lat": 38.8923675, "is_reserved": 0, "is_disabled": 0, "fusion_lon": 0.0, "bike_id": "57e9caedf8e7c8acaeb57f1851cf7fb1", "lon": -77.04657983333334, "rental_uris": {"ios": "https://dc.lft.to/lastmile_qr_scan", "android": "https://dc.lft.to/lastmile_qr_scan"}}, {"name": "805e5b5f251758887fd2ac5aed03623b", "fusion_lat": 0.0, "type": "electric_bike", "lat": 38.939684166666666, "is_reserved": 0, "is_disabled": 0, "fusion_lon": 0.0, "bike_id": "805e5b5f251758887fd2ac5aed03623b", "lon": -77.02768766666667, "rental_uris": {"ios": "https://dc.lft.to/lastmile_qr_scan", "android": "https://dc.lft.to/lastmile_qr_scan"}}, {"name": "f3e0267b087fd286c13915a52ba8de1b", "fusion_lat": 0.0, "type": "electric_scooter", "lat": 38.94169983333333, "is_reserved": 0, "is_disabled": 0, "fusion_lon": 0.0, "bike_id": "f3e0267b087fd286c13915a52ba8de1b", "lon": -77.04133566666667, "rental_uris": {"ios": "https://dc.lft.to/lastmile_qr_scan", "android": "https://dc.lft.to/lastmile_qr_scan"}}, {"name": "76cd15c9913fb9157d1f392e27d4bc34", "fusion_lat": 0.0, "type": "electric_scooter", "lat": 38.91487633333333, "is_reserved": 0, "is_disabled": 0, "fusion_lon": 0.0, "bike_id": "76cd15c9913fb9157d1f392e27d4bc34", "lon": -77.03261383333333, "rental_uris": {"ios": "https://dc.lft.to/lastmile_qr_scan", "android": "https://dc.lft.to/lastmile_qr_scan"}}, {"name": "1cb4e07d0b8cc3f04e3a49a79a96aa1f", "fusion_lat": 0.0, "type": "electric_scooter", "lat": 38.9197885, "is_reserved": 0, "is_disabled": 0, "fusion_lon": 0.0, "bike_id": "1cb4e07d0b8cc3f04e3a49a79a96aa1f", "lon": -77.03319733333333, "rental_uris": {"ios": "https://dc.lft.to/lastmile_qr_scan", "android": "https://dc.lft.to/lastmile_qr_scan"}}, {"name": "95c60a1900d87aec0583644e6708a2b4", "fusion_lat": 0.0, "type": "electric_scooter", "lat": 38.9035665, "is_reserved": 0, "is_disabled": 0, "fusion_lon": 0.0, "bike_id": "95c60a1900d87aec0583644e6708a2b4", "lon": -77.0110985, "rental_uris": {"ios": "https://dc.lft.to/lastmile_qr_scan", "android": "https://dc.lft.to/lastmile_qr_scan"}}, {"name": "cbf2d76a29f2b7187c51216067a46174", "fusion_lat": 0.0, "type": "electric_scooter", "lat": 38.90060066666667, "is_reserved": 0, "is_disabled": 0, "fusion_lon": 0.0, "bike_id": "cbf2d76a29f2b7187c51216067a46174", "lon": -76.94757733333333, "rental_uris": {"ios": "https://dc.lft.to/lastmile_qr_scan", "android": "https://dc.lft.to/lastmile_qr_scan"}}, {"name": "cfff030f0d5ebea7c6a4749f216fb14f", "fusion_lat": 0.0, "type": "electric_bike", "lat": 38.94898116666667, "is_reserved": 0, "is_disabled": 0, "fusion_lon": 0.0, "bike_id": "cfff030f0d5ebea7c6a4749f216fb14f", "lon": -76.96376966666666, "rental_uris": {"ios": "https://dc.lft.to/lastmile_qr_scan", "android": "https://dc.lft.to/lastmile_qr_scan"}}, {"name": "8f6e2e7a88c1a6373a9c72498cf71be6", "fusion_lat": 0.0, "type": "electric_scooter", "lat": 38.91850633333333, "is_reserved": 0, "is_disabled": 0, "fusion_lon": 0.0, "bike_id": "8f6e2e7a88c1a6373a9c72498cf71be6", "lon": -77.0260005, "rental_uris": {"ios": "https://dc.lft.to/lastmile_qr_scan", "android": "https://dc.lft.to/lastmile_qr_scan"}}, {"name": "b50e87213dd56697dda7067898e3d001", "fusion_lat": 0.0, "type": "electric_scooter", "lat": 38.87425866666667, "is_reserved": 0, "is_disabled": 0, "fusion_lon": 0.0, "bike_id": "b50e87213dd56697dda7067898e3d001", "lon": -76.9718155, "rental_uris": {"ios": "https://dc.lft.to/lastmile_qr_scan", "android": "https://dc.lft.to/lastmile_qr_scan"}}, {"name": "fb04d74121292f46f6ecfbb69ec886fa", "fusion_lat": 0.0, "type": "electric_scooter", "lat": 38.88429283333333, "is_reserved": 0, "is_disabled": 0, "fusion_lon": 0.0, "bike_id": "fb04d74121292f46f6ecfbb69ec886fa", "lon": -77.01945533333334, "rental_uris": {"ios": "https://dc.lft.to/lastmile_qr_scan", "android": "https://dc.lft.to/lastmile_qr_scan"}}, {"name": "dad0d8d68dce6896966ca3eca1514170", "fusion_lat": 0.0, "type": "electric_scooter", "lat": 38.921511333333335, "is_reserved": 0, "is_disabled": 0, "fusion_lon": 0.0, "bike_id": "dad0d8d68dce6896966ca3eca1514170", "lon": -77.0337575, "rental_uris": {"ios": "https://dc.lft.to/lastmile_qr_scan", "android": "https://dc.lft.to/lastmile_qr_scan"}}, {"name": "681f03dcf78f3a42424c583c204ad59c", "fusion_lat": 0.0, "type": "electric_scooter", "lat": 38.9057175, "is_reserved": 0, "is_disabled": 0, "fusion_lon": 0.0, "bike_id": "681f03dcf78f3a42424c583c204ad59c", "lon": -77.045004, "rental_uris": {"ios": "https://dc.lft.to/lastmile_qr_scan", "android": "https://dc.lft.to/lastmile_qr_scan"}}, {"name": "9e6e9c3bef7360a87db970f14c7cb8c3", "fusion_lat": 0.0, "type": "electric_bike", "lat": 38.86389883333333, "is_reserved": 0, "is_disabled": 0, "fusion_lon": 0.0, "bike_id": "9e6e9c3bef7360a87db970f14c7cb8c3", "lon": -76.98990433333333, "rental_uris": {"ios": "https://dc.lft.to/lastmile_qr_scan", "android": "https://dc.lft.to/lastmile_qr_scan"}}, {"name": "b1ba35c5c840e28ab28e4e227ce32586", "fusion_lat": 0.0, "type": "electric_bike", "lat": 39.038634, "is_reserved": 0, "is_disabled": 0, "fusion_lon": 0.0, "bike_id": "b1ba35c5c840e28ab28e4e227ce32586", "lon": -76.99029416666667, "rental_uris": {"ios": "https://dc.lft.to/lastmile_qr_scan", "android": "https://dc.lft.to/lastmile_qr_scan"}}, {"name": "66b9ad04bd25cb1896f2bdd5939905b0", "fusion_lat": 0.0, "type": "electric_scooter", "lat": 38.91107983333333, "is_reserved": 0, "is_disabled": 0, "fusion_lon": 0.0, "bike_id": "66b9ad04bd25cb1896f2bdd5939905b0", "lon": -77.03833666666667, "rental_uris": {"ios": "https://dc.lft.to/lastmile_qr_scan", "android": "https://dc.lft.to/lastmile_qr_scan"}}, {"name": "b59a5b39ef068548cd16ce4a5644a3e0", "fusion_lat": 0.0, "type": "electric_scooter", "lat": 38.9035635, "is_reserved": 0, "is_disabled": 0, "fusion_lon": 0.0, "bike_id": "b59a5b39ef068548cd16ce4a5644a3e0", "lon": -77.05343816666667, "rental_uris": {"ios": "https://dc.lft.to/lastmile_qr_scan", "android": "https://dc.lft.to/lastmile_qr_scan"}}, {"name": "76b46f753c3754f0b0d033cb8f28d4e5", "fusion_lat": 0.0, "type": "electric_bike", "lat": 38.880832166666664, "is_reserved": 0, "is_disabled": 0, "fusion_lon": 0.0, "bike_id": "76b46f753c3754f0b0d033cb8f28d4e5", "lon": -76.98534166666667, "rental_uris": {"ios": "https://dc.lft.to/lastmile_qr_scan", "android": "https://dc.lft.to/lastmile_qr_scan"}}, {"name": "3db87ed78b4f7f553dc0887d0cb2e23c", "fusion_lat": 0.0, "type": "electric_scooter", "lat": 38.904157833333336, "is_reserved": 0, "is_disabled": 0, "fusion_lon": 0.0, "bike_id": "3db87ed78b4f7f553dc0887d0cb2e23c", "lon": -77.03427983333333, "rental_uris": {"ios": "https://dc.lft.to/lastmile_qr_scan", "android": "https://dc.lft.to/lastmile_qr_scan"}}, {"name": "9263f75a21b5c91bf611493d177dd73b", "fusion_lat": 0.0, "type": "electric_scooter", "lat": 38.909493166666664, "is_reserved": 0, "is_disabled": 0, "fusion_lon": 0.0, "bike_id": "9263f75a21b5c91bf611493d177dd73b", "lon": -77.02765816666667, "rental_uris": {"ios": "https://dc.lft.to/lastmile_qr_scan", "android": "https://dc.lft.to/lastmile_qr_scan"}}, {"name": "e8ea30da06b5e5fdd8fc88acaa8d6114", "fusion_lat": 0.0, "type": "electric_scooter", "lat": 38.905749, "is_reserved": 0, "is_disabled": 0, "fusion_lon": 0.0, "bike_id": "e8ea30da06b5e5fdd8fc88acaa8d6114", "lon": -77.02607483333334, "rental_uris": {"ios": "https://dc.lft.to/lastmile_qr_scan", "android": "https://dc.lft.to/lastmile_qr_scan"}}, {"name": "3d3f1c9e669f1d8bbaead042474b4dc2", "fusion_lat": 0.0, "type": "electric_scooter", "lat": 38.917020666666666, "is_reserved": 0, "is_disabled": 0, "fusion_lon": 0.0, "bike_id": "3d3f1c9e669f1d8bbaead042474b4dc2", "lon": -77.0126085, "rental_uris": {"ios": "https://dc.lft.to/lastmile_qr_scan", "android": "https://dc.lft.to/lastmile_qr_scan"}}, {"name": "778f9f997420f4cb98a3bb71c74ddb86", "fusion_lat": 0.0, "type": "electric_scooter", "lat": 38.912141, "is_reserved": 0, "is_disabled": 0, "fusion_lon": 0.0, "bike_id": "778f9f997420f4cb98a3bb71c74ddb86", "lon": -77.0385, "rental_uris": {"ios": "https://dc.lft.to/lastmile_qr_scan", "android": "https://dc.lft.to/lastmile_qr_scan"}}, {"name": "4c9d7174887dcdb831a4f90c42d7d694", "fusion_lat": 0.0, "type": "electric_scooter", "lat": 38.91420433333333, "is_reserved": 0, "is_disabled": 0, "fusion_lon": 0.0, "bike_id": "4c9d7174887dcdb831a4f90c42d7d694", "lon": -77.02209583333334, "rental_uris": {"ios": "https://dc.lft.to/lastmile_qr_scan", "android": "https://dc.lft.to/lastmile_qr_scan"}}, {"name": "6deafeb5585a2a786bfcc29e3366a35f", "fusion_lat": 0.0, "type": "electric_scooter", "lat": 38.9038085, "is_reserved": 0, "is_disabled": 0, "fusion_lon": 0.0, "bike_id": "6deafeb5585a2a786bfcc29e3366a35f", "lon": -77.049047, "rental_uris": {"ios": "https://dc.lft.to/lastmile_qr_scan", "android": "https://dc.lft.to/lastmile_qr_scan"}}, {"name": "363b07026cf349bbb391568694f26ae8", "fusion_lat": 0.0, "type": "electric_scooter", "lat": 38.9167665, "is_reserved": 0, "is_disabled": 0, "fusion_lon": 0.0, "bike_id": "363b07026cf349bbb391568694f26ae8", "lon": -77.0297665, "rental_uris": {"ios": "https://dc.lft.to/lastmile_qr_scan", "android": "https://dc.lft.to/lastmile_qr_scan"}}, {"name": "9767a7e87717ca84959e020f47746580", "fusion_lat": 0.0, "type": "electric_scooter", "lat": 38.94561383333333, "is_reserved": 0, "is_disabled": 0, "fusion_lon": 0.0, "bike_id": "9767a7e87717ca84959e020f47746580", "lon": -77.07770383333333, "rental_uris": {"ios": "https://dc.lft.to/lastmile_qr_scan", "android": "https://dc.lft.to/lastmile_qr_scan"}}, {"name": "ed478e55114b2810784611b9070cd885", "fusion_lat": 0.0, "type": "electric_scooter", "lat": 38.90141533333333, "is_reserved": 0, "is_disabled": 0, "fusion_lon": 0.0, "bike_id": "ed478e55114b2810784611b9070cd885", "lon": -76.9894685, "rental_uris": {"ios": "https://dc.lft.to/lastmile_qr_scan", "android": "https://dc.lft.to/lastmile_qr_scan"}}, {"name": "c7dd892d7905405c7719860afec3939a", "fusion_lat": 0.0, "type": "electric_scooter", "lat": 38.8922445, "is_reserved": 0, "is_disabled": 0, "fusion_lon": 0.0, "bike_id": "c7dd892d7905405c7719860afec3939a", "lon": -77.050118, "rental_uris": {"ios": "https://dc.lft.to/lastmile_qr_scan", "android": "https://dc.lft.to/lastmile_qr_scan"}}, {"name": "5c99d799f1a93259d68073f95c3a8920", "fusion_lat": 0.0, "type": "electric_scooter", "lat": 38.906340166666666, "is_reserved": 0, "is_disabled": 0, "fusion_lon": 0.0, "bike_id": "5c99d799f1a93259d68073f95c3a8920", "lon": -77.04146583333333, "rental_uris": {"ios": "https://dc.lft.to/lastmile_qr_scan", "android": "https://dc.lft.to/lastmile_qr_scan"}}, {"name": "e1da427c24bddb5f726d33e5eb068ecd", "fusion_lat": 0.0, "type": "electric_scooter", "lat": 38.877516166666666, "is_reserved": 0, "is_disabled": 0, "fusion_lon": 0.0, "bike_id": "e1da427c24bddb5f726d33e5eb068ecd", "lon": -77.01994416666666, "rental_uris": {"ios": "https://dc.lft.to/lastmile_qr_scan", "android": "https://dc.lft.to/lastmile_qr_scan"}}, {"name": "19c9e8436eab0eaeca4dab81b477f467", "fusion_lat": 0.0, "type": "electric_scooter", "lat": 38.8789355, "is_reserved": 0, "is_disabled": 0, "fusion_lon": 0.0, "bike_id": "19c9e8436eab0eaeca4dab81b477f467", "lon": -77.00567366666667, "rental_uris": {"ios": "https://dc.lft.to/lastmile_qr_scan", "android": "https://dc.lft.to/lastmile_qr_scan"}}, {"name": "4e5fe0963da9a4b217421b841dd3855b", "fusion_lat": 0.0, "type": "electric_scooter", "lat": 38.9139575, "is_reserved": 0, "is_disabled": 0, "fusion_lon": 0.0, "bike_id": "4e5fe0963da9a4b217421b841dd3855b", "lon": -77.04177116666666, "rental_uris": {"ios": "https://dc.lft.to/lastmile_qr_scan", "android": "https://dc.lft.to/lastmile_qr_scan"}}, {"name": "27cce315d82f916c3a5e5fdbe2d3e70f", "fusion_lat": 0.0, "type": "electric_scooter", "lat": 38.90273, "is_reserved": 0, "is_disabled": 0, "fusion_lon": 0.0, "bike_id": "27cce315d82f916c3a5e5fdbe2d3e70f", "lon": -77.062801, "rental_uris": {"ios": "https://dc.lft.to/lastmile_qr_scan", "android": "https://dc.lft.to/lastmile_qr_scan"}}, {"name": "ee456fefa14ff72eb43a270b40a6998f", "fusion_lat": 0.0, "type": "electric_scooter", "lat": 38.906105833333335, "is_reserved": 0, "is_disabled": 0, "fusion_lon": 0.0, "bike_id": "ee456fefa14ff72eb43a270b40a6998f", "lon": -77.00696433333333, "rental_uris": {"ios": "https://dc.lft.to/lastmile_qr_scan", "android": "https://dc.lft.to/lastmile_qr_scan"}}, {"name": "52ca15e09f9233c65df11f7bf96ec015", "fusion_lat": 0.0, "type": "electric_bike", "lat": 38.842761333333335, "is_reserved": 0, "is_disabled": 0, "fusion_lon": 0.0, "bike_id": "52ca15e09f9233c65df11f7bf96ec015", "lon": -76.988419, "rental_uris": {"ios": "https://dc.lft.to/lastmile_qr_scan", "android": "https://dc.lft.to/lastmile_qr_scan"}}, {"name": "f9cd6f7783cfd4bd55c3acce7adf41af", "fusion_lat": 0.0, "type": "electric_bike", "lat": 38.8585105, "is_reserved": 0, "is_disabled": 0, "fusion_lon": 0.0, "bike_id": "f9cd6f7783cfd4bd55c3acce7adf41af", "lon": -77.09762533333334, "rental_uris": {"ios": "https://dc.lft.to/lastmile_qr_scan", "android": "https://dc.lft.to/lastmile_qr_scan"}}, {"name": "4b8ac4f170330d4e1d3c13736c1ae982", "fusion_lat": 0.0, "type": "electric_scooter", "lat": 38.91779966666667, "is_reserved": 0, "is_disabled": 0, "fusion_lon": 0.0, "bike_id": "4b8ac4f170330d4e1d3c13736c1ae982", "lon": -77.023433, "rental_uris": {"ios": "https://dc.lft.to/lastmile_qr_scan", "android": "https://dc.lft.to/lastmile_qr_scan"}}, {"name": "62d2b45096f1666e5cffbbe50b180e99", "fusion_lat": 0.0, "type": "electric_scooter", "lat": 38.91636183333333, "is_reserved": 0, "is_disabled": 0, "fusion_lon": 0.0, "bike_id": "62d2b45096f1666e5cffbbe50b180e99", "lon": -77.00099866666666, "rental_uris": {"ios": "https://dc.lft.to/lastmile_qr_scan", "android": "https://dc.lft.to/lastmile_qr_scan"}}, {"name": "61ec06ae15d146ff67fac07b4dc225ba", "fusion_lat": 0.0, "type": "electric_scooter", "lat": 38.892331666666664, "is_reserved": 0, "is_disabled": 0, "fusion_lon": 0.0, "bike_id": "61ec06ae15d146ff67fac07b4dc225ba", "lon": -77.01507333333333, "rental_uris": {"ios": "https://dc.lft.to/lastmile_qr_scan", "android": "https://dc.lft.to/lastmile_qr_scan"}}, {"name": "ba34376989494a5f465e224c0c02c7cf", "fusion_lat": 0.0, "type": "electric_bike", "lat": 38.949154, "is_reserved": 0, "is_disabled": 0, "fusion_lon": 0.0, "bike_id": "ba34376989494a5f465e224c0c02c7cf", "lon": -77.00799166666667, "rental_uris": {"ios": "https://dc.lft.to/lastmile_qr_scan", "android": "https://dc.lft.to/lastmile_qr_scan"}}, {"name": "03c943c60ca8a85804e20a3c46c10f54", "fusion_lat": 0.0, "type": "electric_scooter", "lat": 38.939665833333336, "is_reserved": 0, "is_disabled": 0, "fusion_lon": 0.0, "bike_id": "03c943c60ca8a85804e20a3c46c10f54", "lon": -77.02754783333333, "rental_uris": {"ios": "https://dc.lft.to/lastmile_qr_scan", "android": "https://dc.lft.to/lastmile_qr_scan"}}, {"name": "307e5889762d71baa89598a50a6fbb35", "fusion_lat": 0.0, "type": "electric_scooter", "lat": 38.92753616666667, "is_reserved": 0, "is_disabled": 0, "fusion_lon": 0.0, "bike_id": "307e5889762d71baa89598a50a6fbb35", "lon": -77.02286966666667, "rental_uris": {"ios": "https://dc.lft.to/lastmile_qr_scan", "android": "https://dc.lft.to/lastmile_qr_scan"}}, {"name": "f902895ce57bf3a4d441f3e84168a356", "fusion_lat": 0.0, "type": "electric_bike", "lat": 39.000187333333336, "is_reserved": 0, "is_disabled": 0, "fusion_lon": 0.0, "bike_id": "f902895ce57bf3a4d441f3e84168a356", "lon": -77.01746483333334, "rental_uris": {"ios": "https://dc.lft.to/lastmile_qr_scan", "android": "https://dc.lft.to/lastmile_qr_scan"}}, {"name": "f1d616c5919cefa5886746ba4000dab2", "fusion_lat": 0.0, "type": "electric_scooter", "lat": 38.9306515, "is_reserved": 0, "is_disabled": 0, "fusion_lon": 0.0, "bike_id": "f1d616c5919cefa5886746ba4000dab2", "lon": -77.02979083333334, "rental_uris": {"ios": "https://dc.lft.to/lastmile_qr_scan", "android": "https://dc.lft.to/lastmile_qr_scan"}}, {"name": "d719b9cd75fe8a1ffe1cf21d4f6b0eba", "fusion_lat": 0.0, "type": "electric_scooter", "lat": 38.884978333333336, "is_reserved": 0, "is_disabled": 0, "fusion_lon": 0.0, "bike_id": "d719b9cd75fe8a1ffe1cf21d4f6b0eba", "lon": -77.021848, "rental_uris": {"ios": "https://dc.lft.to/lastmile_qr_scan", "android": "https://dc.lft.to/lastmile_qr_scan"}}, {"name": "6aaf448985a9a376f0dd6b307e6cb6ce", "fusion_lat": 0.0, "type": "electric_scooter", "lat": 38.911125166666665, "is_reserved": 0, "is_disabled": 0, "fusion_lon": 0.0, "bike_id": "6aaf448985a9a376f0dd6b307e6cb6ce", "lon": -77.03834716666667, "rental_uris": {"ios": "https://dc.lft.to/lastmile_qr_scan", "android": "https://dc.lft.to/lastmile_qr_scan"}}, {"name": "38a3efa7b67b5ee8080d405644753c5a", "fusion_lat": 0.0, "type": "electric_scooter", "lat": 38.91273066666667, "is_reserved": 0, "is_disabled": 0, "fusion_lon": 0.0, "bike_id": "38a3efa7b67b5ee8080d405644753c5a", "lon": -77.04160233333333, "rental_uris": {"ios": "https://dc.lft.to/lastmile_qr_scan", "android": "https://dc.lft.to/lastmile_qr_scan"}}, {"name": "affefb24ddcc1f4fb0cbc6026f38487b", "fusion_lat": 0.0, "type": "electric_scooter", "lat": 38.8780765, "is_reserved": 0, "is_disabled": 0, "fusion_lon": 0.0, "bike_id": "affefb24ddcc1f4fb0cbc6026f38487b", "lon": -77.00346016666667, "rental_uris": {"ios": "https://dc.lft.to/lastmile_qr_scan", "android": "https://dc.lft.to/lastmile_qr_scan"}}, {"name": "a172e87a9ebc53d984f9eee45b6b07ad", "fusion_lat": 0.0, "type": "electric_scooter", "lat": 38.9181075, "is_reserved": 0, "is_disabled": 0, "fusion_lon": 0.0, "bike_id": "a172e87a9ebc53d984f9eee45b6b07ad", "lon": -77.03681983333334, "rental_uris": {"ios": "https://dc.lft.to/lastmile_qr_scan", "android": "https://dc.lft.to/lastmile_qr_scan"}},