{"data": {"bikes": [{"bike_id": "ac7b77b6f94e1d88e232fc860d399371", "type": "electric_scooter", "is_disabled": 0, "lat": 38.918905333333335, "rental_uris": {"ios": "https://dc.lft.to/lastmile_qr_scan", "android": "https://dc.lft.to/lastmile_qr_scan"}, "is_reserved": 0, "fusion_lon": 0.0, "fusion_lat": 0.0, "lon": -77.0146035, "name": "ac7b77b6f94e1d88e232fc860d399371"}, {"bike_id": "2d6bf8fc5124e30e86e767c5537a2a02", "type": "electric_scooter", "is_disabled": 0, "lat": 38.910829166666666, "rental_uris": {"ios": "https://dc.lft.to/lastmile_qr_scan", "android": "https://dc.lft.to/lastmile_qr_scan"}, "is_reserved": 0, "fusion_lon": 0.0, "fusion_lat": 0.0, "lon": -77.01518566666667, "name": "2d6bf8fc5124e30e86e767c5537a2a02"}, {"bike_id": "4c383701ed9b6fcd47be2a02cf806386", "type": "electric_scooter", "is_disabled": 0, "lat": 38.92875383333333, "rental_uris": {"ios": "https://dc.lft.to/lastmile_qr_scan", "android": "https://dc.lft.to/lastmile_qr_scan"}, "is_reserved": 0, "fusion_lon": 0.0, "fusion_lat": 0.0, "lon": -77.01231366666667, "name": "4c383701ed9b6fcd47be2a02cf806386"}, {"bike_id": "f73e97dd85162ce203808ba4c60784fd", "type": "electric_scooter", "is_disabled": 0, "lat": 38.90023, "rental_uris": {"ios": "https://dc.lft.to/lastmile_qr_scan", "android": "https://dc.lft.to/lastmile_qr_scan"}, "is_reserved": 0, "fusion_lon": 0.0, "fusion_lat": 0.0, "lon": -77.01765933333333, "name": "f73e97dd85162ce203808ba4c60784fd"}, {"bike_id": "53c34fbfc69162816e4be046a06f5e5f", "type": "electric_scooter", "is_disabled": 0, "lat": 38.90193933333333, "rental_uris": {"ios": "https://dc.lft.to/lastmile_qr_scan", "android": "https://dc.lft.to/lastmile_qr_scan"}, "is_reserved": 0, "fusion_lon": 0.0, "fusion_lat": 0.0, "lon": -77.01314833333333, "name": "53c34fbfc69162816e4be046a06f5e5f"}, {"bike_id": "a7b982edbf246d9366b4db370a9f7198", "type": "electric_scooter", "is_disabled": 0, "lat": 38.9051515, "rental_uris": {"ios": "https://dc.lft.to/lastmile_qr_scan", "android": "https://dc.lft.to/lastmile_qr_scan"}, "is_reserved": 0, "fusion_lon": 0.0, "fusion_lat": 0.0, "lon": -77.02980116666667, "name": "a7b982edbf246d9366b4db370a9f7198"}, {"bike_id": "2990a1e903cf94b35f050306635d9e13", "type": "electric_scooter", "is_disabled": 0, "lat": 38.930807, "rental_uris": {"ios": "https://dc.lft.to/lastmile_qr_scan", "android": "https://dc.lft.to/lastmile_qr_scan"}, "is_reserved": 0, "fusion_lon": 0.0, "fusion_lat": 0.0, "lon": -77.0279345, "name": "2990a1e903cf94b35f050306635d9e13"}, {"bike_id": "3dd71bb28d8c7f520354143673e468ec", "type": "electric_bike", "is_disabled": 0, "lat": 39.01479583333333, "rental_uris": {"ios": "https://dc.lft.to/lastmile_qr_scan", "android": "https://dc.lft.to/lastmile_qr_scan"}, "is_reserved": 0, "fusion_lon": 0.0, "fusion_lat": 0.0, "lon": -77.05492016666666, "name": "3dd71bb28d8c7f520354143673e468ec"}, {"bike_id": "ac65e253a9f524560f3aa92622c834aa", "type": "electric_scooter", "is_disabled": 0, "lat": 38.91187433333333, "rental_uris": {"ios": "https://dc.lft.to/lastmile_qr_scan", "android": "https://dc.lft.to/lastmile_qr_scan"}, "is_reserved": 0, "fusion_lon": 0.0, "fusion_lat": 0.0, "lon": -77.045602, "name": "ac65e253a9f524560f3aa92622c834aa"}, {"bike_id": "b930f726000adedc64c86ca2c1ffb9a6", "type": "electric_scooter", "is_disabled": 0, "lat": 38.923492, "rental_uris": {"ios": "https://dc.lft.to/lastmile_qr_scan", "android": "https://dc.lft.to/lastmile_qr_scan"}, "is_reserved": 0, "fusion_lon": 0.0, "fusion_lat": 0.0, "lon": -77.04151066666667, "name": "b930f726000adedc64c86ca2c1ffb9a6"}, {"bike_id": "63ada4ce7a9ec4f0bed1308e98a21340", "type": "electric_scooter", "is_disabled": 0, "lat": 38.905409166666665, "rental_uris": {"ios": "https://dc.lft.to/lastmile_qr_scan", "android": "https://dc.lft.to/lastmile_qr_scan"}, "is_reserved": 0, "fusion_lon": 0.0, "fusion_lat": 0.0, "lon": -77.04174416666666, "name": "63ada4ce7a9ec4f0bed1308e98a21340"}, {"bike_id": "8521df32a3038d426e2c9206ff771d36", "type": "electric_scooter", "is_disabled": 0, "lat": 38.909482833333335, "rental_uris": {"ios": "https://dc.lft.to/lastmile_qr_scan", "android": "https://dc.lft.to/lastmile_qr_scan"}, "is_reserved": 0, "fusion_lon": 0.0, "fusion_lat": 0.0, "lon": -77.03446266666667, "name": "8521df32a3038d426e2c9206ff771d36"}, {"bike_id": "7b5ac8263c6692f06e67204f9521094c", "type": "electric_scooter", "is_disabled": 0, "lat": 38.9049635, "rental_uris": {"ios": "https://dc.lft.to/lastmile_qr_scan", "android": "https://dc.lft.to/lastmile_qr_scan"}, "is_reserved": 0, "fusion_lon": 0.0, "fusion_lat": 0.0, "lon": -77.06198983333333, "name": "7b5ac8263c6692f06e67204f9521094c"}, {"bike_id": "1be7d0c54639c1778bbfd4111d5693e2", "type": "electric_scooter", "is_disabled": 0, "lat": 38.90395683333333, "rental_uris": {"ios": "https://dc.lft.to/lastmile_qr_scan", "android": "https://dc.lft.to/lastmile_qr_scan"}, "is_reserved": 0, "fusion_lon": 0.0, "fusion_lat": 0.0, "lon": -77.00572316666667, "name": "1be7d0c54639c1778bbfd4111d5693e2"}, {"bike_id": "8913b35c5f9be90c70d60278cd62ff2b", "type": "electric_scooter", "is_disabled": 0, "lat": 38.920105, "rental_uris": {"ios": "https://dc.lft.to/lastmile_qr_scan", "android": "https://dc.lft.to/lastmile_qr_scan"}, "is_reserved": 0, "fusion_lon": 0.0, "fusion_lat": 0.0, "lon": -77.03170783333333, "name": "8913b35c5f9be90c70d60278cd62ff2b"}, {"bike_id": "4e52bf8e251639e67605edde8dcebf15", "type": "electric_bike", "is_disabled": 0, "lat": 38.861924, "rental_uris": {"ios": "https://dc.lft.to/lastmile_qr_scan", "android": "https://dc.lft.to/lastmile_qr_scan"}, "is_reserved": 0, "fusion_lon": 0.0, "fusion_lat": 0.0, "lon": -76.94799483333334, "name": "4e52bf8e251639e67605edde8dcebf15"}, {"bike_id": "cf90ec27dd673c60b6cc2c748dddf2f5", "type": "electric_scooter", "is_disabled": 0, "lat": 38.930959333333334, "rental_uris": {"ios": "https://dc.lft.to/lastmile_qr_scan", "android": "https://dc.lft.to/lastmile_qr_scan"}, "is_reserved": 0, "fusion_lon": 0.0, "fusion_lat": 0.0, "lon": -77.02666966666666, "name": "cf90ec27dd673c60b6cc2c748dddf2f5"}, {"bike_id": "a56899da800046174587bd1c0773eb05", "type": "electric_scooter", "is_disabled": 0, "lat": 38.917999333333334, "rental_uris": {"ios": "https://dc.lft.to/lastmile_qr_scan", "android": "https://dc.lft.to/lastmile_qr_scan"}, "is_reserved": 0, "fusion_lon": 0.0, "fusion_lat": 0.0, "lon": -77.03446133333334, "name": "a56899da800046174587bd1c0773eb05"}, {"bike_id": "a9bd32530c042611e0c5c8a043fc260b", "type": "electric_scooter", "is_disabled": 0, "lat": 38.896184, "rental_uris": {"ios": "https://dc.lft.to/lastmile_qr_scan", "android": "https://dc.lft.to/lastmile_qr_scan"}, "is_reserved": 0, "fusion_lon": 0.0, "fusion_lat": 0.0, "lon": -76.98571766666667, "name": "a9bd32530c042611e0c5c8a043fc260b"}, {"bike_id": "a4cb7bf168609862328e5892417aff43", "type": "electric_scooter", "is_disabled": 0, "lat": 38.950942833333336, "rental_uris": {"ios": "https://dc.lft.to/lastmile_qr_scan", "android": "https://dc.lft.to/lastmile_qr_scan"}, "is_reserved": 0, "fusion_lon": 0.0, "fusion_lat": 0.0, "lon": -77.029609, "name": "a4cb7bf168609862328e5892417aff43"}, {"bike_id": "478779fe81afdfb87cd9118f89a07d23", "type": "electric_scooter", "is_disabled": 0, "lat": 38.901508, "rental_uris": {"ios": "https://dc.lft.to/lastmile_qr_scan", "android": "https://dc.lft.to/lastmile_qr_scan"}, "is_reserved": 0, "fusion_lon": 0.0, "fusion_lat": 0.0, "lon": -77.008355, "name": "478779fe81afdfb87cd9118f89a07d23"}, {"bike_id": "36dab267f123051718266db211a416ed", "type": "electric_scooter", "is_disabled": 0, "lat": 38.905216333333335, "rental_uris": {"ios": "https://dc.lft.to/lastmile_qr_scan", "android": "https://dc.lft.to/lastmile_qr_scan"}, "is_reserved": 0, "fusion_lon": 0.0, "fusion_lat": 0.0, "lon": -77.02966466666666, "name": "36dab267f123051718266db211a416ed"}, {"bike_id": "e41a755932ec9c0b93f606f0dbfe1aa3", "type": "electric_scooter", "is_disabled": 0, "lat": 38.946224, "rental_uris": {"ios": "https://dc.lft.to/lastmile_qr_scan", "android": "https://dc.lft.to/lastmile_qr_scan"}, "is_reserved": 0, "fusion_lon": 0.0, "fusion_lat": 0.0, "lon": -77.02653366666667, "name": "e41a755932ec9c0b93f606f0dbfe1aa3"}, {"bike_id": "5a87d651e9a871a818b53cbca28c1f65", "type": "electric_scooter", "is_disabled": 0, "lat": 38.923649833333336, "rental_uris": {"ios": "https://dc.lft.to/lastmile_qr_scan", "android": "https://dc.lft.to/lastmile_qr_scan"}, "is_reserved": 0, "fusion_lon": 0.0, "fusion_lat": 0.0, "lon": -77.05129, "name": "5a87d651e9a871a818b53cbca28c1f65"}, {"bike_id": "d854011c0a8f905c9d104090bfdf3abf", "type": "electric_scooter", "is_disabled": 0, "lat": 38.916964166666666, "rental_uris": {"ios": "https://dc.lft.to/lastmile_qr_scan", "android": "https://dc.lft.to/lastmile_qr_scan"}, "is_reserved": 0, "fusion_lon": 0.0, "fusion_lat": 0.0, "lon": -77.0105185, "name": "d854011c0a8f905c9d104090bfdf3abf"}, {"bike_id": "e139b0d974ec25ec899c73256c130ae1", "type": "electric_scooter", "is_disabled": 0, "lat": 38.940526166666665, "rental_uris": {"ios": "https://dc.lft.to/lastmile_qr_scan", "android": "https://dc.lft.to/lastmile_qr_scan"}, "is_reserved": 0, "fusion_lon": 0.0, "fusion_lat": 0.0, "lon": -77.0297795, "name": "e139b0d974ec25ec899c73256c130ae1"}, {"bike_id": "dd3cd844fdbc6d01920e057e2a2fa144", "type": "electric_scooter", "is_disabled": 0, "lat": 38.902227, "rental_uris": {"ios": "https://dc.lft.to/lastmile_qr_scan", "android": "https://dc.lft.to/lastmile_qr_scan"}, "is_reserved": 0, "fusion_lon": 0.0, "fusion_lat": 0.0, "lon": -77.05126316666667, "name": "dd3cd844fdbc6d01920e057e2a2fa144"}, {"bike_id": "0c9a87ab94708dd2058aa81f8162854d", "type": "electric_scooter", "is_disabled": 0, "lat": 38.92862266666667, "rental_uris": {"ios": "https://dc.lft.to/lastmile_qr_scan", "android": "https://dc.lft.to/lastmile_qr_scan"}, "is_reserved": 0, "fusion_lon": 0.0, "fusion_lat": 0.0, "lon": -77.03719016666666, "name": "0c9a87ab94708dd2058aa81f8162854d"}, {"bike_id": "36eca1dc50f270cf2c19ac9683820905", "type": "electric_scooter", "is_disabled": 0, "lat": 38.91896, "rental_uris": {"ios": "https://dc.lft.to/lastmile_qr_scan", "android": "https://dc.lft.to/lastmile_qr_scan"}, "is_reserved": 0, "fusion_lon": 0.0, "fusion_lat": 0.0, "lon": -77.003161, "name": "36eca1dc50f270cf2c19ac9683820905"}, {"bike_id": "22c422e9c4a51a1f67138532eb34f66c", "type": "electric_scooter", "is_disabled": 0, "lat": 38.92220583333334, "rental_uris": {"ios": "https://dc.lft.to/lastmile_qr_scan", "android": "https://dc.lft.to/lastmile_qr_scan"}, "is_reserved": 0, "fusion_lon": 0.0, "fusion_lat": 0.0, "lon": -77.02661616666667, "name": "22c422e9c4a51a1f67138532eb34f66c"}, {"bike_id": "13f2387ab3b6cad659d15a81fd3e6b10", "type": "electric_scooter", "is_disabled": 0, "lat": 38.902604333333336, "rental_uris": {"ios": "https://dc.lft.to/lastmile_qr_scan", "android": "https://dc.lft.to/lastmile_qr_scan"}, "is_reserved": 0, "fusion_lon": 0.0, "fusion_lat": 0.0, "lon": -77.00332616666667, "name": "13f2387ab3b6cad659d15a81fd3e6b10"}, {"bike_id": "8edc6f1f4b099186ffcc6a1ab3742971", "type": "electric_scooter", "is_disabled": 0, "lat": 38.918823833333335, "rental_uris": {"ios": "https://dc.lft.to/lastmile_qr_scan", "android": "https://dc.lft.to/lastmile_qr_scan"}, "is_reserved": 0, "fusion_lon": 0.0, "fusion_lat": 0.0, "lon": -77.03486833333334, "name": "8edc6f1f4b099186ffcc6a1ab3742971"}, {"bike_id": "c25e438bda92fca9cb2216a630cc0960", "type": "electric_scooter", "is_disabled": 0, "lat": 38.9222875, "rental_uris": {"ios": "https://dc.lft.to/lastmile_qr_scan", "android": "https://dc.lft.to/lastmile_qr_scan"}, "is_reserved": 0, "fusion_lon": 0.0, "fusion_lat": 0.0, "lon": -77.04420483333334, "name": "c25e438bda92fca9cb2216a630cc0960"}, {"bike_id": "cc2b31f0d5652b5db5642388e7f32dea", "type": "electric_scooter", "is_disabled": 0, "lat": 38.89963933333333, "rental_uris": {"ios": "https://dc.lft.to/lastmile_qr_scan", "android": "https://dc.lft.to/lastmile_qr_scan"}, "is_reserved": 0, "fusion_lon": 0.0, "fusion_lat": 0.0, "lon": -77.023853, "name": "cc2b31f0d5652b5db5642388e7f32dea"}, {"bike_id": "5f68f2c8801ed9cfb800ca0188e46236", "type": "electric_scooter", "is_disabled": 0, "lat": 38.86515633333333, "rental_uris": {"ios": "https://dc.lft.to/lastmile_qr_scan", "android": "https://dc.lft.to/lastmile_qr_scan"}, "is_reserved": 0, "fusion_lon": 0.0, "fusion_lat": 0.0, "lon": -76.99018666666667, "name": "5f68f2c8801ed9cfb800ca0188e46236"}, {"bike_id": "8d865daac6ab89c9bb5a207dfaba8971", "type": "electric_scooter", "is_disabled": 0, "lat": 38.90796266666667, "rental_uris": {"ios": "https://dc.lft.to/lastmile_qr_scan", "android": "https://dc.lft.to/lastmile_qr_scan"}, "is_reserved": 0, "fusion_lon": 0.0, "fusion_lat": 0.0, "lon": -77.010175, "name": "8d865daac6ab89c9bb5a207dfaba8971"}, {"bike_id": "26c7e203eac63e6832885d1b1eca7e54", "type": "electric_scooter", "is_disabled": 0, "lat": 38.912407, "rental_uris": {"ios": "https://dc.lft.to/lastmile_qr_scan", "android": "https://dc.lft.to/lastmile_qr_scan"}, "is_reserved": 0, "fusion_lon": 0.0, "fusion_lat": 0.0, "lon": -77.00921666666666, "name": "26c7e203eac63e6832885d1b1eca7e54"}, {"bike_id": "0d784427977571bf78a59d87578166be", "type": "electric_scooter", "is_disabled": 0, "lat": 38.949020833333336, "rental_uris": {"ios": "https://dc.lft.to/lastmile_qr_scan", "android": "https://dc.lft.to/lastmile_qr_scan"}, "is_reserved": 0, "fusion_lon": 0.0, "fusion_lat": 0.0, "lon": -77.00649466666667, "name": "0d784427977571bf78a59d87578166be"}, {"bike_id": "9edf094496f941aa3285ab459c2bd50d", "type": "electric_scooter", "is_disabled": 0, "lat": 38.91662516666667, "rental_uris": {"ios": "https://dc.lft.to/lastmile_qr_scan", "android": "https://dc.lft.to/lastmile_qr_scan"}, "is_reserved": 0, "fusion_lon": 0.0, "fusion_lat": 0.0, "lon": -77.02892416666667, "name": "9edf094496f941aa3285ab459c2bd50d"}, {"bike_id": "adb3e78fe5feaaf28ec89d23d60171f3", "type": "electric_scooter", "is_disabled": 0, "lat": 38.9065055, "rental_uris": {"ios": "https://dc.lft.to/lastmile_qr_scan", "android": "https://dc.lft.to/lastmile_qr_scan"}, "is_reserved": 0, "fusion_lon": 0.0, "fusion_lat": 0.0, "lon": -77.0532165, "name": "adb3e78fe5feaaf28ec89d23d60171f3"}, {"bike_id": "7ed807c03d103c57f896844b4407d164", "type": "electric_scooter", "is_disabled": 0, "lat": 38.92407733333334, "rental_uris": {"ios": "https://dc.lft.to/lastmile_qr_scan", "android": "https://dc.lft.to/lastmile_qr_scan"}, "is_reserved": 0, "fusion_lon": 0.0, "fusion_lat": 0.0, "lon": -77.029829, "name": "7ed807c03d103c57f896844b4407d164"}, {"bike_id": "048ba974306beb8016770a16bb5cc5e4", "type": "electric_scooter", "is_disabled": 0, "lat": 38.93284516666667, "rental_uris": {"ios": "https://dc.lft.to/lastmile_qr_scan", "android": "https://dc.lft.to/lastmile_qr_scan"}, "is_reserved": 0, "fusion_lon": 0.0, "fusion_lat": 0.0, "lon": -77.03674166666667, "name": "048ba974306beb8016770a16bb5cc5e4"}, {"bike_id": "f4b93e62d679229904cb9dd8ba9b60e1", "type": "electric_scooter", "is_disabled": 0, "lat": 38.915931666666665, "rental_uris": {"ios": "https://dc.lft.to/lastmile_qr_scan", "android": "https://dc.lft.to/lastmile_qr_scan"}, "is_reserved": 0, "fusion_lon": 0.0, "fusion_lat": 0.0, "lon": -77.01224, "name": "f4b93e62d679229904cb9dd8ba9b60e1"}, {"bike_id": "7ababb8e38d782f16a5d67984bdaf0d9", "type": "electric_scooter", "is_disabled": 0, "lat": 38.908627333333335, "rental_uris": {"ios": "https://dc.lft.to/lastmile_qr_scan", "android": "https://dc.lft.to/lastmile_qr_scan"}, "is_reserved": 0, "fusion_lon": 0.0, "fusion_lat": 0.0, "lon": -77.02825233333333, "name": "7ababb8e38d782f16a5d67984bdaf0d9"}, {"bike_id": "2eca3f34e748bd8d11418e227bd095db", "type": "electric_scooter", "is_disabled": 0, "lat": 38.92461266666667, "rental_uris": {"ios": "https://dc.lft.to/lastmile_qr_scan", "android": "https://dc.lft.to/lastmile_qr_scan"}, "is_reserved": 0, "fusion_lon": 0.0, "fusion_lat": 0.0, "lon": -77.05235, "name": "2eca3f34e748bd8d11418e227bd095db"}, {"bike_id": "8c2fcf432dd60ecd137a88d0238aa04b", "type": "electric_scooter", "is_disabled": 0, "lat": 38.91044683333333, "rental_uris": {"ios": "https://dc.lft.to/lastmile_qr_scan", "android": "https://dc.lft.to/lastmile_qr_scan"}, "is_reserved": 0, "fusion_lon": 0.0, "fusion_lat": 0.0, "lon": -77.0102685, "name": "8c2fcf432dd60ecd137a88d0238aa04b"}, {"bike_id": "66b8f2280c69c9b1cf31f17bf3dbaec8", "type": "electric_scooter", "is_disabled": 0, "lat": 38.92156633333333, "rental_uris": {"ios": "https://dc.lft.to/lastmile_qr_scan", "android": "https://dc.lft.to/lastmile_qr_scan"}, "is_reserved": 0, "fusion_lon": 0.0, "fusion_lat": 0.0, "lon": -77.03383233333334, "name": "66b8f2280c69c9b1cf31f17bf3dbaec8"}, {"bike_id": "b383ce811dedbc494ee29d8444553deb", "type": "electric_scooter", "is_disabled": 0, "lat": 38.92870766666667, "rental_uris": {"ios": "https://dc.lft.to/lastmile_qr_scan", "android": "https://dc.lft.to/lastmile_qr_scan"}, "is_reserved": 0, "fusion_lon": 0.0, "fusion_lat": 0.0, "lon": -77.032612, "name": "b383ce811dedbc494ee29d8444553deb"}, {"bike_id": "e456515a94584d434d61da6b0107473c", "type": "electric_scooter", "is_disabled": 0, "lat": 38.9111145, "rental_uris": {"ios": "https://dc.lft.to/lastmile_qr_scan", "android": "https://dc.lft.to/lastmile_qr_scan"}, "is_reserved": 0, "fusion_lon": 0.0, "fusion_lat": 0.0, "lon": -77.03287233333333, "name": "e456515a94584d434d61da6b0107473c"}, {"bike_id": "b93ebb6c5757fb6cc2c90922ce274cf6", "type": "electric_scooter", "is_disabled": 0, "lat": 38.91567166666667, "rental_uris": {"ios": "https://dc.lft.to/lastmile_qr_scan", "android": "https://dc.lft.to/lastmile_qr_scan"}, "is_reserved": 0, "fusion_lon": 0.0, "fusion_lat": 0.0, "lon": -77.04281683333333, "name": "b93ebb6c5757fb6cc2c90922ce274cf6"}, {"bike_id": "7d8b3af4203ecbc877e0746d5f77815c", "type": "electric_bike", "is_disabled": 0, "lat": 39.043048166666665, "rental_uris": {"ios": "https://dc.lft.to/lastmile_qr_scan", "android": "https://dc.lft.to/lastmile_qr_scan"}, "is_reserved": 0, "fusion_lon": 0.0, "fusion_lat": 0.0, "lon": -77.051582, "name": "7d8b3af4203ecbc877e0746d5f77815c"}, {"bike_id": "840acce268088a3dde3755fbf0cc2cf6", "type": "electric_scooter", "is_disabled": 0, "lat": 38.84439066666667, "rental_uris": {"ios": "https://dc.lft.to/lastmile_qr_scan", "android": "https://dc.lft.to/lastmile_qr_scan"}, "is_reserved": 0, "fusion_lon": 0.0, "fusion_lat": 0.0, "lon": -76.9977755, "name": "840acce268088a3dde3755fbf0cc2cf6"}, {"bike_id": "a89ee988a5b9f0c9d724730bc68f874e", "type": "electric_scooter", "is_disabled": 0, "lat": 38.938644833333335, "rental_uris": {"ios": "https://dc.lft.to/lastmile_qr_scan", "android": "https://dc.lft.to/lastmile_qr_scan"}, "is_reserved": 0, "fusion_lon": 0.0, "fusion_lat": 0.0, "lon": -77.03088533333333, "name": "a89ee988a5b9f0c9d724730bc68f874e"}, {"bike_id": "07ede373bf4fe9cdc5b2c34311a5b49d", "type": "electric_scooter", "is_disabled": 0, "lat": 38.921925, "rental_uris": {"ios": "https://dc.lft.to/lastmile_qr_scan", "android": "https://dc.lft.to/lastmile_qr_scan"}, "is_reserved": 0, "fusion_lon": 0.0, "fusion_lat": 0.0, "lon": -76.993654, "name": "07ede373bf4fe9cdc5b2c34311a5b49d"}, {"bike_id": "d034ea3dc2eea1314406f532de76e757", "type": "electric_scooter", "is_disabled": 0, "lat": 38.901655833333336, "rental_uris": {"ios": "https://dc.lft.to/lastmile_qr_scan", "android": "https://dc.lft.to/lastmile_qr_scan"}, "is_reserved": 0, "fusion_lon": 0.0, "fusion_lat": 0.0, "lon": -77.03124683333333, "name": "d034ea3dc2eea1314406f532de76e757"}, {"bike_id": "33625ad71a0752964da8f8c8a0d83b63", "type": "electric_bike", "is_disabled": 0, "lat": 38.82379683333333, "rental_uris": {"ios": "https://dc.lft.to/lastmile_qr_scan", "android": "https://dc.lft.to/lastmile_qr_scan"}, "is_reserved": 0, "fusion_lon": 0.0, "fusion_lat": 0.0, "lon": -77.00227766666667, "name": "33625ad71a0752964da8f8c8a0d83b63"}, {"bike_id": "6b23e7026500770a3b80f67c1cce5697", "type": "electric_scooter", "is_disabled": 0, "lat": 38.918743666666664, "rental_uris": {"ios": "https://dc.lft.to/lastmile_qr_scan", "android": "https://dc.lft.to/lastmile_qr_scan"}, "is_reserved": 0, "fusion_lon": 0.0, "fusion_lat": 0.0, "lon": -77.035023, "name": "6b23e7026500770a3b80f67c1cce5697"}, {"bike_id": "6b6304151b39a2e203134ecd96a7ea11", "type": "electric_scooter", "is_disabled": 0, "lat": 38.910431, "rental_uris": {"ios": "https://dc.lft.to/lastmile_qr_scan", "android": "https://dc.lft.to/lastmile_qr_scan"}, "is_reserved": 0, "fusion_lon": 0.0, "fusion_lat": 0.0, "lon": -77.07357016666667, "name": "6b6304151b39a2e203134ecd96a7ea11"}, {"bike_id": "405b3e63d36ddfa6d53a4ef82f3577ce", "type": "electric_scooter", "is_disabled": 0, "lat": 38.893591, "rental_uris": {"ios": "https://dc.lft.to/lastmile_qr_scan", "android": "https://dc.lft.to/lastmile_qr_scan"}, "is_reserved": 0, "fusion_lon": 0.0, "fusion_lat": 0.0, "lon": -76.94935033333333, "name": "405b3e63d36ddfa6d53a4ef82f3577ce"}, {"bike_id": "6af147cbeccde05f56f00fd33538b14a", "type": "electric_bike", "is_disabled": 0, "lat": 38.905089, "rental_uris": {"ios": "https://dc.lft.to/lastmile_qr_scan", "android": "https://dc.lft.to/lastmile_qr_scan"}, "is_reserved": 0, "fusion_lon": 0.0, "fusion_lat": 0.0, "lon": -76.98727433333333, "name": "6af147cbeccde05f56f00fd33538b14a"}, {"bike_id": "a392f8de519fbb9c46ce4679b563486e", "type": "electric_scooter", "is_disabled": 0, "lat": 38.91543033333333, "rental_uris": {"ios": "https://dc.lft.to/lastmile_qr_scan", "android": "https://dc.lft.to/lastmile_qr_scan"}, "is_reserved": 0, "fusion_lon": 0.0, "fusion_lat": 0.0, "lon": -76.97027683333333, "name": "a392f8de519fbb9c46ce4679b563486e"}, {"bike_id": "675c1577a4bc1dd8fcdd48e613aa3a64", "type": "electric_scooter", "is_disabled": 0, "lat": 38.92796583333333, "rental_uris": {"ios": "https://dc.lft.to/lastmile_qr_scan", "android": "https://dc.lft.to/lastmile_qr_scan"}, "is_reserved": 0, "fusion_lon": 0.0, "fusion_lat": 0.0, "lon": -77.0319125, "name": "675c1577a4bc1dd8fcdd48e613aa3a64"}, {"bike_id": "e3e891c888c449b7c2dbc25f037393e5", "type": "electric_scooter", "is_disabled": 0, "lat": 38.90006266666666, "rental_uris": {"ios": "https://dc.lft.to/lastmile_qr_scan", "android": "https://dc.lft.to/lastmile_qr_scan"}, "is_reserved": 0, "fusion_lon": 0.0, "fusion_lat": 0.0, "lon": -76.99620083333333, "name": "e3e891c888c449b7c2dbc25f037393e5"}, {"bike_id": "c7574c1b7992c46207aa0a2145937c69", "type": "electric_scooter", "is_disabled": 0, "lat": 38.902420666666664, "rental_uris": {"ios": "https://dc.lft.to/lastmile_qr_scan", "android": "https://dc.lft.to/lastmile_qr_scan"}, "is_reserved": 0, "fusion_lon": 0.0, "fusion_lat": 0.0, "lon": -77.01868766666666, "name": "c7574c1b7992c46207aa0a2145937c69"}, {"bike_id": "6f18d0fc82d1eff57d9d2a43f20b8cf4", "type": "electric_scooter", "is_disabled": 0, "lat": 38.907366, "rental_uris": {"ios": "https://dc.lft.to/lastmile_qr_scan", "android": "https://dc.lft.to/lastmile_qr_scan"}, "is_reserved": 0, "fusion_lon": 0.0, "fusion_lat": 0.0, "lon": -77.0344865, "name": "6f18d0fc82d1eff57d9d2a43f20b8cf4"}, {"bike_id": "83f3dea4fb27df26d4fa97ec57168cf8", "type": "electric_scooter", "is_disabled": 0, "lat": 38.894957, "rental_uris": {"ios": "https://dc.lft.to/lastmile_qr_scan", "android": "https://dc.lft.to/lastmile_qr_scan"}, "is_reserved": 0, "fusion_lon": 0.0, "fusion_lat": 0.0, "lon": -77.02183766666667, "name": "83f3dea4fb27df26d4fa97ec57168cf8"}, {"bike_id": "5ac4d26b65b1ab0d7ac0586bc401ca57", "type": "electric_bike", "is_disabled": 0, "lat": 38.8824525, "rental_uris": {"ios": "https://dc.lft.to/lastmile_qr_scan", "android": "https://dc.lft.to/lastmile_qr_scan"}, "is_reserved": 0, "fusion_lon": 0.0, "fusion_lat": 0.0, "lon": -76.96253233333333, "name": "5ac4d26b65b1ab0d7ac0586bc401ca57"}, {"bike_id": "91b807ef9a18270081b1eb161ea37e4b", "type": "electric_scooter", "is_disabled": 0, "lat": 38.9035285, "rental_uris": {"ios": "https://dc.lft.to/lastmile_qr_scan", "android": "https://dc.lft.to/lastmile_qr_scan"}, "is_reserved": 0, "fusion_lon": 0.0, "fusion_lat": 0.0, "lon": -77.019678, "name": "91b807ef9a18270081b1eb161ea37e4b"}, {"bike_id": "a256e8240250300f150f72d411266a59", "type": "electric_scooter", "is_disabled": 0, "lat": 38.899764833333336, "rental_uris": {"ios": "https://dc.lft.to/lastmile_qr_scan", "android": "https://dc.lft.to/lastmile_qr_scan"}, "is_reserved": 0, "fusion_lon": 0.0, "fusion_lat": 0.0, "lon": -77.04773783333333, "name": "a256e8240250300f150f72d411266a59"}, {"bike_id": "d79c99ba27eb4094a4e7def73d574b78", "type": "electric_scooter", "is_disabled": 0, "lat": 38.923339666666664, "rental_uris": {"ios": "https://dc.lft.to/lastmile_qr_scan", "android": "https://dc.lft.to/lastmile_qr_scan"}, "is_reserved": 0, "fusion_lon": 0.0, "fusion_lat": 0.0, "lon": -77.0358965, "name": "d79c99ba27eb4094a4e7def73d574b78"}, {"bike_id": "8e7873342ff8d433bdd72831c3f75c2f", "type": "electric_scooter", "is_disabled": 0, "lat": 38.932928, "rental_uris": {"ios": "https://dc.lft.to/lastmile_qr_scan", "android": "https://dc.lft.to/lastmile_qr_scan"}, "is_reserved": 0, "fusion_lon": 0.0, "fusion_lat": 0.0, "lon": -77.03543766666667, "name": "8e7873342ff8d433bdd72831c3f75c2f"}, {"bike_id": "5b2a919423722af6431b951e7a84ceb1", "type": "electric_scooter", "is_disabled": 0, "lat": 38.9105295, "rental_uris": {"ios": "https://dc.lft.to/lastmile_qr_scan", "android": "https://dc.lft.to/lastmile_qr_scan"}, "is_reserved": 0, "fusion_lon": 0.0, "fusion_lat": 0.0, "lon": -77.009191, "name": "5b2a919423722af6431b951e7a84ceb1"}, {"bike_id": "9cc53e5b3c47804fa706a12e8d7e8d84", "type": "electric_scooter", "is_disabled": 0, "lat": 38.91108833333333, "rental_uris": {"ios": "https://dc.lft.to/lastmile_qr_scan", "android": "https://dc.lft.to/lastmile_qr_scan"}, "is_reserved": 0, "fusion_lon": 0.0, "fusion_lat": 0.0, "lon": -77.038334, "name": "9cc53e5b3c47804fa706a12e8d7e8d84"}, {"bike_id": "36728e6b039e69505ff7ae373a709220", "type": "electric_scooter", "is_disabled": 0, "lat": 38.862035166666665, "rental_uris": {"ios": "https://dc.lft.to/lastmile_qr_scan", "android": "https://dc.lft.to/lastmile_qr_scan"}, "is_reserved": 0, "fusion_lon": 0.0, "fusion_lat": 0.0, "lon": -77.0882905, "name": "36728e6b039e69505ff7ae373a709220"}, {"bike_id": "bb95cab99e74bc9aa6e58eacea5387e4", "type": "electric_scooter", "is_disabled": 0, "lat": 38.87948633333333, "rental_uris": {"ios": "https://dc.lft.to/lastmile_qr_scan", "android": "https://dc.lft.to/lastmile_qr_scan"}, "is_reserved": 0, "fusion_lon": 0.0, "fusion_lat": 0.0, "lon": -77.023573, "name": "bb95cab99e74bc9aa6e58eacea5387e4"}, {"bike_id": "e01db45000b1799633b7063e53b64b78", "type": "electric_scooter", "is_disabled": 0, "lat": 38.90952133333333, "rental_uris": {"ios": "https://dc.lft.to/lastmile_qr_scan", "android": "https://dc.lft.to/lastmile_qr_scan"}, "is_reserved": 0, "fusion_lon": 0.0, "fusion_lat": 0.0, "lon": -77.04492133333333, "name": "e01db45000b1799633b7063e53b64b78"}, {"bike_id": "29dd17a3e2c6f6638eea6f47e50ddce9", "type": "electric_scooter", "is_disabled": 0, "lat": 38.90337066666667, "rental_uris": {"ios": "https://dc.lft.to/lastmile_qr_scan", "android": "https://dc.lft.to/lastmile_qr_scan"}, "is_reserved": 0, "fusion_lon": 0.0, "fusion_lat": 0.0, "lon": -77.05294683333334, "name": "29dd17a3e2c6f6638eea6f47e50ddce9"}, {"bike_id": "937d4dc272300c2109d24a5b72384ce7", "type": "electric_scooter", "is_disabled": 0, "lat": 38.910614833333334, "rental_uris": {"ios": "https://dc.lft.to/lastmile_qr_scan", "android": "https://dc.lft.to/lastmile_qr_scan"}, "is_reserved": 0, "fusion_lon": 0.0, "fusion_lat": 0.0, "lon": -77.03720583333333, "name": "937d4dc272300c2109d24a5b72384ce7"}, {"bike_id": "704a2141cce90ae730bb0421157c9de9", "type": "electric_scooter", "is_disabled": 0, "lat": 38.91711316666667, "rental_uris": {"ios": "https://dc.lft.to/lastmile_qr_scan", "android": "https://dc.lft.to/lastmile_qr_scan"}, "is_reserved": 0, "fusion_lon": 0.0, "fusion_lat": 0.0, "lon": -77.03463366666666, "name": "704a2141cce90ae730bb0421157c9de9"}, {"bike_id": "5667a012282fda937272af5e74e073f3", "type": "electric_scooter", "is_disabled": 0, "lat": 38.908147666666665, "rental_uris": {"ios": "https://dc.lft.to/lastmile_qr_scan", "android": "https://dc.lft.to/lastmile_qr_scan"}, "is_reserved": 0, "fusion_lon": 0.0, "fusion_lat": 0.0, "lon": -77.03451433333333, "name": "5667a012282fda937272af5e74e073f3"}, {"bike_id": "46b853b3fb0f5a33f1f3cee463c881db", "type": "electric_bike", "is_disabled": 0, "lat": 38.93460966666667, "rental_uris": {"ios": "https://dc.lft.to/lastmile_qr_scan", "android": "https://dc.lft.to/lastmile_qr_scan"}, "is_reserved": 0, "fusion_lon": 0.0, "fusion_lat": 0.0, "lon": -77.027133, "name": "46b853b3fb0f5a33f1f3cee463c881db"}, {"bike_id": "91806e8d3aea20ea9c9f3b3fef3808ed", "type": "electric_scooter", "is_disabled": 0, "lat": 38.905354, "rental_uris": {"ios": "https://dc.lft.to/lastmile_qr_scan", "android": "https://dc.lft.to/lastmile_qr_scan"}, "is_reserved": 0, "fusion_lon": 0.0, "fusion_lat": 0.0, "lon": -77.05940366666667, "name": "91806e8d3aea20ea9c9f3b3fef3808ed"}, {"bike_id": "168f1028daca00aece538e77a0c6015a", "type": "electric_scooter", "is_disabled": 0, "lat": 38.89702416666667, "rental_uris": {"ios": "https://dc.lft.to/lastmile_qr_scan", "android": "https://dc.lft.to/lastmile_qr_scan"}, "is_reserved": 0, "fusion_lon": 0.0, "fusion_lat": 0.0, "lon": -76.9300255, "name": "168f1028daca00aece538e77a0c6015a"}, {"bike_id": "82fd970f692e0ab070ce60015672e442", "type": "electric_scooter", "is_disabled": 0, "lat": 38.90739516666667, "rental_uris": {"ios": "https://dc.lft.to/lastmile_qr_scan", "android": "https://dc.lft.to/lastmile_qr_scan"}, "is_reserved": 0, "fusion_lon": 0.0, "fusion_lat": 0.0, "lon": -77.01324133333334, "name": "82fd970f692e0ab070ce60015672e442"}, {"bike_id": "cec5c62f62e67518e4dfc12200b4d529", "type": "electric_scooter", "is_disabled": 0, "lat": 38.9012115, "rental_uris": {"ios": "https://dc.lft.to/lastmile_qr_scan", "android": "https://dc.lft.to/lastmile_qr_scan"}, "is_reserved": 0, "fusion_lon": 0.0, "fusion_lat": 0.0, "lon": -77.02516733333333, "name": "cec5c62f62e67518e4dfc12200b4d529"}, {"bike_id": "0b9482f7396171c1faf552208b57782b", "type": "electric_scooter", "is_disabled": 0, "lat": 38.90240516666667, "rental_uris": {"ios": "https://dc.lft.to/lastmile_qr_scan", "android": "https://dc.lft.to/lastmile_qr_scan"}, "is_reserved": 0, "fusion_lon": 0.0, "fusion_lat": 0.0, "lon": -76.9962775, "name": "0b9482f7396171c1faf552208b57782b"}, {"bike_id": "412efb61308d5816ee4d82e1c5c4def4", "type": "electric_scooter", "is_disabled": 0, "lat": 38.903317, "rental_uris": {"ios": "https://dc.lft.to/lastmile_qr_scan", "android": "https://dc.lft.to/lastmile_qr_scan"}, "is_reserved": 0, "fusion_lon": 0.0, "fusion_lat": 0.0, "lon": -77.03653366666667, "name": "412efb61308d5816ee4d82e1c5c4def4"}, {"bike_id": "51257a3b1709bf51c78efb19eb305849", "type": "electric_scooter", "is_disabled": 0, "lat": 38.92482616666667, "rental_uris": {"ios": "https://dc.lft.to/lastmile_qr_scan", "android": "https://dc.lft.to/lastmile_qr_scan"}, "is_reserved": 0, "fusion_lon": 0.0, "fusion_lat": 0.0, "lon": -77.02840016666667, "name": "51257a3b1709bf51c78efb19eb305849"}, {"bike_id": "8bf807ad06e30a0f79bec4c10419fdf0", "type": "electric_scooter", "is_disabled": 0, "lat": 38.922609666666666, "rental_uris": {"ios": "https://dc.lft.to/lastmile_qr_scan", "android": "https://dc.lft.to/lastmile_qr_scan"}, "is_reserved": 0, "fusion_lon": 0.0, "fusion_lat": 0.0, "lon": -77.04295066666667, "name": "8bf807ad06e30a0f79bec4c10419fdf0"}, {"bike_id": "254a02c64716a868920e954a45876f73", "type": "electric_scooter", "is_disabled": 0, "lat": 38.918197, "rental_uris": {"ios": "https://dc.lft.to/lastmile_qr_scan", "android": "https://dc.lft.to/lastmile_qr_scan"}, "is_reserved": 0, "fusion_lon": 0.0, "fusion_lat": 0.0, "lon": -77.00765416666667, "name": "254a02c64716a868920e954a45876f73"}, {"bike_id": "b503afa512f8ab564b4d1b4a2f24548f", "type": "electric_scooter", "is_disabled": 0, "lat": 38.92739916666667, "rental_uris": {"ios": "https://dc.lft.to/lastmile_qr_scan", "android": "https://dc.lft.to/lastmile_qr_scan"}, "is_reserved": 0, "fusion_lon": 0.0, "fusion_lat": 0.0, "lon": -77.01460716666666, "name": "b503afa512f8ab564b4d1b4a2f24548f"}, {"bike_id": "fca91515ada976fc35c4a1a2d5b6d2f1", "type": "electric_scooter", "is_disabled": 0, "lat": 38.9015115, "rental_uris": {"ios": "https://dc.lft.to/lastmile_qr_scan", "android": "https://dc.lft.to/lastmile_qr_scan"}, "is_reserved": 0, "fusion_lon": 0.0, "fusion_lat": 0.0, "lon": -76.99020966666667, "name": "fca91515ada976fc35c4a1a2d5b6d2f1"}, {"bike_id": "185f5f57d0f771ff25b24baf3ae52056", "type": "electric_scooter", "is_disabled": 0, "lat": 38.9075865, "rental_uris": {"ios": "https://dc.lft.to/lastmile_qr_scan", "android": "https://dc.lft.to/lastmile_qr_scan"}, "is_reserved": 0, "fusion_lon": 0.0, "fusion_lat": 0.0, "lon": -77.031889, "name": "185f5f57d0f771ff25b24baf3ae52056"}, {"bike_id": "cecb6028f511d0857eca0bcb1412c085", "type": "electric_bike", "is_disabled": 0, "lat": 38.87985583333333, "rental_uris": {"ios": "https://dc.lft.to/lastmile_qr_scan", "android": "https://dc.lft.to/lastmile_qr_scan"}, "is_reserved": 0, "fusion_lon": 0.0, "fusion_lat": 0.0, "lon": -76.98509333333334, "name": "cecb6028f511d0857eca0bcb1412c085"}, {"bike_id": "22e75a123b0ecb04989228901abc3146", "type": "electric_scooter", "is_disabled": 0, "lat": 38.931721333333336, "rental_uris": {"ios": "https://dc.lft.to/lastmile_qr_scan", "android": "https://dc.lft.to/lastmile_qr_scan"}, "is_reserved": 0, "fusion_lon": 0.0, "fusion_lat": 0.0, "lon": -77.02820266666667, "name": "22e75a123b0ecb04989228901abc3146"}, {"bike_id": "7ae42dd560f77b6044a9bb7fdbbf1383", "type": "electric_scooter", "is_disabled": 0, "lat": 38.93764733333333, "rental_uris": {"ios": "https://dc.lft.to/lastmile_qr_scan", "android": "https://dc.lft.to/lastmile_qr_scan"}, "is_reserved": 0, "fusion_lon": 0.0, "fusion_lat": 0.0, "lon": -77.01968533333333, "name": "7ae42dd560f77b6044a9bb7fdbbf1383"}, {"bike_id": "344181d58acfb66be4bc5607b8c6d536", "type": "electric_scooter", "is_disabled": 0, "lat": 38.89345516666667, "rental_uris": {"ios": "https://dc.lft.to/lastmile_qr_scan", "android": "https://dc.lft.to/lastmile_qr_scan"}, "is_reserved": 0, "fusion_lon": 0.0, "fusion_lat": 0.0, "lon": -76.993854, "name": "344181d58acfb66be4bc5607b8c6d536"}, {"bike_id": "f04533c751ae69cd1ce3a43e54a02f49", "type": "electric_scooter", "is_disabled": 0, "lat": 38.92159633333333, "rental_uris": {"ios": "https://dc.lft.to/lastmile_qr_scan", "android": "https://dc.lft.to/lastmile_qr_scan"}, "is_reserved": 0, "fusion_lon": 0.0, "fusion_lat": 0.0, "lon": -77.03382483333333, "name": "f04533c751ae69cd1ce3a43e54a02f49"}, {"bike_id": "4d840952c77b73190721f6c438f806c6", "type": "electric_scooter", "is_disabled": 0, "lat": 38.916320999999996, "rental_uris": {"ios": "https://dc.lft.to/lastmile_qr_scan", "android": "https://dc.lft.to/lastmile_qr_scan"}, "is_reserved": 0, "fusion_lon": 0.0, "fusion_lat": 0.0, "lon": -77.0295135, "name": "4d840952c77b73190721f6c438f806c6"}, {"bike_id": "340e79deb842de366b3354d76350f561", "type": "electric_scooter", "is_disabled": 0, "lat": 38.929390833333336, "rental_uris": {"ios": "https://dc.lft.to/lastmile_qr_scan", "android": "https://dc.lft.to/lastmile_qr_scan"}, "is_reserved": 0, "fusion_lon": 0.0, "fusion_lat": 0.0, "lon": -77.01989066666667, "name": "340e79deb842de366b3354d76350f561"}, {"bike_id": "bb1610cfdd3b7650caf840299891bdc9", "type": "electric_scooter", "is_disabled": 0, "lat": 38.889724, "rental_uris": {"ios": "https://dc.lft.to/lastmile_qr_scan", "android": "https://dc.lft.to/lastmile_qr_scan"}, "is_reserved": 0, "fusion_lon": 0.0, "fusion_lat": 0.0, "lon": -76.98242516666667, "name": "bb1610cfdd3b7650caf840299891bdc9"}, {"bike_id": "8be4fcaf9ee4ff7652712de8054194e3", "type": "electric_scooter", "is_disabled": 0, "lat": 38.90281, "rental_uris": {"ios": "https://dc.lft.to/lastmile_qr_scan", "android": "https://dc.lft.to/lastmile_qr_scan"}, "is_reserved": 0, "fusion_lon": 0.0, "fusion_lat": 0.0, "lon": -77.0035725, "name": "8be4fcaf9ee4ff7652712de8054194e3"}, {"bike_id": "12784b3cbe957b6692b1b7e907264e41", "type": "electric_scooter", "is_disabled": 0, "lat": 38.85894583333334, "rental_uris": {"ios": "https://dc.lft.to/lastmile_qr_scan", "android": "https://dc.lft.to/lastmile_qr_scan"}, "is_reserved": 0, "fusion_lon": 0.0, "fusion_lat": 0.0, "lon": -76.99731233333333, "name": "12784b3cbe957b6692b1b7e907264e41"}, {"bike_id": "99cb35216eb50b214d4bb68db6abcd62", "type": "electric_scooter", "is_disabled": 0, "lat": 38.91196266666667, "rental_uris": {"ios": "https://dc.lft.to/lastmile_qr_scan", "android": "https://dc.lft.to/lastmile_qr_scan"}, "is_reserved": 0, "fusion_lon": 0.0, "fusion_lat": 0.0, "lon": -77.00398216666666, "name": "99cb35216eb50b214d4bb68db6abcd62"}, {"bike_id": "130f851f8f4ae8c7a5fd796aa995374a", "type": "electric_scooter", "is_disabled": 0, "lat": 38.918489666666666, "rental_uris": {"ios": "https://dc.lft.to/lastmile_qr_scan", "android": "https://dc.lft.to/lastmile_qr_scan"}, "is_reserved": 0, "fusion_lon": 0.0, "fusion_lat": 0.0, "lon": -77.03879966666666, "name": "130f851f8f4ae8c7a5fd796aa995374a"}, {"bike_id": "20c06ce98d84b13c41d5a1704a2331e9", "type": "electric_scooter", "is_disabled": 0, "lat": 38.91638916666667, "rental_uris": {"ios": "https://dc.lft.to/lastmile_qr_scan", "android": "https://dc.lft.to/lastmile_qr_scan"}, "is_reserved": 0, "fusion_lon": 0.0, "fusion_lat": 0.0, "lon": -77.0397475, "name": "20c06ce98d84b13c41d5a1704a2331e9"}, {"bike_id": "daeb609c6e44b4e6421d82916ce4feaf", "type": "electric_bike", "is_disabled": 0, "lat": 38.863321166666665, "rental_uris": {"ios": "https://dc.lft.to/lastmile_qr_scan", "android": "https://dc.lft.to/lastmile_qr_scan"}, "is_reserved": 0, "fusion_lon": 0.0, "fusion_lat": 0.0, "lon": -76.9872085, "name": "daeb609c6e44b4e6421d82916ce4feaf"}, {"bike_id": "7e7eef6faca8c1611ade02705edbfb1c", "type": "electric_scooter", "is_disabled": 0, "lat": 38.89988783333333, "rental_uris": {"ios": "https://dc.lft.to/lastmile_qr_scan", "android": "https://dc.lft.to/lastmile_qr_scan"}, "is_reserved": 0, "fusion_lon": 0.0, "fusion_lat": 0.0, "lon": -76.95001566666667, "name": "7e7eef6faca8c1611ade02705edbfb1c"}, {"bike_id": "84702991bc07e51f4764a7ae736e0f39", "type": "electric_scooter", "is_disabled": 0, "lat": 38.893237, "rental_uris": {"ios": "https://dc.lft.to/lastmile_qr_scan", "android": "https://dc.lft.to/lastmile_qr_scan"}, "is_reserved": 0, "fusion_lon": 0.0, "fusion_lat": 0.0, "lon": -77.048801, "name": "84702991bc07e51f4764a7ae736e0f39"}, {"bike_id": "585d7881e39c2e7c50d801d6fea18605", "type": "electric_scooter", "is_disabled": 0, "lat": 38.899012166666665, "rental_uris": {"ios": "https://dc.lft.to/lastmile_qr_scan", "android": "https://dc.lft.to/lastmile_qr_scan"}, "is_reserved": 0, "fusion_lon": 0.0, "fusion_lat": 0.0, "lon": -77.0153115, "name": "585d7881e39c2e7c50d801d6fea18605"}, {"bike_id": "de42e676ea937436fc656dea14ba4693", "type": "electric_scooter", "is_disabled": 0, "lat": 38.95152916666667, "rental_uris": {"ios": "https://dc.lft.to/lastmile_qr_scan", "android": "https://dc.lft.to/lastmile_qr_scan"}, "is_reserved": 0, "fusion_lon": 0.0, "fusion_lat": 0.0, "lon": -77.01873433333333, "name": "de42e676ea937436fc656dea14ba4693"}, {"bike_id": "449dd263750e344448ccab9ca47f384c", "type": "electric_scooter", "is_disabled": 0, "lat": 38.87736566666667, "rental_uris": {"ios": "https://dc.lft.to/lastmile_qr_scan", "android": "https://dc.lft.to/lastmile_qr_scan"}, "is_reserved": 0, "fusion_lon": 0.0, "fusion_lat": 0.0, "lon": -77.01767116666667, "name": "449dd263750e344448ccab9ca47f384c"}, {"bike_id": "5d5c7c77129d66013448a5684efa20aa", "type": "electric_scooter", "is_disabled": 0, "lat": 38.9164265, "rental_uris": {"ios": "https://dc.lft.to/lastmile_qr_scan", "android": "https://dc.lft.to/lastmile_qr_scan"}, "is_reserved": 0, "fusion_lon": 0.0, "fusion_lat": 0.0, "lon": -77.042438, "name": "5d5c7c77129d66013448a5684efa20aa"}, {"bike_id": "2e81e469bfc4adcbcba29e9f36be54af", "type": "electric_scooter", "is_disabled": 0, "lat": 38.874166, "rental_uris": {"ios": "https://dc.lft.to/lastmile_qr_scan", "android": "https://dc.lft.to/lastmile_qr_scan"}, "is_reserved": 0, "fusion_lon": 0.0, "fusion_lat": 0.0, "lon": -76.971188, "name": "2e81e469bfc4adcbcba29e9f36be54af"}, {"bike_id": "0a0c79c619e2dd7835800caf0c4fabf3", "type": "electric_scooter", "is_disabled": 0, "lat": 38.92246133333333, "rental_uris": {"ios": "https://dc.lft.to/lastmile_qr_scan", "android": "https://dc.lft.to/lastmile_qr_scan"}, "is_reserved": 0, "fusion_lon": 0.0, "fusion_lat": 0.0, "lon": -77.07475366666667, "name": "0a0c79c619e2dd7835800caf0c4fabf3"}, {"bike_id": "8bb20e8b1cebc968a52cf7de637d6566", "type": "electric_scooter", "is_disabled": 0, "lat": 38.936742333333335, "rental_uris": {"ios": "https://dc.lft.to/lastmile_qr_scan", "android": "https://dc.lft.to/lastmile_qr_scan"}, "is_reserved": 0, "fusion_lon": 0.0, "fusion_lat": 0.0, "lon": -77.03624583333334, "name": "8bb20e8b1cebc968a52cf7de637d6566"}, {"bike_id": "da25109f25efa35f614c21f7fc819f66", "type": "electric_scooter", "is_disabled": 0, "lat": 38.914042, "rental_uris": {"ios": "https://dc.lft.to/lastmile_qr_scan", "android": "https://dc.lft.to/lastmile_qr_scan"}, "is_reserved": 0, "fusion_lon": 0.0, "fusion_lat": 0.0, "lon": -77.02099416666667, "name": "da25109f25efa35f614c21f7fc819f66"}, {"bike_id": "61778a0bad84dc2581ba904aca68c558", "type": "electric_scooter", "is_disabled": 0, "lat": 38.906818333333334, "rental_uris": {"ios": "https://dc.lft.to/lastmile_qr_scan", "android": "https://dc.lft.to/lastmile_qr_scan"}, "is_reserved": 0, "fusion_lon": 0.0, "fusion_lat": 0.0, "lon": -77.06342533333333, "name": "61778a0bad84dc2581ba904aca68c558"}, {"bike_id": "c6eb0d173b93740d61f7c0ccc31c846f", "type": "electric_scooter", "is_disabled": 0, "lat": 38.903649333333334, "rental_uris": {"ios": "https://dc.lft.to/lastmile_qr_scan", "android": "https://dc.lft.to/lastmile_qr_scan"}, "is_reserved": 0, "fusion_lon": 0.0, "fusion_lat": 0.0, "lon": -77.00742766666667, "name": "c6eb0d173b93740d61f7c0ccc31c846f"}, {"bike_id": "e468ca0649d264274bdf489cab9668ab", "type": "electric_scooter", "is_disabled": 0, "lat": 38.93871033333333, "rental_uris": {"ios": "https://dc.lft.to/lastmile_qr_scan", "android": "https://dc.lft.to/lastmile_qr_scan"}, "is_reserved": 0, "fusion_lon": 0.0, "fusion_lat": 0.0, "lon": -77.02450433333334, "name": "e468ca0649d264274bdf489cab9668ab"}, {"bike_id": "34a62c050f960c3e74fc857fb7050503", "type": "electric_scooter", "is_disabled": 0, "lat": 38.882676000000004, "rental_uris": {"ios": "https://dc.lft.to/lastmile_qr_scan", "android": "https://dc.lft.to/lastmile_qr_scan"}, "is_reserved": 0, "fusion_lon": 0.0, "fusion_lat": 0.0, "lon": -76.99247633333333, "name": "34a62c050f960c3e74fc857fb7050503"}, {"bike_id": "19fa68afefeba3c1a1461cb64e05add8", "type": "electric_scooter", "is_disabled": 0, "lat": 38.920814166666666, "rental_uris": {"ios": "https://dc.lft.to/lastmile_qr_scan", "android": "https://dc.lft.to/lastmile_qr_scan"}, "is_reserved": 0, "fusion_lon": 0.0, "fusion_lat": 0.0, "lon": -77.023976, "name": "19fa68afefeba3c1a1461cb64e05add8"}, {"bike_id": "1c15ede685024e556241bd92a2cffad2", "type": "electric_scooter", "is_disabled": 0, "lat": 38.927544, "rental_uris": {"ios": "https://dc.lft.to/lastmile_qr_scan", "android": "https://dc.lft.to/lastmile_qr_scan"}, "is_reserved": 0, "fusion_lon": 0.0, "fusion_lat": 0.0, "lon": -77.02309783333334, "name": "1c15ede685024e556241bd92a2cffad2"}, {"bike_id": "561ae7f5dbd4bbbd79fddec78fbc42c5", "type": "electric_scooter", "is_disabled": 0, "lat": 38.91639966666666, "rental_uris": {"ios": "https://dc.lft.to/lastmile_qr_scan", "android": "https://dc.lft.to/lastmile_qr_scan"}, "is_reserved": 0, "fusion_lon": 0.0, "fusion_lat": 0.0, "lon": -77.0398755, "name": "561ae7f5dbd4bbbd79fddec78fbc42c5"}, {"bike_id": "5e0330119644435eaf518b0ce6c21d0d", "type": "electric_scooter", "is_disabled": 0, "lat": 38.901900499999996, "rental_uris": {"ios": "https://dc.lft.to/lastmile_qr_scan", "android": "https://dc.lft.to/lastmile_qr_scan"}, "is_reserved": 0, "fusion_lon": 0.0, "fusion_lat": 0.0, "lon": -77.02369366666667, "name": "5e0330119644435eaf518b0ce6c21d0d"}, {"bike_id": "6c76194b015da79bbae012bb52dc099e", "type": "electric_scooter", "is_disabled": 0, "lat": 38.9191195, "rental_uris": {"ios": "https://dc.lft.to/lastmile_qr_scan", "android": "https://dc.lft.to/lastmile_qr_scan"}, "is_reserved": 0, "fusion_lon": 0.0, "fusion_lat": 0.0, "lon": -77.03423333333333, "name": "6c76194b015da79bbae012bb52dc099e"}, {"bike_id": "766d03fa09ec673352a0e4bd82d9f241", "type": "electric_scooter", "is_disabled": 0, "lat": 38.909598, "rental_uris": {"ios": "https://dc.lft.to/lastmile_qr_scan", "android": "https://dc.lft.to/lastmile_qr_scan"}, "is_reserved": 0, "fusion_lon": 0.0, "fusion_lat": 0.0, "lon": -77.022795, "name": "766d03fa09ec673352a0e4bd82d9f241"}, {"bike_id": "7031f1469713cddd5a51c5f12df9ca18", "type": "electric_scooter", "is_disabled": 0, "lat": 38.90818133333333, "rental_uris": {"ios": "https://dc.lft.to/lastmile_qr_scan", "android": "https://dc.lft.to/lastmile_qr_scan"}, "is_reserved": 0, "fusion_lon": 0.0, "fusion_lat": 0.0, "lon": -77.02378066666667, "name": "7031f1469713cddd5a51c5f12df9ca18"}, {"bike_id": "0c7915f6858ec727449cb14c0a06d7e2", "type": "electric_scooter", "is_disabled": 0, "lat": 38.902905, "rental_uris": {"ios": "https://dc.lft.to/lastmile_qr_scan", "android": "https://dc.lft.to/lastmile_qr_scan"}, "is_reserved": 0, "fusion_lon": 0.0, "fusion_lat": 0.0, "lon": -77.02423516666667, "name": "0c7915f6858ec727449cb14c0a06d7e2"}, {"bike_id": "f98e698b9da32de0e96db0bbb551944c", "type": "electric_scooter", "is_disabled": 0, "lat": 38.908264, "rental_uris": {"ios": "https://dc.lft.to/lastmile_qr_scan", "android": "https://dc.lft.to/lastmile_qr_scan"}, "is_reserved": 0, "fusion_lon": 0.0, "fusion_lat": 0.0, "lon": -77.03858316666667, "name": "f98e698b9da32de0e96db0bbb551944c"}, {"bike_id": "3639952cfbfc4a00ed0f71a34412a2ae", "type": "electric_scooter", "is_disabled": 0, "lat": 38.920751833333334, "rental_uris": {"ios": "https://dc.lft.to/lastmile_qr_scan", "android": "https://dc.lft.to/lastmile_qr_scan"}, "is_reserved": 0, "fusion_lon": 0.0, "fusion_lat": 0.0, "lon": -77.014645, "name": "3639952cfbfc4a00ed0f71a34412a2ae"}, {"bike_id": "6ce3253a49e7c4c63e1f3bd908987f65", "type": "electric_scooter", "is_disabled": 0, "lat": 38.90555, "rental_uris": {"ios": "https://dc.lft.to/lastmile_qr_scan", "android": "https://dc.lft.to/lastmile_qr_scan"}, "is_reserved": 0, "fusion_lon": 0.0, "fusion_lat": 0.0, "lon": -77.02847183333333, "name": "6ce3253a49e7c4c63e1f3bd908987f65"}, {"bike_id": "62fd0e8e4d3ea7572a600878bea0bb70", "type": "electric_scooter", "is_disabled": 0, "lat": 38.93700166666667, "rental_uris": {"ios": "https://dc.lft.to/lastmile_qr_scan", "android": "https://dc.lft.to/lastmile_qr_scan"}, "is_reserved": 0, "fusion_lon": 0.0, "fusion_lat": 0.0, "lon": -77.032845, "name": "62fd0e8e4d3ea7572a600878bea0bb70"}, {"bike_id": "a1d0dc73b584b7d9ebbe3e76813206ed", "type": "electric_scooter", "is_disabled": 0, "lat": 38.866827, "rental_uris": {"ios": "https://dc.lft.to/lastmile_qr_scan", "android": "https://dc.lft.to/lastmile_qr_scan"}, "is_reserved": 0, "fusion_lon": 0.0, "fusion_lat": 0.0, "lon": -76.98579616666666, "name": "a1d0dc73b584b7d9ebbe3e76813206ed"}, {"bike_id": "195d8c46d6643967f8c651c64458bfa0", "type": "electric_scooter", "is_disabled": 0, "lat": 38.884773833333334, "rental_uris": {"ios": "https://dc.lft.to/lastmile_qr_scan", "android": "https://dc.lft.to/lastmile_qr_scan"}, "is_reserved": 0, "fusion_lon": 0.0, "fusion_lat": 0.0, "lon": -77.02368166666666, "name": "195d8c46d6643967f8c651c64458bfa0"}, {"bike_id": "3568a5be3843394409d6b60920ece134", "type": "electric_scooter", "is_disabled": 0, "lat": 38.9026875, "rental_uris": {"ios": "https://dc.lft.to/lastmile_qr_scan", "android": "https://dc.lft.to/lastmile_qr_scan"}, "is_reserved": 0, "fusion_lon": 0.0, "fusion_lat": 0.0, "lon": -77.00324533333334, "name": "3568a5be3843394409d6b60920ece134"}, {"bike_id": "eb462ca5b19cc600912f36f2bbf5a0a3", "type": "electric_scooter", "is_disabled": 0, "lat": 38.93702183333333, "rental_uris": {"ios": "https://dc.lft.to/lastmile_qr_scan", "android": "https://dc.lft.to/lastmile_qr_scan"}, "is_reserved": 0, "fusion_lon": 0.0, "fusion_lat": 0.0, "lon": -77.0328345, "name": "eb462ca5b19cc600912f36f2bbf5a0a3"}, {"bike_id": "95beb7a37e77b1aa1f7d9c290d5767b0", "type": "electric_scooter", "is_disabled": 0, "lat": 38.917767833333336, "rental_uris": {"ios": "https://dc.lft.to/lastmile_qr_scan", "android": "https://dc.lft.to/lastmile_qr_scan"}, "is_reserved": 0, "fusion_lon": 0.0, "fusion_lat": 0.0, "lon": -77.01494883333334, "name": "95beb7a37e77b1aa1f7d9c290d5767b0"}, {"bike_id": "873d8e77db3e08f4bdea5135fa72f0ea", "type": "electric_scooter", "is_disabled": 0, "lat": 38.89524, "rental_uris": {"ios": "https://dc.lft.to/lastmile_qr_scan", "android": "https://dc.lft.to/lastmile_qr_scan"}, "is_reserved": 0, "fusion_lon": 0.0, "fusion_lat": 0.0, "lon": -77.01123266666667, "name": "873d8e77db3e08f4bdea5135fa72f0ea"}, {"bike_id": "351175537c1ef527258bdaa2bab9c13f", "type": "electric_scooter", "is_disabled": 0, "lat": 38.9056055, "rental_uris": {"ios": "https://dc.lft.to/lastmile_qr_scan", "android": "https://dc.lft.to/lastmile_qr_scan"}, "is_reserved": 0, "fusion_lon": 0.0, "fusion_lat": 0.0, "lon": -77.00597533333334, "name": "351175537c1ef527258bdaa2bab9c13f"}, {"bike_id": "5709567071a9789f07560ef047174ee5", "type": "electric_scooter", "is_disabled": 0, "lat": 38.942891333333336, "rental_uris": {"ios": "https://dc.lft.to/lastmile_qr_scan", "android": "https://dc.lft.to/lastmile_qr_scan"}, "is_reserved": 0, "fusion_lon": 0.0, "fusion_lat": 0.0, "lon": -77.07706066666667, "name": "5709567071a9789f07560ef047174ee5"}, {"bike_id": "f3d115737d2f78e20410f8182b0aa9de", "type": "electric_scooter", "is_disabled": 0, "lat": 38.86375483333333, "rental_uris": {"ios": "https://dc.lft.to/lastmile_qr_scan", "android": "https://dc.lft.to/lastmile_qr_scan"}, "is_reserved": 0, "fusion_lon": 0.0, "fusion_lat": 0.0, "lon": -76.99060616666667, "name": "f3d115737d2f78e20410f8182b0aa9de"}, {"bike_id": "b861c1b0769ce1598cae63b67d8cb95a", "type": "electric_scooter", "is_disabled": 0, "lat": 38.942733833333335, "rental_uris": {"ios": "https://dc.lft.to/lastmile_qr_scan", "android": "https://dc.lft.to/lastmile_qr_scan"}, "is_reserved": 0, "fusion_lon": 0.0, "fusion_lat": 0.0, "lon": -77.0325885, "name": "b861c1b0769ce1598cae63b67d8cb95a"}, {"bike_id": "8e294f03ef41dc175091eb4c27b93db6", "type": "electric_scooter", "is_disabled": 0, "lat": 38.920167666666664, "rental_uris": {"ios": "https://dc.lft.to/lastmile_qr_scan", "android": "https://dc.lft.to/lastmile_qr_scan"}, "is_reserved": 0, "fusion_lon": 0.0, "fusion_lat": 0.0, "lon": -77.0312715, "name": "8e294f03ef41dc175091eb4c27b93db6"}, {"bike_id": "7fd1df717e5ce0d214145bb1a3cc0dc7", "type": "electric_scooter", "is_disabled": 0, "lat": 38.902811166666666, "rental_uris": {"ios": "https://dc.lft.to/lastmile_qr_scan", "android": "https://dc.lft.to/lastmile_qr_scan"}, "is_reserved": 0, "fusion_lon": 0.0, "fusion_lat": 0.0, "lon": -77.0397455, "name": "7fd1df717e5ce0d214145bb1a3cc0dc7"}, {"bike_id": "be9ace5837fd10fd45f1be3eaf6c64f9", "type": "electric_scooter", "is_disabled": 0, "lat": 38.905830333333334, "rental_uris": {"ios": "https://dc.lft.to/lastmile_qr_scan", "android": "https://dc.lft.to/lastmile_qr_scan"}, "is_reserved": 0, "fusion_lon": 0.0, "fusion_lat": 0.0, "lon": -77.02003283333333, "name": "be9ace5837fd10fd45f1be3eaf6c64f9"}, {"bike_id": "a0c14e1b447f5f2fef5feadbcf45dbba", "type": "electric_scooter", "is_disabled": 0, "lat": 38.86373566666666, "rental_uris": {"ios": "https://dc.lft.to/lastmile_qr_scan", "android": "https://dc.lft.to/lastmile_qr_scan"}, "is_reserved": 0, "fusion_lon": 0.0, "fusion_lat": 0.0, "lon": -76.99062716666667, "name": "a0c14e1b447f5f2fef5feadbcf45dbba"}, {"bike_id": "092627ea85b4849046b0737b8a638962", "type": "electric_scooter", "is_disabled": 0, "lat": 38.86418316666666, "rental_uris": {"ios": "https://dc.lft.to/lastmile_qr_scan", "android": "https://dc.lft.to/lastmile_qr_scan"}, "is_reserved": 0, "fusion_lon": 0.0, "fusion_lat": 0.0, "lon": -76.98051933333333, "name": "092627ea85b4849046b0737b8a638962"}, {"bike_id": "2d3f895ae2377ecc98321d817a1cee4e", "type": "electric_scooter", "is_disabled": 0, "lat": 38.90847433333333, "rental_uris": {"ios": "https://dc.lft.to/lastmile_qr_scan", "android": "https://dc.lft.to/lastmile_qr_scan"}, "is_reserved": 0, "fusion_lon": 0.0, "fusion_lat": 0.0, "lon": -76.99801316666667, "name": "2d3f895ae2377ecc98321d817a1cee4e"}, {"bike_id": "f9fa50cfe6f047769a5a66b9ab1c96e1", "type": "electric_scooter", "is_disabled": 0, "lat": 38.9192105, "rental_uris": {"ios": "https://dc.lft.to/lastmile_qr_scan", "android": "https://dc.lft.to/lastmile_qr_scan"}, "is_reserved": 0, "fusion_lon": 0.0, "fusion_lat": 0.0, "lon": -77.04251066666667, "name": "f9fa50cfe6f047769a5a66b9ab1c96e1"}, {"bike_id": "44cff334b561e3e66987c7b3c6651763", "type": "electric_scooter", "is_disabled": 0, "lat": 38.88367383333333, "rental_uris": {"ios": "https://dc.lft.to/lastmile_qr_scan", "android": "https://dc.lft.to/lastmile_qr_scan"}, "is_reserved": 0, "fusion_lon": 0.0, "fusion_lat": 0.0, "lon": -77.02653183333334, "name": "44cff334b561e3e66987c7b3c6651763"}, {"bike_id": "8b7c4f38aa0caa7036e51f1c41ee09d7", "type": "electric_scooter", "is_disabled": 0, "lat": 38.90504133333334, "rental_uris": {"ios": "https://dc.lft.to/lastmile_qr_scan", "android": "https://dc.lft.to/lastmile_qr_scan"}, "is_reserved": 0, "fusion_lon": 0.0, "fusion_lat": 0.0, "lon": -77.05138266666667, "name": "8b7c4f38aa0caa7036e51f1c41ee09d7"}, {"bike_id": "81de10688e5d136beeae9f51963c7b83", "type": "electric_scooter", "is_disabled": 0, "lat": 38.866784, "rental_uris": {"ios": "https://dc.lft.to/lastmile_qr_scan", "android": "https://dc.lft.to/lastmile_qr_scan"}, "is_reserved": 0, "fusion_lon": 0.0, "fusion_lat": 0.0, "lon": -76.98561033333333, "name": "81de10688e5d136beeae9f51963c7b83"}, {"bike_id": "5de1026275320fedb105c4934b973435", "type": "electric_scooter", "is_disabled": 0, "lat": 38.90557333333334, "rental_uris": {"ios": "https://dc.lft.to/lastmile_qr_scan", "android": "https://dc.lft.to/lastmile_qr_scan"}, "is_reserved": 0, "fusion_lon": 0.0, "fusion_lat": 0.0, "lon": -77.005881, "name": "5de1026275320fedb105c4934b973435"}, {"bike_id": "a32dca069a635e605b2478b65ac87c6f", "type": "electric_scooter", "is_disabled": 0, "lat": 38.927412333333336, "rental_uris": {"ios": "https://dc.lft.to/lastmile_qr_scan", "android": "https://dc.lft.to/lastmile_qr_scan"}, "is_reserved": 0, "fusion_lon": 0.0, "fusion_lat": 0.0, "lon": -77.035252, "name": "a32dca069a635e605b2478b65ac87c6f"}, {"bike_id": "b02ffb4022f2a30ffaaa0e9878b2f90b", "type": "electric_scooter", "is_disabled": 0, "lat": 38.924487166666665, "rental_uris": {"ios": "https://dc.lft.to/lastmile_qr_scan", "android": "https://dc.lft.to/lastmile_qr_scan"}, "is_reserved": 0, "fusion_lon": 0.0, "fusion_lat": 0.0, "lon": -77.04115783333333, "name": "b02ffb4022f2a30ffaaa0e9878b2f90b"}, {"bike_id": "f85eabf25d1a5024d6e6c4e127c3355e", "type": "electric_scooter", "is_disabled": 0, "lat": 38.89543416666667, "rental_uris": {"ios": "https://dc.lft.to/lastmile_qr_scan", "android": "https://dc.lft.to/lastmile_qr_scan"}, "is_reserved": 0, "fusion_lon": 0.0, "fusion_lat": 0.0, "lon": -76.9493385, "name": "f85eabf25d1a5024d6e6c4e127c3355e"}, {"bike_id": "cb4d99caf532e9336ca193bb06d8664e", "type": "electric_scooter", "is_disabled": 0, "lat": 38.923281333333335, "rental_uris": {"ios": "https://dc.lft.to/lastmile_qr_scan", "android": "https://dc.lft.to/lastmile_qr_scan"}, "is_reserved": 0, "fusion_lon": 0.0, "fusion_lat": 0.0, "lon": -77.00057816666667, "name": "cb4d99caf532e9336ca193bb06d8664e"}, {"bike_id": "8fa510ccac2cbc14525273bed13be4c0", "type": "electric_scooter", "is_disabled": 0, "lat": 38.89792966666667, "rental_uris": {"ios": "https://dc.lft.to/lastmile_qr_scan", "android": "https://dc.lft.to/lastmile_qr_scan"}, "is_reserved": 0, "fusion_lon": 0.0, "fusion_lat": 0.0, "lon": -77.01196233333333, "name": "8fa510ccac2cbc14525273bed13be4c0"}, {"bike_id": "c668fa7a605d663c73545f5104b97456", "type": "electric_scooter", "is_disabled": 0, "lat": 38.90039516666667, "rental_uris": {"ios": "https://dc.lft.to/lastmile_qr_scan", "android": "https://dc.lft.to/lastmile_qr_scan"}, "is_reserved": 0, "fusion_lon": 0.0, "fusion_lat": 0.0, "lon": -77.0073655, "name": "c668fa7a605d663c73545f5104b97456"}, {"bike_id": "acb5667c609c9a8707ad7af11ce6db97", "type": "electric_scooter", "is_disabled": 0, "lat": 38.91924933333333, "rental_uris": {"ios": "https://dc.lft.to/lastmile_qr_scan", "android": "https://dc.lft.to/lastmile_qr_scan"}, "is_reserved": 0, "fusion_lon": 0.0, "fusion_lat": 0.0, "lon": -77.04472316666667, "name": "acb5667c609c9a8707ad7af11ce6db97"}, {"bike_id": "a4b9917b12ec728ebee0599b535d5e8f", "type": "electric_scooter", "is_disabled": 0, "lat": 38.90684, "rental_uris": {"ios": "https://dc.lft.to/lastmile_qr_scan", "android": "https://dc.lft.to/lastmile_qr_scan"}, "is_reserved": 0, "fusion_lon": 0.0, "fusion_lat": 0.0, "lon": -77.026956, "name": "a4b9917b12ec728ebee0599b535d5e8f"}, {"bike_id": "1ef0391113b647c4ccb7f25486f8cb4b", "type": "electric_scooter", "is_disabled": 0, "lat": 38.9078285, "rental_uris": {"ios": "https://dc.lft.to/lastmile_qr_scan", "android": "https://dc.lft.to/lastmile_qr_scan"}, "is_reserved": 0, "fusion_lon": 0.0, "fusion_lat": 0.0, "lon": -77.0488515, "name": "1ef0391113b647c4ccb7f25486f8cb4b"}, {"bike_id": "523b0d452f0259cc812d37af4fffed80", "type": "electric_scooter", "is_disabled": 0, "lat": 38.91212216666667, "rental_uris": {"ios": "https://dc.lft.to/lastmile_qr_scan", "android": "https://dc.lft.to/lastmile_qr_scan"}, "is_reserved": 0, "fusion_lon": 0.0, "fusion_lat": 0.0, "lon": -77.0384885, "name": "523b0d452f0259cc812d37af4fffed80"}, {"bike_id": "3a45e392a85e53234cf14f43224d7377", "type": "electric_scooter", "is_disabled": 0, "lat": 38.893718, "rental_uris": {"ios": "https://dc.lft.to/lastmile_qr_scan", "android": "https://dc.lft.to/lastmile_qr_scan"}, "is_reserved": 0, "fusion_lon": 0.0, "fusion_lat": 0.0, "lon": -76.9855585, "name": "3a45e392a85e53234cf14f43224d7377"}, {"bike_id": "fe9a58f8235e6c6afa3d31708411a6fb", "type": "electric_scooter", "is_disabled": 0, "lat": 38.90263016666667, "rental_uris": {"ios": "https://dc.lft.to/lastmile_qr_scan", "android": "https://dc.lft.to/lastmile_qr_scan"}, "is_reserved": 0, "fusion_lon": 0.0, "fusion_lat": 0.0, "lon": -77.03382583333334, "name": "fe9a58f8235e6c6afa3d31708411a6fb"}, {"bike_id": "5b59981136a16cbfabe9e00c2fb38617", "type": "electric_scooter", "is_disabled": 0, "lat": 38.90289466666667, "rental_uris": {"ios": "https://dc.lft.to/lastmile_qr_scan", "android": "https://dc.lft.to/lastmile_qr_scan"}, "is_reserved": 0, "fusion_lon": 0.0, "fusion_lat": 0.0, "lon": -77.058114, "name": "5b59981136a16cbfabe9e00c2fb38617"}, {"bike_id": "4ad64bb65ec6a7b64abb68b23b5b050c", "type": "electric_scooter", "is_disabled": 0, "lat": 38.87069916666667, "rental_uris": {"ios": "https://dc.lft.to/lastmile_qr_scan", "android": "https://dc.lft.to/lastmile_qr_scan"}, "is_reserved": 0, "fusion_lon": 0.0, "fusion_lat": 0.0, "lon": -76.98128933333334, "name": "4ad64bb65ec6a7b64abb68b23b5b050c"}, {"bike_id": "c674bd27a910884dc93ae180e415cf34", "type": "electric_scooter", "is_disabled": 0, "lat": 38.921504666666664, "rental_uris": {"ios": "https://dc.lft.to/lastmile_qr_scan", "android": "https://dc.lft.to/lastmile_qr_scan"}, "is_reserved": 0, "fusion_lon": 0.0, "fusion_lat": 0.0, "lon": -77.038703, "name": "c674bd27a910884dc93ae180e415cf34"}, {"bike_id": "177e7cd2b4080c91d98c99957b9eb997", "type": "electric_bike", "is_disabled": 0, "lat": 38.90205566666667, "rental_uris": {"ios": "https://dc.lft.to/lastmile_qr_scan", "android": "https://dc.lft.to/lastmile_qr_scan"}, "is_reserved": 0, "fusion_lon": 0.0, "fusion_lat": 0.0, "lon": -76.9741065, "name": "177e7cd2b4080c91d98c99957b9eb997"}, {"bike_id": "0bdc493be9eef67b1e831c6fa39e860e", "type": "electric_scooter", "is_disabled": 0, "lat": 38.933175166666665, "rental_uris": {"ios": "https://dc.lft.to/lastmile_qr_scan", "android": "https://dc.lft.to/lastmile_qr_scan"}, "is_reserved": 0, "fusion_lon": 0.0, "fusion_lat": 0.0, "lon": -77.0723735, "name": "0bdc493be9eef67b1e831c6fa39e860e"}, {"bike_id": "fbb370e71c1e85e62a63f14bfbbd7430", "type": "electric_scooter", "is_disabled": 0, "lat": 38.927104666666665, "rental_uris": {"ios": "https://dc.lft.to/lastmile_qr_scan", "android": "https://dc.lft.to/lastmile_qr_scan"}, "is_reserved": 0, "fusion_lon": 0.0, "fusion_lat": 0.0, "lon": -77.02715133333334, "name": "fbb370e71c1e85e62a63f14bfbbd7430"}, {"bike_id": "6df4977c25b83e0c7966046a177dfcb2", "type": "electric_bike", "is_disabled": 0, "lat": 39.0550065, "rental_uris": {"ios": "https://dc.lft.to/lastmile_qr_scan", "android": "https://dc.lft.to/lastmile_qr_scan"}, "is_reserved": 0, "fusion_lon": 0.0, "fusion_lat": 0.0, "lon": -77.04649316666666, "name": "6df4977c25b83e0c7966046a177dfcb2"}, {"bike_id": "cfdec5ec0e49bb445909268991be091d", "type": "electric_scooter", "is_disabled": 0, "lat": 38.93401016666667, "rental_uris": {"ios": "https://dc.lft.to/lastmile_qr_scan", "android": "https://dc.lft.to/lastmile_qr_scan"}, "is_reserved": 0, "fusion_lon": 0.0, "fusion_lat": 0.0, "lon": -77.0399015, "name": "cfdec5ec0e49bb445909268991be091d"}, {"bike_id": "d55327fe2142981d465fb8f1a96189f5", "type": "electric_scooter", "is_disabled": 0, "lat": 38.9394735, "rental_uris": {"ios": "https://dc.lft.to/lastmile_qr_scan", "android": "https://dc.lft.to/lastmile_qr_scan"}, "is_reserved": 0, "fusion_lon": 0.0, "fusion_lat": 0.0, "lon": -77.03658683333333, "name": "d55327fe2142981d465fb8f1a96189f5"}, {"bike_id": "29f98aa23184f8a85d6ffea41f0655bf", "type": "electric_scooter", "is_disabled": 0, "lat": 38.926139, "rental_uris": {"ios": "https://dc.lft.to/lastmile_qr_scan", "android": "https://dc.lft.to/lastmile_qr_scan"}, "is_reserved": 0, "fusion_lon": 0.0, "fusion_lat": 0.0, "lon": -77.02163666666667, "name": "29f98aa23184f8a85d6ffea41f0655bf"}, {"bike_id": "43041ee9bb42ac620fa24d42dc53898d", "type": "electric_bike", "is_disabled": 0, "lat": 38.929660166666665, "rental_uris": {"ios": "https://dc.lft.to/lastmile_qr_scan", "android": "https://dc.lft.to/lastmile_qr_scan"}, "is_reserved": 0, "fusion_lon": 0.0, "fusion_lat": 0.0, "lon": -77.18564866666667, "name": "43041ee9bb42ac620fa24d42dc53898d"}, {"bike_id": "d96a4da72c8ae1510579a135cc00f4f5", "type": "electric_scooter", "is_disabled": 0, "lat": 38.903344833333335, "rental_uris": {"ios": "https://dc.lft.to/lastmile_qr_scan", "android": "https://dc.lft.to/lastmile_qr_scan"}, "is_reserved": 0, "fusion_lon": 0.0, "fusion_lat": 0.0, "lon": -77.06926033333333, "name": "d96a4da72c8ae1510579a135cc00f4f5"}, {"bike_id": "b951f2028125d7ac292f77caaccb9f93", "type": "electric_scooter", "is_disabled": 0, "lat": 38.90391666666667, "rental_uris": {"ios": "https://dc.lft.to/lastmile_qr_scan", "android": "https://dc.lft.to/lastmile_qr_scan"}, "is_reserved": 0, "fusion_lon": 0.0, "fusion_lat": 0.0, "lon": -76.98945833333333, "name": "b951f2028125d7ac292f77caaccb9f93"}, {"bike_id": "a31bd02c22122466e740c4ca215252a5", "type": "electric_scooter", "is_disabled": 0, "lat": 38.9191195, "rental_uris": {"ios": "https://dc.lft.to/lastmile_qr_scan", "android": "https://dc.lft.to/lastmile_qr_scan"}, "is_reserved": 0, "fusion_lon": 0.0, "fusion_lat": 0.0, "lon": -77.0447905, "name": "a31bd02c22122466e740c4ca215252a5"}, {"bike_id": "44074f07027f8cbd97247211e61c59ce", "type": "electric_scooter", "is_disabled": 0, "lat": 38.95782766666667, "rental_uris": {"ios": "https://dc.lft.to/lastmile_qr_scan", "android": "https://dc.lft.to/lastmile_qr_scan"}, "is_reserved": 0, "fusion_lon": 0.0, "fusion_lat": 0.0, "lon": -77.0199185, "name": "44074f07027f8cbd97247211e61c59ce"}, {"bike_id": "1160fc3927ebbbfec9ce27cfeeb55441", "type": "electric_scooter", "is_disabled": 0, "lat": 38.984307666666666, "rental_uris": {"ios": "https://dc.lft.to/lastmile_qr_scan", "android": "https://dc.lft.to/lastmile_qr_scan"}, "is_reserved": 0, "fusion_lon": 0.0, "fusion_lat": 0.0, "lon": -77.02667483333333, "name": "1160fc3927ebbbfec9ce27cfeeb55441"}, {"bike_id": "75d90f8ffbfd15b0d468efef14fa20ec", "type": "electric_bike", "is_disabled": 0, "lat": 38.932362, "rental_uris": {"ios": "https://dc.lft.to/lastmile_qr_scan", "android": "https://dc.lft.to/lastmile_qr_scan"}, "is_reserved": 0, "fusion_lon": 0.0, "fusion_lat": 0.0, "lon": -76.97423516666667, "name": "75d90f8ffbfd15b0d468efef14fa20ec"}, {"bike_id": "0db747a072fe1c7c5857f30bc9931a41", "type": "electric_scooter", "is_disabled": 0, "lat": 38.907348999999996, "rental_uris": {"ios": "https://dc.lft.to/lastmile_qr_scan", "android": "https://dc.lft.to/lastmile_qr_scan"}, "is_reserved": 0, "fusion_lon": 0.0, "fusion_lat": 0.0, "lon": -77.02950133333333, "name": "0db747a072fe1c7c5857f30bc9931a41"}, {"bike_id": "07469acf9ad5a81be3abd05da1c21998", "type": "electric_scooter", "is_disabled": 0, "lat": 38.900355, "rental_uris": {"ios": "https://dc.lft.to/lastmile_qr_scan", "android": "https://dc.lft.to/lastmile_qr_scan"}, "is_reserved": 0, "fusion_lon": 0.0, "fusion_lat": 0.0, "lon": -77.0177785, "name": "07469acf9ad5a81be3abd05da1c21998"}, {"bike_id": "03ed2968f0b95e67df9bf84426df896b", "type": "electric_scooter", "is_disabled": 0, "lat": 38.9191185, "rental_uris": {"ios": "https://dc.lft.to/lastmile_qr_scan", "android": "https://dc.lft.to/lastmile_qr_scan"}, "is_reserved": 0, "fusion_lon": 0.0, "fusion_lat": 0.0, "lon": -77.0294235, "name": "03ed2968f0b95e67df9bf84426df896b"}, {"bike_id": "82bedc14b10c3107b1630ba821f240c6", "type": "electric_scooter", "is_disabled": 0, "lat": 38.9618845, "rental_uris": {"ios": "https://dc.lft.to/lastmile_qr_scan", "android": "https://dc.lft.to/lastmile_qr_scan"}, "is_reserved": 0, "fusion_lon": 0.0, "fusion_lat": 0.0, "lon": -77.02812666666667, "name": "82bedc14b10c3107b1630ba821f240c6"}, {"bike_id": "c33ef2ec1231949d54200983d7442bea", "type": "electric_scooter", "is_disabled": 0, "lat": 38.906532, "rental_uris": {"ios": "https://dc.lft.to/lastmile_qr_scan", "android": "https://dc.lft.to/lastmile_qr_scan"}, "is_reserved": 0, "fusion_lon": 0.0, "fusion_lat": 0.0, "lon": -77.01459966666667, "name": "c33ef2ec1231949d54200983d7442bea"}, {"bike_id": "ac84e24ee639c7201587008b732c8bb2", "type": "electric_scooter", "is_disabled": 0, "lat": 38.90674466666667, "rental_uris": {"ios": "https://dc.lft.to/lastmile_qr_scan", "android": "https://dc.lft.to/lastmile_qr_scan"}, "is_reserved": 0, "fusion_lon": 0.0, "fusion_lat": 0.0, "lon": -77.07184716666667, "name": "ac84e24ee639c7201587008b732c8bb2"}, {"bike_id": "54bd87ab0b92f92f41415edf4de88bff", "type": "electric_scooter", "is_disabled": 0, "lat": 38.9006075, "rental_uris": {"ios": "https://dc.lft.to/lastmile_qr_scan", "android": "https://dc.lft.to/lastmile_qr_scan"}, "is_reserved": 0, "fusion_lon": 0.0, "fusion_lat": 0.0, "lon": -77.03484333333333, "name": "54bd87ab0b92f92f41415edf4de88bff"}, {"bike_id": "d2a394073a3dd8af03ca34a29a2f1f38", "type": "electric_scooter", "is_disabled": 0, "lat": 38.9270715, "rental_uris": {"ios": "https://dc.lft.to/lastmile_qr_scan", "android": "https://dc.lft.to/lastmile_qr_scan"}, "is_reserved": 0, "fusion_lon": 0.0, "fusion_lat": 0.0, "lon": -77.02333366666667, "name": "d2a394073a3dd8af03ca34a29a2f1f38"}, {"bike_id": "e3e87dea6f00c02d8c38c4eb31808f0a", "type": "electric_scooter", "is_disabled": 0, "lat": 38.86247266666667, "rental_uris": {"ios": "https://dc.lft.to/lastmile_qr_scan", "android": "https://dc.lft.to/lastmile_qr_scan"}, "is_reserved": 0, "fusion_lon": 0.0, "fusion_lat": 0.0, "lon": -76.99502150000001, "name": "e3e87dea6f00c02d8c38c4eb31808f0a"}, {"bike_id": "54f257f26a7b28bf6c9469901d37c596", "type": "electric_scooter", "is_disabled": 0, "lat": 38.92604466666667, "rental_uris": {"ios": "https://dc.lft.to/lastmile_qr_scan", "android": "https://dc.lft.to/lastmile_qr_scan"}, "is_reserved": 0, "fusion_lon": 0.0, "fusion_lat": 0.0, "lon": -77.0215615, "name": "54f257f26a7b28bf6c9469901d37c596"}, {"bike_id": "155d2c82c552e79383037f33522a41bd", "type": "electric_scooter", "is_disabled": 0, "lat": 38.9308655, "rental_uris": {"ios": "https://dc.lft.to/lastmile_qr_scan", "android": "https://dc.lft.to/lastmile_qr_scan"}, "is_reserved": 0, "fusion_lon": 0.0, "fusion_lat": 0.0, "lon": -77.02569266666667, "name": "155d2c82c552e79383037f33522a41bd"}, {"bike_id": "bad4e257e13e889f39ef3d8d7ced2727", "type": "electric_scooter", "is_disabled": 0, "lat": 38.87660616666667, "rental_uris": {"ios": "https://dc.lft.to/lastmile_qr_scan", "android": "https://dc.lft.to/lastmile_qr_scan"}, "is_reserved": 0, "fusion_lon": 0.0, "fusion_lat": 0.0, "lon": -77.00269633333333, "name": "bad4e257e13e889f39ef3d8d7ced2727"}, {"bike_id": "4217d0bdad1cc9ffe018fcf3f0bf673d", "type": "electric_scooter", "is_disabled": 0, "lat": 38.866818333333335, "rental_uris": {"ios": "https://dc.lft.to/lastmile_qr_scan", "android": "https://dc.lft.to/lastmile_qr_scan"}, "is_reserved": 0, "fusion_lon": 0.0, "fusion_lat": 0.0, "lon": -76.985773, "name": "4217d0bdad1cc9ffe018fcf3f0bf673d"}, {"bike_id": "5484381027bd1692921c0174f12e07aa", "type": "electric_scooter", "is_disabled": 0, "lat": 38.90735166666666, "rental_uris": {"ios": "https://dc.lft.to/lastmile_qr_scan", "android": "https://dc.lft.to/lastmile_qr_scan"}, "is_reserved": 0, "fusion_lon": 0.0, "fusion_lat": 0.0, "lon": -77.01305883333333, "name": "5484381027bd1692921c0174f12e07aa"}, {"bike_id": "f63ec6198e23e1fb9f3f6361b7aa5f36", "type": "electric_scooter", "is_disabled": 0, "lat": 38.91839516666667, "rental_uris": {"ios": "https://dc.lft.to/lastmile_qr_scan", "android": "https://dc.lft.to/lastmile_qr_scan"}, "is_reserved": 0, "fusion_lon": 0.0, "fusion_lat": 0.0, "lon": -77.04829716666667, "name": "f63ec6198e23e1fb9f3f6361b7aa5f36"}, {"bike_id": "b55c0bdd4addb33a60db6b539a03f394", "type": "electric_scooter", "is_disabled": 0, "lat": 38.866861, "rental_uris": {"ios": "https://dc.lft.to/lastmile_qr_scan", "android": "https://dc.lft.to/lastmile_qr_scan"}, "is_reserved": 0, "fusion_lon": 0.0, "fusion_lat": 0.0, "lon": -76.98577116666667, "name": "b55c0bdd4addb33a60db6b539a03f394"}, {"bike_id": "8704a581a51e90d3b8fe66a8226f6b44", "type": "electric_scooter", "is_disabled": 0, "lat": 38.90738133333333, "rental_uris": {"ios": "https://dc.lft.to/lastmile_qr_scan", "android": "https://dc.lft.to/lastmile_qr_scan"}, "is_reserved": 0, "fusion_lon": 0.0, "fusion_lat": 0.0, "lon": -77.03447933333334, "name": "8704a581a51e90d3b8fe66a8226f6b44"}, {"bike_id": "ea6bcba9e2f6d7eb6d95e6c8d45680a6", "type": "electric_scooter", "is_disabled": 0, "lat": 38.9126445, "rental_uris": {"ios": "https://dc.lft.to/lastmile_qr_scan", "android": "https://dc.lft.to/lastmile_qr_scan"}, "is_reserved": 0, "fusion_lon": 0.0, "fusion_lat": 0.0, "lon": -77.00495233333334, "name": "ea6bcba9e2f6d7eb6d95e6c8d45680a6"}, {"bike_id": "540cbba7192aaf24a201601b7d394dfa", "type": "electric_scooter", "is_disabled": 0, "lat": 38.934966333333335, "rental_uris": {"ios": "https://dc.lft.to/lastmile_qr_scan", "android": "https://dc.lft.to/lastmile_qr_scan"}, "is_reserved": 0, "fusion_lon": 0.0, "fusion_lat": 0.0, "lon": -77.0740175, "name": "540cbba7192aaf24a201601b7d394dfa"}, {"bike_id": "b6b78a24b10b0b1c48b701cb00986fb8", "type": "electric_scooter", "is_disabled": 0, "lat": 38.90434166666667, "rental_uris": {"ios": "https://dc.lft.to/lastmile_qr_scan", "android": "https://dc.lft.to/lastmile_qr_scan"}, "is_reserved": 0, "fusion_lon": 0.0, "fusion_lat": 0.0, "lon": -77.03466183333333, "name": "b6b78a24b10b0b1c48b701cb00986fb8"}, {"bike_id": "29fa232581fd9568a21522cf030f9e44", "type": "electric_scooter", "is_disabled": 0, "lat": 38.927312, "rental_uris": {"ios": "https://dc.lft.to/lastmile_qr_scan", "android": "https://dc.lft.to/lastmile_qr_scan"}, "is_reserved": 0, "fusion_lon": 0.0, "fusion_lat": 0.0, "lon": -77.0349975, "name": "29fa232581fd9568a21522cf030f9e44"}, {"bike_id": "1c8eff53fe15ef9cd66bcd27c59354fc", "type": "electric_scooter", "is_disabled": 0, "lat": 38.896050833333334, "rental_uris": {"ios": "https://dc.lft.to/lastmile_qr_scan", "android": "https://dc.lft.to/lastmile_qr_scan"}, "is_reserved": 0, "fusion_lon": 0.0, "fusion_lat": 0.0, "lon": -77.03127616666667, "name": "1c8eff53fe15ef9cd66bcd27c59354fc"}, {"bike_id": "e31c9aa02ba44e8dda682ea61291a034", "type": "electric_scooter", "is_disabled": 0, "lat": 38.90249466666667, "rental_uris": {"ios": "https://dc.lft.to/lastmile_qr_scan", "android": "https://dc.lft.to/lastmile_qr_scan"}, "is_reserved": 0, "fusion_lon": 0.0, "fusion_lat": 0.0, "lon": -77.01821383333333, "name": "e31c9aa02ba44e8dda682ea61291a034"}, {"bike_id": "de65e2bd7103e87ed69adb664f8f9c72", "type": "electric_scooter", "is_disabled": 0, "lat": 38.923111, "rental_uris": {"ios": "https://dc.lft.to/lastmile_qr_scan", "android": "https://dc.lft.to/lastmile_qr_scan"}, "is_reserved": 0, "fusion_lon": 0.0, "fusion_lat": 0.0, "lon": -77.03909933333334, "name": "de65e2bd7103e87ed69adb664f8f9c72"}, {"bike_id": "df5ce1f417fc6497792e862dedabf4ae", "type": "electric_scooter", "is_disabled": 0, "lat": 38.911058, "rental_uris": {"ios": "https://dc.lft.to/lastmile_qr_scan", "android": "https://dc.lft.to/lastmile_qr_scan"}, "is_reserved": 0, "fusion_lon": 0.0, "fusion_lat": 0.0, "lon": -77.02142083333334, "name": "df5ce1f417fc6497792e862dedabf4ae"}, {"bike_id": "7954771775ad777778e8b390118ed9ac", "type": "electric_scooter", "is_disabled": 0, "lat": 38.878854, "rental_uris": {"ios": "https://dc.lft.to/lastmile_qr_scan", "android": "https://dc.lft.to/lastmile_qr_scan"}, "is_reserved": 0, "fusion_lon": 0.0, "fusion_lat": 0.0, "lon": -77.02310883333334, "name": "7954771775ad777778e8b390118ed9ac"}, {"bike_id": "56f520a9d6551ab840199a3eec3c16aa", "type": "electric_scooter", "is_disabled": 0, "lat": 38.886205333333336, "rental_uris": {"ios": "https://dc.lft.to/lastmile_qr_scan", "android": "https://dc.lft.to/lastmile_qr_scan"}, "is_reserved": 0, "fusion_lon": 0.0, "fusion_lat": 0.0, "lon": -76.9961095, "name": "56f520a9d6551ab840199a3eec3c16aa"}, {"bike_id": "7b37feabf7512fff06ae5c7e132a4d1a", "type": "electric_scooter", "is_disabled": 0, "lat": 38.95663416666667, "rental_uris": {"ios": "https://dc.lft.to/lastmile_qr_scan", "android": "https://dc.lft.to/lastmile_qr_scan"}, "is_reserved": 0, "fusion_lon": 0.0, "fusion_lat": 0.0, "lon": -77.02410633333334, "name": "7b37feabf7512fff06ae5c7e132a4d1a"}, {"bike_id": "982a04e4689a2661c41d99d5d20331a9", "type": "electric_scooter", "is_disabled": 0, "lat": 38.90536816666667, "rental_uris": {"ios": "https://dc.lft.to/lastmile_qr_scan", "android": "https://dc.lft.to/lastmile_qr_scan"}, "is_reserved": 0, "fusion_lon": 0.0, "fusion_lat": 0.0, "lon": -76.98113616666667, "name": "982a04e4689a2661c41d99d5d20331a9"}, {"bike_id": "0a088bdc5ad6d3783a7a37629af50399", "type": "electric_scooter", "is_disabled": 0, "lat": 38.89762016666667, "rental_uris": {"ios": "https://dc.lft.to/lastmile_qr_scan", "android": "https://dc.lft.to/lastmile_qr_scan"}, "is_reserved": 0, "fusion_lon": 0.0, "fusion_lat": 0.0, "lon": -76.92574216666667, "name": "0a088bdc5ad6d3783a7a37629af50399"}, {"bike_id": "3ad2b3be6b20a8373bf38dc8cc640971", "type": "electric_scooter", "is_disabled": 0, "lat": 38.867740166666664, "rental_uris": {"ios": "https://dc.lft.to/lastmile_qr_scan", "android": "https://dc.lft.to/lastmile_qr_scan"}, "is_reserved": 0, "fusion_lon": 0.0, "fusion_lat": 0.0, "lon": -76.9885395, "name": "3ad2b3be6b20a8373bf38dc8cc640971"}, {"bike_id": "a28fb91b13f419cf74087901518cf967", "type": "electric_scooter", "is_disabled": 0, "lat": 38.862419, "rental_uris": {"ios": "https://dc.lft.to/lastmile_qr_scan", "android": "https://dc.lft.to/lastmile_qr_scan"}, "is_reserved": 0, "fusion_lon": 0.0, "fusion_lat": 0.0, "lon": -76.99497766666667, "name": "a28fb91b13f419cf74087901518cf967"}, {"bike_id": "0075096c9a08201543eeab6a599065ed", "type": "electric_scooter", "is_disabled": 0, "lat": 38.89265016666667, "rental_uris": {"ios": "https://dc.lft.to/lastmile_qr_scan", "android": "https://dc.lft.to/lastmile_qr_scan"}, "is_reserved": 0, "fusion_lon": 0.0, "fusion_lat": 0.0, "lon": -77.00351933333333, "name": "0075096c9a08201543eeab6a599065ed"}, {"bike_id": "69b6fa98520eb52fb6d99a4b31dcd91e", "type": "electric_scooter", "is_disabled": 0, "lat": 38.90725183333333, "rental_uris": {"ios": "https://dc.lft.to/lastmile_qr_scan", "android": "https://dc.lft.to/lastmile_qr_scan"}, "is_reserved": 0, "fusion_lon": 0.0, "fusion_lat": 0.0, "lon": -77.04808733333333, "name": "69b6fa98520eb52fb6d99a4b31dcd91e"}, {"bike_id": "9ba080a3fa3cda67906c9cb2dd4a0b5a", "type": "electric_scooter", "is_disabled": 0, "lat": 38.91413083333333, "rental_uris": {"ios": "https://dc.lft.to/lastmile_qr_scan", "android": "https://dc.lft.to/lastmile_qr_scan"}, "is_reserved": 0, "fusion_lon": 0.0, "fusion_lat": 0.0, "lon": -77.02433633333334, "name": "9ba080a3fa3cda67906c9cb2dd4a0b5a"}, {"bike_id": "73ca1f1fe28aab404c395b6277daae0f", "type": "electric_scooter", "is_disabled": 0, "lat": 38.9012635, "rental_uris": {"ios": "https://dc.lft.to/lastmile_qr_scan", "android": "https://dc.lft.to/lastmile_qr_scan"}, "is_reserved": 0, "fusion_lon": 0.0, "fusion_lat": 0.0, "lon": -77.01838866666667, "name": "73ca1f1fe28aab404c395b6277daae0f"}, {"bike_id": "af60ce6b7632b6696515b47321ad20e4", "type": "electric_scooter", "is_disabled": 0, "lat": 38.89931, "rental_uris": {"ios": "https://dc.lft.to/lastmile_qr_scan", "android": "https://dc.lft.to/lastmile_qr_scan"}, "is_reserved": 0, "fusion_lon": 0.0, "fusion_lat": 0.0, "lon": -77.04781133333333, "name": "af60ce6b7632b6696515b47321ad20e4"}, {"bike_id": "f60ec3e47597d1760bb049b905c5cf0c", "type": "electric_scooter", "is_disabled": 0, "lat": 38.900504, "rental_uris": {"ios": "https://dc.lft.to/lastmile_qr_scan", "android": "https://dc.lft.to/lastmile_qr_scan"}, "is_reserved": 0, "fusion_lon": 0.0, "fusion_lat": 0.0, "lon": -77.03093216666667, "name": "f60ec3e47597d1760bb049b905c5cf0c"}, {"bike_id": "0ba16d3c35cb76ab9d33a8ba1f3676b3", "type": "electric_scooter", "is_disabled": 0, "lat": 38.902649, "rental_uris": {"ios": "https://dc.lft.to/lastmile_qr_scan", "android": "https://dc.lft.to/lastmile_qr_scan"}, "is_reserved": 0, "fusion_lon": 0.0, "fusion_lat": 0.0, "lon": -77.03384766666667, "name": "0ba16d3c35cb76ab9d33a8ba1f3676b3"}, {"bike_id": "4759ef290b27c28e9161f87ed38eea88", "type": "electric_scooter", "is_disabled": 0, "lat": 38.914015666666664, "rental_uris": {"ios": "https://dc.lft.to/lastmile_qr_scan", "android": "https://dc.lft.to/lastmile_qr_scan"}, "is_reserved": 0, "fusion_lon": 0.0, "fusion_lat": 0.0, "lon": -77.03144933333333, "name": "4759ef290b27c28e9161f87ed38eea88"}, {"bike_id": "08ceca6c77a8793c92a5423f1719b779", "type": "electric_bike", "is_disabled": 0, "lat": 38.8816415, "rental_uris": {"ios": "https://dc.lft.to/lastmile_qr_scan", "android": "https://dc.lft.to/lastmile_qr_scan"}, "is_reserved": 0, "fusion_lon": 0.0, "fusion_lat": 0.0, "lon": -77.11454333333333, "name": "08ceca6c77a8793c92a5423f1719b779"}, {"bike_id": "b8a275d3a884604d30ba937ec373eefc", "type": "electric_bike", "is_disabled": 0, "lat": 38.92446, "rental_uris": {"ios": "https://dc.lft.to/lastmile_qr_scan", "android": "https://dc.lft.to/lastmile_qr_scan"}, "is_reserved": 0, "fusion_lon": 0.0, "fusion_lat": 0.0, "lon": -77.225801, "name": "b8a275d3a884604d30ba937ec373eefc"}, {"bike_id": "f0f4538f3188efc883c4a49f90709def", "type": "electric_bike", "is_disabled": 0, "lat": 38.836708333333334, "rental_uris": {"ios": "https://dc.lft.to/lastmile_qr_scan", "android": "https://dc.lft.to/lastmile_qr_scan"}, "is_reserved": 0, "fusion_lon": 0.0, "fusion_lat": 0.0, "lon": -76.99360066666667, "name": "f0f4538f3188efc883c4a49f90709def"}, {"bike_id": "550b8c4db6802f9f815155fc8f87e2fd", "type": "electric_scooter", "is_disabled": 0, "lat": 38.918789833333335, "rental_uris": {"ios": "https://dc.lft.to/lastmile_qr_scan", "android": "https://dc.lft.to/lastmile_qr_scan"}, "is_reserved": 0, "fusion_lon": 0.0, "fusion_lat": 0.0, "lon": -77.02958166666667, "name": "550b8c4db6802f9f815155fc8f87e2fd"}, {"bike_id": "07e25b7072220a77877610226da4a076", "type": "electric_scooter", "is_disabled": 0, "lat": 38.904344, "rental_uris": {"ios": "https://dc.lft.to/lastmile_qr_scan", "android": "https://dc.lft.to/lastmile_qr_scan"}, "is_reserved": 0, "fusion_lon": 0.0, "fusion_lat": 0.0, "lon": -77.034599, "name": "07e25b7072220a77877610226da4a076"}, {"bike_id": "adbd29eb7c18a4d0cf92dc3d95a3ef13", "type": "electric_scooter", "is_disabled": 0, "lat": 38.90739516666667, "rental_uris": {"ios": "https://dc.lft.to/lastmile_qr_scan", "android": "https://dc.lft.to/lastmile_qr_scan"}, "is_reserved": 0, "fusion_lon": 0.0, "fusion_lat": 0.0, "lon": -77.029862, "name": "adbd29eb7c18a4d0cf92dc3d95a3ef13"}, {"bike_id": "5d490335cf31fd0fdd22f4708c7e8c8c", "type": "electric_scooter", "is_disabled": 0, "lat": 38.924635333333335, "rental_uris": {"ios": "https://dc.lft.to/lastmile_qr_scan", "android": "https://dc.lft.to/lastmile_qr_scan"}, "is_reserved": 0, "fusion_lon": 0.0, "fusion_lat": 0.0, "lon": -77.02962066666667, "name": "5d490335cf31fd0fdd22f4708c7e8c8c"}, {"bike_id": "7785d9542a40300c6c2e604b5197a2ca", "type": "electric_scooter", "is_disabled": 0, "lat": 38.93474633333334, "rental_uris": {"ios": "https://dc.lft.to/lastmile_qr_scan", "android": "https://dc.lft.to/lastmile_qr_scan"}, "is_reserved": 0, "fusion_lon": 0.0, "fusion_lat": 0.0, "lon": -77.026118, "name": "7785d9542a40300c6c2e604b5197a2ca"}, {"bike_id": "b6f44415c9d78ead121c88292909df11", "type": "electric_scooter", "is_disabled": 0, "lat": 38.935477166666665, "rental_uris": {"ios": "https://dc.lft.to/lastmile_qr_scan", "android": "https://dc.lft.to/lastmile_qr_scan"}, "is_reserved": 0, "fusion_lon": 0.0, "fusion_lat": 0.0, "lon": -77.05827416666666, "name": "b6f44415c9d78ead121c88292909df11"}, {"bike_id": "42182641fcde681904938350aa8aedd6", "type": "electric_scooter", "is_disabled": 0, "lat": 38.90642716666667, "rental_uris": {"ios": "https://dc.lft.to/lastmile_qr_scan", "android": "https://dc.lft.to/lastmile_qr_scan"}, "is_reserved": 0, "fusion_lon": 0.0, "fusion_lat": 0.0, "lon": -77.0172985, "name": "42182641fcde681904938350aa8aedd6"}, {"bike_id": "ab940b827fb7aeae61524366720b4376", "type": "electric_scooter", "is_disabled": 0, "lat": 38.91244983333333, "rental_uris": {"ios": "https://dc.lft.to/lastmile_qr_scan", "android": "https://dc.lft.to/lastmile_qr_scan"}, "is_reserved": 0, "fusion_lon": 0.0, "fusion_lat": 0.0, "lon": -77.0385405, "name": "ab940b827fb7aeae61524366720b4376"}, {"bike_id": "b3ef7bc3af317aff9684d4f82b170ea4", "type": "electric_scooter", "is_disabled": 0, "lat": 38.91919333333333, "rental_uris": {"ios": "https://dc.lft.to/lastmile_qr_scan", "android": "https://dc.lft.to/lastmile_qr_scan"}, "is_reserved": 0, "fusion_lon": 0.0, "fusion_lat": 0.0, "lon": -77.03363133333333, "name": "b3ef7bc3af317aff9684d4f82b170ea4"}, {"bike_id": "19e5f4cfaa4c73696478c11c627f4417", "type": "electric_scooter", "is_disabled": 0, "lat": 38.930978, "rental_uris": {"ios": "https://dc.lft.to/lastmile_qr_scan", "android": "https://dc.lft.to/lastmile_qr_scan"}, "is_reserved": 0, "fusion_lon": 0.0, "fusion_lat": 0.0, "lon": -77.0247565, "name": "19e5f4cfaa4c73696478c11c627f4417"}, {"bike_id": "c24a128b5a8c186d27ab4c7f00ca4a2e", "type": "electric_scooter", "is_disabled": 0, "lat": 38.926558, "rental_uris": {"ios": "https://dc.lft.to/lastmile_qr_scan", "android": "https://dc.lft.to/lastmile_qr_scan"}, "is_reserved": 0, "fusion_lon": 0.0, "fusion_lat": 0.0, "lon": -77.03735733333333, "name": "c24a128b5a8c186d27ab4c7f00ca4a2e"}, {"bike_id": "75b4abdc52513fbfa6cf2b11fbb8a686", "type": "electric_scooter", "is_disabled": 0, "lat": 38.9215155, "rental_uris": {"ios": "https://dc.lft.to/lastmile_qr_scan", "android": "https://dc.lft.to/lastmile_qr_scan"}, "is_reserved": 0, "fusion_lon": 0.0, "fusion_lat": 0.0, "lon": -77.03874733333333, "name": "75b4abdc52513fbfa6cf2b11fbb8a686"}, {"bike_id": "b1f235ca6671262ae0e73682b1bbaa61", "type": "electric_scooter", "is_disabled": 0, "lat": 38.91822233333333, "rental_uris": {"ios": "https://dc.lft.to/lastmile_qr_scan", "android": "https://dc.lft.to/lastmile_qr_scan"}, "is_reserved": 0, "fusion_lon": 0.0, "fusion_lat": 0.0, "lon": -77.04945383333333, "name": "b1f235ca6671262ae0e73682b1bbaa61"}, {"bike_id": "9ebffc6c50dbbc147fbc1d3c1f8b0269", "type": "electric_scooter", "is_disabled": 0, "lat": 38.908547166666665, "rental_uris": {"ios": "https://dc.lft.to/lastmile_qr_scan", "android": "https://dc.lft.to/lastmile_qr_scan"}, "is_reserved": 0, "fusion_lon": 0.0, "fusion_lat": 0.0, "lon": -76.99965, "name": "9ebffc6c50dbbc147fbc1d3c1f8b0269"}, {"bike_id": "4c743a23fd3fe5bdd7841fae5707eafe", "type": "electric_scooter", "is_disabled": 0, "lat": 38.8600305, "rental_uris": {"ios": "https://dc.lft.to/lastmile_qr_scan", "android": "https://dc.lft.to/lastmile_qr_scan"}, "is_reserved": 0, "fusion_lon": 0.0, "fusion_lat": 0.0, "lon": -76.9851835, "name": "4c743a23fd3fe5bdd7841fae5707eafe"}, {"bike_id": "f9e75b12c55ec2039dd7725334baae06", "type": "electric_scooter", "is_disabled": 0, "lat": 38.891935833333335, "rental_uris": {"ios": "https://dc.lft.to/lastmile_qr_scan", "android": "https://dc.lft.to/lastmile_qr_scan"}, "is_reserved": 0, "fusion_lon": 0.0, "fusion_lat": 0.0, "lon": -77.02979833333333, "name": "f9e75b12c55ec2039dd7725334baae06"}, {"bike_id": "fbce06595f469cb86dabc9972ee7fad4", "type": "electric_scooter", "is_disabled": 0, "lat": 38.922076833333335, "rental_uris": {"ios": "https://dc.lft.to/lastmile_qr_scan", "android": "https://dc.lft.to/lastmile_qr_scan"}, "is_reserved": 0, "fusion_lon": 0.0, "fusion_lat": 0.0, "lon": -77.03288333333333, "name": "fbce06595f469cb86dabc9972ee7fad4"}, {"bike_id": "4a330eef69d99035db997fdd0ea53bd3", "type": "electric_scooter", "is_disabled": 0, "lat": 38.90865733333333, "rental_uris": {"ios": "https://dc.lft.to/lastmile_qr_scan", "android": "https://dc.lft.to/lastmile_qr_scan"}, "is_reserved": 0, "fusion_lon": 0.0, "fusion_lat": 0.0, "lon": -77.002755, "name": "4a330eef69d99035db997fdd0ea53bd3"}, {"bike_id": "9f65d650e86c565e463b2c2a4b310719", "type": "electric_scooter", "is_disabled": 0, "lat": 38.905921666666664, "rental_uris": {"ios": "https://dc.lft.to/lastmile_qr_scan", "android": "https://dc.lft.to/lastmile_qr_scan"}, "is_reserved": 0, "fusion_lon": 0.0, "fusion_lat": 0.0, "lon": -77.07014633333333, "name": "9f65d650e86c565e463b2c2a4b310719"}, {"bike_id": "850c5f564f012f2e0ef02bf0cac838c7", "type": "electric_scooter", "is_disabled": 0, "lat": 38.91928083333333, "rental_uris": {"ios": "https://dc.lft.to/lastmile_qr_scan", "android": "https://dc.lft.to/lastmile_qr_scan"}, "is_reserved": 0, "fusion_lon": 0.0, "fusion_lat": 0.0, "lon": -77.0462175, "name": "850c5f564f012f2e0ef02bf0cac838c7"}, {"bike_id": "301c5c0238bff1f003ff756b0f5befae", "type": "electric_scooter", "is_disabled": 0, "lat": 38.91194733333333, "rental_uris": {"ios": "https://dc.lft.to/lastmile_qr_scan", "android": "https://dc.lft.to/lastmile_qr_scan"}, "is_reserved": 0, "fusion_lon": 0.0, "fusion_lat": 0.0, "lon": -77.019051, "name": "301c5c0238bff1f003ff756b0f5befae"}, {"bike_id": "fb6bf664e7f7b08cb4af241bd3e5dae9", "type": "electric_bike", "is_disabled": 0, "lat": 38.858776166666665, "rental_uris": {"ios": "https://dc.lft.to/lastmile_qr_scan", "android": "https://dc.lft.to/lastmile_qr_scan"}, "is_reserved": 0, "fusion_lon": 0.0, "fusion_lat": 0.0, "lon": -77.09567316666667, "name": "fb6bf664e7f7b08cb4af241bd3e5dae9"}, {"bike_id": "4705fa52a3714f328b0994bfafe7e16f", "type": "electric_scooter", "is_disabled": 0, "lat": 38.93524133333333, "rental_uris": {"ios": "https://dc.lft.to/lastmile_qr_scan", "android": "https://dc.lft.to/lastmile_qr_scan"}, "is_reserved": 0, "fusion_lon": 0.0, "fusion_lat": 0.0, "lon": -77.05442066666667, "name": "4705fa52a3714f328b0994bfafe7e16f"}, {"bike_id": "2d792205ccc81819d3d17cb5a0108b94", "type": "electric_bike", "is_disabled": 0, "lat": 38.995260333333334, "rental_uris": {"ios": "https://dc.lft.to/lastmile_qr_scan", "android": "https://dc.lft.to/lastmile_qr_scan"}, "is_reserved": 0, "fusion_lon": 0.0, "fusion_lat": 0.0, "lon": -77.06949216666666, "name": "2d792205ccc81819d3d17cb5a0108b94"}, {"bike_id": "0a24a50846947e6e7152c4616fb6901e", "type": "electric_bike", "is_disabled": 0, "lat": 38.8920745, "rental_uris": {"ios": "https://dc.lft.to/lastmile_qr_scan", "android": "https://dc.lft.to/lastmile_qr_scan"}, "is_reserved": 0, "fusion_lon": 0.0, "fusion_lat": 0.0, "lon": -76.97687233333333, "name": "0a24a50846947e6e7152c4616fb6901e"}, {"bike_id": "85a73f4f9ca1562af0af1b4a87e1c042", "type": "electric_scooter", "is_disabled": 0, "lat": 38.951173, "rental_uris": {"ios": "https://dc.lft.to/lastmile_qr_scan", "android": "https://dc.lft.to/lastmile_qr_scan"}, "is_reserved": 0, "fusion_lon": 0.0, "fusion_lat": 0.0, "lon": -77.014329, "name": "85a73f4f9ca1562af0af1b4a87e1c042"}, {"bike_id": "e7f88da649149f817653d1c791a087be", "type": "electric_scooter", "is_disabled": 0, "lat": 38.866855666666666, "rental_uris": {"ios": "https://dc.lft.to/lastmile_qr_scan", "android": "https://dc.lft.to/lastmile_qr_scan"}, "is_reserved": 0, "fusion_lon": 0.0, "fusion_lat": 0.0, "lon": -76.98570716666667, "name": "e7f88da649149f817653d1c791a087be"}, {"bike_id": "e762f6b1d4f77a8756cae0cbca901963", "type": "electric_scooter", "is_disabled": 0, "lat": 38.9261785, "rental_uris": {"ios": "https://dc.lft.to/lastmile_qr_scan", "android": "https://dc.lft.to/lastmile_qr_scan"}, "is_reserved": 0, "fusion_lon": 0.0, "fusion_lat": 0.0, "lon": -77.04329133333333, "name": "e762f6b1d4f77a8756cae0cbca901963"}, {"bike_id": "fceff24f4a251a846fe500346254defa", "type": "electric_scooter", "is_disabled": 0, "lat": 38.925461, "rental_uris": {"ios": "https://dc.lft.to/lastmile_qr_scan", "android": "https://dc.lft.to/lastmile_qr_scan"}, "is_reserved": 0, "fusion_lon": 0.0, "fusion_lat": 0.0, "lon": -77.03356616666666, "name": "fceff24f4a251a846fe500346254defa"}, {"bike_id": "3b451bd1146db0eb6a20e28da8dd3cdb", "type": "electric_scooter", "is_disabled": 0, "lat": 38.914964499999996, "rental_uris": {"ios": "https://dc.lft.to/lastmile_qr_scan", "android": "https://dc.lft.to/lastmile_qr_scan"}, "is_reserved": 0, "fusion_lon": 0.0, "fusion_lat": 0.0, "lon": -76.9835985, "name": "3b451bd1146db0eb6a20e28da8dd3cdb"}, {"bike_id": "359a50958efdd3ae863264395ab59e2f", "type": "electric_scooter", "is_disabled": 0, "lat": 38.89504683333333, "rental_uris": {"ios": "https://dc.lft.to/lastmile_qr_scan", "android": "https://dc.lft.to/lastmile_qr_scan"}, "is_reserved": 0, "fusion_lon": 0.0, "fusion_lat": 0.0, "lon": -76.93484833333333, "name": "359a50958efdd3ae863264395ab59e2f"}, {"bike_id": "34283da339b190a537a85a2c9bb62fbe", "type": "electric_scooter", "is_disabled": 0, "lat": 38.91251716666667, "rental_uris": {"ios": "https://dc.lft.to/lastmile_qr_scan", "android": "https://dc.lft.to/lastmile_qr_scan"}, "is_reserved": 0, "fusion_lon": 0.0, "fusion_lat": 0.0, "lon": -77.038615, "name": "34283da339b190a537a85a2c9bb62fbe"}, {"bike_id": "50eba1d1f45a1dff0ee4a50f142f6a26", "type": "electric_bike", "is_disabled": 0, "lat": 38.94262066666667, "rental_uris": {"ios": "https://dc.lft.to/lastmile_qr_scan", "android": "https://dc.lft.to/lastmile_qr_scan"}, "is_reserved": 0, "fusion_lon": 0.0, "fusion_lat": 0.0, "lon": -76.99073216666666, "name": "50eba1d1f45a1dff0ee4a50f142f6a26"}, {"bike_id": "dc4effcebac455ee771d66fff78a8138", "type": "electric_scooter", "is_disabled": 0, "lat": 38.90056916666666, "rental_uris": {"ios": "https://dc.lft.to/lastmile_qr_scan", "android": "https://dc.lft.to/lastmile_qr_scan"}, "is_reserved": 0, "fusion_lon": 0.0, "fusion_lat": 0.0, "lon": -77.05564683333333, "name": "dc4effcebac455ee771d66fff78a8138"}, {"bike_id": "46b78f012210bab8eeb9a9bf36c3f05a", "type": "electric_scooter", "is_disabled": 0, "lat": 38.915070166666666, "rental_uris": {"ios": "https://dc.lft.to/lastmile_qr_scan", "android": "https://dc.lft.to/lastmile_qr_scan"}, "is_reserved": 0, "fusion_lon": 0.0, "fusion_lat": 0.0, "lon": -77.02291316666667, "name": "46b78f012210bab8eeb9a9bf36c3f05a"}, {"bike_id": "8df863d7926ac92600276f92e193571d", "type": "electric_scooter", "is_disabled": 0, "lat": 38.92154416666666, "rental_uris": {"ios": "https://dc.lft.to/lastmile_qr_scan", "android": "https://dc.lft.to/lastmile_qr_scan"}, "is_reserved": 0, "fusion_lon": 0.0, "fusion_lat": 0.0, "lon": -77.02713133333333, "name": "8df863d7926ac92600276f92e193571d"}, {"bike_id": "52df3fa6b6fc14c7fdcb589b0726ff7f", "type": "electric_bike", "is_disabled": 0, "lat": 38.9082865, "rental_uris": {"ios": "https://dc.lft.to/lastmile_qr_scan", "android": "https://dc.lft.to/lastmile_qr_scan"}, "is_reserved": 0, "fusion_lon": 0.0, "fusion_lat": 0.0, "lon": -76.94154933333333, "name": "52df3fa6b6fc14c7fdcb589b0726ff7f"}, {"bike_id": "f366193f38cebe8c6145d1bcc3959c98", "type": "electric_bike", "is_disabled": 0, "lat": 39.05498566666667, "rental_uris": {"ios": "https://dc.lft.to/lastmile_qr_scan", "android": "https://dc.lft.to/lastmile_qr_scan"}, "is_reserved": 0, "fusion_lon": 0.0, "fusion_lat": 0.0, "lon": -77.117895, "name": "f366193f38cebe8c6145d1bcc3959c98"}, {"bike_id": "dff6c4e222d3c18f7bb829f505683652", "type": "electric_scooter", "is_disabled": 0, "lat": 38.941286833333336, "rental_uris": {"ios": "https://dc.lft.to/lastmile_qr_scan", "android": "https://dc.lft.to/lastmile_qr_scan"}, "is_reserved": 0, "fusion_lon": 0.0, "fusion_lat": 0.0, "lon": -77.01543183333334, "name": "dff6c4e222d3c18f7bb829f505683652"}, {"bike_id": "588dc2ba2216c7b7141415bc8f7ecec8", "type": "electric_scooter", "is_disabled": 0, "lat": 38.90655, "rental_uris": {"ios": "https://dc.lft.to/lastmile_qr_scan", "android": "https://dc.lft.to/lastmile_qr_scan"}, "is_reserved": 0, "fusion_lon": 0.0, "fusion_lat": 0.0, "lon": -77.00894683333334, "name": "588dc2ba2216c7b7141415bc8f7ecec8"}, {"bike_id": "da9c2e5bd670516c1279a8db3a6adafe", "type": "electric_scooter", "is_disabled": 0, "lat": 38.9039665, "rental_uris": {"ios": "https://dc.lft.to/lastmile_qr_scan", "android": "https://dc.lft.to/lastmile_qr_scan"}, "is_reserved": 0, "fusion_lon": 0.0, "fusion_lat": 0.0, "lon": -77.00580133333334, "name": "da9c2e5bd670516c1279a8db3a6adafe"}, {"bike_id": "baaa6377a9f942ec3c04eab3a15a1057", "type": "electric_bike", "is_disabled": 0, "lat": 39.03725983333333, "rental_uris": {"ios": "https://dc.lft.to/lastmile_qr_scan", "android": "https://dc.lft.to/lastmile_qr_scan"}, "is_reserved": 0, "fusion_lon": 0.0, "fusion_lat": 0.0, "lon": -77.05469033333334, "name": "baaa6377a9f942ec3c04eab3a15a1057"}, {"bike_id": "b3a8b476447611974910cd24174cdb1a", "type": "electric_scooter", "is_disabled": 0, "lat": 38.90537666666667, "rental_uris": {"ios": "https://dc.lft.to/lastmile_qr_scan", "android": "https://dc.lft.to/lastmile_qr_scan"}, "is_reserved": 0, "fusion_lon": 0.0, "fusion_lat": 0.0, "lon": -77.06893433333333, "name": "b3a8b476447611974910cd24174cdb1a"}, {"bike_id": "3fcd482658deb0980e7fd176140a9f6f", "type": "electric_scooter", "is_disabled": 0, "lat": 38.92873, "rental_uris": {"ios": "https://dc.lft.to/lastmile_qr_scan", "android": "https://dc.lft.to/lastmile_qr_scan"}, "is_reserved": 0, "fusion_lon": 0.0, "fusion_lat": 0.0, "lon": -77.01371016666667, "name": "3fcd482658deb0980e7fd176140a9f6f"}, {"bike_id": "0a36ab33166bbb1c9f98c9848a2d35dc", "type": "electric_scooter", "is_disabled": 0, "lat": 38.907590166666665, "rental_uris": {"ios": "https://dc.lft.to/lastmile_qr_scan", "android": "https://dc.lft.to/lastmile_qr_scan"}, "is_reserved": 0, "fusion_lon": 0.0, "fusion_lat": 0.0, "lon": -77.04358266666667, "name": "0a36ab33166bbb1c9f98c9848a2d35dc"}, {"bike_id": "40a2a0910f8438179ec4fbbcf9408ce1", "type": "electric_scooter", "is_disabled": 0, "lat": 38.914043666666664, "rental_uris": {"ios": "https://dc.lft.to/lastmile_qr_scan", "android": "https://dc.lft.to/lastmile_qr_scan"}, "is_reserved": 0, "fusion_lon": 0.0, "fusion_lat": 0.0, "lon": -77.02214733333334, "name": "40a2a0910f8438179ec4fbbcf9408ce1"}, {"bike_id": "41dbde227a22d9585eeea8af8f165177", "type": "electric_scooter", "is_disabled": 0, "lat": 38.92536883333333, "rental_uris": {"ios": "https://dc.lft.to/lastmile_qr_scan", "android": "https://dc.lft.to/lastmile_qr_scan"}, "is_reserved": 0, "fusion_lon": 0.0, "fusion_lat": 0.0, "lon": -77.0427715, "name": "41dbde227a22d9585eeea8af8f165177"}, {"bike_id": "a90170fdd209a79a1b1ed241af472642", "type": "electric_scooter", "is_disabled": 0, "lat": 38.90729233333333, "rental_uris": {"ios": "https://dc.lft.to/lastmile_qr_scan", "android": "https://dc.lft.to/lastmile_qr_scan"}, "is_reserved": 0, "fusion_lon": 0.0, "fusion_lat": 0.0, "lon": -77.011329, "name": "a90170fdd209a79a1b1ed241af472642"}, {"bike_id": "9274c0612e3200ebaa8f5de1b5053c1b", "type": "electric_scooter", "is_disabled": 0, "lat": 38.913275166666665, "rental_uris": {"ios": "https://dc.lft.to/lastmile_qr_scan", "android": "https://dc.lft.to/lastmile_qr_scan"}, "is_reserved": 0, "fusion_lon": 0.0, "fusion_lat": 0.0, "lon": -77.03175483333334, "name": "9274c0612e3200ebaa8f5de1b5053c1b"}, {"bike_id": "ca93a4d7bf5b89c98996666bff74e37b", "type": "electric_scooter", "is_disabled": 0, "lat": 38.92127383333333, "rental_uris": {"ios": "https://dc.lft.to/lastmile_qr_scan", "android": "https://dc.lft.to/lastmile_qr_scan"}, "is_reserved": 0, "fusion_lon": 0.0, "fusion_lat": 0.0, "lon": -76.9924855, "name": "ca93a4d7bf5b89c98996666bff74e37b"}, {"bike_id": "500b8268c5bc2da622cd8ecaf71102a7", "type": "electric_scooter", "is_disabled": 0, "lat": 38.972348, "rental_uris": {"ios": "https://dc.lft.to/lastmile_qr_scan", "android": "https://dc.lft.to/lastmile_qr_scan"}, "is_reserved": 0, "fusion_lon": 0.0, "fusion_lat": 0.0, "lon": -77.02716066666666, "name": "500b8268c5bc2da622cd8ecaf71102a7"}, {"bike_id": "a719b6eaae4b0e33366c66d5c847a98f", "type": "electric_scooter", "is_disabled": 0, "lat": 38.90595783333333, "rental_uris": {"ios": "https://dc.lft.to/lastmile_qr_scan", "android": "https://dc.lft.to/lastmile_qr_scan"}, "is_reserved": 0, "fusion_lon": 0.0, "fusion_lat": 0.0, "lon": -77.00358983333334, "name": "a719b6eaae4b0e33366c66d5c847a98f"}, {"bike_id": "ebc244d22edd7433e5c5b7ce3f3c2c50", "type": "electric_scooter", "is_disabled": 0, "lat": 38.924617, "rental_uris": {"ios": "https://dc.lft.to/lastmile_qr_scan", "android": "https://dc.lft.to/lastmile_qr_scan"}, "is_reserved": 0, "fusion_lon": 0.0, "fusion_lat": 0.0, "lon": -77.05235283333333, "name": "ebc244d22edd7433e5c5b7ce3f3c2c50"}, {"bike_id": "708ba5a396b7fefb8e96c2b428bfe6d4", "type": "electric_scooter", "is_disabled": 0, "lat": 38.91769333333333, "rental_uris": {"ios": "https://dc.lft.to/lastmile_qr_scan", "android": "https://dc.lft.to/lastmile_qr_scan"}, "is_reserved": 0, "fusion_lon": 0.0, "fusion_lat": 0.0, "lon": -77.03447166666666, "name": "708ba5a396b7fefb8e96c2b428bfe6d4"}, {"bike_id": "290d162fc0ceda4159efb5b6de99f672", "type": "electric_scooter", "is_disabled": 0, "lat": 38.897400833333336, "rental_uris": {"ios": "https://dc.lft.to/lastmile_qr_scan", "android": "https://dc.lft.to/lastmile_qr_scan"}, "is_reserved": 0, "fusion_lon": 0.0, "fusion_lat": 0.0, "lon": -77.02113033333333, "name": "290d162fc0ceda4159efb5b6de99f672"}, {"bike_id": "c0ae1e3f0f07f2d2d12d7c81208ce6a3", "type": "electric_bike", "is_disabled": 0, "lat": 38.875537333333334, "rental_uris": {"ios": "https://dc.lft.to/lastmile_qr_scan", "android": "https://dc.lft.to/lastmile_qr_scan"}, "is_reserved": 0, "fusion_lon": 0.0, "fusion_lat": 0.0, "lon": -76.96505666666667, "name": "c0ae1e3f0f07f2d2d12d7c81208ce6a3"},