{"data": {"bikes": [{"rental_uris": {"ios": "https://dc.lft.to/lastmile_qr_scan", "android": "https://dc.lft.to/lastmile_qr_scan"}, "lat": 38.867631833333334, "is_reserved": 0, "bike_id": "910cba84812012cc05c604bc26273a80", "lon": -76.98284983333333, "is_disabled": 0, "fusion_lat": 0.0, "fusion_lon": 0.0, "name": "910cba84812012cc05c604bc26273a80", "type": "electric_scooter"}, {"rental_uris": {"ios": "https://dc.lft.to/lastmile_qr_scan", "android": "https://dc.lft.to/lastmile_qr_scan"}, "lat": 38.88143766666666, "is_reserved": 0, "bike_id": "dfa0c58a20494de14ff9d8d5b485eba4", "lon": -77.02703716666667, "is_disabled": 0, "fusion_lat": 0.0, "fusion_lon": 0.0, "name": "dfa0c58a20494de14ff9d8d5b485eba4", "type": "electric_scooter"}, {"rental_uris": {"ios": "https://dc.lft.to/lastmile_qr_scan", "android": "https://dc.lft.to/lastmile_qr_scan"}, "lat": 38.952313833333335, "is_reserved": 0, "bike_id": "5a856bcc7f55ea974a154517ca231481", "lon": -77.013789, "is_disabled": 0, "fusion_lat": 0.0, "fusion_lon": 0.0, "name": "5a856bcc7f55ea974a154517ca231481", "type": "electric_scooter"}, {"rental_uris": {"ios": "https://dc.lft.to/lastmile_qr_scan", "android": "https://dc.lft.to/lastmile_qr_scan"}, "lat": 38.91595683333333, "is_reserved": 0, "bike_id": "17e3fbec5754867461a03e3b9bee1bdf", "lon": -77.04648483333334, "is_disabled": 0, "fusion_lat": 0.0, "fusion_lon": 0.0, "name": "17e3fbec5754867461a03e3b9bee1bdf", "type": "electric_scooter"}, {"rental_uris": {"ios": "https://dc.lft.to/lastmile_qr_scan", "android": "https://dc.lft.to/lastmile_qr_scan"}, "lat": 38.89218983333333, "is_reserved": 0, "bike_id": "bd743d0d2e294d296f52a53d8b66287a", "lon": -77.0321335, "is_disabled": 0, "fusion_lat": 0.0, "fusion_lon": 0.0, "name": "bd743d0d2e294d296f52a53d8b66287a", "type": "electric_scooter"}, {"rental_uris": {"ios": "https://dc.lft.to/lastmile_qr_scan", "android": "https://dc.lft.to/lastmile_qr_scan"}, "lat": 38.92599416666667, "is_reserved": 0, "bike_id": "4af5f6ff762602cdea7612f39da76b92", "lon": -77.01220933333333, "is_disabled": 0, "fusion_lat": 0.0, "fusion_lon": 0.0, "name": "4af5f6ff762602cdea7612f39da76b92", "type": "electric_scooter"}, {"rental_uris": {"ios": "https://dc.lft.to/lastmile_qr_scan", "android": "https://dc.lft.to/lastmile_qr_scan"}, "lat": 38.90228616666667, "is_reserved": 0, "bike_id": "ecdcfa9e88f268cef815eaa42ef96d41", "lon": -77.04362033333334, "is_disabled": 0, "fusion_lat": 0.0, "fusion_lon": 0.0, "name": "ecdcfa9e88f268cef815eaa42ef96d41", "type": "electric_scooter"}, {"rental_uris": {"ios": "https://dc.lft.to/lastmile_qr_scan", "android": "https://dc.lft.to/lastmile_qr_scan"}, "lat": 38.884894, "is_reserved": 0, "bike_id": "0505e27b795125275f39419f9aad358c", "lon": -77.0070825, "is_disabled": 0, "fusion_lat": 0.0, "fusion_lon": 0.0, "name": "0505e27b795125275f39419f9aad358c", "type": "electric_scooter"}, {"rental_uris": {"ios": "https://dc.lft.to/lastmile_qr_scan", "android": "https://dc.lft.to/lastmile_qr_scan"}, "lat": 38.90742483333333, "is_reserved": 0, "bike_id": "eb41fec5e95320d6cacd4cdbdd599f60", "lon": -77.042688, "is_disabled": 0, "fusion_lat": 0.0, "fusion_lon": 0.0, "name": "eb41fec5e95320d6cacd4cdbdd599f60", "type": "electric_scooter"}, {"rental_uris": {"ios": "https://dc.lft.to/lastmile_qr_scan", "android": "https://dc.lft.to/lastmile_qr_scan"}, "lat": 38.87470583333333, "is_reserved": 0, "bike_id": "f023af63569990e4ee0627fdd63e56ae", "lon": -77.00845333333334, "is_disabled": 0, "fusion_lat": 0.0, "fusion_lon": 0.0, "name": "f023af63569990e4ee0627fdd63e56ae", "type": "electric_scooter"}, {"rental_uris": {"ios": "https://dc.lft.to/lastmile_qr_scan", "android": "https://dc.lft.to/lastmile_qr_scan"}, "lat": 38.92476083333333, "is_reserved": 0, "bike_id": "3c5541ac857ba256e960b19b8d7d0e75", "lon": -77.026531, "is_disabled": 0, "fusion_lat": 0.0, "fusion_lon": 0.0, "name": "3c5541ac857ba256e960b19b8d7d0e75", "type": "electric_scooter"}, {"rental_uris": {"ios": "https://dc.lft.to/lastmile_qr_scan", "android": "https://dc.lft.to/lastmile_qr_scan"}, "lat": 38.903321, "is_reserved": 0, "bike_id": "224b312b22e32a3d68c98460d5d5c958", "lon": -77.04342366666667, "is_disabled": 0, "fusion_lat": 0.0, "fusion_lon": 0.0, "name": "224b312b22e32a3d68c98460d5d5c958", "type": "electric_scooter"}, {"rental_uris": {"ios": "https://dc.lft.to/lastmile_qr_scan", "android": "https://dc.lft.to/lastmile_qr_scan"}, "lat": 38.93095483333333, "is_reserved": 0, "bike_id": "58d8d1a96f8bd35d75b47d2a6238fd69", "lon": -77.02472016666667, "is_disabled": 0, "fusion_lat": 0.0, "fusion_lon": 0.0, "name": "58d8d1a96f8bd35d75b47d2a6238fd69", "type": "electric_scooter"}, {"rental_uris": {"ios": "https://dc.lft.to/lastmile_qr_scan", "android": "https://dc.lft.to/lastmile_qr_scan"}, "lat": 38.89041133333333, "is_reserved": 0, "bike_id": "4f09142e81d3b2bb29e197ced787ed80", "lon": -76.95247733333333, "is_disabled": 0, "fusion_lat": 0.0, "fusion_lon": 0.0, "name": "4f09142e81d3b2bb29e197ced787ed80", "type": "electric_scooter"}, {"rental_uris": {"ios": "https://dc.lft.to/lastmile_qr_scan", "android": "https://dc.lft.to/lastmile_qr_scan"}, "lat": 38.899436333333334, "is_reserved": 0, "bike_id": "e2d4511f1102d7f132e351cd91b469be", "lon": -76.98158516666666, "is_disabled": 0, "fusion_lat": 0.0, "fusion_lon": 0.0, "name": "e2d4511f1102d7f132e351cd91b469be", "type": "electric_scooter"}, {"rental_uris": {"ios": "https://dc.lft.to/lastmile_qr_scan", "android": "https://dc.lft.to/lastmile_qr_scan"}, "lat": 38.90792183333333, "is_reserved": 0, "bike_id": "1dc7194f7ac00ca936d37ecee56e2b6c", "lon": -77.02714033333334, "is_disabled": 0, "fusion_lat": 0.0, "fusion_lon": 0.0, "name": "1dc7194f7ac00ca936d37ecee56e2b6c", "type": "electric_scooter"}, {"rental_uris": {"ios": "https://dc.lft.to/lastmile_qr_scan", "android": "https://dc.lft.to/lastmile_qr_scan"}, "lat": 38.79698716666667, "is_reserved": 0, "bike_id": "d7a9eaf3c66ca0b0006978aaa66cb1c9", "lon": -77.00370616666666, "is_disabled": 0, "fusion_lat": 0.0, "fusion_lon": 0.0, "name": "d7a9eaf3c66ca0b0006978aaa66cb1c9", "type": "electric_bike"}, {"rental_uris": {"ios": "https://dc.lft.to/lastmile_qr_scan", "android": "https://dc.lft.to/lastmile_qr_scan"}, "lat": 38.90969583333333, "is_reserved": 0, "bike_id": "87b25cd098fe303f10eeaf652caa7a51", "lon": -77.04521266666667, "is_disabled": 0, "fusion_lat": 0.0, "fusion_lon": 0.0, "name": "87b25cd098fe303f10eeaf652caa7a51", "type": "electric_scooter"}, {"rental_uris": {"ios": "https://dc.lft.to/lastmile_qr_scan", "android": "https://dc.lft.to/lastmile_qr_scan"}, "lat": 38.898878333333336, "is_reserved": 0, "bike_id": "32bf7a52d47b7e22cc84215a080a3519", "lon": -77.03278166666666, "is_disabled": 0, "fusion_lat": 0.0, "fusion_lon": 0.0, "name": "32bf7a52d47b7e22cc84215a080a3519", "type": "electric_scooter"}, {"rental_uris": {"ios": "https://dc.lft.to/lastmile_qr_scan", "android": "https://dc.lft.to/lastmile_qr_scan"}, "lat": 38.9250475, "is_reserved": 0, "bike_id": "71f04ae3f9abb61ed83d3d3e6d811466", "lon": -77.02157866666667, "is_disabled": 0, "fusion_lat": 0.0, "fusion_lon": 0.0, "name": "71f04ae3f9abb61ed83d3d3e6d811466", "type": "electric_scooter"}, {"rental_uris": {"ios": "https://dc.lft.to/lastmile_qr_scan", "android": "https://dc.lft.to/lastmile_qr_scan"}, "lat": 38.924380666666664, "is_reserved": 0, "bike_id": "2543ad6422238017777bf4ab5ccc77c7", "lon": -77.03406766666667, "is_disabled": 0, "fusion_lat": 0.0, "fusion_lon": 0.0, "name": "2543ad6422238017777bf4ab5ccc77c7", "type": "electric_scooter"}, {"rental_uris": {"ios": "https://dc.lft.to/lastmile_qr_scan", "android": "https://dc.lft.to/lastmile_qr_scan"}, "lat": 38.92870116666667, "is_reserved": 0, "bike_id": "99e94e7e86553d429a0681ba6101739f", "lon": -77.0273065, "is_disabled": 0, "fusion_lat": 0.0, "fusion_lon": 0.0, "name": "99e94e7e86553d429a0681ba6101739f", "type": "electric_scooter"}, {"rental_uris": {"ios": "https://dc.lft.to/lastmile_qr_scan", "android": "https://dc.lft.to/lastmile_qr_scan"}, "lat": 38.9243985, "is_reserved": 0, "bike_id": "4951f1686802822c1f52311795bf4f67", "lon": -77.02153866666667, "is_disabled": 0, "fusion_lat": 0.0, "fusion_lon": 0.0, "name": "4951f1686802822c1f52311795bf4f67", "type": "electric_scooter"}, {"rental_uris": {"ios": "https://dc.lft.to/lastmile_qr_scan", "android": "https://dc.lft.to/lastmile_qr_scan"}, "lat": 38.900157666666665, "is_reserved": 0, "bike_id": "7ffedd409878aa2ce219f210ebd509aa", "lon": -77.04482616666667, "is_disabled": 0, "fusion_lat": 0.0, "fusion_lon": 0.0, "name": "7ffedd409878aa2ce219f210ebd509aa", "type": "electric_scooter"}, {"rental_uris": {"ios": "https://dc.lft.to/lastmile_qr_scan", "android": "https://dc.lft.to/lastmile_qr_scan"}, "lat": 38.93057233333333, "is_reserved": 0, "bike_id": "fd82aca1a3b26d8cf56db3fa66d49dc6", "lon": -77.01861716666667, "is_disabled": 0, "fusion_lat": 0.0, "fusion_lon": 0.0, "name": "fd82aca1a3b26d8cf56db3fa66d49dc6", "type": "electric_scooter"}, {"rental_uris": {"ios": "https://dc.lft.to/lastmile_qr_scan", "android": "https://dc.lft.to/lastmile_qr_scan"}, "lat": 38.89845533333333, "is_reserved": 0, "bike_id": "cae8653816ae385e30c1b139521f823b", "lon": -77.02878666666666, "is_disabled": 0, "fusion_lat": 0.0, "fusion_lon": 0.0, "name": "cae8653816ae385e30c1b139521f823b", "type": "electric_scooter"}, {"rental_uris": {"ios": "https://dc.lft.to/lastmile_qr_scan", "android": "https://dc.lft.to/lastmile_qr_scan"}, "lat": 38.88290666666666, "is_reserved": 0, "bike_id": "cdeeede681f94d0927a3a2b39dd5f6cf", "lon": -76.98355966666666, "is_disabled": 0, "fusion_lat": 0.0, "fusion_lon": 0.0, "name": "cdeeede681f94d0927a3a2b39dd5f6cf", "type": "electric_scooter"}, {"rental_uris": {"ios": "https://dc.lft.to/lastmile_qr_scan", "android": "https://dc.lft.to/lastmile_qr_scan"}, "lat": 38.88484016666666, "is_reserved": 0, "bike_id": "fc566363ce3b3e52a7d507e91708ab1d", "lon": -77.02182333333333, "is_disabled": 0, "fusion_lat": 0.0, "fusion_lon": 0.0, "name": "fc566363ce3b3e52a7d507e91708ab1d", "type": "electric_scooter"}, {"rental_uris": {"ios": "https://dc.lft.to/lastmile_qr_scan", "android": "https://dc.lft.to/lastmile_qr_scan"}, "lat": 38.923645666666665, "is_reserved": 0, "bike_id": "dd6bd135324b4a369d3274b424ad7ed7", "lon": -77.05030616666667, "is_disabled": 0, "fusion_lat": 0.0, "fusion_lon": 0.0, "name": "dd6bd135324b4a369d3274b424ad7ed7", "type": "electric_scooter"}, {"rental_uris": {"ios": "https://dc.lft.to/lastmile_qr_scan", "android": "https://dc.lft.to/lastmile_qr_scan"}, "lat": 38.91663116666667, "is_reserved": 0, "bike_id": "337b5191c74baf671df44378488cc14f", "lon": -77.03570416666666, "is_disabled": 0, "fusion_lat": 0.0, "fusion_lon": 0.0, "name": "337b5191c74baf671df44378488cc14f", "type": "electric_scooter"}, {"rental_uris": {"ios": "https://dc.lft.to/lastmile_qr_scan", "android": "https://dc.lft.to/lastmile_qr_scan"}, "lat": 38.9363805, "is_reserved": 0, "bike_id": "6091c1cd3e5d02ee3b7b0e551adc53c9", "lon": -77.060073, "is_disabled": 0, "fusion_lat": 0.0, "fusion_lon": 0.0, "name": "6091c1cd3e5d02ee3b7b0e551adc53c9", "type": "electric_scooter"}, {"rental_uris": {"ios": "https://dc.lft.to/lastmile_qr_scan", "android": "https://dc.lft.to/lastmile_qr_scan"}, "lat": 38.926389, "is_reserved": 0, "bike_id": "6ae3bda1a8592122c89cb082ae7316fe", "lon": -77.02722266666666, "is_disabled": 0, "fusion_lat": 0.0, "fusion_lon": 0.0, "name": "6ae3bda1a8592122c89cb082ae7316fe", "type": "electric_scooter"}, {"rental_uris": {"ios": "https://dc.lft.to/lastmile_qr_scan", "android": "https://dc.lft.to/lastmile_qr_scan"}, "lat": 38.91921583333333, "is_reserved": 0, "bike_id": "5e32992a3db52eb47b8feb1d403e2b45", "lon": -77.031776, "is_disabled": 0, "fusion_lat": 0.0, "fusion_lon": 0.0, "name": "5e32992a3db52eb47b8feb1d403e2b45", "type": "electric_scooter"}, {"rental_uris": {"ios": "https://dc.lft.to/lastmile_qr_scan", "android": "https://dc.lft.to/lastmile_qr_scan"}, "lat": 38.896223166666665, "is_reserved": 0, "bike_id": "5f98d5affc5ce00e22ba50c3504a8fd9", "lon": -77.01486683333333, "is_disabled": 0, "fusion_lat": 0.0, "fusion_lon": 0.0, "name": "5f98d5affc5ce00e22ba50c3504a8fd9", "type": "electric_scooter"}, {"rental_uris": {"ios": "https://dc.lft.to/lastmile_qr_scan", "android": "https://dc.lft.to/lastmile_qr_scan"}, "lat": 38.9267395, "is_reserved": 0, "bike_id": "ad51b8b5c987c3b39bb985da9145415d", "lon": -77.015572, "is_disabled": 0, "fusion_lat": 0.0, "fusion_lon": 0.0, "name": "ad51b8b5c987c3b39bb985da9145415d", "type": "electric_scooter"}, {"rental_uris": {"ios": "https://dc.lft.to/lastmile_qr_scan", "android": "https://dc.lft.to/lastmile_qr_scan"}, "lat": 39.012172166666666, "is_reserved": 0, "bike_id": "ff14dcca8616e5cea6b9c45eb75124bc", "lon": -77.11098616666666, "is_disabled": 0, "fusion_lat": 0.0, "fusion_lon": 0.0, "name": "ff14dcca8616e5cea6b9c45eb75124bc", "type": "electric_bike"}, {"rental_uris": {"ios": "https://dc.lft.to/lastmile_qr_scan", "android": "https://dc.lft.to/lastmile_qr_scan"}, "lat": 39.0037935, "is_reserved": 0, "bike_id": "6cd8fedc45d00a63a5d3c23b812f9d5d", "lon": -77.01293766666667, "is_disabled": 0, "fusion_lat": 0.0, "fusion_lon": 0.0, "name": "6cd8fedc45d00a63a5d3c23b812f9d5d", "type": "electric_bike"}, {"rental_uris": {"ios": "https://dc.lft.to/lastmile_qr_scan", "android": "https://dc.lft.to/lastmile_qr_scan"}, "lat": 38.944407166666664, "is_reserved": 0, "bike_id": "6b2626cdb2f777ac7c2b57e14e05dca5", "lon": -77.06352216666667, "is_disabled": 0, "fusion_lat": 0.0, "fusion_lon": 0.0, "name": "6b2626cdb2f777ac7c2b57e14e05dca5", "type": "electric_scooter"}, {"rental_uris": {"ios": "https://dc.lft.to/lastmile_qr_scan", "android": "https://dc.lft.to/lastmile_qr_scan"}, "lat": 38.884625, "is_reserved": 0, "bike_id": "565154fcc1a3a47552d782ad341aa3e0", "lon": -77.015054, "is_disabled": 0, "fusion_lat": 0.0, "fusion_lon": 0.0, "name": "565154fcc1a3a47552d782ad341aa3e0", "type": "electric_scooter"}, {"rental_uris": {"ios": "https://dc.lft.to/lastmile_qr_scan", "android": "https://dc.lft.to/lastmile_qr_scan"}, "lat": 38.940490833333335, "is_reserved": 0, "bike_id": "d5f6915cc29d54fe262bb062c335d552", "lon": -76.90420916666666, "is_disabled": 0, "fusion_lat": 0.0, "fusion_lon": 0.0, "name": "d5f6915cc29d54fe262bb062c335d552", "type": "electric_bike"}, {"rental_uris": {"ios": "https://dc.lft.to/lastmile_qr_scan", "android": "https://dc.lft.to/lastmile_qr_scan"}, "lat": 38.92231566666667, "is_reserved": 0, "bike_id": "fae8093f637a376691e9df01f43b9599", "lon": -77.023292, "is_disabled": 0, "fusion_lat": 0.0, "fusion_lon": 0.0, "name": "fae8093f637a376691e9df01f43b9599", "type": "electric_scooter"}, {"rental_uris": {"ios": "https://dc.lft.to/lastmile_qr_scan", "android": "https://dc.lft.to/lastmile_qr_scan"}, "lat": 38.91703316666667, "is_reserved": 0, "bike_id": "e73fc7c13d74ff07e3955aeb18ff4d8c", "lon": -77.03863633333333, "is_disabled": 0, "fusion_lat": 0.0, "fusion_lon": 0.0, "name": "e73fc7c13d74ff07e3955aeb18ff4d8c", "type": "electric_scooter"}, {"rental_uris": {"ios": "https://dc.lft.to/lastmile_qr_scan", "android": "https://dc.lft.to/lastmile_qr_scan"}, "lat": 38.929656666666666, "is_reserved": 0, "bike_id": "26f91cd16082cfc501b9b339ca335ea4", "lon": -77.025277, "is_disabled": 0, "fusion_lat": 0.0, "fusion_lon": 0.0, "name": "26f91cd16082cfc501b9b339ca335ea4", "type": "electric_scooter"}, {"rental_uris": {"ios": "https://dc.lft.to/lastmile_qr_scan", "android": "https://dc.lft.to/lastmile_qr_scan"}, "lat": 38.87951483333333, "is_reserved": 0, "bike_id": "9b0cb22187ea1df42244bd1458d23448", "lon": -77.00517633333334, "is_disabled": 0, "fusion_lat": 0.0, "fusion_lon": 0.0, "name": "9b0cb22187ea1df42244bd1458d23448", "type": "electric_scooter"}, {"rental_uris": {"ios": "https://dc.lft.to/lastmile_qr_scan", "android": "https://dc.lft.to/lastmile_qr_scan"}, "lat": 38.93113066666667, "is_reserved": 0, "bike_id": "3bd1c7bb813e6d57abb1258aae96df40", "lon": -77.03278216666666, "is_disabled": 0, "fusion_lat": 0.0, "fusion_lon": 0.0, "name": "3bd1c7bb813e6d57abb1258aae96df40", "type": "electric_scooter"}, {"rental_uris": {"ios": "https://dc.lft.to/lastmile_qr_scan", "android": "https://dc.lft.to/lastmile_qr_scan"}, "lat": 38.92338183333333, "is_reserved": 0, "bike_id": "fd92a40d2e0cf6126a1cc1e0d9009bbf", "lon": -77.05349416666667, "is_disabled": 0, "fusion_lat": 0.0, "fusion_lon": 0.0, "name": "fd92a40d2e0cf6126a1cc1e0d9009bbf", "type": "electric_scooter"}, {"rental_uris": {"ios": "https://dc.lft.to/lastmile_qr_scan", "android": "https://dc.lft.to/lastmile_qr_scan"}, "lat": 38.914790333333336, "is_reserved": 0, "bike_id": "cca8f7e756c3df942e02947b1593df21", "lon": -77.041717, "is_disabled": 0, "fusion_lat": 0.0, "fusion_lon": 0.0, "name": "cca8f7e756c3df942e02947b1593df21", "type": "electric_scooter"}, {"rental_uris": {"ios": "https://dc.lft.to/lastmile_qr_scan", "android": "https://dc.lft.to/lastmile_qr_scan"}, "lat": 38.903176, "is_reserved": 0, "bike_id": "df38bf2d5d807cfc06563e5491af168f", "lon": -77.0383995, "is_disabled": 0, "fusion_lat": 0.0, "fusion_lon": 0.0, "name": "df38bf2d5d807cfc06563e5491af168f", "type": "electric_scooter"}, {"rental_uris": {"ios": "https://dc.lft.to/lastmile_qr_scan", "android": "https://dc.lft.to/lastmile_qr_scan"}, "lat": 38.9164835, "is_reserved": 0, "bike_id": "3214eb01b37652b8b47c7cee628a8ea6", "lon": -77.03640433333334, "is_disabled": 0, "fusion_lat": 0.0, "fusion_lon": 0.0, "name": "3214eb01b37652b8b47c7cee628a8ea6", "type": "electric_scooter"}, {"rental_uris": {"ios": "https://dc.lft.to/lastmile_qr_scan", "android": "https://dc.lft.to/lastmile_qr_scan"}, "lat": 38.939162833333334, "is_reserved": 0, "bike_id": "e0af9a6526727e9677a3b2efac829d2e", "lon": -77.03680183333333, "is_disabled": 0, "fusion_lat": 0.0, "fusion_lon": 0.0, "name": "e0af9a6526727e9677a3b2efac829d2e", "type": "electric_scooter"}, {"rental_uris": {"ios": "https://dc.lft.to/lastmile_qr_scan", "android": "https://dc.lft.to/lastmile_qr_scan"}, "lat": 38.911075833333335, "is_reserved": 0, "bike_id": "8f4028965415867c0e294043b58e5523", "lon": -77.043993, "is_disabled": 0, "fusion_lat": 0.0, "fusion_lon": 0.0, "name": "8f4028965415867c0e294043b58e5523", "type": "electric_scooter"}, {"rental_uris": {"ios": "https://dc.lft.to/lastmile_qr_scan", "android": "https://dc.lft.to/lastmile_qr_scan"}, "lat": 38.896576833333334, "is_reserved": 0, "bike_id": "0869efa9a9c7f90c9cf7705d2f479532", "lon": -77.0240075, "is_disabled": 0, "fusion_lat": 0.0, "fusion_lon": 0.0, "name": "0869efa9a9c7f90c9cf7705d2f479532", "type": "electric_scooter"}, {"rental_uris": {"ios": "https://dc.lft.to/lastmile_qr_scan", "android": "https://dc.lft.to/lastmile_qr_scan"}, "lat": 38.91632383333334, "is_reserved": 0, "bike_id": "6a148037818ce7c48ddd29f24df0e0db", "lon": -77.03217066666667, "is_disabled": 0, "fusion_lat": 0.0, "fusion_lon": 0.0, "name": "6a148037818ce7c48ddd29f24df0e0db", "type": "electric_scooter"}, {"rental_uris": {"ios": "https://dc.lft.to/lastmile_qr_scan", "android": "https://dc.lft.to/lastmile_qr_scan"}, "lat": 38.901237333333334, "is_reserved": 0, "bike_id": "dfc5247611082451274d35181add7302", "lon": -77.03478433333333, "is_disabled": 0, "fusion_lat": 0.0, "fusion_lon": 0.0, "name": "dfc5247611082451274d35181add7302", "type": "electric_scooter"}, {"rental_uris": {"ios": "https://dc.lft.to/lastmile_qr_scan", "android": "https://dc.lft.to/lastmile_qr_scan"}, "lat": 38.905705166666664, "is_reserved": 0, "bike_id": "4b1ed38445401420de0eb1cda17d0916", "lon": -77.034624, "is_disabled": 0, "fusion_lat": 0.0, "fusion_lon": 0.0, "name": "4b1ed38445401420de0eb1cda17d0916", "type": "electric_scooter"}, {"rental_uris": {"ios": "https://dc.lft.to/lastmile_qr_scan", "android": "https://dc.lft.to/lastmile_qr_scan"}, "lat": 38.9035685, "is_reserved": 0, "bike_id": "9a135ac4b17e3f6517ba2a4718e2a1e4", "lon": -77.040292, "is_disabled": 0, "fusion_lat": 0.0, "fusion_lon": 0.0, "name": "9a135ac4b17e3f6517ba2a4718e2a1e4", "type": "electric_scooter"}, {"rental_uris": {"ios": "https://dc.lft.to/lastmile_qr_scan", "android": "https://dc.lft.to/lastmile_qr_scan"}, "lat": 38.842694333333334, "is_reserved": 0, "bike_id": "1197ab0706a77f7a4f8986d41b87d017", "lon": -76.98841866666666, "is_disabled": 0, "fusion_lat": 0.0, "fusion_lon": 0.0, "name": "1197ab0706a77f7a4f8986d41b87d017", "type": "electric_bike"}, {"rental_uris": {"ios": "https://dc.lft.to/lastmile_qr_scan", "android": "https://dc.lft.to/lastmile_qr_scan"}, "lat": 38.89822916666667, "is_reserved": 0, "bike_id": "d4b614332b9c1bbabe36a1be83fe1c4b", "lon": -77.0436755, "is_disabled": 0, "fusion_lat": 0.0, "fusion_lon": 0.0, "name": "d4b614332b9c1bbabe36a1be83fe1c4b", "type": "electric_scooter"}, {"rental_uris": {"ios": "https://dc.lft.to/lastmile_qr_scan", "android": "https://dc.lft.to/lastmile_qr_scan"}, "lat": 38.865067833333335, "is_reserved": 0, "bike_id": "c339183e3f3c02a9c9f55da4b613322f", "lon": -76.99005733333334, "is_disabled": 0, "fusion_lat": 0.0, "fusion_lon": 0.0, "name": "c339183e3f3c02a9c9f55da4b613322f", "type": "electric_scooter"}, {"rental_uris": {"ios": "https://dc.lft.to/lastmile_qr_scan", "android": "https://dc.lft.to/lastmile_qr_scan"}, "lat": 38.91771583333333, "is_reserved": 0, "bike_id": "f59f741aa49d034b65dd630cf71f6be3", "lon": -77.040589, "is_disabled": 0, "fusion_lat": 0.0, "fusion_lon": 0.0, "name": "f59f741aa49d034b65dd630cf71f6be3", "type": "electric_scooter"}, {"rental_uris": {"ios": "https://dc.lft.to/lastmile_qr_scan", "android": "https://dc.lft.to/lastmile_qr_scan"}, "lat": 38.900225666666664, "is_reserved": 0, "bike_id": "6ec5e7ab7f09663d5fb31c5ae50d0fe4", "lon": -76.97402483333333, "is_disabled": 0, "fusion_lat": 0.0, "fusion_lon": 0.0, "name": "6ec5e7ab7f09663d5fb31c5ae50d0fe4", "type": "electric_scooter"}, {"rental_uris": {"ios": "https://dc.lft.to/lastmile_qr_scan", "android": "https://dc.lft.to/lastmile_qr_scan"}, "lat": 38.924434166666664, "is_reserved": 0, "bike_id": "286c26ed657fa662fcc3587cf31fda41", "lon": -77.03404566666667, "is_disabled": 0, "fusion_lat": 0.0, "fusion_lon": 0.0, "name": "286c26ed657fa662fcc3587cf31fda41", "type": "electric_scooter"}, {"rental_uris": {"ios": "https://dc.lft.to/lastmile_qr_scan", "android": "https://dc.lft.to/lastmile_qr_scan"}, "lat": 38.900123666666666, "is_reserved": 0, "bike_id": "43807b58afd5e3033293bbbc76e5190c", "lon": -76.9980975, "is_disabled": 0, "fusion_lat": 0.0, "fusion_lon": 0.0, "name": "43807b58afd5e3033293bbbc76e5190c", "type": "electric_scooter"}, {"rental_uris": {"ios": "https://dc.lft.to/lastmile_qr_scan", "android": "https://dc.lft.to/lastmile_qr_scan"}, "lat": 38.92786516666666, "is_reserved": 0, "bike_id": "1c7075488bec639cac154f508b189918", "lon": -77.05360016666667, "is_disabled": 0, "fusion_lat": 0.0, "fusion_lon": 0.0, "name": "1c7075488bec639cac154f508b189918", "type": "electric_bike"}, {"rental_uris": {"ios": "https://dc.lft.to/lastmile_qr_scan", "android": "https://dc.lft.to/lastmile_qr_scan"}, "lat": 38.88996016666667, "is_reserved": 0, "bike_id": "f46def6bb5c126e8d68cac421cc8616f", "lon": -77.00349666666666, "is_disabled": 0, "fusion_lat": 0.0, "fusion_lon": 0.0, "name": "f46def6bb5c126e8d68cac421cc8616f", "type": "electric_scooter"}, {"rental_uris": {"ios": "https://dc.lft.to/lastmile_qr_scan", "android": "https://dc.lft.to/lastmile_qr_scan"}, "lat": 38.93709366666667, "is_reserved": 0, "bike_id": "f2cd163186a63c9a2af98128483f0856", "lon": -77.0323045, "is_disabled": 0, "fusion_lat": 0.0, "fusion_lon": 0.0, "name": "f2cd163186a63c9a2af98128483f0856", "type": "electric_scooter"}, {"rental_uris": {"ios": "https://dc.lft.to/lastmile_qr_scan", "android": "https://dc.lft.to/lastmile_qr_scan"}, "lat": 38.9321625, "is_reserved": 0, "bike_id": "53529865b390fd1f39ea9e43ec02bc8e", "lon": -77.03258433333333, "is_disabled": 0, "fusion_lat": 0.0, "fusion_lon": 0.0, "name": "53529865b390fd1f39ea9e43ec02bc8e", "type": "electric_scooter"}, {"rental_uris": {"ios": "https://dc.lft.to/lastmile_qr_scan", "android": "https://dc.lft.to/lastmile_qr_scan"}, "lat": 38.9083335, "is_reserved": 0, "bike_id": "56da7880071b7ef4d03933e4f1572540", "lon": -77.04158833333334, "is_disabled": 0, "fusion_lat": 0.0, "fusion_lon": 0.0, "name": "56da7880071b7ef4d03933e4f1572540", "type": "electric_scooter"}, {"rental_uris": {"ios": "https://dc.lft.to/lastmile_qr_scan", "android": "https://dc.lft.to/lastmile_qr_scan"}, "lat": 38.900326666666665, "is_reserved": 0, "bike_id": "f0f1f6c90b6d8caa1d1d8a0a078d5ace", "lon": -77.002174, "is_disabled": 0, "fusion_lat": 0.0, "fusion_lon": 0.0, "name": "f0f1f6c90b6d8caa1d1d8a0a078d5ace", "type": "electric_scooter"}, {"rental_uris": {"ios": "https://dc.lft.to/lastmile_qr_scan", "android": "https://dc.lft.to/lastmile_qr_scan"}, "lat": 38.902736166666664, "is_reserved": 0, "bike_id": "9d64196f510c354b4e1b77fc4d8df64d", "lon": -77.02282033333333, "is_disabled": 0, "fusion_lat": 0.0, "fusion_lon": 0.0, "name": "9d64196f510c354b4e1b77fc4d8df64d", "type": "electric_scooter"}, {"rental_uris": {"ios": "https://dc.lft.to/lastmile_qr_scan", "android": "https://dc.lft.to/lastmile_qr_scan"}, "lat": 38.904989, "is_reserved": 0, "bike_id": "3633d3a30d458a41ef1e030dad7d91f1", "lon": -77.06127133333334, "is_disabled": 0, "fusion_lat": 0.0, "fusion_lon": 0.0, "name": "3633d3a30d458a41ef1e030dad7d91f1", "type": "electric_scooter"}, {"rental_uris": {"ios": "https://dc.lft.to/lastmile_qr_scan", "android": "https://dc.lft.to/lastmile_qr_scan"}, "lat": 38.92053383333333, "is_reserved": 0, "bike_id": "b40ac3ab815b75a3b3633fa9eccbbd8e", "lon": -77.03821166666667, "is_disabled": 0, "fusion_lat": 0.0, "fusion_lon": 0.0, "name": "b40ac3ab815b75a3b3633fa9eccbbd8e", "type": "electric_scooter"}, {"rental_uris": {"ios": "https://dc.lft.to/lastmile_qr_scan", "android": "https://dc.lft.to/lastmile_qr_scan"}, "lat": 38.865927166666665, "is_reserved": 0, "bike_id": "63ff4f54e7378108c1206a69cc129a4c", "lon": -76.9820345, "is_disabled": 0, "fusion_lat": 0.0, "fusion_lon": 0.0, "name": "63ff4f54e7378108c1206a69cc129a4c", "type": "electric_scooter"}, {"rental_uris": {"ios": "https://dc.lft.to/lastmile_qr_scan", "android": "https://dc.lft.to/lastmile_qr_scan"}, "lat": 38.8982305, "is_reserved": 0, "bike_id": "854e9322d8f8fecf93f80a6b95c9e82b", "lon": -77.0333415, "is_disabled": 0, "fusion_lat": 0.0, "fusion_lon": 0.0, "name": "854e9322d8f8fecf93f80a6b95c9e82b", "type": "electric_scooter"}, {"rental_uris": {"ios": "https://dc.lft.to/lastmile_qr_scan", "android": "https://dc.lft.to/lastmile_qr_scan"}, "lat": 38.9169755, "is_reserved": 0, "bike_id": "9c688648e4267c902129439ea07e8168", "lon": -77.03127933333333, "is_disabled": 0, "fusion_lat": 0.0, "fusion_lon": 0.0, "name": "9c688648e4267c902129439ea07e8168", "type": "electric_scooter"}, {"rental_uris": {"ios": "https://dc.lft.to/lastmile_qr_scan", "android": "https://dc.lft.to/lastmile_qr_scan"}, "lat": 38.90420266666667, "is_reserved": 0, "bike_id": "cab9207c8babf2117163e6b9d3e2895b", "lon": -77.04370733333333, "is_disabled": 0, "fusion_lat": 0.0, "fusion_lon": 0.0, "name": "cab9207c8babf2117163e6b9d3e2895b", "type": "electric_scooter"}, {"rental_uris": {"ios": "https://dc.lft.to/lastmile_qr_scan", "android": "https://dc.lft.to/lastmile_qr_scan"}, "lat": 38.901127333333335, "is_reserved": 0, "bike_id": "2eee023190605b34148d08bb57d7883f", "lon": -77.0324375, "is_disabled": 0, "fusion_lat": 0.0, "fusion_lon": 0.0, "name": "2eee023190605b34148d08bb57d7883f", "type": "electric_scooter"}, {"rental_uris": {"ios": "https://dc.lft.to/lastmile_qr_scan", "android": "https://dc.lft.to/lastmile_qr_scan"}, "lat": 38.9507455, "is_reserved": 0, "bike_id": "53f4b71b4758f3db8723fa468d0664b3", "lon": -77.06654966666666, "is_disabled": 0, "fusion_lat": 0.0, "fusion_lon": 0.0, "name": "53f4b71b4758f3db8723fa468d0664b3", "type": "electric_bike"}, {"rental_uris": {"ios": "https://dc.lft.to/lastmile_qr_scan", "android": "https://dc.lft.to/lastmile_qr_scan"}, "lat": 38.918650666666665, "is_reserved": 0, "bike_id": "716e9259afa567992459afb5a3719e35", "lon": -77.03591933333334, "is_disabled": 0, "fusion_lat": 0.0, "fusion_lon": 0.0, "name": "716e9259afa567992459afb5a3719e35", "type": "electric_scooter"}, {"rental_uris": {"ios": "https://dc.lft.to/lastmile_qr_scan", "android": "https://dc.lft.to/lastmile_qr_scan"}, "lat": 38.924402, "is_reserved": 0, "bike_id": "1164d34a628f49460557b5e81060df1e", "lon": -77.0214905, "is_disabled": 0, "fusion_lat": 0.0, "fusion_lon": 0.0, "name": "1164d34a628f49460557b5e81060df1e", "type": "electric_scooter"}, {"rental_uris": {"ios": "https://dc.lft.to/lastmile_qr_scan", "android": "https://dc.lft.to/lastmile_qr_scan"}, "lat": 38.9122035, "is_reserved": 0, "bike_id": "18a29257b65182598bcf71508e36eb37", "lon": -77.044299, "is_disabled": 0, "fusion_lat": 0.0, "fusion_lon": 0.0, "name": "18a29257b65182598bcf71508e36eb37", "type": "electric_scooter"}, {"rental_uris": {"ios": "https://dc.lft.to/lastmile_qr_scan", "android": "https://dc.lft.to/lastmile_qr_scan"}, "lat": 38.876875, "is_reserved": 0, "bike_id": "19ead4af49cd8cec1b4a06e79cc8c1c2", "lon": -77.00427, "is_disabled": 0, "fusion_lat": 0.0, "fusion_lon": 0.0, "name": "19ead4af49cd8cec1b4a06e79cc8c1c2", "type": "electric_scooter"}, {"rental_uris": {"ios": "https://dc.lft.to/lastmile_qr_scan", "android": "https://dc.lft.to/lastmile_qr_scan"}, "lat": 38.900307166666664, "is_reserved": 0, "bike_id": "7f7b92adbd9a5c878e2542341c710ab8", "lon": -76.97228266666667, "is_disabled": 0, "fusion_lat": 0.0, "fusion_lon": 0.0, "name": "7f7b92adbd9a5c878e2542341c710ab8", "type": "electric_bike"}, {"rental_uris": {"ios": "https://dc.lft.to/lastmile_qr_scan", "android": "https://dc.lft.to/lastmile_qr_scan"}, "lat": 38.944500166666664, "is_reserved": 0, "bike_id": "e7fa04de894d3d5ba10411975d21b75a", "lon": -77.02339583333334, "is_disabled": 0, "fusion_lat": 0.0, "fusion_lon": 0.0, "name": "e7fa04de894d3d5ba10411975d21b75a", "type": "electric_scooter"}, {"rental_uris": {"ios": "https://dc.lft.to/lastmile_qr_scan", "android": "https://dc.lft.to/lastmile_qr_scan"}, "lat": 38.90397866666667, "is_reserved": 0, "bike_id": "47f3ac82c24631ad3578651ae8486709", "lon": -77.04343466666667, "is_disabled": 0, "fusion_lat": 0.0, "fusion_lon": 0.0, "name": "47f3ac82c24631ad3578651ae8486709", "type": "electric_scooter"}, {"rental_uris": {"ios": "https://dc.lft.to/lastmile_qr_scan", "android": "https://dc.lft.to/lastmile_qr_scan"}, "lat": 38.97624483333333, "is_reserved": 0, "bike_id": "6dd3686378abd12e5372dd4c8d79f051", "lon": -77.01565866666667, "is_disabled": 0, "fusion_lat": 0.0, "fusion_lon": 0.0, "name": "6dd3686378abd12e5372dd4c8d79f051", "type": "electric_scooter"}, {"rental_uris": {"ios": "https://dc.lft.to/lastmile_qr_scan", "android": "https://dc.lft.to/lastmile_qr_scan"}, "lat": 38.880176166666665, "is_reserved": 0, "bike_id": "cb20e14edc917b64ad3df9a803bfc20d", "lon": -77.02475983333333, "is_disabled": 0, "fusion_lat": 0.0, "fusion_lon": 0.0, "name": "cb20e14edc917b64ad3df9a803bfc20d", "type": "electric_scooter"}, {"rental_uris": {"ios": "https://dc.lft.to/lastmile_qr_scan", "android": "https://dc.lft.to/lastmile_qr_scan"}, "lat": 38.892321, "is_reserved": 0, "bike_id": "1f1e29f9c94e636f236211a65ad52f0b", "lon": -77.0220665, "is_disabled": 0, "fusion_lat": 0.0, "fusion_lon": 0.0, "name": "1f1e29f9c94e636f236211a65ad52f0b", "type": "electric_scooter"}, {"rental_uris": {"ios": "https://dc.lft.to/lastmile_qr_scan", "android": "https://dc.lft.to/lastmile_qr_scan"}, "lat": 38.92090483333333, "is_reserved": 0, "bike_id": "37832d9d98539f9a0606dcf81590c340", "lon": -77.02046616666667, "is_disabled": 0, "fusion_lat": 0.0, "fusion_lon": 0.0, "name": "37832d9d98539f9a0606dcf81590c340", "type": "electric_scooter"}, {"rental_uris": {"ios": "https://dc.lft.to/lastmile_qr_scan", "android": "https://dc.lft.to/lastmile_qr_scan"}, "lat": 38.941498833333334, "is_reserved": 0, "bike_id": "1bdb4fe36ad0c23f14625c73a12d5f2f", "lon": -77.00196166666667, "is_disabled": 0, "fusion_lat": 0.0, "fusion_lon": 0.0, "name": "1bdb4fe36ad0c23f14625c73a12d5f2f", "type": "electric_bike"}, {"rental_uris": {"ios": "https://dc.lft.to/lastmile_qr_scan", "android": "https://dc.lft.to/lastmile_qr_scan"}, "lat": 38.866853666666664, "is_reserved": 0, "bike_id": "708287db3363674323b5cf7eb55ce389", "lon": -76.98542933333333, "is_disabled": 0, "fusion_lat": 0.0, "fusion_lon": 0.0, "name": "708287db3363674323b5cf7eb55ce389", "type": "electric_scooter"}, {"rental_uris": {"ios": "https://dc.lft.to/lastmile_qr_scan", "android": "https://dc.lft.to/lastmile_qr_scan"}, "lat": 38.93272316666667, "is_reserved": 0, "bike_id": "6a05cefe26acd64f3acec8df3f3c8300", "lon": -77.045397, "is_disabled": 0, "fusion_lat": 0.0, "fusion_lon": 0.0, "name": "6a05cefe26acd64f3acec8df3f3c8300", "type": "electric_scooter"}, {"rental_uris": {"ios": "https://dc.lft.to/lastmile_qr_scan", "android": "https://dc.lft.to/lastmile_qr_scan"}, "lat": 38.91709916666667, "is_reserved": 0, "bike_id": "add3ad6063e3d597fa229ebf6a916413", "lon": -77.03865283333333, "is_disabled": 0, "fusion_lat": 0.0, "fusion_lon": 0.0, "name": "add3ad6063e3d597fa229ebf6a916413", "type": "electric_scooter"}, {"rental_uris": {"ios": "https://dc.lft.to/lastmile_qr_scan", "android": "https://dc.lft.to/lastmile_qr_scan"}, "lat": 38.91194616666667, "is_reserved": 0, "bike_id": "b7c4b4982f2ac1d4587c58e87283369d", "lon": -77.07310316666667, "is_disabled": 0, "fusion_lat": 0.0, "fusion_lon": 0.0, "name": "b7c4b4982f2ac1d4587c58e87283369d", "type": "electric_scooter"}, {"rental_uris": {"ios": "https://dc.lft.to/lastmile_qr_scan", "android": "https://dc.lft.to/lastmile_qr_scan"}, "lat": 38.919542, "is_reserved": 0, "bike_id": "8d47121031f5f9f5a0ff81a3250b300e", "lon": -77.04177633333333, "is_disabled": 0, "fusion_lat": 0.0, "fusion_lon": 0.0, "name": "8d47121031f5f9f5a0ff81a3250b300e", "type": "electric_scooter"}, {"rental_uris": {"ios": "https://dc.lft.to/lastmile_qr_scan", "android": "https://dc.lft.to/lastmile_qr_scan"}, "lat": 38.87580033333333, "is_reserved": 0, "bike_id": "3f5e3fdf63ea4c528cbb2944540caf17", "lon": -77.00418366666666, "is_disabled": 0, "fusion_lat": 0.0, "fusion_lon": 0.0, "name": "3f5e3fdf63ea4c528cbb2944540caf17", "type": "electric_scooter"}, {"rental_uris": {"ios": "https://dc.lft.to/lastmile_qr_scan", "android": "https://dc.lft.to/lastmile_qr_scan"}, "lat": 38.924378833333336, "is_reserved": 0, "bike_id": "26f021e8f7a2a3666a5c2a8552c2493b", "lon": -77.020336, "is_disabled": 0, "fusion_lat": 0.0, "fusion_lon": 0.0, "name": "26f021e8f7a2a3666a5c2a8552c2493b", "type": "electric_scooter"}, {"rental_uris": {"ios": "https://dc.lft.to/lastmile_qr_scan", "android": "https://dc.lft.to/lastmile_qr_scan"}, "lat": 38.903059166666665, "is_reserved": 0, "bike_id": "ea8a7ab74fdb0dc20c050df61b466cc3", "lon": -77.02095083333333, "is_disabled": 0, "fusion_lat": 0.0, "fusion_lon": 0.0, "name": "ea8a7ab74fdb0dc20c050df61b466cc3", "type": "electric_scooter"}, {"rental_uris": {"ios": "https://dc.lft.to/lastmile_qr_scan", "android": "https://dc.lft.to/lastmile_qr_scan"}, "lat": 38.91741483333333, "is_reserved": 0, "bike_id": "230f9699618c6d0f1e4f823ddba951a2", "lon": -77.04176716666667, "is_disabled": 0, "fusion_lat": 0.0, "fusion_lon": 0.0, "name": "230f9699618c6d0f1e4f823ddba951a2", "type": "electric_scooter"}, {"rental_uris": {"ios": "https://dc.lft.to/lastmile_qr_scan", "android": "https://dc.lft.to/lastmile_qr_scan"}, "lat": 38.84729, "is_reserved": 0, "bike_id": "d5147aa48b8f0d9c98f93c3cc2aa5daf", "lon": -76.98237783333333, "is_disabled": 0, "fusion_lat": 0.0, "fusion_lon": 0.0, "name": "d5147aa48b8f0d9c98f93c3cc2aa5daf", "type": "electric_scooter"}, {"rental_uris": {"ios": "https://dc.lft.to/lastmile_qr_scan", "android": "https://dc.lft.to/lastmile_qr_scan"}, "lat": 38.9207965, "is_reserved": 0, "bike_id": "531352285dcfaeadcca4860a046bc254", "lon": -77.0182985, "is_disabled": 0, "fusion_lat": 0.0, "fusion_lon": 0.0, "name": "531352285dcfaeadcca4860a046bc254", "type": "electric_scooter"}, {"rental_uris": {"ios": "https://dc.lft.to/lastmile_qr_scan", "android": "https://dc.lft.to/lastmile_qr_scan"}, "lat": 38.902659666666665, "is_reserved": 0, "bike_id": "f00b21b26e9e937e6ee4875b2840a69f", "lon": -77.03857566666667, "is_disabled": 0, "fusion_lat": 0.0, "fusion_lon": 0.0, "name": "f00b21b26e9e937e6ee4875b2840a69f", "type": "electric_scooter"}, {"rental_uris": {"ios": "https://dc.lft.to/lastmile_qr_scan", "android": "https://dc.lft.to/lastmile_qr_scan"}, "lat": 38.9224905, "is_reserved": 0, "bike_id": "c7ce229845018dcca83714ace1950fc5", "lon": -77.04278983333333, "is_disabled": 0, "fusion_lat": 0.0, "fusion_lon": 0.0, "name": "c7ce229845018dcca83714ace1950fc5", "type": "electric_scooter"}, {"rental_uris": {"ios": "https://dc.lft.to/lastmile_qr_scan", "android": "https://dc.lft.to/lastmile_qr_scan"}, "lat": 38.913014833333335, "is_reserved": 0, "bike_id": "590ad6cc968714f6da746029a5db42d6", "lon": -77.02697283333333, "is_disabled": 0, "fusion_lat": 0.0, "fusion_lon": 0.0, "name": "590ad6cc968714f6da746029a5db42d6", "type": "electric_scooter"}, {"rental_uris": {"ios": "https://dc.lft.to/lastmile_qr_scan", "android": "https://dc.lft.to/lastmile_qr_scan"}, "lat": 38.90675683333333, "is_reserved": 0, "bike_id": "a1c14cebf9a8f0b94dd0473115db52dc", "lon": -77.03668916666666, "is_disabled": 0, "fusion_lat": 0.0, "fusion_lon": 0.0, "name": "a1c14cebf9a8f0b94dd0473115db52dc", "type": "electric_scooter"}, {"rental_uris": {"ios": "https://dc.lft.to/lastmile_qr_scan", "android": "https://dc.lft.to/lastmile_qr_scan"}, "lat": 38.92845833333333, "is_reserved": 0, "bike_id": "e38a6ae479a7c3c69e578b4f8e5ff876", "lon": -76.99598916666666, "is_disabled": 0, "fusion_lat": 0.0, "fusion_lon": 0.0, "name": "e38a6ae479a7c3c69e578b4f8e5ff876", "type": "electric_scooter"}, {"rental_uris": {"ios": "https://dc.lft.to/lastmile_qr_scan", "android": "https://dc.lft.to/lastmile_qr_scan"}, "lat": 38.903893833333335, "is_reserved": 0, "bike_id": "d2abd66874f5ea6297cb64653ce90db9", "lon": -77.0346535, "is_disabled": 0, "fusion_lat": 0.0, "fusion_lon": 0.0, "name": "d2abd66874f5ea6297cb64653ce90db9", "type": "electric_scooter"}, {"rental_uris": {"ios": "https://dc.lft.to/lastmile_qr_scan", "android": "https://dc.lft.to/lastmile_qr_scan"}, "lat": 38.91096233333333, "is_reserved": 0, "bike_id": "83ba0f8772a6e429b90111fda9b035ff", "lon": -77.02722133333333, "is_disabled": 0, "fusion_lat": 0.0, "fusion_lon": 0.0, "name": "83ba0f8772a6e429b90111fda9b035ff", "type": "electric_scooter"}, {"rental_uris": {"ios": "https://dc.lft.to/lastmile_qr_scan", "android": "https://dc.lft.to/lastmile_qr_scan"}, "lat": 38.89629566666667, "is_reserved": 0, "bike_id": "9e47e5b6478c192751fafc981b19c9b6", "lon": -77.0401435, "is_disabled": 0, "fusion_lat": 0.0, "fusion_lon": 0.0, "name": "9e47e5b6478c192751fafc981b19c9b6", "type": "electric_scooter"}, {"rental_uris": {"ios": "https://dc.lft.to/lastmile_qr_scan", "android": "https://dc.lft.to/lastmile_qr_scan"}, "lat": 38.864269, "is_reserved": 0, "bike_id": "d1229c1203b84f4d1a4c0ce2be043135", "lon": -76.98001783333333, "is_disabled": 0, "fusion_lat": 0.0, "fusion_lon": 0.0, "name": "d1229c1203b84f4d1a4c0ce2be043135", "type": "electric_scooter"}, {"rental_uris": {"ios": "https://dc.lft.to/lastmile_qr_scan", "android": "https://dc.lft.to/lastmile_qr_scan"}, "lat": 38.932200333333334, "is_reserved": 0, "bike_id": "55a3ef0a16dc721f57596f2a80f2250f", "lon": -77.033662, "is_disabled": 0, "fusion_lat": 0.0, "fusion_lon": 0.0, "name": "55a3ef0a16dc721f57596f2a80f2250f", "type": "electric_scooter"}, {"rental_uris": {"ios": "https://dc.lft.to/lastmile_qr_scan", "android": "https://dc.lft.to/lastmile_qr_scan"}, "lat": 38.892207666666664, "is_reserved": 0, "bike_id": "100d3787afa5e8b447c3c8c115a69760", "lon": -77.04865566666666, "is_disabled": 0, "fusion_lat": 0.0, "fusion_lon": 0.0, "name": "100d3787afa5e8b447c3c8c115a69760", "type": "electric_scooter"}, {"rental_uris": {"ios": "https://dc.lft.to/lastmile_qr_scan", "android": "https://dc.lft.to/lastmile_qr_scan"}, "lat": 38.90499716666667, "is_reserved": 0, "bike_id": "1de5816d34d8e96354472c9401441d0e", "lon": -77.06879733333334, "is_disabled": 0, "fusion_lat": 0.0, "fusion_lon": 0.0, "name": "1de5816d34d8e96354472c9401441d0e", "type": "electric_scooter"}, {"rental_uris": {"ios": "https://dc.lft.to/lastmile_qr_scan", "android": "https://dc.lft.to/lastmile_qr_scan"}, "lat": 38.89237133333334, "is_reserved": 0, "bike_id": "04d6b1dc72aea9efb9ea97d269493e53", "lon": -77.0258315, "is_disabled": 0, "fusion_lat": 0.0, "fusion_lon": 0.0, "name": "04d6b1dc72aea9efb9ea97d269493e53", "type": "electric_scooter"}, {"rental_uris": {"ios": "https://dc.lft.to/lastmile_qr_scan", "android": "https://dc.lft.to/lastmile_qr_scan"}, "lat": 38.88741233333333, "is_reserved": 0, "bike_id": "86abb282a00f01db01715871bd02fc16", "lon": -77.02229833333334, "is_disabled": 0, "fusion_lat": 0.0, "fusion_lon": 0.0, "name": "86abb282a00f01db01715871bd02fc16", "type": "electric_scooter"}, {"rental_uris": {"ios": "https://dc.lft.to/lastmile_qr_scan", "android": "https://dc.lft.to/lastmile_qr_scan"}, "lat": 38.90845066666667, "is_reserved": 0, "bike_id": "8d4f40f61796ee6fc5c1b114e80e3c04", "lon": -77.03941466666667, "is_disabled": 0, "fusion_lat": 0.0, "fusion_lon": 0.0, "name": "8d4f40f61796ee6fc5c1b114e80e3c04", "type": "electric_scooter"}, {"rental_uris": {"ios": "https://dc.lft.to/lastmile_qr_scan", "android": "https://dc.lft.to/lastmile_qr_scan"}, "lat": 38.89508933333333, "is_reserved": 0, "bike_id": "7b6a2ce1538ae695109915bdf3c2563b", "lon": -77.003417, "is_disabled": 0, "fusion_lat": 0.0, "fusion_lon": 0.0, "name": "7b6a2ce1538ae695109915bdf3c2563b", "type": "electric_scooter"}, {"rental_uris": {"ios": "https://dc.lft.to/lastmile_qr_scan", "android": "https://dc.lft.to/lastmile_qr_scan"}, "lat": 38.9184525, "is_reserved": 0, "bike_id": "8c8e9a0ebc0d7d0052916967da994ea4", "lon": -77.03561033333334, "is_disabled": 0, "fusion_lat": 0.0, "fusion_lon": 0.0, "name": "8c8e9a0ebc0d7d0052916967da994ea4", "type": "electric_scooter"}, {"rental_uris": {"ios": "https://dc.lft.to/lastmile_qr_scan", "android": "https://dc.lft.to/lastmile_qr_scan"}, "lat": 38.95720883333333, "is_reserved": 0, "bike_id": "93152b5bcd84c46c576e0e405b7c6bd1", "lon": -77.03255166666666, "is_disabled": 0, "fusion_lat": 0.0, "fusion_lon": 0.0, "name": "93152b5bcd84c46c576e0e405b7c6bd1", "type": "electric_scooter"}, {"rental_uris": {"ios": "https://dc.lft.to/lastmile_qr_scan", "android": "https://dc.lft.to/lastmile_qr_scan"}, "lat": 38.90787016666667, "is_reserved": 0, "bike_id": "dd72e8e38994bfcf38773f0943448ea7", "lon": -77.0449945, "is_disabled": 0, "fusion_lat": 0.0, "fusion_lon": 0.0, "name": "dd72e8e38994bfcf38773f0943448ea7", "type": "electric_scooter"}, {"rental_uris": {"ios": "https://dc.lft.to/lastmile_qr_scan", "android": "https://dc.lft.to/lastmile_qr_scan"}, "lat": 38.91088516666667, "is_reserved": 0, "bike_id": "37ee43de122c47215b9122c15b64b498", "lon": -77.01627616666667, "is_disabled": 0, "fusion_lat": 0.0, "fusion_lon": 0.0, "name": "37ee43de122c47215b9122c15b64b498", "type": "electric_scooter"}, {"rental_uris": {"ios": "https://dc.lft.to/lastmile_qr_scan", "android": "https://dc.lft.to/lastmile_qr_scan"}, "lat": 38.92178933333334, "is_reserved": 0, "bike_id": "3d6a4be20b7fbb9cba9fc44d723f312a", "lon": -77.0470945, "is_disabled": 0, "fusion_lat": 0.0, "fusion_lon": 0.0, "name": "3d6a4be20b7fbb9cba9fc44d723f312a", "type": "electric_scooter"}, {"rental_uris": {"ios": "https://dc.lft.to/lastmile_qr_scan", "android": "https://dc.lft.to/lastmile_qr_scan"}, "lat": 38.897277, "is_reserved": 0, "bike_id": "aa7f4400fe1e009994618061b2fd15a8", "lon": -77.05525916666667, "is_disabled": 0, "fusion_lat": 0.0, "fusion_lon": 0.0, "name": "aa7f4400fe1e009994618061b2fd15a8", "type": "electric_scooter"}, {"rental_uris": {"ios": "https://dc.lft.to/lastmile_qr_scan", "android": "https://dc.lft.to/lastmile_qr_scan"}, "lat": 38.90546416666667, "is_reserved": 0, "bike_id": "ac22a2d85a9ece13b3cb250cad47f685", "lon": -77.0569865, "is_disabled": 0, "fusion_lat": 0.0, "fusion_lon": 0.0, "name": "ac22a2d85a9ece13b3cb250cad47f685", "type": "electric_scooter"}, {"rental_uris": {"ios": "https://dc.lft.to/lastmile_qr_scan", "android": "https://dc.lft.to/lastmile_qr_scan"}, "lat": 38.89897783333333, "is_reserved": 0, "bike_id": "e7fca705084a352fd12d883192ab55a1", "lon": -77.03280983333333, "is_disabled": 0, "fusion_lat": 0.0, "fusion_lon": 0.0, "name": "e7fca705084a352fd12d883192ab55a1", "type": "electric_scooter"}, {"rental_uris": {"ios": "https://dc.lft.to/lastmile_qr_scan", "android": "https://dc.lft.to/lastmile_qr_scan"}, "lat": 38.903584333333335, "is_reserved": 0, "bike_id": "367d75d7edb5efb6e103b868215042f5", "lon": -77.04244483333333, "is_disabled": 0, "fusion_lat": 0.0, "fusion_lon": 0.0, "name": "367d75d7edb5efb6e103b868215042f5", "type": "electric_scooter"}, {"rental_uris": {"ios": "https://dc.lft.to/lastmile_qr_scan", "android": "https://dc.lft.to/lastmile_qr_scan"}, "lat": 38.92113883333333, "is_reserved": 0, "bike_id": "7935a4b61b1f9ee27fa46f1ede2f62f5", "lon": -77.02519383333333, "is_disabled": 0, "fusion_lat": 0.0, "fusion_lon": 0.0, "name": "7935a4b61b1f9ee27fa46f1ede2f62f5", "type": "electric_scooter"}, {"rental_uris": {"ios": "https://dc.lft.to/lastmile_qr_scan", "android": "https://dc.lft.to/lastmile_qr_scan"}, "lat": 38.9339325, "is_reserved": 0, "bike_id": "cedaeaad62a3bed86fa80da1b36bde6c", "lon": -77.0573965, "is_disabled": 0, "fusion_lat": 0.0, "fusion_lon": 0.0, "name": "cedaeaad62a3bed86fa80da1b36bde6c", "type": "electric_scooter"}, {"rental_uris": {"ios": "https://dc.lft.to/lastmile_qr_scan", "android": "https://dc.lft.to/lastmile_qr_scan"}, "lat": 38.89854916666667, "is_reserved": 0, "bike_id": "6ea076c96d8c2ffcf95aea787486992f", "lon": -77.04359266666667, "is_disabled": 0, "fusion_lat": 0.0, "fusion_lon": 0.0, "name": "6ea076c96d8c2ffcf95aea787486992f", "type": "electric_scooter"}, {"rental_uris": {"ios": "https://dc.lft.to/lastmile_qr_scan", "android": "https://dc.lft.to/lastmile_qr_scan"}, "lat": 38.898629166666666, "is_reserved": 0, "bike_id": "cc8ce984806ca3bd1b30fa1e44eb7b23", "lon": -76.9463075, "is_disabled": 0, "fusion_lat": 0.0, "fusion_lon": 0.0, "name": "cc8ce984806ca3bd1b30fa1e44eb7b23", "type": "electric_scooter"}, {"rental_uris": {"ios": "https://dc.lft.to/lastmile_qr_scan", "android": "https://dc.lft.to/lastmile_qr_scan"}, "lat": 38.911548833333335, "is_reserved": 0, "bike_id": "1c377ed7ade675a68f0fe69d0cd675f0", "lon": -77.0238655, "is_disabled": 0, "fusion_lat": 0.0, "fusion_lon": 0.0, "name": "1c377ed7ade675a68f0fe69d0cd675f0", "type": "electric_scooter"}, {"rental_uris": {"ios": "https://dc.lft.to/lastmile_qr_scan", "android": "https://dc.lft.to/lastmile_qr_scan"}, "lat": 38.91042366666667, "is_reserved": 0, "bike_id": "dbf0b8112bca8c176b85ecbacd2c4c42", "lon": -77.043939, "is_disabled": 0, "fusion_lat": 0.0, "fusion_lon": 0.0, "name": "dbf0b8112bca8c176b85ecbacd2c4c42", "type": "electric_scooter"}, {"rental_uris": {"ios": "https://dc.lft.to/lastmile_qr_scan", "android": "https://dc.lft.to/lastmile_qr_scan"}, "lat": 38.91199533333333, "is_reserved": 0, "bike_id": "55c9ac86c0b534e2d6764627614f61c6", "lon": -77.03649733333333, "is_disabled": 0, "fusion_lat": 0.0, "fusion_lon": 0.0, "name": "55c9ac86c0b534e2d6764627614f61c6", "type": "electric_scooter"}, {"rental_uris": {"ios": "https://dc.lft.to/lastmile_qr_scan", "android": "https://dc.lft.to/lastmile_qr_scan"}, "lat": 38.973806, "is_reserved": 0, "bike_id": "965d416e314e52ccd1667a2f9b9a866d", "lon": -77.06472366666667, "is_disabled": 0, "fusion_lat": 0.0, "fusion_lon": 0.0, "name": "965d416e314e52ccd1667a2f9b9a866d", "type": "electric_bike"}, {"rental_uris": {"ios": "https://dc.lft.to/lastmile_qr_scan", "android": "https://dc.lft.to/lastmile_qr_scan"}, "lat": 38.924149666666665, "is_reserved": 0, "bike_id": "a1cbee05adc8915842339b373249b839", "lon": -77.0200685, "is_disabled": 0, "fusion_lat": 0.0, "fusion_lon": 0.0, "name": "a1cbee05adc8915842339b373249b839", "type": "electric_scooter"}, {"rental_uris": {"ios": "https://dc.lft.to/lastmile_qr_scan", "android": "https://dc.lft.to/lastmile_qr_scan"}, "lat": 38.916181333333334, "is_reserved": 0, "bike_id": "d26bbd2cb8fdff9419ff2c4a123e7427", "lon": -77.0486455, "is_disabled": 0, "fusion_lat": 0.0, "fusion_lon": 0.0, "name": "d26bbd2cb8fdff9419ff2c4a123e7427", "type": "electric_scooter"}, {"rental_uris": {"ios": "https://dc.lft.to/lastmile_qr_scan", "android": "https://dc.lft.to/lastmile_qr_scan"}, "lat": 38.88819316666667, "is_reserved": 0, "bike_id": "4aa4350f343f6b90746c32a4b66b9074", "lon": -76.98067733333333, "is_disabled": 0, "fusion_lat": 0.0, "fusion_lon": 0.0, "name": "4aa4350f343f6b90746c32a4b66b9074", "type": "electric_scooter"}, {"rental_uris": {"ios": "https://dc.lft.to/lastmile_qr_scan", "android": "https://dc.lft.to/lastmile_qr_scan"}, "lat": 38.89825583333333, "is_reserved": 0, "bike_id": "28b78dd8203c735e8c5dcd1e8ebaaf00", "lon": -77.048154, "is_disabled": 0, "fusion_lat": 0.0, "fusion_lon": 0.0, "name": "28b78dd8203c735e8c5dcd1e8ebaaf00", "type": "electric_scooter"}, {"rental_uris": {"ios": "https://dc.lft.to/lastmile_qr_scan", "android": "https://dc.lft.to/lastmile_qr_scan"}, "lat": 38.88734766666666, "is_reserved": 0, "bike_id": "fdab9bd1615277457593592266124503", "lon": -77.021232, "is_disabled": 0, "fusion_lat": 0.0, "fusion_lon": 0.0, "name": "fdab9bd1615277457593592266124503", "type": "electric_scooter"}, {"rental_uris": {"ios": "https://dc.lft.to/lastmile_qr_scan", "android": "https://dc.lft.to/lastmile_qr_scan"}, "lat": 38.9108045, "is_reserved": 0, "bike_id": "56ec88aa440b7d20870a67281c4f79a4", "lon": -77.00498633333333, "is_disabled": 0, "fusion_lat": 0.0, "fusion_lon": 0.0, "name": "56ec88aa440b7d20870a67281c4f79a4", "type": "electric_scooter"}, {"rental_uris": {"ios": "https://dc.lft.to/lastmile_qr_scan", "android": "https://dc.lft.to/lastmile_qr_scan"}, "lat": 38.914493, "is_reserved": 0, "bike_id": "f90c952eb79c49c18d662db38185cded", "lon": -77.0462535, "is_disabled": 0, "fusion_lat": 0.0, "fusion_lon": 0.0, "name": "f90c952eb79c49c18d662db38185cded", "type": "electric_scooter"}, {"rental_uris": {"ios": "https://dc.lft.to/lastmile_qr_scan", "android": "https://dc.lft.to/lastmile_qr_scan"}, "lat": 38.906634333333336, "is_reserved": 0, "bike_id": "5698e4d1d3262497ddbd123d989700d2", "lon": -77.07182766666666, "is_disabled": 0, "fusion_lat": 0.0, "fusion_lon": 0.0, "name": "5698e4d1d3262497ddbd123d989700d2", "type": "electric_scooter"}, {"rental_uris": {"ios": "https://dc.lft.to/lastmile_qr_scan", "android": "https://dc.lft.to/lastmile_qr_scan"}, "lat": 38.9023075, "is_reserved": 0, "bike_id": "61c42007374e02d64b387aa6a1ad88b5", "lon": -77.03971016666667, "is_disabled": 0, "fusion_lat": 0.0, "fusion_lon": 0.0, "name": "61c42007374e02d64b387aa6a1ad88b5", "type": "electric_scooter"}, {"rental_uris": {"ios": "https://dc.lft.to/lastmile_qr_scan", "android": "https://dc.lft.to/lastmile_qr_scan"}, "lat": 38.88399716666667, "is_reserved": 0, "bike_id": "b59994de2d4673b03f82b2622e8d6353", "lon": -76.95419966666667, "is_disabled": 0, "fusion_lat": 0.0, "fusion_lon": 0.0, "name": "b59994de2d4673b03f82b2622e8d6353", "type": "electric_bike"}, {"rental_uris": {"ios": "https://dc.lft.to/lastmile_qr_scan", "android": "https://dc.lft.to/lastmile_qr_scan"}, "lat": 38.86522733333334, "is_reserved": 0, "bike_id": "7a6ed204a47613a0b90b6721b031cc34", "lon": -76.98999233333333, "is_disabled": 0, "fusion_lat": 0.0, "fusion_lon": 0.0, "name": "7a6ed204a47613a0b90b6721b031cc34", "type": "electric_scooter"}, {"rental_uris": {"ios": "https://dc.lft.to/lastmile_qr_scan", "android": "https://dc.lft.to/lastmile_qr_scan"}, "lat": 38.91979583333333, "is_reserved": 0, "bike_id": "a48963845a6b56bbc95b8390565828db", "lon": -77.04178666666667, "is_disabled": 0, "fusion_lat": 0.0, "fusion_lon": 0.0, "name": "a48963845a6b56bbc95b8390565828db", "type": "electric_scooter"}, {"rental_uris": {"ios": "https://dc.lft.to/lastmile_qr_scan", "android": "https://dc.lft.to/lastmile_qr_scan"}, "lat": 38.9246375, "is_reserved": 0, "bike_id": "e0514b6bf45f3aa461d5091374a9651c", "lon": -77.02206633333333, "is_disabled": 0, "fusion_lat": 0.0, "fusion_lon": 0.0, "name": "e0514b6bf45f3aa461d5091374a9651c", "type": "electric_scooter"}, {"rental_uris": {"ios": "https://dc.lft.to/lastmile_qr_scan", "android": "https://dc.lft.to/lastmile_qr_scan"}, "lat": 38.905658333333335, "is_reserved": 0, "bike_id": "a4d5e686d33aab88e60ea344fb3bb204", "lon": -77.0038935, "is_disabled": 0, "fusion_lat": 0.0, "fusion_lon": 0.0, "name": "a4d5e686d33aab88e60ea344fb3bb204", "type": "electric_scooter"}, {"rental_uris": {"ios": "https://dc.lft.to/lastmile_qr_scan", "android": "https://dc.lft.to/lastmile_qr_scan"}, "lat": 38.9065015, "is_reserved": 0, "bike_id": "81f0eff521adbd269a53116daf0e250e", "lon": -77.03866516666666, "is_disabled": 0, "fusion_lat": 0.0, "fusion_lon": 0.0, "name": "81f0eff521adbd269a53116daf0e250e", "type": "electric_scooter"}, {"rental_uris": {"ios": "https://dc.lft.to/lastmile_qr_scan", "android": "https://dc.lft.to/lastmile_qr_scan"}, "lat": 38.90008266666667, "is_reserved": 0, "bike_id": "9a30c6a5972c16d25c0f67084d1224d4", "lon": -76.98839666666667, "is_disabled": 0, "fusion_lat": 0.0, "fusion_lon": 0.0, "name": "9a30c6a5972c16d25c0f67084d1224d4", "type": "electric_scooter"}, {"rental_uris": {"ios": "https://dc.lft.to/lastmile_qr_scan", "android": "https://dc.lft.to/lastmile_qr_scan"}, "lat": 38.92598616666667, "is_reserved": 0, "bike_id": "6db081d944bc1899eb9dcb3a4f6a3dfc", "lon": -77.02155683333334, "is_disabled": 0, "fusion_lat": 0.0, "fusion_lon": 0.0, "name": "6db081d944bc1899eb9dcb3a4f6a3dfc", "type": "electric_scooter"}, {"rental_uris": {"ios": "https://dc.lft.to/lastmile_qr_scan", "android": "https://dc.lft.to/lastmile_qr_scan"}, "lat": 38.93879916666667, "is_reserved": 0, "bike_id": "f3c11fc3c35145b495f2ab73f484e458", "lon": -77.03284383333333, "is_disabled": 0, "fusion_lat": 0.0, "fusion_lon": 0.0, "name": "f3c11fc3c35145b495f2ab73f484e458", "type": "electric_scooter"}, {"rental_uris": {"ios": "https://dc.lft.to/lastmile_qr_scan", "android": "https://dc.lft.to/lastmile_qr_scan"}, "lat": 38.89513566666667, "is_reserved": 0, "bike_id": "6feae1601b460ea967454b037e8158bc", "lon": -77.02697083333334, "is_disabled": 0, "fusion_lat": 0.0, "fusion_lon": 0.0, "name": "6feae1601b460ea967454b037e8158bc", "type": "electric_scooter"}, {"rental_uris": {"ios": "https://dc.lft.to/lastmile_qr_scan", "android": "https://dc.lft.to/lastmile_qr_scan"}, "lat": 38.8988845, "is_reserved": 0, "bike_id": "b9c30289fbd6960c69927bbac74241d7", "lon": -77.00737433333333, "is_disabled": 0, "fusion_lat": 0.0, "fusion_lon": 0.0, "name": "b9c30289fbd6960c69927bbac74241d7", "type": "electric_scooter"}, {"rental_uris": {"ios": "https://dc.lft.to/lastmile_qr_scan", "android": "https://dc.lft.to/lastmile_qr_scan"}, "lat": 38.916811, "is_reserved": 0, "bike_id": "375fe455cd7899dc5a3b0968f5aa23bb", "lon": -77.037685, "is_disabled": 0, "fusion_lat": 0.0, "fusion_lon": 0.0, "name": "375fe455cd7899dc5a3b0968f5aa23bb", "type": "electric_scooter"}, {"rental_uris": {"ios": "https://dc.lft.to/lastmile_qr_scan", "android": "https://dc.lft.to/lastmile_qr_scan"}, "lat": 38.912579, "is_reserved": 0, "bike_id": "000328eec811eb26820fc50a5454e9ae", "lon": -77.04580633333333, "is_disabled": 0, "fusion_lat": 0.0, "fusion_lon": 0.0, "name": "000328eec811eb26820fc50a5454e9ae", "type": "electric_scooter"}, {"rental_uris": {"ios": "https://dc.lft.to/lastmile_qr_scan", "android": "https://dc.lft.to/lastmile_qr_scan"}, "lat": 38.93019066666667, "is_reserved": 0, "bike_id": "ce21be3488fe983f84ac02d74cdd6cdc", "lon": -77.03800883333334, "is_disabled": 0, "fusion_lat": 0.0, "fusion_lon": 0.0, "name": "ce21be3488fe983f84ac02d74cdd6cdc", "type": "electric_scooter"}, {"rental_uris": {"ios": "https://dc.lft.to/lastmile_qr_scan", "android": "https://dc.lft.to/lastmile_qr_scan"}, "lat": 38.8966775, "is_reserved": 0, "bike_id": "44282be6ecf90a0a109f438910567deb", "lon": -76.93212, "is_disabled": 0, "fusion_lat": 0.0, "fusion_lon": 0.0, "name": "44282be6ecf90a0a109f438910567deb", "type": "electric_scooter"}, {"rental_uris": {"ios": "https://dc.lft.to/lastmile_qr_scan", "android": "https://dc.lft.to/lastmile_qr_scan"}, "lat": 38.89959533333333, "is_reserved": 0, "bike_id": "2eaf12215048d52bed4e982a66e07060", "lon": -77.0457465, "is_disabled": 0, "fusion_lat": 0.0, "fusion_lon": 0.0, "name": "2eaf12215048d52bed4e982a66e07060", "type": "electric_scooter"}, {"rental_uris": {"ios": "https://dc.lft.to/lastmile_qr_scan", "android": "https://dc.lft.to/lastmile_qr_scan"}, "lat": 38.918018333333336, "is_reserved": 0, "bike_id": "4cb6673d772f46ee86a8cdea50efffdc", "lon": -77.03861983333333, "is_disabled": 0, "fusion_lat": 0.0, "fusion_lon": 0.0, "name": "4cb6673d772f46ee86a8cdea50efffdc", "type": "electric_scooter"}, {"rental_uris": {"ios": "https://dc.lft.to/lastmile_qr_scan", "android": "https://dc.lft.to/lastmile_qr_scan"}, "lat": 38.89615466666667, "is_reserved": 0, "bike_id": "5aefa0119da371e7619c7302bdbd7429", "lon": -77.04078816666667, "is_disabled": 0, "fusion_lat": 0.0, "fusion_lon": 0.0, "name": "5aefa0119da371e7619c7302bdbd7429", "type": "electric_scooter"}, {"rental_uris": {"ios": "https://dc.lft.to/lastmile_qr_scan", "android": "https://dc.lft.to/lastmile_qr_scan"}, "lat": 38.857833166666666, "is_reserved": 0, "bike_id": "f3e7c0f4f36e30531b318c5172fe2498", "lon": -77.12022683333333, "is_disabled": 0, "fusion_lat": 0.0, "fusion_lon": 0.0, "name": "f3e7c0f4f36e30531b318c5172fe2498", "type": "electric_bike"}, {"rental_uris": {"ios": "https://dc.lft.to/lastmile_qr_scan", "android": "https://dc.lft.to/lastmile_qr_scan"}, "lat": 38.89805783333333, "is_reserved": 0, "bike_id": "5ea30e7c727c44e36ec1254eea5174c3", "lon": -77.03311016666666, "is_disabled": 0, "fusion_lat": 0.0, "fusion_lon": 0.0, "name": "5ea30e7c727c44e36ec1254eea5174c3", "type": "electric_scooter"}, {"rental_uris": {"ios": "https://dc.lft.to/lastmile_qr_scan", "android": "https://dc.lft.to/lastmile_qr_scan"}, "lat": 38.9204265, "is_reserved": 0, "bike_id": "ae07a5a012d25ab4f3cc1f74b633add2", "lon": -77.02574783333333, "is_disabled": 0, "fusion_lat": 0.0, "fusion_lon": 0.0, "name": "ae07a5a012d25ab4f3cc1f74b633add2", "type": "electric_scooter"}, {"rental_uris": {"ios": "https://dc.lft.to/lastmile_qr_scan", "android": "https://dc.lft.to/lastmile_qr_scan"}, "lat": 38.95232266666667, "is_reserved": 0, "bike_id": "e12ebd118fd6fc0d27510bad0e871759", "lon": -77.0023315, "is_disabled": 0, "fusion_lat": 0.0, "fusion_lon": 0.0, "name": "e12ebd118fd6fc0d27510bad0e871759", "type": "electric_scooter"}, {"rental_uris": {"ios": "https://dc.lft.to/lastmile_qr_scan", "android": "https://dc.lft.to/lastmile_qr_scan"}, "lat": 38.9406255, "is_reserved": 0, "bike_id": "2f0c85b500b13cdd6daac082029778a1", "lon": -76.99939233333333, "is_disabled": 0, "fusion_lat": 0.0, "fusion_lon": 0.0, "name": "2f0c85b500b13cdd6daac082029778a1", "type": "electric_scooter"}, {"rental_uris": {"ios": "https://dc.lft.to/lastmile_qr_scan", "android": "https://dc.lft.to/lastmile_qr_scan"}, "lat": 38.892045833333334, "is_reserved": 0, "bike_id": "791919ec07ed0245065b81e3c439f7db", "lon": -76.95694583333334, "is_disabled": 0, "fusion_lat": 0.0, "fusion_lon": 0.0, "name": "791919ec07ed0245065b81e3c439f7db", "type": "electric_scooter"}, {"rental_uris": {"ios": "https://dc.lft.to/lastmile_qr_scan", "android": "https://dc.lft.to/lastmile_qr_scan"}, "lat": 38.91343833333333, "is_reserved": 0, "bike_id": "f310f031b63eb0bd3cc6b546b77439b5", "lon": -77.04404483333333, "is_disabled": 0, "fusion_lat": 0.0, "fusion_lon": 0.0, "name": "f310f031b63eb0bd3cc6b546b77439b5", "type": "electric_scooter"}, {"rental_uris": {"ios": "https://dc.lft.to/lastmile_qr_scan", "android": "https://dc.lft.to/lastmile_qr_scan"}, "lat": 38.876615666666666, "is_reserved": 0, "bike_id": "593cb043cf812fb241ca9f9417843102", "lon": -77.00463916666666, "is_disabled": 0, "fusion_lat": 0.0, "fusion_lon": 0.0, "name": "593cb043cf812fb241ca9f9417843102", "type": "electric_scooter"}, {"rental_uris": {"ios": "https://dc.lft.to/lastmile_qr_scan", "android": "https://dc.lft.to/lastmile_qr_scan"}, "lat": 38.92131916666666, "is_reserved": 0, "bike_id": "1ad982568329976d6dfba8a616497c02", "lon": -77.011671, "is_disabled": 0, "fusion_lat": 0.0, "fusion_lon": 0.0, "name": "1ad982568329976d6dfba8a616497c02", "type": "electric_scooter"}, {"rental_uris": {"ios": "https://dc.lft.to/lastmile_qr_scan", "android": "https://dc.lft.to/lastmile_qr_scan"}, "lat": 38.895024666666664, "is_reserved": 0, "bike_id": "7f64e05675f862df72239ed867b4f59a", "lon": -77.02598016666667, "is_disabled": 0, "fusion_lat": 0.0, "fusion_lon": 0.0, "name": "7f64e05675f862df72239ed867b4f59a", "type": "electric_scooter"}, {"rental_uris": {"ios": "https://dc.lft.to/lastmile_qr_scan", "android": "https://dc.lft.to/lastmile_qr_scan"}, "lat": 38.905851166666665, "is_reserved": 0, "bike_id": "be5c2b96b1ff551c127a4e7d625fe65d", "lon": -77.05134416666667, "is_disabled": 0, "fusion_lat": 0.0, "fusion_lon": 0.0, "name": "be5c2b96b1ff551c127a4e7d625fe65d", "type": "electric_scooter"}, {"rental_uris": {"ios": "https://dc.lft.to/lastmile_qr_scan", "android": "https://dc.lft.to/lastmile_qr_scan"}, "lat": 38.916618, "is_reserved": 0, "bike_id": "da1632777b60ced48aef02570a62cbdb", "lon": -77.0271635, "is_disabled": 0, "fusion_lat": 0.0, "fusion_lon": 0.0, "name": "da1632777b60ced48aef02570a62cbdb", "type": "electric_scooter"}, {"rental_uris": {"ios": "https://dc.lft.to/lastmile_qr_scan", "android": "https://dc.lft.to/lastmile_qr_scan"}, "lat": 38.9161815, "is_reserved": 0, "bike_id": "96112bf415923ebc9596dc2c491ddcc2", "lon": -77.04295433333333, "is_disabled": 0, "fusion_lat": 0.0, "fusion_lon": 0.0, "name": "96112bf415923ebc9596dc2c491ddcc2", "type": "electric_scooter"}, {"rental_uris": {"ios": "https://dc.lft.to/lastmile_qr_scan", "android": "https://dc.lft.to/lastmile_qr_scan"}, "lat": 38.908273, "is_reserved": 0, "bike_id": "753b2dcdc6cdefede67ec0b4063da15f", "lon": -77.03861116666667, "is_disabled": 0, "fusion_lat": 0.0, "fusion_lon": 0.0, "name": "753b2dcdc6cdefede67ec0b4063da15f", "type": "electric_scooter"}, {"rental_uris": {"ios": "https://dc.lft.to/lastmile_qr_scan", "android": "https://dc.lft.to/lastmile_qr_scan"}, "lat": 38.992203833333335, "is_reserved": 0, "bike_id": "3aeda233385cf9092fc5fcb0289e44dc", "lon": -76.94424283333333, "is_disabled": 0, "fusion_lat": 0.0, "fusion_lon": 0.0, "name": "3aeda233385cf9092fc5fcb0289e44dc", "type": "electric_bike"}, {"rental_uris": {"ios": "https://dc.lft.to/lastmile_qr_scan", "android": "https://dc.lft.to/lastmile_qr_scan"}, "lat": 38.90283566666667, "is_reserved": 0, "bike_id": "902ad66bd4f4bb941aa86025871c77f8", "lon": -77.04005033333334, "is_disabled": 0, "fusion_lat": 0.0, "fusion_lon": 0.0, "name": "902ad66bd4f4bb941aa86025871c77f8", "type": "electric_scooter"}, {"rental_uris": {"ios": "https://dc.lft.to/lastmile_qr_scan", "android": "https://dc.lft.to/lastmile_qr_scan"}, "lat": 38.931232666666666, "is_reserved": 0, "bike_id": "9b546555967e1cabe975732fd895401d", "lon": -77.01990566666667, "is_disabled": 0, "fusion_lat": 0.0, "fusion_lon": 0.0, "name": "9b546555967e1cabe975732fd895401d", "type": "electric_scooter"}, {"rental_uris": {"ios": "https://dc.lft.to/lastmile_qr_scan", "android": "https://dc.lft.to/lastmile_qr_scan"}, "lat": 38.876237833333334, "is_reserved": 0, "bike_id": "0d92852b0172c8835c29d287dc37c788", "lon": -77.00933966666666, "is_disabled": 0, "fusion_lat": 0.0, "fusion_lon": 0.0, "name": "0d92852b0172c8835c29d287dc37c788", "type": "electric_scooter"}, {"rental_uris": {"ios": "https://dc.lft.to/lastmile_qr_scan", "android": "https://dc.lft.to/lastmile_qr_scan"}, "lat": 38.920399, "is_reserved": 0, "bike_id": "35ae7d235330b334e79685d3c32d27ae", "lon": -77.079799, "is_disabled": 0, "fusion_lat": 0.0, "fusion_lon": 0.0, "name": "35ae7d235330b334e79685d3c32d27ae", "type": "electric_scooter"}, {"rental_uris": {"ios": "https://dc.lft.to/lastmile_qr_scan", "android": "https://dc.lft.to/lastmile_qr_scan"}, "lat": 38.820644, "is_reserved": 0, "bike_id": "e68cad4b414ae5858f292d21f16608e1", "lon": -77.05459516666667, "is_disabled": 0, "fusion_lat": 0.0, "fusion_lon": 0.0, "name": "e68cad4b414ae5858f292d21f16608e1", "type": "electric_bike"}, {"rental_uris": {"ios": "https://dc.lft.to/lastmile_qr_scan", "android": "https://dc.lft.to/lastmile_qr_scan"}, "lat": 38.8824415, "is_reserved": 0, "bike_id": "4286a44298447e9860168b92b9e935c5", "lon": -76.9626385, "is_disabled": 0, "fusion_lat": 0.0, "fusion_lon": 0.0, "name": "4286a44298447e9860168b92b9e935c5", "type": "electric_bike"}, {"rental_uris": {"ios": "https://dc.lft.to/lastmile_qr_scan", "android": "https://dc.lft.to/lastmile_qr_scan"}, "lat": 38.90779216666667, "is_reserved": 0, "bike_id": "e60700d5d6328d666fd96df1e05e1465", "lon": -76.9985735, "is_disabled": 0, "fusion_lat": 0.0, "fusion_lon": 0.0, "name": "e60700d5d6328d666fd96df1e05e1465", "type": "electric_scooter"}, {"rental_uris": {"ios": "https://dc.lft.to/lastmile_qr_scan", "android": "https://dc.lft.to/lastmile_qr_scan"}, "lat": 38.8951145, "is_reserved": 0, "bike_id": "7f62b56be41908358f52c37d84f4ce39", "lon": -77.022918, "is_disabled": 0, "fusion_lat": 0.0, "fusion_lon": 0.0, "name": "7f62b56be41908358f52c37d84f4ce39", "type": "electric_scooter"}, {"rental_uris": {"ios": "https://dc.lft.to/lastmile_qr_scan", "android": "https://dc.lft.to/lastmile_qr_scan"}, "lat": 38.901566833333334, "is_reserved": 0, "bike_id": "8bcc42b039f1c43b97dc851cf2986005", "lon": -76.97628233333333, "is_disabled": 0, "fusion_lat": 0.0, "fusion_lon": 0.0, "name": "8bcc42b039f1c43b97dc851cf2986005", "type": "electric_scooter"}, {"rental_uris": {"ios": "https://dc.lft.to/lastmile_qr_scan", "android": "https://dc.lft.to/lastmile_qr_scan"}, "lat": 38.8988075, "is_reserved": 0, "bike_id": "d7ef5c11c05e5cc213137e2cc181532c", "lon": -77.01862266666667, "is_disabled": 0, "fusion_lat": 0.0, "fusion_lon": 0.0, "name": "d7ef5c11c05e5cc213137e2cc181532c", "type": "electric_scooter"}, {"rental_uris": {"ios": "https://dc.lft.to/lastmile_qr_scan", "android": "https://dc.lft.to/lastmile_qr_scan"}, "lat": 38.875674833333335, "is_reserved": 0, "bike_id": "2c74e402196102cb86e696a470aedef8", "lon": -77.00935516666667, "is_disabled": 0, "fusion_lat": 0.0, "fusion_lon": 0.0, "name": "2c74e402196102cb86e696a470aedef8", "type": "electric_scooter"}, {"rental_uris": {"ios": "https://dc.lft.to/lastmile_qr_scan", "android": "https://dc.lft.to/lastmile_qr_scan"}, "lat": 38.89621433333333, "is_reserved": 0, "bike_id": "91fa29dfef95a48a0602003d8bc66035", "lon": -77.0237965, "is_disabled": 0, "fusion_lat": 0.0, "fusion_lon": 0.0, "name": "91fa29dfef95a48a0602003d8bc66035", "type": "electric_scooter"}, {"rental_uris": {"ios": "https://dc.lft.to/lastmile_qr_scan", "android": "https://dc.lft.to/lastmile_qr_scan"}, "lat": 38.89283283333333, "is_reserved": 0, "bike_id": "5bc5de86780a6de8e7b53ba3f3393af1", "lon": -77.01984583333333, "is_disabled": 0, "fusion_lat": 0.0, "fusion_lon": 0.0, "name": "5bc5de86780a6de8e7b53ba3f3393af1", "type": "electric_scooter"}, {"rental_uris": {"ios": "https://dc.lft.to/lastmile_qr_scan", "android": "https://dc.lft.to/lastmile_qr_scan"}, "lat": 38.922514, "is_reserved": 0, "bike_id": "a2299c541cabdff533b64ab6e88a8e83", "lon": -77.02122183333333, "is_disabled": 0, "fusion_lat": 0.0, "fusion_lon": 0.0, "name": "a2299c541cabdff533b64ab6e88a8e83", "type": "electric_scooter"}, {"rental_uris": {"ios": "https://dc.lft.to/lastmile_qr_scan", "android": "https://dc.lft.to/lastmile_qr_scan"}, "lat": 38.92138766666667, "is_reserved": 0, "bike_id": "1afea1422edefca18fe104c73a69702c", "lon": -77.04557816666667, "is_disabled": 0, "fusion_lat": 0.0, "fusion_lon": 0.0, "name": "1afea1422edefca18fe104c73a69702c", "type": "electric_scooter"}, {"rental_uris": {"ios": "https://dc.lft.to/lastmile_qr_scan", "android": "https://dc.lft.to/lastmile_qr_scan"}, "lat": 38.903616166666666, "is_reserved": 0, "bike_id": "8e8cadc508fdded1e984859604f3f296", "lon": -77.03875183333334, "is_disabled": 0, "fusion_lat": 0.0, "fusion_lon": 0.0, "name": "8e8cadc508fdded1e984859604f3f296", "type": "electric_scooter"}, {"rental_uris": {"ios": "https://dc.lft.to/lastmile_qr_scan", "android": "https://dc.lft.to/lastmile_qr_scan"}, "lat": 38.88231666666667, "is_reserved": 0, "bike_id": "f4a9e50fd2abbb84d2e7c494cdb747c6", "lon": -76.98975566666667, "is_disabled": 0, "fusion_lat": 0.0, "fusion_lon": 0.0, "name": "f4a9e50fd2abbb84d2e7c494cdb747c6", "type": "electric_scooter"}, {"rental_uris": {"ios": "https://dc.lft.to/lastmile_qr_scan", "android": "https://dc.lft.to/lastmile_qr_scan"}, "lat": 38.876783833333334, "is_reserved": 0, "bike_id": "8dee1e0a83e8b41d93bea00ac461bea8", "lon": -77.00711083333333, "is_disabled": 0, "fusion_lat": 0.0, "fusion_lon": 0.0, "name": "8dee1e0a83e8b41d93bea00ac461bea8", "type": "electric_scooter"}, {"rental_uris": {"ios": "https://dc.lft.to/lastmile_qr_scan", "android": "https://dc.lft.to/lastmile_qr_scan"}, "lat": 38.86683333333333, "is_reserved": 0, "bike_id": "9e57d65e54a272347c0ef0679130bc0d", "lon": -76.98567733333333, "is_disabled": 0, "fusion_lat": 0.0, "fusion_lon": 0.0, "name": "9e57d65e54a272347c0ef0679130bc0d", "type": "electric_scooter"}, {"rental_uris": {"ios": "https://dc.lft.to/lastmile_qr_scan", "android": "https://dc.lft.to/lastmile_qr_scan"}, "lat": 38.90128166666667, "is_reserved": 0, "bike_id": "284e0d278e81a60128b476572e74d89a", "lon": -77.0423305, "is_disabled": 0, "fusion_lat": 0.0, "fusion_lon": 0.0, "name": "284e0d278e81a60128b476572e74d89a", "type": "electric_scooter"}, {"rental_uris": {"ios": "https://dc.lft.to/lastmile_qr_scan", "android": "https://dc.lft.to/lastmile_qr_scan"}, "lat": 38.916006833333334, "is_reserved": 0, "bike_id": "3a1672858104ba7791e016c3ef4a168d", "lon": -77.02186383333333, "is_disabled": 0, "fusion_lat": 0.0, "fusion_lon": 0.0, "name": "3a1672858104ba7791e016c3ef4a168d", "type": "electric_scooter"}, {"rental_uris": {"ios": "https://dc.lft.to/lastmile_qr_scan", "android": "https://dc.lft.to/lastmile_qr_scan"}, "lat": 38.918097833333334, "is_reserved": 0, "bike_id": "01fea5e3ef9ed689728ed2cc927f7205", "lon": -77.03172583333334, "is_disabled": 0, "fusion_lat": 0.0, "fusion_lon": 0.0, "name": "01fea5e3ef9ed689728ed2cc927f7205", "type": "electric_scooter"}, {"rental_uris": {"ios": "https://dc.lft.to/lastmile_qr_scan", "android": "https://dc.lft.to/lastmile_qr_scan"}, "lat": 38.866818333333335, "is_reserved": 0, "bike_id": "d8804097d7a02330ccc8fb559df02e79", "lon": -76.98565983333333, "is_disabled": 0, "fusion_lat": 0.0, "fusion_lon": 0.0, "name": "d8804097d7a02330ccc8fb559df02e79", "type": "electric_scooter"}, {"rental_uris": {"ios": "https://dc.lft.to/lastmile_qr_scan", "android": "https://dc.lft.to/lastmile_qr_scan"}, "lat": 38.92062266666667, "is_reserved": 0, "bike_id": "6fc49597159b29ca2c5f8dcae2957cea", "lon": -76.98195083333333, "is_disabled": 0, "fusion_lat": 0.0, "fusion_lon": 0.0, "name": "6fc49597159b29ca2c5f8dcae2957cea", "type": "electric_scooter"}, {"rental_uris": {"ios": "https://dc.lft.to/lastmile_qr_scan", "android": "https://dc.lft.to/lastmile_qr_scan"}, "lat": 38.877002, "is_reserved": 0, "bike_id": "c719a07ab570a6e3395c62a8cb303eec", "lon": -77.00412383333334, "is_disabled": 0, "fusion_lat": 0.0, "fusion_lon": 0.0, "name": "c719a07ab570a6e3395c62a8cb303eec", "type": "electric_scooter"}, {"rental_uris": {"ios": "https://dc.lft.to/lastmile_qr_scan", "android": "https://dc.lft.to/lastmile_qr_scan"}, "lat": 38.8923165, "is_reserved": 0, "bike_id": "a29780f23ceacb07a52dfbfbb0b7e5f7", "lon": -77.02204983333333, "is_disabled": 0, "fusion_lat": 0.0, "fusion_lon": 0.0, "name": "a29780f23ceacb07a52dfbfbb0b7e5f7", "type": "electric_scooter"}, {"rental_uris": {"ios": "https://dc.lft.to/lastmile_qr_scan", "android": "https://dc.lft.to/lastmile_qr_scan"}, "lat": 38.92368916666667, "is_reserved": 0, "bike_id": "a3a35d82fc8d37f7bf3d0283bceb4393", "lon": -77.05024133333333, "is_disabled": 0, "fusion_lat": 0.0, "fusion_lon": 0.0, "name": "a3a35d82fc8d37f7bf3d0283bceb4393", "type": "electric_scooter"}, {"rental_uris": {"ios": "https://dc.lft.to/lastmile_qr_scan", "android": "https://dc.lft.to/lastmile_qr_scan"}, "lat": 38.99092866666667, "is_reserved": 0, "bike_id": "01aced59e8bece41c7237a4e804cbe46", "lon": -76.99366533333334, "is_disabled": 0, "fusion_lat": 0.0, "fusion_lon": 0.0, "name": "01aced59e8bece41c7237a4e804cbe46", "type": "electric_bike"}, {"rental_uris": {"ios": "https://dc.lft.to/lastmile_qr_scan", "android": "https://dc.lft.to/lastmile_qr_scan"}, "lat": 38.892228, "is_reserved": 0, "bike_id": "536a74405aa91a241c9727b11384ea66", "lon": -77.02505566666666, "is_disabled": 0, "fusion_lat": 0.0, "fusion_lon": 0.0, "name": "536a74405aa91a241c9727b11384ea66", "type": "electric_scooter"}, {"rental_uris": {"ios": "https://dc.lft.to/lastmile_qr_scan", "android": "https://dc.lft.to/lastmile_qr_scan"}, "lat": 38.936913, "is_reserved": 0, "bike_id": "09b2fa866abc5ac6e533c75f834c5ca1", "lon": -76.99062166666667, "is_disabled": 0, "fusion_lat": 0.0, "fusion_lon": 0.0, "name": "09b2fa866abc5ac6e533c75f834c5ca1", "type": "electric_bike"}, {"rental_uris": {"ios": "https://dc.lft.to/lastmile_qr_scan", "android": "https://dc.lft.to/lastmile_qr_scan"}, "lat": 38.89968183333333, "is_reserved": 0, "bike_id": "e7a44937aabbc4592cd977322caaab67", "lon": -76.99508966666667, "is_disabled": 0, "fusion_lat": 0.0, "fusion_lon": 0.0, "name": "e7a44937aabbc4592cd977322caaab67", "type": "electric_scooter"}, {"rental_uris": {"ios": "https://dc.lft.to/lastmile_qr_scan", "android": "https://dc.lft.to/lastmile_qr_scan"}, "lat": 38.93877466666667, "is_reserved": 0, "bike_id": "b0c6778311e8eb17f73b020c6085f683", "lon": -77.02481566666667, "is_disabled": 0, "fusion_lat": 0.0, "fusion_lon": 0.0, "name": "b0c6778311e8eb17f73b020c6085f683", "type": "electric_scooter"}, {"rental_uris": {"ios": "https://dc.lft.to/lastmile_qr_scan", "android": "https://dc.lft.to/lastmile_qr_scan"}, "lat": 38.93863233333333, "is_reserved": 0, "bike_id": "05a6c34cba7629c53379ad41243d99ec", "lon": -77.02786366666666, "is_disabled": 0, "fusion_lat": 0.0, "fusion_lon": 0.0, "name": "05a6c34cba7629c53379ad41243d99ec", "type": "electric_scooter"}, {"rental_uris": {"ios": "https://dc.lft.to/lastmile_qr_scan", "android": "https://dc.lft.to/lastmile_qr_scan"}, "lat": 38.92132633333333, "is_reserved": 0, "bike_id": "859991ecd5957c3c65f79df1c05c938e", "lon": -77.01812866666667, "is_disabled": 0, "fusion_lat": 0.0, "fusion_lon": 0.0, "name": "859991ecd5957c3c65f79df1c05c938e", "type": "electric_scooter"}, {"rental_uris": {"ios": "https://dc.lft.to/lastmile_qr_scan", "android": "https://dc.lft.to/lastmile_qr_scan"}, "lat": 38.97532316666667, "is_reserved": 0, "bike_id": "0636c682b11bc24f3eb38069598f2293", "lon": -77.01686816666667, "is_disabled": 0, "fusion_lat": 0.0, "fusion_lon": 0.0, "name": "0636c682b11bc24f3eb38069598f2293", "type": "electric_bike"}, {"rental_uris": {"ios": "https://dc.lft.to/lastmile_qr_scan", "android": "https://dc.lft.to/lastmile_qr_scan"}, "lat": 38.9480995, "is_reserved": 0, "bike_id": "9c6d69bb3d4ca741bb76f6dfb03ec7f1", "lon": -77.0214445, "is_disabled": 0, "fusion_lat": 0.0, "fusion_lon": 0.0, "name": "9c6d69bb3d4ca741bb76f6dfb03ec7f1", "type": "electric_scooter"}, {"rental_uris": {"ios": "https://dc.lft.to/lastmile_qr_scan", "android": "https://dc.lft.to/lastmile_qr_scan"}, "lat": 38.8984715, "is_reserved": 0, "bike_id": "5c5cf8d14eefbd3ba7056d933253e83d", "lon": -77.0327625, "is_disabled": 0, "fusion_lat": 0.0, "fusion_lon": 0.0, "name": "5c5cf8d14eefbd3ba7056d933253e83d", "type": "electric_scooter"}, {"rental_uris": {"ios": "https://dc.lft.to/lastmile_qr_scan", "android": "https://dc.lft.to/lastmile_qr_scan"}, "lat": 38.931847, "is_reserved": 0, "bike_id": "6d6e9dcdbf83d3e4a24111392cb51685", "lon": -77.03103516666667, "is_disabled": 0, "fusion_lat": 0.0, "fusion_lon": 0.0, "name": "6d6e9dcdbf83d3e4a24111392cb51685", "type": "electric_scooter"}, {"rental_uris": {"ios": "https://dc.lft.to/lastmile_qr_scan", "android": "https://dc.lft.to/lastmile_qr_scan"}, "lat": 38.957433333333334, "is_reserved": 0, "bike_id": "3a5134d86de39ecc1050e065cfb7887e", "lon": -76.980987, "is_disabled": 0, "fusion_lat": 0.0, "fusion_lon": 0.0, "name": "3a5134d86de39ecc1050e065cfb7887e", "type": "electric_bike"}, {"rental_uris": {"ios": "https://dc.lft.to/lastmile_qr_scan", "android": "https://dc.lft.to/lastmile_qr_scan"}, "lat": 38.914153166666665, "is_reserved": 0, "bike_id": "2bab02fc60c0aa6f034abafd0ea9d9a9", "lon": -77.02233683333333, "is_disabled": 0, "fusion_lat": 0.0, "fusion_lon": 0.0, "name": "2bab02fc60c0aa6f034abafd0ea9d9a9", "type": "electric_scooter"}, {"rental_uris": {"ios": "https://dc.lft.to/lastmile_qr_scan", "android": "https://dc.lft.to/lastmile_qr_scan"}, "lat": 38.925981666666665, "is_reserved": 0, "bike_id": "55b44dfd5abc082b6d8d13b3544563ea", "lon": -77.0215495, "is_disabled": 0, "fusion_lat": 0.0, "fusion_lon": 0.0, "name": "55b44dfd5abc082b6d8d13b3544563ea", "type": "electric_scooter"}, {"rental_uris": {"ios": "https://dc.lft.to/lastmile_qr_scan", "android": "https://dc.lft.to/lastmile_qr_scan"}, "lat": 38.9035865, "is_reserved": 0, "bike_id": "996f60be37ff3e9bdec6e5702f2b8e44", "lon": -77.03480916666666, "is_disabled": 0, "fusion_lat": 0.0, "fusion_lon": 0.0, "name": "996f60be37ff3e9bdec6e5702f2b8e44", "type": "electric_scooter"}, {"rental_uris": {"ios": "https://dc.lft.to/lastmile_qr_scan", "android": "https://dc.lft.to/lastmile_qr_scan"}, "lat": 38.9029035, "is_reserved": 0, "bike_id": "cd0779fec1b92e242eb54f2acd073c19", "lon": -77.04358466666666, "is_disabled": 0, "fusion_lat": 0.0, "fusion_lon": 0.0, "name": "cd0779fec1b92e242eb54f2acd073c19", "type": "electric_scooter"}, {"rental_uris": {"ios": "https://dc.lft.to/lastmile_qr_scan", "android": "https://dc.lft.to/lastmile_qr_scan"}, "lat": 38.91709316666667, "is_reserved": 0, "bike_id": "f56bbeed75b6a29e57954eb67f9b6254", "lon": -77.028299, "is_disabled": 0, "fusion_lat": 0.0, "fusion_lon": 0.0, "name": "f56bbeed75b6a29e57954eb67f9b6254", "type": "electric_scooter"}, {"rental_uris": {"ios": "https://dc.lft.to/lastmile_qr_scan", "android": "https://dc.lft.to/lastmile_qr_scan"}, "lat": 38.894920666666664, "is_reserved": 0, "bike_id": "7250c51d152bc93fb09c266adbabbb86", "lon": -77.02192383333333, "is_disabled": 0, "fusion_lat": 0.0, "fusion_lon": 0.0, "name": "7250c51d152bc93fb09c266adbabbb86", "type": "electric_scooter"}, {"rental_uris": {"ios": "https://dc.lft.to/lastmile_qr_scan", "android": "https://dc.lft.to/lastmile_qr_scan"}, "lat": 38.9191285, "is_reserved": 0, "bike_id": "b6db4c54ba001c8bd6e0605011189da6", "lon": -77.0321595, "is_disabled": 0, "fusion_lat": 0.0, "fusion_lon": 0.0, "name": "b6db4c54ba001c8bd6e0605011189da6", "type": "electric_scooter"}, {"rental_uris": {"ios": "https://dc.lft.to/lastmile_qr_scan", "android": "https://dc.lft.to/lastmile_qr_scan"}, "lat": 38.89603433333333, "is_reserved": 0, "bike_id": "6c388ddef63664b49138661f5ec97ae0", "lon": -77.04519433333333, "is_disabled": 0, "fusion_lat": 0.0, "fusion_lon": 0.0, "name": "6c388ddef63664b49138661f5ec97ae0", "type": "electric_scooter"}, {"rental_uris": {"ios": "https://dc.lft.to/lastmile_qr_scan", "android": "https://dc.lft.to/lastmile_qr_scan"}, "lat": 38.8968565, "is_reserved": 0, "bike_id": "e584a73d1bf894b8934f02e578e74f93", "lon": -77.00492616666666, "is_disabled": 0, "fusion_lat": 0.0, "fusion_lon": 0.0, "name": "e584a73d1bf894b8934f02e578e74f93", "type": "electric_scooter"}, {"rental_uris": {"ios": "https://dc.lft.to/lastmile_qr_scan", "android": "https://dc.lft.to/lastmile_qr_scan"}, "lat": 38.953256833333334, "is_reserved": 0, "bike_id": "10093966da7aa56e7cc6d9c0b791b4c6", "lon": -76.95438116666666, "is_disabled": 0, "fusion_lat": 0.0, "fusion_lon": 0.0, "name": "10093966da7aa56e7cc6d9c0b791b4c6", "type": "electric_bike"}, {"rental_uris": {"ios": "https://dc.lft.to/lastmile_qr_scan", "android": "https://dc.lft.to/lastmile_qr_scan"}, "lat": 38.926734833333335, "is_reserved": 0, "bike_id": "2d7a6c044f8d9de4a56f00a799031c87", "lon": -77.02260166666667, "is_disabled": 0, "fusion_lat": 0.0, "fusion_lon": 0.0, "name": "2d7a6c044f8d9de4a56f00a799031c87", "type": "electric_scooter"}, {"rental_uris": {"ios": "https://dc.lft.to/lastmile_qr_scan", "android": "https://dc.lft.to/lastmile_qr_scan"}, "lat": 38.8983355, "is_reserved": 0, "bike_id": "9cc47493a0071f410ac18275c3a0cae5", "lon": -77.04698366666666, "is_disabled": 0, "fusion_lat": 0.0, "fusion_lon": 0.0, "name": "9cc47493a0071f410ac18275c3a0cae5", "type": "electric_scooter"}, {"rental_uris": {"ios": "https://dc.lft.to/lastmile_qr_scan", "android": "https://dc.lft.to/lastmile_qr_scan"}, "lat": 38.9026985, "is_reserved": 0, "bike_id": "9f694e502de2dba19b3e2578319533d8", "lon": -77.0385535, "is_disabled": 0, "fusion_lat": 0.0, "fusion_lon": 0.0, "name": "9f694e502de2dba19b3e2578319533d8", "type": "electric_scooter"}, {"rental_uris": {"ios": "https://dc.lft.to/lastmile_qr_scan", "android": "https://dc.lft.to/lastmile_qr_scan"}, "lat": 38.892269, "is_reserved": 0, "bike_id": "a1bbc1b7c19668a75a48536cd2a54ffc", "lon": -77.043749, "is_disabled": 0, "fusion_lat": 0.0, "fusion_lon": 0.0, "name": "a1bbc1b7c19668a75a48536cd2a54ffc", "type": "electric_scooter"}, {"rental_uris": {"ios": "https://dc.lft.to/lastmile_qr_scan", "android": "https://dc.lft.to/lastmile_qr_scan"}, "lat": 38.925182, "is_reserved": 0, "bike_id": "93a41df10f1a52fca79532d5d5c33f58", "lon": -77.051267, "is_disabled": 0, "fusion_lat": 0.0, "fusion_lon": 0.0, "name": "93a41df10f1a52fca79532d5d5c33f58", "type": "electric_scooter"}, {"rental_uris": {"ios": "https://dc.lft.to/lastmile_qr_scan", "android": "https://dc.lft.to/lastmile_qr_scan"}, "lat": 38.92309516666667, "is_reserved": 0, "bike_id": "ff292b8ae8abf5515f27577851ebfb2b", "lon": -77.0213425, "is_disabled": 0, "fusion_lat": 0.0, "fusion_lon": 0.0, "name": "ff292b8ae8abf5515f27577851ebfb2b", "type": "electric_scooter"}, {"rental_uris": {"ios": "https://dc.lft.to/lastmile_qr_scan", "android": "https://dc.lft.to/lastmile_qr_scan"}, "lat": 38.89866583333333, "is_reserved": 0, "bike_id": "13a3d5177e23f037845f24fb651e8c23", "lon": -76.94640683333333, "is_disabled": 0, "fusion_lat": 0.0, "fusion_lon": 0.0, "name": "13a3d5177e23f037845f24fb651e8c23", "type": "electric_scooter"}, {"rental_uris": {"ios": "https://dc.lft.to/lastmile_qr_scan", "android": "https://dc.lft.to/lastmile_qr_scan"}, "lat": 38.89618, "is_reserved": 0, "bike_id": "2575ce98e8e9edffbd3008463f2eab46", "lon": -77.026835, "is_disabled": 0, "fusion_lat": 0.0, "fusion_lon": 0.0, "name": "2575ce98e8e9edffbd3008463f2eab46", "type": "electric_scooter"}, {"rental_uris": {"ios": "https://dc.lft.to/lastmile_qr_scan", "android": "https://dc.lft.to/lastmile_qr_scan"}, "lat": 38.9276375, "is_reserved": 0, "bike_id": "c9d75f3d7385b4c3266ea81478dbd4d9", "lon": -77.02736816666666, "is_disabled": 0, "fusion_lat": 0.0, "fusion_lon": 0.0, "name": "c9d75f3d7385b4c3266ea81478dbd4d9", "type": "electric_scooter"}, {"rental_uris": {"ios": "https://dc.lft.to/lastmile_qr_scan", "android": "https://dc.lft.to/lastmile_qr_scan"}, "lat": 38.924090166666666, "is_reserved": 0, "bike_id": "363867eb84791c3cc7e3e3a98ab15f6c", "lon": -77.0213535, "is_disabled": 0, "fusion_lat": 0.0, "fusion_lon": 0.0, "name": "363867eb84791c3cc7e3e3a98ab15f6c", "type": "electric_scooter"}, {"rental_uris": {"ios": "https://dc.lft.to/lastmile_qr_scan", "android": "https://dc.lft.to/lastmile_qr_scan"}, "lat": 38.897157, "is_reserved": 0, "bike_id": "1201504b5c3a84dd57d8cf97277c5e65", "lon": -77.00934083333334, "is_disabled": 0, "fusion_lat": 0.0, "fusion_lon": 0.0, "name": "1201504b5c3a84dd57d8cf97277c5e65", "type": "electric_scooter"}, {"rental_uris": {"ios": "https://dc.lft.to/lastmile_qr_scan", "android": "https://dc.lft.to/lastmile_qr_scan"}, "lat": 38.909803333333336, "is_reserved": 0, "bike_id": "e2b22c4ad5b158137d8e751f08fc3040", "lon": -77.0317485, "is_disabled": 0, "fusion_lat": 0.0, "fusion_lon": 0.0, "name": "e2b22c4ad5b158137d8e751f08fc3040", "type": "electric_scooter"}, {"rental_uris": {"ios": "https://dc.lft.to/lastmile_qr_scan", "android": "https://dc.lft.to/lastmile_qr_scan"}, "lat": 38.905239, "is_reserved": 0, "bike_id": "88d170e7203b6d619997963b4272ca56", "lon": -76.9963845, "is_disabled": 0, "fusion_lat": 0.0, "fusion_lon": 0.0, "name": "88d170e7203b6d619997963b4272ca56", "type": "electric_scooter"}, {"rental_uris": {"ios": "https://dc.lft.to/lastmile_qr_scan", "android": "https://dc.lft.to/lastmile_qr_scan"}, "lat": 38.92467166666667, "is_reserved": 0, "bike_id": "b06350bd780d4c87eec2a44966e55730", "lon": -77.0227005, "is_disabled": 0, "fusion_lat": 0.0, "fusion_lon": 0.0, "name": "b06350bd780d4c87eec2a44966e55730", "type": "electric_scooter"}, {"rental_uris": {"ios": "https://dc.lft.to/lastmile_qr_scan", "android": "https://dc.lft.to/lastmile_qr_scan"}, "lat": 38.88378266666667, "is_reserved": 0, "bike_id": "7fa02b479f1f7270ee64d941a5e4343c", "lon": -76.99524233333334, "is_disabled": 0, "fusion_lat": 0.0, "fusion_lon": 0.0, "name": "7fa02b479f1f7270ee64d941a5e4343c", "type": "electric_scooter"}, {"rental_uris": {"ios": "https://dc.lft.to/lastmile_qr_scan", "android": "https://dc.lft.to/lastmile_qr_scan"}, "lat": 38.9041535, "is_reserved": 0, "bike_id": "f06f7f9e4789ae2b40204e1066a4431a", "lon": -77.05337833333333, "is_disabled": 0, "fusion_lat": 0.0, "fusion_lon": 0.0, "name": "f06f7f9e4789ae2b40204e1066a4431a", "type": "electric_scooter"}, {"rental_uris": {"ios": "https://dc.lft.to/lastmile_qr_scan", "android": "https://dc.lft.to/lastmile_qr_scan"}, "lat": 38.9257585, "is_reserved": 0, "bike_id": "38ccb7df9320eed219a6ef9956ef61b1", "lon": -77.03642566666667, "is_disabled": 0, "fusion_lat": 0.0, "fusion_lon": 0.0, "name": "38ccb7df9320eed219a6ef9956ef61b1", "type": "electric_scooter"}, {"rental_uris": {"ios": "https://dc.lft.to/lastmile_qr_scan", "android": "https://dc.lft.to/lastmile_qr_scan"}, "lat": 38.915385, "is_reserved": 0, "bike_id": "203da55701670d28befabd980c8e3d7b", "lon": -77.03203833333333, "is_disabled": 0, "fusion_lat": 0.0, "fusion_lon": 0.0, "name": "203da55701670d28befabd980c8e3d7b", "type": "electric_scooter"}, {"rental_uris": {"ios": "https://dc.lft.to/lastmile_qr_scan", "android": "https://dc.lft.to/lastmile_qr_scan"}, "lat": 38.901487, "is_reserved": 0, "bike_id": "edd3d1bd0fcf349d9cf3042656ca299c", "lon": -77.03573566666667, "is_disabled": 0, "fusion_lat": 0.0, "fusion_lon": 0.0, "name": "edd3d1bd0fcf349d9cf3042656ca299c", "type": "electric_scooter"}, {"rental_uris": {"ios": "https://dc.lft.to/lastmile_qr_scan", "android": "https://dc.lft.to/lastmile_qr_scan"}, "lat": 38.921432833333334, "is_reserved": 0, "bike_id": "d6b486c61bb54a848f69beeefb704c69", "lon": -77.0349825, "is_disabled": 0, "fusion_lat": 0.0, "fusion_lon": 0.0, "name": "d6b486c61bb54a848f69beeefb704c69", "type": "electric_scooter"}, {"rental_uris": {"ios": "https://dc.lft.to/lastmile_qr_scan", "android": "https://dc.lft.to/lastmile_qr_scan"}, "lat": 38.90867216666667, "is_reserved": 0, "bike_id": "2ae610e84baa5d9d0592654bda52a3e3", "lon": -76.9333975, "is_disabled": 0, "fusion_lat": 0.0, "fusion_lon": 0.0, "name": "2ae610e84baa5d9d0592654bda52a3e3", "type": "electric_scooter"}, {"rental_uris": {"ios": "https://dc.lft.to/lastmile_qr_scan", "android": "https://dc.lft.to/lastmile_qr_scan"}, "lat": 38.88336616666667, "is_reserved": 0, "bike_id": "1fde81bb4b6bdfe670bb04975c3ac826", "lon": -77.0173945, "is_disabled": 0, "fusion_lat": 0.0, "fusion_lon": 0.0, "name": "1fde81bb4b6bdfe670bb04975c3ac826", "type": "electric_scooter"}, {"rental_uris": {"ios": "https://dc.lft.to/lastmile_qr_scan", "android": "https://dc.lft.to/lastmile_qr_scan"}, "lat": 38.93985133333334, "is_reserved": 0, "bike_id": "fde5c8237f909eff57c9da78d20b9a8e", "lon": -77.03263266666667, "is_disabled": 0, "fusion_lat": 0.0, "fusion_lon": 0.0, "name": "fde5c8237f909eff57c9da78d20b9a8e", "type": "electric_scooter"}, {"rental_uris": {"ios": "https://dc.lft.to/lastmile_qr_scan", "android": "https://dc.lft.to/lastmile_qr_scan"}, "lat": 38.93770933333333, "is_reserved": 0, "bike_id": "5f6c1f5bd51a12e7b6946b62802b611a", "lon": -77.0884335, "is_disabled": 0, "fusion_lat": 0.0, "fusion_lon": 0.0, "name": "5f6c1f5bd51a12e7b6946b62802b611a", "type": "electric_scooter"}, {"rental_uris": {"ios": "https://dc.lft.to/lastmile_qr_scan", "android": "https://dc.lft.to/lastmile_qr_scan"}, "lat": 38.9000825, "is_reserved": 0, "bike_id": "69772eab200fd0b1d18364773b65aa87", "lon": -77.03201516666667, "is_disabled": 0, "fusion_lat": 0.0, "fusion_lon": 0.0, "name": "69772eab200fd0b1d18364773b65aa87", "type": "electric_scooter"}, {"rental_uris": {"ios": "https://dc.lft.to/lastmile_qr_scan", "android": "https://dc.lft.to/lastmile_qr_scan"}, "lat": 38.952441666666665, "is_reserved": 0, "bike_id": "5d3f205313280426761342b781445708", "lon": -77.02376883333334, "is_disabled": 0, "fusion_lat": 0.0, "fusion_lon": 0.0, "name": "5d3f205313280426761342b781445708", "type": "electric_scooter"}, {"rental_uris": {"ios": "https://dc.lft.to/lastmile_qr_scan", "android": "https://dc.lft.to/lastmile_qr_scan"}, "lat": 38.981400666666666, "is_reserved": 0, "bike_id": "f3f99a3b1db64c642a79cb6a4919f50b", "lon": -77.02636566666666, "is_disabled": 0, "fusion_lat": 0.0, "fusion_lon": 0.0, "name": "f3f99a3b1db64c642a79cb6a4919f50b", "type": "electric_scooter"}, {"rental_uris": {"ios": "https://dc.lft.to/lastmile_qr_scan", "android": "https://dc.lft.to/lastmile_qr_scan"}, "lat": 38.908181666666664, "is_reserved": 0, "bike_id": "d95afe466c9d7f27dee2dac807f24642", "lon": -76.99708166666667, "is_disabled": 0, "fusion_lat": 0.0, "fusion_lon": 0.0, "name": "d95afe466c9d7f27dee2dac807f24642", "type": "electric_scooter"}, {"rental_uris": {"ios": "https://dc.lft.to/lastmile_qr_scan", "android": "https://dc.lft.to/lastmile_qr_scan"}, "lat": 38.89623316666667, "is_reserved": 0, "bike_id": "167733750a947294ad26f525202105f1", "lon": -77.02880216666667, "is_disabled": 0, "fusion_lat": 0.0, "fusion_lon": 0.0, "name": "167733750a947294ad26f525202105f1", "type": "electric_scooter"}, {"rental_uris": {"ios": "https://dc.lft.to/lastmile_qr_scan", "android": "https://dc.lft.to/lastmile_qr_scan"}, "lat": 38.89459216666667, "is_reserved": 0, "bike_id": "ec7a675d5ebab4c529733b4ce9bcfffa", "lon": -77.00346683333333, "is_disabled": 0, "fusion_lat": 0.0, "fusion_lon": 0.0, "name": "ec7a675d5ebab4c529733b4ce9bcfffa", "type": "electric_scooter"}, {"rental_uris": {"ios": "https://dc.lft.to/lastmile_qr_scan", "android": "https://dc.lft.to/lastmile_qr_scan"}, "lat": 38.9055855, "is_reserved": 0, "bike_id": "7ea7859ca5e3cb4d3ad10e3ad4b67691", "lon": -77.01880133333333, "is_disabled": 0, "fusion_lat": 0.0, "fusion_lon": 0.0, "name": "7ea7859ca5e3cb4d3ad10e3ad4b67691", "type": "electric_scooter"}, {"rental_uris": {"ios": "https://dc.lft.to/lastmile_qr_scan", "android": "https://dc.lft.to/lastmile_qr_scan"}, "lat": 38.8960335, "is_reserved": 0, "bike_id": "e28691e0066013f639ad47bd192cee98", "lon": -77.0053425, "is_disabled": 0, "fusion_lat": 0.0, "fusion_lon": 0.0, "name": "e28691e0066013f639ad47bd192cee98", "type": "electric_scooter"}, {"rental_uris": {"ios": "https://dc.lft.to/lastmile_qr_scan", "android": "https://dc.lft.to/lastmile_qr_scan"}, "lat": 38.906779, "is_reserved": 0, "bike_id": "ecf796bcd1409a7c9ab314aa81431216", "lon": -77.03465733333333, "is_disabled": 0, "fusion_lat": 0.0, "fusion_lon": 0.0, "name": "ecf796bcd1409a7c9ab314aa81431216", "type": "electric_scooter"}, {"rental_uris": {"ios": "https://dc.lft.to/lastmile_qr_scan", "android": "https://dc.lft.to/lastmile_qr_scan"}, "lat": 38.878777166666666, "is_reserved": 0, "bike_id": "8c18c264e45fb9f88169d2a8c9f8566f", "lon": -76.98226683333333, "is_disabled": 0, "fusion_lat": 0.0, "fusion_lon": 0.0, "name": "8c18c264e45fb9f88169d2a8c9f8566f", "type": "electric_scooter"}, {"rental_uris": {"ios": "https://dc.lft.to/lastmile_qr_scan", "android": "https://dc.lft.to/lastmile_qr_scan"}, "lat": 38.93958633333333, "is_reserved": 0, "bike_id": "c32632f88da4ed5ed500e8d42a903f48", "lon": -77.07529033333333, "is_disabled": 0, "fusion_lat": 0.0, "fusion_lon": 0.0, "name": "c32632f88da4ed5ed500e8d42a903f48", "type": "electric_scooter"}, {"rental_uris": {"ios": "https://dc.lft.to/lastmile_qr_scan", "android": "https://dc.lft.to/lastmile_qr_scan"}, "lat": 38.9022615, "is_reserved": 0, "bike_id": "852a2631a6af8c0c1fe3e51380ec01bd", "lon": -77.04451266666666, "is_disabled": 0, "fusion_lat": 0.0, "fusion_lon": 0.0, "name": "852a2631a6af8c0c1fe3e51380ec01bd", "type": "electric_scooter"}, {"rental_uris": {"ios": "https://dc.lft.to/lastmile_qr_scan", "android": "https://dc.lft.to/lastmile_qr_scan"}, "lat": 38.91107916666667, "is_reserved": 0, "bike_id": "cb4168ba354b85d08c4dbf6571dc682f", "lon": -77.03872866666667, "is_disabled": 0, "fusion_lat": 0.0, "fusion_lon": 0.0, "name": "cb4168ba354b85d08c4dbf6571dc682f", "type": "electric_scooter"}, {"rental_uris": {"ios": "https://dc.lft.to/lastmile_qr_scan", "android": "https://dc.lft.to/lastmile_qr_scan"}, "lat": 38.895176666666664, "is_reserved": 0, "bike_id": "b1998faeb968ff75f842c04b7e38dda9", "lon": -77.0270015, "is_disabled": 0, "fusion_lat": 0.0, "fusion_lon": 0.0, "name": "b1998faeb968ff75f842c04b7e38dda9", "type": "electric_scooter"}, {"rental_uris": {"ios": "https://dc.lft.to/lastmile_qr_scan", "android": "https://dc.lft.to/lastmile_qr_scan"}, "lat": 38.9040935, "is_reserved": 0, "bike_id": "1621f409f824eec8197c242451b73c43", "lon": -76.97332383333334, "is_disabled": 0, "fusion_lat": 0.0, "fusion_lon": 0.0, "name": "1621f409f824eec8197c242451b73c43", "type": "electric_scooter"}, {"rental_uris": {"ios": "https://dc.lft.to/lastmile_qr_scan", "android": "https://dc.lft.to/lastmile_qr_scan"}, "lat": 38.89714883333333, "is_reserved": 0, "bike_id": "dd2b5273e7815a3b98e67bfd0fa5abe4", "lon": -77.0427935, "is_disabled": 0, "fusion_lat": 0.0, "fusion_lon": 0.0, "name": "dd2b5273e7815a3b98e67bfd0fa5abe4", "type": "electric_scooter"}, {"rental_uris": {"ios": "https://dc.lft.to/lastmile_qr_scan", "android": "https://dc.lft.to/lastmile_qr_scan"}, "lat": 38.92069866666667, "is_reserved": 0, "bike_id": "5f37f9f56b98cebf4d7e8bc00282fa82", "lon": -77.03796233333334, "is_disabled": 0, "fusion_lat": 0.0, "fusion_lon": 0.0, "name": "5f37f9f56b98cebf4d7e8bc00282fa82", "type": "electric_scooter"}, {"rental_uris": {"ios": "https://dc.lft.to/lastmile_qr_scan", "android": "https://dc.lft.to/lastmile_qr_scan"}, "lat": 38.8724565, "is_reserved": 0, "bike_id": "7eda53ccc319b285429a0d9bf9bc532c", "lon": -76.9773135, "is_disabled": 0, "fusion_lat": 0.0, "fusion_lon": 0.0, "name": "7eda53ccc319b285429a0d9bf9bc532c", "type": "electric_scooter"}, {"rental_uris": {"ios": "https://dc.lft.to/lastmile_qr_scan", "android": "https://dc.lft.to/lastmile_qr_scan"}, "lat": 38.9203265, "is_reserved": 0, "bike_id": "6447820ccb51235fc3f6f3e50c3ca64f", "lon": -77.00308533333333, "is_disabled": 0, "fusion_lat": 0.0, "fusion_lon": 0.0, "name": "6447820ccb51235fc3f6f3e50c3ca64f", "type": "electric_scooter"}, {"rental_uris": {"ios": "https://dc.lft.to/lastmile_qr_scan", "android": "https://dc.lft.to/lastmile_qr_scan"}, "lat": 38.9876465, "is_reserved": 0, "bike_id": "7a49671cfb62da93215b0e951de3557b", "lon": -77.14055766666667, "is_disabled": 0, "fusion_lat": 0.0, "fusion_lon": 0.0, "name": "7a49671cfb62da93215b0e951de3557b", "type": "electric_bike"}, {"rental_uris": {"ios": "https://dc.lft.to/lastmile_qr_scan", "android": "https://dc.lft.to/lastmile_qr_scan"}, "lat": 38.923611333333334, "is_reserved": 0, "bike_id": "5c149e6079d742869a2dc93aaef66cd5", "lon": -77.051329, "is_disabled": 0, "fusion_lat": 0.0, "fusion_lon": 0.0, "name": "5c149e6079d742869a2dc93aaef66cd5", "type": "electric_scooter"}, {"rental_uris": {"ios": "https://dc.lft.to/lastmile_qr_scan", "android": "https://dc.lft.to/lastmile_qr_scan"}, "lat": 38.88487816666667, "is_reserved": 0, "bike_id": "a4b3e5438e512278351e807cdbac0e40", "lon": -77.007084, "is_disabled": 0, "fusion_lat": 0.0, "fusion_lon": 0.0, "name": "a4b3e5438e512278351e807cdbac0e40", "type": "electric_scooter"}, {"rental_uris": {"ios": "https://dc.lft.to/lastmile_qr_scan", "android": "https://dc.lft.to/lastmile_qr_scan"}, "lat": 38.905546666666666, "is_reserved": 0, "bike_id": "c555dee3d9c935323cfaefb5841d2d03", "lon": -77.00597833333333, "is_disabled": 0, "fusion_lat": 0.0, "fusion_lon": 0.0, "name": "c555dee3d9c935323cfaefb5841d2d03", "type": "electric_scooter"}, {"rental_uris": {"ios": "https://dc.lft.to/lastmile_qr_scan", "android": "https://dc.lft.to/lastmile_qr_scan"}, "lat": 38.928838, "is_reserved": 0, "bike_id": "337ed6fd59640577ca9063b20309e754", "lon": -77.0123405, "is_disabled": 0, "fusion_lat": 0.0, "fusion_lon": 0.0, "name": "337ed6fd59640577ca9063b20309e754", "type": "electric_scooter"}, {"rental_uris": {"ios": "https://dc.lft.to/lastmile_qr_scan", "android": "https://dc.lft.to/lastmile_qr_scan"}, "lat": 38.91678683333333, "is_reserved": 0, "bike_id": "e1033fdea35f97220e84173af062179e", "lon": -77.04619966666667, "is_disabled": 0, "fusion_lat": 0.0, "fusion_lon": 0.0, "name": "e1033fdea35f97220e84173af062179e", "type": "electric_scooter"}, {"rental_uris": {"ios": "https://dc.lft.to/lastmile_qr_scan", "android": "https://dc.lft.to/lastmile_qr_scan"}, "lat": 38.9284575, "is_reserved": 0, "bike_id": "bb4febde4fc92a4e948ff994eb2b1095", "lon": -77.03315516666666, "is_disabled": 0, "fusion_lat": 0.0, "fusion_lon": 0.0, "name": "bb4febde4fc92a4e948ff994eb2b1095", "type": "electric_scooter"}, {"rental_uris": {"ios": "https://dc.lft.to/lastmile_qr_scan", "android": "https://dc.lft.to/lastmile_qr_scan"}, "lat": 39.05253833333333, "is_reserved": 0, "bike_id": "29344c550af8595dfa710a61b074afc1", "lon": -77.08066583333333, "is_disabled": 0, "fusion_lat": 0.0, "fusion_lon": 0.0, "name": "29344c550af8595dfa710a61b074afc1", "type": "electric_bike"}, {"rental_uris": {"ios": "https://dc.lft.to/lastmile_qr_scan", "android": "https://dc.lft.to/lastmile_qr_scan"}, "lat": 38.89707516666667, "is_reserved": 0, "bike_id": "d61f6d797b76d1d9b97b41415c4d4865", "lon": -77.02308833333333, "is_disabled": 0, "fusion_lat": 0.0, "fusion_lon": 0.0, "name": "d61f6d797b76d1d9b97b41415c4d4865", "type": "electric_scooter"}, {"rental_uris": {"ios": "https://dc.lft.to/lastmile_qr_scan", "android": "https://dc.lft.to/lastmile_qr_scan"}, "lat": 38.902607333333336, "is_reserved": 0, "bike_id": "de017a0485ebded9adbdef866a84635d", "lon": -77.0295735, "is_disabled": 0, "fusion_lat": 0.0, "fusion_lon": 0.0, "name": "de017a0485ebded9adbdef866a84635d", "type": "electric_scooter"}, {"rental_uris": {"ios": "https://dc.lft.to/lastmile_qr_scan", "android": "https://dc.lft.to/lastmile_qr_scan"}, "lat": 38.939131, "is_reserved": 0, "bike_id": "85da85660c45ef8780cf8ab41742920a", "lon": -77.03622866666667, "is_disabled": 0, "fusion_lat": 0.0, "fusion_lon": 0.0, "name": "85da85660c45ef8780cf8ab41742920a", "type": "electric_scooter"}, {"rental_uris": {"ios": "https://dc.lft.to/lastmile_qr_scan", "android": "https://dc.lft.to/lastmile_qr_scan"}, "lat": 38.915667166666665, "is_reserved": 0, "bike_id": "ad50703e6b7cdbaba0812acb0d59a47d", "lon": -77.0470465, "is_disabled": 0, "fusion_lat": 0.0, "fusion_lon": 0.0, "name": "ad50703e6b7cdbaba0812acb0d59a47d", "type": "electric_scooter"}, {"rental_uris": {"ios": "https://dc.lft.to/lastmile_qr_scan", "android": "https://dc.lft.to/lastmile_qr_scan"}, "lat": 38.873801, "is_reserved": 0, "bike_id": "5a3628bd957b64cb30c74c81a5a7f957", "lon": -76.97009766666666, "is_disabled": 0, "fusion_lat": 0.0, "fusion_lon": 0.0, "name": "5a3628bd957b64cb30c74c81a5a7f957", "type": "electric_scooter"}, {"rental_uris": {"ios": "https://dc.lft.to/lastmile_qr_scan", "android": "https://dc.lft.to/lastmile_qr_scan"}, "lat": 38.89826216666667, "is_reserved": 0, "bike_id": "9940d00e8eb7e037ea84cdfc70777a7b", "lon": -77.033387, "is_disabled": 0, "fusion_lat": 0.0, "fusion_lon": 0.0, "name": "9940d00e8eb7e037ea84cdfc70777a7b", "type": "electric_scooter"},