{"data": {"bikes": [{"type": "electric_scooter", "name": "010802325089377ffbb18247ca238375", "lat": 38.935272499999996, "fusion_lat": 0.0, "bike_id": "010802325089377ffbb18247ca238375", "is_reserved": 0, "lon": -77.07654483333333, "is_disabled": 0, "fusion_lon": 0.0, "rental_uris": {"android": "https://dc.lft.to/lastmile_qr_scan", "ios": "https://dc.lft.to/lastmile_qr_scan"}}, {"type": "electric_scooter", "name": "6172681c4007d0c5c791736263572356", "lat": 38.92478033333333, "fusion_lat": 0.0, "bike_id": "6172681c4007d0c5c791736263572356", "is_reserved": 0, "lon": -77.02216016666667, "is_disabled": 0, "fusion_lon": 0.0, "rental_uris": {"android": "https://dc.lft.to/lastmile_qr_scan", "ios": "https://dc.lft.to/lastmile_qr_scan"}}, {"type": "electric_scooter", "name": "8da87c16f968ca19b3381f2977d35d23", "lat": 38.928963833333334, "fusion_lat": 0.0, "bike_id": "8da87c16f968ca19b3381f2977d35d23", "is_reserved": 0, "lon": -77.03242666666667, "is_disabled": 0, "fusion_lon": 0.0, "rental_uris": {"android": "https://dc.lft.to/lastmile_qr_scan", "ios": "https://dc.lft.to/lastmile_qr_scan"}}, {"type": "electric_scooter", "name": "4fa31f48894f3e926b7d9df831a410e8", "lat": 38.914047, "fusion_lat": 0.0, "bike_id": "4fa31f48894f3e926b7d9df831a410e8", "is_reserved": 0, "lon": -77.0332785, "is_disabled": 0, "fusion_lon": 0.0, "rental_uris": {"android": "https://dc.lft.to/lastmile_qr_scan", "ios": "https://dc.lft.to/lastmile_qr_scan"}}, {"type": "electric_scooter", "name": "6ce128639368fbda2e541698e7249c57", "lat": 38.922671333333334, "fusion_lat": 0.0, "bike_id": "6ce128639368fbda2e541698e7249c57", "is_reserved": 0, "lon": -77.042948, "is_disabled": 0, "fusion_lon": 0.0, "rental_uris": {"android": "https://dc.lft.to/lastmile_qr_scan", "ios": "https://dc.lft.to/lastmile_qr_scan"}}, {"type": "electric_scooter", "name": "64cca66e4aefcbdc5635671cbc703e62", "lat": 38.911119, "fusion_lat": 0.0, "bike_id": "64cca66e4aefcbdc5635671cbc703e62", "is_reserved": 0, "lon": -77.038316, "is_disabled": 0, "fusion_lon": 0.0, "rental_uris": {"android": "https://dc.lft.to/lastmile_qr_scan", "ios": "https://dc.lft.to/lastmile_qr_scan"}}, {"type": "electric_scooter", "name": "978da25cd8e9a356e271aadfd68c7ccb", "lat": 38.8987265, "fusion_lat": 0.0, "bike_id": "978da25cd8e9a356e271aadfd68c7ccb", "is_reserved": 0, "lon": -76.94633433333334, "is_disabled": 0, "fusion_lon": 0.0, "rental_uris": {"android": "https://dc.lft.to/lastmile_qr_scan", "ios": "https://dc.lft.to/lastmile_qr_scan"}}, {"type": "electric_scooter", "name": "a6e47f7616f35cb920d7e4ffe7fbeb56", "lat": 38.89507483333333, "fusion_lat": 0.0, "bike_id": "a6e47f7616f35cb920d7e4ffe7fbeb56", "is_reserved": 0, "lon": -76.93475266666667, "is_disabled": 0, "fusion_lon": 0.0, "rental_uris": {"android": "https://dc.lft.to/lastmile_qr_scan", "ios": "https://dc.lft.to/lastmile_qr_scan"}}, {"type": "electric_scooter", "name": "0c834e3369d95c3fc038b9a18d2e8134", "lat": 38.9278095, "fusion_lat": 0.0, "bike_id": "0c834e3369d95c3fc038b9a18d2e8134", "is_reserved": 0, "lon": -77.0370045, "is_disabled": 0, "fusion_lon": 0.0, "rental_uris": {"android": "https://dc.lft.to/lastmile_qr_scan", "ios": "https://dc.lft.to/lastmile_qr_scan"}}, {"type": "electric_scooter", "name": "a5265312afd39bf8c2099e97f8889fa2", "lat": 38.9225155, "fusion_lat": 0.0, "bike_id": "a5265312afd39bf8c2099e97f8889fa2", "is_reserved": 0, "lon": -77.0195345, "is_disabled": 0, "fusion_lon": 0.0, "rental_uris": {"android": "https://dc.lft.to/lastmile_qr_scan", "ios": "https://dc.lft.to/lastmile_qr_scan"}}, {"type": "electric_scooter", "name": "ff51ebca6d28f330b430e2236c303264", "lat": 38.90379816666667, "fusion_lat": 0.0, "bike_id": "ff51ebca6d28f330b430e2236c303264", "is_reserved": 0, "lon": -77.04491266666666, "is_disabled": 0, "fusion_lon": 0.0, "rental_uris": {"android": "https://dc.lft.to/lastmile_qr_scan", "ios": "https://dc.lft.to/lastmile_qr_scan"}}, {"type": "electric_scooter", "name": "d8dbe44abeb4e5a4c79983db7a6d94c2", "lat": 38.91711033333333, "fusion_lat": 0.0, "bike_id": "d8dbe44abeb4e5a4c79983db7a6d94c2", "is_reserved": 0, "lon": -77.03863316666667, "is_disabled": 0, "fusion_lon": 0.0, "rental_uris": {"android": "https://dc.lft.to/lastmile_qr_scan", "ios": "https://dc.lft.to/lastmile_qr_scan"}}, {"type": "electric_scooter", "name": "15f70cf81a3238f558366f62e8199052", "lat": 38.92389133333333, "fusion_lat": 0.0, "bike_id": "15f70cf81a3238f558366f62e8199052", "is_reserved": 0, "lon": -77.02433183333333, "is_disabled": 0, "fusion_lon": 0.0, "rental_uris": {"android": "https://dc.lft.to/lastmile_qr_scan", "ios": "https://dc.lft.to/lastmile_qr_scan"}}, {"type": "electric_scooter", "name": "fd4b877c2f5d30816dece7be78266b88", "lat": 38.89400916666666, "fusion_lat": 0.0, "bike_id": "fd4b877c2f5d30816dece7be78266b88", "is_reserved": 0, "lon": -77.02583766666666, "is_disabled": 0, "fusion_lon": 0.0, "rental_uris": {"android": "https://dc.lft.to/lastmile_qr_scan", "ios": "https://dc.lft.to/lastmile_qr_scan"}}, {"type": "electric_scooter", "name": "152f68bf86100c9bdb4de7b57e42d2d1", "lat": 38.910084499999996, "fusion_lat": 0.0, "bike_id": "152f68bf86100c9bdb4de7b57e42d2d1", "is_reserved": 0, "lon": -77.03658633333333, "is_disabled": 0, "fusion_lon": 0.0, "rental_uris": {"android": "https://dc.lft.to/lastmile_qr_scan", "ios": "https://dc.lft.to/lastmile_qr_scan"}}, {"type": "electric_scooter", "name": "01c28aad04f13eefb1dda620dfbca083", "lat": 38.90585083333333, "fusion_lat": 0.0, "bike_id": "01c28aad04f13eefb1dda620dfbca083", "is_reserved": 0, "lon": -77.07010066666666, "is_disabled": 0, "fusion_lon": 0.0, "rental_uris": {"android": "https://dc.lft.to/lastmile_qr_scan", "ios": "https://dc.lft.to/lastmile_qr_scan"}}, {"type": "electric_scooter", "name": "15cf72b80b2023965b20850412a8ad94", "lat": 38.928287166666664, "fusion_lat": 0.0, "bike_id": "15cf72b80b2023965b20850412a8ad94", "is_reserved": 0, "lon": -77.02253166666667, "is_disabled": 0, "fusion_lon": 0.0, "rental_uris": {"android": "https://dc.lft.to/lastmile_qr_scan", "ios": "https://dc.lft.to/lastmile_qr_scan"}}, {"type": "electric_scooter", "name": "22e7df96035469f83a9074eb724ddd73", "lat": 38.88469933333333, "fusion_lat": 0.0, "bike_id": "22e7df96035469f83a9074eb724ddd73", "is_reserved": 0, "lon": -76.94983166666667, "is_disabled": 0, "fusion_lon": 0.0, "rental_uris": {"android": "https://dc.lft.to/lastmile_qr_scan", "ios": "https://dc.lft.to/lastmile_qr_scan"}}, {"type": "electric_scooter", "name": "bae9bfad28b58f39e461d3893bf18985", "lat": 38.90033616666667, "fusion_lat": 0.0, "bike_id": "bae9bfad28b58f39e461d3893bf18985", "is_reserved": 0, "lon": -77.04683383333334, "is_disabled": 0, "fusion_lon": 0.0, "rental_uris": {"android": "https://dc.lft.to/lastmile_qr_scan", "ios": "https://dc.lft.to/lastmile_qr_scan"}}, {"type": "electric_scooter", "name": "002426efa63cf8a62d505bbe9f81bdbc", "lat": 38.93233266666667, "fusion_lat": 0.0, "bike_id": "002426efa63cf8a62d505bbe9f81bdbc", "is_reserved": 0, "lon": -76.9979865, "is_disabled": 0, "fusion_lon": 0.0, "rental_uris": {"android": "https://dc.lft.to/lastmile_qr_scan", "ios": "https://dc.lft.to/lastmile_qr_scan"}}, {"type": "electric_scooter", "name": "207675a8aa8f720396d90f842db8513e", "lat": 38.8961975, "fusion_lat": 0.0, "bike_id": "207675a8aa8f720396d90f842db8513e", "is_reserved": 0, "lon": -76.94770433333333, "is_disabled": 0, "fusion_lon": 0.0, "rental_uris": {"android": "https://dc.lft.to/lastmile_qr_scan", "ios": "https://dc.lft.to/lastmile_qr_scan"}}, {"type": "electric_scooter", "name": "bd8358da0a45936c85293b53f64ee38e", "lat": 38.864272, "fusion_lat": 0.0, "bike_id": "bd8358da0a45936c85293b53f64ee38e", "is_reserved": 0, "lon": -76.989927, "is_disabled": 0, "fusion_lon": 0.0, "rental_uris": {"android": "https://dc.lft.to/lastmile_qr_scan", "ios": "https://dc.lft.to/lastmile_qr_scan"}}, {"type": "electric_scooter", "name": "335de52ff01a8ba0f0de56852a03e6e9", "lat": 38.90823533333333, "fusion_lat": 0.0, "bike_id": "335de52ff01a8ba0f0de56852a03e6e9", "is_reserved": 0, "lon": -77.0424325, "is_disabled": 0, "fusion_lon": 0.0, "rental_uris": {"android": "https://dc.lft.to/lastmile_qr_scan", "ios": "https://dc.lft.to/lastmile_qr_scan"}}, {"type": "electric_scooter", "name": "9ec396159e7fd9934f19b53fc82f240e", "lat": 38.909449333333335, "fusion_lat": 0.0, "bike_id": "9ec396159e7fd9934f19b53fc82f240e", "is_reserved": 0, "lon": -77.04656766666666, "is_disabled": 0, "fusion_lon": 0.0, "rental_uris": {"android": "https://dc.lft.to/lastmile_qr_scan", "ios": "https://dc.lft.to/lastmile_qr_scan"}}, {"type": "electric_scooter", "name": "d1a849245ed4f70d53953da368df7660", "lat": 38.93686066666667, "fusion_lat": 0.0, "bike_id": "d1a849245ed4f70d53953da368df7660", "is_reserved": 0, "lon": -77.03281583333333, "is_disabled": 0, "fusion_lon": 0.0, "rental_uris": {"android": "https://dc.lft.to/lastmile_qr_scan", "ios": "https://dc.lft.to/lastmile_qr_scan"}}, {"type": "electric_scooter", "name": "2a8944585c1140945395e9690a05a7fe", "lat": 38.9193595, "fusion_lat": 0.0, "bike_id": "2a8944585c1140945395e9690a05a7fe", "is_reserved": 0, "lon": -77.01359533333333, "is_disabled": 0, "fusion_lon": 0.0, "rental_uris": {"android": "https://dc.lft.to/lastmile_qr_scan", "ios": "https://dc.lft.to/lastmile_qr_scan"}}, {"type": "electric_scooter", "name": "951f3c8840a8b9cda23d60910fb6cdb6", "lat": 38.920742833333335, "fusion_lat": 0.0, "bike_id": "951f3c8840a8b9cda23d60910fb6cdb6", "is_reserved": 0, "lon": -77.03452833333333, "is_disabled": 0, "fusion_lon": 0.0, "rental_uris": {"android": "https://dc.lft.to/lastmile_qr_scan", "ios": "https://dc.lft.to/lastmile_qr_scan"}}, {"type": "electric_scooter", "name": "0a3f679539c9c1d09ecf0eb78da773e1", "lat": 38.89236116666667, "fusion_lat": 0.0, "bike_id": "0a3f679539c9c1d09ecf0eb78da773e1", "is_reserved": 0, "lon": -77.04159533333333, "is_disabled": 0, "fusion_lon": 0.0, "rental_uris": {"android": "https://dc.lft.to/lastmile_qr_scan", "ios": "https://dc.lft.to/lastmile_qr_scan"}}, {"type": "electric_scooter", "name": "da4b94c38f64e8e620a3cea5d413f5a1", "lat": 38.92605366666667, "fusion_lat": 0.0, "bike_id": "da4b94c38f64e8e620a3cea5d413f5a1", "is_reserved": 0, "lon": -77.02150333333333, "is_disabled": 0, "fusion_lon": 0.0, "rental_uris": {"android": "https://dc.lft.to/lastmile_qr_scan", "ios": "https://dc.lft.to/lastmile_qr_scan"}}, {"type": "electric_scooter", "name": "99842e4ede09ee93fdcb180491763b1d", "lat": 38.883021166666666, "fusion_lat": 0.0, "bike_id": "99842e4ede09ee93fdcb180491763b1d", "is_reserved": 0, "lon": -76.94852533333334, "is_disabled": 0, "fusion_lon": 0.0, "rental_uris": {"android": "https://dc.lft.to/lastmile_qr_scan", "ios": "https://dc.lft.to/lastmile_qr_scan"}}, {"type": "electric_scooter", "name": "3a67a85afe0af99fa0efd4f710f67e03", "lat": 38.90007633333333, "fusion_lat": 0.0, "bike_id": "3a67a85afe0af99fa0efd4f710f67e03", "is_reserved": 0, "lon": -76.99353333333333, "is_disabled": 0, "fusion_lon": 0.0, "rental_uris": {"android": "https://dc.lft.to/lastmile_qr_scan", "ios": "https://dc.lft.to/lastmile_qr_scan"}}, {"type": "electric_bike", "name": "0ab71cb081eb1a5646f02ad5a212c859", "lat": 38.885197833333336, "fusion_lat": 0.0, "bike_id": "0ab71cb081eb1a5646f02ad5a212c859", "is_reserved": 0, "lon": -76.95161233333333, "is_disabled": 0, "fusion_lon": 0.0, "rental_uris": {"android": "https://dc.lft.to/lastmile_qr_scan", "ios": "https://dc.lft.to/lastmile_qr_scan"}}, {"type": "electric_scooter", "name": "0de2d4c0fdee85d127240d546fcd03c8", "lat": 38.90031, "fusion_lat": 0.0, "bike_id": "0de2d4c0fdee85d127240d546fcd03c8", "is_reserved": 0, "lon": -77.01185266666667, "is_disabled": 0, "fusion_lon": 0.0, "rental_uris": {"android": "https://dc.lft.to/lastmile_qr_scan", "ios": "https://dc.lft.to/lastmile_qr_scan"}}, {"type": "electric_scooter", "name": "1b90e6de0de978a61e097eed704a1a80", "lat": 38.9160565, "fusion_lat": 0.0, "bike_id": "1b90e6de0de978a61e097eed704a1a80", "is_reserved": 0, "lon": -77.03128183333334, "is_disabled": 0, "fusion_lon": 0.0, "rental_uris": {"android": "https://dc.lft.to/lastmile_qr_scan", "ios": "https://dc.lft.to/lastmile_qr_scan"}}, {"type": "electric_scooter", "name": "522885383539018383fbc46c59ba158e", "lat": 38.90541533333333, "fusion_lat": 0.0, "bike_id": "522885383539018383fbc46c59ba158e", "is_reserved": 0, "lon": -77.05905166666666, "is_disabled": 0, "fusion_lon": 0.0, "rental_uris": {"android": "https://dc.lft.to/lastmile_qr_scan", "ios": "https://dc.lft.to/lastmile_qr_scan"}}, {"type": "electric_scooter", "name": "3390e54872d7b1bbfc058f6c3f676918", "lat": 38.91093083333333, "fusion_lat": 0.0, "bike_id": "3390e54872d7b1bbfc058f6c3f676918", "is_reserved": 0, "lon": -77.042367, "is_disabled": 0, "fusion_lon": 0.0, "rental_uris": {"android": "https://dc.lft.to/lastmile_qr_scan", "ios": "https://dc.lft.to/lastmile_qr_scan"}}, {"type": "electric_scooter", "name": "cdca08c70b4ed8025ecf20243760b003", "lat": 38.860616, "fusion_lat": 0.0, "bike_id": "cdca08c70b4ed8025ecf20243760b003", "is_reserved": 0, "lon": -76.98505983333334, "is_disabled": 0, "fusion_lon": 0.0, "rental_uris": {"android": "https://dc.lft.to/lastmile_qr_scan", "ios": "https://dc.lft.to/lastmile_qr_scan"}}, {"type": "electric_scooter", "name": "7dbfdf5a84dd9c86a8ef44a765126151", "lat": 38.905397666666666, "fusion_lat": 0.0, "bike_id": "7dbfdf5a84dd9c86a8ef44a765126151", "is_reserved": 0, "lon": -77.00559766666667, "is_disabled": 0, "fusion_lon": 0.0, "rental_uris": {"android": "https://dc.lft.to/lastmile_qr_scan", "ios": "https://dc.lft.to/lastmile_qr_scan"}}, {"type": "electric_scooter", "name": "14c58babd61f10cb476110fac180d199", "lat": 38.917001666666664, "fusion_lat": 0.0, "bike_id": "14c58babd61f10cb476110fac180d199", "is_reserved": 0, "lon": -77.026493, "is_disabled": 0, "fusion_lon": 0.0, "rental_uris": {"android": "https://dc.lft.to/lastmile_qr_scan", "ios": "https://dc.lft.to/lastmile_qr_scan"}}, {"type": "electric_scooter", "name": "bb31fe07db4f4b3bdf52dc1f1a7af4bd", "lat": 38.911088, "fusion_lat": 0.0, "bike_id": "bb31fe07db4f4b3bdf52dc1f1a7af4bd", "is_reserved": 0, "lon": -77.04225766666667, "is_disabled": 0, "fusion_lon": 0.0, "rental_uris": {"android": "https://dc.lft.to/lastmile_qr_scan", "ios": "https://dc.lft.to/lastmile_qr_scan"}}, {"type": "electric_scooter", "name": "7bc2ce1729725f075b438f16c0941b8b", "lat": 38.915563, "fusion_lat": 0.0, "bike_id": "7bc2ce1729725f075b438f16c0941b8b", "is_reserved": 0, "lon": -77.0104745, "is_disabled": 0, "fusion_lon": 0.0, "rental_uris": {"android": "https://dc.lft.to/lastmile_qr_scan", "ios": "https://dc.lft.to/lastmile_qr_scan"}}, {"type": "electric_scooter", "name": "6655b2f4eb6aa60534fc0f5114e169d2", "lat": 38.89979533333333, "fusion_lat": 0.0, "bike_id": "6655b2f4eb6aa60534fc0f5114e169d2", "is_reserved": 0, "lon": -77.02161966666667, "is_disabled": 0, "fusion_lon": 0.0, "rental_uris": {"android": "https://dc.lft.to/lastmile_qr_scan", "ios": "https://dc.lft.to/lastmile_qr_scan"}}, {"type": "electric_bike", "name": "781771ea299b817406eb9b3741b42046", "lat": 38.875823, "fusion_lat": 0.0, "bike_id": "781771ea299b817406eb9b3741b42046", "is_reserved": 0, "lon": -77.234086, "is_disabled": 0, "fusion_lon": 0.0, "rental_uris": {"android": "https://dc.lft.to/lastmile_qr_scan", "ios": "https://dc.lft.to/lastmile_qr_scan"}}, {"type": "electric_scooter", "name": "be0d2d3eed7a2db899858005577b51fc", "lat": 38.914987333333336, "fusion_lat": 0.0, "bike_id": "be0d2d3eed7a2db899858005577b51fc", "is_reserved": 0, "lon": -76.9836485, "is_disabled": 0, "fusion_lon": 0.0, "rental_uris": {"android": "https://dc.lft.to/lastmile_qr_scan", "ios": "https://dc.lft.to/lastmile_qr_scan"}}, {"type": "electric_scooter", "name": "f448e96820b36c0145c412dab1c36b68", "lat": 38.92841333333333, "fusion_lat": 0.0, "bike_id": "f448e96820b36c0145c412dab1c36b68", "is_reserved": 0, "lon": -77.05424966666666, "is_disabled": 0, "fusion_lon": 0.0, "rental_uris": {"android": "https://dc.lft.to/lastmile_qr_scan", "ios": "https://dc.lft.to/lastmile_qr_scan"}}, {"type": "electric_scooter", "name": "de2797a8ba28b0011132d9bcf6f940e8", "lat": 38.90105483333333, "fusion_lat": 0.0, "bike_id": "de2797a8ba28b0011132d9bcf6f940e8", "is_reserved": 0, "lon": -76.9948415, "is_disabled": 0, "fusion_lon": 0.0, "rental_uris": {"android": "https://dc.lft.to/lastmile_qr_scan", "ios": "https://dc.lft.to/lastmile_qr_scan"}}, {"type": "electric_scooter", "name": "00dd785b89d68e367654705b0d30d22a", "lat": 38.857422666666665, "fusion_lat": 0.0, "bike_id": "00dd785b89d68e367654705b0d30d22a", "is_reserved": 0, "lon": -76.97374616666667, "is_disabled": 0, "fusion_lon": 0.0, "rental_uris": {"android": "https://dc.lft.to/lastmile_qr_scan", "ios": "https://dc.lft.to/lastmile_qr_scan"}}, {"type": "electric_scooter", "name": "efe5d50856f5f0ad3779371d495c4297", "lat": 38.90482566666667, "fusion_lat": 0.0, "bike_id": "efe5d50856f5f0ad3779371d495c4297", "is_reserved": 0, "lon": -77.043613, "is_disabled": 0, "fusion_lon": 0.0, "rental_uris": {"android": "https://dc.lft.to/lastmile_qr_scan", "ios": "https://dc.lft.to/lastmile_qr_scan"}}, {"type": "electric_scooter", "name": "796fc0e9fc8640826a9ed2439219f470", "lat": 38.91623466666667, "fusion_lat": 0.0, "bike_id": "796fc0e9fc8640826a9ed2439219f470", "is_reserved": 0, "lon": -77.04839683333333, "is_disabled": 0, "fusion_lon": 0.0, "rental_uris": {"android": "https://dc.lft.to/lastmile_qr_scan", "ios": "https://dc.lft.to/lastmile_qr_scan"}}, {"type": "electric_scooter", "name": "062f0144f39b8960e2ce00933c06d8c1", "lat": 38.905755166666665, "fusion_lat": 0.0, "bike_id": "062f0144f39b8960e2ce00933c06d8c1", "is_reserved": 0, "lon": -77.04344433333333, "is_disabled": 0, "fusion_lon": 0.0, "rental_uris": {"android": "https://dc.lft.to/lastmile_qr_scan", "ios": "https://dc.lft.to/lastmile_qr_scan"}}, {"type": "electric_bike", "name": "01217902475263331e5f4a5c51113945", "lat": 38.93075066666667, "fusion_lat": 0.0, "bike_id": "01217902475263331e5f4a5c51113945", "is_reserved": 0, "lon": -77.03269583333334, "is_disabled": 0, "fusion_lon": 0.0, "rental_uris": {"android": "https://dc.lft.to/lastmile_qr_scan", "ios": "https://dc.lft.to/lastmile_qr_scan"}}, {"type": "electric_scooter", "name": "fa1ea1ea317bd16d291b20a19cc50be7", "lat": 38.893318666666666, "fusion_lat": 0.0, "bike_id": "fa1ea1ea317bd16d291b20a19cc50be7", "is_reserved": 0, "lon": -77.02257366666667, "is_disabled": 0, "fusion_lon": 0.0, "rental_uris": {"android": "https://dc.lft.to/lastmile_qr_scan", "ios": "https://dc.lft.to/lastmile_qr_scan"}}, {"type": "electric_bike", "name": "bc9e3d5fd8c30dc3f5d5aaa81fc6d6f6", "lat": 38.8956795, "fusion_lat": 0.0, "bike_id": "bc9e3d5fd8c30dc3f5d5aaa81fc6d6f6", "is_reserved": 0, "lon": -77.12737083333333, "is_disabled": 0, "fusion_lon": 0.0, "rental_uris": {"android": "https://dc.lft.to/lastmile_qr_scan", "ios": "https://dc.lft.to/lastmile_qr_scan"}}, {"type": "electric_bike", "name": "e86f5bf26a6003a67f2790a7dc17f77a", "lat": 38.95469666666666, "fusion_lat": 0.0, "bike_id": "e86f5bf26a6003a67f2790a7dc17f77a", "is_reserved": 0, "lon": -76.9900375, "is_disabled": 0, "fusion_lon": 0.0, "rental_uris": {"android": "https://dc.lft.to/lastmile_qr_scan", "ios": "https://dc.lft.to/lastmile_qr_scan"}}, {"type": "electric_scooter", "name": "f8fc564032ab8910a975ee25ca7e8b16", "lat": 38.90038783333333, "fusion_lat": 0.0, "bike_id": "f8fc564032ab8910a975ee25ca7e8b16", "is_reserved": 0, "lon": -77.00897366666666, "is_disabled": 0, "fusion_lon": 0.0, "rental_uris": {"android": "https://dc.lft.to/lastmile_qr_scan", "ios": "https://dc.lft.to/lastmile_qr_scan"}}, {"type": "electric_scooter", "name": "7b2dd1ac5335b3d84c5757e2720a0515", "lat": 38.912644666666665, "fusion_lat": 0.0, "bike_id": "7b2dd1ac5335b3d84c5757e2720a0515", "is_reserved": 0, "lon": -77.033605, "is_disabled": 0, "fusion_lon": 0.0, "rental_uris": {"android": "https://dc.lft.to/lastmile_qr_scan", "ios": "https://dc.lft.to/lastmile_qr_scan"}}, {"type": "electric_scooter", "name": "cb40219a623ff81909ecb3bfe4d7d9ad", "lat": 38.9048505, "fusion_lat": 0.0, "bike_id": "cb40219a623ff81909ecb3bfe4d7d9ad", "is_reserved": 0, "lon": -77.06118516666666, "is_disabled": 0, "fusion_lon": 0.0, "rental_uris": {"android": "https://dc.lft.to/lastmile_qr_scan", "ios": "https://dc.lft.to/lastmile_qr_scan"}}, {"type": "electric_scooter", "name": "15ecfce9f8076a3bc567a0d1a6237136", "lat": 38.89917116666667, "fusion_lat": 0.0, "bike_id": "15ecfce9f8076a3bc567a0d1a6237136", "is_reserved": 0, "lon": -77.03296, "is_disabled": 0, "fusion_lon": 0.0, "rental_uris": {"android": "https://dc.lft.to/lastmile_qr_scan", "ios": "https://dc.lft.to/lastmile_qr_scan"}}, {"type": "electric_scooter", "name": "e78d6385a5b2fca2546aedbb607bed00", "lat": 38.901991333333335, "fusion_lat": 0.0, "bike_id": "e78d6385a5b2fca2546aedbb607bed00", "is_reserved": 0, "lon": -76.9819025, "is_disabled": 0, "fusion_lon": 0.0, "rental_uris": {"android": "https://dc.lft.to/lastmile_qr_scan", "ios": "https://dc.lft.to/lastmile_qr_scan"}}, {"type": "electric_scooter", "name": "c8d7f8db331bf854cf7d9e6da45676cf", "lat": 38.93184383333333, "fusion_lat": 0.0, "bike_id": "c8d7f8db331bf854cf7d9e6da45676cf", "is_reserved": 0, "lon": -77.04299216666666, "is_disabled": 0, "fusion_lon": 0.0, "rental_uris": {"android": "https://dc.lft.to/lastmile_qr_scan", "ios": "https://dc.lft.to/lastmile_qr_scan"}}, {"type": "electric_scooter", "name": "f726629d907f1091c38aa002d0fe304f", "lat": 38.9081735, "fusion_lat": 0.0, "bike_id": "f726629d907f1091c38aa002d0fe304f", "is_reserved": 0, "lon": -77.0384445, "is_disabled": 0, "fusion_lon": 0.0, "rental_uris": {"android": "https://dc.lft.to/lastmile_qr_scan", "ios": "https://dc.lft.to/lastmile_qr_scan"}}, {"type": "electric_scooter", "name": "95b999b1643d28a6c892c32d3903f08f", "lat": 38.9412855, "fusion_lat": 0.0, "bike_id": "95b999b1643d28a6c892c32d3903f08f", "is_reserved": 0, "lon": -77.0153695, "is_disabled": 0, "fusion_lon": 0.0, "rental_uris": {"android": "https://dc.lft.to/lastmile_qr_scan", "ios": "https://dc.lft.to/lastmile_qr_scan"}}, {"type": "electric_scooter", "name": "6b9dfa8c562f1b3bee0bcb75b1f7b988", "lat": 38.960467666666666, "fusion_lat": 0.0, "bike_id": "6b9dfa8c562f1b3bee0bcb75b1f7b988", "is_reserved": 0, "lon": -77.027954, "is_disabled": 0, "fusion_lon": 0.0, "rental_uris": {"android": "https://dc.lft.to/lastmile_qr_scan", "ios": "https://dc.lft.to/lastmile_qr_scan"}}, {"type": "electric_scooter", "name": "cc9f2bb43c402cd69236aa44a291fc49", "lat": 38.89665383333333, "fusion_lat": 0.0, "bike_id": "cc9f2bb43c402cd69236aa44a291fc49", "is_reserved": 0, "lon": -77.019134, "is_disabled": 0, "fusion_lon": 0.0, "rental_uris": {"android": "https://dc.lft.to/lastmile_qr_scan", "ios": "https://dc.lft.to/lastmile_qr_scan"}}, {"type": "electric_scooter", "name": "0466ee8d59de7e34ed933f59dc7ddd65", "lat": 38.913076833333335, "fusion_lat": 0.0, "bike_id": "0466ee8d59de7e34ed933f59dc7ddd65", "is_reserved": 0, "lon": -77.04870433333333, "is_disabled": 0, "fusion_lon": 0.0, "rental_uris": {"android": "https://dc.lft.to/lastmile_qr_scan", "ios": "https://dc.lft.to/lastmile_qr_scan"}}, {"type": "electric_scooter", "name": "2263b8287ba12c366d2e12bbb47a0529", "lat": 38.91407616666667, "fusion_lat": 0.0, "bike_id": "2263b8287ba12c366d2e12bbb47a0529", "is_reserved": 0, "lon": -77.01556016666666, "is_disabled": 0, "fusion_lon": 0.0, "rental_uris": {"android": "https://dc.lft.to/lastmile_qr_scan", "ios": "https://dc.lft.to/lastmile_qr_scan"}}, {"type": "electric_scooter", "name": "cd18011ae3b9ccc59e90f594e7b92659", "lat": 38.94108166666667, "fusion_lat": 0.0, "bike_id": "cd18011ae3b9ccc59e90f594e7b92659", "is_reserved": 0, "lon": -77.07597033333333, "is_disabled": 0, "fusion_lon": 0.0, "rental_uris": {"android": "https://dc.lft.to/lastmile_qr_scan", "ios": "https://dc.lft.to/lastmile_qr_scan"}}, {"type": "electric_scooter", "name": "2c0b6aa0ed0e29fc69fc85181f4cf011", "lat": 38.9042245, "fusion_lat": 0.0, "bike_id": "2c0b6aa0ed0e29fc69fc85181f4cf011", "is_reserved": 0, "lon": -77.00581433333333, "is_disabled": 0, "fusion_lon": 0.0, "rental_uris": {"android": "https://dc.lft.to/lastmile_qr_scan", "ios": "https://dc.lft.to/lastmile_qr_scan"}}, {"type": "electric_scooter", "name": "6ccde730d5ca109c6338ff53b2e1db22", "lat": 38.894971, "fusion_lat": 0.0, "bike_id": "6ccde730d5ca109c6338ff53b2e1db22", "is_reserved": 0, "lon": -77.0178095, "is_disabled": 0, "fusion_lon": 0.0, "rental_uris": {"android": "https://dc.lft.to/lastmile_qr_scan", "ios": "https://dc.lft.to/lastmile_qr_scan"}}, {"type": "electric_scooter", "name": "7f72f68d9b31ad08a1a01f379cbea197", "lat": 38.865085666666666, "fusion_lat": 0.0, "bike_id": "7f72f68d9b31ad08a1a01f379cbea197", "is_reserved": 0, "lon": -76.98989983333334, "is_disabled": 0, "fusion_lon": 0.0, "rental_uris": {"android": "https://dc.lft.to/lastmile_qr_scan", "ios": "https://dc.lft.to/lastmile_qr_scan"}}, {"type": "electric_scooter", "name": "eb6bdb7d194b4a4e8d1245651f167c81", "lat": 38.916127833333334, "fusion_lat": 0.0, "bike_id": "eb6bdb7d194b4a4e8d1245651f167c81", "is_reserved": 0, "lon": -77.04155316666667, "is_disabled": 0, "fusion_lon": 0.0, "rental_uris": {"android": "https://dc.lft.to/lastmile_qr_scan", "ios": "https://dc.lft.to/lastmile_qr_scan"}}, {"type": "electric_scooter", "name": "e66897482f976bc46674cbc1b93548f1", "lat": 38.890796333333334, "fusion_lat": 0.0, "bike_id": "e66897482f976bc46674cbc1b93548f1", "is_reserved": 0, "lon": -76.98822833333334, "is_disabled": 0, "fusion_lon": 0.0, "rental_uris": {"android": "https://dc.lft.to/lastmile_qr_scan", "ios": "https://dc.lft.to/lastmile_qr_scan"}}, {"type": "electric_scooter", "name": "430c1b31fce77004362693cd484bb3df", "lat": 38.8984695, "fusion_lat": 0.0, "bike_id": "430c1b31fce77004362693cd484bb3df", "is_reserved": 0, "lon": -77.00747466666667, "is_disabled": 0, "fusion_lon": 0.0, "rental_uris": {"android": "https://dc.lft.to/lastmile_qr_scan", "ios": "https://dc.lft.to/lastmile_qr_scan"}}, {"type": "electric_scooter", "name": "8ebcc363754482f22804f2f4f4392512", "lat": 38.884521666666664, "fusion_lat": 0.0, "bike_id": "8ebcc363754482f22804f2f4f4392512", "is_reserved": 0, "lon": -76.95099483333334, "is_disabled": 0, "fusion_lon": 0.0, "rental_uris": {"android": "https://dc.lft.to/lastmile_qr_scan", "ios": "https://dc.lft.to/lastmile_qr_scan"}}, {"type": "electric_scooter", "name": "ff8475218965746e53d812e5987931a9", "lat": 38.90961516666667, "fusion_lat": 0.0, "bike_id": "ff8475218965746e53d812e5987931a9", "is_reserved": 0, "lon": -77.02305533333333, "is_disabled": 0, "fusion_lon": 0.0, "rental_uris": {"android": "https://dc.lft.to/lastmile_qr_scan", "ios": "https://dc.lft.to/lastmile_qr_scan"}}, {"type": "electric_scooter", "name": "ee463ffc30251aba1495f064e5996541", "lat": 38.918079166666665, "fusion_lat": 0.0, "bike_id": "ee463ffc30251aba1495f064e5996541", "is_reserved": 0, "lon": -77.0343275, "is_disabled": 0, "fusion_lon": 0.0, "rental_uris": {"android": "https://dc.lft.to/lastmile_qr_scan", "ios": "https://dc.lft.to/lastmile_qr_scan"}}, {"type": "electric_scooter", "name": "da8e7ccd87481009cfdb658e00c06190", "lat": 38.917069, "fusion_lat": 0.0, "bike_id": "da8e7ccd87481009cfdb658e00c06190", "is_reserved": 0, "lon": -77.04346283333334, "is_disabled": 0, "fusion_lon": 0.0, "rental_uris": {"android": "https://dc.lft.to/lastmile_qr_scan", "ios": "https://dc.lft.to/lastmile_qr_scan"}}, {"type": "electric_scooter", "name": "8e97086cb2fa54a67008d9d9faebd4f0", "lat": 38.902431, "fusion_lat": 0.0, "bike_id": "8e97086cb2fa54a67008d9d9faebd4f0", "is_reserved": 0, "lon": -77.037864, "is_disabled": 0, "fusion_lon": 0.0, "rental_uris": {"android": "https://dc.lft.to/lastmile_qr_scan", "ios": "https://dc.lft.to/lastmile_qr_scan"}}, {"type": "electric_scooter", "name": "fcb1c36d3c4d4869fa47678e88a7c00d", "lat": 38.92816933333334, "fusion_lat": 0.0, "bike_id": "fcb1c36d3c4d4869fa47678e88a7c00d", "is_reserved": 0, "lon": -77.02664683333333, "is_disabled": 0, "fusion_lon": 0.0, "rental_uris": {"android": "https://dc.lft.to/lastmile_qr_scan", "ios": "https://dc.lft.to/lastmile_qr_scan"}}, {"type": "electric_scooter", "name": "df32e219d5cf6bfec2cc49c934cdfaac", "lat": 38.906524166666664, "fusion_lat": 0.0, "bike_id": "df32e219d5cf6bfec2cc49c934cdfaac", "is_reserved": 0, "lon": -77.02525716666666, "is_disabled": 0, "fusion_lon": 0.0, "rental_uris": {"android": "https://dc.lft.to/lastmile_qr_scan", "ios": "https://dc.lft.to/lastmile_qr_scan"}}, {"type": "electric_scooter", "name": "e93caff47591c8d5d8b2ff485034b75c", "lat": 38.92795483333333, "fusion_lat": 0.0, "bike_id": "e93caff47591c8d5d8b2ff485034b75c", "is_reserved": 0, "lon": -77.05534016666667, "is_disabled": 0, "fusion_lon": 0.0, "rental_uris": {"android": "https://dc.lft.to/lastmile_qr_scan", "ios": "https://dc.lft.to/lastmile_qr_scan"}}, {"type": "electric_scooter", "name": "e443733d7b1c2f54daad05d79dc26d14", "lat": 38.931010666666666, "fusion_lat": 0.0, "bike_id": "e443733d7b1c2f54daad05d79dc26d14", "is_reserved": 0, "lon": -77.02477433333334, "is_disabled": 0, "fusion_lon": 0.0, "rental_uris": {"android": "https://dc.lft.to/lastmile_qr_scan", "ios": "https://dc.lft.to/lastmile_qr_scan"}}, {"type": "electric_scooter", "name": "b034f5720fc50d9867c9828c215be549", "lat": 38.92187633333333, "fusion_lat": 0.0, "bike_id": "b034f5720fc50d9867c9828c215be549", "is_reserved": 0, "lon": -77.04225833333334, "is_disabled": 0, "fusion_lon": 0.0, "rental_uris": {"android": "https://dc.lft.to/lastmile_qr_scan", "ios": "https://dc.lft.to/lastmile_qr_scan"}}, {"type": "electric_bike", "name": "ba161db31e8aa31245379f32941e2609", "lat": 39.0391035, "fusion_lat": 0.0, "bike_id": "ba161db31e8aa31245379f32941e2609", "is_reserved": 0, "lon": -77.050424, "is_disabled": 0, "fusion_lon": 0.0, "rental_uris": {"android": "https://dc.lft.to/lastmile_qr_scan", "ios": "https://dc.lft.to/lastmile_qr_scan"}}, {"type": "electric_scooter", "name": "8d4e2166f4738b5965e1e49ec2d9ae41", "lat": 38.918368666666666, "fusion_lat": 0.0, "bike_id": "8d4e2166f4738b5965e1e49ec2d9ae41", "is_reserved": 0, "lon": -77.038889, "is_disabled": 0, "fusion_lon": 0.0, "rental_uris": {"android": "https://dc.lft.to/lastmile_qr_scan", "ios": "https://dc.lft.to/lastmile_qr_scan"}}, {"type": "electric_scooter", "name": "95975bd3044296c61fde654d579acbf7", "lat": 38.906894, "fusion_lat": 0.0, "bike_id": "95975bd3044296c61fde654d579acbf7", "is_reserved": 0, "lon": -76.9849575, "is_disabled": 0, "fusion_lon": 0.0, "rental_uris": {"android": "https://dc.lft.to/lastmile_qr_scan", "ios": "https://dc.lft.to/lastmile_qr_scan"}}, {"type": "electric_scooter", "name": "0add0adee6fe16f08264c636494430fd", "lat": 38.879220333333336, "fusion_lat": 0.0, "bike_id": "0add0adee6fe16f08264c636494430fd", "is_reserved": 0, "lon": -77.02151233333333, "is_disabled": 0, "fusion_lon": 0.0, "rental_uris": {"android": "https://dc.lft.to/lastmile_qr_scan", "ios": "https://dc.lft.to/lastmile_qr_scan"}}, {"type": "electric_scooter", "name": "3d2066261e1a2423c88f1bced1437340", "lat": 38.8769265, "fusion_lat": 0.0, "bike_id": "3d2066261e1a2423c88f1bced1437340", "is_reserved": 0, "lon": -77.00057066666666, "is_disabled": 0, "fusion_lon": 0.0, "rental_uris": {"android": "https://dc.lft.to/lastmile_qr_scan", "ios": "https://dc.lft.to/lastmile_qr_scan"}}, {"type": "electric_scooter", "name": "08b6586e612ea7baa80973643f7ff9d9", "lat": 38.897561333333336, "fusion_lat": 0.0, "bike_id": "08b6586e612ea7baa80973643f7ff9d9", "is_reserved": 0, "lon": -77.0188495, "is_disabled": 0, "fusion_lon": 0.0, "rental_uris": {"android": "https://dc.lft.to/lastmile_qr_scan", "ios": "https://dc.lft.to/lastmile_qr_scan"}}, {"type": "electric_scooter", "name": "89bf62b04117ce17c1ce782ae283cf35", "lat": 38.924734, "fusion_lat": 0.0, "bike_id": "89bf62b04117ce17c1ce782ae283cf35", "is_reserved": 0, "lon": -77.0220735, "is_disabled": 0, "fusion_lon": 0.0, "rental_uris": {"android": "https://dc.lft.to/lastmile_qr_scan", "ios": "https://dc.lft.to/lastmile_qr_scan"}}, {"type": "electric_scooter", "name": "bbb6f631791e1213d0464ea573a1e15c", "lat": 38.957306333333335, "fusion_lat": 0.0, "bike_id": "bbb6f631791e1213d0464ea573a1e15c", "is_reserved": 0, "lon": -77.02875716666667, "is_disabled": 0, "fusion_lon": 0.0, "rental_uris": {"android": "https://dc.lft.to/lastmile_qr_scan", "ios": "https://dc.lft.to/lastmile_qr_scan"}}, {"type": "electric_scooter", "name": "ea778dd1f08187c0716f2e6e3576137c", "lat": 38.886292166666664, "fusion_lat": 0.0, "bike_id": "ea778dd1f08187c0716f2e6e3576137c", "is_reserved": 0, "lon": -77.0154535, "is_disabled": 0, "fusion_lon": 0.0, "rental_uris": {"android": "https://dc.lft.to/lastmile_qr_scan", "ios": "https://dc.lft.to/lastmile_qr_scan"}}, {"type": "electric_scooter", "name": "5fd3fa8836f34bb9c7f549b5a97e11cb", "lat": 38.89746866666667, "fusion_lat": 0.0, "bike_id": "5fd3fa8836f34bb9c7f549b5a97e11cb", "is_reserved": 0, "lon": -77.047105, "is_disabled": 0, "fusion_lon": 0.0, "rental_uris": {"android": "https://dc.lft.to/lastmile_qr_scan", "ios": "https://dc.lft.to/lastmile_qr_scan"}}, {"type": "electric_bike", "name": "09c340b3e309a0352c4b136722033d88", "lat": 38.884731333333335, "fusion_lat": 0.0, "bike_id": "09c340b3e309a0352c4b136722033d88", "is_reserved": 0, "lon": -76.95665066666666, "is_disabled": 0, "fusion_lon": 0.0, "rental_uris": {"android": "https://dc.lft.to/lastmile_qr_scan", "ios": "https://dc.lft.to/lastmile_qr_scan"}}, {"type": "electric_scooter", "name": "8c01b731b07edeabf6f939e59dc93766", "lat": 38.903675166666666, "fusion_lat": 0.0, "bike_id": "8c01b731b07edeabf6f939e59dc93766", "is_reserved": 0, "lon": -77.03710683333334, "is_disabled": 0, "fusion_lon": 0.0, "rental_uris": {"android": "https://dc.lft.to/lastmile_qr_scan", "ios": "https://dc.lft.to/lastmile_qr_scan"}}, {"type": "electric_scooter", "name": "9cac0d4320f1a2e7b74d11c1cb6b2931", "lat": 38.900176333333334, "fusion_lat": 0.0, "bike_id": "9cac0d4320f1a2e7b74d11c1cb6b2931", "is_reserved": 0, "lon": -76.99168533333334, "is_disabled": 0, "fusion_lon": 0.0, "rental_uris": {"android": "https://dc.lft.to/lastmile_qr_scan", "ios": "https://dc.lft.to/lastmile_qr_scan"}}, {"type": "electric_scooter", "name": "3d037a0d6256ab72d3cc9e5a94c2a703", "lat": 38.927923166666666, "fusion_lat": 0.0, "bike_id": "3d037a0d6256ab72d3cc9e5a94c2a703", "is_reserved": 0, "lon": -77.0231375, "is_disabled": 0, "fusion_lon": 0.0, "rental_uris": {"android": "https://dc.lft.to/lastmile_qr_scan", "ios": "https://dc.lft.to/lastmile_qr_scan"}}, {"type": "electric_scooter", "name": "ce34bdf663c6f4cf389e77ad9d87a42f", "lat": 38.920054666666665, "fusion_lat": 0.0, "bike_id": "ce34bdf663c6f4cf389e77ad9d87a42f", "is_reserved": 0, "lon": -77.03224066666667, "is_disabled": 0, "fusion_lon": 0.0, "rental_uris": {"android": "https://dc.lft.to/lastmile_qr_scan", "ios": "https://dc.lft.to/lastmile_qr_scan"}}, {"type": "electric_scooter", "name": "11cfd80d88de7454d3d753eb095a00a8", "lat": 38.92161433333333, "fusion_lat": 0.0, "bike_id": "11cfd80d88de7454d3d753eb095a00a8", "is_reserved": 0, "lon": -77.03228, "is_disabled": 0, "fusion_lon": 0.0, "rental_uris": {"android": "https://dc.lft.to/lastmile_qr_scan", "ios": "https://dc.lft.to/lastmile_qr_scan"}}, {"type": "electric_scooter", "name": "f73605b2d0001fba74e2ca351eb38d12", "lat": 38.91583416666667, "fusion_lat": 0.0, "bike_id": "f73605b2d0001fba74e2ca351eb38d12", "is_reserved": 0, "lon": -77.0320655, "is_disabled": 0, "fusion_lon": 0.0, "rental_uris": {"android": "https://dc.lft.to/lastmile_qr_scan", "ios": "https://dc.lft.to/lastmile_qr_scan"}}, {"type": "electric_scooter", "name": "35a643b1665ced91de5de1e668642df8", "lat": 38.92052433333333, "fusion_lat": 0.0, "bike_id": "35a643b1665ced91de5de1e668642df8", "is_reserved": 0, "lon": -77.02575116666667, "is_disabled": 0, "fusion_lon": 0.0, "rental_uris": {"android": "https://dc.lft.to/lastmile_qr_scan", "ios": "https://dc.lft.to/lastmile_qr_scan"}}, {"type": "electric_scooter", "name": "babe254e8daa5176f4ecb8e07398a05c", "lat": 38.930828, "fusion_lat": 0.0, "bike_id": "babe254e8daa5176f4ecb8e07398a05c", "is_reserved": 0, "lon": -77.02791916666666, "is_disabled": 0, "fusion_lon": 0.0, "rental_uris": {"android": "https://dc.lft.to/lastmile_qr_scan", "ios": "https://dc.lft.to/lastmile_qr_scan"}}, {"type": "electric_scooter", "name": "31de221411f3ec5b1b0207a370446354", "lat": 38.85588116666667, "fusion_lat": 0.0, "bike_id": "31de221411f3ec5b1b0207a370446354", "is_reserved": 0, "lon": -76.98722516666666, "is_disabled": 0, "fusion_lon": 0.0, "rental_uris": {"android": "https://dc.lft.to/lastmile_qr_scan", "ios": "https://dc.lft.to/lastmile_qr_scan"}}, {"type": "electric_scooter", "name": "9a44a77e369e6308c4f408817411d6cc", "lat": 38.88708233333333, "fusion_lat": 0.0, "bike_id": "9a44a77e369e6308c4f408817411d6cc", "is_reserved": 0, "lon": -77.01371166666667, "is_disabled": 0, "fusion_lon": 0.0, "rental_uris": {"android": "https://dc.lft.to/lastmile_qr_scan", "ios": "https://dc.lft.to/lastmile_qr_scan"}}, {"type": "electric_scooter", "name": "ca4be3d11965f73861ebb011fb885b2b", "lat": 38.904378666666666, "fusion_lat": 0.0, "bike_id": "ca4be3d11965f73861ebb011fb885b2b", "is_reserved": 0, "lon": -77.04336683333334, "is_disabled": 0, "fusion_lon": 0.0, "rental_uris": {"android": "https://dc.lft.to/lastmile_qr_scan", "ios": "https://dc.lft.to/lastmile_qr_scan"}}, {"type": "electric_scooter", "name": "114b76bca8ccc339f54c791e497a5458", "lat": 38.899156166666664, "fusion_lat": 0.0, "bike_id": "114b76bca8ccc339f54c791e497a5458", "is_reserved": 0, "lon": -77.04033, "is_disabled": 0, "fusion_lon": 0.0, "rental_uris": {"android": "https://dc.lft.to/lastmile_qr_scan", "ios": "https://dc.lft.to/lastmile_qr_scan"}}, {"type": "electric_scooter", "name": "790ce75a06e4987c6034dd5df2fd8bf3", "lat": 38.902848, "fusion_lat": 0.0, "bike_id": "790ce75a06e4987c6034dd5df2fd8bf3", "is_reserved": 0, "lon": -77.02316866666666, "is_disabled": 0, "fusion_lon": 0.0, "rental_uris": {"android": "https://dc.lft.to/lastmile_qr_scan", "ios": "https://dc.lft.to/lastmile_qr_scan"}}, {"type": "electric_scooter", "name": "ed3c0cca886d965201b86b473db7838f", "lat": 38.898496333333334, "fusion_lat": 0.0, "bike_id": "ed3c0cca886d965201b86b473db7838f", "is_reserved": 0, "lon": -77.00743666666666, "is_disabled": 0, "fusion_lon": 0.0, "rental_uris": {"android": "https://dc.lft.to/lastmile_qr_scan", "ios": "https://dc.lft.to/lastmile_qr_scan"}}, {"type": "electric_scooter", "name": "3367bab2f6c85ca161d3dab762240c49", "lat": 38.8983815, "fusion_lat": 0.0, "bike_id": "3367bab2f6c85ca161d3dab762240c49", "is_reserved": 0, "lon": -77.03344466666667, "is_disabled": 0, "fusion_lon": 0.0, "rental_uris": {"android": "https://dc.lft.to/lastmile_qr_scan", "ios": "https://dc.lft.to/lastmile_qr_scan"}}, {"type": "electric_scooter", "name": "fe07cab4d3e8362360a423814fab6294", "lat": 38.884079, "fusion_lat": 0.0, "bike_id": "fe07cab4d3e8362360a423814fab6294", "is_reserved": 0, "lon": -77.01776783333334, "is_disabled": 0, "fusion_lon": 0.0, "rental_uris": {"android": "https://dc.lft.to/lastmile_qr_scan", "ios": "https://dc.lft.to/lastmile_qr_scan"}}, {"type": "electric_scooter", "name": "3b73f9547cfa79ba5f0ef98726f3a73e", "lat": 38.89962116666667, "fusion_lat": 0.0, "bike_id": "3b73f9547cfa79ba5f0ef98726f3a73e", "is_reserved": 0, "lon": -77.02402266666667, "is_disabled": 0, "fusion_lon": 0.0, "rental_uris": {"android": "https://dc.lft.to/lastmile_qr_scan", "ios": "https://dc.lft.to/lastmile_qr_scan"}}, {"type": "electric_scooter", "name": "c85d7f63659d1ba2e4082fa7c3fefe20", "lat": 38.906055333333335, "fusion_lat": 0.0, "bike_id": "c85d7f63659d1ba2e4082fa7c3fefe20", "is_reserved": 0, "lon": -77.00183516666667, "is_disabled": 0, "fusion_lon": 0.0, "rental_uris": {"android": "https://dc.lft.to/lastmile_qr_scan", "ios": "https://dc.lft.to/lastmile_qr_scan"}}, {"type": "electric_scooter", "name": "7edb0fa84321df16b1a3708b2f6856ec", "lat": 38.92731216666667, "fusion_lat": 0.0, "bike_id": "7edb0fa84321df16b1a3708b2f6856ec", "is_reserved": 0, "lon": -77.03237933333334, "is_disabled": 0, "fusion_lon": 0.0, "rental_uris": {"android": "https://dc.lft.to/lastmile_qr_scan", "ios": "https://dc.lft.to/lastmile_qr_scan"}}, {"type": "electric_scooter", "name": "a986201bfa0673d3b862251e2c6e98e7", "lat": 38.9447915, "fusion_lat": 0.0, "bike_id": "a986201bfa0673d3b862251e2c6e98e7", "is_reserved": 0, "lon": -77.0065635, "is_disabled": 0, "fusion_lon": 0.0, "rental_uris": {"android": "https://dc.lft.to/lastmile_qr_scan", "ios": "https://dc.lft.to/lastmile_qr_scan"}}, {"type": "electric_scooter", "name": "ea2834fe2b1dbc1d38ceaa1bf09898d3", "lat": 38.858075166666666, "fusion_lat": 0.0, "bike_id": "ea2834fe2b1dbc1d38ceaa1bf09898d3", "is_reserved": 0, "lon": -76.98652333333334, "is_disabled": 0, "fusion_lon": 0.0, "rental_uris": {"android": "https://dc.lft.to/lastmile_qr_scan", "ios": "https://dc.lft.to/lastmile_qr_scan"}}, {"type": "electric_bike", "name": "bfd85635c601877f90d72d1db130ac05", "lat": 38.827904, "fusion_lat": 0.0, "bike_id": "bfd85635c601877f90d72d1db130ac05", "is_reserved": 0, "lon": -77.12485066666666, "is_disabled": 0, "fusion_lon": 0.0, "rental_uris": {"android": "https://dc.lft.to/lastmile_qr_scan", "ios": "https://dc.lft.to/lastmile_qr_scan"}}, {"type": "electric_scooter", "name": "65005efb53b31e58122bba1027b3aa68", "lat": 38.926387166666665, "fusion_lat": 0.0, "bike_id": "65005efb53b31e58122bba1027b3aa68", "is_reserved": 0, "lon": -77.03715883333334, "is_disabled": 0, "fusion_lon": 0.0, "rental_uris": {"android": "https://dc.lft.to/lastmile_qr_scan", "ios": "https://dc.lft.to/lastmile_qr_scan"}}, {"type": "electric_scooter", "name": "c99e9fe3ec655b560190761ae4c5e455", "lat": 38.866304166666666, "fusion_lat": 0.0, "bike_id": "c99e9fe3ec655b560190761ae4c5e455", "is_reserved": 0, "lon": -76.9870975, "is_disabled": 0, "fusion_lon": 0.0, "rental_uris": {"android": "https://dc.lft.to/lastmile_qr_scan", "ios": "https://dc.lft.to/lastmile_qr_scan"}}, {"type": "electric_scooter", "name": "450dc64a4e805a6e91e935850b794c5a", "lat": 38.9206985, "fusion_lat": 0.0, "bike_id": "450dc64a4e805a6e91e935850b794c5a", "is_reserved": 0, "lon": -76.99560833333334, "is_disabled": 0, "fusion_lon": 0.0, "rental_uris": {"android": "https://dc.lft.to/lastmile_qr_scan", "ios": "https://dc.lft.to/lastmile_qr_scan"}}, {"type": "electric_scooter", "name": "1a782060912a26f7f1dadbedf6ddf895", "lat": 38.92071033333333, "fusion_lat": 0.0, "bike_id": "1a782060912a26f7f1dadbedf6ddf895", "is_reserved": 0, "lon": -77.02809166666667, "is_disabled": 0, "fusion_lon": 0.0, "rental_uris": {"android": "https://dc.lft.to/lastmile_qr_scan", "ios": "https://dc.lft.to/lastmile_qr_scan"}}, {"type": "electric_scooter", "name": "4f0eacfe2c50b791f65b67f290cfc8ea", "lat": 38.901264833333336, "fusion_lat": 0.0, "bike_id": "4f0eacfe2c50b791f65b67f290cfc8ea", "is_reserved": 0, "lon": -77.04351583333333, "is_disabled": 0, "fusion_lon": 0.0, "rental_uris": {"android": "https://dc.lft.to/lastmile_qr_scan", "ios": "https://dc.lft.to/lastmile_qr_scan"}}, {"type": "electric_scooter", "name": "f45fc15ec20759b2e3cb9800fd1809ec", "lat": 38.90111683333333, "fusion_lat": 0.0, "bike_id": "f45fc15ec20759b2e3cb9800fd1809ec", "is_reserved": 0, "lon": -77.031701, "is_disabled": 0, "fusion_lon": 0.0, "rental_uris": {"android": "https://dc.lft.to/lastmile_qr_scan", "ios": "https://dc.lft.to/lastmile_qr_scan"}}, {"type": "electric_scooter", "name": "41769bace9e5ac0a33e9d4d6331ba671", "lat": 38.894019666666665, "fusion_lat": 0.0, "bike_id": "41769bace9e5ac0a33e9d4d6331ba671", "is_reserved": 0, "lon": -77.02173166666667, "is_disabled": 0, "fusion_lon": 0.0, "rental_uris": {"android": "https://dc.lft.to/lastmile_qr_scan", "ios": "https://dc.lft.to/lastmile_qr_scan"}}, {"type": "electric_bike", "name": "ce0599e75a12dfa3c0125d508d539b9e", "lat": 38.90960916666667, "fusion_lat": 0.0, "bike_id": "ce0599e75a12dfa3c0125d508d539b9e", "is_reserved": 0, "lon": -76.98438933333334, "is_disabled": 0, "fusion_lon": 0.0, "rental_uris": {"android": "https://dc.lft.to/lastmile_qr_scan", "ios": "https://dc.lft.to/lastmile_qr_scan"}}, {"type": "electric_scooter", "name": "34742807f45317f0ed1e824360b1b509", "lat": 38.88414016666667, "fusion_lat": 0.0, "bike_id": "34742807f45317f0ed1e824360b1b509", "is_reserved": 0, "lon": -77.01522583333333, "is_disabled": 0, "fusion_lon": 0.0, "rental_uris": {"android": "https://dc.lft.to/lastmile_qr_scan", "ios": "https://dc.lft.to/lastmile_qr_scan"}}, {"type": "electric_scooter", "name": "a71cca6634a57c3b3dcb24fd4db81bbb", "lat": 38.86685, "fusion_lat": 0.0, "bike_id": "a71cca6634a57c3b3dcb24fd4db81bbb", "is_reserved": 0, "lon": -76.985686, "is_disabled": 0, "fusion_lon": 0.0, "rental_uris": {"android": "https://dc.lft.to/lastmile_qr_scan", "ios": "https://dc.lft.to/lastmile_qr_scan"}}, {"type": "electric_scooter", "name": "ba334eb971bd88aedbe60860b2970e23", "lat": 38.903023, "fusion_lat": 0.0, "bike_id": "ba334eb971bd88aedbe60860b2970e23", "is_reserved": 0, "lon": -77.03864966666667, "is_disabled": 0, "fusion_lon": 0.0, "rental_uris": {"android": "https://dc.lft.to/lastmile_qr_scan", "ios": "https://dc.lft.to/lastmile_qr_scan"}}, {"type": "electric_bike", "name": "64c20f390651338fe34f6b5649b12805", "lat": 38.925300666666665, "fusion_lat": 0.0, "bike_id": "64c20f390651338fe34f6b5649b12805", "is_reserved": 0, "lon": -77.21067916666667, "is_disabled": 0, "fusion_lon": 0.0, "rental_uris": {"android": "https://dc.lft.to/lastmile_qr_scan", "ios": "https://dc.lft.to/lastmile_qr_scan"}}, {"type": "electric_scooter", "name": "8f3233b5a251918192f9837b9dbf76e7", "lat": 38.92469633333333, "fusion_lat": 0.0, "bike_id": "8f3233b5a251918192f9837b9dbf76e7", "is_reserved": 0, "lon": -77.00208483333333, "is_disabled": 0, "fusion_lon": 0.0, "rental_uris": {"android": "https://dc.lft.to/lastmile_qr_scan", "ios": "https://dc.lft.to/lastmile_qr_scan"}}, {"type": "electric_scooter", "name": "2e93e486d4e8dc628f1def62d2337ad0", "lat": 38.9271465, "fusion_lat": 0.0, "bike_id": "2e93e486d4e8dc628f1def62d2337ad0", "is_reserved": 0, "lon": -77.02313083333334, "is_disabled": 0, "fusion_lon": 0.0, "rental_uris": {"android": "https://dc.lft.to/lastmile_qr_scan", "ios": "https://dc.lft.to/lastmile_qr_scan"}}, {"type": "electric_scooter", "name": "e471cec969ace98d1fff02d1ed6f9c72", "lat": 38.92478716666667, "fusion_lat": 0.0, "bike_id": "e471cec969ace98d1fff02d1ed6f9c72", "is_reserved": 0, "lon": -77.02215016666666, "is_disabled": 0, "fusion_lon": 0.0, "rental_uris": {"android": "https://dc.lft.to/lastmile_qr_scan", "ios": "https://dc.lft.to/lastmile_qr_scan"}}, {"type": "electric_scooter", "name": "e286837441dd416f79eea36e1cf715c7", "lat": 38.892520166666664, "fusion_lat": 0.0, "bike_id": "e286837441dd416f79eea36e1cf715c7", "is_reserved": 0, "lon": -77.03954766666666, "is_disabled": 0, "fusion_lon": 0.0, "rental_uris": {"android": "https://dc.lft.to/lastmile_qr_scan", "ios": "https://dc.lft.to/lastmile_qr_scan"}}, {"type": "electric_scooter", "name": "6d7730ca985dd039cde768fe41641c94", "lat": 38.89621666666667, "fusion_lat": 0.0, "bike_id": "6d7730ca985dd039cde768fe41641c94", "is_reserved": 0, "lon": -77.009215, "is_disabled": 0, "fusion_lon": 0.0, "rental_uris": {"android": "https://dc.lft.to/lastmile_qr_scan", "ios": "https://dc.lft.to/lastmile_qr_scan"}}, {"type": "electric_scooter", "name": "0146ee4639f3e62d832d4d1209a5eab6", "lat": 38.917086166666664, "fusion_lat": 0.0, "bike_id": "0146ee4639f3e62d832d4d1209a5eab6", "is_reserved": 0, "lon": -77.0322325, "is_disabled": 0, "fusion_lon": 0.0, "rental_uris": {"android": "https://dc.lft.to/lastmile_qr_scan", "ios": "https://dc.lft.to/lastmile_qr_scan"}}, {"type": "electric_scooter", "name": "340b8b24fc9a55339c433f13ea3c4a00", "lat": 38.896794166666666, "fusion_lat": 0.0, "bike_id": "340b8b24fc9a55339c433f13ea3c4a00", "is_reserved": 0, "lon": -77.02377316666667, "is_disabled": 0, "fusion_lon": 0.0, "rental_uris": {"android": "https://dc.lft.to/lastmile_qr_scan", "ios": "https://dc.lft.to/lastmile_qr_scan"}}, {"type": "electric_scooter", "name": "d6046fca7198df152fe826633018ddd2", "lat": 38.874668666666665, "fusion_lat": 0.0, "bike_id": "d6046fca7198df152fe826633018ddd2", "is_reserved": 0, "lon": -77.004919, "is_disabled": 0, "fusion_lon": 0.0, "rental_uris": {"android": "https://dc.lft.to/lastmile_qr_scan", "ios": "https://dc.lft.to/lastmile_qr_scan"}}, {"type": "electric_scooter", "name": "92e3f76ed4c7ff7b7d4f77dbb06be186", "lat": 38.90909766666667, "fusion_lat": 0.0, "bike_id": "92e3f76ed4c7ff7b7d4f77dbb06be186", "is_reserved": 0, "lon": -77.0718765, "is_disabled": 0, "fusion_lon": 0.0, "rental_uris": {"android": "https://dc.lft.to/lastmile_qr_scan", "ios": "https://dc.lft.to/lastmile_qr_scan"}}, {"type": "electric_scooter", "name": "0b0f8316d85d22a3f85b89a07c1bf90e", "lat": 38.901138333333336, "fusion_lat": 0.0, "bike_id": "0b0f8316d85d22a3f85b89a07c1bf90e", "is_reserved": 0, "lon": -77.031699, "is_disabled": 0, "fusion_lon": 0.0, "rental_uris": {"android": "https://dc.lft.to/lastmile_qr_scan", "ios": "https://dc.lft.to/lastmile_qr_scan"}}, {"type": "electric_scooter", "name": "4cd842c968f2590f4425fb46844e80ea", "lat": 38.88492766666667, "fusion_lat": 0.0, "bike_id": "4cd842c968f2590f4425fb46844e80ea", "is_reserved": 0, "lon": -76.95648533333333, "is_disabled": 0, "fusion_lon": 0.0, "rental_uris": {"android": "https://dc.lft.to/lastmile_qr_scan", "ios": "https://dc.lft.to/lastmile_qr_scan"}}, {"type": "electric_scooter", "name": "acff8d3ab8100030ee3be70b03424441", "lat": 38.923200666666666, "fusion_lat": 0.0, "bike_id": "acff8d3ab8100030ee3be70b03424441", "is_reserved": 0, "lon": -77.04517133333333, "is_disabled": 0, "fusion_lon": 0.0, "rental_uris": {"android": "https://dc.lft.to/lastmile_qr_scan", "ios": "https://dc.lft.to/lastmile_qr_scan"}}, {"type": "electric_scooter", "name": "31d7d26b8c152660f5ffb6574e68426c", "lat": 38.90297866666667, "fusion_lat": 0.0, "bike_id": "31d7d26b8c152660f5ffb6574e68426c", "is_reserved": 0, "lon": -77.03429083333333, "is_disabled": 0, "fusion_lon": 0.0, "rental_uris": {"android": "https://dc.lft.to/lastmile_qr_scan", "ios": "https://dc.lft.to/lastmile_qr_scan"}}, {"type": "electric_scooter", "name": "bc9c172e059c871a82e2888b33c246e7", "lat": 38.92420466666667, "fusion_lat": 0.0, "bike_id": "bc9c172e059c871a82e2888b33c246e7", "is_reserved": 0, "lon": -77.01945716666667, "is_disabled": 0, "fusion_lon": 0.0, "rental_uris": {"android": "https://dc.lft.to/lastmile_qr_scan", "ios": "https://dc.lft.to/lastmile_qr_scan"}}, {"type": "electric_scooter", "name": "28066e925941eff3e5786c5191470fe5", "lat": 38.92752, "fusion_lat": 0.0, "bike_id": "28066e925941eff3e5786c5191470fe5", "is_reserved": 0, "lon": -77.03308633333333, "is_disabled": 0, "fusion_lon": 0.0, "rental_uris": {"android": "https://dc.lft.to/lastmile_qr_scan", "ios": "https://dc.lft.to/lastmile_qr_scan"}}, {"type": "electric_scooter", "name": "6cc6038d879ec6480ded24eee3d2c3e2", "lat": 38.9037245, "fusion_lat": 0.0, "bike_id": "6cc6038d879ec6480ded24eee3d2c3e2", "is_reserved": 0, "lon": -77.040256, "is_disabled": 0, "fusion_lon": 0.0, "rental_uris": {"android": "https://dc.lft.to/lastmile_qr_scan", "ios": "https://dc.lft.to/lastmile_qr_scan"}}, {"type": "electric_scooter", "name": "6328d1b085f22a7346bc4d107a04dbc5", "lat": 38.87394233333333, "fusion_lat": 0.0, "bike_id": "6328d1b085f22a7346bc4d107a04dbc5", "is_reserved": 0, "lon": -76.99999633333333, "is_disabled": 0, "fusion_lon": 0.0, "rental_uris": {"android": "https://dc.lft.to/lastmile_qr_scan", "ios": "https://dc.lft.to/lastmile_qr_scan"}}, {"type": "electric_scooter", "name": "27f31f2e796f37b5d54c558aea0b5b48", "lat": 38.90170716666667, "fusion_lat": 0.0, "bike_id": "27f31f2e796f37b5d54c558aea0b5b48", "is_reserved": 0, "lon": -77.05911833333333, "is_disabled": 0, "fusion_lon": 0.0, "rental_uris": {"android": "https://dc.lft.to/lastmile_qr_scan", "ios": "https://dc.lft.to/lastmile_qr_scan"}}, {"type": "electric_scooter", "name": "85a9834f073b7777eea315e51a4f5ea6", "lat": 38.952022, "fusion_lat": 0.0, "bike_id": "85a9834f073b7777eea315e51a4f5ea6", "is_reserved": 0, "lon": -77.02733383333333, "is_disabled": 0, "fusion_lon": 0.0, "rental_uris": {"android": "https://dc.lft.to/lastmile_qr_scan", "ios": "https://dc.lft.to/lastmile_qr_scan"}}, {"type": "electric_scooter", "name": "7998b7ef639713b0c270a5868a5194b5", "lat": 38.88747466666667, "fusion_lat": 0.0, "bike_id": "7998b7ef639713b0c270a5868a5194b5", "is_reserved": 0, "lon": -77.02228633333333, "is_disabled": 0, "fusion_lon": 0.0, "rental_uris": {"android": "https://dc.lft.to/lastmile_qr_scan", "ios": "https://dc.lft.to/lastmile_qr_scan"}}, {"type": "electric_scooter", "name": "49776291345538db11923e69b2a15a91", "lat": 38.9111255, "fusion_lat": 0.0, "bike_id": "49776291345538db11923e69b2a15a91", "is_reserved": 0, "lon": -77.03829483333334, "is_disabled": 0, "fusion_lon": 0.0, "rental_uris": {"android": "https://dc.lft.to/lastmile_qr_scan", "ios": "https://dc.lft.to/lastmile_qr_scan"}}, {"type": "electric_scooter", "name": "c4880187f76e986e92f557f8fbc6984c", "lat": 38.9212345, "fusion_lat": 0.0, "bike_id": "c4880187f76e986e92f557f8fbc6984c", "is_reserved": 0, "lon": -77.02094816666667, "is_disabled": 0, "fusion_lon": 0.0, "rental_uris": {"android": "https://dc.lft.to/lastmile_qr_scan", "ios": "https://dc.lft.to/lastmile_qr_scan"}}, {"type": "electric_scooter", "name": "b7086c9227498e9ab68977b982a6ad78", "lat": 38.911134, "fusion_lat": 0.0, "bike_id": "b7086c9227498e9ab68977b982a6ad78", "is_reserved": 0, "lon": -77.03829216666666, "is_disabled": 0, "fusion_lon": 0.0, "rental_uris": {"android": "https://dc.lft.to/lastmile_qr_scan", "ios": "https://dc.lft.to/lastmile_qr_scan"}}, {"type": "electric_scooter", "name": "4180b99263cb2f029ebc8885bfaf36bc", "lat": 38.898407166666665, "fusion_lat": 0.0, "bike_id": "4180b99263cb2f029ebc8885bfaf36bc", "is_reserved": 0, "lon": -77.0126995, "is_disabled": 0, "fusion_lon": 0.0, "rental_uris": {"android": "https://dc.lft.to/lastmile_qr_scan", "ios": "https://dc.lft.to/lastmile_qr_scan"}}, {"type": "electric_bike", "name": "59cc87c9f5afaa15df2607399aab0493", "lat": 39.01080366666667, "fusion_lat": 0.0, "bike_id": "59cc87c9f5afaa15df2607399aab0493", "is_reserved": 0, "lon": -76.910682, "is_disabled": 0, "fusion_lon": 0.0, "rental_uris": {"android": "https://dc.lft.to/lastmile_qr_scan", "ios": "https://dc.lft.to/lastmile_qr_scan"}}, {"type": "electric_scooter", "name": "34d1e2bfb1dbedd351dd7b91a6b33ce8", "lat": 38.90988383333333, "fusion_lat": 0.0, "bike_id": "34d1e2bfb1dbedd351dd7b91a6b33ce8", "is_reserved": 0, "lon": -77.004962, "is_disabled": 0, "fusion_lon": 0.0, "rental_uris": {"android": "https://dc.lft.to/lastmile_qr_scan", "ios": "https://dc.lft.to/lastmile_qr_scan"}}, {"type": "electric_scooter", "name": "12a1e10306606d25e22e8b4eeff3d06c", "lat": 38.90980916666667, "fusion_lat": 0.0, "bike_id": "12a1e10306606d25e22e8b4eeff3d06c", "is_reserved": 0, "lon": -77.04435816666667, "is_disabled": 0, "fusion_lon": 0.0, "rental_uris": {"android": "https://dc.lft.to/lastmile_qr_scan", "ios": "https://dc.lft.to/lastmile_qr_scan"}}, {"type": "electric_scooter", "name": "0bfb7966ccc83804232c277e7960b8fa", "lat": 38.90267683333333, "fusion_lat": 0.0, "bike_id": "0bfb7966ccc83804232c277e7960b8fa", "is_reserved": 0, "lon": -77.03954566666667, "is_disabled": 0, "fusion_lon": 0.0, "rental_uris": {"android": "https://dc.lft.to/lastmile_qr_scan", "ios": "https://dc.lft.to/lastmile_qr_scan"}}, {"type": "electric_scooter", "name": "e9f809c23a96c5d9ff4100d7efa5265b", "lat": 38.9327685, "fusion_lat": 0.0, "bike_id": "e9f809c23a96c5d9ff4100d7efa5265b", "is_reserved": 0, "lon": -77.03866783333334, "is_disabled": 0, "fusion_lon": 0.0, "rental_uris": {"android": "https://dc.lft.to/lastmile_qr_scan", "ios": "https://dc.lft.to/lastmile_qr_scan"}}, {"type": "electric_scooter", "name": "fc95a13fc1509c07557c651fe1dcb803", "lat": 38.907320166666665, "fusion_lat": 0.0, "bike_id": "fc95a13fc1509c07557c651fe1dcb803", "is_reserved": 0, "lon": -77.02372, "is_disabled": 0, "fusion_lon": 0.0, "rental_uris": {"android": "https://dc.lft.to/lastmile_qr_scan", "ios": "https://dc.lft.to/lastmile_qr_scan"}}, {"type": "electric_scooter", "name": "e39eab760702dadd7ca87a52be30c3cf", "lat": 38.893444833333334, "fusion_lat": 0.0, "bike_id": "e39eab760702dadd7ca87a52be30c3cf", "is_reserved": 0, "lon": -76.9396835, "is_disabled": 0, "fusion_lon": 0.0, "rental_uris": {"android": "https://dc.lft.to/lastmile_qr_scan", "ios": "https://dc.lft.to/lastmile_qr_scan"}}, {"type": "electric_scooter", "name": "45f4484d3c7e8e21c991de47623aae35", "lat": 38.902542333333336, "fusion_lat": 0.0, "bike_id": "45f4484d3c7e8e21c991de47623aae35", "is_reserved": 0, "lon": -77.039463, "is_disabled": 0, "fusion_lon": 0.0, "rental_uris": {"android": "https://dc.lft.to/lastmile_qr_scan", "ios": "https://dc.lft.to/lastmile_qr_scan"}}, {"type": "electric_scooter", "name": "b1ea0b1a68cf96e61ff1cac7140469ff", "lat": 38.911100833333336, "fusion_lat": 0.0, "bike_id": "b1ea0b1a68cf96e61ff1cac7140469ff", "is_reserved": 0, "lon": -77.04231083333333, "is_disabled": 0, "fusion_lon": 0.0, "rental_uris": {"android": "https://dc.lft.to/lastmile_qr_scan", "ios": "https://dc.lft.to/lastmile_qr_scan"}}, {"type": "electric_scooter", "name": "7fcb07b2ff5e8fdd33856437e9baa138", "lat": 38.9444315, "fusion_lat": 0.0, "bike_id": "7fcb07b2ff5e8fdd33856437e9baa138", "is_reserved": 0, "lon": -77.0640375, "is_disabled": 0, "fusion_lon": 0.0, "rental_uris": {"android": "https://dc.lft.to/lastmile_qr_scan", "ios": "https://dc.lft.to/lastmile_qr_scan"}}, {"type": "electric_scooter", "name": "de8a2916b9ca880825bfabffec808502", "lat": 38.8948635, "fusion_lat": 0.0, "bike_id": "de8a2916b9ca880825bfabffec808502", "is_reserved": 0, "lon": -77.02066133333334, "is_disabled": 0, "fusion_lon": 0.0, "rental_uris": {"android": "https://dc.lft.to/lastmile_qr_scan", "ios": "https://dc.lft.to/lastmile_qr_scan"}}, {"type": "electric_scooter", "name": "8054fc6378c70f02db825bbfdccb2bc3", "lat": 38.90974, "fusion_lat": 0.0, "bike_id": "8054fc6378c70f02db825bbfdccb2bc3", "is_reserved": 0, "lon": -77.04520283333333, "is_disabled": 0, "fusion_lon": 0.0, "rental_uris": {"android": "https://dc.lft.to/lastmile_qr_scan", "ios": "https://dc.lft.to/lastmile_qr_scan"}}, {"type": "electric_scooter", "name": "4ae4146aaefbc4fa5aad8a11cc1a845a", "lat": 38.892224666666664, "fusion_lat": 0.0, "bike_id": "4ae4146aaefbc4fa5aad8a11cc1a845a", "is_reserved": 0, "lon": -77.01352283333334, "is_disabled": 0, "fusion_lon": 0.0, "rental_uris": {"android": "https://dc.lft.to/lastmile_qr_scan", "ios": "https://dc.lft.to/lastmile_qr_scan"}}, {"type": "electric_scooter", "name": "a9bd8791faa65eeca6f5bdc510d291c2", "lat": 38.89918016666667, "fusion_lat": 0.0, "bike_id": "a9bd8791faa65eeca6f5bdc510d291c2", "is_reserved": 0, "lon": -77.032961, "is_disabled": 0, "fusion_lon": 0.0, "rental_uris": {"android": "https://dc.lft.to/lastmile_qr_scan", "ios": "https://dc.lft.to/lastmile_qr_scan"}}, {"type": "electric_scooter", "name": "072164fe0d3caf831610cf52ce2aeb0b", "lat": 38.937505333333334, "fusion_lat": 0.0, "bike_id": "072164fe0d3caf831610cf52ce2aeb0b", "is_reserved": 0, "lon": -77.02525966666667, "is_disabled": 0, "fusion_lon": 0.0, "rental_uris": {"android": "https://dc.lft.to/lastmile_qr_scan", "ios": "https://dc.lft.to/lastmile_qr_scan"}}, {"type": "electric_scooter", "name": "7a08787c65cb709c97acd0e35ed5c200", "lat": 38.924367833333335, "fusion_lat": 0.0, "bike_id": "7a08787c65cb709c97acd0e35ed5c200", "is_reserved": 0, "lon": -77.03407866666667, "is_disabled": 0, "fusion_lon": 0.0, "rental_uris": {"android": "https://dc.lft.to/lastmile_qr_scan", "ios": "https://dc.lft.to/lastmile_qr_scan"}}, {"type": "electric_scooter", "name": "3a2e40016326786eff043b0ec7df8aaf", "lat": 38.924481166666666, "fusion_lat": 0.0, "bike_id": "3a2e40016326786eff043b0ec7df8aaf", "is_reserved": 0, "lon": -77.0214285, "is_disabled": 0, "fusion_lon": 0.0, "rental_uris": {"android": "https://dc.lft.to/lastmile_qr_scan", "ios": "https://dc.lft.to/lastmile_qr_scan"}}, {"type": "electric_scooter", "name": "11420cb5536b22e9323cf5750c2dbeca", "lat": 38.904828, "fusion_lat": 0.0, "bike_id": "11420cb5536b22e9323cf5750c2dbeca", "is_reserved": 0, "lon": -77.02917166666667, "is_disabled": 0, "fusion_lon": 0.0, "rental_uris": {"android": "https://dc.lft.to/lastmile_qr_scan", "ios": "https://dc.lft.to/lastmile_qr_scan"}}, {"type": "electric_scooter", "name": "3ea992bd402583caa345dcc60c952762", "lat": 38.86665716666667, "fusion_lat": 0.0, "bike_id": "3ea992bd402583caa345dcc60c952762", "is_reserved": 0, "lon": -76.988779, "is_disabled": 0, "fusion_lon": 0.0, "rental_uris": {"android": "https://dc.lft.to/lastmile_qr_scan", "ios": "https://dc.lft.to/lastmile_qr_scan"}}, {"type": "electric_scooter", "name": "2824618116ace24e1afe82c849304e24", "lat": 38.9249085, "fusion_lat": 0.0, "bike_id": "2824618116ace24e1afe82c849304e24", "is_reserved": 0, "lon": -77.02136466666667, "is_disabled": 0, "fusion_lon": 0.0, "rental_uris": {"android": "https://dc.lft.to/lastmile_qr_scan", "ios": "https://dc.lft.to/lastmile_qr_scan"}}, {"type": "electric_scooter", "name": "4e1424ec18f460f8ab11ec179d2a8707", "lat": 38.92481083333333, "fusion_lat": 0.0, "bike_id": "4e1424ec18f460f8ab11ec179d2a8707", "is_reserved": 0, "lon": -77.022181, "is_disabled": 0, "fusion_lon": 0.0, "rental_uris": {"android": "https://dc.lft.to/lastmile_qr_scan", "ios": "https://dc.lft.to/lastmile_qr_scan"}}, {"type": "electric_bike", "name": "80e5905cba67d36d0b12c01456709af7", "lat": 38.797000833333335, "fusion_lat": 0.0, "bike_id": "80e5905cba67d36d0b12c01456709af7", "is_reserved": 0, "lon": -77.00369833333333, "is_disabled": 0, "fusion_lon": 0.0, "rental_uris": {"android": "https://dc.lft.to/lastmile_qr_scan", "ios": "https://dc.lft.to/lastmile_qr_scan"}}, {"type": "electric_scooter", "name": "dcd44169f8dd415238b76f62d5a65303", "lat": 38.890424333333335, "fusion_lat": 0.0, "bike_id": "dcd44169f8dd415238b76f62d5a65303", "is_reserved": 0, "lon": -76.9524455, "is_disabled": 0, "fusion_lon": 0.0, "rental_uris": {"android": "https://dc.lft.to/lastmile_qr_scan", "ios": "https://dc.lft.to/lastmile_qr_scan"}}, {"type": "electric_scooter", "name": "4d3d02e8d06bbc7d152863ede571b2ab", "lat": 38.899537, "fusion_lat": 0.0, "bike_id": "4d3d02e8d06bbc7d152863ede571b2ab", "is_reserved": 0, "lon": -76.98152933333333, "is_disabled": 0, "fusion_lon": 0.0, "rental_uris": {"android": "https://dc.lft.to/lastmile_qr_scan", "ios": "https://dc.lft.to/lastmile_qr_scan"}}, {"type": "electric_scooter", "name": "008976c0a9d2f929b6cde6a3ea6ccd38", "lat": 38.9078585, "fusion_lat": 0.0, "bike_id": "008976c0a9d2f929b6cde6a3ea6ccd38", "is_reserved": 0, "lon": -77.02711816666667, "is_disabled": 0, "fusion_lon": 0.0, "rental_uris": {"android": "https://dc.lft.to/lastmile_qr_scan", "ios": "https://dc.lft.to/lastmile_qr_scan"}}, {"type": "electric_scooter", "name": "e6d38488f48c90dd9926a5660fc37eb8", "lat": 38.8978965, "fusion_lat": 0.0, "bike_id": "e6d38488f48c90dd9926a5660fc37eb8", "is_reserved": 0, "lon": -77.0135055, "is_disabled": 0, "fusion_lon": 0.0, "rental_uris": {"android": "https://dc.lft.to/lastmile_qr_scan", "ios": "https://dc.lft.to/lastmile_qr_scan"}}, {"type": "electric_scooter", "name": "03cd18a45cb865a769c263dbdb7cf8a1", "lat": 38.92869366666667, "fusion_lat": 0.0, "bike_id": "03cd18a45cb865a769c263dbdb7cf8a1", "is_reserved": 0, "lon": -77.02724116666667, "is_disabled": 0, "fusion_lon": 0.0, "rental_uris": {"android": "https://dc.lft.to/lastmile_qr_scan", "ios": "https://dc.lft.to/lastmile_qr_scan"}}, {"type": "electric_scooter", "name": "7befe8305f82b428dd5aff2cb1a292b8", "lat": 38.903156, "fusion_lat": 0.0, "bike_id": "7befe8305f82b428dd5aff2cb1a292b8", "is_reserved": 0, "lon": -77.04346833333334, "is_disabled": 0, "fusion_lon": 0.0, "rental_uris": {"android": "https://dc.lft.to/lastmile_qr_scan", "ios": "https://dc.lft.to/lastmile_qr_scan"}}, {"type": "electric_scooter", "name": "33a8fbe5be8d671438c8f39309aef87f", "lat": 38.903707, "fusion_lat": 0.0, "bike_id": "33a8fbe5be8d671438c8f39309aef87f", "is_reserved": 0, "lon": -77.03467016666667, "is_disabled": 0, "fusion_lon": 0.0, "rental_uris": {"android": "https://dc.lft.to/lastmile_qr_scan", "ios": "https://dc.lft.to/lastmile_qr_scan"}}, {"type": "electric_scooter", "name": "c2f33dfd6d6b7c9865ef07bf9366ffe6", "lat": 38.917093666666666, "fusion_lat": 0.0, "bike_id": "c2f33dfd6d6b7c9865ef07bf9366ffe6", "is_reserved": 0, "lon": -77.02826233333333, "is_disabled": 0, "fusion_lon": 0.0, "rental_uris": {"android": "https://dc.lft.to/lastmile_qr_scan", "ios": "https://dc.lft.to/lastmile_qr_scan"}}, {"type": "electric_bike", "name": "c7c668ff27ec25b494e2113f96639280", "lat": 38.959856, "fusion_lat": 0.0, "bike_id": "c7c668ff27ec25b494e2113f96639280", "is_reserved": 0, "lon": -76.9693955, "is_disabled": 0, "fusion_lon": 0.0, "rental_uris": {"android": "https://dc.lft.to/lastmile_qr_scan", "ios": "https://dc.lft.to/lastmile_qr_scan"}}, {"type": "electric_scooter", "name": "ca08e01a5ba1cb30c2f56c423d8d4a1c", "lat": 38.894890833333335, "fusion_lat": 0.0, "bike_id": "ca08e01a5ba1cb30c2f56c423d8d4a1c", "is_reserved": 0, "lon": -77.02175383333334, "is_disabled": 0, "fusion_lon": 0.0, "rental_uris": {"android": "https://dc.lft.to/lastmile_qr_scan", "ios": "https://dc.lft.to/lastmile_qr_scan"}}, {"type": "electric_scooter", "name": "67483c66de9363e0c83e8594fa432910", "lat": 38.8960755, "fusion_lat": 0.0, "bike_id": "67483c66de9363e0c83e8594fa432910", "is_reserved": 0, "lon": -77.045139, "is_disabled": 0, "fusion_lon": 0.0, "rental_uris": {"android": "https://dc.lft.to/lastmile_qr_scan", "ios": "https://dc.lft.to/lastmile_qr_scan"}}, {"type": "electric_scooter", "name": "ec5ece01d8e4866d444ca8924883a70f", "lat": 38.926740333333335, "fusion_lat": 0.0, "bike_id": "ec5ece01d8e4866d444ca8924883a70f", "is_reserved": 0, "lon": -77.02258283333333, "is_disabled": 0, "fusion_lon": 0.0, "rental_uris": {"android": "https://dc.lft.to/lastmile_qr_scan", "ios": "https://dc.lft.to/lastmile_qr_scan"}}, {"type": "electric_scooter", "name": "fd7b02fb4a105483a6486b5814fa216e", "lat": 38.931887833333334, "fusion_lat": 0.0, "bike_id": "fd7b02fb4a105483a6486b5814fa216e", "is_reserved": 0, "lon": -77.03103383333334, "is_disabled": 0, "fusion_lon": 0.0, "rental_uris": {"android": "https://dc.lft.to/lastmile_qr_scan", "ios": "https://dc.lft.to/lastmile_qr_scan"}}, {"type": "electric_scooter", "name": "922187e1c7839e9dfb8d8fd0fc00876f", "lat": 38.9192075, "fusion_lat": 0.0, "bike_id": "922187e1c7839e9dfb8d8fd0fc00876f", "is_reserved": 0, "lon": -77.032115, "is_disabled": 0, "fusion_lon": 0.0, "rental_uris": {"android": "https://dc.lft.to/lastmile_qr_scan", "ios": "https://dc.lft.to/lastmile_qr_scan"}}, {"type": "electric_scooter", "name": "2019241be51a3ad609c86037a8e11098", "lat": 38.898504333333335, "fusion_lat": 0.0, "bike_id": "2019241be51a3ad609c86037a8e11098", "is_reserved": 0, "lon": -77.03263733333333, "is_disabled": 0, "fusion_lon": 0.0, "rental_uris": {"android": "https://dc.lft.to/lastmile_qr_scan", "ios": "https://dc.lft.to/lastmile_qr_scan"}}, {"type": "electric_scooter", "name": "f40b7dd15b3ffeb599efbb9bc78d1a21", "lat": 38.897306666666665, "fusion_lat": 0.0, "bike_id": "f40b7dd15b3ffeb599efbb9bc78d1a21", "is_reserved": 0, "lon": -76.99471216666667, "is_disabled": 0, "fusion_lon": 0.0, "rental_uris": {"android": "https://dc.lft.to/lastmile_qr_scan", "ios": "https://dc.lft.to/lastmile_qr_scan"}}, {"type": "electric_scooter", "name": "e1365fbb35189a95bc21cfb49663e596", "lat": 38.9141655, "fusion_lat": 0.0, "bike_id": "e1365fbb35189a95bc21cfb49663e596", "is_reserved": 0, "lon": -77.02232766666667, "is_disabled": 0, "fusion_lon": 0.0, "rental_uris": {"android": "https://dc.lft.to/lastmile_qr_scan", "ios": "https://dc.lft.to/lastmile_qr_scan"}}, {"type": "electric_bike", "name": "5c5ee22923955928343b2e6120b333ef", "lat": 38.95314066666667, "fusion_lat": 0.0, "bike_id": "5c5ee22923955928343b2e6120b333ef", "is_reserved": 0, "lon": -76.99768216666666, "is_disabled": 0, "fusion_lon": 0.0, "rental_uris": {"android": "https://dc.lft.to/lastmile_qr_scan", "ios": "https://dc.lft.to/lastmile_qr_scan"}}, {"type": "electric_scooter", "name": "37af8aa2621e4e9e8cc7ba2d1aea66dd", "lat": 38.9260305, "fusion_lat": 0.0, "bike_id": "37af8aa2621e4e9e8cc7ba2d1aea66dd", "is_reserved": 0, "lon": -77.0122075, "is_disabled": 0, "fusion_lon": 0.0, "rental_uris": {"android": "https://dc.lft.to/lastmile_qr_scan", "ios": "https://dc.lft.to/lastmile_qr_scan"}}, {"type": "electric_scooter", "name": "37a58df0e8f12500a0c1eee49579e328", "lat": 38.903337666666665, "fusion_lat": 0.0, "bike_id": "37a58df0e8f12500a0c1eee49579e328", "is_reserved": 0, "lon": -77.04331266666667, "is_disabled": 0, "fusion_lon": 0.0, "rental_uris": {"android": "https://dc.lft.to/lastmile_qr_scan", "ios": "https://dc.lft.to/lastmile_qr_scan"}}, {"type": "electric_scooter", "name": "78ca714ce424d1d5f31acb59b997bf10", "lat": 38.90233883333333, "fusion_lat": 0.0, "bike_id": "78ca714ce424d1d5f31acb59b997bf10", "is_reserved": 0, "lon": -77.0434895, "is_disabled": 0, "fusion_lon": 0.0, "rental_uris": {"android": "https://dc.lft.to/lastmile_qr_scan", "ios": "https://dc.lft.to/lastmile_qr_scan"}}, {"type": "electric_scooter", "name": "3cc2c6259fa180730d89ad3f247da235", "lat": 38.89244, "fusion_lat": 0.0, "bike_id": "3cc2c6259fa180730d89ad3f247da235", "is_reserved": 0, "lon": -77.03210083333333, "is_disabled": 0, "fusion_lon": 0.0, "rental_uris": {"android": "https://dc.lft.to/lastmile_qr_scan", "ios": "https://dc.lft.to/lastmile_qr_scan"}}, {"type": "electric_scooter", "name": "0f5b6a3f0bc49d482204a5cfa1e662ad", "lat": 38.88487966666667, "fusion_lat": 0.0, "bike_id": "0f5b6a3f0bc49d482204a5cfa1e662ad", "is_reserved": 0, "lon": -77.0070895, "is_disabled": 0, "fusion_lon": 0.0, "rental_uris": {"android": "https://dc.lft.to/lastmile_qr_scan", "ios": "https://dc.lft.to/lastmile_qr_scan"}}, {"type": "electric_scooter", "name": "a2fbfa5d4dd18b46b7c38dc0770df90c", "lat": 38.907347, "fusion_lat": 0.0, "bike_id": "a2fbfa5d4dd18b46b7c38dc0770df90c", "is_reserved": 0, "lon": -77.04277433333333, "is_disabled": 0, "fusion_lon": 0.0, "rental_uris": {"android": "https://dc.lft.to/lastmile_qr_scan", "ios": "https://dc.lft.to/lastmile_qr_scan"}}, {"type": "electric_scooter", "name": "7ad7d2b1cd07fa8c5298072a29789add", "lat": 38.8676335, "fusion_lat": 0.0, "bike_id": "7ad7d2b1cd07fa8c5298072a29789add", "is_reserved": 0, "lon": -76.9827405, "is_disabled": 0, "fusion_lon": 0.0, "rental_uris": {"android": "https://dc.lft.to/lastmile_qr_scan", "ios": "https://dc.lft.to/lastmile_qr_scan"}}, {"type": "electric_scooter", "name": "378ac46a3775ad3afb4bd7ede3cebc75", "lat": 38.952324833333336, "fusion_lat": 0.0, "bike_id": "378ac46a3775ad3afb4bd7ede3cebc75", "is_reserved": 0, "lon": -77.01377016666666, "is_disabled": 0, "fusion_lon": 0.0, "rental_uris": {"android": "https://dc.lft.to/lastmile_qr_scan", "ios": "https://dc.lft.to/lastmile_qr_scan"}}, {"type": "electric_scooter", "name": "5af8cc8362455b8da76fe95b104a21ea", "lat": 38.9247045, "fusion_lat": 0.0, "bike_id": "5af8cc8362455b8da76fe95b104a21ea", "is_reserved": 0, "lon": -77.02266416666667, "is_disabled": 0, "fusion_lon": 0.0, "rental_uris": {"android": "https://dc.lft.to/lastmile_qr_scan", "ios": "https://dc.lft.to/lastmile_qr_scan"}}, {"type": "electric_scooter", "name": "094aa1f4ab6ca5f021ce010cf401ee64", "lat": 38.881515, "fusion_lat": 0.0, "bike_id": "094aa1f4ab6ca5f021ce010cf401ee64", "is_reserved": 0, "lon": -77.02702066666667, "is_disabled": 0, "fusion_lon": 0.0, "rental_uris": {"android": "https://dc.lft.to/lastmile_qr_scan", "ios": "https://dc.lft.to/lastmile_qr_scan"}}, {"type": "electric_scooter", "name": "02518432f4ada527fa81280ac3ba2e04", "lat": 38.91613366666667, "fusion_lat": 0.0, "bike_id": "02518432f4ada527fa81280ac3ba2e04", "is_reserved": 0, "lon": -77.04616083333333, "is_disabled": 0, "fusion_lon": 0.0, "rental_uris": {"android": "https://dc.lft.to/lastmile_qr_scan", "ios": "https://dc.lft.to/lastmile_qr_scan"}}, {"type": "electric_scooter", "name": "7127a98525d7ef9228e28b360d1dad3c", "lat": 38.88737966666667, "fusion_lat": 0.0, "bike_id": "7127a98525d7ef9228e28b360d1dad3c", "is_reserved": 0, "lon": -77.0258185, "is_disabled": 0, "fusion_lon": 0.0, "rental_uris": {"android": "https://dc.lft.to/lastmile_qr_scan", "ios": "https://dc.lft.to/lastmile_qr_scan"}}, {"type": "electric_scooter", "name": "e781fbc94789a3dc16d0298b2f2459fa", "lat": 38.883118833333334, "fusion_lat": 0.0, "bike_id": "e781fbc94789a3dc16d0298b2f2459fa", "is_reserved": 0, "lon": -77.017679, "is_disabled": 0, "fusion_lon": 0.0, "rental_uris": {"android": "https://dc.lft.to/lastmile_qr_scan", "ios": "https://dc.lft.to/lastmile_qr_scan"}}, {"type": "electric_scooter", "name": "902ff5d0057a8a3aecff8ccdef269a16", "lat": 38.8923605, "fusion_lat": 0.0, "bike_id": "902ff5d0057a8a3aecff8ccdef269a16", "is_reserved": 0, "lon": -77.0217835, "is_disabled": 0, "fusion_lon": 0.0, "rental_uris": {"android": "https://dc.lft.to/lastmile_qr_scan", "ios": "https://dc.lft.to/lastmile_qr_scan"}}, {"type": "electric_scooter", "name": "4deef0baeaa5e4358c57f920a2e3ef60", "lat": 38.901453833333335, "fusion_lat": 0.0, "bike_id": "4deef0baeaa5e4358c57f920a2e3ef60", "is_reserved": 0, "lon": -77.03557283333333, "is_disabled": 0, "fusion_lon": 0.0, "rental_uris": {"android": "https://dc.lft.to/lastmile_qr_scan", "ios": "https://dc.lft.to/lastmile_qr_scan"}}, {"type": "electric_scooter", "name": "8ec89d20d510dc9c9616f3c6a0c20bf7", "lat": 38.86683016666667, "fusion_lat": 0.0, "bike_id": "8ec89d20d510dc9c9616f3c6a0c20bf7", "is_reserved": 0, "lon": -76.98572416666667, "is_disabled": 0, "fusion_lon": 0.0, "rental_uris": {"android": "https://dc.lft.to/lastmile_qr_scan", "ios": "https://dc.lft.to/lastmile_qr_scan"}}, {"type": "electric_scooter", "name": "cc19fc298f441b2809bcbac89b05644f", "lat": 38.897483666666666, "fusion_lat": 0.0, "bike_id": "cc19fc298f441b2809bcbac89b05644f", "is_reserved": 0, "lon": -76.97969183333333, "is_disabled": 0, "fusion_lon": 0.0, "rental_uris": {"android": "https://dc.lft.to/lastmile_qr_scan", "ios": "https://dc.lft.to/lastmile_qr_scan"}}, {"type": "electric_scooter", "name": "c4180b8846af4e570a71db249515bcd0", "lat": 38.89762066666667, "fusion_lat": 0.0, "bike_id": "c4180b8846af4e570a71db249515bcd0", "is_reserved": 0, "lon": -77.05181533333334, "is_disabled": 0, "fusion_lon": 0.0, "rental_uris": {"android": "https://dc.lft.to/lastmile_qr_scan", "ios": "https://dc.lft.to/lastmile_qr_scan"}}, {"type": "electric_scooter", "name": "bfedfb1e14d516d6d6db2b061870856a", "lat": 38.910690833333334, "fusion_lat": 0.0, "bike_id": "bfedfb1e14d516d6d6db2b061870856a", "is_reserved": 0, "lon": -77.04238266666667, "is_disabled": 0, "fusion_lon": 0.0, "rental_uris": {"android": "https://dc.lft.to/lastmile_qr_scan", "ios": "https://dc.lft.to/lastmile_qr_scan"}}, {"type": "electric_scooter", "name": "a887aad46ee6484a30ef5af31793dd0c", "lat": 38.8964565, "fusion_lat": 0.0, "bike_id": "a887aad46ee6484a30ef5af31793dd0c", "is_reserved": 0, "lon": -77.00930616666666, "is_disabled": 0, "fusion_lon": 0.0, "rental_uris": {"android": "https://dc.lft.to/lastmile_qr_scan", "ios": "https://dc.lft.to/lastmile_qr_scan"}}, {"type": "electric_scooter", "name": "7a176df56d899204c678e05f4f6230a5", "lat": 38.89227, "fusion_lat": 0.0, "bike_id": "7a176df56d899204c678e05f4f6230a5", "is_reserved": 0, "lon": -77.04512883333334, "is_disabled": 0, "fusion_lon": 0.0, "rental_uris": {"android": "https://dc.lft.to/lastmile_qr_scan", "ios": "https://dc.lft.to/lastmile_qr_scan"}}, {"type": "electric_scooter", "name": "b7a02ef67d8266c790d97063eccb2e7e", "lat": 38.9409545, "fusion_lat": 0.0, "bike_id": "b7a02ef67d8266c790d97063eccb2e7e", "is_reserved": 0, "lon": -77.03280333333333, "is_disabled": 0, "fusion_lon": 0.0, "rental_uris": {"android": "https://dc.lft.to/lastmile_qr_scan", "ios": "https://dc.lft.to/lastmile_qr_scan"}}, {"type": "electric_scooter", "name": "23c049e6e4cd3c6d3009b2fa6738eb5d", "lat": 38.92744733333333, "fusion_lat": 0.0, "bike_id": "23c049e6e4cd3c6d3009b2fa6738eb5d", "is_reserved": 0, "lon": -77.03424166666667, "is_disabled": 0, "fusion_lon": 0.0, "rental_uris": {"android": "https://dc.lft.to/lastmile_qr_scan", "ios": "https://dc.lft.to/lastmile_qr_scan"}}, {"type": "electric_scooter", "name": "64b4c82ac9787e3f71e6062ed6bead8f", "lat": 38.95586083333333, "fusion_lat": 0.0, "bike_id": "64b4c82ac9787e3f71e6062ed6bead8f", "is_reserved": 0, "lon": -77.07009533333333, "is_disabled": 0, "fusion_lon": 0.0, "rental_uris": {"android": "https://dc.lft.to/lastmile_qr_scan", "ios": "https://dc.lft.to/lastmile_qr_scan"}}, {"type": "electric_scooter", "name": "1b69cb081ee3a057c1d898ecb4997b38", "lat": 38.91140016666667, "fusion_lat": 0.0, "bike_id": "1b69cb081ee3a057c1d898ecb4997b38", "is_reserved": 0, "lon": -77.02197, "is_disabled": 0, "fusion_lon": 0.0, "rental_uris": {"android": "https://dc.lft.to/lastmile_qr_scan", "ios": "https://dc.lft.to/lastmile_qr_scan"}}, {"type": "electric_scooter", "name": "83a6a837509e29a0589e481ba4d2b761", "lat": 38.89885733333333, "fusion_lat": 0.0, "bike_id": "83a6a837509e29a0589e481ba4d2b761", "is_reserved": 0, "lon": -77.00900833333333, "is_disabled": 0, "fusion_lon": 0.0, "rental_uris": {"android": "https://dc.lft.to/lastmile_qr_scan", "ios": "https://dc.lft.to/lastmile_qr_scan"}}, {"type": "electric_scooter", "name": "264bb7951167ff49a2a4457b55cfee86", "lat": 38.915555833333336, "fusion_lat": 0.0, "bike_id": "264bb7951167ff49a2a4457b55cfee86", "is_reserved": 0, "lon": -77.00968716666667, "is_disabled": 0, "fusion_lon": 0.0, "rental_uris": {"android": "https://dc.lft.to/lastmile_qr_scan", "ios": "https://dc.lft.to/lastmile_qr_scan"}}, {"type": "electric_scooter", "name": "ee8c8eb5adeaf7e4843ef528b5673f64", "lat": 38.91416516666666, "fusion_lat": 0.0, "bike_id": "ee8c8eb5adeaf7e4843ef528b5673f64", "is_reserved": 0, "lon": -77.02235883333333, "is_disabled": 0, "fusion_lon": 0.0, "rental_uris": {"android": "https://dc.lft.to/lastmile_qr_scan", "ios": "https://dc.lft.to/lastmile_qr_scan"}}, {"type": "electric_scooter", "name": "3980b808c40c1389661c555cf5c5d7b3", "lat": 38.91427616666667, "fusion_lat": 0.0, "bike_id": "3980b808c40c1389661c555cf5c5d7b3", "is_reserved": 0, "lon": -77.03178266666667, "is_disabled": 0, "fusion_lon": 0.0, "rental_uris": {"android": "https://dc.lft.to/lastmile_qr_scan", "ios": "https://dc.lft.to/lastmile_qr_scan"}}, {"type": "electric_scooter", "name": "af1f3a6420917dff3f2b2b90e744498c", "lat": 38.89540933333333, "fusion_lat": 0.0, "bike_id": "af1f3a6420917dff3f2b2b90e744498c", "is_reserved": 0, "lon": -77.0315305, "is_disabled": 0, "fusion_lon": 0.0, "rental_uris": {"android": "https://dc.lft.to/lastmile_qr_scan", "ios": "https://dc.lft.to/lastmile_qr_scan"}}, {"type": "electric_scooter", "name": "4bebc0f012058aa78b05ba85bd5aadf8", "lat": 38.89940566666667, "fusion_lat": 0.0, "bike_id": "4bebc0f012058aa78b05ba85bd5aadf8", "is_reserved": 0, "lon": -77.04480716666667, "is_disabled": 0, "fusion_lon": 0.0, "rental_uris": {"android": "https://dc.lft.to/lastmile_qr_scan", "ios": "https://dc.lft.to/lastmile_qr_scan"}}, {"type": "electric_scooter", "name": "9b314bcf310dd98a4eddee261f978269", "lat": 38.910473, "fusion_lat": 0.0, "bike_id": "9b314bcf310dd98a4eddee261f978269", "is_reserved": 0, "lon": -77.03126116666667, "is_disabled": 0, "fusion_lon": 0.0, "rental_uris": {"android": "https://dc.lft.to/lastmile_qr_scan", "ios": "https://dc.lft.to/lastmile_qr_scan"}}, {"type": "electric_scooter", "name": "9ac90017659c8e9c23b1c1e956d7ec76", "lat": 38.92684966666667, "fusion_lat": 0.0, "bike_id": "9ac90017659c8e9c23b1c1e956d7ec76", "is_reserved": 0, "lon": -77.0147515, "is_disabled": 0, "fusion_lon": 0.0, "rental_uris": {"android": "https://dc.lft.to/lastmile_qr_scan", "ios": "https://dc.lft.to/lastmile_qr_scan"}}, {"type": "electric_bike", "name": "2bfccc26ab29d8a6845472d7ce45de5d", "lat": 38.80454916666667, "fusion_lat": 0.0, "bike_id": "2bfccc26ab29d8a6845472d7ce45de5d", "is_reserved": 0, "lon": -77.05390066666666, "is_disabled": 0, "fusion_lon": 0.0, "rental_uris": {"android": "https://dc.lft.to/lastmile_qr_scan", "ios": "https://dc.lft.to/lastmile_qr_scan"}}, {"type": "electric_scooter", "name": "742f734874531b2a9a2fa51d75287cac", "lat": 38.898368166666664, "fusion_lat": 0.0, "bike_id": "742f734874531b2a9a2fa51d75287cac", "is_reserved": 0, "lon": -77.041551, "is_disabled": 0, "fusion_lon": 0.0, "rental_uris": {"android": "https://dc.lft.to/lastmile_qr_scan", "ios": "https://dc.lft.to/lastmile_qr_scan"}}, {"type": "electric_scooter", "name": "f53085841bf299466b4793069c9257c7", "lat": 38.91704433333334, "fusion_lat": 0.0, "bike_id": "f53085841bf299466b4793069c9257c7", "is_reserved": 0, "lon": -77.03508233333334, "is_disabled": 0, "fusion_lon": 0.0, "rental_uris": {"android": "https://dc.lft.to/lastmile_qr_scan", "ios": "https://dc.lft.to/lastmile_qr_scan"}}, {"type": "electric_bike", "name": "bcc1e7b86c4b4f83f866c039ea5a1e69", "lat": 38.896182, "fusion_lat": 0.0, "bike_id": "bcc1e7b86c4b4f83f866c039ea5a1e69", "is_reserved": 0, "lon": -76.90738783333333, "is_disabled": 0, "fusion_lon": 0.0, "rental_uris": {"android": "https://dc.lft.to/lastmile_qr_scan", "ios": "https://dc.lft.to/lastmile_qr_scan"}}, {"type": "electric_scooter", "name": "38a77508d56085bf8274e5063c7faaf1", "lat": 38.903218333333335, "fusion_lat": 0.0, "bike_id": "38a77508d56085bf8274e5063c7faaf1", "is_reserved": 0, "lon": -77.03433716666666, "is_disabled": 0, "fusion_lon": 0.0, "rental_uris": {"android": "https://dc.lft.to/lastmile_qr_scan", "ios": "https://dc.lft.to/lastmile_qr_scan"}}, {"type": "electric_scooter", "name": "86e2e7eb5f8d28d232c064e491c2d382", "lat": 38.9083405, "fusion_lat": 0.0, "bike_id": "86e2e7eb5f8d28d232c064e491c2d382", "is_reserved": 0, "lon": -77.03940083333333, "is_disabled": 0, "fusion_lon": 0.0, "rental_uris": {"android": "https://dc.lft.to/lastmile_qr_scan", "ios": "https://dc.lft.to/lastmile_qr_scan"}}, {"type": "electric_scooter", "name": "81c431bbe52bf3b60ac5213c3907f6d5", "lat": 38.8789625, "fusion_lat": 0.0, "bike_id": "81c431bbe52bf3b60ac5213c3907f6d5", "is_reserved": 0, "lon": -77.021913, "is_disabled": 0, "fusion_lon": 0.0, "rental_uris": {"android": "https://dc.lft.to/lastmile_qr_scan", "ios": "https://dc.lft.to/lastmile_qr_scan"}}, {"type": "electric_scooter", "name": "2956976b5890141d982c49b402d29d32", "lat": 38.915968, "fusion_lat": 0.0, "bike_id": "2956976b5890141d982c49b402d29d32", "is_reserved": 0, "lon": -77.02200333333333, "is_disabled": 0, "fusion_lon": 0.0, "rental_uris": {"android": "https://dc.lft.to/lastmile_qr_scan", "ios": "https://dc.lft.to/lastmile_qr_scan"}}, {"type": "electric_scooter", "name": "6399719312626169970d27bead821b9c", "lat": 38.899882, "fusion_lat": 0.0, "bike_id": "6399719312626169970d27bead821b9c", "is_reserved": 0, "lon": -77.00674016666666, "is_disabled": 0, "fusion_lon": 0.0, "rental_uris": {"android": "https://dc.lft.to/lastmile_qr_scan", "ios": "https://dc.lft.to/lastmile_qr_scan"}}, {"type": "electric_scooter", "name": "61be4774b0d6859353befe8ae92c6b81", "lat": 38.904796, "fusion_lat": 0.0, "bike_id": "61be4774b0d6859353befe8ae92c6b81", "is_reserved": 0, "lon": -77.04355033333333, "is_disabled": 0, "fusion_lon": 0.0, "rental_uris": {"android": "https://dc.lft.to/lastmile_qr_scan", "ios": "https://dc.lft.to/lastmile_qr_scan"}}, {"type": "electric_scooter", "name": "70cb64c59aa615697cf7921721fc514c", "lat": 38.901428833333334, "fusion_lat": 0.0, "bike_id": "70cb64c59aa615697cf7921721fc514c", "is_reserved": 0, "lon": -77.01817666666666, "is_disabled": 0, "fusion_lon": 0.0, "rental_uris": {"android": "https://dc.lft.to/lastmile_qr_scan", "ios": "https://dc.lft.to/lastmile_qr_scan"}}, {"type": "electric_scooter", "name": "1a2554f1605de421df3b28ef85ff7e5d", "lat": 38.899674833333336, "fusion_lat": 0.0, "bike_id": "1a2554f1605de421df3b28ef85ff7e5d", "is_reserved": 0, "lon": -77.033893, "is_disabled": 0, "fusion_lon": 0.0, "rental_uris": {"android": "https://dc.lft.to/lastmile_qr_scan", "ios": "https://dc.lft.to/lastmile_qr_scan"}}, {"type": "electric_scooter", "name": "ccc4e14178340d5261592e69b9650887", "lat": 38.903935833333335, "fusion_lat": 0.0, "bike_id": "ccc4e14178340d5261592e69b9650887", "is_reserved": 0, "lon": -77.03999333333333, "is_disabled": 0, "fusion_lon": 0.0, "rental_uris": {"android": "https://dc.lft.to/lastmile_qr_scan", "ios": "https://dc.lft.to/lastmile_qr_scan"}}, {"type": "electric_scooter", "name": "a045c384834e68ffc20f93e4efdc14b2", "lat": 38.86567266666667, "fusion_lat": 0.0, "bike_id": "a045c384834e68ffc20f93e4efdc14b2", "is_reserved": 0, "lon": -76.98336416666666, "is_disabled": 0, "fusion_lon": 0.0, "rental_uris": {"android": "https://dc.lft.to/lastmile_qr_scan", "ios": "https://dc.lft.to/lastmile_qr_scan"}}, {"type": "electric_scooter", "name": "e50bac3bfc58829cec2b6a653ae639df", "lat": 38.892274666666665, "fusion_lat": 0.0, "bike_id": "e50bac3bfc58829cec2b6a653ae639df", "is_reserved": 0, "lon": -77.04512, "is_disabled": 0, "fusion_lon": 0.0, "rental_uris": {"android": "https://dc.lft.to/lastmile_qr_scan", "ios": "https://dc.lft.to/lastmile_qr_scan"}}, {"type": "electric_scooter", "name": "96e03b8bcdbf6b771c185a9a8db280f2", "lat": 38.902501666666666, "fusion_lat": 0.0, "bike_id": "96e03b8bcdbf6b771c185a9a8db280f2", "is_reserved": 0, "lon": -77.02832816666667, "is_disabled": 0, "fusion_lon": 0.0, "rental_uris": {"android": "https://dc.lft.to/lastmile_qr_scan", "ios": "https://dc.lft.to/lastmile_qr_scan"}}, {"type": "electric_scooter", "name": "23c3beff045e5c43016056989c70bd26", "lat": 38.928978, "fusion_lat": 0.0, "bike_id": "23c3beff045e5c43016056989c70bd26", "is_reserved": 0, "lon": -77.01664166666667, "is_disabled": 0, "fusion_lon": 0.0, "rental_uris": {"android": "https://dc.lft.to/lastmile_qr_scan", "ios": "https://dc.lft.to/lastmile_qr_scan"}}, {"type": "electric_scooter", "name": "8d88b2dab6c32a9280d8bdbe2e4716a2", "lat": 38.9038395, "fusion_lat": 0.0, "bike_id": "8d88b2dab6c32a9280d8bdbe2e4716a2", "is_reserved": 0, "lon": -77.03630083333333, "is_disabled": 0, "fusion_lon": 0.0, "rental_uris": {"android": "https://dc.lft.to/lastmile_qr_scan", "ios": "https://dc.lft.to/lastmile_qr_scan"}}, {"type": "electric_scooter", "name": "f96ed439c72f36b753fc4c30a9421c3b", "lat": 38.92335516666667, "fusion_lat": 0.0, "bike_id": "f96ed439c72f36b753fc4c30a9421c3b", "is_reserved": 0, "lon": -77.04300883333333, "is_disabled": 0, "fusion_lon": 0.0, "rental_uris": {"android": "https://dc.lft.to/lastmile_qr_scan", "ios": "https://dc.lft.to/lastmile_qr_scan"}}, {"type": "electric_scooter", "name": "19e0c0cd537a484b620a9215d94c9fe0", "lat": 38.89223033333333, "fusion_lat": 0.0, "bike_id": "19e0c0cd537a484b620a9215d94c9fe0", "is_reserved": 0, "lon": -77.026409, "is_disabled": 0, "fusion_lon": 0.0, "rental_uris": {"android": "https://dc.lft.to/lastmile_qr_scan", "ios": "https://dc.lft.to/lastmile_qr_scan"}}, {"type": "electric_scooter", "name": "baf171f7a5f61b7603758e5580fcd310", "lat": 38.92398716666667, "fusion_lat": 0.0, "bike_id": "baf171f7a5f61b7603758e5580fcd310", "is_reserved": 0, "lon": -77.02490633333333, "is_disabled": 0, "fusion_lon": 0.0, "rental_uris": {"android": "https://dc.lft.to/lastmile_qr_scan", "ios": "https://dc.lft.to/lastmile_qr_scan"}}, {"type": "electric_scooter", "name": "e5fb2286b03dfc9c9a06bf30ebb12b4b", "lat": 38.90663333333333, "fusion_lat": 0.0, "bike_id": "e5fb2286b03dfc9c9a06bf30ebb12b4b", "is_reserved": 0, "lon": -77.046198, "is_disabled": 0, "fusion_lon": 0.0, "rental_uris": {"android": "https://dc.lft.to/lastmile_qr_scan", "ios": "https://dc.lft.to/lastmile_qr_scan"}}, {"type": "electric_scooter", "name": "59a1f58d51f025e528ca4a56a97b0f85", "lat": 38.8830305, "fusion_lat": 0.0, "bike_id": "59a1f58d51f025e528ca4a56a97b0f85", "is_reserved": 0, "lon": -77.0175065, "is_disabled": 0, "fusion_lon": 0.0, "rental_uris": {"android": "https://dc.lft.to/lastmile_qr_scan", "ios": "https://dc.lft.to/lastmile_qr_scan"}}, {"type": "electric_scooter", "name": "fb5b3c85cf03eb23a44abe5e42c6e9a2", "lat": 38.89471566666667, "fusion_lat": 0.0, "bike_id": "fb5b3c85cf03eb23a44abe5e42c6e9a2", "is_reserved": 0, "lon": -77.01658616666667, "is_disabled": 0, "fusion_lon": 0.0, "rental_uris": {"android": "https://dc.lft.to/lastmile_qr_scan", "ios": "https://dc.lft.to/lastmile_qr_scan"}}, {"type": "electric_scooter", "name": "3c86c23bc6680bc23253b9a65c3b3182", "lat": 38.908678333333334, "fusion_lat": 0.0, "bike_id": "3c86c23bc6680bc23253b9a65c3b3182", "is_reserved": 0, "lon": -77.02498716666666, "is_disabled": 0, "fusion_lon": 0.0, "rental_uris": {"android": "https://dc.lft.to/lastmile_qr_scan", "ios": "https://dc.lft.to/lastmile_qr_scan"}}, {"type": "electric_scooter", "name": "607551d26b19a182764330a6ca626e74", "lat": 38.914955666666664, "fusion_lat": 0.0, "bike_id": "607551d26b19a182764330a6ca626e74", "is_reserved": 0, "lon": -76.98361333333334, "is_disabled": 0, "fusion_lon": 0.0, "rental_uris": {"android": "https://dc.lft.to/lastmile_qr_scan", "ios": "https://dc.lft.to/lastmile_qr_scan"}}, {"type": "electric_scooter", "name": "2df40b98122c35f9c3686fa172527192", "lat": 38.89255383333333, "fusion_lat": 0.0, "bike_id": "2df40b98122c35f9c3686fa172527192", "is_reserved": 0, "lon": -77.02003066666667, "is_disabled": 0, "fusion_lon": 0.0, "rental_uris": {"android": "https://dc.lft.to/lastmile_qr_scan", "ios": "https://dc.lft.to/lastmile_qr_scan"}}, {"type": "electric_bike", "name": "bf99eb80648359eb12e694f6af2886f0", "lat": 38.884983166666665, "fusion_lat": 0.0, "bike_id": "bf99eb80648359eb12e694f6af2886f0", "is_reserved": 0, "lon": -76.95670016666666, "is_disabled": 0, "fusion_lon": 0.0, "rental_uris": {"android": "https://dc.lft.to/lastmile_qr_scan", "ios": "https://dc.lft.to/lastmile_qr_scan"}}, {"type": "electric_scooter", "name": "15af8abc20004b490c672a84e0fb8b92", "lat": 38.887429833333336, "fusion_lat": 0.0, "bike_id": "15af8abc20004b490c672a84e0fb8b92", "is_reserved": 0, "lon": -77.03164583333333, "is_disabled": 0, "fusion_lon": 0.0, "rental_uris": {"android": "https://dc.lft.to/lastmile_qr_scan", "ios": "https://dc.lft.to/lastmile_qr_scan"}}, {"type": "electric_scooter", "name": "a9968d5901bda5f23b94d85c379b0bda", "lat": 38.89852316666666, "fusion_lat": 0.0, "bike_id": "a9968d5901bda5f23b94d85c379b0bda", "is_reserved": 0, "lon": -76.990298, "is_disabled": 0, "fusion_lon": 0.0, "rental_uris": {"android": "https://dc.lft.to/lastmile_qr_scan", "ios": "https://dc.lft.to/lastmile_qr_scan"}}, {"type": "electric_scooter", "name": "3e14becc592dbec18858f216af908609", "lat": 38.9249285, "fusion_lat": 0.0, "bike_id": "3e14becc592dbec18858f216af908609", "is_reserved": 0, "lon": -77.02155233333333, "is_disabled": 0, "fusion_lon": 0.0, "rental_uris": {"android": "https://dc.lft.to/lastmile_qr_scan", "ios": "https://dc.lft.to/lastmile_qr_scan"}}, {"type": "electric_scooter", "name": "84d474b814c1922bed07470d4266dd11", "lat": 38.88617033333333, "fusion_lat": 0.0, "bike_id": "84d474b814c1922bed07470d4266dd11", "is_reserved": 0, "lon": -77.012485, "is_disabled": 0, "fusion_lon": 0.0, "rental_uris": {"android": "https://dc.lft.to/lastmile_qr_scan", "ios": "https://dc.lft.to/lastmile_qr_scan"}}, {"type": "electric_scooter", "name": "d0d4c1da811e9fb8bb98d191f05568aa", "lat": 38.89237383333333, "fusion_lat": 0.0, "bike_id": "d0d4c1da811e9fb8bb98d191f05568aa", "is_reserved": 0, "lon": -77.04998883333333, "is_disabled": 0, "fusion_lon": 0.0, "rental_uris": {"android": "https://dc.lft.to/lastmile_qr_scan", "ios": "https://dc.lft.to/lastmile_qr_scan"}}, {"type": "electric_scooter", "name": "6a8587c1a8c84d6e04eec9852b9efebe", "lat": 38.924397666666664, "fusion_lat": 0.0, "bike_id": "6a8587c1a8c84d6e04eec9852b9efebe", "is_reserved": 0, "lon": -77.02027733333334, "is_disabled": 0, "fusion_lon": 0.0, "rental_uris": {"android": "https://dc.lft.to/lastmile_qr_scan", "ios": "https://dc.lft.to/lastmile_qr_scan"}}, {"type": "electric_scooter", "name": "572d6dae04959e75eea3fe6b959371ab", "lat": 38.89731233333333, "fusion_lat": 0.0, "bike_id": "572d6dae04959e75eea3fe6b959371ab", "is_reserved": 0, "lon": -76.99469, "is_disabled": 0, "fusion_lon": 0.0, "rental_uris": {"android": "https://dc.lft.to/lastmile_qr_scan", "ios": "https://dc.lft.to/lastmile_qr_scan"}}, {"type": "electric_scooter", "name": "95b1ec3ab2c0a8c6c2754a3ad76a4a10", "lat": 38.90868366666667, "fusion_lat": 0.0, "bike_id": "95b1ec3ab2c0a8c6c2754a3ad76a4a10", "is_reserved": 0, "lon": -77.06912683333333, "is_disabled": 0, "fusion_lon": 0.0, "rental_uris": {"android": "https://dc.lft.to/lastmile_qr_scan", "ios": "https://dc.lft.to/lastmile_qr_scan"}}, {"type": "electric_scooter", "name": "862222347fd3639b60b78c4cf17f8a45", "lat": 38.916877166666666, "fusion_lat": 0.0, "bike_id": "862222347fd3639b60b78c4cf17f8a45", "is_reserved": 0, "lon": -77.04659016666666, "is_disabled": 0, "fusion_lon": 0.0, "rental_uris": {"android": "https://dc.lft.to/lastmile_qr_scan", "ios": "https://dc.lft.to/lastmile_qr_scan"}}, {"type": "electric_scooter", "name": "b27ffb7b9fb4e8cd282eb1daf9540b8c", "lat": 38.914206166666666, "fusion_lat": 0.0, "bike_id": "b27ffb7b9fb4e8cd282eb1daf9540b8c", "is_reserved": 0, "lon": -77.031713, "is_disabled": 0, "fusion_lon": 0.0, "rental_uris": {"android": "https://dc.lft.to/lastmile_qr_scan", "ios": "https://dc.lft.to/lastmile_qr_scan"}}, {"type": "electric_bike", "name": "edfde3c180ba87dcd8069d06383193b8", "lat": 38.880908833333336, "fusion_lat": 0.0, "bike_id": "edfde3c180ba87dcd8069d06383193b8", "is_reserved": 0, "lon": -77.02592833333334, "is_disabled": 0, "fusion_lon": 0.0, "rental_uris": {"android": "https://dc.lft.to/lastmile_qr_scan", "ios": "https://dc.lft.to/lastmile_qr_scan"}}, {"type": "electric_scooter", "name": "e97c3f388afa7080e053887b5bf2cf93", "lat": 38.9012935, "fusion_lat": 0.0, "bike_id": "e97c3f388afa7080e053887b5bf2cf93", "is_reserved": 0, "lon": -77.03881383333334, "is_disabled": 0, "fusion_lon": 0.0, "rental_uris": {"android": "https://dc.lft.to/lastmile_qr_scan", "ios": "https://dc.lft.to/lastmile_qr_scan"}}, {"type": "electric_scooter", "name": "e7295f37213417b99a095e122404d2b1", "lat": 38.9149265, "fusion_lat": 0.0, "bike_id": "e7295f37213417b99a095e122404d2b1", "is_reserved": 0, "lon": -77.01856333333333, "is_disabled": 0, "fusion_lon": 0.0, "rental_uris": {"android": "https://dc.lft.to/lastmile_qr_scan", "ios": "https://dc.lft.to/lastmile_qr_scan"}}, {"type": "electric_scooter", "name": "daff5ecf3f52e782861a415f321ca2a9", "lat": 38.90130966666667, "fusion_lat": 0.0, "bike_id": "daff5ecf3f52e782861a415f321ca2a9", "is_reserved": 0, "lon": -77.03824816666666, "is_disabled": 0, "fusion_lon": 0.0, "rental_uris": {"android": "https://dc.lft.to/lastmile_qr_scan", "ios": "https://dc.lft.to/lastmile_qr_scan"}}, {"type": "electric_scooter", "name": "57f602ba24385802224b79d92650b076", "lat": 38.916496, "fusion_lat": 0.0, "bike_id": "57f602ba24385802224b79d92650b076", "is_reserved": 0, "lon": -77.0415975, "is_disabled": 0, "fusion_lon": 0.0, "rental_uris": {"android": "https://dc.lft.to/lastmile_qr_scan", "ios": "https://dc.lft.to/lastmile_qr_scan"}}, {"type": "electric_bike", "name": "10b68ee01ce8824f089b96fc4b63989c", "lat": 38.953353666666665, "fusion_lat": 0.0, "bike_id": "10b68ee01ce8824f089b96fc4b63989c", "is_reserved": 0, "lon": -76.98251783333333, "is_disabled": 0, "fusion_lon": 0.0, "rental_uris": {"android": "https://dc.lft.to/lastmile_qr_scan", "ios": "https://dc.lft.to/lastmile_qr_scan"}}, {"type": "electric_scooter", "name": "b5bdbfe67e430233a89ac0bd4b54bb14", "lat": 38.89699316666667, "fusion_lat": 0.0, "bike_id": "b5bdbfe67e430233a89ac0bd4b54bb14", "is_reserved": 0, "lon": -77.0161415, "is_disabled": 0, "fusion_lon": 0.0, "rental_uris": {"android": "https://dc.lft.to/lastmile_qr_scan", "ios": "https://dc.lft.to/lastmile_qr_scan"}}, {"type": "electric_scooter", "name": "9b2e6ab9f7b3b9ac45e0eb1717d2e845", "lat": 38.91112566666666, "fusion_lat": 0.0, "bike_id": "9b2e6ab9f7b3b9ac45e0eb1717d2e845", "is_reserved": 0, "lon": -77.03827566666666, "is_disabled": 0, "fusion_lon": 0.0, "rental_uris": {"android": "https://dc.lft.to/lastmile_qr_scan", "ios": "https://dc.lft.to/lastmile_qr_scan"}}, {"type": "electric_scooter", "name": "964a2c5b21411ac1f4338f60edb8513c", "lat": 38.91143116666667, "fusion_lat": 0.0, "bike_id": "964a2c5b21411ac1f4338f60edb8513c", "is_reserved": 0, "lon": -77.022012, "is_disabled": 0, "fusion_lon": 0.0, "rental_uris": {"android": "https://dc.lft.to/lastmile_qr_scan", "ios": "https://dc.lft.to/lastmile_qr_scan"}}, {"type": "electric_scooter", "name": "4ce86d9cde7ccd7c24f09ae8808a6916", "lat": 38.907793833333336, "fusion_lat": 0.0, "bike_id": "4ce86d9cde7ccd7c24f09ae8808a6916", "is_reserved": 0, "lon": -77.005948, "is_disabled": 0, "fusion_lon": 0.0, "rental_uris": {"android": "https://dc.lft.to/lastmile_qr_scan", "ios": "https://dc.lft.to/lastmile_qr_scan"}}, {"type": "electric_scooter", "name": "f4bb646e2cba4d1fdd3002378d5f7919", "lat": 38.893338, "fusion_lat": 0.0, "bike_id": "f4bb646e2cba4d1fdd3002378d5f7919", "is_reserved": 0, "lon": -76.939245, "is_disabled": 0, "fusion_lon": 0.0, "rental_uris": {"android": "https://dc.lft.to/lastmile_qr_scan", "ios": "https://dc.lft.to/lastmile_qr_scan"}}, {"type": "electric_scooter", "name": "3d891dabf05da7bb3d055193853ba0a5", "lat": 38.9035235, "fusion_lat": 0.0, "bike_id": "3d891dabf05da7bb3d055193853ba0a5", "is_reserved": 0, "lon": -77.0255165, "is_disabled": 0, "fusion_lon": 0.0, "rental_uris": {"android": "https://dc.lft.to/lastmile_qr_scan", "ios": "https://dc.lft.to/lastmile_qr_scan"}}, {"type": "electric_scooter", "name": "ea08f199d35b81a457209a0fd2929c6f", "lat": 38.95261133333333, "fusion_lat": 0.0, "bike_id": "ea08f199d35b81a457209a0fd2929c6f", "is_reserved": 0, "lon": -77.00186533333333, "is_disabled": 0, "fusion_lon": 0.0, "rental_uris": {"android": "https://dc.lft.to/lastmile_qr_scan", "ios": "https://dc.lft.to/lastmile_qr_scan"}}, {"type": "electric_scooter", "name": "6d8a10d2a390c4bbc89d9c11d0e86583", "lat": 38.906750833333334, "fusion_lat": 0.0, "bike_id": "6d8a10d2a390c4bbc89d9c11d0e86583", "is_reserved": 0, "lon": -77.02703116666666, "is_disabled": 0, "fusion_lon": 0.0, "rental_uris": {"android": "https://dc.lft.to/lastmile_qr_scan", "ios": "https://dc.lft.to/lastmile_qr_scan"}}, {"type": "electric_scooter", "name": "eba7e19714f9c0f784df78978940207b", "lat": 38.896566, "fusion_lat": 0.0, "bike_id": "eba7e19714f9c0f784df78978940207b", "is_reserved": 0, "lon": -77.0261955, "is_disabled": 0, "fusion_lon": 0.0, "rental_uris": {"android": "https://dc.lft.to/lastmile_qr_scan", "ios": "https://dc.lft.to/lastmile_qr_scan"}}, {"type": "electric_scooter", "name": "0b3d672aa332f28d39871b13a788b94e", "lat": 38.9013355, "fusion_lat": 0.0, "bike_id": "0b3d672aa332f28d39871b13a788b94e", "is_reserved": 0, "lon": -77.01686683333334, "is_disabled": 0, "fusion_lon": 0.0, "rental_uris": {"android": "https://dc.lft.to/lastmile_qr_scan", "ios": "https://dc.lft.to/lastmile_qr_scan"}}, {"type": "electric_scooter", "name": "bc76ba40795d111546d9324d20ef7cf4", "lat": 38.878936, "fusion_lat": 0.0, "bike_id": "bc76ba40795d111546d9324d20ef7cf4", "is_reserved": 0, "lon": -77.02211133333333, "is_disabled": 0, "fusion_lon": 0.0, "rental_uris": {"android": "https://dc.lft.to/lastmile_qr_scan", "ios": "https://dc.lft.to/lastmile_qr_scan"}}, {"type": "electric_scooter", "name": "efced4eb6d61525ba7263b1ad986629c", "lat": 38.886287333333335, "fusion_lat": 0.0, "bike_id": "efced4eb6d61525ba7263b1ad986629c", "is_reserved": 0, "lon": -77.0153315, "is_disabled": 0, "fusion_lon": 0.0, "rental_uris": {"android": "https://dc.lft.to/lastmile_qr_scan", "ios": "https://dc.lft.to/lastmile_qr_scan"}}, {"type": "electric_scooter", "name": "514bcc0cca9b93c77813bceba5b502bc", "lat": 38.9243075, "fusion_lat": 0.0, "bike_id": "514bcc0cca9b93c77813bceba5b502bc", "is_reserved": 0, "lon": -77.02133233333333, "is_disabled": 0, "fusion_lon": 0.0, "rental_uris": {"android": "https://dc.lft.to/lastmile_qr_scan", "ios": "https://dc.lft.to/lastmile_qr_scan"}},