{"data": {"bikes": [{"rental_uris": {"ios": "https://dc.lft.to/lastmile_qr_scan", "android": "https://dc.lft.to/lastmile_qr_scan"}, "type": "electric_scooter", "name": "085975ff505f80410ab631718899f992", "is_reserved": 0, "lon": -77.01335883333333, "is_disabled": 0, "fusion_lat": 0.0, "lat": 38.881218833333335, "bike_id": "085975ff505f80410ab631718899f992", "fusion_lon": 0.0}, {"rental_uris": {"ios": "https://dc.lft.to/lastmile_qr_scan", "android": "https://dc.lft.to/lastmile_qr_scan"}, "type": "electric_scooter", "name": "c5e3d1016256f6c86bee8bfef3140fca", "is_reserved": 0, "lon": -77.0277595, "is_disabled": 0, "fusion_lat": 0.0, "lat": 38.96580983333333, "bike_id": "c5e3d1016256f6c86bee8bfef3140fca", "fusion_lon": 0.0}, {"rental_uris": {"ios": "https://dc.lft.to/lastmile_qr_scan", "android": "https://dc.lft.to/lastmile_qr_scan"}, "type": "electric_scooter", "name": "8d1cdf5e5dd506f5fe643b572eedbd94", "is_reserved": 0, "lon": -77.03503766666667, "is_disabled": 0, "fusion_lat": 0.0, "lat": 38.917064833333335, "bike_id": "8d1cdf5e5dd506f5fe643b572eedbd94", "fusion_lon": 0.0}, {"rental_uris": {"ios": "https://dc.lft.to/lastmile_qr_scan", "android": "https://dc.lft.to/lastmile_qr_scan"}, "type": "electric_scooter", "name": "62b45a5393736237b8cd3bec8b02280c", "is_reserved": 0, "lon": -77.040971, "is_disabled": 0, "fusion_lat": 0.0, "lat": 38.92069383333333, "bike_id": "62b45a5393736237b8cd3bec8b02280c", "fusion_lon": 0.0}, {"rental_uris": {"ios": "https://dc.lft.to/lastmile_qr_scan", "android": "https://dc.lft.to/lastmile_qr_scan"}, "type": "electric_bike", "name": "57a3a9ef76179dc0c785ce51f4108a4a", "is_reserved": 0, "lon": -77.0954555, "is_disabled": 0, "fusion_lat": 0.0, "lat": 38.85892316666666, "bike_id": "57a3a9ef76179dc0c785ce51f4108a4a", "fusion_lon": 0.0}, {"rental_uris": {"ios": "https://dc.lft.to/lastmile_qr_scan", "android": "https://dc.lft.to/lastmile_qr_scan"}, "type": "electric_scooter", "name": "e32d2af70b23f771011da9c7dad99abe", "is_reserved": 0, "lon": -76.97655183333333, "is_disabled": 0, "fusion_lat": 0.0, "lat": 38.903609833333334, "bike_id": "e32d2af70b23f771011da9c7dad99abe", "fusion_lon": 0.0}, {"rental_uris": {"ios": "https://dc.lft.to/lastmile_qr_scan", "android": "https://dc.lft.to/lastmile_qr_scan"}, "type": "electric_scooter", "name": "4929150d23c0dfe269794057c95f07b4", "is_reserved": 0, "lon": -77.038524, "is_disabled": 0, "fusion_lat": 0.0, "lat": 38.903802, "bike_id": "4929150d23c0dfe269794057c95f07b4", "fusion_lon": 0.0}, {"rental_uris": {"ios": "https://dc.lft.to/lastmile_qr_scan", "android": "https://dc.lft.to/lastmile_qr_scan"}, "type": "electric_scooter", "name": "a83ee2137e36023c1bf7b76a7792e32c", "is_reserved": 0, "lon": -77.00753833333333, "is_disabled": 0, "fusion_lat": 0.0, "lat": 38.8711085, "bike_id": "a83ee2137e36023c1bf7b76a7792e32c", "fusion_lon": 0.0}, {"rental_uris": {"ios": "https://dc.lft.to/lastmile_qr_scan", "android": "https://dc.lft.to/lastmile_qr_scan"}, "type": "electric_scooter", "name": "5e24ecabea88a848e96e8357e506445f", "is_reserved": 0, "lon": -77.04405733333333, "is_disabled": 0, "fusion_lat": 0.0, "lat": 38.929473, "bike_id": "5e24ecabea88a848e96e8357e506445f", "fusion_lon": 0.0}, {"rental_uris": {"ios": "https://dc.lft.to/lastmile_qr_scan", "android": "https://dc.lft.to/lastmile_qr_scan"}, "type": "electric_scooter", "name": "4e74b696df575154f23b553ff25a9e8c", "is_reserved": 0, "lon": -77.0187425, "is_disabled": 0, "fusion_lat": 0.0, "lat": 38.9126135, "bike_id": "4e74b696df575154f23b553ff25a9e8c", "fusion_lon": 0.0}, {"rental_uris": {"ios": "https://dc.lft.to/lastmile_qr_scan", "android": "https://dc.lft.to/lastmile_qr_scan"}, "type": "electric_scooter", "name": "08c79c9b548b338daf7fb2bc2f27f895", "is_reserved": 0, "lon": -77.01336483333333, "is_disabled": 0, "fusion_lat": 0.0, "lat": 38.896292333333335, "bike_id": "08c79c9b548b338daf7fb2bc2f27f895", "fusion_lon": 0.0}, {"rental_uris": {"ios": "https://dc.lft.to/lastmile_qr_scan", "android": "https://dc.lft.to/lastmile_qr_scan"}, "type": "electric_scooter", "name": "983f11e595791f43f6f38c395f3c79c0", "is_reserved": 0, "lon": -77.04276983333334, "is_disabled": 0, "fusion_lat": 0.0, "lat": 38.90427566666666, "bike_id": "983f11e595791f43f6f38c395f3c79c0", "fusion_lon": 0.0}, {"rental_uris": {"ios": "https://dc.lft.to/lastmile_qr_scan", "android": "https://dc.lft.to/lastmile_qr_scan"}, "type": "electric_scooter", "name": "8f45cd15d9ca8a409155131e8a19652b", "is_reserved": 0, "lon": -77.02129933333333, "is_disabled": 0, "fusion_lat": 0.0, "lat": 38.89749416666667, "bike_id": "8f45cd15d9ca8a409155131e8a19652b", "fusion_lon": 0.0}, {"rental_uris": {"ios": "https://dc.lft.to/lastmile_qr_scan", "android": "https://dc.lft.to/lastmile_qr_scan"}, "type": "electric_scooter", "name": "4d112f1f02cd4beac2b9a936b12544a1", "is_reserved": 0, "lon": -76.99941716666666, "is_disabled": 0, "fusion_lat": 0.0, "lat": 38.891664, "bike_id": "4d112f1f02cd4beac2b9a936b12544a1", "fusion_lon": 0.0}, {"rental_uris": {"ios": "https://dc.lft.to/lastmile_qr_scan", "android": "https://dc.lft.to/lastmile_qr_scan"}, "type": "electric_bike", "name": "a5e430383a707c8ebfbcc6bbf3056d8f", "is_reserved": 0, "lon": -77.00407283333334, "is_disabled": 0, "fusion_lat": 0.0, "lat": 38.98544233333333, "bike_id": "a5e430383a707c8ebfbcc6bbf3056d8f", "fusion_lon": 0.0}, {"rental_uris": {"ios": "https://dc.lft.to/lastmile_qr_scan", "android": "https://dc.lft.to/lastmile_qr_scan"}, "type": "electric_scooter", "name": "6d942a1804b1f37287081c6c41dd6308", "is_reserved": 0, "lon": -77.00223933333334, "is_disabled": 0, "fusion_lat": 0.0, "lat": 38.9002325, "bike_id": "6d942a1804b1f37287081c6c41dd6308", "fusion_lon": 0.0}, {"rental_uris": {"ios": "https://dc.lft.to/lastmile_qr_scan", "android": "https://dc.lft.to/lastmile_qr_scan"}, "type": "electric_scooter", "name": "f0cf80c43199ba74e8b6906d16c5222d", "is_reserved": 0, "lon": -76.93812516666667, "is_disabled": 0, "fusion_lat": 0.0, "lat": 38.89846683333333, "bike_id": "f0cf80c43199ba74e8b6906d16c5222d", "fusion_lon": 0.0}, {"rental_uris": {"ios": "https://dc.lft.to/lastmile_qr_scan", "android": "https://dc.lft.to/lastmile_qr_scan"}, "type": "electric_scooter", "name": "c2d315b247217b4dc1d045c4b0109d5e", "is_reserved": 0, "lon": -77.04648716666667, "is_disabled": 0, "fusion_lat": 0.0, "lat": 38.90645516666667, "bike_id": "c2d315b247217b4dc1d045c4b0109d5e", "fusion_lon": 0.0}, {"rental_uris": {"ios": "https://dc.lft.to/lastmile_qr_scan", "android": "https://dc.lft.to/lastmile_qr_scan"}, "type": "electric_bike", "name": "897a1ad402338f710dd524ad43ce15a0", "is_reserved": 0, "lon": -77.09820683333334, "is_disabled": 0, "fusion_lat": 0.0, "lat": 38.850192, "bike_id": "897a1ad402338f710dd524ad43ce15a0", "fusion_lon": 0.0}, {"rental_uris": {"ios": "https://dc.lft.to/lastmile_qr_scan", "android": "https://dc.lft.to/lastmile_qr_scan"}, "type": "electric_scooter", "name": "32e6eed32eb2039f70d64613b2e92411", "is_reserved": 0, "lon": -77.031458, "is_disabled": 0, "fusion_lat": 0.0, "lat": 38.887456666666665, "bike_id": "32e6eed32eb2039f70d64613b2e92411", "fusion_lon": 0.0}, {"rental_uris": {"ios": "https://dc.lft.to/lastmile_qr_scan", "android": "https://dc.lft.to/lastmile_qr_scan"}, "type": "electric_scooter", "name": "ef3a9be9f8c6d717f6faaab3a2ff8a47", "is_reserved": 0, "lon": -77.0353715, "is_disabled": 0, "fusion_lat": 0.0, "lat": 38.9235255, "bike_id": "ef3a9be9f8c6d717f6faaab3a2ff8a47", "fusion_lon": 0.0}, {"rental_uris": {"ios": "https://dc.lft.to/lastmile_qr_scan", "android": "https://dc.lft.to/lastmile_qr_scan"}, "type": "electric_scooter", "name": "695f191b040a7332dd0cc889e2bf8ebb", "is_reserved": 0, "lon": -77.0401835, "is_disabled": 0, "fusion_lat": 0.0, "lat": 38.89832966666667, "bike_id": "695f191b040a7332dd0cc889e2bf8ebb", "fusion_lon": 0.0}, {"rental_uris": {"ios": "https://dc.lft.to/lastmile_qr_scan", "android": "https://dc.lft.to/lastmile_qr_scan"}, "type": "electric_scooter", "name": "3ab4d5b0c1483ac444f2b0f4200a42b5", "is_reserved": 0, "lon": -77.0698435, "is_disabled": 0, "fusion_lat": 0.0, "lat": 38.95230516666667, "bike_id": "3ab4d5b0c1483ac444f2b0f4200a42b5", "fusion_lon": 0.0}, {"rental_uris": {"ios": "https://dc.lft.to/lastmile_qr_scan", "android": "https://dc.lft.to/lastmile_qr_scan"}, "type": "electric_scooter", "name": "f986e24e57bd91115b55b53fd0654816", "is_reserved": 0, "lon": -77.0110135, "is_disabled": 0, "fusion_lat": 0.0, "lat": 38.885379666666665, "bike_id": "f986e24e57bd91115b55b53fd0654816", "fusion_lon": 0.0}, {"rental_uris": {"ios": "https://dc.lft.to/lastmile_qr_scan", "android": "https://dc.lft.to/lastmile_qr_scan"}, "type": "electric_scooter", "name": "002f32880247e8d2089e147af5ac165a", "is_reserved": 0, "lon": -77.01604383333333, "is_disabled": 0, "fusion_lat": 0.0, "lat": 38.91076783333333, "bike_id": "002f32880247e8d2089e147af5ac165a", "fusion_lon": 0.0}, {"rental_uris": {"ios": "https://dc.lft.to/lastmile_qr_scan", "android": "https://dc.lft.to/lastmile_qr_scan"}, "type": "electric_bike", "name": "b64e5b43989897263672a35ddb40a005", "is_reserved": 0, "lon": -76.96098266666667, "is_disabled": 0, "fusion_lat": 0.0, "lat": 38.94962233333333, "bike_id": "b64e5b43989897263672a35ddb40a005", "fusion_lon": 0.0}, {"rental_uris": {"ios": "https://dc.lft.to/lastmile_qr_scan", "android": "https://dc.lft.to/lastmile_qr_scan"}, "type": "electric_scooter", "name": "5e4c7750f6cfc90fe4c963926d382455", "is_reserved": 0, "lon": -77.03193733333333, "is_disabled": 0, "fusion_lat": 0.0, "lat": 38.905000666666666, "bike_id": "5e4c7750f6cfc90fe4c963926d382455", "fusion_lon": 0.0}, {"rental_uris": {"ios": "https://dc.lft.to/lastmile_qr_scan", "android": "https://dc.lft.to/lastmile_qr_scan"}, "type": "electric_bike", "name": "c4d91183a4c582ee6584d32fa6f966b0", "is_reserved": 0, "lon": -76.981396, "is_disabled": 0, "fusion_lat": 0.0, "lat": 38.93489433333333, "bike_id": "c4d91183a4c582ee6584d32fa6f966b0", "fusion_lon": 0.0}, {"rental_uris": {"ios": "https://dc.lft.to/lastmile_qr_scan", "android": "https://dc.lft.to/lastmile_qr_scan"}, "type": "electric_scooter", "name": "a1e13985094da26cc1ec0f16bba4ba82", "is_reserved": 0, "lon": -77.029644, "is_disabled": 0, "fusion_lat": 0.0, "lat": 38.917240666666665, "bike_id": "a1e13985094da26cc1ec0f16bba4ba82", "fusion_lon": 0.0}, {"rental_uris": {"ios": "https://dc.lft.to/lastmile_qr_scan", "android": "https://dc.lft.to/lastmile_qr_scan"}, "type": "electric_scooter", "name": "8d748e4cfe4ad046ad44e934de08076b", "is_reserved": 0, "lon": -77.01213283333334, "is_disabled": 0, "fusion_lat": 0.0, "lat": 38.916039, "bike_id": "8d748e4cfe4ad046ad44e934de08076b", "fusion_lon": 0.0}, {"rental_uris": {"ios": "https://dc.lft.to/lastmile_qr_scan", "android": "https://dc.lft.to/lastmile_qr_scan"}, "type": "electric_scooter", "name": "d761204a3d77af0c26d381815c648fa4", "is_reserved": 0, "lon": -76.98605616666667, "is_disabled": 0, "fusion_lat": 0.0, "lat": 38.882696333333335, "bike_id": "d761204a3d77af0c26d381815c648fa4", "fusion_lon": 0.0}, {"rental_uris": {"ios": "https://dc.lft.to/lastmile_qr_scan", "android": "https://dc.lft.to/lastmile_qr_scan"}, "type": "electric_scooter", "name": "7e4791da85c79dbaf6fc0969d32d0b91", "is_reserved": 0, "lon": -77.0454325, "is_disabled": 0, "fusion_lat": 0.0, "lat": 38.900566, "bike_id": "7e4791da85c79dbaf6fc0969d32d0b91", "fusion_lon": 0.0}, {"rental_uris": {"ios": "https://dc.lft.to/lastmile_qr_scan", "android": "https://dc.lft.to/lastmile_qr_scan"}, "type": "electric_scooter", "name": "4f7455bf502f95ee827147444be44329", "is_reserved": 0, "lon": -77.01883566666666, "is_disabled": 0, "fusion_lat": 0.0, "lat": 38.899517, "bike_id": "4f7455bf502f95ee827147444be44329", "fusion_lon": 0.0}, {"rental_uris": {"ios": "https://dc.lft.to/lastmile_qr_scan", "android": "https://dc.lft.to/lastmile_qr_scan"}, "type": "electric_scooter", "name": "52dfb75b720ff9057c570cfb0e3b9b59", "is_reserved": 0, "lon": -77.03604283333334, "is_disabled": 0, "fusion_lat": 0.0, "lat": 38.927876, "bike_id": "52dfb75b720ff9057c570cfb0e3b9b59", "fusion_lon": 0.0}, {"rental_uris": {"ios": "https://dc.lft.to/lastmile_qr_scan", "android": "https://dc.lft.to/lastmile_qr_scan"}, "type": "electric_scooter", "name": "f2c410b965f23bbd44f8138fa13abf7d", "is_reserved": 0, "lon": -77.017369, "is_disabled": 0, "fusion_lat": 0.0, "lat": 38.9027345, "bike_id": "f2c410b965f23bbd44f8138fa13abf7d", "fusion_lon": 0.0}, {"rental_uris": {"ios": "https://dc.lft.to/lastmile_qr_scan", "android": "https://dc.lft.to/lastmile_qr_scan"}, "type": "electric_bike", "name": "91ca38da91b0a814fe839637e046284e", "is_reserved": 0, "lon": -77.10750816666666, "is_disabled": 0, "fusion_lat": 0.0, "lat": 38.855074333333334, "bike_id": "91ca38da91b0a814fe839637e046284e", "fusion_lon": 0.0}, {"rental_uris": {"ios": "https://dc.lft.to/lastmile_qr_scan", "android": "https://dc.lft.to/lastmile_qr_scan"}, "type": "electric_scooter", "name": "7f2879d6ce0d75e9a211f22f0066d3e8", "is_reserved": 0, "lon": -77.02421066666666, "is_disabled": 0, "fusion_lat": 0.0, "lat": 38.9005275, "bike_id": "7f2879d6ce0d75e9a211f22f0066d3e8", "fusion_lon": 0.0}, {"rental_uris": {"ios": "https://dc.lft.to/lastmile_qr_scan", "android": "https://dc.lft.to/lastmile_qr_scan"}, "type": "electric_scooter", "name": "e70882b367292fd866be35b75c432502", "is_reserved": 0, "lon": -77.01805683333333, "is_disabled": 0, "fusion_lat": 0.0, "lat": 38.92221716666667, "bike_id": "e70882b367292fd866be35b75c432502", "fusion_lon": 0.0}, {"rental_uris": {"ios": "https://dc.lft.to/lastmile_qr_scan", "android": "https://dc.lft.to/lastmile_qr_scan"}, "type": "electric_scooter", "name": "5daf5a58df0b91c0b91f00dfbdd6a8f3", "is_reserved": 0, "lon": -76.99588233333333, "is_disabled": 0, "fusion_lat": 0.0, "lat": 38.90939483333333, "bike_id": "5daf5a58df0b91c0b91f00dfbdd6a8f3", "fusion_lon": 0.0}, {"rental_uris": {"ios": "https://dc.lft.to/lastmile_qr_scan", "android": "https://dc.lft.to/lastmile_qr_scan"}, "type": "electric_scooter", "name": "5ac84a0a530012301855c2a84b41e284", "is_reserved": 0, "lon": -77.04911566666667, "is_disabled": 0, "fusion_lat": 0.0, "lat": 38.90084933333333, "bike_id": "5ac84a0a530012301855c2a84b41e284", "fusion_lon": 0.0}, {"rental_uris": {"ios": "https://dc.lft.to/lastmile_qr_scan", "android": "https://dc.lft.to/lastmile_qr_scan"}, "type": "electric_scooter", "name": "ee9b1866363f92aa9152eb33d5da16d8", "is_reserved": 0, "lon": -77.0684555, "is_disabled": 0, "fusion_lat": 0.0, "lat": 38.90421283333333, "bike_id": "ee9b1866363f92aa9152eb33d5da16d8", "fusion_lon": 0.0}, {"rental_uris": {"ios": "https://dc.lft.to/lastmile_qr_scan", "android": "https://dc.lft.to/lastmile_qr_scan"}, "type": "electric_scooter", "name": "8d7424df5b2e9a91114ed308ddd91074", "is_reserved": 0, "lon": -77.0115145, "is_disabled": 0, "fusion_lat": 0.0, "lat": 38.9095815, "bike_id": "8d7424df5b2e9a91114ed308ddd91074", "fusion_lon": 0.0}, {"rental_uris": {"ios": "https://dc.lft.to/lastmile_qr_scan", "android": "https://dc.lft.to/lastmile_qr_scan"}, "type": "electric_scooter", "name": "1047f10089c776dde09350ec83102635", "is_reserved": 0, "lon": -77.0610955, "is_disabled": 0, "fusion_lat": 0.0, "lat": 38.93987683333334, "bike_id": "1047f10089c776dde09350ec83102635", "fusion_lon": 0.0}, {"rental_uris": {"ios": "https://dc.lft.to/lastmile_qr_scan", "android": "https://dc.lft.to/lastmile_qr_scan"}, "type": "electric_scooter", "name": "dbf6b9d6556e676c8abbfa09afe125ed", "is_reserved": 0, "lon": -76.97330666666667, "is_disabled": 0, "fusion_lat": 0.0, "lat": 38.90409366666667, "bike_id": "dbf6b9d6556e676c8abbfa09afe125ed", "fusion_lon": 0.0}, {"rental_uris": {"ios": "https://dc.lft.to/lastmile_qr_scan", "android": "https://dc.lft.to/lastmile_qr_scan"}, "type": "electric_scooter", "name": "933576816de794a45ee538a3542ef092", "is_reserved": 0, "lon": -77.04818566666667, "is_disabled": 0, "fusion_lat": 0.0, "lat": 38.914891, "bike_id": "933576816de794a45ee538a3542ef092", "fusion_lon": 0.0}, {"rental_uris": {"ios": "https://dc.lft.to/lastmile_qr_scan", "android": "https://dc.lft.to/lastmile_qr_scan"}, "type": "electric_bike", "name": "9d988a0745dd7a8d88b6014a2c1a7cf5", "is_reserved": 0, "lon": -77.06951916666667, "is_disabled": 0, "fusion_lat": 0.0, "lat": 38.8362675, "bike_id": "9d988a0745dd7a8d88b6014a2c1a7cf5", "fusion_lon": 0.0}, {"rental_uris": {"ios": "https://dc.lft.to/lastmile_qr_scan", "android": "https://dc.lft.to/lastmile_qr_scan"}, "type": "electric_scooter", "name": "f2f8c4804717dc0f0511848cc0baa294", "is_reserved": 0, "lon": -77.00135583333333, "is_disabled": 0, "fusion_lat": 0.0, "lat": 38.8749065, "bike_id": "f2f8c4804717dc0f0511848cc0baa294", "fusion_lon": 0.0}, {"rental_uris": {"ios": "https://dc.lft.to/lastmile_qr_scan", "android": "https://dc.lft.to/lastmile_qr_scan"}, "type": "electric_scooter", "name": "b056e1432837d994ccbb2cda4143f6ef", "is_reserved": 0, "lon": -77.03393566666666, "is_disabled": 0, "fusion_lat": 0.0, "lat": 38.920610833333335, "bike_id": "b056e1432837d994ccbb2cda4143f6ef", "fusion_lon": 0.0}, {"rental_uris": {"ios": "https://dc.lft.to/lastmile_qr_scan", "android": "https://dc.lft.to/lastmile_qr_scan"}, "type": "electric_scooter", "name": "48ce3c896e35a5880d6b70e429c252c2", "is_reserved": 0, "lon": -77.0397495, "is_disabled": 0, "fusion_lat": 0.0, "lat": 38.931511666666665, "bike_id": "48ce3c896e35a5880d6b70e429c252c2", "fusion_lon": 0.0}, {"rental_uris": {"ios": "https://dc.lft.to/lastmile_qr_scan", "android": "https://dc.lft.to/lastmile_qr_scan"}, "type": "electric_scooter", "name": "da009ec569b079b52947642c261c437b", "is_reserved": 0, "lon": -77.02711733333334, "is_disabled": 0, "fusion_lat": 0.0, "lat": 38.9172475, "bike_id": "da009ec569b079b52947642c261c437b", "fusion_lon": 0.0}, {"rental_uris": {"ios": "https://dc.lft.to/lastmile_qr_scan", "android": "https://dc.lft.to/lastmile_qr_scan"}, "type": "electric_scooter", "name": "ccac1dd4c44e317b81eb9fd26fd8efa1", "is_reserved": 0, "lon": -77.0155415, "is_disabled": 0, "fusion_lat": 0.0, "lat": 38.8850095, "bike_id": "ccac1dd4c44e317b81eb9fd26fd8efa1", "fusion_lon": 0.0}, {"rental_uris": {"ios": "https://dc.lft.to/lastmile_qr_scan", "android": "https://dc.lft.to/lastmile_qr_scan"}, "type": "electric_scooter", "name": "3895884ae9a3c8c5b7d3d8ac185eb6f5", "is_reserved": 0, "lon": -77.03967966666667, "is_disabled": 0, "fusion_lat": 0.0, "lat": 38.901350666666666, "bike_id": "3895884ae9a3c8c5b7d3d8ac185eb6f5", "fusion_lon": 0.0}, {"rental_uris": {"ios": "https://dc.lft.to/lastmile_qr_scan", "android": "https://dc.lft.to/lastmile_qr_scan"}, "type": "electric_scooter", "name": "17cb458f079770b432ff825099a0cd56", "is_reserved": 0, "lon": -77.0212805, "is_disabled": 0, "fusion_lat": 0.0, "lat": 38.92797783333333, "bike_id": "17cb458f079770b432ff825099a0cd56", "fusion_lon": 0.0}, {"rental_uris": {"ios": "https://dc.lft.to/lastmile_qr_scan", "android": "https://dc.lft.to/lastmile_qr_scan"}, "type": "electric_scooter", "name": "7e3f3f1ded30e7d61ad30ee5654e34b6", "is_reserved": 0, "lon": -77.06845066666666, "is_disabled": 0, "fusion_lat": 0.0, "lat": 38.904174, "bike_id": "7e3f3f1ded30e7d61ad30ee5654e34b6", "fusion_lon": 0.0}, {"rental_uris": {"ios": "https://dc.lft.to/lastmile_qr_scan", "android": "https://dc.lft.to/lastmile_qr_scan"}, "type": "electric_scooter", "name": "fe2dfe8b4462cea3d00dfa8ba7cb1807", "is_reserved": 0, "lon": -77.045882, "is_disabled": 0, "fusion_lat": 0.0, "lat": 38.91446916666666, "bike_id": "fe2dfe8b4462cea3d00dfa8ba7cb1807", "fusion_lon": 0.0}, {"rental_uris": {"ios": "https://dc.lft.to/lastmile_qr_scan", "android": "https://dc.lft.to/lastmile_qr_scan"}, "type": "electric_scooter", "name": "eff5d9ce09fef8ad484303270ff2389e", "is_reserved": 0, "lon": -77.024406, "is_disabled": 0, "fusion_lat": 0.0, "lat": 38.93707666666667, "bike_id": "eff5d9ce09fef8ad484303270ff2389e", "fusion_lon": 0.0}, {"rental_uris": {"ios": "https://dc.lft.to/lastmile_qr_scan", "android": "https://dc.lft.to/lastmile_qr_scan"}, "type": "electric_bike", "name": "982e73fd93fdb5e8b52cc8dad611e9f5", "is_reserved": 0, "lon": -76.99678, "is_disabled": 0, "fusion_lat": 0.0, "lat": 38.83812316666667, "bike_id": "982e73fd93fdb5e8b52cc8dad611e9f5", "fusion_lon": 0.0}, {"rental_uris": {"ios": "https://dc.lft.to/lastmile_qr_scan", "android": "https://dc.lft.to/lastmile_qr_scan"}, "type": "electric_scooter", "name": "0be05b5ecde9173452c5477fb7bc5efc", "is_reserved": 0, "lon": -77.0175235, "is_disabled": 0, "fusion_lat": 0.0, "lat": 38.887276166666666, "bike_id": "0be05b5ecde9173452c5477fb7bc5efc", "fusion_lon": 0.0}, {"rental_uris": {"ios": "https://dc.lft.to/lastmile_qr_scan", "android": "https://dc.lft.to/lastmile_qr_scan"}, "type": "electric_scooter", "name": "9b609d040c561e09e132d972fd7f0c73", "is_reserved": 0, "lon": -77.060288, "is_disabled": 0, "fusion_lat": 0.0, "lat": 38.9021575, "bike_id": "9b609d040c561e09e132d972fd7f0c73", "fusion_lon": 0.0}, {"rental_uris": {"ios": "https://dc.lft.to/lastmile_qr_scan", "android": "https://dc.lft.to/lastmile_qr_scan"}, "type": "electric_bike", "name": "2865cd16f4f2461032b02917f6d62cc2", "is_reserved": 0, "lon": -77.01237333333333, "is_disabled": 0, "fusion_lat": 0.0, "lat": 38.9507475, "bike_id": "2865cd16f4f2461032b02917f6d62cc2", "fusion_lon": 0.0}, {"rental_uris": {"ios": "https://dc.lft.to/lastmile_qr_scan", "android": "https://dc.lft.to/lastmile_qr_scan"}, "type": "electric_scooter", "name": "fd7c4b7b4ec05104922279fc45a0e20d", "is_reserved": 0, "lon": -77.02961333333333, "is_disabled": 0, "fusion_lat": 0.0, "lat": 38.9101095, "bike_id": "fd7c4b7b4ec05104922279fc45a0e20d", "fusion_lon": 0.0}, {"rental_uris": {"ios": "https://dc.lft.to/lastmile_qr_scan", "android": "https://dc.lft.to/lastmile_qr_scan"}, "type": "electric_scooter", "name": "42c0ada02c1a8619360e3ea7d5787b17", "is_reserved": 0, "lon": -77.01897683333334, "is_disabled": 0, "fusion_lat": 0.0, "lat": 38.89744666666667, "bike_id": "42c0ada02c1a8619360e3ea7d5787b17", "fusion_lon": 0.0}, {"rental_uris": {"ios": "https://dc.lft.to/lastmile_qr_scan", "android": "https://dc.lft.to/lastmile_qr_scan"}, "type": "electric_scooter", "name": "a5545c8750c543e2b8266d52c1ee0d1b", "is_reserved": 0, "lon": -77.03980683333333, "is_disabled": 0, "fusion_lat": 0.0, "lat": 38.9202285, "bike_id": "a5545c8750c543e2b8266d52c1ee0d1b", "fusion_lon": 0.0}, {"rental_uris": {"ios": "https://dc.lft.to/lastmile_qr_scan", "android": "https://dc.lft.to/lastmile_qr_scan"}, "type": "electric_scooter", "name": "75906fa3cd8cedab718b5fac5d2ecfc0", "is_reserved": 0, "lon": -77.03232833333334, "is_disabled": 0, "fusion_lat": 0.0, "lat": 38.92995416666667, "bike_id": "75906fa3cd8cedab718b5fac5d2ecfc0", "fusion_lon": 0.0}, {"rental_uris": {"ios": "https://dc.lft.to/lastmile_qr_scan", "android": "https://dc.lft.to/lastmile_qr_scan"}, "type": "electric_scooter", "name": "42222910ce7aa7da5699df77da6dae9f", "is_reserved": 0, "lon": -77.018775, "is_disabled": 0, "fusion_lat": 0.0, "lat": 38.93052266666667, "bike_id": "42222910ce7aa7da5699df77da6dae9f", "fusion_lon": 0.0}, {"rental_uris": {"ios": "https://dc.lft.to/lastmile_qr_scan", "android": "https://dc.lft.to/lastmile_qr_scan"}, "type": "electric_scooter", "name": "bbc0aebbd6823670b83b100c7c848565", "is_reserved": 0, "lon": -77.04607333333334, "is_disabled": 0, "fusion_lat": 0.0, "lat": 38.883787, "bike_id": "bbc0aebbd6823670b83b100c7c848565", "fusion_lon": 0.0}, {"rental_uris": {"ios": "https://dc.lft.to/lastmile_qr_scan", "android": "https://dc.lft.to/lastmile_qr_scan"}, "type": "electric_scooter", "name": "6efff8a65a0ad2660ac0d26b82a12521", "is_reserved": 0, "lon": -77.03841166666666, "is_disabled": 0, "fusion_lat": 0.0, "lat": 38.9071675, "bike_id": "6efff8a65a0ad2660ac0d26b82a12521", "fusion_lon": 0.0}, {"rental_uris": {"ios": "https://dc.lft.to/lastmile_qr_scan", "android": "https://dc.lft.to/lastmile_qr_scan"}, "type": "electric_scooter", "name": "1deec874bf3683ebbccd94c3b5d372ce", "is_reserved": 0, "lon": -77.11018133333333, "is_disabled": 0, "fusion_lat": 0.0, "lat": 38.876903666666664, "bike_id": "1deec874bf3683ebbccd94c3b5d372ce", "fusion_lon": 0.0}, {"rental_uris": {"ios": "https://dc.lft.to/lastmile_qr_scan", "android": "https://dc.lft.to/lastmile_qr_scan"}, "type": "electric_scooter", "name": "a56de7238645827a1d3b3ef14f2b581f", "is_reserved": 0, "lon": -77.04464166666666, "is_disabled": 0, "fusion_lat": 0.0, "lat": 38.91589183333333, "bike_id": "a56de7238645827a1d3b3ef14f2b581f", "fusion_lon": 0.0}, {"rental_uris": {"ios": "https://dc.lft.to/lastmile_qr_scan", "android": "https://dc.lft.to/lastmile_qr_scan"}, "type": "electric_scooter", "name": "04a5700c61246d6ee5b09ac7f2042d63", "is_reserved": 0, "lon": -77.002205, "is_disabled": 0, "fusion_lat": 0.0, "lat": 38.894502333333335, "bike_id": "04a5700c61246d6ee5b09ac7f2042d63", "fusion_lon": 0.0}, {"rental_uris": {"ios": "https://dc.lft.to/lastmile_qr_scan", "android": "https://dc.lft.to/lastmile_qr_scan"}, "type": "electric_bike", "name": "7e772032e6a06e564534941a53d6324d", "is_reserved": 0, "lon": -77.100789, "is_disabled": 0, "fusion_lat": 0.0, "lat": 38.857324, "bike_id": "7e772032e6a06e564534941a53d6324d", "fusion_lon": 0.0}, {"rental_uris": {"ios": "https://dc.lft.to/lastmile_qr_scan", "android": "https://dc.lft.to/lastmile_qr_scan"}, "type": "electric_bike", "name": "bf7bc3ef5a1a77619475860a5bb25888", "is_reserved": 0, "lon": -77.01307466666667, "is_disabled": 0, "fusion_lat": 0.0, "lat": 38.92959883333333, "bike_id": "bf7bc3ef5a1a77619475860a5bb25888", "fusion_lon": 0.0}, {"rental_uris": {"ios": "https://dc.lft.to/lastmile_qr_scan", "android": "https://dc.lft.to/lastmile_qr_scan"}, "type": "electric_bike", "name": "728b09788bf8d13561a96bd8dfee6495", "is_reserved": 0, "lon": -76.97350383333334, "is_disabled": 0, "fusion_lat": 0.0, "lat": 38.8651085, "bike_id": "728b09788bf8d13561a96bd8dfee6495", "fusion_lon": 0.0}, {"rental_uris": {"ios": "https://dc.lft.to/lastmile_qr_scan", "android": "https://dc.lft.to/lastmile_qr_scan"}, "type": "electric_scooter", "name": "6a1010ef69c70c967d944ddd9e6d1452", "is_reserved": 0, "lon": -77.03187433333333, "is_disabled": 0, "fusion_lat": 0.0, "lat": 38.929161, "bike_id": "6a1010ef69c70c967d944ddd9e6d1452", "fusion_lon": 0.0}, {"rental_uris": {"ios": "https://dc.lft.to/lastmile_qr_scan", "android": "https://dc.lft.to/lastmile_qr_scan"}, "type": "electric_scooter", "name": "002f0980d9b77b6e43f0892606dc8ee4", "is_reserved": 0, "lon": -77.04970216666666, "is_disabled": 0, "fusion_lat": 0.0, "lat": 38.915983, "bike_id": "002f0980d9b77b6e43f0892606dc8ee4", "fusion_lon": 0.0}, {"rental_uris": {"ios": "https://dc.lft.to/lastmile_qr_scan", "android": "https://dc.lft.to/lastmile_qr_scan"}, "type": "electric_scooter", "name": "7cb6b31a57579c6dc693ae2ea19e5ec0", "is_reserved": 0, "lon": -77.00397683333334, "is_disabled": 0, "fusion_lat": 0.0, "lat": 38.8775255, "bike_id": "7cb6b31a57579c6dc693ae2ea19e5ec0", "fusion_lon": 0.0}, {"rental_uris": {"ios": "https://dc.lft.to/lastmile_qr_scan", "android": "https://dc.lft.to/lastmile_qr_scan"}, "type": "electric_scooter", "name": "963c0f7adf085d3f4047451cf16b7334", "is_reserved": 0, "lon": -76.9853575, "is_disabled": 0, "fusion_lat": 0.0, "lat": 38.85852516666667, "bike_id": "963c0f7adf085d3f4047451cf16b7334", "fusion_lon": 0.0}, {"rental_uris": {"ios": "https://dc.lft.to/lastmile_qr_scan", "android": "https://dc.lft.to/lastmile_qr_scan"}, "type": "electric_scooter", "name": "f255c962d9cecc2daf8b3b1a0d9bb095", "is_reserved": 0, "lon": -77.04529333333333, "is_disabled": 0, "fusion_lat": 0.0, "lat": 38.911067, "bike_id": "f255c962d9cecc2daf8b3b1a0d9bb095", "fusion_lon": 0.0}, {"rental_uris": {"ios": "https://dc.lft.to/lastmile_qr_scan", "android": "https://dc.lft.to/lastmile_qr_scan"}, "type": "electric_scooter", "name": "9f33ff0d5fe208377285c1e69a3cb04b", "is_reserved": 0, "lon": -77.002738, "is_disabled": 0, "fusion_lat": 0.0, "lat": 38.88764333333334, "bike_id": "9f33ff0d5fe208377285c1e69a3cb04b", "fusion_lon": 0.0}, {"rental_uris": {"ios": "https://dc.lft.to/lastmile_qr_scan", "android": "https://dc.lft.to/lastmile_qr_scan"}, "type": "electric_scooter", "name": "4e31b3c44b3d3d740038204fa4bbdc76", "is_reserved": 0, "lon": -77.03373133333334, "is_disabled": 0, "fusion_lat": 0.0, "lat": 38.93863616666667, "bike_id": "4e31b3c44b3d3d740038204fa4bbdc76", "fusion_lon": 0.0}, {"rental_uris": {"ios": "https://dc.lft.to/lastmile_qr_scan", "android": "https://dc.lft.to/lastmile_qr_scan"}, "type": "electric_bike", "name": "7cf8618153863d865a5a9549a1f38e7f", "is_reserved": 0, "lon": -77.12841383333334, "is_disabled": 0, "fusion_lat": 0.0, "lat": 38.800510333333335, "bike_id": "7cf8618153863d865a5a9549a1f38e7f", "fusion_lon": 0.0}, {"rental_uris": {"ios": "https://dc.lft.to/lastmile_qr_scan", "android": "https://dc.lft.to/lastmile_qr_scan"}, "type": "electric_scooter", "name": "66259ac5abe02e742c742c61e1a748be", "is_reserved": 0, "lon": -77.0395915, "is_disabled": 0, "fusion_lat": 0.0, "lat": 38.89306083333334, "bike_id": "66259ac5abe02e742c742c61e1a748be", "fusion_lon": 0.0}, {"rental_uris": {"ios": "https://dc.lft.to/lastmile_qr_scan", "android": "https://dc.lft.to/lastmile_qr_scan"}, "type": "electric_scooter", "name": "d16ab340974f3bc056ee42933c492024", "is_reserved": 0, "lon": -77.02952066666667, "is_disabled": 0, "fusion_lat": 0.0, "lat": 38.9027635, "bike_id": "d16ab340974f3bc056ee42933c492024", "fusion_lon": 0.0}, {"rental_uris": {"ios": "https://dc.lft.to/lastmile_qr_scan", "android": "https://dc.lft.to/lastmile_qr_scan"}, "type": "electric_scooter", "name": "8f7cc9722f77346609bd11c8daec42ea", "is_reserved": 0, "lon": -76.99121333333333, "is_disabled": 0, "fusion_lat": 0.0, "lat": 38.908982333333334, "bike_id": "8f7cc9722f77346609bd11c8daec42ea", "fusion_lon": 0.0}, {"rental_uris": {"ios": "https://dc.lft.to/lastmile_qr_scan", "android": "https://dc.lft.to/lastmile_qr_scan"}, "type": "electric_scooter", "name": "873f3a4e139816e951ea20a9f993d46f", "is_reserved": 0, "lon": -77.0059695, "is_disabled": 0, "fusion_lat": 0.0, "lat": 38.909301666666664, "bike_id": "873f3a4e139816e951ea20a9f993d46f", "fusion_lon": 0.0}, {"rental_uris": {"ios": "https://dc.lft.to/lastmile_qr_scan", "android": "https://dc.lft.to/lastmile_qr_scan"}, "type": "electric_scooter", "name": "4ad38b4d39d1eac8456557071ceaad46", "is_reserved": 0, "lon": -77.042998, "is_disabled": 0, "fusion_lat": 0.0, "lat": 38.93179716666667, "bike_id": "4ad38b4d39d1eac8456557071ceaad46", "fusion_lon": 0.0}, {"rental_uris": {"ios": "https://dc.lft.to/lastmile_qr_scan", "android": "https://dc.lft.to/lastmile_qr_scan"}, "type": "electric_scooter", "name": "c9765dd3bdf46b14cc2c9a47e5ed0535", "is_reserved": 0, "lon": -77.004656, "is_disabled": 0, "fusion_lat": 0.0, "lat": 38.911952, "bike_id": "c9765dd3bdf46b14cc2c9a47e5ed0535", "fusion_lon": 0.0}, {"rental_uris": {"ios": "https://dc.lft.to/lastmile_qr_scan", "android": "https://dc.lft.to/lastmile_qr_scan"}, "type": "electric_scooter", "name": "07776fff3674e34027dd6216e92f3f00", "is_reserved": 0, "lon": -77.0269885, "is_disabled": 0, "fusion_lat": 0.0, "lat": 38.90899733333333, "bike_id": "07776fff3674e34027dd6216e92f3f00", "fusion_lon": 0.0}, {"rental_uris": {"ios": "https://dc.lft.to/lastmile_qr_scan", "android": "https://dc.lft.to/lastmile_qr_scan"}, "type": "electric_scooter", "name": "dcd123fcf4c30cddbbf95e40b3194bf6", "is_reserved": 0, "lon": -77.01986916666667, "is_disabled": 0, "fusion_lat": 0.0, "lat": 38.876060833333334, "bike_id": "dcd123fcf4c30cddbbf95e40b3194bf6", "fusion_lon": 0.0}, {"rental_uris": {"ios": "https://dc.lft.to/lastmile_qr_scan", "android": "https://dc.lft.to/lastmile_qr_scan"}, "type": "electric_scooter", "name": "e53515b7cc9dda21ba7bcfbe2956a4bb", "is_reserved": 0, "lon": -77.024219, "is_disabled": 0, "fusion_lat": 0.0, "lat": 38.920854, "bike_id": "e53515b7cc9dda21ba7bcfbe2956a4bb", "fusion_lon": 0.0}, {"rental_uris": {"ios": "https://dc.lft.to/lastmile_qr_scan", "android": "https://dc.lft.to/lastmile_qr_scan"}, "type": "electric_scooter", "name": "c2f4b1dcb96c9cf2c698453531a476b1", "is_reserved": 0, "lon": -77.0217715, "is_disabled": 0, "fusion_lat": 0.0, "lat": 38.89229316666667, "bike_id": "c2f4b1dcb96c9cf2c698453531a476b1", "fusion_lon": 0.0}, {"rental_uris": {"ios": "https://dc.lft.to/lastmile_qr_scan", "android": "https://dc.lft.to/lastmile_qr_scan"}, "type": "electric_scooter", "name": "e7d0d13b7d690605ec634c4a14939644", "is_reserved": 0, "lon": -76.98262883333334, "is_disabled": 0, "fusion_lat": 0.0, "lat": 38.86622366666667, "bike_id": "e7d0d13b7d690605ec634c4a14939644", "fusion_lon": 0.0}, {"rental_uris": {"ios": "https://dc.lft.to/lastmile_qr_scan", "android": "https://dc.lft.to/lastmile_qr_scan"}, "type": "electric_scooter", "name": "86fac76d2781e0a921243825eff21db9", "is_reserved": 0, "lon": -77.02663516666667, "is_disabled": 0, "fusion_lat": 0.0, "lat": 38.9221675, "bike_id": "86fac76d2781e0a921243825eff21db9", "fusion_lon": 0.0}, {"rental_uris": {"ios": "https://dc.lft.to/lastmile_qr_scan", "android": "https://dc.lft.to/lastmile_qr_scan"}, "type": "electric_scooter", "name": "eda2861f1dc5f3a88aa0b6b1bf54b605", "is_reserved": 0, "lon": -77.047159, "is_disabled": 0, "fusion_lat": 0.0, "lat": 38.91788183333333, "bike_id": "eda2861f1dc5f3a88aa0b6b1bf54b605", "fusion_lon": 0.0}, {"rental_uris": {"ios": "https://dc.lft.to/lastmile_qr_scan", "android": "https://dc.lft.to/lastmile_qr_scan"}, "type": "electric_scooter", "name": "d5b4384f2fda0ff96ae474100e07a5f5", "is_reserved": 0, "lon": -77.02135216666667, "is_disabled": 0, "fusion_lat": 0.0, "lat": 38.897414833333336, "bike_id": "d5b4384f2fda0ff96ae474100e07a5f5", "fusion_lon": 0.0}, {"rental_uris": {"ios": "https://dc.lft.to/lastmile_qr_scan", "android": "https://dc.lft.to/lastmile_qr_scan"}, "type": "electric_scooter", "name": "b15dd42e74bf78cfe01f277a3b99e3fd", "is_reserved": 0, "lon": -77.06557833333333, "is_disabled": 0, "fusion_lat": 0.0, "lat": 38.911719833333336, "bike_id": "b15dd42e74bf78cfe01f277a3b99e3fd", "fusion_lon": 0.0}, {"rental_uris": {"ios": "https://dc.lft.to/lastmile_qr_scan", "android": "https://dc.lft.to/lastmile_qr_scan"}, "type": "electric_scooter", "name": "56f20ef7f02e0748997106b49340b2d7", "is_reserved": 0, "lon": -77.04345183333334, "is_disabled": 0, "fusion_lat": 0.0, "lat": 38.9234805, "bike_id": "56f20ef7f02e0748997106b49340b2d7", "fusion_lon": 0.0}, {"rental_uris": {"ios": "https://dc.lft.to/lastmile_qr_scan", "android": "https://dc.lft.to/lastmile_qr_scan"}, "type": "electric_scooter", "name": "add0d67fb01687925454988ef1af9cb0", "is_reserved": 0, "lon": -76.97888766666667, "is_disabled": 0, "fusion_lat": 0.0, "lat": 38.88539816666667, "bike_id": "add0d67fb01687925454988ef1af9cb0", "fusion_lon": 0.0}, {"rental_uris": {"ios": "https://dc.lft.to/lastmile_qr_scan", "android": "https://dc.lft.to/lastmile_qr_scan"}, "type": "electric_scooter", "name": "eb7f7841645a2bb0e3010aefe25ec5fe", "is_reserved": 0, "lon": -77.0261655, "is_disabled": 0, "fusion_lat": 0.0, "lat": 38.91684983333333, "bike_id": "eb7f7841645a2bb0e3010aefe25ec5fe", "fusion_lon": 0.0}, {"rental_uris": {"ios": "https://dc.lft.to/lastmile_qr_scan", "android": "https://dc.lft.to/lastmile_qr_scan"}, "type": "electric_bike", "name": "a2a45c2b870ca3d190a7930246984b52", "is_reserved": 0, "lon": -77.0200855, "is_disabled": 0, "fusion_lat": 0.0, "lat": 38.96434433333334, "bike_id": "a2a45c2b870ca3d190a7930246984b52", "fusion_lon": 0.0}, {"rental_uris": {"ios": "https://dc.lft.to/lastmile_qr_scan", "android": "https://dc.lft.to/lastmile_qr_scan"}, "type": "electric_scooter", "name": "95fd06e2c97ab0cf26875fa05731b951", "is_reserved": 0, "lon": -77.02332766666666, "is_disabled": 0, "fusion_lat": 0.0, "lat": 38.922994333333335, "bike_id": "95fd06e2c97ab0cf26875fa05731b951", "fusion_lon": 0.0}, {"rental_uris": {"ios": "https://dc.lft.to/lastmile_qr_scan", "android": "https://dc.lft.to/lastmile_qr_scan"}, "type": "electric_scooter", "name": "820578cb9bb3e32484dd33381ba9ef6d", "is_reserved": 0, "lon": -77.03407766666666, "is_disabled": 0, "fusion_lat": 0.0, "lat": 38.909604333333334, "bike_id": "820578cb9bb3e32484dd33381ba9ef6d", "fusion_lon": 0.0}, {"rental_uris": {"ios": "https://dc.lft.to/lastmile_qr_scan", "android": "https://dc.lft.to/lastmile_qr_scan"}, "type": "electric_scooter", "name": "385bb2dea2742f5eb98caedf9416575c", "is_reserved": 0, "lon": -77.01999466666666, "is_disabled": 0, "fusion_lat": 0.0, "lat": 38.89915383333334, "bike_id": "385bb2dea2742f5eb98caedf9416575c", "fusion_lon": 0.0}, {"rental_uris": {"ios": "https://dc.lft.to/lastmile_qr_scan", "android": "https://dc.lft.to/lastmile_qr_scan"}, "type": "electric_scooter", "name": "4b43995b1e6828bf139680b558694d5b", "is_reserved": 0, "lon": -77.03474033333333, "is_disabled": 0, "fusion_lat": 0.0, "lat": 38.93532783333333, "bike_id": "4b43995b1e6828bf139680b558694d5b", "fusion_lon": 0.0}, {"rental_uris": {"ios": "https://dc.lft.to/lastmile_qr_scan", "android": "https://dc.lft.to/lastmile_qr_scan"}, "type": "electric_scooter", "name": "114ee3e937f79c4659e7ede98c8aa759", "is_reserved": 0, "lon": -77.04905233333334, "is_disabled": 0, "fusion_lat": 0.0, "lat": 38.8884085, "bike_id": "114ee3e937f79c4659e7ede98c8aa759", "fusion_lon": 0.0}, {"rental_uris": {"ios": "https://dc.lft.to/lastmile_qr_scan", "android": "https://dc.lft.to/lastmile_qr_scan"}, "type": "electric_scooter", "name": "4db89a466b97704fd0891059f651cf21", "is_reserved": 0, "lon": -77.03460366666667, "is_disabled": 0, "fusion_lat": 0.0, "lat": 38.915834, "bike_id": "4db89a466b97704fd0891059f651cf21", "fusion_lon": 0.0}, {"rental_uris": {"ios": "https://dc.lft.to/lastmile_qr_scan", "android": "https://dc.lft.to/lastmile_qr_scan"}, "type": "electric_scooter", "name": "3e86b4f85c9e9db9c572f6b5c7426ac7", "is_reserved": 0, "lon": -77.0436365, "is_disabled": 0, "fusion_lat": 0.0, "lat": 38.921457, "bike_id": "3e86b4f85c9e9db9c572f6b5c7426ac7", "fusion_lon": 0.0}, {"rental_uris": {"ios": "https://dc.lft.to/lastmile_qr_scan", "android": "https://dc.lft.to/lastmile_qr_scan"}, "type": "electric_scooter", "name": "4f950dcea20f08b8d91d32e4cfba20de", "is_reserved": 0, "lon": -77.05512183333333, "is_disabled": 0, "fusion_lat": 0.0, "lat": 38.928350333333334, "bike_id": "4f950dcea20f08b8d91d32e4cfba20de", "fusion_lon": 0.0}, {"rental_uris": {"ios": "https://dc.lft.to/lastmile_qr_scan", "android": "https://dc.lft.to/lastmile_qr_scan"}, "type": "electric_scooter", "name": "c36bc54beef8754e894ee34a34840353", "is_reserved": 0, "lon": -77.041249, "is_disabled": 0, "fusion_lat": 0.0, "lat": 38.928745666666664, "bike_id": "c36bc54beef8754e894ee34a34840353", "fusion_lon": 0.0}, {"rental_uris": {"ios": "https://dc.lft.to/lastmile_qr_scan", "android": "https://dc.lft.to/lastmile_qr_scan"}, "type": "electric_scooter", "name": "8893c40c804b4ff816a280b2b56648a4", "is_reserved": 0, "lon": -76.94465683333334, "is_disabled": 0, "fusion_lat": 0.0, "lat": 38.890256, "bike_id": "8893c40c804b4ff816a280b2b56648a4", "fusion_lon": 0.0}, {"rental_uris": {"ios": "https://dc.lft.to/lastmile_qr_scan", "android": "https://dc.lft.to/lastmile_qr_scan"}, "type": "electric_scooter", "name": "c23e6355bf756313956669a6420a600e", "is_reserved": 0, "lon": -77.0710085, "is_disabled": 0, "fusion_lat": 0.0, "lat": 38.897893333333336, "bike_id": "c23e6355bf756313956669a6420a600e", "fusion_lon": 0.0}, {"rental_uris": {"ios": "https://dc.lft.to/lastmile_qr_scan", "android": "https://dc.lft.to/lastmile_qr_scan"}, "type": "electric_scooter", "name": "f904e8b606a5b81ea1393e3902aba7e6", "is_reserved": 0, "lon": -77.03853333333333, "is_disabled": 0, "fusion_lat": 0.0, "lat": 38.9101385, "bike_id": "f904e8b606a5b81ea1393e3902aba7e6", "fusion_lon": 0.0}, {"rental_uris": {"ios": "https://dc.lft.to/lastmile_qr_scan", "android": "https://dc.lft.to/lastmile_qr_scan"}, "type": "electric_scooter", "name": "8e638b3a125cba7df0d8141fdac674c5", "is_reserved": 0, "lon": -77.02852916666667, "is_disabled": 0, "fusion_lat": 0.0, "lat": 38.90443416666667, "bike_id": "8e638b3a125cba7df0d8141fdac674c5", "fusion_lon": 0.0}, {"rental_uris": {"ios": "https://dc.lft.to/lastmile_qr_scan", "android": "https://dc.lft.to/lastmile_qr_scan"}, "type": "electric_scooter", "name": "81e501e14568c4a4fb1e343aefe6882a", "is_reserved": 0, "lon": -77.04151233333333, "is_disabled": 0, "fusion_lat": 0.0, "lat": 38.9062025, "bike_id": "81e501e14568c4a4fb1e343aefe6882a", "fusion_lon": 0.0}, {"rental_uris": {"ios": "https://dc.lft.to/lastmile_qr_scan", "android": "https://dc.lft.to/lastmile_qr_scan"}, "type": "electric_scooter", "name": "73f299a6384b67b40939594ee6a7baaa", "is_reserved": 0, "lon": -76.94714183333333, "is_disabled": 0, "fusion_lat": 0.0, "lat": 38.8908465, "bike_id": "73f299a6384b67b40939594ee6a7baaa", "fusion_lon": 0.0}, {"rental_uris": {"ios": "https://dc.lft.to/lastmile_qr_scan", "android": "https://dc.lft.to/lastmile_qr_scan"}, "type": "electric_scooter", "name": "1c82ee4a7532865f950fb385adcbf4a5", "is_reserved": 0, "lon": -76.98355833333333, "is_disabled": 0, "fusion_lat": 0.0, "lat": 38.887301666666666, "bike_id": "1c82ee4a7532865f950fb385adcbf4a5", "fusion_lon": 0.0}, {"rental_uris": {"ios": "https://dc.lft.to/lastmile_qr_scan", "android": "https://dc.lft.to/lastmile_qr_scan"}, "type": "electric_scooter", "name": "72de520c51d47aa662605fc171e524d7", "is_reserved": 0, "lon": -77.00236066666666, "is_disabled": 0, "fusion_lat": 0.0, "lat": 38.907918333333335, "bike_id": "72de520c51d47aa662605fc171e524d7", "fusion_lon": 0.0}, {"rental_uris": {"ios": "https://dc.lft.to/lastmile_qr_scan", "android": "https://dc.lft.to/lastmile_qr_scan"}, "type": "electric_bike", "name": "58b08665cc6868ea7657b733c854b4e6", "is_reserved": 0, "lon": -76.95741983333333, "is_disabled": 0, "fusion_lat": 0.0, "lat": 38.88853016666667, "bike_id": "58b08665cc6868ea7657b733c854b4e6", "fusion_lon": 0.0}, {"rental_uris": {"ios": "https://dc.lft.to/lastmile_qr_scan", "android": "https://dc.lft.to/lastmile_qr_scan"}, "type": "electric_scooter", "name": "f055c18579733c99543cd8aef58660da", "is_reserved": 0, "lon": -77.005172, "is_disabled": 0, "fusion_lat": 0.0, "lat": 38.8967385, "bike_id": "f055c18579733c99543cd8aef58660da", "fusion_lon": 0.0}, {"rental_uris": {"ios": "https://dc.lft.to/lastmile_qr_scan", "android": "https://dc.lft.to/lastmile_qr_scan"}, "type": "electric_bike", "name": "4011d0d1f82253824c93cc7062eaba56", "is_reserved": 0, "lon": -77.0897665, "is_disabled": 0, "fusion_lat": 0.0, "lat": 38.84090616666667, "bike_id": "4011d0d1f82253824c93cc7062eaba56", "fusion_lon": 0.0}, {"rental_uris": {"ios": "https://dc.lft.to/lastmile_qr_scan", "android": "https://dc.lft.to/lastmile_qr_scan"}, "type": "electric_scooter", "name": "4c48277f664af479aac2ca39b673bb01", "is_reserved": 0, "lon": -77.03056783333334, "is_disabled": 0, "fusion_lat": 0.0, "lat": 38.8972875, "bike_id": "4c48277f664af479aac2ca39b673bb01", "fusion_lon": 0.0}, {"rental_uris": {"ios": "https://dc.lft.to/lastmile_qr_scan", "android": "https://dc.lft.to/lastmile_qr_scan"}, "type": "electric_scooter", "name": "f0cf2c0e2d94c73ea481b9d4928c1e6e", "is_reserved": 0, "lon": -77.043627, "is_disabled": 0, "fusion_lat": 0.0, "lat": 38.90133816666667, "bike_id": "f0cf2c0e2d94c73ea481b9d4928c1e6e", "fusion_lon": 0.0}, {"rental_uris": {"ios": "https://dc.lft.to/lastmile_qr_scan", "android": "https://dc.lft.to/lastmile_qr_scan"}, "type": "electric_scooter", "name": "edde7f5b05b634b5e52733833ed2dfeb", "is_reserved": 0, "lon": -76.92657933333334, "is_disabled": 0, "fusion_lat": 0.0, "lat": 38.882347833333334, "bike_id": "edde7f5b05b634b5e52733833ed2dfeb", "fusion_lon": 0.0}, {"rental_uris": {"ios": "https://dc.lft.to/lastmile_qr_scan", "android": "https://dc.lft.to/lastmile_qr_scan"}, "type": "electric_scooter", "name": "346d7402b2ca42fa5b935b1bde826036", "is_reserved": 0, "lon": -77.04151933333333, "is_disabled": 0, "fusion_lat": 0.0, "lat": 38.901387666666665, "bike_id": "346d7402b2ca42fa5b935b1bde826036", "fusion_lon": 0.0}, {"rental_uris": {"ios": "https://dc.lft.to/lastmile_qr_scan", "android": "https://dc.lft.to/lastmile_qr_scan"}, "type": "electric_scooter", "name": "b4c4342b4ecd61a1511b53048fbdd6c0", "is_reserved": 0, "lon": -77.04833083333334, "is_disabled": 0, "fusion_lat": 0.0, "lat": 38.9007145, "bike_id": "b4c4342b4ecd61a1511b53048fbdd6c0", "fusion_lon": 0.0}, {"rental_uris": {"ios": "https://dc.lft.to/lastmile_qr_scan", "android": "https://dc.lft.to/lastmile_qr_scan"}, "type": "electric_bike", "name": "15ea4812a6ad5c4c465a1cad2b0f9d40", "is_reserved": 0, "lon": -76.98994816666666, "is_disabled": 0, "fusion_lat": 0.0, "lat": 38.92436283333333, "bike_id": "15ea4812a6ad5c4c465a1cad2b0f9d40", "fusion_lon": 0.0}, {"rental_uris": {"ios": "https://dc.lft.to/lastmile_qr_scan", "android": "https://dc.lft.to/lastmile_qr_scan"}, "type": "electric_scooter", "name": "ea8e7d523ae98bb3e9b9d63e1cc44cf6", "is_reserved": 0, "lon": -77.0317535, "is_disabled": 0, "fusion_lat": 0.0, "lat": 38.9051625, "bike_id": "ea8e7d523ae98bb3e9b9d63e1cc44cf6", "fusion_lon": 0.0}, {"rental_uris": {"ios": "https://dc.lft.to/lastmile_qr_scan", "android": "https://dc.lft.to/lastmile_qr_scan"}, "type": "electric_scooter", "name": "761ca6a2d6224a084736364ac801ef31", "is_reserved": 0, "lon": -77.04501783333333, "is_disabled": 0, "fusion_lat": 0.0, "lat": 38.91418016666667, "bike_id": "761ca6a2d6224a084736364ac801ef31", "fusion_lon": 0.0}, {"rental_uris": {"ios": "https://dc.lft.to/lastmile_qr_scan", "android": "https://dc.lft.to/lastmile_qr_scan"}, "type": "electric_scooter", "name": "6ee4f832fb03a128299b9739a89cc5d0", "is_reserved": 0, "lon": -77.0087455, "is_disabled": 0, "fusion_lat": 0.0, "lat": 38.91176883333333, "bike_id": "6ee4f832fb03a128299b9739a89cc5d0", "fusion_lon": 0.0}, {"rental_uris": {"ios": "https://dc.lft.to/lastmile_qr_scan", "android": "https://dc.lft.to/lastmile_qr_scan"}, "type": "electric_bike", "name": "b7cff779d23a7ca7d51e1f35b66299bd", "is_reserved": 0, "lon": -77.034574, "is_disabled": 0, "fusion_lat": 0.0, "lat": 38.906391, "bike_id": "b7cff779d23a7ca7d51e1f35b66299bd", "fusion_lon": 0.0}, {"rental_uris": {"ios": "https://dc.lft.to/lastmile_qr_scan", "android": "https://dc.lft.to/lastmile_qr_scan"}, "type": "electric_scooter", "name": "d06069b477a4126fd84af667c1c7fdd6", "is_reserved": 0, "lon": -77.02020783333333, "is_disabled": 0, "fusion_lat": 0.0, "lat": 38.924369666666664, "bike_id": "d06069b477a4126fd84af667c1c7fdd6", "fusion_lon": 0.0}, {"rental_uris": {"ios": "https://dc.lft.to/lastmile_qr_scan", "android": "https://dc.lft.to/lastmile_qr_scan"}, "type": "electric_scooter", "name": "7c3b802fa40f2768c5b502a9e0f6b9ce", "is_reserved": 0, "lon": -77.04272483333334, "is_disabled": 0, "fusion_lat": 0.0, "lat": 38.92301666666667, "bike_id": "7c3b802fa40f2768c5b502a9e0f6b9ce", "fusion_lon": 0.0}, {"rental_uris": {"ios": "https://dc.lft.to/lastmile_qr_scan", "android": "https://dc.lft.to/lastmile_qr_scan"}, "type": "electric_scooter", "name": "e74059733e1d274beaeaa54694b084e9", "is_reserved": 0, "lon": -77.03023933333333, "is_disabled": 0, "fusion_lat": 0.0, "lat": 38.878459, "bike_id": "e74059733e1d274beaeaa54694b084e9", "fusion_lon": 0.0}, {"rental_uris": {"ios": "https://dc.lft.to/lastmile_qr_scan", "android": "https://dc.lft.to/lastmile_qr_scan"}, "type": "electric_bike", "name": "4c91cda23548514cef3de43492a97162", "is_reserved": 0, "lon": -77.02825433333334, "is_disabled": 0, "fusion_lat": 0.0, "lat": 38.96558433333333, "bike_id": "4c91cda23548514cef3de43492a97162", "fusion_lon": 0.0}, {"rental_uris": {"ios": "https://dc.lft.to/lastmile_qr_scan", "android": "https://dc.lft.to/lastmile_qr_scan"}, "type": "electric_scooter", "name": "fa1ce7549a802b8b6ab3575a8d3851d5", "is_reserved": 0, "lon": -76.99958133333334, "is_disabled": 0, "fusion_lat": 0.0, "lat": 38.90767983333333, "bike_id": "fa1ce7549a802b8b6ab3575a8d3851d5", "fusion_lon": 0.0}, {"rental_uris": {"ios": "https://dc.lft.to/lastmile_qr_scan", "android": "https://dc.lft.to/lastmile_qr_scan"}, "type": "electric_scooter", "name": "e1969421f738dcc3e581ba4011270f76", "is_reserved": 0, "lon": -77.02932766666666, "is_disabled": 0, "fusion_lat": 0.0, "lat": 38.884034666666665, "bike_id": "e1969421f738dcc3e581ba4011270f76", "fusion_lon": 0.0}, {"rental_uris": {"ios": "https://dc.lft.to/lastmile_qr_scan", "android": "https://dc.lft.to/lastmile_qr_scan"}, "type": "electric_scooter", "name": "1fad120f94ad2203669f7778891c70b9", "is_reserved": 0, "lon": -77.031884, "is_disabled": 0, "fusion_lat": 0.0, "lat": 38.913936166666666, "bike_id": "1fad120f94ad2203669f7778891c70b9", "fusion_lon": 0.0}, {"rental_uris": {"ios": "https://dc.lft.to/lastmile_qr_scan", "android": "https://dc.lft.to/lastmile_qr_scan"}, "type": "electric_scooter", "name": "7084162794c082a7cc3a08fda6be1192", "is_reserved": 0, "lon": -77.03211216666666, "is_disabled": 0, "fusion_lat": 0.0, "lat": 38.911932, "bike_id": "7084162794c082a7cc3a08fda6be1192", "fusion_lon": 0.0}, {"rental_uris": {"ios": "https://dc.lft.to/lastmile_qr_scan", "android": "https://dc.lft.to/lastmile_qr_scan"}, "type": "electric_scooter", "name": "ff5fd8bd5646d2a6fc0e5329ebf8ebe9", "is_reserved": 0, "lon": -77.02964066666667, "is_disabled": 0, "fusion_lat": 0.0, "lat": 38.92522233333333, "bike_id": "ff5fd8bd5646d2a6fc0e5329ebf8ebe9", "fusion_lon": 0.0}, {"rental_uris": {"ios": "https://dc.lft.to/lastmile_qr_scan", "android": "https://dc.lft.to/lastmile_qr_scan"}, "type": "electric_bike", "name": "9b519d935f290855c516968d98e331b1", "is_reserved": 0, "lon": -76.98014816666667, "is_disabled": 0, "fusion_lat": 0.0, "lat": 38.853108166666665, "bike_id": "9b519d935f290855c516968d98e331b1", "fusion_lon": 0.0}, {"rental_uris": {"ios": "https://dc.lft.to/lastmile_qr_scan", "android": "https://dc.lft.to/lastmile_qr_scan"}, "type": "electric_scooter", "name": "3ecd0825836baf9a6a4dff5e52509a77", "is_reserved": 0, "lon": -77.042169, "is_disabled": 0, "fusion_lat": 0.0, "lat": 38.921277, "bike_id": "3ecd0825836baf9a6a4dff5e52509a77", "fusion_lon": 0.0}, {"rental_uris": {"ios": "https://dc.lft.to/lastmile_qr_scan", "android": "https://dc.lft.to/lastmile_qr_scan"}, "type": "electric_scooter", "name": "ffa4bde81c86e40400076d8a04d99d50", "is_reserved": 0, "lon": -77.03837566666667, "is_disabled": 0, "fusion_lat": 0.0, "lat": 38.92177683333333, "bike_id": "ffa4bde81c86e40400076d8a04d99d50", "fusion_lon": 0.0}, {"rental_uris": {"ios": "https://dc.lft.to/lastmile_qr_scan", "android": "https://dc.lft.to/lastmile_qr_scan"}, "type": "electric_scooter", "name": "bea30b91512390904d66b8991f0e4352", "is_reserved": 0, "lon": -77.00519216666666, "is_disabled": 0, "fusion_lat": 0.0, "lat": 38.876443333333334, "bike_id": "bea30b91512390904d66b8991f0e4352", "fusion_lon": 0.0}, {"rental_uris": {"ios": "https://dc.lft.to/lastmile_qr_scan", "android": "https://dc.lft.to/lastmile_qr_scan"}, "type": "electric_scooter", "name": "dedb95cfab9a4e33c11093692348ae04", "is_reserved": 0, "lon": -77.0209295, "is_disabled": 0, "fusion_lat": 0.0, "lat": 38.9326185, "bike_id": "dedb95cfab9a4e33c11093692348ae04", "fusion_lon": 0.0}, {"rental_uris": {"ios": "https://dc.lft.to/lastmile_qr_scan", "android": "https://dc.lft.to/lastmile_qr_scan"}, "type": "electric_scooter", "name": "138fe5b28bb3c26288dbf3d2ab793926", "is_reserved": 0, "lon": -77.04084, "is_disabled": 0, "fusion_lat": 0.0, "lat": 38.94787766666666, "bike_id": "138fe5b28bb3c26288dbf3d2ab793926", "fusion_lon": 0.0}, {"rental_uris": {"ios": "https://dc.lft.to/lastmile_qr_scan", "android": "https://dc.lft.to/lastmile_qr_scan"}, "type": "electric_bike", "name": "e2a9956e7fccbb27b8dacb3fe9ce1620", "is_reserved": 0, "lon": -76.9907075, "is_disabled": 0, "fusion_lat": 0.0, "lat": 38.898057666666666, "bike_id": "e2a9956e7fccbb27b8dacb3fe9ce1620", "fusion_lon": 0.0}, {"rental_uris": {"ios": "https://dc.lft.to/lastmile_qr_scan", "android": "https://dc.lft.to/lastmile_qr_scan"}, "type": "electric_bike", "name": "17d42159ef78c72ba1f72030b49da053", "is_reserved": 0, "lon": -76.9824735, "is_disabled": 0, "fusion_lat": 0.0, "lat": 38.952409, "bike_id": "17d42159ef78c72ba1f72030b49da053", "fusion_lon": 0.0}, {"rental_uris": {"ios": "https://dc.lft.to/lastmile_qr_scan", "android": "https://dc.lft.to/lastmile_qr_scan"}, "type": "electric_scooter", "name": "d25230241106cc55975fe3ddad18adc9", "is_reserved": 0, "lon": -76.98149866666667, "is_disabled": 0, "fusion_lat": 0.0, "lat": 38.89933716666667, "bike_id": "d25230241106cc55975fe3ddad18adc9", "fusion_lon": 0.0}, {"rental_uris": {"ios": "https://dc.lft.to/lastmile_qr_scan", "android": "https://dc.lft.to/lastmile_qr_scan"}, "type": "electric_scooter", "name": "fa6fa740dee4ef87bafbc870dcb368db", "is_reserved": 0, "lon": -77.03269133333333, "is_disabled": 0, "fusion_lat": 0.0, "lat": 38.912617, "bike_id": "fa6fa740dee4ef87bafbc870dcb368db", "fusion_lon": 0.0}, {"rental_uris": {"ios": "https://dc.lft.to/lastmile_qr_scan", "android": "https://dc.lft.to/lastmile_qr_scan"}, "type": "electric_scooter", "name": "b1258e58dea66189e2312e576a4f966b", "is_reserved": 0, "lon": -77.02148383333333, "is_disabled": 0, "fusion_lat": 0.0, "lat": 38.90302, "bike_id": "b1258e58dea66189e2312e576a4f966b", "fusion_lon": 0.0}, {"rental_uris": {"ios": "https://dc.lft.to/lastmile_qr_scan", "android": "https://dc.lft.to/lastmile_qr_scan"}, "type": "electric_scooter", "name": "e3d7bcf766355f5256b4fd49f0614078", "is_reserved": 0, "lon": -77.0390915, "is_disabled": 0, "fusion_lat": 0.0, "lat": 38.9244755, "bike_id": "e3d7bcf766355f5256b4fd49f0614078", "fusion_lon": 0.0}, {"rental_uris": {"ios": "https://dc.lft.to/lastmile_qr_scan", "android": "https://dc.lft.to/lastmile_qr_scan"}, "type": "electric_scooter", "name": "89dd68a16a53bf38e9ba548f37a5ba87", "is_reserved": 0, "lon": -76.999062, "is_disabled": 0, "fusion_lat": 0.0, "lat": 38.937476333333336, "bike_id": "89dd68a16a53bf38e9ba548f37a5ba87", "fusion_lon": 0.0}, {"rental_uris": {"ios": "https://dc.lft.to/lastmile_qr_scan", "android": "https://dc.lft.to/lastmile_qr_scan"}, "type": "electric_scooter", "name": "c439167a58c4ac1e5af2d2a80398d8c4", "is_reserved": 0, "lon": -77.02383866666666, "is_disabled": 0, "fusion_lat": 0.0, "lat": 38.91999883333333, "bike_id": "c439167a58c4ac1e5af2d2a80398d8c4", "fusion_lon": 0.0}, {"rental_uris": {"ios": "https://dc.lft.to/lastmile_qr_scan", "android": "https://dc.lft.to/lastmile_qr_scan"}, "type": "electric_scooter", "name": "605931619d8563e3332f152fd194d128", "is_reserved": 0, "lon": -76.98356466666667, "is_disabled": 0, "fusion_lat": 0.0, "lat": 38.887423, "bike_id": "605931619d8563e3332f152fd194d128", "fusion_lon": 0.0}, {"rental_uris": {"ios": "https://dc.lft.to/lastmile_qr_scan", "android": "https://dc.lft.to/lastmile_qr_scan"}, "type": "electric_scooter", "name": "14560e83dcb5ca98b1ee8a720294bee4", "is_reserved": 0, "lon": -77.048684, "is_disabled": 0, "fusion_lat": 0.0, "lat": 38.91101716666667, "bike_id": "14560e83dcb5ca98b1ee8a720294bee4", "fusion_lon": 0.0}, {"rental_uris": {"ios": "https://dc.lft.to/lastmile_qr_scan", "android": "https://dc.lft.to/lastmile_qr_scan"}, "type": "electric_bike", "name": "957b8813f924e1a0e85d57c8811f8cda", "is_reserved": 0, "lon": -76.98687216666667, "is_disabled": 0, "fusion_lat": 0.0, "lat": 38.94475583333333, "bike_id": "957b8813f924e1a0e85d57c8811f8cda", "fusion_lon": 0.0}, {"rental_uris": {"ios": "https://dc.lft.to/lastmile_qr_scan", "android": "https://dc.lft.to/lastmile_qr_scan"}, "type": "electric_scooter", "name": "9f59d0c29a1f24d24e9c12b02bbddfff", "is_reserved": 0, "lon": -77.027177, "is_disabled": 0, "fusion_lat": 0.0, "lat": 38.905245666666666, "bike_id": "9f59d0c29a1f24d24e9c12b02bbddfff", "fusion_lon": 0.0}, {"rental_uris": {"ios": "https://dc.lft.to/lastmile_qr_scan", "android": "https://dc.lft.to/lastmile_qr_scan"}, "type": "electric_scooter", "name": "49bec011361a8cdc2dd2f367c61a6540", "is_reserved": 0, "lon": -77.03848933333333, "is_disabled": 0, "fusion_lat": 0.0, "lat": 38.911681, "bike_id": "49bec011361a8cdc2dd2f367c61a6540", "fusion_lon": 0.0}, {"rental_uris": {"ios": "https://dc.lft.to/lastmile_qr_scan", "android": "https://dc.lft.to/lastmile_qr_scan"}, "type": "electric_scooter", "name": "64f9645556d0f3b1cdc6963b75eb00a9", "is_reserved": 0, "lon": -77.04120166666667, "is_disabled": 0, "fusion_lat": 0.0, "lat": 38.93384066666667, "bike_id": "64f9645556d0f3b1cdc6963b75eb00a9", "fusion_lon": 0.0}, {"rental_uris": {"ios": "https://dc.lft.to/lastmile_qr_scan", "android": "https://dc.lft.to/lastmile_qr_scan"}, "type": "electric_scooter", "name": "ba89994c9400e2bf500055ed7dfc0313", "is_reserved": 0, "lon": -77.05511633333333, "is_disabled": 0, "fusion_lat": 0.0, "lat": 38.928292, "bike_id": "ba89994c9400e2bf500055ed7dfc0313", "fusion_lon": 0.0}, {"rental_uris": {"ios": "https://dc.lft.to/lastmile_qr_scan", "android": "https://dc.lft.to/lastmile_qr_scan"}, "type": "electric_bike", "name": "4b707501a8ba0ae9a4d376980ae02489", "is_reserved": 0, "lon": -77.0653045, "is_disabled": 0, "fusion_lat": 0.0, "lat": 38.9922385, "bike_id": "4b707501a8ba0ae9a4d376980ae02489", "fusion_lon": 0.0}, {"rental_uris": {"ios": "https://dc.lft.to/lastmile_qr_scan", "android": "https://dc.lft.to/lastmile_qr_scan"}, "type": "electric_bike", "name": "7513433f27ebf68b0a0dc6ae7f8e1429", "is_reserved": 0, "lon": -77.03771883333333, "is_disabled": 0, "fusion_lat": 0.0, "lat": 38.93587983333333, "bike_id": "7513433f27ebf68b0a0dc6ae7f8e1429", "fusion_lon": 0.0}, {"rental_uris": {"ios": "https://dc.lft.to/lastmile_qr_scan", "android": "https://dc.lft.to/lastmile_qr_scan"}, "type": "electric_scooter", "name": "3b8906f189c29de0d20f91ee3259a5d2", "is_reserved": 0, "lon": -77.01946483333333, "is_disabled": 0, "fusion_lat": 0.0, "lat": 38.93040366666666, "bike_id": "3b8906f189c29de0d20f91ee3259a5d2", "fusion_lon": 0.0}, {"rental_uris": {"ios": "https://dc.lft.to/lastmile_qr_scan", "android": "https://dc.lft.to/lastmile_qr_scan"}, "type": "electric_bike", "name": "71fa8cbc279d8663d49546caae38703b", "is_reserved": 0, "lon": -77.09722466666666, "is_disabled": 0, "fusion_lat": 0.0, "lat": 38.80739066666667, "bike_id": "71fa8cbc279d8663d49546caae38703b", "fusion_lon": 0.0}, {"rental_uris": {"ios": "https://dc.lft.to/lastmile_qr_scan", "android": "https://dc.lft.to/lastmile_qr_scan"}, "type": "electric_scooter", "name": "2aab8fc90f72ba25d552fb7dd5971fd7", "is_reserved": 0, "lon": -77.01553933333334, "is_disabled": 0, "fusion_lat": 0.0, "lat": 38.8760395, "bike_id": "2aab8fc90f72ba25d552fb7dd5971fd7", "fusion_lon": 0.0}, {"rental_uris": {"ios": "https://dc.lft.to/lastmile_qr_scan", "android": "https://dc.lft.to/lastmile_qr_scan"}, "type": "electric_scooter", "name": "309d0157e592813b78d637b07fef9dfc", "is_reserved": 0, "lon": -77.0497705, "is_disabled": 0, "fusion_lat": 0.0, "lat": 38.905179, "bike_id": "309d0157e592813b78d637b07fef9dfc", "fusion_lon": 0.0}, {"rental_uris": {"ios": "https://dc.lft.to/lastmile_qr_scan", "android": "https://dc.lft.to/lastmile_qr_scan"}, "type": "electric_scooter", "name": "731b3a8c8959fc59a4af7ee248505302", "is_reserved": 0, "lon": -76.98694966666666, "is_disabled": 0, "fusion_lat": 0.0, "lat": 38.88837316666667, "bike_id": "731b3a8c8959fc59a4af7ee248505302", "fusion_lon": 0.0}, {"rental_uris": {"ios": "https://dc.lft.to/lastmile_qr_scan", "android": "https://dc.lft.to/lastmile_qr_scan"}, "type": "electric_scooter", "name": "d9c1c7657213e2659b1f1c8244c4c8ce", "is_reserved": 0, "lon": -77.04211983333333, "is_disabled": 0, "fusion_lat": 0.0, "lat": 38.91709933333333, "bike_id": "d9c1c7657213e2659b1f1c8244c4c8ce", "fusion_lon": 0.0}, {"rental_uris": {"ios": "https://dc.lft.to/lastmile_qr_scan", "android": "https://dc.lft.to/lastmile_qr_scan"}, "type": "electric_scooter", "name": "520f0196a157f251959d13857e2758d3", "is_reserved": 0, "lon": -77.00943883333333, "is_disabled": 0, "fusion_lat": 0.0, "lat": 38.912673, "bike_id": "520f0196a157f251959d13857e2758d3", "fusion_lon": 0.0}, {"rental_uris": {"ios": "https://dc.lft.to/lastmile_qr_scan", "android": "https://dc.lft.to/lastmile_qr_scan"}, "type": "electric_scooter", "name": "2860ce097ce693b1ed71d3ca1dff64c9", "is_reserved": 0, "lon": -77.06348683333333, "is_disabled": 0, "fusion_lat": 0.0, "lat": 38.943588166666665, "bike_id": "2860ce097ce693b1ed71d3ca1dff64c9", "fusion_lon": 0.0}, {"rental_uris": {"ios": "https://dc.lft.to/lastmile_qr_scan", "android": "https://dc.lft.to/lastmile_qr_scan"}, "type": "electric_bike", "name": "ce18fb10b1ad8b87c2e777f3bd6c0d46", "is_reserved": 0, "lon": -76.978592, "is_disabled": 0, "fusion_lat": 0.0, "lat": 38.98376583333334, "bike_id": "ce18fb10b1ad8b87c2e777f3bd6c0d46", "fusion_lon": 0.0}, {"rental_uris": {"ios": "https://dc.lft.to/lastmile_qr_scan", "android": "https://dc.lft.to/lastmile_qr_scan"}, "type": "electric_scooter", "name": "86e69b2936abf74ff2ca38744d5434e6", "is_reserved": 0, "lon": -76.97939216666667, "is_disabled": 0, "fusion_lat": 0.0, "lat": 38.91601933333333, "bike_id": "86e69b2936abf74ff2ca38744d5434e6", "fusion_lon": 0.0}, {"rental_uris": {"ios": "https://dc.lft.to/lastmile_qr_scan", "android": "https://dc.lft.to/lastmile_qr_scan"}, "type": "electric_scooter", "name": "a502afdcaed663711d47750d4afad321", "is_reserved": 0, "lon": -77.01340683333333, "is_disabled": 0, "fusion_lat": 0.0, "lat": 38.9191035, "bike_id": "a502afdcaed663711d47750d4afad321", "fusion_lon": 0.0}, {"rental_uris": {"ios": "https://dc.lft.to/lastmile_qr_scan", "android": "https://dc.lft.to/lastmile_qr_scan"}, "type": "electric_scooter", "name": "c756573b165feb8ad855b093429f67ca", "is_reserved": 0, "lon": -77.03206466666667, "is_disabled": 0, "fusion_lat": 0.0, "lat": 38.916341, "bike_id": "c756573b165feb8ad855b093429f67ca", "fusion_lon": 0.0}, {"rental_uris": {"ios": "https://dc.lft.to/lastmile_qr_scan", "android": "https://dc.lft.to/lastmile_qr_scan"}, "type": "electric_scooter", "name": "26b952c3651e2953312c65343654153e", "is_reserved": 0, "lon": -77.0297035, "is_disabled": 0, "fusion_lat": 0.0, "lat": 38.92282433333333, "bike_id": "26b952c3651e2953312c65343654153e", "fusion_lon": 0.0}, {"rental_uris": {"ios": "https://dc.lft.to/lastmile_qr_scan", "android": "https://dc.lft.to/lastmile_qr_scan"}, "type": "electric_scooter", "name": "59495e609f33b0234055ed1f65c4cf0a", "is_reserved": 0, "lon": -77.03268233333333, "is_disabled": 0, "fusion_lat": 0.0, "lat": 38.919851, "bike_id": "59495e609f33b0234055ed1f65c4cf0a", "fusion_lon": 0.0}, {"rental_uris": {"ios": "https://dc.lft.to/lastmile_qr_scan", "android": "https://dc.lft.to/lastmile_qr_scan"}, "type": "electric_scooter", "name": "836f6f39dd94e1b5638a11a3241666f0", "is_reserved": 0, "lon": -77.00583566666667, "is_disabled": 0, "fusion_lat": 0.0, "lat": 38.874510666666666, "bike_id": "836f6f39dd94e1b5638a11a3241666f0", "fusion_lon": 0.0}, {"rental_uris": {"ios": "https://dc.lft.to/lastmile_qr_scan", "android": "https://dc.lft.to/lastmile_qr_scan"}, "type": "electric_bike", "name": "454dc5ad310c7a64c838c94790d44512", "is_reserved": 0, "lon": -77.0995575, "is_disabled": 0, "fusion_lat": 0.0, "lat": 38.857887833333336, "bike_id": "454dc5ad310c7a64c838c94790d44512", "fusion_lon": 0.0}, {"rental_uris": {"ios": "https://dc.lft.to/lastmile_qr_scan", "android": "https://dc.lft.to/lastmile_qr_scan"}, "type": "electric_scooter", "name": "c40185478e0878086d820e474017fbf7", "is_reserved": 0, "lon": -77.02625416666666, "is_disabled": 0, "fusion_lat": 0.0, "lat": 38.892162, "bike_id": "c40185478e0878086d820e474017fbf7", "fusion_lon": 0.0}, {"rental_uris": {"ios": "https://dc.lft.to/lastmile_qr_scan", "android": "https://dc.lft.to/lastmile_qr_scan"}, "type": "electric_bike", "name": "0ac53ec69aea35847f0d68f985eb72e6", "is_reserved": 0, "lon": -77.12913183333333, "is_disabled": 0, "fusion_lat": 0.0, "lat": 38.7996945, "bike_id": "0ac53ec69aea35847f0d68f985eb72e6", "fusion_lon": 0.0}, {"rental_uris": {"ios": "https://dc.lft.to/lastmile_qr_scan", "android": "https://dc.lft.to/lastmile_qr_scan"}, "type": "electric_scooter", "name": "4dfa78a755ebdf8da5c7f3a8dbb0a571", "is_reserved": 0, "lon": -77.05232033333333, "is_disabled": 0, "fusion_lat": 0.0, "lat": 38.92459933333333, "bike_id": "4dfa78a755ebdf8da5c7f3a8dbb0a571", "fusion_lon": 0.0}, {"rental_uris": {"ios": "https://dc.lft.to/lastmile_qr_scan", "android": "https://dc.lft.to/lastmile_qr_scan"}, "type": "electric_bike", "name": "c971744b60b134b610742602aa999986", "is_reserved": 0, "lon": -76.9180565, "is_disabled": 0, "fusion_lat": 0.0, "lat": 38.99996983333333, "bike_id": "c971744b60b134b610742602aa999986", "fusion_lon": 0.0}, {"rental_uris": {"ios": "https://dc.lft.to/lastmile_qr_scan", "android": "https://dc.lft.to/lastmile_qr_scan"}, "type": "electric_scooter", "name": "83af3a12efb6fd1887f6b332a414cf1b", "is_reserved": 0, "lon": -77.006439, "is_disabled": 0, "fusion_lat": 0.0, "lat": 38.876617833333334, "bike_id": "83af3a12efb6fd1887f6b332a414cf1b", "fusion_lon": 0.0}, {"rental_uris": {"ios": "https://dc.lft.to/lastmile_qr_scan", "android": "https://dc.lft.to/lastmile_qr_scan"}, "type": "electric_scooter", "name": "cdeace0bd0c0c5427c572e43b1ea1f61", "is_reserved": 0, "lon": -76.9949245, "is_disabled": 0, "fusion_lat": 0.0, "lat": 38.88228333333333, "bike_id": "cdeace0bd0c0c5427c572e43b1ea1f61", "fusion_lon": 0.0}, {"rental_uris": {"ios": "https://dc.lft.to/lastmile_qr_scan", "android": "https://dc.lft.to/lastmile_qr_scan"}, "type": "electric_scooter", "name": "52e3adca32cb0052fe6bc92c3be8d5ef", "is_reserved": 0, "lon": -77.03582466666667, "is_disabled": 0, "fusion_lat": 0.0, "lat": 38.92854666666667, "bike_id": "52e3adca32cb0052fe6bc92c3be8d5ef", "fusion_lon": 0.0}, {"rental_uris": {"ios": "https://dc.lft.to/lastmile_qr_scan", "android": "https://dc.lft.to/lastmile_qr_scan"}, "type": "electric_bike", "name": "98780ddf1d161a98519d2a1b5564765c", "is_reserved": 0, "lon": -77.01221833333334, "is_disabled": 0, "fusion_lat": 0.0, "lat": 38.8718135, "bike_id": "98780ddf1d161a98519d2a1b5564765c", "fusion_lon": 0.0}, {"rental_uris": {"ios": "https://dc.lft.to/lastmile_qr_scan", "android": "https://dc.lft.to/lastmile_qr_scan"}, "type": "electric_scooter", "name": "ad0fc0db75b209d36dc84c135a50aa7c", "is_reserved": 0, "lon": -77.04361966666667, "is_disabled": 0, "fusion_lat": 0.0, "lat": 38.92244066666667, "bike_id": "ad0fc0db75b209d36dc84c135a50aa7c", "fusion_lon": 0.0}, {"rental_uris": {"ios": "https://dc.lft.to/lastmile_qr_scan", "android": "https://dc.lft.to/lastmile_qr_scan"}, "type": "electric_bike", "name": "baf05ebb93eb5651b10094f048d47a06", "is_reserved": 0, "lon": -76.99545883333333, "is_disabled": 0, "fusion_lat": 0.0, "lat": 38.8315775, "bike_id": "baf05ebb93eb5651b10094f048d47a06", "fusion_lon": 0.0}, {"rental_uris": {"ios": "https://dc.lft.to/lastmile_qr_scan", "android": "https://dc.lft.to/lastmile_qr_scan"}, "type": "electric_scooter", "name": "edccd667f5798519566bbce67437cfdf", "is_reserved": 0, "lon": -77.0151195, "is_disabled": 0, "fusion_lat": 0.0, "lat": 38.887347, "bike_id": "edccd667f5798519566bbce67437cfdf", "fusion_lon": 0.0}, {"rental_uris": {"ios": "https://dc.lft.to/lastmile_qr_scan", "android": "https://dc.lft.to/lastmile_qr_scan"}, "type": "electric_scooter", "name": "d93b67bc8b6a4b7c8563f976567a461e", "is_reserved": 0, "lon": -77.00900933333334, "is_disabled": 0, "fusion_lat": 0.0, "lat": 38.898947166666666, "bike_id": "d93b67bc8b6a4b7c8563f976567a461e", "fusion_lon": 0.0}, {"rental_uris": {"ios": "https://dc.lft.to/lastmile_qr_scan", "android": "https://dc.lft.to/lastmile_qr_scan"}, "type": "electric_scooter", "name": "0b3da2e9ef99ead31fedc9b05b067519", "is_reserved": 0, "lon": -76.979392, "is_disabled": 0, "fusion_lat": 0.0, "lat": 38.9065755, "bike_id": "0b3da2e9ef99ead31fedc9b05b067519", "fusion_lon": 0.0}, {"rental_uris": {"ios": "https://dc.lft.to/lastmile_qr_scan", "android": "https://dc.lft.to/lastmile_qr_scan"}, "type": "electric_scooter", "name": "e151ab4ac3f32eb19ccf658c294f19d2", "is_reserved": 0, "lon": -77.03645833333333, "is_disabled": 0, "fusion_lat": 0.0, "lat": 38.93761716666667, "bike_id": "e151ab4ac3f32eb19ccf658c294f19d2", "fusion_lon": 0.0}, {"rental_uris": {"ios": "https://dc.lft.to/lastmile_qr_scan", "android": "https://dc.lft.to/lastmile_qr_scan"}, "type": "electric_scooter", "name": "b6dcd4b4ca83cc0828aeffa898d9ab78", "is_reserved": 0, "lon": -77.04607183333333, "is_disabled": 0, "fusion_lat": 0.0, "lat": 38.91618916666667, "bike_id": "b6dcd4b4ca83cc0828aeffa898d9ab78", "fusion_lon": 0.0}, {"rental_uris": {"ios": "https://dc.lft.to/lastmile_qr_scan", "android": "https://dc.lft.to/lastmile_qr_scan"}, "type": "electric_scooter", "name": "1c06b6ab856cf6fe775d23b5116dbb20", "is_reserved": 0, "lon": -76.99614183333334, "is_disabled": 0, "fusion_lat": 0.0, "lat": 38.931710333333335, "bike_id": "1c06b6ab856cf6fe775d23b5116dbb20", "fusion_lon": 0.0}, {"rental_uris": {"ios": "https://dc.lft.to/lastmile_qr_scan", "android": "https://dc.lft.to/lastmile_qr_scan"}, "type": "electric_scooter", "name": "d9ef4eb682ffe7f0f694fa3df6de5344", "is_reserved": 0, "lon": -77.03665633333334, "is_disabled": 0, "fusion_lat": 0.0, "lat": 38.932055166666665, "bike_id": "d9ef4eb682ffe7f0f694fa3df6de5344", "fusion_lon": 0.0}, {"rental_uris": {"ios": "https://dc.lft.to/lastmile_qr_scan", "android": "https://dc.lft.to/lastmile_qr_scan"}, "type": "electric_scooter", "name": "f4db5f77b39a3004e3b2009bdd140529", "is_reserved": 0, "lon": -77.04690233333334, "is_disabled": 0, "fusion_lat": 0.0, "lat": 38.89740416666667, "bike_id": "f4db5f77b39a3004e3b2009bdd140529", "fusion_lon": 0.0}, {"rental_uris": {"ios": "https://dc.lft.to/lastmile_qr_scan", "android": "https://dc.lft.to/lastmile_qr_scan"}, "type": "electric_scooter", "name": "b49c6c4e0fa6ec5bcce93b6f74cc9c0b", "is_reserved": 0, "lon": -76.99643933333333, "is_disabled": 0, "fusion_lat": 0.0, "lat": 38.887692333333334, "bike_id": "b49c6c4e0fa6ec5bcce93b6f74cc9c0b", "fusion_lon": 0.0}, {"rental_uris": {"ios": "https://dc.lft.to/lastmile_qr_scan", "android": "https://dc.lft.to/lastmile_qr_scan"}, "type": "electric_scooter", "name": "f1189feac44dec6fb49f8e6157da8a43", "is_reserved": 0, "lon": -77.04658833333333, "is_disabled": 0, "fusion_lat": 0.0, "lat": 38.893404, "bike_id": "f1189feac44dec6fb49f8e6157da8a43", "fusion_lon": 0.0}, {"rental_uris": {"ios": "https://dc.lft.to/lastmile_qr_scan", "android": "https://dc.lft.to/lastmile_qr_scan"}, "type": "electric_scooter", "name": "bae9b87d2a2559de5e6be7e0433b7066", "is_reserved": 0, "lon": -77.02168483333334, "is_disabled": 0, "fusion_lat": 0.0, "lat": 38.92001583333333, "bike_id": "bae9b87d2a2559de5e6be7e0433b7066", "fusion_lon": 0.0}, {"rental_uris": {"ios": "https://dc.lft.to/lastmile_qr_scan", "android": "https://dc.lft.to/lastmile_qr_scan"}, "type": "electric_scooter", "name": "331a3580dbb4b851420c52f15bf88bee", "is_reserved": 0, "lon": -76.95286383333334, "is_disabled": 0, "fusion_lat": 0.0, "lat": 38.8902355, "bike_id": "331a3580dbb4b851420c52f15bf88bee", "fusion_lon": 0.0}, {"rental_uris": {"ios": "https://dc.lft.to/lastmile_qr_scan", "android": "https://dc.lft.to/lastmile_qr_scan"}, "type": "electric_scooter", "name": "eeed70a372dc1909cb86cebe7748daff", "is_reserved": 0, "lon": -77.021558, "is_disabled": 0, "fusion_lat": 0.0, "lat": 38.88740416666667, "bike_id": "eeed70a372dc1909cb86cebe7748daff", "fusion_lon": 0.0}, {"rental_uris": {"ios": "https://dc.lft.to/lastmile_qr_scan", "android": "https://dc.lft.to/lastmile_qr_scan"}, "type": "electric_bike", "name": "491043a5053c511f0189fe78ad4b34c6", "is_reserved": 0, "lon": -76.9809155, "is_disabled": 0, "fusion_lat": 0.0, "lat": 38.9535485, "bike_id": "491043a5053c511f0189fe78ad4b34c6", "fusion_lon": 0.0}, {"rental_uris": {"ios": "https://dc.lft.to/lastmile_qr_scan", "android": "https://dc.lft.to/lastmile_qr_scan"}, "type": "electric_scooter", "name": "152189739d828d81a79fdb529fba1b2d", "is_reserved": 0, "lon": -77.027172, "is_disabled": 0, "fusion_lat": 0.0, "lat": 38.91725266666667, "bike_id": "152189739d828d81a79fdb529fba1b2d", "fusion_lon": 0.0}, {"rental_uris": {"ios": "https://dc.lft.to/lastmile_qr_scan", "android": "https://dc.lft.to/lastmile_qr_scan"}, "type": "electric_scooter", "name": "47e9851fa70b3a5f6dca94e6419c7971", "is_reserved": 0, "lon": -77.006129, "is_disabled": 0, "fusion_lat": 0.0, "lat": 38.905847666666666, "bike_id": "47e9851fa70b3a5f6dca94e6419c7971", "fusion_lon": 0.0}, {"rental_uris": {"ios": "https://dc.lft.to/lastmile_qr_scan", "android": "https://dc.lft.to/lastmile_qr_scan"}, "type": "electric_scooter", "name": "6645405d07d01450327e654b4f0d514d", "is_reserved": 0, "lon": -77.0379705, "is_disabled": 0, "fusion_lat": 0.0, "lat": 38.9331745, "bike_id": "6645405d07d01450327e654b4f0d514d", "fusion_lon": 0.0}, {"rental_uris": {"ios": "https://dc.lft.to/lastmile_qr_scan", "android": "https://dc.lft.to/lastmile_qr_scan"}, "type": "electric_scooter", "name": "117350d9630b8906931db2185f936c28", "is_reserved": 0, "lon": -77.01337483333333, "is_disabled": 0, "fusion_lat": 0.0, "lat": 38.88124416666667, "bike_id": "117350d9630b8906931db2185f936c28", "fusion_lon": 0.0}, {"rental_uris": {"ios": "https://dc.lft.to/lastmile_qr_scan", "android": "https://dc.lft.to/lastmile_qr_scan"}, "type": "electric_scooter", "name": "7e11a3ce88b8723be7878c5eb540eab3", "is_reserved": 0, "lon": -77.03408133333333, "is_disabled": 0, "fusion_lat": 0.0, "lat": 38.909574666666664, "bike_id": "7e11a3ce88b8723be7878c5eb540eab3", "fusion_lon": 0.0}, {"rental_uris": {"ios": "https://dc.lft.to/lastmile_qr_scan", "android": "https://dc.lft.to/lastmile_qr_scan"}, "type": "electric_scooter", "name": "b605eb263c7efe239775484407aa970e", "is_reserved": 0, "lon": -77.04200883333333, "is_disabled": 0, "fusion_lat": 0.0, "lat": 38.922509166666664, "bike_id": "b605eb263c7efe239775484407aa970e", "fusion_lon": 0.0}, {"rental_uris": {"ios": "https://dc.lft.to/lastmile_qr_scan", "android": "https://dc.lft.to/lastmile_qr_scan"}, "type": "electric_scooter", "name": "f74b006df51e51cba293505391abb8e8", "is_reserved": 0, "lon": -77.03461816666666, "is_disabled": 0, "fusion_lat": 0.0, "lat": 38.91574166666667, "bike_id": "f74b006df51e51cba293505391abb8e8", "fusion_lon": 0.0}, {"rental_uris": {"ios": "https://dc.lft.to/lastmile_qr_scan", "android": "https://dc.lft.to/lastmile_qr_scan"}, "type": "electric_scooter", "name": "c187db958348ff40c8e7690a7b2360ba", "is_reserved": 0, "lon": -77.0105465, "is_disabled": 0, "fusion_lat": 0.0, "lat": 38.911943, "bike_id": "c187db958348ff40c8e7690a7b2360ba", "fusion_lon": 0.0}, {"rental_uris": {"ios": "https://dc.lft.to/lastmile_qr_scan", "android": "https://dc.lft.to/lastmile_qr_scan"}, "type": "electric_scooter", "name": "b50d2bf23911ebed74e17bf1d23a2a09", "is_reserved": 0, "lon": -77.00325333333333, "is_disabled": 0, "fusion_lat": 0.0, "lat": 38.90890866666667, "bike_id": "b50d2bf23911ebed74e17bf1d23a2a09", "fusion_lon": 0.0}, {"rental_uris": {"ios": "https://dc.lft.to/lastmile_qr_scan", "android": "https://dc.lft.to/lastmile_qr_scan"}, "type": "electric_scooter", "name": "0ff2ace52e1f6400752ad1b3bbbfbb19", "is_reserved": 0, "lon": -77.041741, "is_disabled": 0, "fusion_lat": 0.0, "lat": 38.914092833333335, "bike_id": "0ff2ace52e1f6400752ad1b3bbbfbb19", "fusion_lon": 0.0}, {"rental_uris": {"ios": "https://dc.lft.to/lastmile_qr_scan", "android": "https://dc.lft.to/lastmile_qr_scan"}, "type": "electric_scooter", "name": "06f3cd7ba6170ccea94b707211469bf1", "is_reserved": 0, "lon": -77.01812083333333, "is_disabled": 0, "fusion_lat": 0.0, "lat": 38.92113716666667, "bike_id": "06f3cd7ba6170ccea94b707211469bf1", "fusion_lon": 0.0}, {"rental_uris": {"ios": "https://dc.lft.to/lastmile_qr_scan", "android": "https://dc.lft.to/lastmile_qr_scan"}, "type": "electric_scooter", "name": "41bda2f3b89cfbe3dfae6bf239361168", "is_reserved": 0, "lon": -77.03548916666666, "is_disabled": 0, "fusion_lat": 0.0, "lat": 38.917059, "bike_id": "41bda2f3b89cfbe3dfae6bf239361168", "fusion_lon": 0.0}, {"rental_uris": {"ios": "https://dc.lft.to/lastmile_qr_scan", "android": "https://dc.lft.to/lastmile_qr_scan"}, "type": "electric_scooter", "name": "ebf1eedad23de52850ba70ad231a616b", "is_reserved": 0, "lon": -77.02261083333333, "is_disabled": 0, "fusion_lat": 0.0, "lat": 38.89368916666667, "bike_id": "ebf1eedad23de52850ba70ad231a616b", "fusion_lon": 0.0}, {"rental_uris": {"ios": "https://dc.lft.to/lastmile_qr_scan", "android": "https://dc.lft.to/lastmile_qr_scan"}, "type": "electric_scooter", "name": "3742dfa26c8eb0ea57e71c102e136dcf", "is_reserved": 0, "lon": -77.05599183333334, "is_disabled": 0, "fusion_lat": 0.0, "lat": 38.8942315, "bike_id": "3742dfa26c8eb0ea57e71c102e136dcf", "fusion_lon": 0.0}, {"rental_uris": {"ios": "https://dc.lft.to/lastmile_qr_scan", "android": "https://dc.lft.to/lastmile_qr_scan"}, "type": "electric_scooter", "name": "34dac0c0c0cb32247c0f75cae315d06a", "is_reserved": 0, "lon": -77.02129383333333, "is_disabled": 0, "fusion_lat": 0.0, "lat": 38.91323516666667, "bike_id": "34dac0c0c0cb32247c0f75cae315d06a", "fusion_lon": 0.0}, {"rental_uris": {"ios": "https://dc.lft.to/lastmile_qr_scan", "android": "https://dc.lft.to/lastmile_qr_scan"}, "type": "electric_scooter", "name": "c3baf59a5c4e368805478b44152e922d", "is_reserved": 0, "lon": -77.0370515, "is_disabled": 0, "fusion_lat": 0.0, "lat": 38.928295166666665, "bike_id": "c3baf59a5c4e368805478b44152e922d", "fusion_lon": 0.0}, {"rental_uris": {"ios": "https://dc.lft.to/lastmile_qr_scan", "android": "https://dc.lft.to/lastmile_qr_scan"}, "type": "electric_scooter", "name": "a61ec846bd6888dc363afcc2259ae208", "is_reserved": 0, "lon": -77.01337933333333, "is_disabled": 0, "fusion_lat": 0.0, "lat": 38.88120683333333, "bike_id": "a61ec846bd6888dc363afcc2259ae208", "fusion_lon": 0.0}, {"rental_uris": {"ios": "https://dc.lft.to/lastmile_qr_scan", "android": "https://dc.lft.to/lastmile_qr_scan"}, "type": "electric_scooter", "name": "63a00f4a252f1c25b27b4b5ad8d499c8", "is_reserved": 0, "lon": -77.020502, "is_disabled": 0, "fusion_lat": 0.0, "lat": 38.89868516666667, "bike_id": "63a00f4a252f1c25b27b4b5ad8d499c8", "fusion_lon": 0.0}, {"rental_uris": {"ios": "https://dc.lft.to/lastmile_qr_scan", "android": "https://dc.lft.to/lastmile_qr_scan"}, "type": "electric_scooter", "name": "13ce63d8cf0e5efa42cb853038b10bb9", "is_reserved": 0, "lon": -77.01415933333334, "is_disabled": 0, "fusion_lat": 0.0, "lat": 38.92791283333333, "bike_id": "13ce63d8cf0e5efa42cb853038b10bb9", "fusion_lon": 0.0}, {"rental_uris": {"ios": "https://dc.lft.to/lastmile_qr_scan", "android": "https://dc.lft.to/lastmile_qr_scan"}, "type": "electric_scooter", "name": "fef749d2756379a83b2dd1454b03c7c0", "is_reserved": 0, "lon": -76.96542066666666, "is_disabled": 0, "fusion_lat": 0.0, "lat": 38.9183875, "bike_id": "fef749d2756379a83b2dd1454b03c7c0", "fusion_lon": 0.0}, {"rental_uris": {"ios": "https://dc.lft.to/lastmile_qr_scan", "android": "https://dc.lft.to/lastmile_qr_scan"}, "type": "electric_scooter", "name": "b9a98e5ccbaa1d794aab37b9790b8e8e", "is_reserved": 0, "lon": -77.00503033333334, "is_disabled": 0, "fusion_lat": 0.0, "lat": 38.8968415, "bike_id": "b9a98e5ccbaa1d794aab37b9790b8e8e", "fusion_lon": 0.0}, {"rental_uris": {"ios": "https://dc.lft.to/lastmile_qr_scan", "android": "https://dc.lft.to/lastmile_qr_scan"}, "type": "electric_scooter", "name": "aac9eb7228d6c87ad813ba0019a3659c", "is_reserved": 0, "lon": -77.037719, "is_disabled": 0, "fusion_lat": 0.0, "lat": 38.907286166666665, "bike_id": "aac9eb7228d6c87ad813ba0019a3659c", "fusion_lon": 0.0}, {"rental_uris": {"ios": "https://dc.lft.to/lastmile_qr_scan", "android": "https://dc.lft.to/lastmile_qr_scan"}, "type": "electric_bike", "name": "10b40d1de20928b68265eb886aefffd1", "is_reserved": 0, "lon": -77.053493, "is_disabled": 0, "fusion_lat": 0.0, "lat": 38.834459, "bike_id": "10b40d1de20928b68265eb886aefffd1", "fusion_lon": 0.0}, {"rental_uris": {"ios": "https://dc.lft.to/lastmile_qr_scan", "android": "https://dc.lft.to/lastmile_qr_scan"}, "type": "electric_scooter", "name": "2280d8d68a9b1072989ca5e2283f5692", "is_reserved": 0, "lon": -77.0328975, "is_disabled": 0, "fusion_lat": 0.0, "lat": 38.92455533333333, "bike_id": "2280d8d68a9b1072989ca5e2283f5692", "fusion_lon": 0.0}, {"rental_uris": {"ios": "https://dc.lft.to/lastmile_qr_scan", "android": "https://dc.lft.to/lastmile_qr_scan"}, "type": "electric_scooter", "name": "afa60098d19874b61d23d56b5e4f5bf7", "is_reserved": 0, "lon": -77.02691466666667, "is_disabled": 0, "fusion_lat": 0.0, "lat": 38.91148483333333, "bike_id": "afa60098d19874b61d23d56b5e4f5bf7", "fusion_lon": 0.0}, {"rental_uris": {"ios": "https://dc.lft.to/lastmile_qr_scan", "android": "https://dc.lft.to/lastmile_qr_scan"}, "type": "electric_scooter", "name": "c65d998103486dfa38e3c93794ee6c43", "is_reserved": 0, "lon": -77.03090183333333, "is_disabled": 0, "fusion_lat": 0.0, "lat": 38.895334166666665, "bike_id": "c65d998103486dfa38e3c93794ee6c43", "fusion_lon": 0.0}, {"rental_uris": {"ios": "https://dc.lft.to/lastmile_qr_scan", "android": "https://dc.lft.to/lastmile_qr_scan"}, "type": "electric_scooter", "name": "f8dafe8f7d253501ef99dd4b31a6cceb", "is_reserved": 0, "lon": -77.0490725, "is_disabled": 0, "fusion_lat": 0.0, "lat": 38.88837016666667, "bike_id": "f8dafe8f7d253501ef99dd4b31a6cceb", "fusion_lon": 0.0}, {"rental_uris": {"ios": "https://dc.lft.to/lastmile_qr_scan", "android": "https://dc.lft.to/lastmile_qr_scan"}, "type": "electric_scooter", "name": "ca44de306563dc7d89a276045017d6de", "is_reserved": 0, "lon": -77.05694283333334, "is_disabled": 0, "fusion_lat": 0.0, "lat": 38.937106666666665, "bike_id": "ca44de306563dc7d89a276045017d6de", "fusion_lon": 0.0}, {"rental_uris": {"ios": "https://dc.lft.to/lastmile_qr_scan", "android": "https://dc.lft.to/lastmile_qr_scan"}, "type": "electric_scooter", "name": "efa7b4d0b596520febe1c10d69a02e60", "is_reserved": 0, "lon": -77.012108, "is_disabled": 0, "fusion_lat": 0.0, "lat": 38.911949166666666, "bike_id": "efa7b4d0b596520febe1c10d69a02e60", "fusion_lon": 0.0}, {"rental_uris": {"ios": "https://dc.lft.to/lastmile_qr_scan", "android": "https://dc.lft.to/lastmile_qr_scan"}, "type": "electric_scooter", "name": "39dda66a0612c82925e53aa5b1acdf89", "is_reserved": 0, "lon": -77.03851683333333, "is_disabled": 0, "fusion_lat": 0.0, "lat": 38.91662216666667, "bike_id": "39dda66a0612c82925e53aa5b1acdf89", "fusion_lon": 0.0}, {"rental_uris": {"ios": "https://dc.lft.to/lastmile_qr_scan", "android": "https://dc.lft.to/lastmile_qr_scan"}, "type": "electric_scooter", "name": "39021c5be8d9c2836975a66f9c94bcd9", "is_reserved": 0, "lon": -77.0042795, "is_disabled": 0, "fusion_lat": 0.0, "lat": 38.929485166666666, "bike_id": "39021c5be8d9c2836975a66f9c94bcd9", "fusion_lon": 0.0}, {"rental_uris": {"ios": "https://dc.lft.to/lastmile_qr_scan", "android": "https://dc.lft.to/lastmile_qr_scan"}, "type": "electric_scooter", "name": "5fb5cf2eae02ae71ed4126546831fb3c", "is_reserved": 0, "lon": -77.03954533333334, "is_disabled": 0, "fusion_lat": 0.0, "lat": 38.9071335, "bike_id": "5fb5cf2eae02ae71ed4126546831fb3c", "fusion_lon": 0.0}, {"rental_uris": {"ios": "https://dc.lft.to/lastmile_qr_scan", "android": "https://dc.lft.to/lastmile_qr_scan"}, "type": "electric_scooter", "name": "8a4becbc738493724bb834d37a0ef779", "is_reserved": 0, "lon": -77.01954683333334, "is_disabled": 0, "fusion_lat": 0.0, "lat": 38.93130883333333, "bike_id": "8a4becbc738493724bb834d37a0ef779", "fusion_lon": 0.0}, {"rental_uris": {"ios": "https://dc.lft.to/lastmile_qr_scan", "android": "https://dc.lft.to/lastmile_qr_scan"}, "type": "electric_scooter", "name": "d00f696c76569dd5541f1d5ad235155c", "is_reserved": 0, "lon": -77.03661133333334, "is_disabled": 0, "fusion_lat": 0.0, "lat": 38.910669666666664, "bike_id": "d00f696c76569dd5541f1d5ad235155c", "fusion_lon": 0.0}, {"rental_uris": {"ios": "https://dc.lft.to/lastmile_qr_scan", "android": "https://dc.lft.to/lastmile_qr_scan"}, "type": "electric_scooter", "name": "13fb058f4695dfa2e7d7f72b72061581", "is_reserved": 0, "lon": -77.027171, "is_disabled": 0, "fusion_lat": 0.0, "lat": 38.916714166666665, "bike_id": "13fb058f4695dfa2e7d7f72b72061581", "fusion_lon": 0.0}, {"rental_uris": {"ios": "https://dc.lft.to/lastmile_qr_scan", "android": "https://dc.lft.to/lastmile_qr_scan"}, "type": "electric_scooter", "name": "352a08c9c0289fde3808ab5af9b29f3f", "is_reserved": 0, "lon": -77.0022375, "is_disabled": 0, "fusion_lat": 0.0, "lat": 38.90026483333333, "bike_id": "352a08c9c0289fde3808ab5af9b29f3f", "fusion_lon": 0.0}, {"rental_uris": {"ios": "https://dc.lft.to/lastmile_qr_scan", "android": "https://dc.lft.to/lastmile_qr_scan"}, "type": "electric_scooter", "name": "afca95a16d6cbb345d062da68b42ef25", "is_reserved": 0, "lon": -77.0382165, "is_disabled": 0, "fusion_lat": 0.0, "lat": 38.90968066666667, "bike_id": "afca95a16d6cbb345d062da68b42ef25", "fusion_lon": 0.0}, {"rental_uris": {"ios": "https://dc.lft.to/lastmile_qr_scan", "android": "https://dc.lft.to/lastmile_qr_scan"}, "type": "electric_scooter", "name": "7b4a387a33d694fc2f24793b5d251525", "is_reserved": 0, "lon": -77.02487183333334, "is_disabled": 0, "fusion_lat": 0.0, "lat": 38.93907083333333, "bike_id": "7b4a387a33d694fc2f24793b5d251525", "fusion_lon": 0.0}, {"rental_uris": {"ios": "https://dc.lft.to/lastmile_qr_scan", "android": "https://dc.lft.to/lastmile_qr_scan"}, "type": "electric_scooter", "name": "e66322b5149eae2b5ce633d3ac8bafbd", "is_reserved": 0, "lon": -77.0306595, "is_disabled": 0, "fusion_lat": 0.0, "lat": 38.990352, "bike_id": "e66322b5149eae2b5ce633d3ac8bafbd", "fusion_lon": 0.0}, {"rental_uris": {"ios": "https://dc.lft.to/lastmile_qr_scan", "android": "https://dc.lft.to/lastmile_qr_scan"}, "type": "electric_scooter", "name": "e97c9307c2fef84bbc2d9bb2d463a498", "is_reserved": 0, "lon": -77.02716716666667, "is_disabled": 0, "fusion_lat": 0.0, "lat": 38.897129, "bike_id": "e97c9307c2fef84bbc2d9bb2d463a498", "fusion_lon": 0.0}, {"rental_uris": {"ios": "https://dc.lft.to/lastmile_qr_scan", "android": "https://dc.lft.to/lastmile_qr_scan"}, "type": "electric_scooter", "name": "3ff4d53be50d642a18a726b1111f4ea8", "is_reserved": 0, "lon": -77.01756033333334, "is_disabled": 0, "fusion_lat": 0.0, "lat": 38.876876, "bike_id": "3ff4d53be50d642a18a726b1111f4ea8", "fusion_lon": 0.0}, {"rental_uris": {"ios": "https://dc.lft.to/lastmile_qr_scan", "android": "https://dc.lft.to/lastmile_qr_scan"}, "type": "electric_bike", "name": "16817b6af5c7d270930a5d220a27ca4c", "is_reserved": 0, "lon": -77.10213216666666, "is_disabled": 0, "fusion_lat": 0.0, "lat": 38.919951, "bike_id": "16817b6af5c7d270930a5d220a27ca4c", "fusion_lon": 0.0}, {"rental_uris": {"ios": "https://dc.lft.to/lastmile_qr_scan", "android": "https://dc.lft.to/lastmile_qr_scan"}, "type": "electric_scooter", "name": "53b9f6f5c93fd9683865f3a25bad3244", "is_reserved": 0, "lon": -76.988367, "is_disabled": 0, "fusion_lat": 0.0, "lat": 38.842964333333335, "bike_id": "53b9f6f5c93fd9683865f3a25bad3244", "fusion_lon": 0.0}, {"rental_uris": {"ios": "https://dc.lft.to/lastmile_qr_scan", "android": "https://dc.lft.to/lastmile_qr_scan"}, "type": "electric_bike", "name": "a5bd74743b68cdddeab3841a8748c351", "is_reserved": 0, "lon": -76.994688, "is_disabled": 0, "fusion_lat": 0.0, "lat": 38.8626385, "bike_id": "a5bd74743b68cdddeab3841a8748c351", "fusion_lon": 0.0}, {"rental_uris": {"ios": "https://dc.lft.to/lastmile_qr_scan", "android": "https://dc.lft.to/lastmile_qr_scan"}, "type": "electric_bike", "name": "aa939028a00a96f1ab0139c24302c425", "is_reserved": 0, "lon": -76.98688183333333, "is_disabled": 0, "fusion_lat": 0.0, "lat": 38.944718333333334, "bike_id": "aa939028a00a96f1ab0139c24302c425", "fusion_lon": 0.0}, {"rental_uris": {"ios": "https://dc.lft.to/lastmile_qr_scan", "android": "https://dc.lft.to/lastmile_qr_scan"}, "type": "electric_bike", "name": "bac532fbdbfc0815b93c144568bc9eb5", "is_reserved": 0, "lon": -77.03626516666667, "is_disabled": 0, "fusion_lat": 0.0, "lat": 38.9729585, "bike_id": "bac532fbdbfc0815b93c144568bc9eb5", "fusion_lon": 0.0}, {"rental_uris": {"ios": "https://dc.lft.to/lastmile_qr_scan", "android": "https://dc.lft.to/lastmile_qr_scan"}, "type": "electric_bike", "name": "c8a368739ad5b26cd4048b1265131c82", "is_reserved": 0, "lon": -77.0841295, "is_disabled": 0, "fusion_lat": 0.0, "lat": 38.913055166666666, "bike_id": "c8a368739ad5b26cd4048b1265131c82", "fusion_lon": 0.0}, {"rental_uris": {"ios": "https://dc.lft.to/lastmile_qr_scan", "android": "https://dc.lft.to/lastmile_qr_scan"}, "type": "electric_scooter", "name": "65b55a1b585c5bffe09c1c599db9b6c2", "is_reserved": 0, "lon": -77.0212555, "is_disabled": 0, "fusion_lat": 0.0, "lat": 38.90247683333333, "bike_id": "65b55a1b585c5bffe09c1c599db9b6c2", "fusion_lon": 0.0}, {"rental_uris": {"ios": "https://dc.lft.to/lastmile_qr_scan", "android": "https://dc.lft.to/lastmile_qr_scan"}, "type": "electric_scooter", "name": "681a2f61399f6a86c0984ced2ed5f255", "is_reserved": 0, "lon": -77.00663883333333, "is_disabled": 0, "fusion_lat": 0.0, "lat": 38.89973083333334, "bike_id": "681a2f61399f6a86c0984ced2ed5f255", "fusion_lon": 0.0}, {"rental_uris": {"ios": "https://dc.lft.to/lastmile_qr_scan", "android": "https://dc.lft.to/lastmile_qr_scan"}, "type": "electric_scooter", "name": "ba50cf5d2578d36559ebaadb611ed460", "is_reserved": 0, "lon": -77.02593533333334, "is_disabled": 0, "fusion_lat": 0.0, "lat": 38.958091, "bike_id": "ba50cf5d2578d36559ebaadb611ed460", "fusion_lon": 0.0}, {"rental_uris": {"ios": "https://dc.lft.to/lastmile_qr_scan", "android": "https://dc.lft.to/lastmile_qr_scan"}, "type": "electric_bike", "name": "30d57ced83b68efe59f10a7dbdc023c4", "is_reserved": 0, "lon": -76.9626715, "is_disabled": 0, "fusion_lat": 0.0, "lat": 38.967817833333335, "bike_id": "30d57ced83b68efe59f10a7dbdc023c4", "fusion_lon": 0.0}, {"rental_uris": {"ios": "https://dc.lft.to/lastmile_qr_scan", "android": "https://dc.lft.to/lastmile_qr_scan"}, "type": "electric_scooter", "name": "dc61a11104410d0a1cd542b2470ea987", "is_reserved": 0, "lon": -77.04111683333333, "is_disabled": 0, "fusion_lat": 0.0, "lat": 38.927065999999996, "bike_id": "dc61a11104410d0a1cd542b2470ea987", "fusion_lon": 0.0}, {"rental_uris": {"ios": "https://dc.lft.to/lastmile_qr_scan", "android": "https://dc.lft.to/lastmile_qr_scan"}, "type": "electric_scooter", "name": "dc315ab470ed5a68e193c717fa3ec8d8", "is_reserved": 0, "lon": -77.04037183333334, "is_disabled": 0, "fusion_lat": 0.0, "lat": 38.905969166666665, "bike_id": "dc315ab470ed5a68e193c717fa3ec8d8", "fusion_lon": 0.0}, {"rental_uris": {"ios": "https://dc.lft.to/lastmile_qr_scan", "android": "https://dc.lft.to/lastmile_qr_scan"}, "type": "electric_scooter", "name": "53b780a32886a2bc4c9aac066a654563", "is_reserved": 0, "lon": -77.0417945, "is_disabled": 0, "fusion_lat": 0.0, "lat": 38.91411466666667, "bike_id": "53b780a32886a2bc4c9aac066a654563", "fusion_lon": 0.0}, {"rental_uris": {"ios": "https://dc.lft.to/lastmile_qr_scan", "android": "https://dc.lft.to/lastmile_qr_scan"}, "type": "electric_scooter", "name": "cd0c4c917ad8286624125d1a51f7ef66", "is_reserved": 0, "lon": -77.06897366666666, "is_disabled": 0, "fusion_lat": 0.0, "lat": 38.907621666666664, "bike_id": "cd0c4c917ad8286624125d1a51f7ef66", "fusion_lon": 0.0}, {"rental_uris": {"ios": "https://dc.lft.to/lastmile_qr_scan", "android": "https://dc.lft.to/lastmile_qr_scan"}, "type": "electric_scooter", "name": "ba07311888dfc8711344a4abe768c459", "is_reserved": 0, "lon": -77.02669633333333, "is_disabled": 0, "fusion_lat": 0.0, "lat": 38.921832333333334, "bike_id": "ba07311888dfc8711344a4abe768c459", "fusion_lon": 0.0}, {"rental_uris": {"ios": "https://dc.lft.to/lastmile_qr_scan", "android": "https://dc.lft.to/lastmile_qr_scan"}, "type": "electric_scooter", "name": "be885068cafdf7749640fac24f21c468", "is_reserved": 0, "lon": -77.05430566666666, "is_disabled": 0, "fusion_lat": 0.0, "lat": 38.92849, "bike_id": "be885068cafdf7749640fac24f21c468", "fusion_lon": 0.0}, {"rental_uris": {"ios": "https://dc.lft.to/lastmile_qr_scan", "android": "https://dc.lft.to/lastmile_qr_scan"}, "type": "electric_scooter", "name": "de9f7964850db322ea9d4a68a8890e89", "is_reserved": 0, "lon": -76.9837295, "is_disabled": 0, "fusion_lat": 0.0, "lat": 38.89263066666667, "bike_id": "de9f7964850db322ea9d4a68a8890e89", "fusion_lon": 0.0}, {"rental_uris": {"ios": "https://dc.lft.to/lastmile_qr_scan", "android": "https://dc.lft.to/lastmile_qr_scan"}, "type": "electric_scooter", "name": "031abefd9e1ea58c47f7e3849d9445b7", "is_reserved": 0, "lon": -76.957392, "is_disabled": 0, "fusion_lat": 0.0, "lat": 38.88389466666667, "bike_id": "031abefd9e1ea58c47f7e3849d9445b7", "fusion_lon": 0.0}, {"rental_uris": {"ios": "https://dc.lft.to/lastmile_qr_scan", "android": "https://dc.lft.to/lastmile_qr_scan"}, "type": "electric_scooter", "name": "252263e49acf0a039ab55e824f9962af", "is_reserved": 0, "lon": -77.0365015, "is_disabled": 0, "fusion_lat": 0.0, "lat": 38.9240425, "bike_id": "252263e49acf0a039ab55e824f9962af", "fusion_lon": 0.0}, {"rental_uris": {"ios": "https://dc.lft.to/lastmile_qr_scan", "android": "https://dc.lft.to/lastmile_qr_scan"}, "type": "electric_scooter", "name": "e889e9927115f7499f7178ade3a904bf", "is_reserved": 0, "lon": -77.0338995, "is_disabled": 0, "fusion_lat": 0.0, "lat": 38.92464433333333, "bike_id": "e889e9927115f7499f7178ade3a904bf", "fusion_lon": 0.0}, {"rental_uris": {"ios": "https://dc.lft.to/lastmile_qr_scan", "android": "https://dc.lft.to/lastmile_qr_scan"}, "type": "electric_scooter", "name": "2dccf2281e4d2cf3af4ad42e638cd54a", "is_reserved": 0, "lon": -77.04900333333333, "is_disabled": 0, "fusion_lat": 0.0, "lat": 38.91943116666667, "bike_id": "2dccf2281e4d2cf3af4ad42e638cd54a", "fusion_lon": 0.0}, {"rental_uris": {"ios": "https://dc.lft.to/lastmile_qr_scan", "android": "https://dc.lft.to/lastmile_qr_scan"}, "type": "electric_scooter", "name": "1d397a80710865dbf30a2193abd6a8b3", "is_reserved": 0, "lon": -77.02763716666666, "is_disabled": 0, "fusion_lat": 0.0, "lat": 38.89712166666666, "bike_id": "1d397a80710865dbf30a2193abd6a8b3", "fusion_lon": 0.0}, {"rental_uris": {"ios": "https://dc.lft.to/lastmile_qr_scan", "android": "https://dc.lft.to/lastmile_qr_scan"}, "type": "electric_scooter", "name": "89dea5aed32ce767484774243ad3d308", "is_reserved": 0, "lon": -77.01791283333333, "is_disabled": 0, "fusion_lat": 0.0, "lat": 38.91995933333333, "bike_id": "89dea5aed32ce767484774243ad3d308", "fusion_lon": 0.0}, {"rental_uris": {"ios": "https://dc.lft.to/lastmile_qr_scan", "android": "https://dc.lft.to/lastmile_qr_scan"}, "type": "electric_scooter", "name": "3cfa4ecfb67b86564533fa31e072542c", "is_reserved": 0, "lon": -77.042409, "is_disabled": 0, "fusion_lat": 0.0, "lat": 38.90368266666667, "bike_id": "3cfa4ecfb67b86564533fa31e072542c", "fusion_lon": 0.0}, {"rental_uris": {"ios": "https://dc.lft.to/lastmile_qr_scan", "android": "https://dc.lft.to/lastmile_qr_scan"}, "type": "electric_scooter", "name": "b051d0d65d9ba90ead6e2e29b7cbd21f", "is_reserved": 0, "lon": -77.02139466666667, "is_disabled": 0, "fusion_lat": 0.0, "lat": 38.90301183333333, "bike_id": "b051d0d65d9ba90ead6e2e29b7cbd21f", "fusion_lon": 0.0}, {"rental_uris": {"ios": "https://dc.lft.to/lastmile_qr_scan", "android": "https://dc.lft.to/lastmile_qr_scan"}, "type": "electric_scooter", "name": "db255d0b67597fe05387e0b45c95e170", "is_reserved": 0, "lon": -76.97308716666667, "is_disabled": 0, "fusion_lat": 0.0, "lat": 38.919883, "bike_id": "db255d0b67597fe05387e0b45c95e170", "fusion_lon": 0.0}, {"rental_uris": {"ios": "https://dc.lft.to/lastmile_qr_scan", "android": "https://dc.lft.to/lastmile_qr_scan"}, "type": "electric_bike", "name": "40917c67a30a242b1db1ad0c5be990e1", "is_reserved": 0, "lon": -77.12711383333334, "is_disabled": 0, "fusion_lat": 0.0, "lat": 38.895695333333336, "bike_id": "40917c67a30a242b1db1ad0c5be990e1", "fusion_lon": 0.0}, {"rental_uris": {"ios": "https://dc.lft.to/lastmile_qr_scan", "android": "https://dc.lft.to/lastmile_qr_scan"}, "type": "electric_scooter", "name": "7a5d6aa4f5c3c0b37f825ce3779b1249", "is_reserved": 0, "lon": -77.02959, "is_disabled": 0, "fusion_lat": 0.0, "lat": 38.916812166666666, "bike_id": "7a5d6aa4f5c3c0b37f825ce3779b1249", "fusion_lon": 0.0}, {"rental_uris": {"ios": "https://dc.lft.to/lastmile_qr_scan", "android": "https://dc.lft.to/lastmile_qr_scan"}, "type": "electric_bike", "name": "f2ac1fb5339993c6f88c84d4cdddf26a", "is_reserved": 0, "lon": -76.95703916666666, "is_disabled": 0, "fusion_lat": 0.0, "lat": 38.8508885, "bike_id": "f2ac1fb5339993c6f88c84d4cdddf26a", "fusion_lon": 0.0}, {"rental_uris": {"ios": "https://dc.lft.to/lastmile_qr_scan", "android": "https://dc.lft.to/lastmile_qr_scan"}, "type": "electric_scooter", "name": "7f6c5259a31ad22a44e9f2374e2e5cdd", "is_reserved": 0, "lon": -77.04350583333333, "is_disabled": 0, "fusion_lat": 0.0, "lat": 38.91127633333333, "bike_id": "7f6c5259a31ad22a44e9f2374e2e5cdd", "fusion_lon": 0.0}, {"rental_uris": {"ios": "https://dc.lft.to/lastmile_qr_scan", "android": "https://dc.lft.to/lastmile_qr_scan"}, "type": "electric_scooter", "name": "ed7f65532accf032648d86740b3c1925", "is_reserved": 0, "lon": -76.9574245, "is_disabled": 0, "fusion_lat": 0.0, "lat": 38.883885166666666, "bike_id": "ed7f65532accf032648d86740b3c1925", "fusion_lon": 0.0}, {"rental_uris": {"ios": "https://dc.lft.to/lastmile_qr_scan", "android": "https://dc.lft.to/lastmile_qr_scan"}, "type": "electric_bike", "name": "a6b7ada03e804935959882813fa4eeb1", "is_reserved": 0, "lon": -77.09022266666666, "is_disabled": 0, "fusion_lat": 0.0, "lat": 38.92645266666667, "bike_id": "a6b7ada03e804935959882813fa4eeb1", "fusion_lon": 0.0}, {"rental_uris": {"ios": "https://dc.lft.to/lastmile_qr_scan", "android": "https://dc.lft.to/lastmile_qr_scan"}, "type": "electric_scooter", "name": "d1e7bab98b6ba64a585ea7cc9e9f3252", "is_reserved": 0, "lon": -77.02378616666667, "is_disabled": 0, "fusion_lat": 0.0, "lat": 38.90303983333333, "bike_id": "d1e7bab98b6ba64a585ea7cc9e9f3252", "fusion_lon": 0.0}, {"rental_uris": {"ios": "https://dc.lft.to/lastmile_qr_scan", "android": "https://dc.lft.to/lastmile_qr_scan"}, "type": "electric_scooter", "name": "47ab17e6bc8007c2bb8a9297f256da99", "is_reserved": 0, "lon": -77.051444, "is_disabled": 0, "fusion_lat": 0.0, "lat": 38.90031916666667, "bike_id": "47ab17e6bc8007c2bb8a9297f256da99", "fusion_lon": 0.0}, {"rental_uris": {"ios": "https://dc.lft.to/lastmile_qr_scan", "android": "https://dc.lft.to/lastmile_qr_scan"}, "type": "electric_scooter", "name": "01ffcf3a4609850a75785090dffd2142", "is_reserved": 0, "lon": -76.98357816666666, "is_disabled": 0, "fusion_lat": 0.0, "lat": 38.887387833333335, "bike_id": "01ffcf3a4609850a75785090dffd2142", "fusion_lon": 0.0}, {"rental_uris": {"ios": "https://dc.lft.to/lastmile_qr_scan", "android": "https://dc.lft.to/lastmile_qr_scan"}, "type": "electric_scooter", "name": "3efb1bdf5c59f42e8dc5b55e915419d9", "is_reserved": 0, "lon": -77.0266515, "is_disabled": 0, "fusion_lat": 0.0, "lat": 38.8849435, "bike_id": "3efb1bdf5c59f42e8dc5b55e915419d9", "fusion_lon": 0.0}, {"rental_uris": {"ios": "https://dc.lft.to/lastmile_qr_scan", "android": "https://dc.lft.to/lastmile_qr_scan"}, "type": "electric_scooter", "name": "f465ce6965a7ede0f1a083b646007014", "is_reserved": 0, "lon": -77.0425195, "is_disabled": 0, "fusion_lat": 0.0, "lat": 38.910501, "bike_id": "f465ce6965a7ede0f1a083b646007014", "fusion_lon": 0.0}, {"rental_uris": {"ios": "https://dc.lft.to/lastmile_qr_scan", "android": "https://dc.lft.to/lastmile_qr_scan"}, "type": "electric_scooter", "name": "b82855f0e2458d783053dc86726881fb", "is_reserved": 0, "lon": -77.0394515, "is_disabled": 0, "fusion_lat": 0.0, "lat": 38.915561333333336, "bike_id": "b82855f0e2458d783053dc86726881fb", "fusion_lon": 0.0}, {"rental_uris": {"ios": "https://dc.lft.to/lastmile_qr_scan", "android": "https://dc.lft.to/lastmile_qr_scan"}, "type": "electric_scooter", "name": "a55eb7bbcb51b2c0d75c12ddd2cf6060", "is_reserved": 0, "lon": -77.0262755, "is_disabled": 0, "fusion_lat": 0.0, "lat": 38.93863416666667, "bike_id": "a55eb7bbcb51b2c0d75c12ddd2cf6060", "fusion_lon": 0.0}, {"rental_uris": {"ios": "https://dc.lft.to/lastmile_qr_scan", "android": "https://dc.lft.to/lastmile_qr_scan"},