{"data": {"bikes": [{"is_disabled": 0, "fusion_lat": 0.0, "lat": 38.91982633333333, "type": "electric_scooter", "lon": -77.0416115, "is_reserved": 0, "fusion_lon": 0.0, "bike_id": "cbc34b03a84a255150cb0f65969a5d63", "name": "cbc34b03a84a255150cb0f65969a5d63", "rental_uris": {"ios": "https://dc.lft.to/lastmile_qr_scan", "android": "https://dc.lft.to/lastmile_qr_scan"}}, {"is_disabled": 0, "fusion_lat": 0.0, "lat": 38.92649516666667, "type": "electric_scooter", "lon": -77.03709916666666, "is_reserved": 0, "fusion_lon": 0.0, "bike_id": "fbf6a5fbdc5b61db7fdaceef85eede42", "name": "fbf6a5fbdc5b61db7fdaceef85eede42", "rental_uris": {"ios": "https://dc.lft.to/lastmile_qr_scan", "android": "https://dc.lft.to/lastmile_qr_scan"}}, {"is_disabled": 0, "fusion_lat": 0.0, "lat": 38.914671166666665, "type": "electric_scooter", "lon": -77.0383205, "is_reserved": 0, "fusion_lon": 0.0, "bike_id": "efb49756740e008c942cce9370945ed3", "name": "efb49756740e008c942cce9370945ed3", "rental_uris": {"ios": "https://dc.lft.to/lastmile_qr_scan", "android": "https://dc.lft.to/lastmile_qr_scan"}}, {"is_disabled": 0, "fusion_lat": 0.0, "lat": 38.97373533333333, "type": "electric_scooter", "lon": -77.01866883333334, "is_reserved": 0, "fusion_lon": 0.0, "bike_id": "04be7cdda21cd71d244ddd5ccb29fb6e", "name": "04be7cdda21cd71d244ddd5ccb29fb6e", "rental_uris": {"ios": "https://dc.lft.to/lastmile_qr_scan", "android": "https://dc.lft.to/lastmile_qr_scan"}}, {"is_disabled": 0, "fusion_lat": 0.0, "lat": 38.84292, "type": "electric_scooter", "lon": -76.99944366666666, "is_reserved": 0, "fusion_lon": 0.0, "bike_id": "13755f89cfb9d6bf5ba10f2dd59d99d1", "name": "13755f89cfb9d6bf5ba10f2dd59d99d1", "rental_uris": {"ios": "https://dc.lft.to/lastmile_qr_scan", "android": "https://dc.lft.to/lastmile_qr_scan"}}, {"is_disabled": 0, "fusion_lat": 0.0, "lat": 38.867291333333334, "type": "electric_scooter", "lon": -76.9878535, "is_reserved": 0, "fusion_lon": 0.0, "bike_id": "36cff2a520fc1003ff5810ab5933ca1e", "name": "36cff2a520fc1003ff5810ab5933ca1e", "rental_uris": {"ios": "https://dc.lft.to/lastmile_qr_scan", "android": "https://dc.lft.to/lastmile_qr_scan"}}, {"is_disabled": 0, "fusion_lat": 0.0, "lat": 38.9019815, "type": "electric_scooter", "lon": -77.02144366666667, "is_reserved": 0, "fusion_lon": 0.0, "bike_id": "97b12cc4cba51ad8e3e4d979fafdfc0f", "name": "97b12cc4cba51ad8e3e4d979fafdfc0f", "rental_uris": {"ios": "https://dc.lft.to/lastmile_qr_scan", "android": "https://dc.lft.to/lastmile_qr_scan"}}, {"is_disabled": 0, "fusion_lat": 0.0, "lat": 38.89610866666666, "type": "electric_scooter", "lon": -77.04500416666667, "is_reserved": 0, "fusion_lon": 0.0, "bike_id": "054c7f9c013920c356acb3c8bbdf1757", "name": "054c7f9c013920c356acb3c8bbdf1757", "rental_uris": {"ios": "https://dc.lft.to/lastmile_qr_scan", "android": "https://dc.lft.to/lastmile_qr_scan"}}, {"is_disabled": 0, "fusion_lat": 0.0, "lat": 38.903909666666664, "type": "electric_scooter", "lon": -77.036338, "is_reserved": 0, "fusion_lon": 0.0, "bike_id": "5a1cef1d4b2174c5f701f8fed5c964d5", "name": "5a1cef1d4b2174c5f701f8fed5c964d5", "rental_uris": {"ios": "https://dc.lft.to/lastmile_qr_scan", "android": "https://dc.lft.to/lastmile_qr_scan"}}, {"is_disabled": 0, "fusion_lat": 0.0, "lat": 38.91668633333333, "type": "electric_scooter", "lon": -77.00652383333333, "is_reserved": 0, "fusion_lon": 0.0, "bike_id": "acd89dc47564198cfe1ab0de04998087", "name": "acd89dc47564198cfe1ab0de04998087", "rental_uris": {"ios": "https://dc.lft.to/lastmile_qr_scan", "android": "https://dc.lft.to/lastmile_qr_scan"}}, {"is_disabled": 0, "fusion_lat": 0.0, "lat": 38.897398333333335, "type": "electric_scooter", "lon": -77.02711216666667, "is_reserved": 0, "fusion_lon": 0.0, "bike_id": "a470f4e44b2670b3d8d7c64e72f464f2", "name": "a470f4e44b2670b3d8d7c64e72f464f2", "rental_uris": {"ios": "https://dc.lft.to/lastmile_qr_scan", "android": "https://dc.lft.to/lastmile_qr_scan"}}, {"is_disabled": 0, "fusion_lat": 0.0, "lat": 38.94051066666667, "type": "electric_scooter", "lon": -77.09267616666666, "is_reserved": 0, "fusion_lon": 0.0, "bike_id": "923d9872a86822c1ca9fd37ea937c45c", "name": "923d9872a86822c1ca9fd37ea937c45c", "rental_uris": {"ios": "https://dc.lft.to/lastmile_qr_scan", "android": "https://dc.lft.to/lastmile_qr_scan"}}, {"is_disabled": 0, "fusion_lat": 0.0, "lat": 38.902685166666664, "type": "electric_scooter", "lon": -77.04288466666667, "is_reserved": 0, "fusion_lon": 0.0, "bike_id": "842acfd245407c0e85c3f8a010f66434", "name": "842acfd245407c0e85c3f8a010f66434", "rental_uris": {"ios": "https://dc.lft.to/lastmile_qr_scan", "android": "https://dc.lft.to/lastmile_qr_scan"}}, {"is_disabled": 0, "fusion_lat": 0.0, "lat": 38.9202365, "type": "electric_scooter", "lon": -77.0315875, "is_reserved": 0, "fusion_lon": 0.0, "bike_id": "c534e6695759c94fd6fab09dfab0be72", "name": "c534e6695759c94fd6fab09dfab0be72", "rental_uris": {"ios": "https://dc.lft.to/lastmile_qr_scan", "android": "https://dc.lft.to/lastmile_qr_scan"}}, {"is_disabled": 0, "fusion_lat": 0.0, "lat": 38.93094883333333, "type": "electric_scooter", "lon": -77.03764716666667, "is_reserved": 0, "fusion_lon": 0.0, "bike_id": "c22bf0321c738b5dd9e1c54e04db7f6f", "name": "c22bf0321c738b5dd9e1c54e04db7f6f", "rental_uris": {"ios": "https://dc.lft.to/lastmile_qr_scan", "android": "https://dc.lft.to/lastmile_qr_scan"}}, {"is_disabled": 0, "fusion_lat": 0.0, "lat": 38.8870895, "type": "electric_scooter", "lon": -77.01374783333333, "is_reserved": 0, "fusion_lon": 0.0, "bike_id": "8326fd94980844c341548209d89f4017", "name": "8326fd94980844c341548209d89f4017", "rental_uris": {"ios": "https://dc.lft.to/lastmile_qr_scan", "android": "https://dc.lft.to/lastmile_qr_scan"}}, {"is_disabled": 0, "fusion_lat": 0.0, "lat": 39.094433, "type": "electric_bike", "lon": -77.13463833333333, "is_reserved": 0, "fusion_lon": 0.0, "bike_id": "b858e3e9c0c026f1c5a958c9c99da6ec", "name": "b858e3e9c0c026f1c5a958c9c99da6ec", "rental_uris": {"ios": "https://dc.lft.to/lastmile_qr_scan", "android": "https://dc.lft.to/lastmile_qr_scan"}}, {"is_disabled": 0, "fusion_lat": 0.0, "lat": 38.925846666666665, "type": "electric_scooter", "lon": -77.0399355, "is_reserved": 0, "fusion_lon": 0.0, "bike_id": "cdb6db04707cd4147de3ee53d274cfc3", "name": "cdb6db04707cd4147de3ee53d274cfc3", "rental_uris": {"ios": "https://dc.lft.to/lastmile_qr_scan", "android": "https://dc.lft.to/lastmile_qr_scan"}}, {"is_disabled": 0, "fusion_lat": 0.0, "lat": 38.8726665, "type": "electric_bike", "lon": -76.97908533333333, "is_reserved": 0, "fusion_lon": 0.0, "bike_id": "544cff72e152fece1fa833ea63c594c3", "name": "544cff72e152fece1fa833ea63c594c3", "rental_uris": {"ios": "https://dc.lft.to/lastmile_qr_scan", "android": "https://dc.lft.to/lastmile_qr_scan"}}, {"is_disabled": 0, "fusion_lat": 0.0, "lat": 38.917226666666664, "type": "electric_scooter", "lon": -77.041726, "is_reserved": 0, "fusion_lon": 0.0, "bike_id": "2193b511b5589d0499e6af8035b94ea2", "name": "2193b511b5589d0499e6af8035b94ea2", "rental_uris": {"ios": "https://dc.lft.to/lastmile_qr_scan", "android": "https://dc.lft.to/lastmile_qr_scan"}}, {"is_disabled": 0, "fusion_lat": 0.0, "lat": 38.898442833333334, "type": "electric_scooter", "lon": -76.944778, "is_reserved": 0, "fusion_lon": 0.0, "bike_id": "91aeb79dafaf7bbcfa820bfd44e6befa", "name": "91aeb79dafaf7bbcfa820bfd44e6befa", "rental_uris": {"ios": "https://dc.lft.to/lastmile_qr_scan", "android": "https://dc.lft.to/lastmile_qr_scan"}}, {"is_disabled": 0, "fusion_lat": 0.0, "lat": 38.8628005, "type": "electric_scooter", "lon": -76.9922925, "is_reserved": 0, "fusion_lon": 0.0, "bike_id": "7cf0d25c5f07106872e0cd3c99f54b7b", "name": "7cf0d25c5f07106872e0cd3c99f54b7b", "rental_uris": {"ios": "https://dc.lft.to/lastmile_qr_scan", "android": "https://dc.lft.to/lastmile_qr_scan"}}, {"is_disabled": 0, "fusion_lat": 0.0, "lat": 38.93269983333333, "type": "electric_scooter", "lon": -77.0288995, "is_reserved": 0, "fusion_lon": 0.0, "bike_id": "1ed8a1d7f867e56e4d1181ef4cee1309", "name": "1ed8a1d7f867e56e4d1181ef4cee1309", "rental_uris": {"ios": "https://dc.lft.to/lastmile_qr_scan", "android": "https://dc.lft.to/lastmile_qr_scan"}}, {"is_disabled": 0, "fusion_lat": 0.0, "lat": 38.92133916666667, "type": "electric_scooter", "lon": -77.04225383333333, "is_reserved": 0, "fusion_lon": 0.0, "bike_id": "ba4f8b51f8c44f559f018ce87d4241b9", "name": "ba4f8b51f8c44f559f018ce87d4241b9", "rental_uris": {"ios": "https://dc.lft.to/lastmile_qr_scan", "android": "https://dc.lft.to/lastmile_qr_scan"}}, {"is_disabled": 0, "fusion_lat": 0.0, "lat": 38.96603983333333, "type": "electric_bike", "lon": -76.98332633333334, "is_reserved": 0, "fusion_lon": 0.0, "bike_id": "607bdaa04a94dbcfe3c29ccd0073eb9c", "name": "607bdaa04a94dbcfe3c29ccd0073eb9c", "rental_uris": {"ios": "https://dc.lft.to/lastmile_qr_scan", "android": "https://dc.lft.to/lastmile_qr_scan"}}, {"is_disabled": 0, "fusion_lat": 0.0, "lat": 38.93832533333333, "type": "electric_scooter", "lon": -77.06174816666666, "is_reserved": 0, "fusion_lon": 0.0, "bike_id": "25879c22b84b741d08446536b4d60e69", "name": "25879c22b84b741d08446536b4d60e69", "rental_uris": {"ios": "https://dc.lft.to/lastmile_qr_scan", "android": "https://dc.lft.to/lastmile_qr_scan"}}, {"is_disabled": 0, "fusion_lat": 0.0, "lat": 38.898403333333334, "type": "electric_scooter", "lon": -76.93104366666667, "is_reserved": 0, "fusion_lon": 0.0, "bike_id": "c6be2a697cf4eb73568727326ab696f4", "name": "c6be2a697cf4eb73568727326ab696f4", "rental_uris": {"ios": "https://dc.lft.to/lastmile_qr_scan", "android": "https://dc.lft.to/lastmile_qr_scan"}}, {"is_disabled": 0, "fusion_lat": 0.0, "lat": 38.9006215, "type": "electric_scooter", "lon": -77.04586416666666, "is_reserved": 0, "fusion_lon": 0.0, "bike_id": "3ddcc31f0bc69c7f28c7a3115a46427b", "name": "3ddcc31f0bc69c7f28c7a3115a46427b", "rental_uris": {"ios": "https://dc.lft.to/lastmile_qr_scan", "android": "https://dc.lft.to/lastmile_qr_scan"}}, {"is_disabled": 0, "fusion_lat": 0.0, "lat": 38.92706916666667, "type": "electric_scooter", "lon": -77.02322883333333, "is_reserved": 0, "fusion_lon": 0.0, "bike_id": "524049fe94ff09fc82f6a1cd56095c18", "name": "524049fe94ff09fc82f6a1cd56095c18", "rental_uris": {"ios": "https://dc.lft.to/lastmile_qr_scan", "android": "https://dc.lft.to/lastmile_qr_scan"}}, {"is_disabled": 0, "fusion_lat": 0.0, "lat": 38.925278166666665, "type": "electric_scooter", "lon": -77.04115516666667, "is_reserved": 0, "fusion_lon": 0.0, "bike_id": "0255b8b49fc2f47303af9fa9ce7e6a6e", "name": "0255b8b49fc2f47303af9fa9ce7e6a6e", "rental_uris": {"ios": "https://dc.lft.to/lastmile_qr_scan", "android": "https://dc.lft.to/lastmile_qr_scan"}}, {"is_disabled": 0, "fusion_lat": 0.0, "lat": 38.908444833333334, "type": "electric_scooter", "lon": -77.08531, "is_reserved": 0, "fusion_lon": 0.0, "bike_id": "fe875896b036cf1fba1d76f01767dfc4", "name": "fe875896b036cf1fba1d76f01767dfc4", "rental_uris": {"ios": "https://dc.lft.to/lastmile_qr_scan", "android": "https://dc.lft.to/lastmile_qr_scan"}}, {"is_disabled": 0, "fusion_lat": 0.0, "lat": 38.91486283333333, "type": "electric_scooter", "lon": -77.046395, "is_reserved": 0, "fusion_lon": 0.0, "bike_id": "de265580790783799d8a942e4567464d", "name": "de265580790783799d8a942e4567464d", "rental_uris": {"ios": "https://dc.lft.to/lastmile_qr_scan", "android": "https://dc.lft.to/lastmile_qr_scan"}}, {"is_disabled": 0, "fusion_lat": 0.0, "lat": 38.90576433333333, "type": "electric_scooter", "lon": -77.02203116666666, "is_reserved": 0, "fusion_lon": 0.0, "bike_id": "cf27d6a97c3c745fff0b6e5c14359f7d", "name": "cf27d6a97c3c745fff0b6e5c14359f7d", "rental_uris": {"ios": "https://dc.lft.to/lastmile_qr_scan", "android": "https://dc.lft.to/lastmile_qr_scan"}}, {"is_disabled": 0, "fusion_lat": 0.0, "lat": 38.967071, "type": "electric_bike", "lon": -77.102235, "is_reserved": 0, "fusion_lon": 0.0, "bike_id": "8798ec5f639210d04a9a3484e0d4dc6e", "name": "8798ec5f639210d04a9a3484e0d4dc6e", "rental_uris": {"ios": "https://dc.lft.to/lastmile_qr_scan", "android": "https://dc.lft.to/lastmile_qr_scan"}}, {"is_disabled": 0, "fusion_lat": 0.0, "lat": 38.90488883333333, "type": "electric_scooter", "lon": -77.05342166666667, "is_reserved": 0, "fusion_lon": 0.0, "bike_id": "e57ff67ebb0ebf7730a3da8098bebd2b", "name": "e57ff67ebb0ebf7730a3da8098bebd2b", "rental_uris": {"ios": "https://dc.lft.to/lastmile_qr_scan", "android": "https://dc.lft.to/lastmile_qr_scan"}}, {"is_disabled": 0, "fusion_lat": 0.0, "lat": 38.91413083333333, "type": "electric_scooter", "lon": -77.02046466666667, "is_reserved": 0, "fusion_lon": 0.0, "bike_id": "e7f43da21ec9d9dba9e346fb73db251e", "name": "e7f43da21ec9d9dba9e346fb73db251e", "rental_uris": {"ios": "https://dc.lft.to/lastmile_qr_scan", "android": "https://dc.lft.to/lastmile_qr_scan"}}, {"is_disabled": 0, "fusion_lat": 0.0, "lat": 38.88926333333333, "type": "electric_scooter", "lon": -76.97377666666667, "is_reserved": 0, "fusion_lon": 0.0, "bike_id": "adea4598b5df9c6b3c50f6b30090db7d", "name": "adea4598b5df9c6b3c50f6b30090db7d", "rental_uris": {"ios": "https://dc.lft.to/lastmile_qr_scan", "android": "https://dc.lft.to/lastmile_qr_scan"}}, {"is_disabled": 0, "fusion_lat": 0.0, "lat": 38.89761716666667, "type": "electric_scooter", "lon": -77.02687816666666, "is_reserved": 0, "fusion_lon": 0.0, "bike_id": "ae70c38ccc4a79c5042054ac237d82ba", "name": "ae70c38ccc4a79c5042054ac237d82ba", "rental_uris": {"ios": "https://dc.lft.to/lastmile_qr_scan", "android": "https://dc.lft.to/lastmile_qr_scan"}}, {"is_disabled": 0, "fusion_lat": 0.0, "lat": 38.861661833333336, "type": "electric_bike", "lon": -77.13096966666667, "is_reserved": 0, "fusion_lon": 0.0, "bike_id": "cbb15661482988565950eba825b24025", "name": "cbb15661482988565950eba825b24025", "rental_uris": {"ios": "https://dc.lft.to/lastmile_qr_scan", "android": "https://dc.lft.to/lastmile_qr_scan"}}, {"is_disabled": 0, "fusion_lat": 0.0, "lat": 38.90184166666667, "type": "electric_scooter", "lon": -77.02183666666667, "is_reserved": 0, "fusion_lon": 0.0, "bike_id": "e9d84bcab29f798a0f9b3dd34f26aaef", "name": "e9d84bcab29f798a0f9b3dd34f26aaef", "rental_uris": {"ios": "https://dc.lft.to/lastmile_qr_scan", "android": "https://dc.lft.to/lastmile_qr_scan"}}, {"is_disabled": 0, "fusion_lat": 0.0, "lat": 38.932363, "type": "electric_bike", "lon": -76.97423716666667, "is_reserved": 0, "fusion_lon": 0.0, "bike_id": "96e9c40232dc257ad2db56cded7fa9a3", "name": "96e9c40232dc257ad2db56cded7fa9a3", "rental_uris": {"ios": "https://dc.lft.to/lastmile_qr_scan", "android": "https://dc.lft.to/lastmile_qr_scan"}}, {"is_disabled": 0, "fusion_lat": 0.0, "lat": 38.92118883333333, "type": "electric_scooter", "lon": -77.0422275, "is_reserved": 0, "fusion_lon": 0.0, "bike_id": "faa1bcd78f17e1ffe4d26978ceac81bd", "name": "faa1bcd78f17e1ffe4d26978ceac81bd", "rental_uris": {"ios": "https://dc.lft.to/lastmile_qr_scan", "android": "https://dc.lft.to/lastmile_qr_scan"}}, {"is_disabled": 0, "fusion_lat": 0.0, "lat": 38.90374083333333, "type": "electric_scooter", "lon": -77.04186333333334, "is_reserved": 0, "fusion_lon": 0.0, "bike_id": "d68718846f65e156a82cfd6a0f71e48e", "name": "d68718846f65e156a82cfd6a0f71e48e", "rental_uris": {"ios": "https://dc.lft.to/lastmile_qr_scan", "android": "https://dc.lft.to/lastmile_qr_scan"}}, {"is_disabled": 0, "fusion_lat": 0.0, "lat": 38.91989183333333, "type": "electric_scooter", "lon": -77.04167483333333, "is_reserved": 0, "fusion_lon": 0.0, "bike_id": "5b2f4529e0de3b55ea263b7d9d08c268", "name": "5b2f4529e0de3b55ea263b7d9d08c268", "rental_uris": {"ios": "https://dc.lft.to/lastmile_qr_scan", "android": "https://dc.lft.to/lastmile_qr_scan"}}, {"is_disabled": 0, "fusion_lat": 0.0, "lat": 38.9206255, "type": "electric_bike", "lon": -76.99133133333333, "is_reserved": 0, "fusion_lon": 0.0, "bike_id": "0c4abaff8e5555fc23268ec070c9b8e7", "name": "0c4abaff8e5555fc23268ec070c9b8e7", "rental_uris": {"ios": "https://dc.lft.to/lastmile_qr_scan", "android": "https://dc.lft.to/lastmile_qr_scan"}}, {"is_disabled": 0, "fusion_lat": 0.0, "lat": 38.91806066666667, "type": "electric_scooter", "lon": -77.03669266666667, "is_reserved": 0, "fusion_lon": 0.0, "bike_id": "a11d9e9b2eac087f4b4819d7b975a97c", "name": "a11d9e9b2eac087f4b4819d7b975a97c", "rental_uris": {"ios": "https://dc.lft.to/lastmile_qr_scan", "android": "https://dc.lft.to/lastmile_qr_scan"}}, {"is_disabled": 0, "fusion_lat": 0.0, "lat": 38.85716516666667, "type": "electric_scooter", "lon": -76.98093933333334, "is_reserved": 0, "fusion_lon": 0.0, "bike_id": "80ab8c8d6ba2a2fb31592790a4ab3136", "name": "80ab8c8d6ba2a2fb31592790a4ab3136", "rental_uris": {"ios": "https://dc.lft.to/lastmile_qr_scan", "android": "https://dc.lft.to/lastmile_qr_scan"}}, {"is_disabled": 0, "fusion_lat": 0.0, "lat": 38.914782833333334, "type": "electric_scooter", "lon": -77.02186833333333, "is_reserved": 0, "fusion_lon": 0.0, "bike_id": "905f087d4a2a30f301adabc3e98796a1", "name": "905f087d4a2a30f301adabc3e98796a1", "rental_uris": {"ios": "https://dc.lft.to/lastmile_qr_scan", "android": "https://dc.lft.to/lastmile_qr_scan"}}, {"is_disabled": 0, "fusion_lat": 0.0, "lat": 38.89471233333333, "type": "electric_scooter", "lon": -77.02180166666666, "is_reserved": 0, "fusion_lon": 0.0, "bike_id": "c6029ffac24a4bbdeda3d57d37c640ef", "name": "c6029ffac24a4bbdeda3d57d37c640ef", "rental_uris": {"ios": "https://dc.lft.to/lastmile_qr_scan", "android": "https://dc.lft.to/lastmile_qr_scan"}}, {"is_disabled": 0, "fusion_lat": 0.0, "lat": 38.902697, "type": "electric_scooter", "lon": -77.03379766666667, "is_reserved": 0, "fusion_lon": 0.0, "bike_id": "bd60952074a77c1b91d917d87b4b8df7", "name": "bd60952074a77c1b91d917d87b4b8df7", "rental_uris": {"ios": "https://dc.lft.to/lastmile_qr_scan", "android": "https://dc.lft.to/lastmile_qr_scan"}}, {"is_disabled": 0, "fusion_lat": 0.0, "lat": 38.941798, "type": "electric_scooter", "lon": -77.02500633333334, "is_reserved": 0, "fusion_lon": 0.0, "bike_id": "9bdc55cbcd2bc1f5956dc3bc2fa02ffa", "name": "9bdc55cbcd2bc1f5956dc3bc2fa02ffa", "rental_uris": {"ios": "https://dc.lft.to/lastmile_qr_scan", "android": "https://dc.lft.to/lastmile_qr_scan"}}, {"is_disabled": 0, "fusion_lat": 0.0, "lat": 38.87632166666667, "type": "electric_scooter", "lon": -76.96524516666666, "is_reserved": 0, "fusion_lon": 0.0, "bike_id": "031aaa91d0ab367fe61c4dab26ce56e7", "name": "031aaa91d0ab367fe61c4dab26ce56e7", "rental_uris": {"ios": "https://dc.lft.to/lastmile_qr_scan", "android": "https://dc.lft.to/lastmile_qr_scan"}}, {"is_disabled": 0, "fusion_lat": 0.0, "lat": 38.842949833333336, "type": "electric_scooter", "lon": -76.99944983333333, "is_reserved": 0, "fusion_lon": 0.0, "bike_id": "00bd216e3b91724128039b24873afa3d", "name": "00bd216e3b91724128039b24873afa3d", "rental_uris": {"ios": "https://dc.lft.to/lastmile_qr_scan", "android": "https://dc.lft.to/lastmile_qr_scan"}}, {"is_disabled": 0, "fusion_lat": 0.0, "lat": 38.933268166666664, "type": "electric_scooter", "lon": -77.03296233333333, "is_reserved": 0, "fusion_lon": 0.0, "bike_id": "c543047b60d2a1af77e575945f47fc9c", "name": "c543047b60d2a1af77e575945f47fc9c", "rental_uris": {"ios": "https://dc.lft.to/lastmile_qr_scan", "android": "https://dc.lft.to/lastmile_qr_scan"}}, {"is_disabled": 0, "fusion_lat": 0.0, "lat": 38.898955666666666, "type": "electric_scooter", "lon": -77.04053483333334, "is_reserved": 0, "fusion_lon": 0.0, "bike_id": "720abf379002d30fffe0ee23770e3b78", "name": "720abf379002d30fffe0ee23770e3b78", "rental_uris": {"ios": "https://dc.lft.to/lastmile_qr_scan", "android": "https://dc.lft.to/lastmile_qr_scan"}}, {"is_disabled": 0, "fusion_lat": 0.0, "lat": 38.897266333333334, "type": "electric_scooter", "lon": -77.02716833333334, "is_reserved": 0, "fusion_lon": 0.0, "bike_id": "a8f067169d15e9a9f1ba26d4a05aec1a", "name": "a8f067169d15e9a9f1ba26d4a05aec1a", "rental_uris": {"ios": "https://dc.lft.to/lastmile_qr_scan", "android": "https://dc.lft.to/lastmile_qr_scan"}}, {"is_disabled": 0, "fusion_lat": 0.0, "lat": 38.9072165, "type": "electric_scooter", "lon": -77.02198666666666, "is_reserved": 0, "fusion_lon": 0.0, "bike_id": "35340337fbcf82003d66e4d20e319339", "name": "35340337fbcf82003d66e4d20e319339", "rental_uris": {"ios": "https://dc.lft.to/lastmile_qr_scan", "android": "https://dc.lft.to/lastmile_qr_scan"}}, {"is_disabled": 0, "fusion_lat": 0.0, "lat": 38.898565, "type": "electric_scooter", "lon": -77.03351583333334, "is_reserved": 0, "fusion_lon": 0.0, "bike_id": "8578f23cb12586bc1cd62173411663b4", "name": "8578f23cb12586bc1cd62173411663b4", "rental_uris": {"ios": "https://dc.lft.to/lastmile_qr_scan", "android": "https://dc.lft.to/lastmile_qr_scan"}}, {"is_disabled": 0, "fusion_lat": 0.0, "lat": 38.90259366666667, "type": "electric_scooter", "lon": -77.04612966666667, "is_reserved": 0, "fusion_lon": 0.0, "bike_id": "0dbbb31db0a8d9e08995ff0be53c4e00", "name": "0dbbb31db0a8d9e08995ff0be53c4e00", "rental_uris": {"ios": "https://dc.lft.to/lastmile_qr_scan", "android": "https://dc.lft.to/lastmile_qr_scan"}}, {"is_disabled": 0, "fusion_lat": 0.0, "lat": 38.930799666666665, "type": "electric_scooter", "lon": -77.0312895, "is_reserved": 0, "fusion_lon": 0.0, "bike_id": "fefe121bd1ac755aa77cdfddb819e611", "name": "fefe121bd1ac755aa77cdfddb819e611", "rental_uris": {"ios": "https://dc.lft.to/lastmile_qr_scan", "android": "https://dc.lft.to/lastmile_qr_scan"}}, {"is_disabled": 0, "fusion_lat": 0.0, "lat": 38.949071333333336, "type": "electric_bike", "lon": -76.9724005, "is_reserved": 0, "fusion_lon": 0.0, "bike_id": "42e1ea60dde31583be0054d0c330d7dc", "name": "42e1ea60dde31583be0054d0c330d7dc", "rental_uris": {"ios": "https://dc.lft.to/lastmile_qr_scan", "android": "https://dc.lft.to/lastmile_qr_scan"}}, {"is_disabled": 0, "fusion_lat": 0.0, "lat": 38.893740333333334, "type": "electric_scooter", "lon": -77.04789366666667, "is_reserved": 0, "fusion_lon": 0.0, "bike_id": "efbe3fd764bb9cb298ff368bc7598af9", "name": "efbe3fd764bb9cb298ff368bc7598af9", "rental_uris": {"ios": "https://dc.lft.to/lastmile_qr_scan", "android": "https://dc.lft.to/lastmile_qr_scan"}}, {"is_disabled": 0, "fusion_lat": 0.0, "lat": 38.9423995, "type": "electric_scooter", "lon": -77.07235766666666, "is_reserved": 0, "fusion_lon": 0.0, "bike_id": "1aca74863b59d1ae107f8f7ca78ccac0", "name": "1aca74863b59d1ae107f8f7ca78ccac0", "rental_uris": {"ios": "https://dc.lft.to/lastmile_qr_scan", "android": "https://dc.lft.to/lastmile_qr_scan"}}, {"is_disabled": 0, "fusion_lat": 0.0, "lat": 38.938826166666665, "type": "electric_scooter", "lon": -77.02483583333333, "is_reserved": 0, "fusion_lon": 0.0, "bike_id": "d211b85a16e5639a66011c1560c6f8dc", "name": "d211b85a16e5639a66011c1560c6f8dc", "rental_uris": {"ios": "https://dc.lft.to/lastmile_qr_scan", "android": "https://dc.lft.to/lastmile_qr_scan"}}, {"is_disabled": 0, "fusion_lat": 0.0, "lat": 38.90278683333333, "type": "electric_scooter", "lon": -77.04145783333334, "is_reserved": 0, "fusion_lon": 0.0, "bike_id": "f43b2b50ea9bfb1f2b8b890b62079f6d", "name": "f43b2b50ea9bfb1f2b8b890b62079f6d", "rental_uris": {"ios": "https://dc.lft.to/lastmile_qr_scan", "android": "https://dc.lft.to/lastmile_qr_scan"}}, {"is_disabled": 0, "fusion_lat": 0.0, "lat": 38.916253166666664, "type": "electric_scooter", "lon": -77.048859, "is_reserved": 0, "fusion_lon": 0.0, "bike_id": "c48f1f1b6102db3117a415ada036cee7", "name": "c48f1f1b6102db3117a415ada036cee7", "rental_uris": {"ios": "https://dc.lft.to/lastmile_qr_scan", "android": "https://dc.lft.to/lastmile_qr_scan"}}, {"is_disabled": 0, "fusion_lat": 0.0, "lat": 38.855106, "type": "electric_bike", "lon": -77.120544, "is_reserved": 0, "fusion_lon": 0.0, "bike_id": "b4f6f190374e08f7b49179c5686be477", "name": "b4f6f190374e08f7b49179c5686be477", "rental_uris": {"ios": "https://dc.lft.to/lastmile_qr_scan", "android": "https://dc.lft.to/lastmile_qr_scan"}}, {"is_disabled": 0, "fusion_lat": 0.0, "lat": 38.8961435, "type": "electric_scooter", "lon": -77.04556533333333, "is_reserved": 0, "fusion_lon": 0.0, "bike_id": "e79d92f7a830fcb0a21ea7be3f1e4576", "name": "e79d92f7a830fcb0a21ea7be3f1e4576", "rental_uris": {"ios": "https://dc.lft.to/lastmile_qr_scan", "android": "https://dc.lft.to/lastmile_qr_scan"}}, {"is_disabled": 0, "fusion_lat": 0.0, "lat": 38.905717, "type": "electric_scooter", "lon": -77.03454683333334, "is_reserved": 0, "fusion_lon": 0.0, "bike_id": "546035c9bc814961bf1703f0ea50891c", "name": "546035c9bc814961bf1703f0ea50891c", "rental_uris": {"ios": "https://dc.lft.to/lastmile_qr_scan", "android": "https://dc.lft.to/lastmile_qr_scan"}}, {"is_disabled": 0, "fusion_lat": 0.0, "lat": 38.9026065, "type": "electric_scooter", "lon": -76.98684066666667, "is_reserved": 0, "fusion_lon": 0.0, "bike_id": "17a053aec6f737bc292e2f979ac64565", "name": "17a053aec6f737bc292e2f979ac64565", "rental_uris": {"ios": "https://dc.lft.to/lastmile_qr_scan", "android": "https://dc.lft.to/lastmile_qr_scan"}}, {"is_disabled": 0, "fusion_lat": 0.0, "lat": 38.99937933333333, "type": "electric_bike", "lon": -77.017688, "is_reserved": 0, "fusion_lon": 0.0, "bike_id": "8aeed346b9f7d4858796733c305f42cd", "name": "8aeed346b9f7d4858796733c305f42cd", "rental_uris": {"ios": "https://dc.lft.to/lastmile_qr_scan", "android": "https://dc.lft.to/lastmile_qr_scan"}}, {"is_disabled": 0, "fusion_lat": 0.0, "lat": 38.9324095, "type": "electric_scooter", "lon": -77.03862216666667, "is_reserved": 0, "fusion_lon": 0.0, "bike_id": "931426066162239ef3e1863486f34612", "name": "931426066162239ef3e1863486f34612", "rental_uris": {"ios": "https://dc.lft.to/lastmile_qr_scan", "android": "https://dc.lft.to/lastmile_qr_scan"}}, {"is_disabled": 0, "fusion_lat": 0.0, "lat": 38.90099516666667, "type": "electric_scooter", "lon": -76.98345116666667, "is_reserved": 0, "fusion_lon": 0.0, "bike_id": "d496c78ffa1bb751e52c804730927d5c", "name": "d496c78ffa1bb751e52c804730927d5c", "rental_uris": {"ios": "https://dc.lft.to/lastmile_qr_scan", "android": "https://dc.lft.to/lastmile_qr_scan"}}, {"is_disabled": 0, "fusion_lat": 0.0, "lat": 38.90264833333333, "type": "electric_scooter", "lon": -77.02657916666666, "is_reserved": 0, "fusion_lon": 0.0, "bike_id": "633a74a33cd5f26d2ed80fb76770d405", "name": "633a74a33cd5f26d2ed80fb76770d405", "rental_uris": {"ios": "https://dc.lft.to/lastmile_qr_scan", "android": "https://dc.lft.to/lastmile_qr_scan"}}, {"is_disabled": 0, "fusion_lat": 0.0, "lat": 38.949792, "type": "electric_scooter", "lon": -77.026973, "is_reserved": 0, "fusion_lon": 0.0, "bike_id": "a4d490ca8cfd4f8504ebbcb34b328e05", "name": "a4d490ca8cfd4f8504ebbcb34b328e05", "rental_uris": {"ios": "https://dc.lft.to/lastmile_qr_scan", "android": "https://dc.lft.to/lastmile_qr_scan"}}, {"is_disabled": 0, "fusion_lat": 0.0, "lat": 38.914228, "type": "electric_scooter", "lon": -77.045438, "is_reserved": 0, "fusion_lon": 0.0, "bike_id": "0284a49ce954afda2a6f5f24e8818686", "name": "0284a49ce954afda2a6f5f24e8818686", "rental_uris": {"ios": "https://dc.lft.to/lastmile_qr_scan", "android": "https://dc.lft.to/lastmile_qr_scan"}}, {"is_disabled": 0, "fusion_lat": 0.0, "lat": 38.921774666666664, "type": "electric_scooter", "lon": -77.03224516666667, "is_reserved": 0, "fusion_lon": 0.0, "bike_id": "8983960eeee526b04ec293901c5715f8", "name": "8983960eeee526b04ec293901c5715f8", "rental_uris": {"ios": "https://dc.lft.to/lastmile_qr_scan", "android": "https://dc.lft.to/lastmile_qr_scan"}}, {"is_disabled": 0, "fusion_lat": 0.0, "lat": 38.90551933333333, "type": "electric_scooter", "lon": -77.039782, "is_reserved": 0, "fusion_lon": 0.0, "bike_id": "8d04663e3cdf8ca02f236cdccbb3e0bf", "name": "8d04663e3cdf8ca02f236cdccbb3e0bf", "rental_uris": {"ios": "https://dc.lft.to/lastmile_qr_scan", "android": "https://dc.lft.to/lastmile_qr_scan"}}, {"is_disabled": 0, "fusion_lat": 0.0, "lat": 38.89193366666667, "type": "electric_scooter", "lon": -77.02452583333333, "is_reserved": 0, "fusion_lon": 0.0, "bike_id": "42614618493843439b08790d31414beb", "name": "42614618493843439b08790d31414beb", "rental_uris": {"ios": "https://dc.lft.to/lastmile_qr_scan", "android": "https://dc.lft.to/lastmile_qr_scan"}}, {"is_disabled": 0, "fusion_lat": 0.0, "lat": 38.89250333333333, "type": "electric_scooter", "lon": -77.0396315, "is_reserved": 0, "fusion_lon": 0.0, "bike_id": "0ba2edced7e57207f7ded0f5efc95d5e", "name": "0ba2edced7e57207f7ded0f5efc95d5e", "rental_uris": {"ios": "https://dc.lft.to/lastmile_qr_scan", "android": "https://dc.lft.to/lastmile_qr_scan"}}, {"is_disabled": 0, "fusion_lat": 0.0, "lat": 38.8778855, "type": "electric_scooter", "lon": -76.9940775, "is_reserved": 0, "fusion_lon": 0.0, "bike_id": "5ce2d0d8183d82a30e952836b62a906d", "name": "5ce2d0d8183d82a30e952836b62a906d", "rental_uris": {"ios": "https://dc.lft.to/lastmile_qr_scan", "android": "https://dc.lft.to/lastmile_qr_scan"}}, {"is_disabled": 0, "fusion_lat": 0.0, "lat": 38.8288125, "type": "electric_bike", "lon": -77.112207, "is_reserved": 0, "fusion_lon": 0.0, "bike_id": "a61789668d604bd6fe62cdb17e6e1097", "name": "a61789668d604bd6fe62cdb17e6e1097", "rental_uris": {"ios": "https://dc.lft.to/lastmile_qr_scan", "android": "https://dc.lft.to/lastmile_qr_scan"}}, {"is_disabled": 0, "fusion_lat": 0.0, "lat": 38.903377666666664, "type": "electric_scooter", "lon": -77.04347383333334, "is_reserved": 0, "fusion_lon": 0.0, "bike_id": "d7294c0424546154a7e4f5cfa2d5b25b", "name": "d7294c0424546154a7e4f5cfa2d5b25b", "rental_uris": {"ios": "https://dc.lft.to/lastmile_qr_scan", "android": "https://dc.lft.to/lastmile_qr_scan"}}, {"is_disabled": 0, "fusion_lat": 0.0, "lat": 38.883839, "type": "electric_scooter", "lon": -77.01530383333333, "is_reserved": 0, "fusion_lon": 0.0, "bike_id": "14391090ed3f8aeddd205509c43b0ecc", "name": "14391090ed3f8aeddd205509c43b0ecc", "rental_uris": {"ios": "https://dc.lft.to/lastmile_qr_scan", "android": "https://dc.lft.to/lastmile_qr_scan"}}, {"is_disabled": 0, "fusion_lat": 0.0, "lat": 38.9907445, "type": "electric_bike", "lon": -76.87470083333334, "is_reserved": 0, "fusion_lon": 0.0, "bike_id": "84d7ce5faf0e0e0ec36955a4e2e7302c", "name": "84d7ce5faf0e0e0ec36955a4e2e7302c", "rental_uris": {"ios": "https://dc.lft.to/lastmile_qr_scan", "android": "https://dc.lft.to/lastmile_qr_scan"}}, {"is_disabled": 0, "fusion_lat": 0.0, "lat": 38.90130416666667, "type": "electric_scooter", "lon": -76.99662, "is_reserved": 0, "fusion_lon": 0.0, "bike_id": "710b459eeeab7382090e560c0364f350", "name": "710b459eeeab7382090e560c0364f350", "rental_uris": {"ios": "https://dc.lft.to/lastmile_qr_scan", "android": "https://dc.lft.to/lastmile_qr_scan"}}, {"is_disabled": 0, "fusion_lat": 0.0, "lat": 39.05816816666667, "type": "electric_bike", "lon": -77.12626483333334, "is_reserved": 0, "fusion_lon": 0.0, "bike_id": "fc6b0eca3e8975220c81911057b6dc09", "name": "fc6b0eca3e8975220c81911057b6dc09", "rental_uris": {"ios": "https://dc.lft.to/lastmile_qr_scan", "android": "https://dc.lft.to/lastmile_qr_scan"}}, {"is_disabled": 0, "fusion_lat": 0.0, "lat": 38.92367316666667, "type": "electric_scooter", "lon": -77.05130416666667, "is_reserved": 0, "fusion_lon": 0.0, "bike_id": "c7837805bbe22e2eb2012f03b5bd1bc1", "name": "c7837805bbe22e2eb2012f03b5bd1bc1", "rental_uris": {"ios": "https://dc.lft.to/lastmile_qr_scan", "android": "https://dc.lft.to/lastmile_qr_scan"}}, {"is_disabled": 0, "fusion_lat": 0.0, "lat": 38.8955635, "type": "electric_scooter", "lon": -76.93040166666667, "is_reserved": 0, "fusion_lon": 0.0, "bike_id": "907ab9afa44a2c584c3d8f98f019c96a", "name": "907ab9afa44a2c584c3d8f98f019c96a", "rental_uris": {"ios": "https://dc.lft.to/lastmile_qr_scan", "android": "https://dc.lft.to/lastmile_qr_scan"}}, {"is_disabled": 0, "fusion_lat": 0.0, "lat": 38.95358083333333, "type": "electric_bike", "lon": -76.98091283333333, "is_reserved": 0, "fusion_lon": 0.0, "bike_id": "a1100ab2980545d7cd50f369e37ca7ce", "name": "a1100ab2980545d7cd50f369e37ca7ce", "rental_uris": {"ios": "https://dc.lft.to/lastmile_qr_scan", "android": "https://dc.lft.to/lastmile_qr_scan"}}, {"is_disabled": 0, "fusion_lat": 0.0, "lat": 38.89620933333333, "type": "electric_scooter", "lon": -77.04050683333334, "is_reserved": 0, "fusion_lon": 0.0, "bike_id": "b097913f1c35145cc311333dec791c73", "name": "b097913f1c35145cc311333dec791c73", "rental_uris": {"ios": "https://dc.lft.to/lastmile_qr_scan", "android": "https://dc.lft.to/lastmile_qr_scan"}}, {"is_disabled": 0, "fusion_lat": 0.0, "lat": 38.846099833333334, "type": "electric_bike", "lon": -76.96905016666666, "is_reserved": 0, "fusion_lon": 0.0, "bike_id": "3a7f86eb310fa272d8600244ed0aac0c", "name": "3a7f86eb310fa272d8600244ed0aac0c", "rental_uris": {"ios": "https://dc.lft.to/lastmile_qr_scan", "android": "https://dc.lft.to/lastmile_qr_scan"}}, {"is_disabled": 0, "fusion_lat": 0.0, "lat": 38.84623716666667, "type": "electric_bike", "lon": -76.9782205, "is_reserved": 0, "fusion_lon": 0.0, "bike_id": "9547a8a05de2a6954a7209c02fab48ba", "name": "9547a8a05de2a6954a7209c02fab48ba", "rental_uris": {"ios": "https://dc.lft.to/lastmile_qr_scan", "android": "https://dc.lft.to/lastmile_qr_scan"}}, {"is_disabled": 0, "fusion_lat": 0.0, "lat": 38.92502, "type": "electric_scooter", "lon": -77.0214885, "is_reserved": 0, "fusion_lon": 0.0, "bike_id": "5076f1d7bea879a69f6a9051e09691fd", "name": "5076f1d7bea879a69f6a9051e09691fd", "rental_uris": {"ios": "https://dc.lft.to/lastmile_qr_scan", "android": "https://dc.lft.to/lastmile_qr_scan"}}, {"is_disabled": 0, "fusion_lat": 0.0, "lat": 38.9127465, "type": "electric_scooter", "lon": -77.02244666666667, "is_reserved": 0, "fusion_lon": 0.0, "bike_id": "2b63f9b0b76f481c6f53f04f425e9e8f", "name": "2b63f9b0b76f481c6f53f04f425e9e8f", "rental_uris": {"ios": "https://dc.lft.to/lastmile_qr_scan", "android": "https://dc.lft.to/lastmile_qr_scan"}}, {"is_disabled": 0, "fusion_lat": 0.0, "lat": 38.903499, "type": "electric_scooter", "lon": -77.0388105, "is_reserved": 0, "fusion_lon": 0.0, "bike_id": "903c032da3bc4d2df447490c0ad435a4", "name": "903c032da3bc4d2df447490c0ad435a4", "rental_uris": {"ios": "https://dc.lft.to/lastmile_qr_scan", "android": "https://dc.lft.to/lastmile_qr_scan"}}, {"is_disabled": 0, "fusion_lat": 0.0, "lat": 38.903331333333334, "type": "electric_scooter", "lon": -77.03456716666666, "is_reserved": 0, "fusion_lon": 0.0, "bike_id": "887892748c11b92282d680a60deb9351", "name": "887892748c11b92282d680a60deb9351", "rental_uris": {"ios": "https://dc.lft.to/lastmile_qr_scan", "android": "https://dc.lft.to/lastmile_qr_scan"}}, {"is_disabled": 0, "fusion_lat": 0.0, "lat": 38.90906566666666, "type": "electric_scooter", "lon": -76.99967716666667, "is_reserved": 0, "fusion_lon": 0.0, "bike_id": "a8116fd811a2762f4ee52c06f75fad52", "name": "a8116fd811a2762f4ee52c06f75fad52", "rental_uris": {"ios": "https://dc.lft.to/lastmile_qr_scan", "android": "https://dc.lft.to/lastmile_qr_scan"}}, {"is_disabled": 0, "fusion_lat": 0.0, "lat": 38.836913333333335, "type": "electric_scooter", "lon": -77.00591366666667, "is_reserved": 0, "fusion_lon": 0.0, "bike_id": "fb1793759d5fb39fc191654b9ecd259f", "name": "fb1793759d5fb39fc191654b9ecd259f", "rental_uris": {"ios": "https://dc.lft.to/lastmile_qr_scan", "android": "https://dc.lft.to/lastmile_qr_scan"}}, {"is_disabled": 0, "fusion_lat": 0.0, "lat": 38.93675483333333, "type": "electric_bike", "lon": -76.95225016666667, "is_reserved": 0, "fusion_lon": 0.0, "bike_id": "3c4411adebf8c4cc818da4ea39cfa88e", "name": "3c4411adebf8c4cc818da4ea39cfa88e", "rental_uris": {"ios": "https://dc.lft.to/lastmile_qr_scan", "android": "https://dc.lft.to/lastmile_qr_scan"}}, {"is_disabled": 0, "fusion_lat": 0.0, "lat": 38.927732666666664, "type": "electric_scooter", "lon": -77.0270955, "is_reserved": 0, "fusion_lon": 0.0, "bike_id": "f91f4d2ec346e1a314f4db71496cc4d5", "name": "f91f4d2ec346e1a314f4db71496cc4d5", "rental_uris": {"ios": "https://dc.lft.to/lastmile_qr_scan", "android": "https://dc.lft.to/lastmile_qr_scan"}}, {"is_disabled": 0, "fusion_lat": 0.0, "lat": 38.8701005, "type": "electric_bike", "lon": -76.96016316666666, "is_reserved": 0, "fusion_lon": 0.0, "bike_id": "606fecf7086bf1af4f8dfce54f636424", "name": "606fecf7086bf1af4f8dfce54f636424", "rental_uris": {"ios": "https://dc.lft.to/lastmile_qr_scan", "android": "https://dc.lft.to/lastmile_qr_scan"}}, {"is_disabled": 0, "fusion_lat": 0.0, "lat": 38.9235815, "type": "electric_scooter", "lon": -77.05084766666667, "is_reserved": 0, "fusion_lon": 0.0, "bike_id": "13c09a07586f4d361b62217d9f71d509", "name": "13c09a07586f4d361b62217d9f71d509", "rental_uris": {"ios": "https://dc.lft.to/lastmile_qr_scan", "android": "https://dc.lft.to/lastmile_qr_scan"}}, {"is_disabled": 0, "fusion_lat": 0.0, "lat": 38.9364385, "type": "electric_scooter", "lon": -77.08188766666666, "is_reserved": 0, "fusion_lon": 0.0, "bike_id": "f4374c77522364dc1031e01eb4c90bb5", "name": "f4374c77522364dc1031e01eb4c90bb5", "rental_uris": {"ios": "https://dc.lft.to/lastmile_qr_scan", "android": "https://dc.lft.to/lastmile_qr_scan"}}, {"is_disabled": 0, "fusion_lat": 0.0, "lat": 38.934966, "type": "electric_scooter", "lon": -77.05803283333333, "is_reserved": 0, "fusion_lon": 0.0, "bike_id": "307b412b93febc9f176ebe1ca0a218a5", "name": "307b412b93febc9f176ebe1ca0a218a5", "rental_uris": {"ios": "https://dc.lft.to/lastmile_qr_scan", "android": "https://dc.lft.to/lastmile_qr_scan"}}, {"is_disabled": 0, "fusion_lat": 0.0, "lat": 38.900479, "type": "electric_scooter", "lon": -76.99764233333333, "is_reserved": 0, "fusion_lon": 0.0, "bike_id": "15f5821768cadf300e5b3deb29a897ba", "name": "15f5821768cadf300e5b3deb29a897ba", "rental_uris": {"ios": "https://dc.lft.to/lastmile_qr_scan", "android": "https://dc.lft.to/lastmile_qr_scan"}}, {"is_disabled": 0, "fusion_lat": 0.0, "lat": 38.89684866666666, "type": "electric_scooter", "lon": -77.02710883333333, "is_reserved": 0, "fusion_lon": 0.0, "bike_id": "a027f8593fa5c5618706dac0961d0865", "name": "a027f8593fa5c5618706dac0961d0865", "rental_uris": {"ios": "https://dc.lft.to/lastmile_qr_scan", "android": "https://dc.lft.to/lastmile_qr_scan"}}, {"is_disabled": 0, "fusion_lat": 0.0, "lat": 38.90495283333333, "type": "electric_scooter", "lon": -76.97926666666666, "is_reserved": 0, "fusion_lon": 0.0, "bike_id": "ea3f35083ce45349568a2f252f967304", "name": "ea3f35083ce45349568a2f252f967304", "rental_uris": {"ios": "https://dc.lft.to/lastmile_qr_scan", "android": "https://dc.lft.to/lastmile_qr_scan"}}, {"is_disabled": 0, "fusion_lat": 0.0, "lat": 38.918541, "type": "electric_scooter", "lon": -77.03219966666667, "is_reserved": 0, "fusion_lon": 0.0, "bike_id": "403cf1a7bf0faaaec899f04acb7402c4", "name": "403cf1a7bf0faaaec899f04acb7402c4", "rental_uris": {"ios": "https://dc.lft.to/lastmile_qr_scan", "android": "https://dc.lft.to/lastmile_qr_scan"}}, {"is_disabled": 0, "fusion_lat": 0.0, "lat": 38.9174995, "type": "electric_scooter", "lon": -77.03177816666667, "is_reserved": 0, "fusion_lon": 0.0, "bike_id": "6ead588e9595b0bd5eeb27c16e0a6006", "name": "6ead588e9595b0bd5eeb27c16e0a6006", "rental_uris": {"ios": "https://dc.lft.to/lastmile_qr_scan", "android": "https://dc.lft.to/lastmile_qr_scan"}}, {"is_disabled": 0, "fusion_lat": 0.0, "lat": 38.8804295, "type": "electric_scooter", "lon": -77.01925733333333, "is_reserved": 0, "fusion_lon": 0.0, "bike_id": "bd0b4c2778953acca3c5308d26943f08", "name": "bd0b4c2778953acca3c5308d26943f08", "rental_uris": {"ios": "https://dc.lft.to/lastmile_qr_scan", "android": "https://dc.lft.to/lastmile_qr_scan"}}, {"is_disabled": 0, "fusion_lat": 0.0, "lat": 38.936418333333336, "type": "electric_scooter", "lon": -77.0366605, "is_reserved": 0, "fusion_lon": 0.0, "bike_id": "8005429c0870b32a6a8e926fa4eb0084", "name": "8005429c0870b32a6a8e926fa4eb0084", "rental_uris": {"ios": "https://dc.lft.to/lastmile_qr_scan", "android": "https://dc.lft.to/lastmile_qr_scan"}}, {"is_disabled": 0, "fusion_lat": 0.0, "lat": 38.8785035, "type": "electric_scooter", "lon": -77.0196525, "is_reserved": 0, "fusion_lon": 0.0, "bike_id": "d98ff32548f83f614a1b078364a0ae52", "name": "d98ff32548f83f614a1b078364a0ae52", "rental_uris": {"ios": "https://dc.lft.to/lastmile_qr_scan", "android": "https://dc.lft.to/lastmile_qr_scan"}}, {"is_disabled": 0, "fusion_lat": 0.0, "lat": 38.913025166666664, "type": "electric_scooter", "lon": -77.019647, "is_reserved": 0, "fusion_lon": 0.0, "bike_id": "0fbb77b3124d1e071cacffb3e63711c4", "name": "0fbb77b3124d1e071cacffb3e63711c4", "rental_uris": {"ios": "https://dc.lft.to/lastmile_qr_scan", "android": "https://dc.lft.to/lastmile_qr_scan"}}, {"is_disabled": 0, "fusion_lat": 0.0, "lat": 38.859628, "type": "electric_scooter", "lon": -76.9910865, "is_reserved": 0, "fusion_lon": 0.0, "bike_id": "4abbb441dd38d2dcf682c0b692af6c09", "name": "4abbb441dd38d2dcf682c0b692af6c09", "rental_uris": {"ios": "https://dc.lft.to/lastmile_qr_scan", "android": "https://dc.lft.to/lastmile_qr_scan"}}, {"is_disabled": 0, "fusion_lat": 0.0, "lat": 38.939815333333335, "type": "electric_scooter", "lon": -77.02893033333334, "is_reserved": 0, "fusion_lon": 0.0, "bike_id": "2a4ed51f5f293a0925900e2b53de1594", "name": "2a4ed51f5f293a0925900e2b53de1594", "rental_uris": {"ios": "https://dc.lft.to/lastmile_qr_scan", "android": "https://dc.lft.to/lastmile_qr_scan"}}, {"is_disabled": 0, "fusion_lat": 0.0, "lat": 38.892245833333334, "type": "electric_scooter", "lon": -77.04656266666667, "is_reserved": 0, "fusion_lon": 0.0, "bike_id": "87ba22843a8c5d878d2fdec1d6b7befc", "name": "87ba22843a8c5d878d2fdec1d6b7befc", "rental_uris": {"ios": "https://dc.lft.to/lastmile_qr_scan", "android": "https://dc.lft.to/lastmile_qr_scan"}}, {"is_disabled": 0, "fusion_lat": 0.0, "lat": 38.924784, "type": "electric_scooter", "lon": -77.02630283333333, "is_reserved": 0, "fusion_lon": 0.0, "bike_id": "4c8e7918c2d946749f5a009dcf1053fe", "name": "4c8e7918c2d946749f5a009dcf1053fe", "rental_uris": {"ios": "https://dc.lft.to/lastmile_qr_scan", "android": "https://dc.lft.to/lastmile_qr_scan"}}, {"is_disabled": 0, "fusion_lat": 0.0, "lat": 38.91807083333333, "type": "electric_scooter", "lon": -77.03303583333333, "is_reserved": 0, "fusion_lon": 0.0, "bike_id": "e663c5f0e9781ae2942643764462b46c", "name": "e663c5f0e9781ae2942643764462b46c", "rental_uris": {"ios": "https://dc.lft.to/lastmile_qr_scan", "android": "https://dc.lft.to/lastmile_qr_scan"}}, {"is_disabled": 0, "fusion_lat": 0.0, "lat": 38.912422, "type": "electric_bike", "lon": -77.07297316666667, "is_reserved": 0, "fusion_lon": 0.0, "bike_id": "ed0abcdca553a74292c3d0ea178d8018", "name": "ed0abcdca553a74292c3d0ea178d8018", "rental_uris": {"ios": "https://dc.lft.to/lastmile_qr_scan", "android": "https://dc.lft.to/lastmile_qr_scan"}}, {"is_disabled": 0, "fusion_lat": 0.0, "lat": 38.89891716666666, "type": "electric_scooter", "lon": -76.93317233333333, "is_reserved": 0, "fusion_lon": 0.0, "bike_id": "44c7e95773b5cdcb51b7a6e559206df9", "name": "44c7e95773b5cdcb51b7a6e559206df9", "rental_uris": {"ios": "https://dc.lft.to/lastmile_qr_scan", "android": "https://dc.lft.to/lastmile_qr_scan"}}, {"is_disabled": 0, "fusion_lat": 0.0, "lat": 38.83986066666667, "type": "electric_bike", "lon": -77.00570116666667, "is_reserved": 0, "fusion_lon": 0.0, "bike_id": "3a9fc6457c1a21e3a778eac1dc0fee39", "name": "3a9fc6457c1a21e3a778eac1dc0fee39", "rental_uris": {"ios": "https://dc.lft.to/lastmile_qr_scan", "android": "https://dc.lft.to/lastmile_qr_scan"}}, {"is_disabled": 0, "fusion_lat": 0.0, "lat": 38.881338, "type": "electric_bike", "lon": -76.98091283333333, "is_reserved": 0, "fusion_lon": 0.0, "bike_id": "c6e5276883ceecec65ae303b03d74ae9", "name": "c6e5276883ceecec65ae303b03d74ae9", "rental_uris": {"ios": "https://dc.lft.to/lastmile_qr_scan", "android": "https://dc.lft.to/lastmile_qr_scan"}}, {"is_disabled": 0, "fusion_lat": 0.0, "lat": 38.91568016666667, "type": "electric_scooter", "lon": -77.01192066666667, "is_reserved": 0, "fusion_lon": 0.0, "bike_id": "e6ebf645b62af37cd6a1de1491ccfe26", "name": "e6ebf645b62af37cd6a1de1491ccfe26", "rental_uris": {"ios": "https://dc.lft.to/lastmile_qr_scan", "android": "https://dc.lft.to/lastmile_qr_scan"}}, {"is_disabled": 0, "fusion_lat": 0.0, "lat": 38.86657066666667, "type": "electric_scooter", "lon": -76.99015266666666, "is_reserved": 0, "fusion_lon": 0.0, "bike_id": "8e17aef3504b5411bc77c031f88e0d47", "name": "8e17aef3504b5411bc77c031f88e0d47", "rental_uris": {"ios": "https://dc.lft.to/lastmile_qr_scan", "android": "https://dc.lft.to/lastmile_qr_scan"}}, {"is_disabled": 0, "fusion_lat": 0.0, "lat": 38.91998233333333, "type": "electric_scooter", "lon": -77.04196083333333, "is_reserved": 0, "fusion_lon": 0.0, "bike_id": "bfb243f4bc018d6644f67b82550e451b", "name": "bfb243f4bc018d6644f67b82550e451b", "rental_uris": {"ios": "https://dc.lft.to/lastmile_qr_scan", "android": "https://dc.lft.to/lastmile_qr_scan"}}, {"is_disabled": 0, "fusion_lat": 0.0, "lat": 38.89989466666667, "type": "electric_scooter", "lon": -77.05239516666667, "is_reserved": 0, "fusion_lon": 0.0, "bike_id": "b9e776bd37125195ca2c9fa1b370f7c7", "name": "b9e776bd37125195ca2c9fa1b370f7c7", "rental_uris": {"ios": "https://dc.lft.to/lastmile_qr_scan", "android": "https://dc.lft.to/lastmile_qr_scan"}}, {"is_disabled": 0, "fusion_lat": 0.0, "lat": 38.90783533333333, "type": "electric_scooter", "lon": -77.03831516666666, "is_reserved": 0, "fusion_lon": 0.0, "bike_id": "3529e87b009a6f38051ea97c7ab5d61c", "name": "3529e87b009a6f38051ea97c7ab5d61c", "rental_uris": {"ios": "https://dc.lft.to/lastmile_qr_scan", "android": "https://dc.lft.to/lastmile_qr_scan"}}, {"is_disabled": 0, "fusion_lat": 0.0, "lat": 38.917365333333336, "type": "electric_scooter", "lon": -77.02695033333333, "is_reserved": 0, "fusion_lon": 0.0, "bike_id": "01dadd3643a22da8c335166ffc09392d", "name": "01dadd3643a22da8c335166ffc09392d", "rental_uris": {"ios": "https://dc.lft.to/lastmile_qr_scan", "android": "https://dc.lft.to/lastmile_qr_scan"}}, {"is_disabled": 0, "fusion_lat": 0.0, "lat": 38.920289333333336, "type": "electric_scooter", "lon": -77.02802783333334, "is_reserved": 0, "fusion_lon": 0.0, "bike_id": "f9b3e01155b9822372930034d3aa1d67", "name": "f9b3e01155b9822372930034d3aa1d67", "rental_uris": {"ios": "https://dc.lft.to/lastmile_qr_scan", "android": "https://dc.lft.to/lastmile_qr_scan"}}, {"is_disabled": 0, "fusion_lat": 0.0, "lat": 38.91679933333333, "type": "electric_scooter", "lon": -77.01207416666666, "is_reserved": 0, "fusion_lon": 0.0, "bike_id": "8a860a52f009c31aa70cb8e45d8e1e33", "name": "8a860a52f009c31aa70cb8e45d8e1e33", "rental_uris": {"ios": "https://dc.lft.to/lastmile_qr_scan", "android": "https://dc.lft.to/lastmile_qr_scan"}}, {"is_disabled": 0, "fusion_lat": 0.0, "lat": 38.905910666666664, "type": "electric_scooter", "lon": -76.98617933333334, "is_reserved": 0, "fusion_lon": 0.0, "bike_id": "0a3a3abdb2916c6fbf017d4e75a0ad7e", "name": "0a3a3abdb2916c6fbf017d4e75a0ad7e", "rental_uris": {"ios": "https://dc.lft.to/lastmile_qr_scan", "android": "https://dc.lft.to/lastmile_qr_scan"}}, {"is_disabled": 0, "fusion_lat": 0.0, "lat": 38.89228383333333, "type": "electric_scooter", "lon": -77.0214605, "is_reserved": 0, "fusion_lon": 0.0, "bike_id": "58de5384e0bf20a697f1ae72641e766c", "name": "58de5384e0bf20a697f1ae72641e766c", "rental_uris": {"ios": "https://dc.lft.to/lastmile_qr_scan", "android": "https://dc.lft.to/lastmile_qr_scan"}}, {"is_disabled": 0, "fusion_lat": 0.0, "lat": 38.9141215, "type": "electric_scooter", "lon": -77.04000383333333, "is_reserved": 0, "fusion_lon": 0.0, "bike_id": "d7db823d43be68b11f2fb705a7d7aa93", "name": "d7db823d43be68b11f2fb705a7d7aa93", "rental_uris": {"ios": "https://dc.lft.to/lastmile_qr_scan", "android": "https://dc.lft.to/lastmile_qr_scan"}}, {"is_disabled": 0, "fusion_lat": 0.0, "lat": 38.908570166666664, "type": "electric_scooter", "lon": -77.02845516666666, "is_reserved": 0, "fusion_lon": 0.0, "bike_id": "a2e1125573d24fd21bef8a7cee1597de", "name": "a2e1125573d24fd21bef8a7cee1597de", "rental_uris": {"ios": "https://dc.lft.to/lastmile_qr_scan", "android": "https://dc.lft.to/lastmile_qr_scan"}}, {"is_disabled": 0, "fusion_lat": 0.0, "lat": 38.897286333333334, "type": "electric_scooter", "lon": -77.0488975, "is_reserved": 0, "fusion_lon": 0.0, "bike_id": "82bd093cd19b448d3f9db55635eaafe7", "name": "82bd093cd19b448d3f9db55635eaafe7", "rental_uris": {"ios": "https://dc.lft.to/lastmile_qr_scan", "android": "https://dc.lft.to/lastmile_qr_scan"}}, {"is_disabled": 0, "fusion_lat": 0.0, "lat": 38.91108916666666, "type": "electric_scooter", "lon": -77.045042, "is_reserved": 0, "fusion_lon": 0.0, "bike_id": "5d9a8a353f2f00ada8f40614e0b9e737", "name": "5d9a8a353f2f00ada8f40614e0b9e737", "rental_uris": {"ios": "https://dc.lft.to/lastmile_qr_scan", "android": "https://dc.lft.to/lastmile_qr_scan"}}, {"is_disabled": 0, "fusion_lat": 0.0, "lat": 38.8802165, "type": "electric_scooter", "lon": -77.02480933333334, "is_reserved": 0, "fusion_lon": 0.0, "bike_id": "dffa8dbc8b855eb032256ecd8dd69c04", "name": "dffa8dbc8b855eb032256ecd8dd69c04", "rental_uris": {"ios": "https://dc.lft.to/lastmile_qr_scan", "android": "https://dc.lft.to/lastmile_qr_scan"}}, {"is_disabled": 0, "fusion_lat": 0.0, "lat": 38.909183166666665, "type": "electric_scooter", "lon": -77.08006333333333, "is_reserved": 0, "fusion_lon": 0.0, "bike_id": "9567642c16e6692f01056ffe72c74452", "name": "9567642c16e6692f01056ffe72c74452", "rental_uris": {"ios": "https://dc.lft.to/lastmile_qr_scan", "android": "https://dc.lft.to/lastmile_qr_scan"}}, {"is_disabled": 0, "fusion_lat": 0.0, "lat": 38.8922415, "type": "electric_bike", "lon": -77.107824, "is_reserved": 0, "fusion_lon": 0.0, "bike_id": "28cf6563a9eb177a2bcdf5801177642d", "name": "28cf6563a9eb177a2bcdf5801177642d", "rental_uris": {"ios": "https://dc.lft.to/lastmile_qr_scan", "android": "https://dc.lft.to/lastmile_qr_scan"}}, {"is_disabled": 0, "fusion_lat": 0.0, "lat": 38.887414166666666, "type": "electric_scooter", "lon": -77.01534616666666, "is_reserved": 0, "fusion_lon": 0.0, "bike_id": "ec826d2e0d9e200707d169f1a1d2a7ce", "name": "ec826d2e0d9e200707d169f1a1d2a7ce", "rental_uris": {"ios": "https://dc.lft.to/lastmile_qr_scan", "android": "https://dc.lft.to/lastmile_qr_scan"}}, {"is_disabled": 0, "fusion_lat": 0.0, "lat": 38.941857, "type": "electric_scooter", "lon": -77.02485816666666, "is_reserved": 0, "fusion_lon": 0.0, "bike_id": "0203220c9a7dedaf6f30945bfea9698a", "name": "0203220c9a7dedaf6f30945bfea9698a", "rental_uris": {"ios": "https://dc.lft.to/lastmile_qr_scan", "android": "https://dc.lft.to/lastmile_qr_scan"}}, {"is_disabled": 0, "fusion_lat": 0.0, "lat": 38.90591116666667, "type": "electric_scooter", "lon": -77.01611183333333, "is_reserved": 0, "fusion_lon": 0.0, "bike_id": "ef1490ea688965b80c8510d75656e783", "name": "ef1490ea688965b80c8510d75656e783", "rental_uris": {"ios": "https://dc.lft.to/lastmile_qr_scan", "android": "https://dc.lft.to/lastmile_qr_scan"}}, {"is_disabled": 0, "fusion_lat": 0.0, "lat": 38.905755166666665, "type": "electric_scooter", "lon": -77.02214233333333, "is_reserved": 0, "fusion_lon": 0.0, "bike_id": "777d19bd9bb0f506703eb17bf1eea1ff", "name": "777d19bd9bb0f506703eb17bf1eea1ff", "rental_uris": {"ios": "https://dc.lft.to/lastmile_qr_scan", "android": "https://dc.lft.to/lastmile_qr_scan"}}, {"is_disabled": 0, "fusion_lat": 0.0, "lat": 38.9554, "type": "electric_bike", "lon": -76.935283, "is_reserved": 0, "fusion_lon": 0.0, "bike_id": "21e53096291fbe9d14d274bf56979780", "name": "21e53096291fbe9d14d274bf56979780", "rental_uris": {"ios": "https://dc.lft.to/lastmile_qr_scan", "android": "https://dc.lft.to/lastmile_qr_scan"}}, {"is_disabled": 0, "fusion_lat": 0.0, "lat": 38.92134716666666, "type": "electric_scooter", "lon": -77.044375, "is_reserved": 0, "fusion_lon": 0.0, "bike_id": "f64142836f8b60f048fd2a724ea8d9d0", "name": "f64142836f8b60f048fd2a724ea8d9d0", "rental_uris": {"ios": "https://dc.lft.to/lastmile_qr_scan", "android": "https://dc.lft.to/lastmile_qr_scan"}}, {"is_disabled": 0, "fusion_lat": 0.0, "lat": 38.89855083333333, "type": "electric_scooter", "lon": -77.03312533333333, "is_reserved": 0, "fusion_lon": 0.0, "bike_id": "8806be769692444eb555ae4ccb1e6729", "name": "8806be769692444eb555ae4ccb1e6729", "rental_uris": {"ios": "https://dc.lft.to/lastmile_qr_scan", "android": "https://dc.lft.to/lastmile_qr_scan"}}, {"is_disabled": 0, "fusion_lat": 0.0, "lat": 38.927899, "type": "electric_scooter", "lon": -77.02722533333333, "is_reserved": 0, "fusion_lon": 0.0, "bike_id": "62f6af133b3a0445509571aae1a16863", "name": "62f6af133b3a0445509571aae1a16863", "rental_uris": {"ios": "https://dc.lft.to/lastmile_qr_scan", "android": "https://dc.lft.to/lastmile_qr_scan"}}, {"is_disabled": 0, "fusion_lat": 0.0, "lat": 38.86347716666667, "type": "electric_scooter", "lon": -76.99004233333334, "is_reserved": 0, "fusion_lon": 0.0, "bike_id": "9dc5e418695effa03891e4c562cfa3f3", "name": "9dc5e418695effa03891e4c562cfa3f3", "rental_uris": {"ios": "https://dc.lft.to/lastmile_qr_scan", "android": "https://dc.lft.to/lastmile_qr_scan"}}, {"is_disabled": 0, "fusion_lat": 0.0, "lat": 38.9072755, "type": "electric_scooter", "lon": -77.02499016666667, "is_reserved": 0, "fusion_lon": 0.0, "bike_id": "4123cfe4af5736e4a20af55565fbfef5", "name": "4123cfe4af5736e4a20af55565fbfef5", "rental_uris": {"ios": "https://dc.lft.to/lastmile_qr_scan", "android": "https://dc.lft.to/lastmile_qr_scan"}}, {"is_disabled": 0, "fusion_lat": 0.0, "lat": 38.90334633333333, "type": "electric_scooter", "lon": -77.06592916666666, "is_reserved": 0, "fusion_lon": 0.0, "bike_id": "6eea4a5554d4f608939b5afec3a5abb8", "name": "6eea4a5554d4f608939b5afec3a5abb8", "rental_uris": {"ios": "https://dc.lft.to/lastmile_qr_scan", "android": "https://dc.lft.to/lastmile_qr_scan"}}, {"is_disabled": 0, "fusion_lat": 0.0, "lat": 38.95778683333333, "type": "electric_scooter", "lon": -77.02461983333333, "is_reserved": 0, "fusion_lon": 0.0, "bike_id": "36b7b3fc08920cb0fb6d7acff6c618ef", "name": "36b7b3fc08920cb0fb6d7acff6c618ef", "rental_uris": {"ios": "https://dc.lft.to/lastmile_qr_scan", "android": "https://dc.lft.to/lastmile_qr_scan"}}, {"is_disabled": 0, "fusion_lat": 0.0, "lat": 38.842943, "type": "electric_scooter", "lon": -76.99946916666667, "is_reserved": 0, "fusion_lon": 0.0, "bike_id": "08f599d496bdbe72b1d61f091d098d8a", "name": "08f599d496bdbe72b1d61f091d098d8a", "rental_uris": {"ios": "https://dc.lft.to/lastmile_qr_scan", "android": "https://dc.lft.to/lastmile_qr_scan"}}, {"is_disabled": 0, "fusion_lat": 0.0, "lat": 38.899210833333335, "type": "electric_scooter", "lon": -76.93384366666666, "is_reserved": 0, "fusion_lon": 0.0, "bike_id": "2f23a8790f4b2bc579c28abeb2412ba1", "name": "2f23a8790f4b2bc579c28abeb2412ba1", "rental_uris": {"ios": "https://dc.lft.to/lastmile_qr_scan", "android": "https://dc.lft.to/lastmile_qr_scan"}}, {"is_disabled": 0, "fusion_lat": 0.0, "lat": 38.9038565, "type": "electric_scooter", "lon": -77.04798433333333, "is_reserved": 0, "fusion_lon": 0.0, "bike_id": "020cea644b21efa067a610327aa15312", "name": "020cea644b21efa067a610327aa15312", "rental_uris": {"ios": "https://dc.lft.to/lastmile_qr_scan", "android": "https://dc.lft.to/lastmile_qr_scan"}}, {"is_disabled": 0, "fusion_lat": 0.0, "lat": 38.93071483333333, "type": "electric_scooter", "lon": -77.04184466666666, "is_reserved": 0, "fusion_lon": 0.0, "bike_id": "3f318294917fc1731006e8e038020e1b", "name": "3f318294917fc1731006e8e038020e1b", "rental_uris": {"ios": "https://dc.lft.to/lastmile_qr_scan", "android": "https://dc.lft.to/lastmile_qr_scan"}}, {"is_disabled": 0, "fusion_lat": 0.0, "lat": 38.90127016666667, "type": "electric_scooter", "lon": -77.043874, "is_reserved": 0, "fusion_lon": 0.0, "bike_id": "0108a39318e2c00c77f9288dcf827f79", "name": "0108a39318e2c00c77f9288dcf827f79", "rental_uris": {"ios": "https://dc.lft.to/lastmile_qr_scan", "android": "https://dc.lft.to/lastmile_qr_scan"}}, {"is_disabled": 0, "fusion_lat": 0.0, "lat": 38.92051983333333, "type": "electric_scooter", "lon": -77.033758, "is_reserved": 0, "fusion_lon": 0.0, "bike_id": "7e0b98225872ffcd1733cb8bb6ae83c4", "name": "7e0b98225872ffcd1733cb8bb6ae83c4", "rental_uris": {"ios": "https://dc.lft.to/lastmile_qr_scan", "android": "https://dc.lft.to/lastmile_qr_scan"}}, {"is_disabled": 0, "fusion_lat": 0.0, "lat": 38.9204925, "type": "electric_scooter", "lon": -77.04177866666667, "is_reserved": 0, "fusion_lon": 0.0, "bike_id": "fdf29ed455d59a6e33c9321b8aded08a", "name": "fdf29ed455d59a6e33c9321b8aded08a", "rental_uris": {"ios": "https://dc.lft.to/lastmile_qr_scan", "android": "https://dc.lft.to/lastmile_qr_scan"}}, {"is_disabled": 0, "fusion_lat": 0.0, "lat": 38.90701466666667, "type": "electric_scooter", "lon": -77.02187266666667, "is_reserved": 0, "fusion_lon": 0.0, "bike_id": "4e93c99665351f5dfa2388ad9e9333d7", "name": "4e93c99665351f5dfa2388ad9e9333d7", "rental_uris": {"ios": "https://dc.lft.to/lastmile_qr_scan", "android": "https://dc.lft.to/lastmile_qr_scan"}}, {"is_disabled": 0, "fusion_lat": 0.0, "lat": 38.890547833333336, "type": "electric_scooter", "lon": -76.9375565, "is_reserved": 0, "fusion_lon": 0.0, "bike_id": "d1976c96da80f26548ff08c78eb4c50d", "name": "d1976c96da80f26548ff08c78eb4c50d", "rental_uris": {"ios": "https://dc.lft.to/lastmile_qr_scan", "android": "https://dc.lft.to/lastmile_qr_scan"}}, {"is_disabled": 0, "fusion_lat": 0.0, "lat": 38.89907083333333, "type": "electric_scooter", "lon": -76.9335155, "is_reserved": 0, "fusion_lon": 0.0, "bike_id": "dd73f4ce0b53f7557fb653b4ab6c8028", "name": "dd73f4ce0b53f7557fb653b4ab6c8028", "rental_uris": {"ios": "https://dc.lft.to/lastmile_qr_scan", "android": "https://dc.lft.to/lastmile_qr_scan"}}, {"is_disabled": 0, "fusion_lat": 0.0, "lat": 38.923231666666666, "type": "electric_scooter", "lon": -77.039036, "is_reserved": 0, "fusion_lon": 0.0, "bike_id": "3d25ce597e24069a48b1c4f4fd02e1b1", "name": "3d25ce597e24069a48b1c4f4fd02e1b1", "rental_uris": {"ios": "https://dc.lft.to/lastmile_qr_scan", "android": "https://dc.lft.to/lastmile_qr_scan"}}, {"is_disabled": 0, "fusion_lat": 0.0, "lat": 38.874734833333335, "type": "electric_scooter", "lon": -77.00935466666667, "is_reserved": 0, "fusion_lon": 0.0, "bike_id": "8ca5b6266e235aae4f836ce2bcad2a30", "name": "8ca5b6266e235aae4f836ce2bcad2a30", "rental_uris": {"ios": "https://dc.lft.to/lastmile_qr_scan", "android": "https://dc.lft.to/lastmile_qr_scan"}}, {"is_disabled": 0, "fusion_lat": 0.0, "lat": 38.898345, "type": "electric_scooter", "lon": -76.946343, "is_reserved": 0, "fusion_lon": 0.0, "bike_id": "1c57ce42ec62c4ad76deca446458e71f", "name": "1c57ce42ec62c4ad76deca446458e71f", "rental_uris": {"ios": "https://dc.lft.to/lastmile_qr_scan", "android": "https://dc.lft.to/lastmile_qr_scan"}}, {"is_disabled": 0, "fusion_lat": 0.0, "lat": 38.8581135, "type": "electric_scooter", "lon": -76.98653466666667, "is_reserved": 0, "fusion_lon": 0.0, "bike_id": "6649004b1085e80c902cff1da972b6e0", "name": "6649004b1085e80c902cff1da972b6e0", "rental_uris": {"ios": "https://dc.lft.to/lastmile_qr_scan", "android": "https://dc.lft.to/lastmile_qr_scan"}}, {"is_disabled": 0, "fusion_lat": 0.0, "lat": 38.93061216666667, "type": "electric_scooter", "lon": -77.03227833333334, "is_reserved": 0, "fusion_lon": 0.0, "bike_id": "96ba7f1c766baaba812100bf773b9b3f", "name": "96ba7f1c766baaba812100bf773b9b3f", "rental_uris": {"ios": "https://dc.lft.to/lastmile_qr_scan", "android": "https://dc.lft.to/lastmile_qr_scan"}}, {"is_disabled": 0, "fusion_lat": 0.0, "lat": 38.941839, "type": "electric_scooter", "lon": -77.0309535, "is_reserved": 0, "fusion_lon": 0.0, "bike_id": "d95403e04569233c7541de155a28b5aa", "name": "d95403e04569233c7541de155a28b5aa", "rental_uris": {"ios": "https://dc.lft.to/lastmile_qr_scan", "android": "https://dc.lft.to/lastmile_qr_scan"}}, {"is_disabled": 0, "fusion_lat": 0.0, "lat": 38.848663, "type": "electric_bike", "lon": -77.20041566666667, "is_reserved": 0, "fusion_lon": 0.0, "bike_id": "35bc4b123d28870ac4007ae955074037", "name": "35bc4b123d28870ac4007ae955074037", "rental_uris": {"ios": "https://dc.lft.to/lastmile_qr_scan", "android": "https://dc.lft.to/lastmile_qr_scan"}}, {"is_disabled": 0, "fusion_lat": 0.0, "lat": 38.90147833333333, "type": "electric_scooter", "lon": -77.04043166666666, "is_reserved": 0, "fusion_lon": 0.0, "bike_id": "7c6317f56d7650754b8ab909011ea4fc", "name": "7c6317f56d7650754b8ab909011ea4fc", "rental_uris": {"ios": "https://dc.lft.to/lastmile_qr_scan", "android": "https://dc.lft.to/lastmile_qr_scan"}}, {"is_disabled": 0, "fusion_lat": 0.0, "lat": 38.90882283333333, "type": "electric_scooter", "lon": -77.08590783333334, "is_reserved": 0, "fusion_lon": 0.0, "bike_id": "44bfd89e11ab5d77d5091b9870bc4c6e", "name": "44bfd89e11ab5d77d5091b9870bc4c6e", "rental_uris": {"ios": "https://dc.lft.to/lastmile_qr_scan", "android": "https://dc.lft.to/lastmile_qr_scan"}}, {"is_disabled": 0, "fusion_lat": 0.0, "lat": 38.90497516666667, "type": "electric_scooter", "lon": -77.043464, "is_reserved": 0, "fusion_lon": 0.0, "bike_id": "354ddf8c6326f3d2f3ebe21aa7cd565f", "name": "354ddf8c6326f3d2f3ebe21aa7cd565f", "rental_uris": {"ios": "https://dc.lft.to/lastmile_qr_scan", "android": "https://dc.lft.to/lastmile_qr_scan"}}, {"is_disabled": 0, "fusion_lat": 0.0, "lat": 38.920517, "type": "electric_scooter", "lon": -77.031778, "is_reserved": 0, "fusion_lon": 0.0, "bike_id": "ae7eb55800c2f09fe7bd4d454d8183ef", "name": "ae7eb55800c2f09fe7bd4d454d8183ef", "rental_uris": {"ios": "https://dc.lft.to/lastmile_qr_scan", "android": "https://dc.lft.to/lastmile_qr_scan"}}, {"is_disabled": 0, "fusion_lat": 0.0, "lat": 38.910477666666665, "type": "electric_scooter", "lon": -77.01511316666667, "is_reserved": 0, "fusion_lon": 0.0, "bike_id": "31927771063de16438dfdf4603a436cd", "name": "31927771063de16438dfdf4603a436cd", "rental_uris": {"ios": "https://dc.lft.to/lastmile_qr_scan", "android": "https://dc.lft.to/lastmile_qr_scan"}}, {"is_disabled": 0, "fusion_lat": 0.0, "lat": 38.923283166666664, "type": "electric_scooter", "lon": -77.03804233333334, "is_reserved": 0, "fusion_lon": 0.0, "bike_id": "e5ff1eb1e190643e3e631a831549df57", "name": "e5ff1eb1e190643e3e631a831549df57", "rental_uris": {"ios": "https://dc.lft.to/lastmile_qr_scan", "android": "https://dc.lft.to/lastmile_qr_scan"}}, {"is_disabled": 0, "fusion_lat": 0.0, "lat": 38.90529383333333, "type": "electric_scooter", "lon": -77.02618433333333, "is_reserved": 0, "fusion_lon": 0.0, "bike_id": "f2de1dc514e6753a5c696bc38b9daede", "name": "f2de1dc514e6753a5c696bc38b9daede", "rental_uris": {"ios": "https://dc.lft.to/lastmile_qr_scan", "android": "https://dc.lft.to/lastmile_qr_scan"}}, {"is_disabled": 0, "fusion_lat": 0.0, "lat": 38.9111815, "type": "electric_scooter", "lon": -77.038287, "is_reserved": 0, "fusion_lon": 0.0, "bike_id": "75c783206e81100a7befdb5d731c6f17", "name": "75c783206e81100a7befdb5d731c6f17", "rental_uris": {"ios": "https://dc.lft.to/lastmile_qr_scan", "android": "https://dc.lft.to/lastmile_qr_scan"}}, {"is_disabled": 0, "fusion_lat": 0.0, "lat": 38.933477833333335, "type": "electric_scooter", "lon": -77.05864766666667, "is_reserved": 0, "fusion_lon": 0.0, "bike_id": "540a6951e16371172d122036f9f7c09f", "name": "540a6951e16371172d122036f9f7c09f", "rental_uris": {"ios": "https://dc.lft.to/lastmile_qr_scan", "android": "https://dc.lft.to/lastmile_qr_scan"}}, {"is_disabled": 0, "fusion_lat": 0.0, "lat": 38.93164316666667, "type": "electric_scooter", "lon": -77.036302, "is_reserved": 0, "fusion_lon": 0.0, "bike_id": "a037ac33a715e1525c5a0135be1a4085", "name": "a037ac33a715e1525c5a0135be1a4085", "rental_uris": {"ios": "https://dc.lft.to/lastmile_qr_scan", "android": "https://dc.lft.to/lastmile_qr_scan"}}, {"is_disabled": 0, "fusion_lat": 0.0, "lat": 38.9125795, "type": "electric_scooter", "lon": -77.03867283333334, "is_reserved": 0, "fusion_lon": 0.0, "bike_id": "88faec51c8b02f61baecbda24be20a8d", "name": "88faec51c8b02f61baecbda24be20a8d", "rental_uris": {"ios": "https://dc.lft.to/lastmile_qr_scan", "android": "https://dc.lft.to/lastmile_qr_scan"}}, {"is_disabled": 0, "fusion_lat": 0.0, "lat": 38.89916233333334, "type": "electric_scooter", "lon": -76.933756, "is_reserved": 0, "fusion_lon": 0.0, "bike_id": "cdc2b63ba0ff4d4c3a0821613062317c", "name": "cdc2b63ba0ff4d4c3a0821613062317c", "rental_uris": {"ios": "https://dc.lft.to/lastmile_qr_scan", "android": "https://dc.lft.to/lastmile_qr_scan"}}, {"is_disabled": 0, "fusion_lat": 0.0, "lat": 38.928289166666666, "type": "electric_scooter", "lon": -77.032467, "is_reserved": 0, "fusion_lon": 0.0, "bike_id": "83a277e2a513499c188bb3a1194fd733", "name": "83a277e2a513499c188bb3a1194fd733", "rental_uris": {"ios": "https://dc.lft.to/lastmile_qr_scan", "android": "https://dc.lft.to/lastmile_qr_scan"}}, {"is_disabled": 0, "fusion_lat": 0.0, "lat": 39.01055433333333, "type": "electric_bike", "lon": -76.9110485, "is_reserved": 0, "fusion_lon": 0.0, "bike_id": "0bb4ef3c6028a1aaa4656ee0a5611a8e", "name": "0bb4ef3c6028a1aaa4656ee0a5611a8e", "rental_uris": {"ios": "https://dc.lft.to/lastmile_qr_scan", "android": "https://dc.lft.to/lastmile_qr_scan"}}, {"is_disabled": 0, "fusion_lat": 0.0, "lat": 38.887712, "type": "electric_scooter", "lon": -77.02229716666666, "is_reserved": 0, "fusion_lon": 0.0, "bike_id": "e4b4f40e8dadd5669ded98bab0470438", "name": "e4b4f40e8dadd5669ded98bab0470438", "rental_uris": {"ios": "https://dc.lft.to/lastmile_qr_scan", "android": "https://dc.lft.to/lastmile_qr_scan"}}, {"is_disabled": 0, "fusion_lat": 0.0, "lat": 38.900670166666664, "type": "electric_scooter", "lon": -76.93386566666666, "is_reserved": 0, "fusion_lon": 0.0, "bike_id": "8f0740933bb3b88085bbb383c7c33cf3", "name": "8f0740933bb3b88085bbb383c7c33cf3", "rental_uris": {"ios": "https://dc.lft.to/lastmile_qr_scan", "android": "https://dc.lft.to/lastmile_qr_scan"}}, {"is_disabled": 0, "fusion_lat": 0.0, "lat": 38.884302166666664, "type": "electric_scooter", "lon": -76.95753416666666, "is_reserved": 0, "fusion_lon": 0.0, "bike_id": "2cec776bba086339d26bd354f1af8e03", "name": "2cec776bba086339d26bd354f1af8e03", "rental_uris": {"ios": "https://dc.lft.to/lastmile_qr_scan", "android": "https://dc.lft.to/lastmile_qr_scan"}}, {"is_disabled": 0, "fusion_lat": 0.0, "lat": 38.91561333333333, "type": "electric_scooter", "lon": -77.03068333333333, "is_reserved": 0, "fusion_lon": 0.0, "bike_id": "6400fd73fef2bffea19f05d033be7159", "name": "6400fd73fef2bffea19f05d033be7159", "rental_uris": {"ios": "https://dc.lft.to/lastmile_qr_scan", "android": "https://dc.lft.to/lastmile_qr_scan"}}, {"is_disabled": 0, "fusion_lat": 0.0, "lat": 38.922894666666664, "type": "electric_scooter", "lon": -77.02064566666667, "is_reserved": 0, "fusion_lon": 0.0, "bike_id": "2675504dd4ba78ea65424fe7a13cd605", "name": "2675504dd4ba78ea65424fe7a13cd605", "rental_uris": {"ios": "https://dc.lft.to/lastmile_qr_scan", "android": "https://dc.lft.to/lastmile_qr_scan"}}, {"is_disabled": 0, "fusion_lat": 0.0, "lat": 38.90786933333333, "type": "electric_scooter", "lon": -77.02393016666667, "is_reserved": 0, "fusion_lon": 0.0, "bike_id": "fd4b7d1d147d1a01c343b2da163fefe4", "name": "fd4b7d1d147d1a01c343b2da163fefe4", "rental_uris": {"ios": "https://dc.lft.to/lastmile_qr_scan", "android": "https://dc.lft.to/lastmile_qr_scan"}}, {"is_disabled": 0, "fusion_lat": 0.0, "lat": 38.919392333333334, "type": "electric_scooter", "lon": -77.08132166666667, "is_reserved": 0, "fusion_lon": 0.0, "bike_id": "b07ee64c94c00214f0b83ae33560ce48", "name": "b07ee64c94c00214f0b83ae33560ce48", "rental_uris": {"ios": "https://dc.lft.to/lastmile_qr_scan", "android": "https://dc.lft.to/lastmile_qr_scan"}}, {"is_disabled": 0, "fusion_lat": 0.0, "lat": 38.8610365, "type": "electric_scooter", "lon": -76.983373, "is_reserved": 0, "fusion_lon": 0.0, "bike_id": "232a5c9ab94c31c73e7fa76078260e22", "name": "232a5c9ab94c31c73e7fa76078260e22", "rental_uris": {"ios": "https://dc.lft.to/lastmile_qr_scan", "android": "https://dc.lft.to/lastmile_qr_scan"}}, {"is_disabled": 0, "fusion_lat": 0.0, "lat": 38.919268333333335, "type": "electric_scooter", "lon": -77.031787, "is_reserved": 0, "fusion_lon": 0.0, "bike_id": "f211f40b7585597ac7126075a96bb1d9", "name": "f211f40b7585597ac7126075a96bb1d9", "rental_uris": {"ios": "https://dc.lft.to/lastmile_qr_scan", "android": "https://dc.lft.to/lastmile_qr_scan"}}, {"is_disabled": 0, "fusion_lat": 0.0, "lat": 38.93186683333333, "type": "electric_scooter", "lon": -77.02832516666666, "is_reserved": 0, "fusion_lon": 0.0, "bike_id": "d363771d4011be5c2e2de25bb3abfa28", "name": "d363771d4011be5c2e2de25bb3abfa28", "rental_uris": {"ios": "https://dc.lft.to/lastmile_qr_scan", "android": "https://dc.lft.to/lastmile_qr_scan"}}, {"is_disabled": 0, "fusion_lat": 0.0, "lat": 38.895399, "type": "electric_scooter", "lon": -76.94891266666667, "is_reserved": 0, "fusion_lon": 0.0, "bike_id": "5e9f4264926adaf0ee638b9527ccd58e", "name": "5e9f4264926adaf0ee638b9527ccd58e", "rental_uris": {"ios": "https://dc.lft.to/lastmile_qr_scan", "android": "https://dc.lft.to/lastmile_qr_scan"}}, {"is_disabled": 0, "fusion_lat": 0.0, "lat": 38.89838683333333, "type": "electric_scooter", "lon": -77.03324933333333, "is_reserved": 0, "fusion_lon": 0.0, "bike_id": "4ae784b5f02451b4472be3f310dfb172", "name": "4ae784b5f02451b4472be3f310dfb172", "rental_uris": {"ios": "https://dc.lft.to/lastmile_qr_scan", "android": "https://dc.lft.to/lastmile_qr_scan"}}, {"is_disabled": 0, "fusion_lat": 0.0, "lat": 38.91728483333333, "type": "electric_scooter", "lon": -77.03655866666666, "is_reserved": 0, "fusion_lon": 0.0, "bike_id": "e569b654f26cb9da2e19e6d38b403977", "name": "e569b654f26cb9da2e19e6d38b403977", "rental_uris": {"ios": "https://dc.lft.to/lastmile_qr_scan", "android": "https://dc.lft.to/lastmile_qr_scan"}}, {"is_disabled": 0, "fusion_lat": 0.0, "lat": 38.88715666666667, "type": "electric_bike", "lon": -77.1330375, "is_reserved": 0, "fusion_lon": 0.0, "bike_id": "5db0748fd81bdadd69025679e3166ff7", "name": "5db0748fd81bdadd69025679e3166ff7", "rental_uris": {"ios": "https://dc.lft.to/lastmile_qr_scan", "android": "https://dc.lft.to/lastmile_qr_scan"}}, {"is_disabled": 0, "fusion_lat": 0.0, "lat": 38.9342915, "type": "electric_scooter", "lon": -76.9650405, "is_reserved": 0, "fusion_lon": 0.0, "bike_id": "9a12a47c2e17b95d18da1af5e597828d", "name": "9a12a47c2e17b95d18da1af5e597828d", "rental_uris": {"ios": "https://dc.lft.to/lastmile_qr_scan", "android": "https://dc.lft.to/lastmile_qr_scan"}}, {"is_disabled": 0, "fusion_lat": 0.0, "lat": 38.92215316666667, "type": "electric_scooter", "lon": -77.036594, "is_reserved": 0, "fusion_lon": 0.0, "bike_id": "0bf9f69402ca1adcfa8cfc89571447c2", "name": "0bf9f69402ca1adcfa8cfc89571447c2", "rental_uris": {"ios": "https://dc.lft.to/lastmile_qr_scan", "android": "https://dc.lft.to/lastmile_qr_scan"}}, {"is_disabled": 0, "fusion_lat": 0.0, "lat": 38.918065, "type": "electric_scooter", "lon": -77.02707783333334, "is_reserved": 0, "fusion_lon": 0.0, "bike_id": "6ad9861410ae7f6a2d2599dbc55116a9", "name": "6ad9861410ae7f6a2d2599dbc55116a9", "rental_uris": {"ios": "https://dc.lft.to/lastmile_qr_scan", "android": "https://dc.lft.to/lastmile_qr_scan"}}, {"is_disabled": 0, "fusion_lat": 0.0, "lat": 38.928448833333334, "type": "electric_scooter", "lon": -77.01570866666667, "is_reserved": 0, "fusion_lon": 0.0, "bike_id": "2772b3b15093295bcebe99a3cc90c751", "name": "2772b3b15093295bcebe99a3cc90c751", "rental_uris": {"ios": "https://dc.lft.to/lastmile_qr_scan", "android": "https://dc.lft.to/lastmile_qr_scan"}}, {"is_disabled": 0, "fusion_lat": 0.0, "lat": 38.872032833333336, "type": "electric_scooter", "lon": -77.006113, "is_reserved": 0, "fusion_lon": 0.0, "bike_id": "6b363978282135a2fcebab045706899e", "name": "6b363978282135a2fcebab045706899e", "rental_uris": {"ios": "https://dc.lft.to/lastmile_qr_scan", "android": "https://dc.lft.to/lastmile_qr_scan"}}, {"is_disabled": 0, "fusion_lat": 0.0, "lat": 38.901261833333336, "type": "electric_scooter", "lon": -77.0255345, "is_reserved": 0, "fusion_lon": 0.0, "bike_id": "2dc34b1fbb0eb3d8cb3237ae85ada7b1", "name": "2dc34b1fbb0eb3d8cb3237ae85ada7b1", "rental_uris": {"ios": "https://dc.lft.to/lastmile_qr_scan", "android": "https://dc.lft.to/lastmile_qr_scan"}}, {"is_disabled": 0, "fusion_lat": 0.0, "lat": 38.88555083333333, "type": "electric_bike", "lon": -77.11787483333333, "is_reserved": 0, "fusion_lon": 0.0, "bike_id": "cb102e09c675e6670320e4f652a1f70b", "name": "cb102e09c675e6670320e4f652a1f70b", "rental_uris": {"ios": "https://dc.lft.to/lastmile_qr_scan", "android": "https://dc.lft.to/lastmile_qr_scan"}}, {"is_disabled": 0, "fusion_lat": 0.0, "lat": 38.917007166666664, "type": "electric_scooter", "lon": -77.02971816666667, "is_reserved": 0, "fusion_lon": 0.0, "bike_id": "10135a83af8a3dc3dae45638fe6c815a", "name": "10135a83af8a3dc3dae45638fe6c815a", "rental_uris": {"ios": "https://dc.lft.to/lastmile_qr_scan", "android": "https://dc.lft.to/lastmile_qr_scan"}}, {"is_disabled": 0, "fusion_lat": 0.0, "lat": 38.998264166666665, "type": "electric_bike", "lon": -77.02896, "is_reserved": 0, "fusion_lon": 0.0, "bike_id": "154e8f171aa1a75821ad8657259e096a", "name": "154e8f171aa1a75821ad8657259e096a", "rental_uris": {"ios": "https://dc.lft.to/lastmile_qr_scan", "android": "https://dc.lft.to/lastmile_qr_scan"}}, {"is_disabled": 0, "fusion_lat": 0.0, "lat": 38.898411333333335, "type": "electric_scooter", "lon": -77.04284433333333, "is_reserved": 0, "fusion_lon": 0.0, "bike_id": "4dc5967770a910b4168d2dfde49c4e14", "name": "4dc5967770a910b4168d2dfde49c4e14", "rental_uris": {"ios": "https://dc.lft.to/lastmile_qr_scan", "android": "https://dc.lft.to/lastmile_qr_scan"}}, {"is_disabled": 0, "fusion_lat": 0.0, "lat": 38.88663533333333, "type": "electric_scooter", "lon": -77.03387616666667, "is_reserved": 0, "fusion_lon": 0.0, "bike_id": "62eb8f8d6799c64f8c546f604d23f8d4", "name": "62eb8f8d6799c64f8c546f604d23f8d4", "rental_uris": {"ios": "https://dc.lft.to/lastmile_qr_scan", "android": "https://dc.lft.to/lastmile_qr_scan"}}, {"is_disabled": 0, "fusion_lat": 0.0, "lat": 38.91376366666667, "type": "electric_scooter", "lon": -77.01999416666666, "is_reserved": 0, "fusion_lon": 0.0, "bike_id": "116f4ac7d4809bed26ab8c692cc2ebf6", "name": "116f4ac7d4809bed26ab8c692cc2ebf6", "rental_uris": {"ios": "https://dc.lft.to/lastmile_qr_scan", "android": "https://dc.lft.to/lastmile_qr_scan"}}, {"is_disabled": 0, "fusion_lat": 0.0, "lat": 38.903539, "type": "electric_scooter", "lon": -77.022054, "is_reserved": 0, "fusion_lon": 0.0, "bike_id": "d54a011f268f3b83f19a53463b3a1efa", "name": "d54a011f268f3b83f19a53463b3a1efa", "rental_uris": {"ios": "https://dc.lft.to/lastmile_qr_scan", "android": "https://dc.lft.to/lastmile_qr_scan"}}, {"is_disabled": 0, "fusion_lat": 0.0, "lat": 38.9002975, "type": "electric_scooter", "lon": -76.9882635, "is_reserved": 0, "fusion_lon": 0.0, "bike_id": "3fc073e8fed54e8ea78f9e72c7cea9f5", "name": "3fc073e8fed54e8ea78f9e72c7cea9f5", "rental_uris": {"ios": "https://dc.lft.to/lastmile_qr_scan", "android": "https://dc.lft.to/lastmile_qr_scan"}}, {"is_disabled": 0, "fusion_lat": 0.0, "lat": 38.90454483333333, "type": "electric_scooter", "lon": -77.04316833333333, "is_reserved": 0, "fusion_lon": 0.0, "bike_id": "16677d7418f4cc2068532a7247158d83", "name": "16677d7418f4cc2068532a7247158d83", "rental_uris": {"ios": "https://dc.lft.to/lastmile_qr_scan", "android": "https://dc.lft.to/lastmile_qr_scan"}}, {"is_disabled": 0, "fusion_lat": 0.0, "lat": 38.8922625, "type": "electric_scooter", "lon": -77.0214195, "is_reserved": 0, "fusion_lon": 0.0, "bike_id": "d1340e670d96e95becfa35740e5dc7da", "name": "d1340e670d96e95becfa35740e5dc7da", "rental_uris": {"ios": "https://dc.lft.to/lastmile_qr_scan", "android": "https://dc.lft.to/lastmile_qr_scan"}}, {"is_disabled": 0, "fusion_lat": 0.0, "lat": 38.82729766666667, "type": "electric_bike", "lon": -77.00859866666667, "is_reserved": 0, "fusion_lon": 0.0, "bike_id": "4a7f0eb5f26e03d7319845f48516a847", "name": "4a7f0eb5f26e03d7319845f48516a847", "rental_uris": {"ios": "https://dc.lft.to/lastmile_qr_scan", "android": "https://dc.lft.to/lastmile_qr_scan"}}, {"is_disabled": 0, "fusion_lat": 0.0, "lat": 38.91885966666667, "type": "electric_scooter", "lon": -77.01600733333333, "is_reserved": 0, "fusion_lon": 0.0, "bike_id": "56497dbd11ac7e9426bf3d894142a37f", "name": "56497dbd11ac7e9426bf3d894142a37f", "rental_uris": {"ios": "https://dc.lft.to/lastmile_qr_scan", "android": "https://dc.lft.to/lastmile_qr_scan"}}, {"is_disabled": 0, "fusion_lat": 0.0, "lat": 38.884837833333336, "type": "electric_scooter", "lon": -77.03352866666667, "is_reserved": 0, "fusion_lon": 0.0, "bike_id": "e63bc523f5f05e3a2619c4254b44e06e", "name": "e63bc523f5f05e3a2619c4254b44e06e", "rental_uris": {"ios": "https://dc.lft.to/lastmile_qr_scan", "android": "https://dc.lft.to/lastmile_qr_scan"}}, {"is_disabled": 0, "fusion_lat": 0.0, "lat": 38.89717016666667, "type": "electric_scooter", "lon": -76.91771666666666, "is_reserved": 0, "fusion_lon": 0.0, "bike_id": "9a4f0049d23d6c73a38da3e8afd4360a", "name": "9a4f0049d23d6c73a38da3e8afd4360a", "rental_uris": {"ios": "https://dc.lft.to/lastmile_qr_scan", "android": "https://dc.lft.to/lastmile_qr_scan"}}, {"is_disabled": 0, "fusion_lat": 0.0, "lat": 38.92063816666667, "type": "electric_scooter", "lon": -77.0468795, "is_reserved": 0, "fusion_lon": 0.0, "bike_id": "e3cb359c03b0dff486dbd2437453e3da", "name": "e3cb359c03b0dff486dbd2437453e3da", "rental_uris": {"ios": "https://dc.lft.to/lastmile_qr_scan", "android": "https://dc.lft.to/lastmile_qr_scan"}}, {"is_disabled": 0, "fusion_lat": 0.0, "lat": 38.88078383333333, "type": "electric_bike", "lon": -77.08633316666666, "is_reserved": 0, "fusion_lon": 0.0, "bike_id": "fd50afe3f1987b3f7b664e2305d71c9a", "name": "fd50afe3f1987b3f7b664e2305d71c9a", "rental_uris": {"ios": "https://dc.lft.to/lastmile_qr_scan", "android": "https://dc.lft.to/lastmile_qr_scan"}}, {"is_disabled": 0, "fusion_lat": 0.0, "lat": 38.92524566666667, "type": "electric_scooter", "lon": -77.0513565, "is_reserved": 0, "fusion_lon": 0.0, "bike_id": "b122505cf3956a9279871abe95e98304", "name": "b122505cf3956a9279871abe95e98304", "rental_uris": {"ios": "https://dc.lft.to/lastmile_qr_scan", "android": "https://dc.lft.to/lastmile_qr_scan"}}, {"is_disabled": 0, "fusion_lat": 0.0, "lat": 38.90245633333333, "type": "electric_scooter", "lon": -77.00200183333334, "is_reserved": 0, "fusion_lon": 0.0, "bike_id": "58dcfdada9339207e5d538f9e18e40b3", "name": "58dcfdada9339207e5d538f9e18e40b3", "rental_uris": {"ios": "https://dc.lft.to/lastmile_qr_scan", "android": "https://dc.lft.to/lastmile_qr_scan"}}, {"is_disabled": 0, "fusion_lat": 0.0, "lat": 38.880351833333336, "type": "electric_scooter", "lon": -76.931354, "is_reserved": 0, "fusion_lon": 0.0, "bike_id": "5a63e7b0b03a140326a224d8296a0f83", "name": "5a63e7b0b03a140326a224d8296a0f83", "rental_uris": {"ios": "https://dc.lft.to/lastmile_qr_scan", "android": "https://dc.lft.to/lastmile_qr_scan"}}, {"is_disabled": 0, "fusion_lat": 0.0, "lat": 38.924916333333336, "type": "electric_scooter", "lon": -77.05241333333333, "is_reserved": 0, "fusion_lon": 0.0, "bike_id": "9ff334637b0eac417148c0e68defc13b", "name": "9ff334637b0eac417148c0e68defc13b", "rental_uris": {"ios": "https://dc.lft.to/lastmile_qr_scan", "android": "https://dc.lft.to/lastmile_qr_scan"}}, {"is_disabled": 0, "fusion_lat": 0.0, "lat": 38.88469466666667, "type": "electric_scooter", "lon": -77.02346833333333, "is_reserved": 0, "fusion_lon": 0.0, "bike_id": "e00920a3e42107c3f7814dd9efe5da36", "name": "e00920a3e42107c3f7814dd9efe5da36", "rental_uris": {"ios": "https://dc.lft.to/lastmile_qr_scan", "android": "https://dc.lft.to/lastmile_qr_scan"}}, {"is_disabled": 0, "fusion_lat": 0.0, "lat": 38.89563533333333, "type": "electric_scooter", "lon": -76.93377883333334, "is_reserved": 0, "fusion_lon": 0.0, "bike_id": "cdd34577110158d43ff10d24c816a313", "name": "cdd34577110158d43ff10d24c816a313", "rental_uris": {"ios": "https://dc.lft.to/lastmile_qr_scan", "android": "https://dc.lft.to/lastmile_qr_scan"}}, {"is_disabled": 0, "fusion_lat": 0.0, "lat": 38.92226466666666, "type": "electric_scooter", "lon": -77.04379, "is_reserved": 0, "fusion_lon": 0.0, "bike_id": "9d54a66377276830022b644e1dee2c48", "name": "9d54a66377276830022b644e1dee2c48", "rental_uris": {"ios": "https://dc.lft.to/lastmile_qr_scan", "android": "https://dc.lft.to/lastmile_qr_scan"}}, {"is_disabled": 0, "fusion_lat": 0.0, "lat": 38.871775166666666, "type": "electric_scooter", "lon": -77.00623316666666, "is_reserved": 0, "fusion_lon": 0.0, "bike_id": "fd01d9b951c6cfb1eed8d21e09ee4212", "name": "fd01d9b951c6cfb1eed8d21e09ee4212", "rental_uris": {"ios": "https://dc.lft.to/lastmile_qr_scan", "android": "https://dc.lft.to/lastmile_qr_scan"}}, {"is_disabled": 0, "fusion_lat": 0.0, "lat": 38.850626, "type": "electric_bike", "lon": -76.97328216666666, "is_reserved": 0, "fusion_lon": 0.0, "bike_id": "33a555eb620ced07df57b1cd0a6f8dca", "name": "33a555eb620ced07df57b1cd0a6f8dca", "rental_uris": {"ios": "https://dc.lft.to/lastmile_qr_scan", "android": "https://dc.lft.to/lastmile_qr_scan"}}, {"is_disabled": 0, "fusion_lat": 0.0, "lat": 38.9402305, "type": "electric_scooter", "lon": -77.071702, "is_reserved": 0, "fusion_lon": 0.0, "bike_id": "f8eceffdc3dbf2af2bb4cda246965436", "name": "f8eceffdc3dbf2af2bb4cda246965436", "rental_uris": {"ios": "https://dc.lft.to/lastmile_qr_scan", "android": "https://dc.lft.to/lastmile_qr_scan"}}, {"is_disabled": 0, "fusion_lat": 0.0, "lat": 38.92885666666667, "type": "electric_scooter", "lon": -77.03297216666667, "is_reserved": 0, "fusion_lon": 0.0, "bike_id": "65107111748dc3ca27d2a832c3f7200f", "name": "65107111748dc3ca27d2a832c3f7200f", "rental_uris": {"ios": "https://dc.lft.to/lastmile_qr_scan", "android": "https://dc.lft.to/lastmile_qr_scan"}}, {"is_disabled": 0, "fusion_lat": 0.0, "lat": 38.92070183333333, "type": "electric_scooter", "lon": -77.04378716666666, "is_reserved": 0, "fusion_lon": 0.0, "bike_id": "8ba674dcf0ceb6c9f5a275649b38914d", "name": "8ba674dcf0ceb6c9f5a275649b38914d", "rental_uris": {"ios": "https://dc.lft.to/lastmile_qr_scan", "android": "https://dc.lft.to/lastmile_qr_scan"}}, {"is_disabled": 0, "fusion_lat": 0.0, "lat": 38.902478333333335, "type": "electric_scooter", "lon": -77.05324066666667, "is_reserved": 0, "fusion_lon": 0.0, "bike_id": "cfd7bad1ad08eaf0c5e6ea56ed709478", "name": "cfd7bad1ad08eaf0c5e6ea56ed709478", "rental_uris": {"ios": "https://dc.lft.to/lastmile_qr_scan", "android": "https://dc.lft.to/lastmile_qr_scan"}}, {"is_disabled": 0, "fusion_lat": 0.0, "lat": 38.9144345, "type": "electric_scooter", "lon": -77.0463005, "is_reserved": 0, "fusion_lon": 0.0, "bike_id": "4b6a0a3600b3b154d56a7f544ef708e0", "name": "4b6a0a3600b3b154d56a7f544ef708e0", "rental_uris": {"ios": "https://dc.lft.to/lastmile_qr_scan", "android": "https://dc.lft.to/lastmile_qr_scan"}}, {"is_disabled": 0, "fusion_lat": 0.0, "lat": 38.900181, "type": "electric_scooter", "lon": -77.01213133333333, "is_reserved": 0, "fusion_lon": 0.0, "bike_id": "376d05d297f7ccfb596f575c4796b2b6", "name": "376d05d297f7ccfb596f575c4796b2b6", "rental_uris": {"ios": "https://dc.lft.to/lastmile_qr_scan", "android": "https://dc.lft.to/lastmile_qr_scan"}}, {"is_disabled": 0, "fusion_lat": 0.0, "lat": 38.89883733333333, "type": "electric_scooter", "lon": -76.93177933333334, "is_reserved": 0, "fusion_lon": 0.0, "bike_id": "81d0d337501406025d31681f76f6188e", "name": "81d0d337501406025d31681f76f6188e", "rental_uris": {"ios": "https://dc.lft.to/lastmile_qr_scan", "android": "https://dc.lft.to/lastmile_qr_scan"}}, {"is_disabled": 0, "fusion_lat": 0.0, "lat": 38.9169545, "type": "electric_scooter", "lon": -77.038829, "is_reserved": 0, "fusion_lon": 0.0, "bike_id": "44e052bc0575ce70be8ea2076040c652", "name": "44e052bc0575ce70be8ea2076040c652", "rental_uris": {"ios": "https://dc.lft.to/lastmile_qr_scan", "android": "https://dc.lft.to/lastmile_qr_scan"}}, {"is_disabled": 0, "fusion_lat": 0.0, "lat": 38.915500333333334, "type": "electric_scooter", "lon": -77.04156633333334, "is_reserved": 0, "fusion_lon": 0.0, "bike_id": "1c7dee5388c1ef9eb613e0ff747a45fa", "name": "1c7dee5388c1ef9eb613e0ff747a45fa", "rental_uris": {"ios": "https://dc.lft.to/lastmile_qr_scan", "android": "https://dc.lft.to/lastmile_qr_scan"}}, {"is_disabled": 0, "fusion_lat": 0.0, "lat": 38.90553233333333, "type": "electric_scooter", "lon": -77.04666816666666, "is_reserved": 0, "fusion_lon": 0.0, "bike_id": "340662711ae3bcabf846d25c389d2339", "name": "340662711ae3bcabf846d25c389d2339", "rental_uris": {"ios": "https://dc.lft.to/lastmile_qr_scan", "android": "https://dc.lft.to/lastmile_qr_scan"}}, {"is_disabled": 0, "fusion_lat": 0.0, "lat": 39.08861316666667, "type": "electric_bike", "lon": -77.17844083333334, "is_reserved": 0, "fusion_lon": 0.0, "bike_id": "10eec24dc7dba79e2bb21ff2727e165b", "name": "10eec24dc7dba79e2bb21ff2727e165b", "rental_uris": {"ios": "https://dc.lft.to/lastmile_qr_scan", "android": "https://dc.lft.to/lastmile_qr_scan"}}, {"is_disabled": 0, "fusion_lat": 0.0, "lat": 38.92951433333333, "type": "electric_bike", "lon": -77.04402316666666, "is_reserved": 0, "fusion_lon": 0.0, "bike_id": "504653c8cf569ba8e6a05ae2cb2972a9", "name": "504653c8cf569ba8e6a05ae2cb2972a9", "rental_uris": {"ios": "https://dc.lft.to/lastmile_qr_scan", "android": "https://dc.lft.to/lastmile_qr_scan"}}, {"is_disabled": 0, "fusion_lat": 0.0, "lat": 38.90505, "type": "electric_scooter", "lon": -77.04333383333334, "is_reserved": 0, "fusion_lon": 0.0, "bike_id": "febb87b5e690a8d03dcb1a6198917073", "name": "febb87b5e690a8d03dcb1a6198917073", "rental_uris": {"ios": "https://dc.lft.to/lastmile_qr_scan", "android": "https://dc.lft.to/lastmile_qr_scan"}}, {"is_disabled": 0, "fusion_lat": 0.0, "lat": 38.923153, "type": "electric_scooter", "lon": -77.04520433333333, "is_reserved": 0, "fusion_lon": 0.0, "bike_id": "2c0ce6faaffac625c3e8a1019d892b43", "name": "2c0ce6faaffac625c3e8a1019d892b43", "rental_uris": {"ios": "https://dc.lft.to/lastmile_qr_scan", "android": "https://dc.lft.to/lastmile_qr_scan"}}, {"is_disabled": 0, "fusion_lat": 0.0, "lat": 38.901622833333334, "type": "electric_scooter", "lon": -76.97629283333333, "is_reserved": 0, "fusion_lon": 0.0, "bike_id": "111d971890281cd9782ec4ba0320d078", "name": "111d971890281cd9782ec4ba0320d078", "rental_uris": {"ios": "https://dc.lft.to/lastmile_qr_scan", "android": "https://dc.lft.to/lastmile_qr_scan"}}, {"is_disabled": 0, "fusion_lat": 0.0, "lat": 38.91553316666667, "type": "electric_scooter", "lon": -77.03843, "is_reserved": 0, "fusion_lon": 0.0, "bike_id": "49df7b5d18c6a218c00abf16d1ea3923", "name": "49df7b5d18c6a218c00abf16d1ea3923", "rental_uris": {"ios": "https://dc.lft.to/lastmile_qr_scan", "android": "https://dc.lft.to/lastmile_qr_scan"}}, {"is_disabled": 0, "fusion_lat": 0.0, "lat": 38.928590166666666, "type": "electric_bike", "lon": -77.222358, "is_reserved": 0, "fusion_lon": 0.0, "bike_id": "b234c62762956a096a7fd3f26767b220", "name": "b234c62762956a096a7fd3f26767b220", "rental_uris": {"ios": "https://dc.lft.to/lastmile_qr_scan", "android": "https://dc.lft.to/lastmile_qr_scan"}}, {"is_disabled": 0, "fusion_lat": 0.0, "lat": 38.89973416666667, "type": "electric_bike", "lon": -77.054986, "is_reserved": 0, "fusion_lon": 0.0, "bike_id": "183c673e1de2ecfdcc9ff165f5e88ae1", "name": "183c673e1de2ecfdcc9ff165f5e88ae1", "rental_uris": {"ios": "https://dc.lft.to/lastmile_qr_scan", "android": "https://dc.lft.to/lastmile_qr_scan"}}, {"is_disabled": 0, "fusion_lat": 0.0, "lat": 38.9222125, "type": "electric_scooter", "lon": -77.03296333333333, "is_reserved": 0, "fusion_lon": 0.0, "bike_id": "7208b012872987a33408d31cb8830739", "name": "7208b012872987a33408d31cb8830739", "rental_uris": {"ios": "https://dc.lft.to/lastmile_qr_scan", "android": "https://dc.lft.to/lastmile_qr_scan"}}, {"is_disabled": 0, "fusion_lat": 0.0, "lat": 38.932419333333335, "type": "electric_scooter", "lon": -77.03862383333333, "is_reserved": 0, "fusion_lon": 0.0, "bike_id": "80ee220c365c25ffdecdf941c6011162", "name": "80ee220c365c25ffdecdf941c6011162", "rental_uris": {"ios": "https://dc.lft.to/lastmile_qr_scan", "android": "https://dc.lft.to/lastmile_qr_scan"}}, {"is_disabled": 0, "fusion_lat": 0.0, "lat": 38.90709016666667, "type": "electric_scooter", "lon": -77.04005566666666, "is_reserved": 0, "fusion_lon": 0.0, "bike_id": "64f083906730ee67e6cb112c9ceb2547", "name": "64f083906730ee67e6cb112c9ceb2547", "rental_uris": {"ios": "https://dc.lft.to/lastmile_qr_scan", "android": "https://dc.lft.to/lastmile_qr_scan"}}, {"is_disabled": 0, "fusion_lat": 0.0, "lat": 38.88725483333333, "type": "electric_scooter", "lon": -77.0320595, "is_reserved": 0, "fusion_lon": 0.0, "bike_id": "5941786dd4d04591fa971cb9415b7995", "name": "5941786dd4d04591fa971cb9415b7995", "rental_uris": {"ios": "https://dc.lft.to/lastmile_qr_scan", "android": "https://dc.lft.to/lastmile_qr_scan"}}, {"is_disabled": 0, "fusion_lat": 0.0, "lat": 38.92805833333333, "type": "electric_bike", "lon": -77.04372333333333, "is_reserved": 0, "fusion_lon": 0.0, "bike_id": "3a770e74d4acc6d13541fc1d33d897e5", "name": "3a770e74d4acc6d13541fc1d33d897e5", "rental_uris": {"ios": "https://dc.lft.to/lastmile_qr_scan", "android": "https://dc.lft.to/lastmile_qr_scan"}}, {"is_disabled": 0, "fusion_lat": 0.0, "lat": 38.9836705, "type": "electric_scooter", "lon": -77.0264425, "is_reserved": 0, "fusion_lon": 0.0, "bike_id": "7395cbfd1db0988fca6d1ce7e0db1529", "name": "7395cbfd1db0988fca6d1ce7e0db1529", "rental_uris": {"ios": "https://dc.lft.to/lastmile_qr_scan", "android": "https://dc.lft.to/lastmile_qr_scan"}}, {"is_disabled": 0, "fusion_lat": 0.0, "lat": 38.9052435, "type": "electric_scooter", "lon": -76.988393, "is_reserved": 0, "fusion_lon": 0.0, "bike_id": "a6d6765d3bffde51771d0cd2f53763b5", "name": "a6d6765d3bffde51771d0cd2f53763b5", "rental_uris": {"ios": "https://dc.lft.to/lastmile_qr_scan", "android": "https://dc.lft.to/lastmile_qr_scan"}}, {"is_disabled": 0, "fusion_lat": 0.0, "lat": 38.8975535, "type": "electric_scooter", "lon": -77.02473483333333, "is_reserved": 0, "fusion_lon": 0.0, "bike_id": "4b5b4dc0d8ac0bb39ba3911218033f95", "name": "4b5b4dc0d8ac0bb39ba3911218033f95", "rental_uris": {"ios": "https://dc.lft.to/lastmile_qr_scan", "android": "https://dc.lft.to/lastmile_qr_scan"}}, {"is_disabled": 0, "fusion_lat": 0.0, "lat": 38.905264, "type": "electric_scooter", "lon": -77.04775533333333, "is_reserved": 0, "fusion_lon": 0.0, "bike_id": "06f15155914819b4a0b1d96c20cd40e4", "name": "06f15155914819b4a0b1d96c20cd40e4", "rental_uris": {"ios": "https://dc.lft.to/lastmile_qr_scan", "android": "https://dc.lft.to/lastmile_qr_scan"}}, {"is_disabled": 0, "fusion_lat": 0.0, "lat": 38.873682333333335, "type": "electric_scooter", "lon": -77.00090683333333, "is_reserved": 0, "fusion_lon": 0.0, "bike_id": "e72d1baa1abdf3dc7b7f867a1e48ea8b", "name": "e72d1baa1abdf3dc7b7f867a1e48ea8b", "rental_uris": {"ios": "https://dc.lft.to/lastmile_qr_scan", "android": "https://dc.lft.to/lastmile_qr_scan"}}, {"is_disabled": 0, "fusion_lat": 0.0, "lat": 38.917110666666666, "type": "electric_scooter", "lon": -77.02893966666667, "is_reserved": 0, "fusion_lon": 0.0, "bike_id": "bd98032af9c6bbb8296fdf2cb8d574e5", "name": "bd98032af9c6bbb8296fdf2cb8d574e5", "rental_uris": {"ios": "https://dc.lft.to/lastmile_qr_scan", "android": "https://dc.lft.to/lastmile_qr_scan"}}, {"is_disabled": 0, "fusion_lat": 0.0, "lat": 38.917945, "type": "electric_scooter", "lon": -77.02311966666667, "is_reserved": 0, "fusion_lon": 0.0, "bike_id": "43f69243c090c3b86df02cbd09d65a1c", "name": "43f69243c090c3b86df02cbd09d65a1c", "rental_uris": {"ios": "https://dc.lft.to/lastmile_qr_scan", "android": "https://dc.lft.to/lastmile_qr_scan"}}, {"is_disabled": 0, "fusion_lat": 0.0, "lat": 38.90320233333333, "type": "electric_scooter", "lon": -77.051711, "is_reserved": 0, "fusion_lon": 0.0, "bike_id": "47d0acb6404bb3e6c5b971e378a94740", "name": "47d0acb6404bb3e6c5b971e378a94740", "rental_uris": {"ios": "https://dc.lft.to/lastmile_qr_scan", "android": "https://dc.lft.to/lastmile_qr_scan"}}, {"is_disabled": 0, "fusion_lat": 0.0, "lat": 38.876305333333335, "type": "electric_scooter", "lon": -76.965245, "is_reserved": 0, "fusion_lon": 0.0, "bike_id": "baebc02852745b5890349e84838d466d", "name": "baebc02852745b5890349e84838d466d", "rental_uris": {"ios": "https://dc.lft.to/lastmile_qr_scan", "android": "https://dc.lft.to/lastmile_qr_scan"}}, {"is_disabled": 0, "fusion_lat": 0.0, "lat": 38.908440666666664, "type": "electric_scooter", "lon": -77.043682, "is_reserved": 0, "fusion_lon": 0.0, "bike_id": "b3ba5c6296ace63ad2d6b0b536490fff", "name": "b3ba5c6296ace63ad2d6b0b536490fff", "rental_uris": {"ios": "https://dc.lft.to/lastmile_qr_scan", "android": "https://dc.lft.to/lastmile_qr_scan"}}, {"is_disabled": 0, "fusion_lat": 0.0, "lat": 38.893269, "type": "electric_scooter", "lon": -76.92986766666667, "is_reserved": 0, "fusion_lon": 0.0, "bike_id": "714f31694ddefbc4325ae97a5d68a5cb", "name": "714f31694ddefbc4325ae97a5d68a5cb", "rental_uris": {"ios": "https://dc.lft.to/lastmile_qr_scan", "android": "https://dc.lft.to/lastmile_qr_scan"}}, {"is_disabled": 0, "fusion_lat": 0.0, "lat": 38.92169233333333, "type": "electric_scooter", "lon": -77.03199716666667, "is_reserved": 0, "fusion_lon": 0.0, "bike_id": "eff50480f20164c8e3e8c3cbc6b5baf2", "name": "eff50480f20164c8e3e8c3cbc6b5baf2", "rental_uris": {"ios": "https://dc.lft.to/lastmile_qr_scan", "android": "https://dc.lft.to/lastmile_qr_scan"}}, {"is_disabled": 0, "fusion_lat": 0.0, "lat": 38.93882033333333, "type": "electric_scooter", "lon": -77.02482266666667, "is_reserved": 0, "fusion_lon": 0.0, "bike_id": "e68ed02f211a12bd156025d5552ca646", "name": "e68ed02f211a12bd156025d5552ca646", "rental_uris": {"ios": "https://dc.lft.to/lastmile_qr_scan", "android": "https://dc.lft.to/lastmile_qr_scan"}}, {"is_disabled": 0, "fusion_lat": 0.0, "lat": 38.879373666666666, "type": "electric_scooter", "lon": -77.00492, "is_reserved": 0, "fusion_lon": 0.0, "bike_id": "4c8d9c2d606fcde2f85f7c4f081a9eab", "name": "4c8d9c2d606fcde2f85f7c4f081a9eab", "rental_uris": {"ios": "https://dc.lft.to/lastmile_qr_scan", "android": "https://dc.lft.to/lastmile_qr_scan"}}, {"is_disabled": 0, "fusion_lat": 0.0, "lat": 38.914855833333334, "type": "electric_scooter", "lon": -77.03239183333334, "is_reserved": 0, "fusion_lon": 0.0, "bike_id": "ebf283f4202334d58f32356ba657b423", "name": "ebf283f4202334d58f32356ba657b423", "rental_uris": {"ios": "https://dc.lft.to/lastmile_qr_scan", "android": "https://dc.lft.to/lastmile_qr_scan"}}, {"is_disabled": 0, "fusion_lat": 0.0, "lat": 38.846351, "type": "electric_bike", "lon": -77.06938783333334, "is_reserved": 0, "fusion_lon": 0.0, "bike_id": "6d76a784235ebf2e027023e942c5383c", "name": "6d76a784235ebf2e027023e942c5383c", "rental_uris": {"ios": "https://dc.lft.to/lastmile_qr_scan", "android": "https://dc.lft.to/lastmile_qr_scan"}}, {"is_disabled": 0, "fusion_lat": 0.0, "lat": 38.902749166666666, "type": "electric_scooter", "lon": -77.06018983333334, "is_reserved": 0, "fusion_lon": 0.0, "bike_id": "becd252481f1bc4d6403c4e0807f8d44", "name": "becd252481f1bc4d6403c4e0807f8d44", "rental_uris": {"ios": "https://dc.lft.to/lastmile_qr_scan", "android": "https://dc.lft.to/lastmile_qr_scan"}}, {"is_disabled": 0, "fusion_lat": 0.0, "lat": 38.902435, "type": "electric_scooter", "lon": -77.04910183333334, "is_reserved": 0, "fusion_lon": 0.0, "bike_id": "41e2000a8b9f0f8d5a3014b520587501", "name": "41e2000a8b9f0f8d5a3014b520587501", "rental_uris": {"ios": "https://dc.lft.to/lastmile_qr_scan", "android": "https://dc.lft.to/lastmile_qr_scan"}}, {"is_disabled": 0, "fusion_lat": 0.0, "lat": 38.900476166666664, "type": "electric_scooter", "lon": -77.05035216666667, "is_reserved": 0, "fusion_lon": 0.0, "bike_id": "1695c62a6530233698e80ee38d332e7d", "name": "1695c62a6530233698e80ee38d332e7d", "rental_uris": {"ios": "https://dc.lft.to/lastmile_qr_scan", "android": "https://dc.lft.to/lastmile_qr_scan"}}, {"is_disabled": 0, "fusion_lat": 0.0, "lat": 38.9048855, "type": "electric_scooter", "lon": -77.06793966666666, "is_reserved": 0, "fusion_lon": 0.0, "bike_id": "0e4154d692b6f898e126908606fd0f06", "name": "0e4154d692b6f898e126908606fd0f06", "rental_uris": {"ios": "https://dc.lft.to/lastmile_qr_scan", "android": "https://dc.lft.to/lastmile_qr_scan"}}, {"is_disabled": 0, "fusion_lat": 0.0, "lat": 38.909623833333335, "type": "electric_scooter", "lon": -77.046465, "is_reserved": 0, "fusion_lon": 0.0, "bike_id": "e7dc3031b3db2f43fb69a18172151e7b", "name": "e7dc3031b3db2f43fb69a18172151e7b", "rental_uris": {"ios": "https://dc.lft.to/lastmile_qr_scan", "android": "https://dc.lft.to/lastmile_qr_scan"}}, {"is_disabled": 0, "fusion_lat": 0.0, "lat": 38.90549433333333, "type": "electric_scooter", "lon": -77.04576083333333, "is_reserved": 0, "fusion_lon": 0.0, "bike_id": "6789cc601683bf87318623d6f3832d55", "name": "6789cc601683bf87318623d6f3832d55", "rental_uris": {"ios": "https://dc.lft.to/lastmile_qr_scan", "android": "https://dc.lft.to/lastmile_qr_scan"}}, {"is_disabled": 0, "fusion_lat": 0.0, "lat": 38.8720045, "type": "electric_scooter", "lon": -77.00608433333333, "is_reserved": 0, "fusion_lon": 0.0, "bike_id": "71a477810111640e5beb5dc52488c51a", "name": "71a477810111640e5beb5dc52488c51a", "rental_uris": {"ios": "https://dc.lft.to/lastmile_qr_scan", "android": "https://dc.lft.to/lastmile_qr_scan"}}, {"is_disabled": 0, "fusion_lat": 0.0, "lat": 38.91051083333333, "type": "electric_scooter", "lon": -77.01527133333333, "is_reserved": 0, "fusion_lon": 0.0, "bike_id": "fa05e3783e05214c797666b81c3a4fe5", "name": "fa05e3783e05214c797666b81c3a4fe5", "rental_uris": {"ios": "https://dc.lft.to/lastmile_qr_scan", "android": "https://dc.lft.to/lastmile_qr_scan"}}, {"is_disabled": 0, "fusion_lat": 0.0, "lat": 38.918222, "type": "electric_scooter", "lon": -77.03842966666667, "is_reserved": 0, "fusion_lon": 0.0, "bike_id": "d8a47bb596b5db8c9a2bd7671503de25", "name": "d8a47bb596b5db8c9a2bd7671503de25", "rental_uris": {"ios": "https://dc.lft.to/lastmile_qr_scan", "android": "https://dc.lft.to/lastmile_qr_scan"}}, {"is_disabled": 0, "fusion_lat": 0.0, "lat": 38.933617166666664, "type": "electric_scooter", "lon": -77.05717266666667, "is_reserved": 0, "fusion_lon": 0.0, "bike_id": "bd789d3f8557a398850d43ae7eac792f", "name": "bd789d3f8557a398850d43ae7eac792f", "rental_uris": {"ios": "https://dc.lft.to/lastmile_qr_scan", "android": "https://dc.lft.to/lastmile_qr_scan"}}, {"is_disabled": 0, "fusion_lat": 0.0, "lat": 38.884984333333335, "type": "electric_scooter", "lon": -77.01589766666666, "is_reserved": 0, "fusion_lon": 0.0, "bike_id": "ebb89a02f3a6465546571fab56887daa", "name": "ebb89a02f3a6465546571fab56887daa", "rental_uris": {"ios": "https://dc.lft.to/lastmile_qr_scan", "android": "https://dc.lft.to/lastmile_qr_scan"}}, {"is_disabled": 0, "fusion_lat": 0.0, "lat": 38.87498716666666, "type": "electric_scooter", "lon": -77.00114433333333, "is_reserved": 0, "fusion_lon": 0.0, "bike_id": "d96ee9466755b72006f9375ece9ce63c", "name": "d96ee9466755b72006f9375ece9ce63c", "rental_uris": {"ios": "https://dc.lft.to/lastmile_qr_scan", "android": "https://dc.lft.to/lastmile_qr_scan"}}, {"is_disabled": 0, "fusion_lat": 0.0, "lat": 38.905099, "type": "electric_scooter", "lon": -77.0665865, "is_reserved": 0, "fusion_lon": 0.0, "bike_id": "ad32333b89a373f72eb87ed78ebccfda", "name": "ad32333b89a373f72eb87ed78ebccfda", "rental_uris": {"ios": "https://dc.lft.to/lastmile_qr_scan", "android": "https://dc.lft.to/lastmile_qr_scan"}}, {"is_disabled": 0, "fusion_lat": 0.0, "lat": 38.89227266666666, "type": "electric_scooter", "lon": -77.04647466666667, "is_reserved": 0, "fusion_lon": 0.0, "bike_id": "15b8e2d310a0b2447c06e7deec75547a", "name": "15b8e2d310a0b2447c06e7deec75547a", "rental_uris": {"ios": "https://dc.lft.to/lastmile_qr_scan", "android": "https://dc.lft.to/lastmile_qr_scan"}}, {"is_disabled": 0, "fusion_lat": 0.0, "lat": 38.95636066666667, "type": "electric_scooter", "lon": -77.0329775, "is_reserved": 0, "fusion_lon": 0.0, "bike_id": "0f32cb7df88ac0acf323a409c6a86b3c", "name": "0f32cb7df88ac0acf323a409c6a86b3c", "rental_uris": {"ios": "https://dc.lft.to/lastmile_qr_scan", "android": "https://dc.lft.to/lastmile_qr_scan"}},