{"data": {"bikes": [{"is_reserved": 0, "type": "electric_scooter", "fusion_lat": 0.0, "is_disabled": 0, "rental_uris": {"ios": "https://dc.lft.to/lastmile_qr_scan", "android": "https://dc.lft.to/lastmile_qr_scan"}, "bike_id": "f8585182460b0bb31d21ef2839e6ca3d", "lat": 38.943014, "name": "f8585182460b0bb31d21ef2839e6ca3d", "lon": -77.025264, "fusion_lon": 0.0}, {"is_reserved": 0, "type": "electric_scooter", "fusion_lat": 0.0, "is_disabled": 0, "rental_uris": {"ios": "https://dc.lft.to/lastmile_qr_scan", "android": "https://dc.lft.to/lastmile_qr_scan"}, "bike_id": "a14891461b67c497276dfccee27a912c", "lat": 38.916612, "name": "a14891461b67c497276dfccee27a912c", "lon": -77.0268765, "fusion_lon": 0.0}, {"is_reserved": 0, "type": "electric_scooter", "fusion_lat": 0.0, "is_disabled": 0, "rental_uris": {"ios": "https://dc.lft.to/lastmile_qr_scan", "android": "https://dc.lft.to/lastmile_qr_scan"}, "bike_id": "bfef3ee4e9d006628995f5d1db99af6a", "lat": 38.9059155, "name": "bfef3ee4e9d006628995f5d1db99af6a", "lon": -77.04488583333334, "fusion_lon": 0.0}, {"is_reserved": 0, "type": "electric_scooter", "fusion_lat": 0.0, "is_disabled": 0, "rental_uris": {"ios": "https://dc.lft.to/lastmile_qr_scan", "android": "https://dc.lft.to/lastmile_qr_scan"}, "bike_id": "66740f52580e544556ac1255e8615c4e", "lat": 38.8984125, "name": "66740f52580e544556ac1255e8615c4e", "lon": -76.938808, "fusion_lon": 0.0}, {"is_reserved": 0, "type": "electric_scooter", "fusion_lat": 0.0, "is_disabled": 0, "rental_uris": {"ios": "https://dc.lft.to/lastmile_qr_scan", "android": "https://dc.lft.to/lastmile_qr_scan"}, "bike_id": "42da40d3829f405f25c24bf177586506", "lat": 38.911230833333335, "name": "42da40d3829f405f25c24bf177586506", "lon": -77.02199616666667, "fusion_lon": 0.0}, {"is_reserved": 0, "type": "electric_scooter", "fusion_lat": 0.0, "is_disabled": 0, "rental_uris": {"ios": "https://dc.lft.to/lastmile_qr_scan", "android": "https://dc.lft.to/lastmile_qr_scan"}, "bike_id": "f511669494b8bf1096a0bf1d31532e08", "lat": 38.91018066666667, "name": "f511669494b8bf1096a0bf1d31532e08", "lon": -77.03186316666667, "fusion_lon": 0.0}, {"is_reserved": 0, "type": "electric_scooter", "fusion_lat": 0.0, "is_disabled": 0, "rental_uris": {"ios": "https://dc.lft.to/lastmile_qr_scan", "android": "https://dc.lft.to/lastmile_qr_scan"}, "bike_id": "dfd4d241c0fd39dea4be1a50947215d2", "lat": 38.92638783333334, "name": "dfd4d241c0fd39dea4be1a50947215d2", "lon": -77.03840416666667, "fusion_lon": 0.0}, {"is_reserved": 0, "type": "electric_bike", "fusion_lat": 0.0, "is_disabled": 0, "rental_uris": {"ios": "https://dc.lft.to/lastmile_qr_scan", "android": "https://dc.lft.to/lastmile_qr_scan"}, "bike_id": "b39c517c7b936f59d9090a59498d1d80", "lat": 38.868149, "name": "b39c517c7b936f59d9090a59498d1d80", "lon": -76.98023633333334, "fusion_lon": 0.0}, {"is_reserved": 0, "type": "electric_scooter", "fusion_lat": 0.0, "is_disabled": 0, "rental_uris": {"ios": "https://dc.lft.to/lastmile_qr_scan", "android": "https://dc.lft.to/lastmile_qr_scan"}, "bike_id": "468a96eb4a3d192436bcce8cdf268c5f", "lat": 38.9211915, "name": "468a96eb4a3d192436bcce8cdf268c5f", "lon": -77.0121005, "fusion_lon": 0.0}, {"is_reserved": 0, "type": "electric_scooter", "fusion_lat": 0.0, "is_disabled": 0, "rental_uris": {"ios": "https://dc.lft.to/lastmile_qr_scan", "android": "https://dc.lft.to/lastmile_qr_scan"}, "bike_id": "ab1805972d04c7291136966622d34c4c", "lat": 38.91895616666667, "name": "ab1805972d04c7291136966622d34c4c", "lon": -77.00047166666667, "fusion_lon": 0.0}, {"is_reserved": 0, "type": "electric_scooter", "fusion_lat": 0.0, "is_disabled": 0, "rental_uris": {"ios": "https://dc.lft.to/lastmile_qr_scan", "android": "https://dc.lft.to/lastmile_qr_scan"}, "bike_id": "1259f922f466649efa90c401e6ffa76a", "lat": 38.92338516666667, "name": "1259f922f466649efa90c401e6ffa76a", "lon": -76.98485683333334, "fusion_lon": 0.0}, {"is_reserved": 0, "type": "electric_scooter", "fusion_lat": 0.0, "is_disabled": 0, "rental_uris": {"ios": "https://dc.lft.to/lastmile_qr_scan", "android": "https://dc.lft.to/lastmile_qr_scan"}, "bike_id": "971ff1940237f5d270318144198db21e", "lat": 38.892649, "name": "971ff1940237f5d270318144198db21e", "lon": -77.02204283333333, "fusion_lon": 0.0}, {"is_reserved": 0, "type": "electric_bike", "fusion_lat": 0.0, "is_disabled": 0, "rental_uris": {"ios": "https://dc.lft.to/lastmile_qr_scan", "android": "https://dc.lft.to/lastmile_qr_scan"}, "bike_id": "5eb5a72b44570720e6ea831b1875386b", "lat": 38.9524675, "name": "5eb5a72b44570720e6ea831b1875386b", "lon": -77.096259, "fusion_lon": 0.0}, {"is_reserved": 0, "type": "electric_scooter", "fusion_lat": 0.0, "is_disabled": 0, "rental_uris": {"ios": "https://dc.lft.to/lastmile_qr_scan", "android": "https://dc.lft.to/lastmile_qr_scan"}, "bike_id": "7e14abce6686e606fa3a010aaf3e090b", "lat": 38.92501266666667, "name": "7e14abce6686e606fa3a010aaf3e090b", "lon": -77.05113966666667, "fusion_lon": 0.0}, {"is_reserved": 0, "type": "electric_scooter", "fusion_lat": 0.0, "is_disabled": 0, "rental_uris": {"ios": "https://dc.lft.to/lastmile_qr_scan", "android": "https://dc.lft.to/lastmile_qr_scan"}, "bike_id": "3322c766427dbf9109516c5d0f448a76", "lat": 38.9208395, "name": "3322c766427dbf9109516c5d0f448a76", "lon": -76.99482433333333, "fusion_lon": 0.0}, {"is_reserved": 0, "type": "electric_scooter", "fusion_lat": 0.0, "is_disabled": 0, "rental_uris": {"ios": "https://dc.lft.to/lastmile_qr_scan", "android": "https://dc.lft.to/lastmile_qr_scan"}, "bike_id": "cdea185635b103566186a9421a2a8aca", "lat": 38.87845933333333, "name": "cdea185635b103566186a9421a2a8aca", "lon": -77.00878166666666, "fusion_lon": 0.0}, {"is_reserved": 0, "type": "electric_scooter", "fusion_lat": 0.0, "is_disabled": 0, "rental_uris": {"ios": "https://dc.lft.to/lastmile_qr_scan", "android": "https://dc.lft.to/lastmile_qr_scan"}, "bike_id": "7a25f347b49741d872ccc3cc6f90fc0b", "lat": 38.92918233333333, "name": "7a25f347b49741d872ccc3cc6f90fc0b", "lon": -77.02633616666667, "fusion_lon": 0.0}, {"is_reserved": 0, "type": "electric_scooter", "fusion_lat": 0.0, "is_disabled": 0, "rental_uris": {"ios": "https://dc.lft.to/lastmile_qr_scan", "android": "https://dc.lft.to/lastmile_qr_scan"}, "bike_id": "66c3e9d10ce512fe597fe458c4c21e3b", "lat": 38.90285333333333, "name": "66c3e9d10ce512fe597fe458c4c21e3b", "lon": -77.04543033333333, "fusion_lon": 0.0}, {"is_reserved": 0, "type": "electric_bike", "fusion_lat": 0.0, "is_disabled": 0, "rental_uris": {"ios": "https://dc.lft.to/lastmile_qr_scan", "android": "https://dc.lft.to/lastmile_qr_scan"}, "bike_id": "045ab01ba4d819adfaad0b03750436b9", "lat": 38.972826, "name": "045ab01ba4d819adfaad0b03750436b9", "lon": -77.036224, "fusion_lon": 0.0}, {"is_reserved": 0, "type": "electric_scooter", "fusion_lat": 0.0, "is_disabled": 0, "rental_uris": {"ios": "https://dc.lft.to/lastmile_qr_scan", "android": "https://dc.lft.to/lastmile_qr_scan"}, "bike_id": "c36cb1d79935ba8c8fad36048e81a568", "lat": 38.90942533333333, "name": "c36cb1d79935ba8c8fad36048e81a568", "lon": -77.04652183333333, "fusion_lon": 0.0}, {"is_reserved": 0, "type": "electric_scooter", "fusion_lat": 0.0, "is_disabled": 0, "rental_uris": {"ios": "https://dc.lft.to/lastmile_qr_scan", "android": "https://dc.lft.to/lastmile_qr_scan"}, "bike_id": "96f542a0ed1cd90c7478a56b4e52efd0", "lat": 38.90691016666667, "name": "96f542a0ed1cd90c7478a56b4e52efd0", "lon": -77.061501, "fusion_lon": 0.0}, {"is_reserved": 0, "type": "electric_bike", "fusion_lat": 0.0, "is_disabled": 0, "rental_uris": {"ios": "https://dc.lft.to/lastmile_qr_scan", "android": "https://dc.lft.to/lastmile_qr_scan"}, "bike_id": "07ad7a39248b5f2cdc80d98bef9f7e24", "lat": 38.8997005, "name": "07ad7a39248b5f2cdc80d98bef9f7e24", "lon": -77.046563, "fusion_lon": 0.0}, {"is_reserved": 0, "type": "electric_bike", "fusion_lat": 0.0, "is_disabled": 0, "rental_uris": {"ios": "https://dc.lft.to/lastmile_qr_scan", "android": "https://dc.lft.to/lastmile_qr_scan"}, "bike_id": "4fb8dda9b1a9d10c1a829b6600368602", "lat": 38.8428825, "name": "4fb8dda9b1a9d10c1a829b6600368602", "lon": -77.06381716666667, "fusion_lon": 0.0}, {"is_reserved": 0, "type": "electric_scooter", "fusion_lat": 0.0, "is_disabled": 0, "rental_uris": {"ios": "https://dc.lft.to/lastmile_qr_scan", "android": "https://dc.lft.to/lastmile_qr_scan"}, "bike_id": "94043225d6f56e93a0c505b5a8e05777", "lat": 38.90189266666667, "name": "94043225d6f56e93a0c505b5a8e05777", "lon": -77.00223783333334, "fusion_lon": 0.0}, {"is_reserved": 0, "type": "electric_scooter", "fusion_lat": 0.0, "is_disabled": 0, "rental_uris": {"ios": "https://dc.lft.to/lastmile_qr_scan", "android": "https://dc.lft.to/lastmile_qr_scan"}, "bike_id": "a99f6e7cafaeb2a69b3aaead1159c721", "lat": 38.935092, "name": "a99f6e7cafaeb2a69b3aaead1159c721", "lon": -77.056901, "fusion_lon": 0.0}, {"is_reserved": 0, "type": "electric_scooter", "fusion_lat": 0.0, "is_disabled": 0, "rental_uris": {"ios": "https://dc.lft.to/lastmile_qr_scan", "android": "https://dc.lft.to/lastmile_qr_scan"}, "bike_id": "a435e1e744b156440575534702b55eae", "lat": 38.9017655, "name": "a435e1e744b156440575534702b55eae", "lon": -76.998402, "fusion_lon": 0.0}, {"is_reserved": 0, "type": "electric_scooter", "fusion_lat": 0.0, "is_disabled": 0, "rental_uris": {"ios": "https://dc.lft.to/lastmile_qr_scan", "android": "https://dc.lft.to/lastmile_qr_scan"}, "bike_id": "650491d7119e9325016e62e441dbb07f", "lat": 38.909058, "name": "650491d7119e9325016e62e441dbb07f", "lon": -77.03507366666666, "fusion_lon": 0.0}, {"is_reserved": 0, "type": "electric_scooter", "fusion_lat": 0.0, "is_disabled": 0, "rental_uris": {"ios": "https://dc.lft.to/lastmile_qr_scan", "android": "https://dc.lft.to/lastmile_qr_scan"}, "bike_id": "8980012d2417d48c78f3f79450a98204", "lat": 38.90528466666667, "name": "8980012d2417d48c78f3f79450a98204", "lon": -77.05695916666667, "fusion_lon": 0.0}, {"is_reserved": 0, "type": "electric_scooter", "fusion_lat": 0.0, "is_disabled": 0, "rental_uris": {"ios": "https://dc.lft.to/lastmile_qr_scan", "android": "https://dc.lft.to/lastmile_qr_scan"}, "bike_id": "44edf65bca1ec47765d9daf941f3992a", "lat": 38.90148133333334, "name": "44edf65bca1ec47765d9daf941f3992a", "lon": -77.038199, "fusion_lon": 0.0}, {"is_reserved": 0, "type": "electric_scooter", "fusion_lat": 0.0, "is_disabled": 0, "rental_uris": {"ios": "https://dc.lft.to/lastmile_qr_scan", "android": "https://dc.lft.to/lastmile_qr_scan"}, "bike_id": "f8778b9a74656f53d521cb9f483d7936", "lat": 38.921664, "name": "f8778b9a74656f53d521cb9f483d7936", "lon": -77.04014333333333, "fusion_lon": 0.0}, {"is_reserved": 0, "type": "electric_scooter", "fusion_lat": 0.0, "is_disabled": 0, "rental_uris": {"ios": "https://dc.lft.to/lastmile_qr_scan", "android": "https://dc.lft.to/lastmile_qr_scan"}, "bike_id": "551647db4ca4a587377455434e7a505f", "lat": 38.92157616666667, "name": "551647db4ca4a587377455434e7a505f", "lon": -77.03389583333333, "fusion_lon": 0.0}, {"is_reserved": 0, "type": "electric_bike", "fusion_lat": 0.0, "is_disabled": 0, "rental_uris": {"ios": "https://dc.lft.to/lastmile_qr_scan", "android": "https://dc.lft.to/lastmile_qr_scan"}, "bike_id": "e7c7620da081f7b093800350f9d52f12", "lat": 38.9181875, "name": "e7c7620da081f7b093800350f9d52f12", "lon": -77.00064166666667, "fusion_lon": 0.0}, {"is_reserved": 0, "type": "electric_scooter", "fusion_lat": 0.0, "is_disabled": 0, "rental_uris": {"ios": "https://dc.lft.to/lastmile_qr_scan", "android": "https://dc.lft.to/lastmile_qr_scan"}, "bike_id": "be999768fa690371e71f5efae07c977d", "lat": 38.92339533333333, "name": "be999768fa690371e71f5efae07c977d", "lon": -77.057843, "fusion_lon": 0.0}, {"is_reserved": 0, "type": "electric_scooter", "fusion_lat": 0.0, "is_disabled": 0, "rental_uris": {"ios": "https://dc.lft.to/lastmile_qr_scan", "android": "https://dc.lft.to/lastmile_qr_scan"}, "bike_id": "88ede1fd88a25184307fac7c6bfaaa09", "lat": 38.892231, "name": "88ede1fd88a25184307fac7c6bfaaa09", "lon": -77.03217583333333, "fusion_lon": 0.0}, {"is_reserved": 0, "type": "electric_scooter", "fusion_lat": 0.0, "is_disabled": 0, "rental_uris": {"ios": "https://dc.lft.to/lastmile_qr_scan", "android": "https://dc.lft.to/lastmile_qr_scan"}, "bike_id": "c4bc86edd501a0e5ba8f309467433a05", "lat": 38.90735433333333, "name": "c4bc86edd501a0e5ba8f309467433a05", "lon": -77.041592, "fusion_lon": 0.0}, {"is_reserved": 0, "type": "electric_scooter", "fusion_lat": 0.0, "is_disabled": 0, "rental_uris": {"ios": "https://dc.lft.to/lastmile_qr_scan", "android": "https://dc.lft.to/lastmile_qr_scan"}, "bike_id": "40fc76a0f951d29a73a15b81297eb565", "lat": 38.866309666666666, "name": "40fc76a0f951d29a73a15b81297eb565", "lon": -76.982635, "fusion_lon": 0.0}, {"is_reserved": 0, "type": "electric_scooter", "fusion_lat": 0.0, "is_disabled": 0, "rental_uris": {"ios": "https://dc.lft.to/lastmile_qr_scan", "android": "https://dc.lft.to/lastmile_qr_scan"}, "bike_id": "ff0be2955168c5d43073e9aa5b79f615", "lat": 38.9157625, "name": "ff0be2955168c5d43073e9aa5b79f615", "lon": -76.9829625, "fusion_lon": 0.0}, {"is_reserved": 0, "type": "electric_scooter", "fusion_lat": 0.0, "is_disabled": 0, "rental_uris": {"ios": "https://dc.lft.to/lastmile_qr_scan", "android": "https://dc.lft.to/lastmile_qr_scan"}, "bike_id": "f4db4a404e4006f680cdf70a19bdf61b", "lat": 38.9061505, "name": "f4db4a404e4006f680cdf70a19bdf61b", "lon": -77.00556633333333, "fusion_lon": 0.0}, {"is_reserved": 0, "type": "electric_scooter", "fusion_lat": 0.0, "is_disabled": 0, "rental_uris": {"ios": "https://dc.lft.to/lastmile_qr_scan", "android": "https://dc.lft.to/lastmile_qr_scan"}, "bike_id": "73adf43f8604a1b419912406fc9094bf", "lat": 38.87637683333333, "name": "73adf43f8604a1b419912406fc9094bf", "lon": -76.99295916666667, "fusion_lon": 0.0}, {"is_reserved": 0, "type": "electric_scooter", "fusion_lat": 0.0, "is_disabled": 0, "rental_uris": {"ios": "https://dc.lft.to/lastmile_qr_scan", "android": "https://dc.lft.to/lastmile_qr_scan"}, "bike_id": "a887549ab2ded9fa6bbde1616c3aaacd", "lat": 38.9170735, "name": "a887549ab2ded9fa6bbde1616c3aaacd", "lon": -77.03853816666667, "fusion_lon": 0.0}, {"is_reserved": 0, "type": "electric_scooter", "fusion_lat": 0.0, "is_disabled": 0, "rental_uris": {"ios": "https://dc.lft.to/lastmile_qr_scan", "android": "https://dc.lft.to/lastmile_qr_scan"}, "bike_id": "329b218f59142fe85f820c79f0233c2b", "lat": 38.887458333333335, "name": "329b218f59142fe85f820c79f0233c2b", "lon": -77.01539, "fusion_lon": 0.0}, {"is_reserved": 0, "type": "electric_scooter", "fusion_lat": 0.0, "is_disabled": 0, "rental_uris": {"ios": "https://dc.lft.to/lastmile_qr_scan", "android": "https://dc.lft.to/lastmile_qr_scan"}, "bike_id": "03c8dc6fff560016cd7d347dc3b8c25d", "lat": 38.88742166666667, "name": "03c8dc6fff560016cd7d347dc3b8c25d", "lon": -77.026281, "fusion_lon": 0.0}, {"is_reserved": 0, "type": "electric_scooter", "fusion_lat": 0.0, "is_disabled": 0, "rental_uris": {"ios": "https://dc.lft.to/lastmile_qr_scan", "android": "https://dc.lft.to/lastmile_qr_scan"}, "bike_id": "a576f7db9691439a948711330c08bd2a", "lat": 38.90309966666667, "name": "a576f7db9691439a948711330c08bd2a", "lon": -76.97803983333333, "fusion_lon": 0.0}, {"is_reserved": 0, "type": "electric_scooter", "fusion_lat": 0.0, "is_disabled": 0, "rental_uris": {"ios": "https://dc.lft.to/lastmile_qr_scan", "android": "https://dc.lft.to/lastmile_qr_scan"}, "bike_id": "3d0d9eb8c08983bae6b86f485f100aa6", "lat": 38.84275683333333, "name": "3d0d9eb8c08983bae6b86f485f100aa6", "lon": -76.988396, "fusion_lon": 0.0}, {"is_reserved": 0, "type": "electric_scooter", "fusion_lat": 0.0, "is_disabled": 0, "rental_uris": {"ios": "https://dc.lft.to/lastmile_qr_scan", "android": "https://dc.lft.to/lastmile_qr_scan"}, "bike_id": "7d34229559c4d05ad015720d41f241d0", "lat": 38.90050033333333, "name": "7d34229559c4d05ad015720d41f241d0", "lon": -76.99328433333334, "fusion_lon": 0.0}, {"is_reserved": 0, "type": "electric_scooter", "fusion_lat": 0.0, "is_disabled": 0, "rental_uris": {"ios": "https://dc.lft.to/lastmile_qr_scan", "android": "https://dc.lft.to/lastmile_qr_scan"}, "bike_id": "041b4d78178b17040cd1a2bf0daf4e32", "lat": 38.90328433333333, "name": "041b4d78178b17040cd1a2bf0daf4e32", "lon": -77.02153833333334, "fusion_lon": 0.0}, {"is_reserved": 0, "type": "electric_scooter", "fusion_lat": 0.0, "is_disabled": 0, "rental_uris": {"ios": "https://dc.lft.to/lastmile_qr_scan", "android": "https://dc.lft.to/lastmile_qr_scan"}, "bike_id": "690bc8551dbbeadf7729fd5d7789ac15", "lat": 38.87591, "name": "690bc8551dbbeadf7729fd5d7789ac15", "lon": -77.005709, "fusion_lon": 0.0}, {"is_reserved": 0, "type": "electric_scooter", "fusion_lat": 0.0, "is_disabled": 0, "rental_uris": {"ios": "https://dc.lft.to/lastmile_qr_scan", "android": "https://dc.lft.to/lastmile_qr_scan"}, "bike_id": "5d6c5ee14bd39e52b2322be2c2a5d301", "lat": 38.92466533333333, "name": "5d6c5ee14bd39e52b2322be2c2a5d301", "lon": -77.02711533333333, "fusion_lon": 0.0}, {"is_reserved": 0, "type": "electric_scooter", "fusion_lat": 0.0, "is_disabled": 0, "rental_uris": {"ios": "https://dc.lft.to/lastmile_qr_scan", "android": "https://dc.lft.to/lastmile_qr_scan"}, "bike_id": "26c22487203c529f80193434f9fb2d6b", "lat": 38.956450333333336, "name": "26c22487203c529f80193434f9fb2d6b", "lon": -77.02816, "fusion_lon": 0.0}, {"is_reserved": 0, "type": "electric_scooter", "fusion_lat": 0.0, "is_disabled": 0, "rental_uris": {"ios": "https://dc.lft.to/lastmile_qr_scan", "android": "https://dc.lft.to/lastmile_qr_scan"}, "bike_id": "05f16c09c5b0d7597c840c1b4ff221e7", "lat": 38.90326183333333, "name": "05f16c09c5b0d7597c840c1b4ff221e7", "lon": -77.0175135, "fusion_lon": 0.0}, {"is_reserved": 0, "type": "electric_scooter", "fusion_lat": 0.0, "is_disabled": 0, "rental_uris": {"ios": "https://dc.lft.to/lastmile_qr_scan", "android": "https://dc.lft.to/lastmile_qr_scan"}, "bike_id": "d1ffa6bcc265bda3533e64143d16099f", "lat": 38.935860166666664, "name": "d1ffa6bcc265bda3533e64143d16099f", "lon": -77.074315, "fusion_lon": 0.0}, {"is_reserved": 0, "type": "electric_scooter", "fusion_lat": 0.0, "is_disabled": 0, "rental_uris": {"ios": "https://dc.lft.to/lastmile_qr_scan", "android": "https://dc.lft.to/lastmile_qr_scan"}, "bike_id": "c3c19c5c5960bbce6fbc27e9e49de71f", "lat": 38.89338766666667, "name": "c3c19c5c5960bbce6fbc27e9e49de71f", "lon": -76.98553983333333, "fusion_lon": 0.0}, {"is_reserved": 0, "type": "electric_scooter", "fusion_lat": 0.0, "is_disabled": 0, "rental_uris": {"ios": "https://dc.lft.to/lastmile_qr_scan", "android": "https://dc.lft.to/lastmile_qr_scan"}, "bike_id": "7dced5cbf85887d59bf3387db91dd390", "lat": 38.92799616666667, "name": "7dced5cbf85887d59bf3387db91dd390", "lon": -77.037014, "fusion_lon": 0.0}, {"is_reserved": 0, "type": "electric_scooter", "fusion_lat": 0.0, "is_disabled": 0, "rental_uris": {"ios": "https://dc.lft.to/lastmile_qr_scan", "android": "https://dc.lft.to/lastmile_qr_scan"}, "bike_id": "c829fa7b49e01f1f5b54bc8e4031aaa4", "lat": 38.87732533333333, "name": "c829fa7b49e01f1f5b54bc8e4031aaa4", "lon": -77.006065, "fusion_lon": 0.0}, {"is_reserved": 0, "type": "electric_scooter", "fusion_lat": 0.0, "is_disabled": 0, "rental_uris": {"ios": "https://dc.lft.to/lastmile_qr_scan", "android": "https://dc.lft.to/lastmile_qr_scan"}, "bike_id": "e440e17f53cc42e149b36338d22f3282", "lat": 38.91885083333333, "name": "e440e17f53cc42e149b36338d22f3282", "lon": -77.03580683333334, "fusion_lon": 0.0}, {"is_reserved": 0, "type": "electric_bike", "fusion_lat": 0.0, "is_disabled": 0, "rental_uris": {"ios": "https://dc.lft.to/lastmile_qr_scan", "android": "https://dc.lft.to/lastmile_qr_scan"}, "bike_id": "97b018528468e25b0a81dfb4e73c5297", "lat": 38.93351633333333, "name": "97b018528468e25b0a81dfb4e73c5297", "lon": -77.09714866666667, "fusion_lon": 0.0}, {"is_reserved": 0, "type": "electric_scooter", "fusion_lat": 0.0, "is_disabled": 0, "rental_uris": {"ios": "https://dc.lft.to/lastmile_qr_scan", "android": "https://dc.lft.to/lastmile_qr_scan"}, "bike_id": "99186c5d8d2721e1808563a7b55fd3b6", "lat": 38.900756333333334, "name": "99186c5d8d2721e1808563a7b55fd3b6", "lon": -77.029795, "fusion_lon": 0.0}, {"is_reserved": 0, "type": "electric_scooter", "fusion_lat": 0.0, "is_disabled": 0, "rental_uris": {"ios": "https://dc.lft.to/lastmile_qr_scan", "android": "https://dc.lft.to/lastmile_qr_scan"}, "bike_id": "339b2f0f3d6fc0e333aa63b13301073c", "lat": 38.905175166666666, "name": "339b2f0f3d6fc0e333aa63b13301073c", "lon": -77.0005285, "fusion_lon": 0.0}, {"is_reserved": 0, "type": "electric_scooter", "fusion_lat": 0.0, "is_disabled": 0, "rental_uris": {"ios": "https://dc.lft.to/lastmile_qr_scan", "android": "https://dc.lft.to/lastmile_qr_scan"}, "bike_id": "6f97b609204d55ad1815adf0dadbba25", "lat": 38.9013195, "name": "6f97b609204d55ad1815adf0dadbba25", "lon": -77.017565, "fusion_lon": 0.0}, {"is_reserved": 0, "type": "electric_scooter", "fusion_lat": 0.0, "is_disabled": 0, "rental_uris": {"ios": "https://dc.lft.to/lastmile_qr_scan", "android": "https://dc.lft.to/lastmile_qr_scan"}, "bike_id": "547485ce5a270d89e79c7c37a6da3722", "lat": 38.92236483333333, "name": "547485ce5a270d89e79c7c37a6da3722", "lon": -76.98848733333334, "fusion_lon": 0.0}, {"is_reserved": 0, "type": "electric_scooter", "fusion_lat": 0.0, "is_disabled": 0, "rental_uris": {"ios": "https://dc.lft.to/lastmile_qr_scan", "android": "https://dc.lft.to/lastmile_qr_scan"}, "bike_id": "d9b67fa632515712839b3d5c9644f9dd", "lat": 38.90608666666667, "name": "d9b67fa632515712839b3d5c9644f9dd", "lon": -77.06300716666667, "fusion_lon": 0.0}, {"is_reserved": 0, "type": "electric_scooter", "fusion_lat": 0.0, "is_disabled": 0, "rental_uris": {"ios": "https://dc.lft.to/lastmile_qr_scan", "android": "https://dc.lft.to/lastmile_qr_scan"}, "bike_id": "0f8b74805c973d44f159327313754e3c", "lat": 38.923723333333335, "name": "0f8b74805c973d44f159327313754e3c", "lon": -77.027479, "fusion_lon": 0.0}, {"is_reserved": 0, "type": "electric_scooter", "fusion_lat": 0.0, "is_disabled": 0, "rental_uris": {"ios": "https://dc.lft.to/lastmile_qr_scan", "android": "https://dc.lft.to/lastmile_qr_scan"}, "bike_id": "5e3eacf2fe85b95533118d2cd5393465", "lat": 38.90094933333334, "name": "5e3eacf2fe85b95533118d2cd5393465", "lon": -77.01865266666667, "fusion_lon": 0.0}, {"is_reserved": 0, "type": "electric_scooter", "fusion_lat": 0.0, "is_disabled": 0, "rental_uris": {"ios": "https://dc.lft.to/lastmile_qr_scan", "android": "https://dc.lft.to/lastmile_qr_scan"}, "bike_id": "14948fd2c9a3357fa79f078fdcaac2f1", "lat": 38.90584716666667, "name": "14948fd2c9a3357fa79f078fdcaac2f1", "lon": -77.072703, "fusion_lon": 0.0}, {"is_reserved": 0, "type": "electric_scooter", "fusion_lat": 0.0, "is_disabled": 0, "rental_uris": {"ios": "https://dc.lft.to/lastmile_qr_scan", "android": "https://dc.lft.to/lastmile_qr_scan"}, "bike_id": "d1e06477f2ecedc684bdcdf95e12caec", "lat": 38.908595166666665, "name": "d1e06477f2ecedc684bdcdf95e12caec", "lon": -76.99798383333334, "fusion_lon": 0.0}, {"is_reserved": 0, "type": "electric_bike", "fusion_lat": 0.0, "is_disabled": 0, "rental_uris": {"ios": "https://dc.lft.to/lastmile_qr_scan", "android": "https://dc.lft.to/lastmile_qr_scan"}, "bike_id": "dbecbe8112231c563866c7b7c51500cc", "lat": 38.81938683333333, "name": "dbecbe8112231c563866c7b7c51500cc", "lon": -77.00204016666666, "fusion_lon": 0.0}, {"is_reserved": 0, "type": "electric_scooter", "fusion_lat": 0.0, "is_disabled": 0, "rental_uris": {"ios": "https://dc.lft.to/lastmile_qr_scan", "android": "https://dc.lft.to/lastmile_qr_scan"}, "bike_id": "eaddc815c6997755887b6e47c9df2b6a", "lat": 38.92449283333333, "name": "eaddc815c6997755887b6e47c9df2b6a", "lon": -77.02037466666667, "fusion_lon": 0.0}, {"is_reserved": 0, "type": "electric_scooter", "fusion_lat": 0.0, "is_disabled": 0, "rental_uris": {"ios": "https://dc.lft.to/lastmile_qr_scan", "android": "https://dc.lft.to/lastmile_qr_scan"}, "bike_id": "411591981f4ed10544b58c42ba573a6e", "lat": 38.920582333333336, "name": "411591981f4ed10544b58c42ba573a6e", "lon": -77.0005665, "fusion_lon": 0.0}, {"is_reserved": 0, "type": "electric_scooter", "fusion_lat": 0.0, "is_disabled": 0, "rental_uris": {"ios": "https://dc.lft.to/lastmile_qr_scan", "android": "https://dc.lft.to/lastmile_qr_scan"}, "bike_id": "19df98110da18d672def463f71354da5", "lat": 38.944600333333334, "name": "19df98110da18d672def463f71354da5", "lon": -77.006564, "fusion_lon": 0.0}, {"is_reserved": 0, "type": "electric_scooter", "fusion_lat": 0.0, "is_disabled": 0, "rental_uris": {"ios": "https://dc.lft.to/lastmile_qr_scan", "android": "https://dc.lft.to/lastmile_qr_scan"}, "bike_id": "918f0cf203c1d40508fd33716291e39c", "lat": 38.91331616666667, "name": "918f0cf203c1d40508fd33716291e39c", "lon": -77.04566216666667, "fusion_lon": 0.0}, {"is_reserved": 0, "type": "electric_scooter", "fusion_lat": 0.0, "is_disabled": 0, "rental_uris": {"ios": "https://dc.lft.to/lastmile_qr_scan", "android": "https://dc.lft.to/lastmile_qr_scan"}, "bike_id": "9d8388c19823810af27793fb7b0b2b0c", "lat": 38.88134183333333, "name": "9d8388c19823810af27793fb7b0b2b0c", "lon": -76.9961195, "fusion_lon": 0.0}, {"is_reserved": 0, "type": "electric_scooter", "fusion_lat": 0.0, "is_disabled": 0, "rental_uris": {"ios": "https://dc.lft.to/lastmile_qr_scan", "android": "https://dc.lft.to/lastmile_qr_scan"}, "bike_id": "ed75224dd7031f25929f69a458c1a972", "lat": 38.92133233333333, "name": "ed75224dd7031f25929f69a458c1a972", "lon": -77.01800983333334, "fusion_lon": 0.0}, {"is_reserved": 0, "type": "electric_scooter", "fusion_lat": 0.0, "is_disabled": 0, "rental_uris": {"ios": "https://dc.lft.to/lastmile_qr_scan", "android": "https://dc.lft.to/lastmile_qr_scan"}, "bike_id": "3bc6792d3bf3fefca9762002487d065d", "lat": 38.89817133333333, "name": "3bc6792d3bf3fefca9762002487d065d", "lon": -76.99833066666666, "fusion_lon": 0.0}, {"is_reserved": 0, "type": "electric_scooter", "fusion_lat": 0.0, "is_disabled": 0, "rental_uris": {"ios": "https://dc.lft.to/lastmile_qr_scan", "android": "https://dc.lft.to/lastmile_qr_scan"}, "bike_id": "eb4f4889043706c74c48f9f8957d8bea", "lat": 38.8784955, "name": "eb4f4889043706c74c48f9f8957d8bea", "lon": -77.0089925, "fusion_lon": 0.0}, {"is_reserved": 0, "type": "electric_scooter", "fusion_lat": 0.0, "is_disabled": 0, "rental_uris": {"ios": "https://dc.lft.to/lastmile_qr_scan", "android": "https://dc.lft.to/lastmile_qr_scan"}, "bike_id": "4a670376fe2d97368b8bc349af126712", "lat": 38.91914666666667, "name": "4a670376fe2d97368b8bc349af126712", "lon": -77.03432116666667, "fusion_lon": 0.0}, {"is_reserved": 0, "type": "electric_scooter", "fusion_lat": 0.0, "is_disabled": 0, "rental_uris": {"ios": "https://dc.lft.to/lastmile_qr_scan", "android": "https://dc.lft.to/lastmile_qr_scan"}, "bike_id": "619891f20cb3ed2fbc016414f0d76b49", "lat": 38.916895333333336, "name": "619891f20cb3ed2fbc016414f0d76b49", "lon": -77.02595233333334, "fusion_lon": 0.0}, {"is_reserved": 0, "type": "electric_scooter", "fusion_lat": 0.0, "is_disabled": 0, "rental_uris": {"ios": "https://dc.lft.to/lastmile_qr_scan", "android": "https://dc.lft.to/lastmile_qr_scan"}, "bike_id": "8bc62b1dec112eedb62da45225e0b8d2", "lat": 38.905554333333335, "name": "8bc62b1dec112eedb62da45225e0b8d2", "lon": -77.03269266666666, "fusion_lon": 0.0}, {"is_reserved": 0, "type": "electric_scooter", "fusion_lat": 0.0, "is_disabled": 0, "rental_uris": {"ios": "https://dc.lft.to/lastmile_qr_scan", "android": "https://dc.lft.to/lastmile_qr_scan"}, "bike_id": "6a06b5d1a0b505cd4bf7fdaa499e7c4a", "lat": 38.909461, "name": "6a06b5d1a0b505cd4bf7fdaa499e7c4a", "lon": -76.9958235, "fusion_lon": 0.0}, {"is_reserved": 0, "type": "electric_scooter", "fusion_lat": 0.0, "is_disabled": 0, "rental_uris": {"ios": "https://dc.lft.to/lastmile_qr_scan", "android": "https://dc.lft.to/lastmile_qr_scan"}, "bike_id": "fef5374593eb4b7ebe08d7e0673cc197", "lat": 38.93258133333333, "name": "fef5374593eb4b7ebe08d7e0673cc197", "lon": -77.03263566666666, "fusion_lon": 0.0}, {"is_reserved": 0, "type": "electric_scooter", "fusion_lat": 0.0, "is_disabled": 0, "rental_uris": {"ios": "https://dc.lft.to/lastmile_qr_scan", "android": "https://dc.lft.to/lastmile_qr_scan"}, "bike_id": "5ddeb0a8278e2eef0753fd6f581fcac0", "lat": 38.86078716666667, "name": "5ddeb0a8278e2eef0753fd6f581fcac0", "lon": -76.98374983333333, "fusion_lon": 0.0}, {"is_reserved": 0, "type": "electric_scooter", "fusion_lat": 0.0, "is_disabled": 0, "rental_uris": {"ios": "https://dc.lft.to/lastmile_qr_scan", "android": "https://dc.lft.to/lastmile_qr_scan"}, "bike_id": "464a32374b7ff3cef38cc5e75180a48e", "lat": 38.90270316666667, "name": "464a32374b7ff3cef38cc5e75180a48e", "lon": -77.01768233333334, "fusion_lon": 0.0}, {"is_reserved": 0, "type": "electric_bike", "fusion_lat": 0.0, "is_disabled": 0, "rental_uris": {"ios": "https://dc.lft.to/lastmile_qr_scan", "android": "https://dc.lft.to/lastmile_qr_scan"}, "bike_id": "9d7693a142de751271b22fd843cd27c2", "lat": 38.850581, "name": "9d7693a142de751271b22fd843cd27c2", "lon": -76.95820633333334, "fusion_lon": 0.0}, {"is_reserved": 0, "type": "electric_scooter", "fusion_lat": 0.0, "is_disabled": 0, "rental_uris": {"ios": "https://dc.lft.to/lastmile_qr_scan", "android": "https://dc.lft.to/lastmile_qr_scan"}, "bike_id": "3599bddd7f8678b8ba75724444969a1a", "lat": 38.9279695, "name": "3599bddd7f8678b8ba75724444969a1a", "lon": -77.0232875, "fusion_lon": 0.0}, {"is_reserved": 0, "type": "electric_scooter", "fusion_lat": 0.0, "is_disabled": 0, "rental_uris": {"ios": "https://dc.lft.to/lastmile_qr_scan", "android": "https://dc.lft.to/lastmile_qr_scan"}, "bike_id": "5a3ed77ad856c571e6ba4e420357df49", "lat": 38.885742666666665, "name": "5a3ed77ad856c571e6ba4e420357df49", "lon": -77.01211666666667, "fusion_lon": 0.0}, {"is_reserved": 0, "type": "electric_scooter", "fusion_lat": 0.0, "is_disabled": 0, "rental_uris": {"ios": "https://dc.lft.to/lastmile_qr_scan", "android": "https://dc.lft.to/lastmile_qr_scan"}, "bike_id": "a6b0fb24cb3539976bba14b0c058fed5", "lat": 38.92003066666667, "name": "a6b0fb24cb3539976bba14b0c058fed5", "lon": -77.03217883333333, "fusion_lon": 0.0}, {"is_reserved": 0, "type": "electric_scooter", "fusion_lat": 0.0, "is_disabled": 0, "rental_uris": {"ios": "https://dc.lft.to/lastmile_qr_scan", "android": "https://dc.lft.to/lastmile_qr_scan"}, "bike_id": "589ca481d0a97d83554286b1703220fe", "lat": 38.919108333333334, "name": "589ca481d0a97d83554286b1703220fe", "lon": -77.03108066666667, "fusion_lon": 0.0}, {"is_reserved": 0, "type": "electric_scooter", "fusion_lat": 0.0, "is_disabled": 0, "rental_uris": {"ios": "https://dc.lft.to/lastmile_qr_scan", "android": "https://dc.lft.to/lastmile_qr_scan"}, "bike_id": "b33f3dc733b2d8640c27bf0b46fdf806", "lat": 38.90231816666667, "name": "b33f3dc733b2d8640c27bf0b46fdf806", "lon": -76.99363783333334, "fusion_lon": 0.0}, {"is_reserved": 0, "type": "electric_scooter", "fusion_lat": 0.0, "is_disabled": 0, "rental_uris": {"ios": "https://dc.lft.to/lastmile_qr_scan", "android": "https://dc.lft.to/lastmile_qr_scan"}, "bike_id": "4d27bd9f360754d5dffbc3673c263f8f", "lat": 38.90825233333333, "name": "4d27bd9f360754d5dffbc3673c263f8f", "lon": -77.04358983333333, "fusion_lon": 0.0}, {"is_reserved": 0, "type": "electric_scooter", "fusion_lat": 0.0, "is_disabled": 0, "rental_uris": {"ios": "https://dc.lft.to/lastmile_qr_scan", "android": "https://dc.lft.to/lastmile_qr_scan"}, "bike_id": "c5386c59abe1efb0000754c5891f48bb", "lat": 38.90432033333333, "name": "c5386c59abe1efb0000754c5891f48bb", "lon": -76.997334, "fusion_lon": 0.0}, {"is_reserved": 0, "type": "electric_scooter", "fusion_lat": 0.0, "is_disabled": 0, "rental_uris": {"ios": "https://dc.lft.to/lastmile_qr_scan", "android": "https://dc.lft.to/lastmile_qr_scan"}, "bike_id": "ccf450b37bbe7fb3e9d3e845b29c3d44", "lat": 38.922896, "name": "ccf450b37bbe7fb3e9d3e845b29c3d44", "lon": -77.02061066666667, "fusion_lon": 0.0}, {"is_reserved": 0, "type": "electric_bike", "fusion_lat": 0.0, "is_disabled": 0, "rental_uris": {"ios": "https://dc.lft.to/lastmile_qr_scan", "android": "https://dc.lft.to/lastmile_qr_scan"}, "bike_id": "116d5ae03802e2c7f9a01e1b36c9f67b", "lat": 38.820339833333335, "name": "116d5ae03802e2c7f9a01e1b36c9f67b", "lon": -77.05457466666667, "fusion_lon": 0.0}, {"is_reserved": 0, "type": "electric_bike", "fusion_lat": 0.0, "is_disabled": 0, "rental_uris": {"ios": "https://dc.lft.to/lastmile_qr_scan", "android": "https://dc.lft.to/lastmile_qr_scan"}, "bike_id": "0a89e8adc69138a841d80b7e49e3b8d0", "lat": 38.96124283333333, "name": "0a89e8adc69138a841d80b7e49e3b8d0", "lon": -77.03271883333333, "fusion_lon": 0.0}, {"is_reserved": 0, "type": "electric_scooter", "fusion_lat": 0.0, "is_disabled": 0, "rental_uris": {"ios": "https://dc.lft.to/lastmile_qr_scan", "android": "https://dc.lft.to/lastmile_qr_scan"}, "bike_id": "bc9a9e0e3a667101e318d7171e3e80c5", "lat": 38.88131883333333, "name": "bc9a9e0e3a667101e318d7171e3e80c5", "lon": -77.022637, "fusion_lon": 0.0}, {"is_reserved": 0, "type": "electric_scooter", "fusion_lat": 0.0, "is_disabled": 0, "rental_uris": {"ios": "https://dc.lft.to/lastmile_qr_scan", "android": "https://dc.lft.to/lastmile_qr_scan"}, "bike_id": "f3aedb6bddd1723a23d232a0f595cd30", "lat": 38.88447933333333, "name": "f3aedb6bddd1723a23d232a0f595cd30", "lon": -76.95094183333333, "fusion_lon": 0.0}, {"is_reserved": 0, "type": "electric_scooter", "fusion_lat": 0.0, "is_disabled": 0, "rental_uris": {"ios": "https://dc.lft.to/lastmile_qr_scan", "android": "https://dc.lft.to/lastmile_qr_scan"}, "bike_id": "26d18d68774c712172b0208bc7834f6f", "lat": 38.91555316666667, "name": "26d18d68774c712172b0208bc7834f6f", "lon": -77.0204465, "fusion_lon": 0.0}, {"is_reserved": 0, "type": "electric_scooter", "fusion_lat": 0.0, "is_disabled": 0, "rental_uris": {"ios": "https://dc.lft.to/lastmile_qr_scan", "android": "https://dc.lft.to/lastmile_qr_scan"}, "bike_id": "3f1e4a916f0ba28ca5651a10c5b489c0", "lat": 38.92157383333333, "name": "3f1e4a916f0ba28ca5651a10c5b489c0", "lon": -77.03383083333334, "fusion_lon": 0.0}, {"is_reserved": 0, "type": "electric_scooter", "fusion_lat": 0.0, "is_disabled": 0, "rental_uris": {"ios": "https://dc.lft.to/lastmile_qr_scan", "android": "https://dc.lft.to/lastmile_qr_scan"}, "bike_id": "017d6211ddeb8e8e67d52eb0c6495257", "lat": 38.93186016666667, "name": "017d6211ddeb8e8e67d52eb0c6495257", "lon": -77.03265816666666, "fusion_lon": 0.0}, {"is_reserved": 0, "type": "electric_scooter", "fusion_lat": 0.0, "is_disabled": 0, "rental_uris": {"ios": "https://dc.lft.to/lastmile_qr_scan", "android": "https://dc.lft.to/lastmile_qr_scan"}, "bike_id": "0488ed41313d52ab3a53a1eda32e39d7", "lat": 38.9467725, "name": "0488ed41313d52ab3a53a1eda32e39d7", "lon": -77.032826, "fusion_lon": 0.0}, {"is_reserved": 0, "type": "electric_scooter", "fusion_lat": 0.0, "is_disabled": 0, "rental_uris": {"ios": "https://dc.lft.to/lastmile_qr_scan", "android": "https://dc.lft.to/lastmile_qr_scan"}, "bike_id": "dd86e17dc9cc5c6d30f0eabf738ab959", "lat": 38.938523333333336, "name": "dd86e17dc9cc5c6d30f0eabf738ab959", "lon": -77.02457233333334, "fusion_lon": 0.0}, {"is_reserved": 0, "type": "electric_scooter", "fusion_lat": 0.0, "is_disabled": 0, "rental_uris": {"ios": "https://dc.lft.to/lastmile_qr_scan", "android": "https://dc.lft.to/lastmile_qr_scan"}, "bike_id": "3788f273833e5ad4537c3948b3fd7c77", "lat": 38.893297, "name": "3788f273833e5ad4537c3948b3fd7c77", "lon": -76.93927716666667, "fusion_lon": 0.0}, {"is_reserved": 0, "type": "electric_scooter", "fusion_lat": 0.0, "is_disabled": 0, "rental_uris": {"ios": "https://dc.lft.to/lastmile_qr_scan", "android": "https://dc.lft.to/lastmile_qr_scan"}, "bike_id": "6e5a202f8d7b443330fa4472967054f0", "lat": 38.936948, "name": "6e5a202f8d7b443330fa4472967054f0", "lon": -77.05597083333333, "fusion_lon": 0.0}, {"is_reserved": 0, "type": "electric_scooter", "fusion_lat": 0.0, "is_disabled": 0, "rental_uris": {"ios": "https://dc.lft.to/lastmile_qr_scan", "android": "https://dc.lft.to/lastmile_qr_scan"}, "bike_id": "1c222b928de0984593b7f3bdbfe4fa0a", "lat": 38.912607, "name": "1c222b928de0984593b7f3bdbfe4fa0a", "lon": -77.01027183333333, "fusion_lon": 0.0}, {"is_reserved": 0, "type": "electric_scooter", "fusion_lat": 0.0, "is_disabled": 0, "rental_uris": {"ios": "https://dc.lft.to/lastmile_qr_scan", "android": "https://dc.lft.to/lastmile_qr_scan"}, "bike_id": "284949c86298eafd77347afcb294795f", "lat": 38.892263666666665, "name": "284949c86298eafd77347afcb294795f", "lon": -77.03222483333333, "fusion_lon": 0.0}, {"is_reserved": 0, "type": "electric_scooter", "fusion_lat": 0.0, "is_disabled": 0, "rental_uris": {"ios": "https://dc.lft.to/lastmile_qr_scan", "android": "https://dc.lft.to/lastmile_qr_scan"}, "bike_id": "ca5ff2e7bb9a75352b1034b1ee6b7e48", "lat": 38.920331166666664, "name": "ca5ff2e7bb9a75352b1034b1ee6b7e48", "lon": -77.02590116666667, "fusion_lon": 0.0}, {"is_reserved": 0, "type": "electric_scooter", "fusion_lat": 0.0, "is_disabled": 0, "rental_uris": {"ios": "https://dc.lft.to/lastmile_qr_scan", "android": "https://dc.lft.to/lastmile_qr_scan"}, "bike_id": "7c5c02c5160e50f79567d0dea495b806", "lat": 38.885835666666665, "name": "7c5c02c5160e50f79567d0dea495b806", "lon": -77.01225983333333, "fusion_lon": 0.0}, {"is_reserved": 0, "type": "electric_scooter", "fusion_lat": 0.0, "is_disabled": 0, "rental_uris": {"ios": "https://dc.lft.to/lastmile_qr_scan", "android": "https://dc.lft.to/lastmile_qr_scan"}, "bike_id": "f40545eab185930f381ccb9c6f9deddc", "lat": 38.90203016666667, "name": "f40545eab185930f381ccb9c6f9deddc", "lon": -77.02372583333333, "fusion_lon": 0.0}, {"is_reserved": 0, "type": "electric_scooter", "fusion_lat": 0.0, "is_disabled": 0, "rental_uris": {"ios": "https://dc.lft.to/lastmile_qr_scan", "android": "https://dc.lft.to/lastmile_qr_scan"}, "bike_id": "22ef9d806e38a31824c94ead211708c3", "lat": 38.952558, "name": "22ef9d806e38a31824c94ead211708c3", "lon": -77.02072483333333, "fusion_lon": 0.0}, {"is_reserved": 0, "type": "electric_scooter", "fusion_lat": 0.0, "is_disabled": 0, "rental_uris": {"ios": "https://dc.lft.to/lastmile_qr_scan", "android": "https://dc.lft.to/lastmile_qr_scan"}, "bike_id": "16190b3153e9c608a249e27ce3ff49b2", "lat": 38.8990845, "name": "16190b3153e9c608a249e27ce3ff49b2", "lon": -77.0231055, "fusion_lon": 0.0}, {"is_reserved": 0, "type": "electric_scooter", "fusion_lat": 0.0, "is_disabled": 0, "rental_uris": {"ios": "https://dc.lft.to/lastmile_qr_scan", "android": "https://dc.lft.to/lastmile_qr_scan"}, "bike_id": "f4af348b43d474b3d4de17654fc43f4e", "lat": 38.924627666666666, "name": "f4af348b43d474b3d4de17654fc43f4e", "lon": -77.03778083333333, "fusion_lon": 0.0}, {"is_reserved": 0, "type": "electric_scooter", "fusion_lat": 0.0, "is_disabled": 0, "rental_uris": {"ios": "https://dc.lft.to/lastmile_qr_scan", "android": "https://dc.lft.to/lastmile_qr_scan"}, "bike_id": "6cd9020db5d62e327b3b036edaa7c413", "lat": 38.920729666666666, "name": "6cd9020db5d62e327b3b036edaa7c413", "lon": -77.02420266666667, "fusion_lon": 0.0}, {"is_reserved": 0, "type": "electric_scooter", "fusion_lat": 0.0, "is_disabled": 0, "rental_uris": {"ios": "https://dc.lft.to/lastmile_qr_scan", "android": "https://dc.lft.to/lastmile_qr_scan"}, "bike_id": "62863a8c4d3ed6f7b8023816a1efbbbf", "lat": 38.9204305, "name": "62863a8c4d3ed6f7b8023816a1efbbbf", "lon": -77.02607716666667, "fusion_lon": 0.0}, {"is_reserved": 0, "type": "electric_scooter", "fusion_lat": 0.0, "is_disabled": 0, "rental_uris": {"ios": "https://dc.lft.to/lastmile_qr_scan", "android": "https://dc.lft.to/lastmile_qr_scan"}, "bike_id": "6206fb26d44e611687b2addbff4ff71f", "lat": 38.92987766666667, "name": "6206fb26d44e611687b2addbff4ff71f", "lon": -77.03472516666666, "fusion_lon": 0.0}, {"is_reserved": 0, "type": "electric_scooter", "fusion_lat": 0.0, "is_disabled": 0, "rental_uris": {"ios": "https://dc.lft.to/lastmile_qr_scan", "android": "https://dc.lft.to/lastmile_qr_scan"}, "bike_id": "3b4b21d2e52c69dbe33a7000dbd1b786", "lat": 38.887293666666665, "name": "3b4b21d2e52c69dbe33a7000dbd1b786", "lon": -76.983774, "fusion_lon": 0.0}, {"is_reserved": 0, "type": "electric_scooter", "fusion_lat": 0.0, "is_disabled": 0, "rental_uris": {"ios": "https://dc.lft.to/lastmile_qr_scan", "android": "https://dc.lft.to/lastmile_qr_scan"}, "bike_id": "ff41e7d183d6008611c2fad67350cd84", "lat": 38.875714, "name": "ff41e7d183d6008611c2fad67350cd84", "lon": -77.00602966666666, "fusion_lon": 0.0}, {"is_reserved": 0, "type": "electric_scooter", "fusion_lat": 0.0, "is_disabled": 0, "rental_uris": {"ios": "https://dc.lft.to/lastmile_qr_scan", "android": "https://dc.lft.to/lastmile_qr_scan"}, "bike_id": "d6101b46039d7d6b1b6d5658f00b47cf", "lat": 38.899510166666666, "name": "d6101b46039d7d6b1b6d5658f00b47cf", "lon": -77.04744766666667, "fusion_lon": 0.0}, {"is_reserved": 0, "type": "electric_scooter", "fusion_lat": 0.0, "is_disabled": 0, "rental_uris": {"ios": "https://dc.lft.to/lastmile_qr_scan", "android": "https://dc.lft.to/lastmile_qr_scan"}, "bike_id": "811391c040810cfe7d0c54a868711a6d", "lat": 38.88104383333334, "name": "811391c040810cfe7d0c54a868711a6d", "lon": -76.98771183333334, "fusion_lon": 0.0}, {"is_reserved": 0, "type": "electric_scooter", "fusion_lat": 0.0, "is_disabled": 0, "rental_uris": {"ios": "https://dc.lft.to/lastmile_qr_scan", "android": "https://dc.lft.to/lastmile_qr_scan"}, "bike_id": "aaccd0118261243f620ba612fac023b6", "lat": 38.910459, "name": "aaccd0118261243f620ba612fac023b6", "lon": -77.02681333333334, "fusion_lon": 0.0}, {"is_reserved": 0, "type": "electric_scooter", "fusion_lat": 0.0, "is_disabled": 0, "rental_uris": {"ios": "https://dc.lft.to/lastmile_qr_scan", "android": "https://dc.lft.to/lastmile_qr_scan"}, "bike_id": "b739cfca9219516121460e690c07683c", "lat": 38.9108195, "name": "b739cfca9219516121460e690c07683c", "lon": -77.02170166666667, "fusion_lon": 0.0}, {"is_reserved": 0, "type": "electric_scooter", "fusion_lat": 0.0, "is_disabled": 0, "rental_uris": {"ios": "https://dc.lft.to/lastmile_qr_scan", "android": "https://dc.lft.to/lastmile_qr_scan"}, "bike_id": "d8e19d978967d58d8e8b654b27a19d7b", "lat": 38.8950025, "name": "d8e19d978967d58d8e8b654b27a19d7b", "lon": -77.02283083333333, "fusion_lon": 0.0}, {"is_reserved": 0, "type": "electric_scooter", "fusion_lat": 0.0, "is_disabled": 0, "rental_uris": {"ios": "https://dc.lft.to/lastmile_qr_scan", "android": "https://dc.lft.to/lastmile_qr_scan"}, "bike_id": "c031ab93b83818d7cc9157f90b6f1b83", "lat": 38.920600666666665, "name": "c031ab93b83818d7cc9157f90b6f1b83", "lon": -77.0439785, "fusion_lon": 0.0}, {"is_reserved": 0, "type": "electric_scooter", "fusion_lat": 0.0, "is_disabled": 0, "rental_uris": {"ios": "https://dc.lft.to/lastmile_qr_scan", "android": "https://dc.lft.to/lastmile_qr_scan"}, "bike_id": "fa2db2994229003d3c273a1822772c7a", "lat": 38.91704433333334, "name": "fa2db2994229003d3c273a1822772c7a", "lon": -77.023055, "fusion_lon": 0.0}, {"is_reserved": 0, "type": "electric_scooter", "fusion_lat": 0.0, "is_disabled": 0, "rental_uris": {"ios": "https://dc.lft.to/lastmile_qr_scan", "android": "https://dc.lft.to/lastmile_qr_scan"}, "bike_id": "9052cfacdaac3ae92d0c2fa95fb5cafe", "lat": 38.88573516666666, "name": "9052cfacdaac3ae92d0c2fa95fb5cafe", "lon": -77.01207166666667, "fusion_lon": 0.0}, {"is_reserved": 0, "type": "electric_scooter", "fusion_lat": 0.0, "is_disabled": 0, "rental_uris": {"ios": "https://dc.lft.to/lastmile_qr_scan", "android": "https://dc.lft.to/lastmile_qr_scan"}, "bike_id": "53d776a97b00838c24089a6e63bcef69", "lat": 38.917832833333335, "name": "53d776a97b00838c24089a6e63bcef69", "lon": -77.02397783333333, "fusion_lon": 0.0}, {"is_reserved": 0, "type": "electric_scooter", "fusion_lat": 0.0, "is_disabled": 0, "rental_uris": {"ios": "https://dc.lft.to/lastmile_qr_scan", "android": "https://dc.lft.to/lastmile_qr_scan"}, "bike_id": "81a0b4f84e74de8a39718f8703a29ed1", "lat": 38.9056945, "name": "81a0b4f84e74de8a39718f8703a29ed1", "lon": -76.97629316666666, "fusion_lon": 0.0}, {"is_reserved": 0, "type": "electric_bike", "fusion_lat": 0.0, "is_disabled": 0, "rental_uris": {"ios": "https://dc.lft.to/lastmile_qr_scan", "android": "https://dc.lft.to/lastmile_qr_scan"}, "bike_id": "9a1b58d3cf554c65190b1ae906358fb8", "lat": 38.846163833333335, "name": "9a1b58d3cf554c65190b1ae906358fb8", "lon": -76.978357, "fusion_lon": 0.0}, {"is_reserved": 0, "type": "electric_scooter", "fusion_lat": 0.0, "is_disabled": 0, "rental_uris": {"ios": "https://dc.lft.to/lastmile_qr_scan", "android": "https://dc.lft.to/lastmile_qr_scan"}, "bike_id": "81e940356bf8c920f9fdfd3735c8531d", "lat": 38.907250833333336, "name": "81e940356bf8c920f9fdfd3735c8531d", "lon": -77.01135616666667, "fusion_lon": 0.0}, {"is_reserved": 0, "type": "electric_scooter", "fusion_lat": 0.0, "is_disabled": 0, "rental_uris": {"ios": "https://dc.lft.to/lastmile_qr_scan", "android": "https://dc.lft.to/lastmile_qr_scan"}, "bike_id": "630b153d136dd7b3a19e745ac6aeb022", "lat": 38.908146, "name": "630b153d136dd7b3a19e745ac6aeb022", "lon": -77.08423833333333, "fusion_lon": 0.0}, {"is_reserved": 0, "type": "electric_scooter", "fusion_lat": 0.0, "is_disabled": 0, "rental_uris": {"ios": "https://dc.lft.to/lastmile_qr_scan", "android": "https://dc.lft.to/lastmile_qr_scan"}, "bike_id": "a031e48148a44c7c3958c974224afb0a", "lat": 38.90433383333333, "name": "a031e48148a44c7c3958c974224afb0a", "lon": -76.97948466666666, "fusion_lon": 0.0}, {"is_reserved": 0, "type": "electric_scooter", "fusion_lat": 0.0, "is_disabled": 0, "rental_uris": {"ios": "https://dc.lft.to/lastmile_qr_scan", "android": "https://dc.lft.to/lastmile_qr_scan"}, "bike_id": "e590960b25acb65d14da9e75b8129268", "lat": 38.908555, "name": "e590960b25acb65d14da9e75b8129268", "lon": -77.02662, "fusion_lon": 0.0}, {"is_reserved": 0, "type": "electric_scooter", "fusion_lat": 0.0, "is_disabled": 0, "rental_uris": {"ios": "https://dc.lft.to/lastmile_qr_scan", "android": "https://dc.lft.to/lastmile_qr_scan"}, "bike_id": "f6590ae1ab24988600ef8a44aae76c03", "lat": 38.91704, "name": "f6590ae1ab24988600ef8a44aae76c03", "lon": -77.02303716666667, "fusion_lon": 0.0}, {"is_reserved": 0, "type": "electric_scooter", "fusion_lat": 0.0, "is_disabled": 0, "rental_uris": {"ios": "https://dc.lft.to/lastmile_qr_scan", "android": "https://dc.lft.to/lastmile_qr_scan"}, "bike_id": "3db00d0a14792fb42a3fff876e095f21", "lat": 38.924706666666665, "name": "3db00d0a14792fb42a3fff876e095f21", "lon": -77.02215016666666, "fusion_lon": 0.0}, {"is_reserved": 0, "type": "electric_scooter", "fusion_lat": 0.0, "is_disabled": 0, "rental_uris": {"ios": "https://dc.lft.to/lastmile_qr_scan", "android": "https://dc.lft.to/lastmile_qr_scan"}, "bike_id": "d102d2f618883b5e2f0f29f2611f238a", "lat": 38.913753666666665, "name": "d102d2f618883b5e2f0f29f2611f238a", "lon": -77.06435183333333, "fusion_lon": 0.0}, {"is_reserved": 0, "type": "electric_scooter", "fusion_lat": 0.0, "is_disabled": 0, "rental_uris": {"ios": "https://dc.lft.to/lastmile_qr_scan", "android": "https://dc.lft.to/lastmile_qr_scan"}, "bike_id": "b23e44068e5be95b73dd7cb8a21bd168", "lat": 38.887115666666666, "name": "b23e44068e5be95b73dd7cb8a21bd168", "lon": -76.98342533333333, "fusion_lon": 0.0}, {"is_reserved": 0, "type": "electric_scooter", "fusion_lat": 0.0, "is_disabled": 0, "rental_uris": {"ios": "https://dc.lft.to/lastmile_qr_scan", "android": "https://dc.lft.to/lastmile_qr_scan"}, "bike_id": "ea38b9881c618dfed7bc78919b6d1194", "lat": 38.94272483333334, "name": "ea38b9881c618dfed7bc78919b6d1194", "lon": -77.029316, "fusion_lon": 0.0}, {"is_reserved": 0, "type": "electric_scooter", "fusion_lat": 0.0, "is_disabled": 0, "rental_uris": {"ios": "https://dc.lft.to/lastmile_qr_scan", "android": "https://dc.lft.to/lastmile_qr_scan"}, "bike_id": "1dc0fd0c87d961f9bd55258780f18d86", "lat": 38.92729583333333, "name": "1dc0fd0c87d961f9bd55258780f18d86", "lon": -77.0208305, "fusion_lon": 0.0}, {"is_reserved": 0, "type": "electric_scooter", "fusion_lat": 0.0, "is_disabled": 0, "rental_uris": {"ios": "https://dc.lft.to/lastmile_qr_scan", "android": "https://dc.lft.to/lastmile_qr_scan"}, "bike_id": "ce3607e0d2b63c29bffb7dd7d69af555", "lat": 38.909734, "name": "ce3607e0d2b63c29bffb7dd7d69af555", "lon": -77.02406466666666, "fusion_lon": 0.0}, {"is_reserved": 0, "type": "electric_scooter", "fusion_lat": 0.0, "is_disabled": 0, "rental_uris": {"ios": "https://dc.lft.to/lastmile_qr_scan", "android": "https://dc.lft.to/lastmile_qr_scan"}, "bike_id": "7c09f8b79b3c6a6d07c3ebb0cf48216d", "lat": 38.90587, "name": "7c09f8b79b3c6a6d07c3ebb0cf48216d", "lon": -77.06588416666666, "fusion_lon": 0.0}, {"is_reserved": 0, "type": "electric_scooter", "fusion_lat": 0.0, "is_disabled": 0, "rental_uris": {"ios": "https://dc.lft.to/lastmile_qr_scan", "android": "https://dc.lft.to/lastmile_qr_scan"}, "bike_id": "d9e04b22a4e90bd2239c7385772dc83f", "lat": 38.905583166666666, "name": "d9e04b22a4e90bd2239c7385772dc83f", "lon": -77.05345283333334, "fusion_lon": 0.0}, {"is_reserved": 0, "type": "electric_scooter", "fusion_lat": 0.0, "is_disabled": 0, "rental_uris": {"ios": "https://dc.lft.to/lastmile_qr_scan", "android": "https://dc.lft.to/lastmile_qr_scan"}, "bike_id": "de78d5cbeacdeb617a2bac28222698c7", "lat": 38.898568, "name": "de78d5cbeacdeb617a2bac28222698c7", "lon": -77.03950983333333, "fusion_lon": 0.0}, {"is_reserved": 0, "type": "electric_scooter", "fusion_lat": 0.0, "is_disabled": 0, "rental_uris": {"ios": "https://dc.lft.to/lastmile_qr_scan", "android": "https://dc.lft.to/lastmile_qr_scan"}, "bike_id": "95ef380711b1e8e283e5630bfa5d62ae", "lat": 38.91706033333333, "name": "95ef380711b1e8e283e5630bfa5d62ae", "lon": -77.02416066666666, "fusion_lon": 0.0}, {"is_reserved": 0, "type": "electric_bike", "fusion_lat": 0.0, "is_disabled": 0, "rental_uris": {"ios": "https://dc.lft.to/lastmile_qr_scan", "android": "https://dc.lft.to/lastmile_qr_scan"}, "bike_id": "359e3ddcb49d52a95a150d4341d4a3f9", "lat": 38.875175, "name": "359e3ddcb49d52a95a150d4341d4a3f9", "lon": -77.0083775, "fusion_lon": 0.0}, {"is_reserved": 0, "type": "electric_scooter", "fusion_lat": 0.0, "is_disabled": 0, "rental_uris": {"ios": "https://dc.lft.to/lastmile_qr_scan", "android": "https://dc.lft.to/lastmile_qr_scan"}, "bike_id": "f409f7b84fdd73e73029bd3087650120", "lat": 38.946459, "name": "f409f7b84fdd73e73029bd3087650120", "lon": -77.01746416666667, "fusion_lon": 0.0}, {"is_reserved": 0, "type": "electric_scooter", "fusion_lat": 0.0, "is_disabled": 0, "rental_uris": {"ios": "https://dc.lft.to/lastmile_qr_scan", "android": "https://dc.lft.to/lastmile_qr_scan"}, "bike_id": "4a7f10a22f7d9b2ad7819c9343f4cdeb", "lat": 38.92859416666667, "name": "4a7f10a22f7d9b2ad7819c9343f4cdeb", "lon": -77.0328445, "fusion_lon": 0.0}, {"is_reserved": 0, "type": "electric_scooter", "fusion_lat": 0.0, "is_disabled": 0, "rental_uris": {"ios": "https://dc.lft.to/lastmile_qr_scan", "android": "https://dc.lft.to/lastmile_qr_scan"}, "bike_id": "2a1c7c198f5678bebbcfefe645661212", "lat": 38.91625616666666, "name": "2a1c7c198f5678bebbcfefe645661212", "lon": -77.04151416666667, "fusion_lon": 0.0}, {"is_reserved": 0, "type": "electric_bike", "fusion_lat": 0.0, "is_disabled": 0, "rental_uris": {"ios": "https://dc.lft.to/lastmile_qr_scan", "android": "https://dc.lft.to/lastmile_qr_scan"}, "bike_id": "1de21b9024938cba051c888080ba5c80", "lat": 38.813303166666664, "name": "1de21b9024938cba051c888080ba5c80", "lon": -77.050802, "fusion_lon": 0.0}, {"is_reserved": 0, "type": "electric_scooter", "fusion_lat": 0.0, "is_disabled": 0, "rental_uris": {"ios": "https://dc.lft.to/lastmile_qr_scan", "android": "https://dc.lft.to/lastmile_qr_scan"}, "bike_id": "6a09892118ab5f35456530ddb809fa2c", "lat": 38.89761816666667, "name": "6a09892118ab5f35456530ddb809fa2c", "lon": -77.047785, "fusion_lon": 0.0}, {"is_reserved": 0, "type": "electric_scooter", "fusion_lat": 0.0, "is_disabled": 0, "rental_uris": {"ios": "https://dc.lft.to/lastmile_qr_scan", "android": "https://dc.lft.to/lastmile_qr_scan"}, "bike_id": "149d336c23c54b422b78e088429445cb", "lat": 38.916607, "name": "149d336c23c54b422b78e088429445cb", "lon": -77.023017, "fusion_lon": 0.0}, {"is_reserved": 0, "type": "electric_scooter", "fusion_lat": 0.0, "is_disabled": 0, "rental_uris": {"ios": "https://dc.lft.to/lastmile_qr_scan", "android": "https://dc.lft.to/lastmile_qr_scan"}, "bike_id": "70cd9c89d161d83309f35b6ec42fe65f", "lat": 38.919141833333335, "name": "70cd9c89d161d83309f35b6ec42fe65f", "lon": -77.034263, "fusion_lon": 0.0}, {"is_reserved": 0, "type": "electric_scooter", "fusion_lat": 0.0, "is_disabled": 0, "rental_uris": {"ios": "https://dc.lft.to/lastmile_qr_scan", "android": "https://dc.lft.to/lastmile_qr_scan"}, "bike_id": "7dffd6cb9f49266f9e49022d52722fc3", "lat": 38.9170195, "name": "7dffd6cb9f49266f9e49022d52722fc3", "lon": -77.02408033333333, "fusion_lon": 0.0}, {"is_reserved": 0, "type": "electric_scooter", "fusion_lat": 0.0, "is_disabled": 0, "rental_uris": {"ios": "https://dc.lft.to/lastmile_qr_scan", "android": "https://dc.lft.to/lastmile_qr_scan"}, "bike_id": "5aa0d1009cb0fcf8694cc431443f451a", "lat": 38.912493833333336, "name": "5aa0d1009cb0fcf8694cc431443f451a", "lon": -76.9866695, "fusion_lon": 0.0}, {"is_reserved": 0, "type": "electric_bike", "fusion_lat": 0.0, "is_disabled": 0, "rental_uris": {"ios": "https://dc.lft.to/lastmile_qr_scan", "android": "https://dc.lft.to/lastmile_qr_scan"}, "bike_id": "8117d4c1bb6afb020eb4bcb1ff32a936", "lat": 38.805217999999996, "name": "8117d4c1bb6afb020eb4bcb1ff32a936", "lon": -77.04340566666667, "fusion_lon": 0.0}, {"is_reserved": 0, "type": "electric_scooter", "fusion_lat": 0.0, "is_disabled": 0, "rental_uris": {"ios": "https://dc.lft.to/lastmile_qr_scan", "android": "https://dc.lft.to/lastmile_qr_scan"}, "bike_id": "6c604934de74149cf6e1562b42e1a631", "lat": 38.975007, "name": "6c604934de74149cf6e1562b42e1a631", "lon": -77.01693783333333, "fusion_lon": 0.0}, {"is_reserved": 0, "type": "electric_scooter", "fusion_lat": 0.0, "is_disabled": 0, "rental_uris": {"ios": "https://dc.lft.to/lastmile_qr_scan", "android": "https://dc.lft.to/lastmile_qr_scan"}, "bike_id": "b748f7be6a4a4e0d7310eedf33a3c1a2", "lat": 38.91544716666667, "name": "b748f7be6a4a4e0d7310eedf33a3c1a2", "lon": -77.02026283333333, "fusion_lon": 0.0}, {"is_reserved": 0, "type": "electric_scooter", "fusion_lat": 0.0, "is_disabled": 0, "rental_uris": {"ios": "https://dc.lft.to/lastmile_qr_scan", "android": "https://dc.lft.to/lastmile_qr_scan"}, "bike_id": "319eef25e97f878d3338421370aa892d", "lat": 38.921711, "name": "319eef25e97f878d3338421370aa892d", "lon": -77.03829966666666, "fusion_lon": 0.0}, {"is_reserved": 0, "type": "electric_scooter", "fusion_lat": 0.0, "is_disabled": 0, "rental_uris": {"ios": "https://dc.lft.to/lastmile_qr_scan", "android": "https://dc.lft.to/lastmile_qr_scan"}, "bike_id": "fb09778a74c89cb51f2f1f60c5f204b5", "lat": 38.901010166666666, "name": "fb09778a74c89cb51f2f1f60c5f204b5", "lon": -77.01820666666667, "fusion_lon": 0.0}, {"is_reserved": 0, "type": "electric_bike", "fusion_lat": 0.0, "is_disabled": 0, "rental_uris": {"ios": "https://dc.lft.to/lastmile_qr_scan", "android": "https://dc.lft.to/lastmile_qr_scan"}, "bike_id": "7f318974c5e3d874b3845e415f9a69f1", "lat": 38.851872666666665, "name": "7f318974c5e3d874b3845e415f9a69f1", "lon": -76.9955755, "fusion_lon": 0.0}, {"is_reserved": 0, "type": "electric_bike", "fusion_lat": 0.0, "is_disabled": 0, "rental_uris": {"ios": "https://dc.lft.to/lastmile_qr_scan", "android": "https://dc.lft.to/lastmile_qr_scan"}, "bike_id": "3bf9908d377102019c02570cb9b1a15a", "lat": 38.865523833333334, "name": "3bf9908d377102019c02570cb9b1a15a", "lon": -76.941507, "fusion_lon": 0.0}, {"is_reserved": 0, "type": "electric_scooter", "fusion_lat": 0.0, "is_disabled": 0, "rental_uris": {"ios": "https://dc.lft.to/lastmile_qr_scan", "android": "https://dc.lft.to/lastmile_qr_scan"}, "bike_id": "18a7026ac4830e7483c0df1cc1ee47c5", "lat": 38.9045665, "name": "18a7026ac4830e7483c0df1cc1ee47c5", "lon": -76.93369066666666, "fusion_lon": 0.0}, {"is_reserved": 0, "type": "electric_scooter", "fusion_lat": 0.0, "is_disabled": 0, "rental_uris": {"ios": "https://dc.lft.to/lastmile_qr_scan", "android": "https://dc.lft.to/lastmile_qr_scan"}, "bike_id": "df169a8b6926b92e18a1f79d8533472a", "lat": 38.89777183333333, "name": "df169a8b6926b92e18a1f79d8533472a", "lon": -77.050187, "fusion_lon": 0.0}, {"is_reserved": 0, "type": "electric_scooter", "fusion_lat": 0.0, "is_disabled": 0, "rental_uris": {"ios": "https://dc.lft.to/lastmile_qr_scan", "android": "https://dc.lft.to/lastmile_qr_scan"}, "bike_id": "be766af5a77950581542087976514b3b", "lat": 38.892167666666666, "name": "be766af5a77950581542087976514b3b", "lon": -77.02540283333333, "fusion_lon": 0.0}, {"is_reserved": 0, "type": "electric_scooter", "fusion_lat": 0.0, "is_disabled": 0, "rental_uris": {"ios": "https://dc.lft.to/lastmile_qr_scan", "android": "https://dc.lft.to/lastmile_qr_scan"}, "bike_id": "6b650fe8472cb6cd63db7ab83b39c7bf", "lat": 38.906768, "name": "6b650fe8472cb6cd63db7ab83b39c7bf", "lon": -77.06493033333334, "fusion_lon": 0.0}, {"is_reserved": 0, "type": "electric_scooter", "fusion_lat": 0.0, "is_disabled": 0, "rental_uris": {"ios": "https://dc.lft.to/lastmile_qr_scan", "android": "https://dc.lft.to/lastmile_qr_scan"}, "bike_id": "91b56366ca773dc7a9d5953174ef7b09", "lat": 38.928844, "name": "91b56366ca773dc7a9d5953174ef7b09", "lon": -77.0373815, "fusion_lon": 0.0}, {"is_reserved": 0, "type": "electric_scooter", "fusion_lat": 0.0, "is_disabled": 0, "rental_uris": {"ios": "https://dc.lft.to/lastmile_qr_scan", "android": "https://dc.lft.to/lastmile_qr_scan"}, "bike_id": "503b0e70d7ef380c68ab081f0e36b71a", "lat": 38.901993833333336, "name": "503b0e70d7ef380c68ab081f0e36b71a", "lon": -77.00070883333333, "fusion_lon": 0.0}, {"is_reserved": 0, "type": "electric_scooter", "fusion_lat": 0.0, "is_disabled": 0, "rental_uris": {"ios": "https://dc.lft.to/lastmile_qr_scan", "android": "https://dc.lft.to/lastmile_qr_scan"}, "bike_id": "f45fc19eef7ef65b5118ab95f3d9c233", "lat": 38.92184566666667, "name": "f45fc19eef7ef65b5118ab95f3d9c233", "lon": -76.956423, "fusion_lon": 0.0}, {"is_reserved": 0, "type": "electric_scooter", "fusion_lat": 0.0, "is_disabled": 0, "rental_uris": {"ios": "https://dc.lft.to/lastmile_qr_scan", "android": "https://dc.lft.to/lastmile_qr_scan"}, "bike_id": "7e65a4b86c735305e1e85790061e87e2", "lat": 38.924995, "name": "7e65a4b86c735305e1e85790061e87e2", "lon": -77.043421, "fusion_lon": 0.0}, {"is_reserved": 0, "type": "electric_scooter", "fusion_lat": 0.0, "is_disabled": 0, "rental_uris": {"ios": "https://dc.lft.to/lastmile_qr_scan", "android": "https://dc.lft.to/lastmile_qr_scan"}, "bike_id": "5ef4477bad2c9736f44691bb40951d5c", "lat": 38.887069833333335, "name": "5ef4477bad2c9736f44691bb40951d5c", "lon": -76.983399, "fusion_lon": 0.0}, {"is_reserved": 0, "type": "electric_scooter", "fusion_lat": 0.0, "is_disabled": 0, "rental_uris": {"ios": "https://dc.lft.to/lastmile_qr_scan", "android": "https://dc.lft.to/lastmile_qr_scan"}, "bike_id": "3f3e694665484a6692b7f13237be5425", "lat": 38.9420095, "name": "3f3e694665484a6692b7f13237be5425", "lon": -77.01334933333334, "fusion_lon": 0.0}, {"is_reserved": 0, "type": "electric_scooter", "fusion_lat": 0.0, "is_disabled": 0, "rental_uris": {"ios": "https://dc.lft.to/lastmile_qr_scan", "android": "https://dc.lft.to/lastmile_qr_scan"}, "bike_id": "4640333d3389faeec7980d3af48cee14", "lat": 38.921823833333335, "name": "4640333d3389faeec7980d3af48cee14", "lon": -77.04259616666667, "fusion_lon": 0.0}, {"is_reserved": 0, "type": "electric_bike", "fusion_lat": 0.0, "is_disabled": 0, "rental_uris": {"ios": "https://dc.lft.to/lastmile_qr_scan", "android": "https://dc.lft.to/lastmile_qr_scan"}, "bike_id": "0d714fc928ef73325529a5e8966149b5", "lat": 38.882783833333335, "name": "0d714fc928ef73325529a5e8966149b5", "lon": -76.93229566666666, "fusion_lon": 0.0}, {"is_reserved": 0, "type": "electric_scooter", "fusion_lat": 0.0, "is_disabled": 0, "rental_uris": {"ios": "https://dc.lft.to/lastmile_qr_scan", "android": "https://dc.lft.to/lastmile_qr_scan"}, "bike_id": "d87136e16dea7ce54e4b322618bc0df6", "lat": 38.91972233333333, "name": "d87136e16dea7ce54e4b322618bc0df6", "lon": -77.07116566666667, "fusion_lon": 0.0}, {"is_reserved": 0, "type": "electric_scooter", "fusion_lat": 0.0, "is_disabled": 0, "rental_uris": {"ios": "https://dc.lft.to/lastmile_qr_scan", "android": "https://dc.lft.to/lastmile_qr_scan"}, "bike_id": "eb4a411adce6f4afdf0c0df64ffe70a6", "lat": 38.920738, "name": "eb4a411adce6f4afdf0c0df64ffe70a6", "lon": -77.02312733333333, "fusion_lon": 0.0}, {"is_reserved": 0, "type": "electric_scooter", "fusion_lat": 0.0, "is_disabled": 0, "rental_uris": {"ios": "https://dc.lft.to/lastmile_qr_scan", "android": "https://dc.lft.to/lastmile_qr_scan"}, "bike_id": "3ed4cf9a7de1b6f5862a9034ca5291ae", "lat": 38.907286666666664, "name": "3ed4cf9a7de1b6f5862a9034ca5291ae", "lon": -77.0242005, "fusion_lon": 0.0}, {"is_reserved": 0, "type": "electric_scooter", "fusion_lat": 0.0, "is_disabled": 0, "rental_uris": {"ios": "https://dc.lft.to/lastmile_qr_scan", "android": "https://dc.lft.to/lastmile_qr_scan"}, "bike_id": "0e54f0bacf8c3e46b7e77af792d5037a", "lat": 38.930726, "name": "0e54f0bacf8c3e46b7e77af792d5037a", "lon": -77.0320175, "fusion_lon": 0.0}, {"is_reserved": 0, "type": "electric_scooter", "fusion_lat": 0.0, "is_disabled": 0, "rental_uris": {"ios": "https://dc.lft.to/lastmile_qr_scan", "android": "https://dc.lft.to/lastmile_qr_scan"}, "bike_id": "b888ff1b6675582efb4d2b7a9f394229", "lat": 38.9398085, "name": "b888ff1b6675582efb4d2b7a9f394229", "lon": -77.02888566666667, "fusion_lon": 0.0}, {"is_reserved": 0, "type": "electric_scooter", "fusion_lat": 0.0, "is_disabled": 0, "rental_uris": {"ios": "https://dc.lft.to/lastmile_qr_scan", "android": "https://dc.lft.to/lastmile_qr_scan"}, "bike_id": "9812b3f46dbeda9fc101f58f6ff938e4", "lat": 38.918091833333335, "name": "9812b3f46dbeda9fc101f58f6ff938e4", "lon": -77.03665916666667, "fusion_lon": 0.0}, {"is_reserved": 0, "type": "electric_scooter", "fusion_lat": 0.0, "is_disabled": 0, "rental_uris": {"ios": "https://dc.lft.to/lastmile_qr_scan", "android": "https://dc.lft.to/lastmile_qr_scan"}, "bike_id": "a6c0dc4949c1ab5c8ce0a7561c95d513", "lat": 38.928774, "name": "a6c0dc4949c1ab5c8ce0a7561c95d513", "lon": -77.03445416666666, "fusion_lon": 0.0}, {"is_reserved": 0, "type": "electric_scooter", "fusion_lat": 0.0, "is_disabled": 0, "rental_uris": {"ios": "https://dc.lft.to/lastmile_qr_scan", "android": "https://dc.lft.to/lastmile_qr_scan"}, "bike_id": "384e45584317c495fb11a8053662fac8", "lat": 38.882663, "name": "384e45584317c495fb11a8053662fac8", "lon": -76.995241, "fusion_lon": 0.0}, {"is_reserved": 0, "type": "electric_scooter", "fusion_lat": 0.0, "is_disabled": 0, "rental_uris": {"ios": "https://dc.lft.to/lastmile_qr_scan", "android": "https://dc.lft.to/lastmile_qr_scan"}, "bike_id": "a329d8fc763568724b1d8270815f2c20", "lat": 38.920696, "name": "a329d8fc763568724b1d8270815f2c20", "lon": -77.02509116666667, "fusion_lon": 0.0}, {"is_reserved": 0, "type": "electric_scooter", "fusion_lat": 0.0, "is_disabled": 0, "rental_uris": {"ios": "https://dc.lft.to/lastmile_qr_scan", "android": "https://dc.lft.to/lastmile_qr_scan"}, "bike_id": "d850d7f5acab39385e57f96059f5e827", "lat": 38.9095475, "name": "d850d7f5acab39385e57f96059f5e827", "lon": -77.01382166666667, "fusion_lon": 0.0}, {"is_reserved": 0, "type": "electric_scooter", "fusion_lat": 0.0, "is_disabled": 0, "rental_uris": {"ios": "https://dc.lft.to/lastmile_qr_scan", "android": "https://dc.lft.to/lastmile_qr_scan"}, "bike_id": "f19bfbc93c1d365aa82c7c905db9ce67", "lat": 38.89245416666667, "name": "f19bfbc93c1d365aa82c7c905db9ce67", "lon": -77.01819283333333, "fusion_lon": 0.0}, {"is_reserved": 0, "type": "electric_scooter", "fusion_lat": 0.0, "is_disabled": 0, "rental_uris": {"ios": "https://dc.lft.to/lastmile_qr_scan", "android": "https://dc.lft.to/lastmile_qr_scan"}, "bike_id": "e20f5e4c420eba975773a7facfe844ba", "lat": 38.903333333333336, "name": "e20f5e4c420eba975773a7facfe844ba", "lon": -76.97589883333333, "fusion_lon": 0.0}, {"is_reserved": 0, "type": "electric_scooter", "fusion_lat": 0.0, "is_disabled": 0, "rental_uris": {"ios": "https://dc.lft.to/lastmile_qr_scan", "android": "https://dc.lft.to/lastmile_qr_scan"}, "bike_id": "0f601c722030676aaa68f4bce94b4a9b", "lat": 38.899289833333334, "name": "0f601c722030676aaa68f4bce94b4a9b", "lon": -77.04012433333334, "fusion_lon": 0.0}, {"is_reserved": 0, "type": "electric_scooter", "fusion_lat": 0.0, "is_disabled": 0, "rental_uris": {"ios": "https://dc.lft.to/lastmile_qr_scan", "android": "https://dc.lft.to/lastmile_qr_scan"}, "bike_id": "dea19d441af7369e248f8f7d6f04a277", "lat": 38.93346016666667, "name": "dea19d441af7369e248f8f7d6f04a277", "lon": -76.99438883333333, "fusion_lon": 0.0}, {"is_reserved": 0, "type": "electric_scooter", "fusion_lat": 0.0, "is_disabled": 0, "rental_uris": {"ios": "https://dc.lft.to/lastmile_qr_scan", "android": "https://dc.lft.to/lastmile_qr_scan"}, "bike_id": "309927271698106f1cb34f4995497759", "lat": 38.89924466666667, "name": "309927271698106f1cb34f4995497759", "lon": -77.03207083333334, "fusion_lon": 0.0}, {"is_reserved": 0, "type": "electric_scooter", "fusion_lat": 0.0, "is_disabled": 0, "rental_uris": {"ios": "https://dc.lft.to/lastmile_qr_scan", "android": "https://dc.lft.to/lastmile_qr_scan"}, "bike_id": "fe4f3f5042eca224445f96495dd9be89", "lat": 38.90055233333333, "name": "fe4f3f5042eca224445f96495dd9be89", "lon": -77.0063955, "fusion_lon": 0.0}, {"is_reserved": 0, "type": "electric_scooter", "fusion_lat": 0.0, "is_disabled": 0, "rental_uris": {"ios": "https://dc.lft.to/lastmile_qr_scan", "android": "https://dc.lft.to/lastmile_qr_scan"}, "bike_id": "e9c9e9d1a3369ae68781df2ff59d7da4", "lat": 38.9353085, "name": "e9c9e9d1a3369ae68781df2ff59d7da4", "lon": -77.0235125, "fusion_lon": 0.0}, {"is_reserved": 0, "type": "electric_bike", "fusion_lat": 0.0, "is_disabled": 0, "rental_uris": {"ios": "https://dc.lft.to/lastmile_qr_scan", "android": "https://dc.lft.to/lastmile_qr_scan"}, "bike_id": "de2803a668f53b078808e2a858996532", "lat": 38.8303185, "name": "de2803a668f53b078808e2a858996532", "lon": -77.0082395, "fusion_lon": 0.0}, {"is_reserved": 0, "type": "electric_scooter", "fusion_lat": 0.0, "is_disabled": 0, "rental_uris": {"ios": "https://dc.lft.to/lastmile_qr_scan", "android": "https://dc.lft.to/lastmile_qr_scan"}, "bike_id": "89fc71975dca5d7fb6f46d1b457a7aed", "lat": 38.89965683333333, "name": "89fc71975dca5d7fb6f46d1b457a7aed", "lon": -76.93763433333334, "fusion_lon": 0.0}, {"is_reserved": 0, "type": "electric_scooter", "fusion_lat": 0.0, "is_disabled": 0, "rental_uris": {"ios": "https://dc.lft.to/lastmile_qr_scan", "android": "https://dc.lft.to/lastmile_qr_scan"}, "bike_id": "88b725f47bd4c5ec2a429814cc6e5f89", "lat": 38.903410666666666, "name": "88b725f47bd4c5ec2a429814cc6e5f89", "lon": -77.01106033333333, "fusion_lon": 0.0}, {"is_reserved": 0, "type": "electric_bike", "fusion_lat": 0.0, "is_disabled": 0, "rental_uris": {"ios": "https://dc.lft.to/lastmile_qr_scan", "android": "https://dc.lft.to/lastmile_qr_scan"}, "bike_id": "8c439ccb44d492427a853fb90f4c3829", "lat": 38.8462905, "name": "8c439ccb44d492427a853fb90f4c3829", "lon": -77.06936183333333, "fusion_lon": 0.0}, {"is_reserved": 0, "type": "electric_scooter", "fusion_lat": 0.0, "is_disabled": 0, "rental_uris": {"ios": "https://dc.lft.to/lastmile_qr_scan", "android": "https://dc.lft.to/lastmile_qr_scan"}, "bike_id": "a3659b027a2fc86051a8ec0eeb84b01e", "lat": 38.9207875, "name": "a3659b027a2fc86051a8ec0eeb84b01e", "lon": -77.0365625, "fusion_lon": 0.0}, {"is_reserved": 0, "type": "electric_scooter", "fusion_lat": 0.0, "is_disabled": 0, "rental_uris": {"ios": "https://dc.lft.to/lastmile_qr_scan", "android": "https://dc.lft.to/lastmile_qr_scan"}, "bike_id": "3259eeae2b23aa9d8bac3405c04dbc02", "lat": 38.89195466666666, "name": "3259eeae2b23aa9d8bac3405c04dbc02", "lon": -77.02221583333333, "fusion_lon": 0.0}, {"is_reserved": 0, "type": "electric_scooter", "fusion_lat": 0.0, "is_disabled": 0, "rental_uris": {"ios": "https://dc.lft.to/lastmile_qr_scan", "android": "https://dc.lft.to/lastmile_qr_scan"}, "bike_id": "f71430994e68dbb8de2a2450d4c24e03", "lat": 38.9307325, "name": "f71430994e68dbb8de2a2450d4c24e03", "lon": -77.03663016666667, "fusion_lon": 0.0}, {"is_reserved": 0, "type": "electric_scooter", "fusion_lat": 0.0, "is_disabled": 0, "rental_uris": {"ios": "https://dc.lft.to/lastmile_qr_scan", "android": "https://dc.lft.to/lastmile_qr_scan"}, "bike_id": "ec341257038f9450b69778a1c3a5238d", "lat": 38.9052055, "name": "ec341257038f9450b69778a1c3a5238d", "lon": -77.06792916666667, "fusion_lon": 0.0}, {"is_reserved": 0, "type": "electric_scooter", "fusion_lat": 0.0, "is_disabled": 0, "rental_uris": {"ios": "https://dc.lft.to/lastmile_qr_scan", "android": "https://dc.lft.to/lastmile_qr_scan"}, "bike_id": "383bbb0ad7c05adc5641e253e66d2f8f", "lat": 38.8993135, "name": "383bbb0ad7c05adc5641e253e66d2f8f", "lon": -77.04739916666666, "fusion_lon": 0.0}, {"is_reserved": 0, "type": "electric_scooter", "fusion_lat": 0.0, "is_disabled": 0, "rental_uris": {"ios": "https://dc.lft.to/lastmile_qr_scan", "android": "https://dc.lft.to/lastmile_qr_scan"}, "bike_id": "6650591e8cc9f72a623c2a059877e6f8", "lat": 38.9160885, "name": "6650591e8cc9f72a623c2a059877e6f8", "lon": -77.031993, "fusion_lon": 0.0}, {"is_reserved": 0, "type": "electric_scooter", "fusion_lat": 0.0, "is_disabled": 0, "rental_uris": {"ios": "https://dc.lft.to/lastmile_qr_scan", "android": "https://dc.lft.to/lastmile_qr_scan"}, "bike_id": "b473ee2ed050ed551b646e5d47657ae6", "lat": 38.886416833333335, "name": "b473ee2ed050ed551b646e5d47657ae6", "lon": -77.01227733333333, "fusion_lon": 0.0}, {"is_reserved": 0, "type": "electric_scooter", "fusion_lat": 0.0, "is_disabled": 0, "rental_uris": {"ios": "https://dc.lft.to/lastmile_qr_scan", "android": "https://dc.lft.to/lastmile_qr_scan"}, "bike_id": "a857b435de15968613e8a7f2a4fa3ccf", "lat": 38.89497633333333, "name": "a857b435de15968613e8a7f2a4fa3ccf", "lon": -77.02187266666667, "fusion_lon": 0.0}, {"is_reserved": 0, "type": "electric_scooter", "fusion_lat": 0.0, "is_disabled": 0, "rental_uris": {"ios": "https://dc.lft.to/lastmile_qr_scan", "android": "https://dc.lft.to/lastmile_qr_scan"}, "bike_id": "b73f9a0b37524bb5a4fcb405ece973cc", "lat": 38.88318233333333, "name": "b73f9a0b37524bb5a4fcb405ece973cc", "lon": -76.93150983333334, "fusion_lon": 0.0}, {"is_reserved": 0, "type": "electric_scooter", "fusion_lat": 0.0, "is_disabled": 0, "rental_uris": {"ios": "https://dc.lft.to/lastmile_qr_scan", "android": "https://dc.lft.to/lastmile_qr_scan"}, "bike_id": "2a772c1c5eea29436346b74e96828674", "lat": 38.89862816666667, "name": "2a772c1c5eea29436346b74e96828674", "lon": -77.02854633333334, "fusion_lon": 0.0}, {"is_reserved": 0, "type": "electric_scooter", "fusion_lat": 0.0, "is_disabled": 0, "rental_uris": {"ios": "https://dc.lft.to/lastmile_qr_scan", "android": "https://dc.lft.to/lastmile_qr_scan"}, "bike_id": "4d0e0d84f11266ab866137eb0cd53ea3", "lat": 38.92677416666667, "name": "4d0e0d84f11266ab866137eb0cd53ea3", "lon": -77.0087805, "fusion_lon": 0.0}, {"is_reserved": 0, "type": "electric_scooter", "fusion_lat": 0.0, "is_disabled": 0, "rental_uris": {"ios": "https://dc.lft.to/lastmile_qr_scan", "android": "https://dc.lft.to/lastmile_qr_scan"}, "bike_id": "c43354b6ad775c3637f2aa9c519fbf71", "lat": 38.919844, "name": "c43354b6ad775c3637f2aa9c519fbf71", "lon": -77.017862, "fusion_lon": 0.0}, {"is_reserved": 0, "type": "electric_scooter", "fusion_lat": 0.0, "is_disabled": 0, "rental_uris": {"ios": "https://dc.lft.to/lastmile_qr_scan", "android": "https://dc.lft.to/lastmile_qr_scan"}, "bike_id": "b25c946b1498d65c4c6032ddef36b976", "lat": 38.8839395, "name": "b25c946b1498d65c4c6032ddef36b976", "lon": -76.93045916666667, "fusion_lon": 0.0}, {"is_reserved": 0, "type": "electric_scooter", "fusion_lat": 0.0, "is_disabled": 0, "rental_uris": {"ios": "https://dc.lft.to/lastmile_qr_scan", "android": "https://dc.lft.to/lastmile_qr_scan"}, "bike_id": "4eba68df249001d1ea3a453ed349a808", "lat": 38.90667666666667, "name": "4eba68df249001d1ea3a453ed349a808", "lon": -77.02695683333333, "fusion_lon": 0.0}, {"is_reserved": 0, "type": "electric_scooter", "fusion_lat": 0.0, "is_disabled": 0, "rental_uris": {"ios": "https://dc.lft.to/lastmile_qr_scan", "android": "https://dc.lft.to/lastmile_qr_scan"}, "bike_id": "6e27a1a9142f89f480d6d89d02ef338c", "lat": 38.92362466666667, "name": "6e27a1a9142f89f480d6d89d02ef338c", "lon": -77.02977, "fusion_lon": 0.0}, {"is_reserved": 0, "type": "electric_scooter", "fusion_lat": 0.0, "is_disabled": 0, "rental_uris": {"ios": "https://dc.lft.to/lastmile_qr_scan", "android": "https://dc.lft.to/lastmile_qr_scan"}, "bike_id": "53e2b8f8e8ab596d9b8e24870286821b", "lat": 38.90816233333334, "name": "53e2b8f8e8ab596d9b8e24870286821b", "lon": -77.0433755, "fusion_lon": 0.0}, {"is_reserved": 0, "type": "electric_scooter", "fusion_lat": 0.0, "is_disabled": 0, "rental_uris": {"ios": "https://dc.lft.to/lastmile_qr_scan", "android": "https://dc.lft.to/lastmile_qr_scan"}, "bike_id": "a98ebf18f799aad698809dd9d1a80052", "lat": 38.93159333333333, "name": "a98ebf18f799aad698809dd9d1a80052", "lon": -77.056135, "fusion_lon": 0.0}, {"is_reserved": 0, "type": "electric_bike", "fusion_lat": 0.0, "is_disabled": 0, "rental_uris": {"ios": "https://dc.lft.to/lastmile_qr_scan", "android": "https://dc.lft.to/lastmile_qr_scan"}, "bike_id": "46df194810bd58f15717c4ba708e5eae", "lat": 38.88373683333333, "name": "46df194810bd58f15717c4ba708e5eae", "lon": -76.92372733333333, "fusion_lon": 0.0}, {"is_reserved": 0, "type": "electric_scooter", "fusion_lat": 0.0, "is_disabled": 0, "rental_uris": {"ios": "https://dc.lft.to/lastmile_qr_scan", "android": "https://dc.lft.to/lastmile_qr_scan"}, "bike_id": "3f63fef3a86d971442a2184f8d26e705", "lat": 38.901211, "name": "3f63fef3a86d971442a2184f8d26e705", "lon": -77.05141233333333, "fusion_lon": 0.0}, {"is_reserved": 0, "type": "electric_scooter", "fusion_lat": 0.0, "is_disabled": 0, "rental_uris": {"ios": "https://dc.lft.to/lastmile_qr_scan", "android": "https://dc.lft.to/lastmile_qr_scan"}, "bike_id": "4549804efc85ced142935a5f0f2bb5b2", "lat": 38.89430183333333, "name": "4549804efc85ced142935a5f0f2bb5b2", "lon": -77.00103483333334, "fusion_lon": 0.0}, {"is_reserved": 0, "type": "electric_bike", "fusion_lat": 0.0, "is_disabled": 0, "rental_uris": {"ios": "https://dc.lft.to/lastmile_qr_scan", "android": "https://dc.lft.to/lastmile_qr_scan"}, "bike_id": "3d99407d54710384785740d2948558d0", "lat": 39.084315, "name": "3d99407d54710384785740d2948558d0", "lon": -76.9513925, "fusion_lon": 0.0}, {"is_reserved": 0, "type": "electric_bike", "fusion_lat": 0.0, "is_disabled": 0, "rental_uris": {"ios": "https://dc.lft.to/lastmile_qr_scan", "android": "https://dc.lft.to/lastmile_qr_scan"}, "bike_id": "6a63d5c26341457e32ee600e1e08cf85", "lat": 38.8410175, "name": "6a63d5c26341457e32ee600e1e08cf85", "lon": -77.08946416666667, "fusion_lon": 0.0}, {"is_reserved": 0, "type": "electric_scooter", "fusion_lat": 0.0, "is_disabled": 0, "rental_uris": {"ios": "https://dc.lft.to/lastmile_qr_scan", "android": "https://dc.lft.to/lastmile_qr_scan"}, "bike_id": "f16d718ba0e7d0e1be28555e1976bb29", "lat": 38.9325795, "name": "f16d718ba0e7d0e1be28555e1976bb29", "lon": -77.0325985, "fusion_lon": 0.0}, {"is_reserved": 0, "type": "electric_scooter", "fusion_lat": 0.0, "is_disabled": 0, "rental_uris": {"ios": "https://dc.lft.to/lastmile_qr_scan", "android": "https://dc.lft.to/lastmile_qr_scan"}, "bike_id": "0afa46f09bfb1a19b8afb54144d31c79", "lat": 38.957306833333334, "name": "0afa46f09bfb1a19b8afb54144d31c79", "lon": -77.024214, "fusion_lon": 0.0}, {"is_reserved": 0, "type": "electric_scooter", "fusion_lat": 0.0, "is_disabled": 0, "rental_uris": {"ios": "https://dc.lft.to/lastmile_qr_scan", "android": "https://dc.lft.to/lastmile_qr_scan"}, "bike_id": "56bef41c6fdf1c1f3f3bcadebc752a95", "lat": 38.902895666666666, "name": "56bef41c6fdf1c1f3f3bcadebc752a95", "lon": -77.02774083333334, "fusion_lon": 0.0}, {"is_reserved": 0, "type": "electric_scooter", "fusion_lat": 0.0, "is_disabled": 0, "rental_uris": {"ios": "https://dc.lft.to/lastmile_qr_scan", "android": "https://dc.lft.to/lastmile_qr_scan"}, "bike_id": "dfe7ae4ce5f905ec4c44dc318ed38e36", "lat": 38.924118166666666, "name": "dfe7ae4ce5f905ec4c44dc318ed38e36", "lon": -77.03550333333334, "fusion_lon": 0.0}, {"is_reserved": 0, "type": "electric_scooter", "fusion_lat": 0.0, "is_disabled": 0, "rental_uris": {"ios": "https://dc.lft.to/lastmile_qr_scan", "android": "https://dc.lft.to/lastmile_qr_scan"}, "bike_id": "ef3ad2d2d243e5bf675a22bbaabb6e3c", "lat": 38.913653333333336, "name": "ef3ad2d2d243e5bf675a22bbaabb6e3c", "lon": -77.0447385, "fusion_lon": 0.0}, {"is_reserved": 0, "type": "electric_scooter", "fusion_lat": 0.0, "is_disabled": 0, "rental_uris": {"ios": "https://dc.lft.to/lastmile_qr_scan", "android": "https://dc.lft.to/lastmile_qr_scan"}, "bike_id": "0c65613a1c54db0c67d9f0bfd3f1885c", "lat": 38.903722, "name": "0c65613a1c54db0c67d9f0bfd3f1885c", "lon": -77.01635716666667, "fusion_lon": 0.0}, {"is_reserved": 0, "type": "electric_scooter", "fusion_lat": 0.0, "is_disabled": 0, "rental_uris": {"ios": "https://dc.lft.to/lastmile_qr_scan", "android": "https://dc.lft.to/lastmile_qr_scan"}, "bike_id": "b226f9e38e91eb67341a023e671178f8", "lat": 38.90401283333333, "name": "b226f9e38e91eb67341a023e671178f8", "lon": -77.06329133333334, "fusion_lon": 0.0}, {"is_reserved": 0, "type": "electric_scooter", "fusion_lat": 0.0, "is_disabled": 0, "rental_uris": {"ios": "https://dc.lft.to/lastmile_qr_scan", "android": "https://dc.lft.to/lastmile_qr_scan"}, "bike_id": "bad873478269cb98725e03ac32105500", "lat": 38.922411, "name": "bad873478269cb98725e03ac32105500", "lon": -77.01844333333334, "fusion_lon": 0.0}, {"is_reserved": 0, "type": "electric_scooter", "fusion_lat": 0.0, "is_disabled": 0, "rental_uris": {"ios": "https://dc.lft.to/lastmile_qr_scan", "android": "https://dc.lft.to/lastmile_qr_scan"}, "bike_id": "bc315b8776577a5499d9896740863da0", "lat": 38.94702766666666, "name": "bc315b8776577a5499d9896740863da0", "lon": -77.03283533333334, "fusion_lon": 0.0}, {"is_reserved": 0, "type": "electric_scooter", "fusion_lat": 0.0, "is_disabled": 0, "rental_uris": {"ios": "https://dc.lft.to/lastmile_qr_scan", "android": "https://dc.lft.to/lastmile_qr_scan"}, "bike_id": "455f49a8efe4d1aca46526abc10deb2f", "lat": 38.940884833333335, "name": "455f49a8efe4d1aca46526abc10deb2f", "lon": -77.0230875, "fusion_lon": 0.0}, {"is_reserved": 0, "type": "electric_scooter", "fusion_lat": 0.0, "is_disabled": 0, "rental_uris": {"ios": "https://dc.lft.to/lastmile_qr_scan", "android": "https://dc.lft.to/lastmile_qr_scan"}, "bike_id": "d9187de81bfd6f2f8223d6ea9032eafa", "lat": 38.88708916666667, "name": "d9187de81bfd6f2f8223d6ea9032eafa", "lon": -76.98381966666666, "fusion_lon": 0.0}, {"is_reserved": 0, "type": "electric_scooter", "fusion_lat": 0.0, "is_disabled": 0, "rental_uris": {"ios": "https://dc.lft.to/lastmile_qr_scan", "android": "https://dc.lft.to/lastmile_qr_scan"}, "bike_id": "507567a3982644cfcf8d38d68738b099", "lat": 38.920371333333335, "name": "507567a3982644cfcf8d38d68738b099", "lon": -77.025898, "fusion_lon": 0.0}, {"is_reserved": 0, "type": "electric_scooter", "fusion_lat": 0.0, "is_disabled": 0, "rental_uris": {"ios": "https://dc.lft.to/lastmile_qr_scan", "android": "https://dc.lft.to/lastmile_qr_scan"}, "bike_id": "612f5b292351488cc92056d7900360d4", "lat": 38.87846533333333, "name": "612f5b292351488cc92056d7900360d4", "lon": -77.00591033333333, "fusion_lon": 0.0}, {"is_reserved": 0, "type": "electric_scooter", "fusion_lat": 0.0, "is_disabled": 0, "rental_uris": {"ios": "https://dc.lft.to/lastmile_qr_scan", "android": "https://dc.lft.to/lastmile_qr_scan"}, "bike_id": "cefe200992d027e3c8bfa64e640a2264", "lat": 38.9205535, "name": "cefe200992d027e3c8bfa64e640a2264", "lon": -77.04395066666666, "fusion_lon": 0.0}, {"is_reserved": 0, "type": "electric_bike", "fusion_lat": 0.0, "is_disabled": 0, "rental_uris": {"ios": "https://dc.lft.to/lastmile_qr_scan", "android": "https://dc.lft.to/lastmile_qr_scan"}, "bike_id": "c3edb870342e9878fa811a9210af2219", "lat": 38.87764516666667, "name": "c3edb870342e9878fa811a9210af2219", "lon": -77.01049966666666, "fusion_lon": 0.0}, {"is_reserved": 0, "type": "electric_scooter", "fusion_lat": 0.0, "is_disabled": 0, "rental_uris": {"ios": "https://dc.lft.to/lastmile_qr_scan", "android": "https://dc.lft.to/lastmile_qr_scan"}, "bike_id": "bd7e951872360a1d3526e08cfbe409e4", "lat": 38.92019666666667, "name": "bd7e951872360a1d3526e08cfbe409e4", "lon": -77.07131416666667, "fusion_lon": 0.0}, {"is_reserved": 0, "type": "electric_scooter", "fusion_lat": 0.0, "is_disabled": 0, "rental_uris": {"ios": "https://dc.lft.to/lastmile_qr_scan", "android": "https://dc.lft.to/lastmile_qr_scan"}, "bike_id": "a07c3fafa6ded0370b0f1536e8fd51f8", "lat": 38.920683333333336, "name": "a07c3fafa6ded0370b0f1536e8fd51f8", "lon": -77.0251085, "fusion_lon": 0.0}, {"is_reserved": 0, "type": "electric_scooter", "fusion_lat": 0.0, "is_disabled": 0, "rental_uris": {"ios": "https://dc.lft.to/lastmile_qr_scan", "android": "https://dc.lft.to/lastmile_qr_scan"}, "bike_id": "03e6b964d1a8455eece9429a77cf5b0f", "lat": 38.89741016666667, "name": "03e6b964d1a8455eece9429a77cf5b0f", "lon": -77.04152983333333, "fusion_lon": 0.0}, {"is_reserved": 0, "type": "electric_scooter", "fusion_lat": 0.0, "is_disabled": 0, "rental_uris": {"ios": "https://dc.lft.to/lastmile_qr_scan", "android": "https://dc.lft.to/lastmile_qr_scan"}, "bike_id": "b624236dd63664a35ac13cb42c341247", "lat": 38.934754166666664, "name": "b624236dd63664a35ac13cb42c341247", "lon": -77.0357995, "fusion_lon": 0.0}, {"is_reserved": 0, "type": "electric_bike", "fusion_lat": 0.0, "is_disabled": 0, "rental_uris": {"ios": "https://dc.lft.to/lastmile_qr_scan", "android": "https://dc.lft.to/lastmile_qr_scan"}, "bike_id": "296b1832ed36039d0ca2aa8a78978ff8", "lat": 38.903734666666665, "name": "296b1832ed36039d0ca2aa8a78978ff8", "lon": -76.937479, "fusion_lon": 0.0}, {"is_reserved": 0, "type": "electric_scooter", "fusion_lat": 0.0, "is_disabled": 0, "rental_uris": {"ios": "https://dc.lft.to/lastmile_qr_scan", "android": "https://dc.lft.to/lastmile_qr_scan"}, "bike_id": "49c1312dd17ee825d78659c6390f87e7", "lat": 38.905038833333336, "name": "49c1312dd17ee825d78659c6390f87e7", "lon": -77.0295005, "fusion_lon": 0.0}, {"is_reserved": 0, "type": "electric_scooter", "fusion_lat": 0.0, "is_disabled": 0, "rental_uris": {"ios": "https://dc.lft.to/lastmile_qr_scan", "android": "https://dc.lft.to/lastmile_qr_scan"}, "bike_id": "21639126c86e82fca3b0532b30889e04", "lat": 38.899346333333334, "name": "21639126c86e82fca3b0532b30889e04", "lon": -77.053966, "fusion_lon": 0.0}, {"is_reserved": 0, "type": "electric_scooter", "fusion_lat": 0.0, "is_disabled": 0, "rental_uris": {"ios": "https://dc.lft.to/lastmile_qr_scan", "android": "https://dc.lft.to/lastmile_qr_scan"}, "bike_id": "c3faf7fb9beb06a20bf95a89c865e441", "lat": 38.883911833333336, "name": "c3faf7fb9beb06a20bf95a89c865e441", "lon": -77.03034183333334, "fusion_lon": 0.0}, {"is_reserved": 0, "type": "electric_scooter", "fusion_lat": 0.0, "is_disabled": 0, "rental_uris": {"ios": "https://dc.lft.to/lastmile_qr_scan", "android": "https://dc.lft.to/lastmile_qr_scan"}, "bike_id": "4be474a60d31fb000a156906a3583301", "lat": 38.885223833333335, "name": "4be474a60d31fb000a156906a3583301", "lon": -76.97710033333334, "fusion_lon": 0.0}, {"is_reserved": 0, "type": "electric_scooter", "fusion_lat": 0.0, "is_disabled": 0, "rental_uris": {"ios": "https://dc.lft.to/lastmile_qr_scan", "android": "https://dc.lft.to/lastmile_qr_scan"}, "bike_id": "fe53ced70e84f32cbcbe4916cfa86632", "lat": 38.9035955, "name": "fe53ced70e84f32cbcbe4916cfa86632", "lon": -77.05999616666666, "fusion_lon": 0.0}, {"is_reserved": 0, "type": "electric_scooter", "fusion_lat": 0.0, "is_disabled": 0, "rental_uris": {"ios": "https://dc.lft.to/lastmile_qr_scan", "android": "https://dc.lft.to/lastmile_qr_scan"}, "bike_id": "4e3a88a8306cd579a90e4721a6689cd3", "lat": 38.90156266666666, "name": "4e3a88a8306cd579a90e4721a6689cd3", "lon": -77.048603, "fusion_lon": 0.0}, {"is_reserved": 0, "type": "electric_scooter", "fusion_lat": 0.0, "is_disabled": 0, "rental_uris": {"ios": "https://dc.lft.to/lastmile_qr_scan", "android": "https://dc.lft.to/lastmile_qr_scan"}, "bike_id": "a1231266c3e67a20d4e0fca2e9dcdc52", "lat": 38.936171, "name": "a1231266c3e67a20d4e0fca2e9dcdc52", "lon": -77.05583316666667, "fusion_lon": 0.0}, {"is_reserved": 0, "type": "electric_scooter", "fusion_lat": 0.0, "is_disabled": 0, "rental_uris": {"ios": "https://dc.lft.to/lastmile_qr_scan", "android": "https://dc.lft.to/lastmile_qr_scan"}, "bike_id": "ecc615a6c119c0682c23f9fcfe76254e", "lat": 38.91558283333333, "name": "ecc615a6c119c0682c23f9fcfe76254e", "lon": -77.04092583333333, "fusion_lon": 0.0}, {"is_reserved": 0, "type": "electric_bike", "fusion_lat": 0.0, "is_disabled": 0, "rental_uris": {"ios": "https://dc.lft.to/lastmile_qr_scan", "android": "https://dc.lft.to/lastmile_qr_scan"}, "bike_id": "d8a40c5e5ec162c4c93004e3143f7afe", "lat": 38.83863383333333, "name": "d8a40c5e5ec162c4c93004e3143f7afe", "lon": -76.9969825, "fusion_lon": 0.0}, {"is_reserved": 0, "type": "electric_bike", "fusion_lat": 0.0, "is_disabled": 0, "rental_uris": {"ios": "https://dc.lft.to/lastmile_qr_scan", "android": "https://dc.lft.to/lastmile_qr_scan"}, "bike_id": "9b36847c6802020ae75ee56878edcd76", "lat": 38.91567533333333, "name": "9b36847c6802020ae75ee56878edcd76", "lon": -77.04505583333334, "fusion_lon": 0.0}, {"is_reserved": 0, "type": "electric_bike", "fusion_lat": 0.0, "is_disabled": 0, "rental_uris": {"ios": "https://dc.lft.to/lastmile_qr_scan", "android": "https://dc.lft.to/lastmile_qr_scan"}, "bike_id": "a7bf04d769c1957c8c844abaaa7265b9", "lat": 38.85802566666667, "name": "a7bf04d769c1957c8c844abaaa7265b9", "lon": -76.987475, "fusion_lon": 0.0}, {"is_reserved": 0, "type": "electric_scooter", "fusion_lat": 0.0, "is_disabled": 0, "rental_uris": {"ios": "https://dc.lft.to/lastmile_qr_scan", "android": "https://dc.lft.to/lastmile_qr_scan"}, "bike_id": "1aa8546d434d93b3183b378a2c9b767c", "lat": 38.8947555, "name": "1aa8546d434d93b3183b378a2c9b767c", "lon": -77.0220315, "fusion_lon": 0.0}, {"is_reserved": 0, "type": "electric_scooter", "fusion_lat": 0.0, "is_disabled": 0, "rental_uris": {"ios": "https://dc.lft.to/lastmile_qr_scan", "android": "https://dc.lft.to/lastmile_qr_scan"}, "bike_id": "1adc80ea9855daf5d6c373c880354e70", "lat": 38.890367499999996, "name": "1adc80ea9855daf5d6c373c880354e70", "lon": -76.98839133333334, "fusion_lon": 0.0}, {"is_reserved": 0, "type": "electric_bike", "fusion_lat": 0.0, "is_disabled": 0, "rental_uris": {"ios": "https://dc.lft.to/lastmile_qr_scan", "android": "https://dc.lft.to/lastmile_qr_scan"}, "bike_id": "556b08c9b8806fd347526897e7af8034", "lat": 38.89082766666667, "name": "556b08c9b8806fd347526897e7af8034", "lon": -77.0289235, "fusion_lon": 0.0}, {"is_reserved": 0, "type": "electric_scooter", "fusion_lat": 0.0, "is_disabled": 0, "rental_uris": {"ios": "https://dc.lft.to/lastmile_qr_scan", "android": "https://dc.lft.to/lastmile_qr_scan"}, "bike_id": "36412e6039cd21adb705ce3f26830a34", "lat": 38.90758916666667, "name": "36412e6039cd21adb705ce3f26830a34", "lon": -77.0051525, "fusion_lon": 0.0}, {"is_reserved": 0, "type": "electric_scooter", "fusion_lat": 0.0, "is_disabled": 0, "rental_uris": {"ios": "https://dc.lft.to/lastmile_qr_scan", "android": "https://dc.lft.to/lastmile_qr_scan"}, "bike_id": "259007150d781c6b53ecf92f1e2cfcd4", "lat": 38.89221116666667, "name": "259007150d781c6b53ecf92f1e2cfcd4", "lon": -77.0321595, "fusion_lon": 0.0}, {"is_reserved": 0, "type": "electric_scooter", "fusion_lat": 0.0, "is_disabled": 0, "rental_uris": {"ios": "https://dc.lft.to/lastmile_qr_scan", "android": "https://dc.lft.to/lastmile_qr_scan"}, "bike_id": "82cbcd36f5c79adf680469c0c3b8fb19", "lat": 38.93880683333333, "name": "82cbcd36f5c79adf680469c0c3b8fb19", "lon": -77.02832666666667, "fusion_lon": 0.0}, {"is_reserved": 0, "type": "electric_scooter", "fusion_lat": 0.0, "is_disabled": 0, "rental_uris": {"ios": "https://dc.lft.to/lastmile_qr_scan", "android": "https://dc.lft.to/lastmile_qr_scan"}, "bike_id": "9312396cdf71de48c9b150c58a15f823", "lat": 38.898909833333335, "name": "9312396cdf71de48c9b150c58a15f823", "lon": -77.02171966666667, "fusion_lon": 0.0}, {"is_reserved": 0, "type": "electric_scooter", "fusion_lat": 0.0, "is_disabled": 0, "rental_uris": {"ios": "https://dc.lft.to/lastmile_qr_scan", "android": "https://dc.lft.to/lastmile_qr_scan"}, "bike_id": "845e9db7966a50e14edabd63f7e52fad", "lat": 38.90880966666667, "name": "845e9db7966a50e14edabd63f7e52fad", "lon": -77.04485116666666, "fusion_lon": 0.0}, {"is_reserved": 0, "type": "electric_bike", "fusion_lat": 0.0, "is_disabled": 0, "rental_uris": {"ios": "https://dc.lft.to/lastmile_qr_scan", "android": "https://dc.lft.to/lastmile_qr_scan"}, "bike_id": "2092495a66e9df196f80091fc5efa132", "lat": 38.9038685, "name": "2092495a66e9df196f80091fc5efa132", "lon": -77.0631395, "fusion_lon": 0.0}, {"is_reserved": 0, "type": "electric_bike", "fusion_lat": 0.0, "is_disabled": 0, "rental_uris": {"ios": "https://dc.lft.to/lastmile_qr_scan", "android": "https://dc.lft.to/lastmile_qr_scan"}, "bike_id": "f555ace983bb9e528a1f2cadc015ddf5", "lat": 38.978508166666664, "name": "f555ace983bb9e528a1f2cadc015ddf5", "lon": -77.09104966666666, "fusion_lon": 0.0}, {"is_reserved": 0, "type": "electric_bike", "fusion_lat": 0.0, "is_disabled": 0, "rental_uris": {"ios": "https://dc.lft.to/lastmile_qr_scan", "android": "https://dc.lft.to/lastmile_qr_scan"}, "bike_id": "03384e8d942060218d49d7991c1069a3", "lat": 39.02624866666667, "name": "03384e8d942060218d49d7991c1069a3", "lon": -77.03881033333333, "fusion_lon": 0.0}, {"is_reserved": 0, "type": "electric_scooter", "fusion_lat": 0.0, "is_disabled": 0, "rental_uris": {"ios": "https://dc.lft.to/lastmile_qr_scan", "android": "https://dc.lft.to/lastmile_qr_scan"}, "bike_id": "599860ab468a52832ab70c05c1c44a9f", "lat": 38.935994, "name": "599860ab468a52832ab70c05c1c44a9f", "lon": -77.02421633333333, "fusion_lon": 0.0}, {"is_reserved": 0, "type": "electric_scooter", "fusion_lat": 0.0, "is_disabled": 0, "rental_uris": {"ios": "https://dc.lft.to/lastmile_qr_scan", "android": "https://dc.lft.to/lastmile_qr_scan"}, "bike_id": "2b6fd99d978157562f8fcf777da5248c", "lat": 38.916708166666666, "name": "2b6fd99d978157562f8fcf777da5248c", "lon": -77.0228475, "fusion_lon": 0.0}, {"is_reserved": 0, "type": "electric_scooter", "fusion_lat": 0.0, "is_disabled": 0, "rental_uris": {"ios": "https://dc.lft.to/lastmile_qr_scan", "android": "https://dc.lft.to/lastmile_qr_scan"}, "bike_id": "53a052a241f87f162fe714235ac4acc9", "lat": 38.88238116666667, "name": "53a052a241f87f162fe714235ac4acc9", "lon": -76.933465, "fusion_lon": 0.0}, {"is_reserved": 0, "type": "electric_scooter", "fusion_lat": 0.0, "is_disabled": 0, "rental_uris": {"ios": "https://dc.lft.to/lastmile_qr_scan", "android": "https://dc.lft.to/lastmile_qr_scan"}, "bike_id": "37b6556fe60e27f9e879dcda58c5798f", "lat": 38.91101716666667, "name": "37b6556fe60e27f9e879dcda58c5798f", "lon": -77.00207466666667, "fusion_lon": 0.0}, {"is_reserved": 0, "type": "electric_scooter", "fusion_lat": 0.0, "is_disabled": 0, "rental_uris": {"ios": "https://dc.lft.to/lastmile_qr_scan", "android": "https://dc.lft.to/lastmile_qr_scan"}, "bike_id": "80f7378a329df580d99e806f5bc71879", "lat": 38.899559833333335, "name": "80f7378a329df580d99e806f5bc71879", "lon": -77.03237766666666, "fusion_lon": 0.0}, {"is_reserved": 0, "type": "electric_scooter", "fusion_lat": 0.0, "is_disabled": 0, "rental_uris": {"ios": "https://dc.lft.to/lastmile_qr_scan", "android": "https://dc.lft.to/lastmile_qr_scan"}, "bike_id": "155e5066c28e7a24922630318f065048", "lat": 38.893800666666664, "name": "155e5066c28e7a24922630318f065048", "lon": -77.02068783333333, "fusion_lon": 0.0}, {"is_reserved": 0, "type": "electric_scooter", "fusion_lat": 0.0, "is_disabled": 0, "rental_uris": {"ios": "https://dc.lft.to/lastmile_qr_scan", "android": "https://dc.lft.to/lastmile_qr_scan"}, "bike_id": "b9b85f4aeb8f9981185f65ad56855a2c", "lat": 38.929125666666664, "name": "b9b85f4aeb8f9981185f65ad56855a2c", "lon": -77.02089683333334, "fusion_lon": 0.0}, {"is_reserved": 0, "type": "electric_scooter", "fusion_lat": 0.0, "is_disabled": 0, "rental_uris": {"ios": "https://dc.lft.to/lastmile_qr_scan", "android": "https://dc.lft.to/lastmile_qr_scan"}, "bike_id": "e0597f5a2522518a1ec275f443fdb6b0", "lat": 38.89001533333333, "name": "e0597f5a2522518a1ec275f443fdb6b0", "lon": -77.0489825, "fusion_lon": 0.0}, {"is_reserved": 0, "type": "electric_scooter", "fusion_lat": 0.0, "is_disabled": 0, "rental_uris": {"ios": "https://dc.lft.to/lastmile_qr_scan", "android": "https://dc.lft.to/lastmile_qr_scan"}, "bike_id": "896c8c31a3f7d273f480d1ea72441d15", "lat": 38.875690666666664, "name": "896c8c31a3f7d273f480d1ea72441d15", "lon": -77.0059535, "fusion_lon": 0.0}, {"is_reserved": 0, "type": "electric_scooter", "fusion_lat": 0.0, "is_disabled": 0, "rental_uris": {"ios": "https://dc.lft.to/lastmile_qr_scan", "android": "https://dc.lft.to/lastmile_qr_scan"}, "bike_id": "bf9fd5515202b3593ac9d08acb8c2cc7", "lat": 38.9035265, "name": "bf9fd5515202b3593ac9d08acb8c2cc7", "lon": -77.0398085, "fusion_lon": 0.0}, {"is_reserved": 0, "type": "electric_scooter", "fusion_lat": 0.0, "is_disabled": 0, "rental_uris": {"ios": "https://dc.lft.to/lastmile_qr_scan", "android": "https://dc.lft.to/lastmile_qr_scan"}, "bike_id": "03e1e7b8aebc1d824f425d449e7c6a0d", "lat": 38.901912833333334, "name": "03e1e7b8aebc1d824f425d449e7c6a0d", "lon": -77.0237015, "fusion_lon": 0.0}, {"is_reserved": 0, "type": "electric_scooter", "fusion_lat": 0.0, "is_disabled": 0, "rental_uris": {"ios": "https://dc.lft.to/lastmile_qr_scan", "android": "https://dc.lft.to/lastmile_qr_scan"}, "bike_id": "b51d2f3c9a88e97275b4f32926a3ec88", "lat": 38.920568333333335, "name": "b51d2f3c9a88e97275b4f32926a3ec88", "lon": -77.03387833333333, "fusion_lon": 0.0}, {"is_reserved": 0, "type": "electric_scooter", "fusion_lat": 0.0, "is_disabled": 0, "rental_uris": {"ios": "https://dc.lft.to/lastmile_qr_scan", "android": "https://dc.lft.to/lastmile_qr_scan"}, "bike_id": "d0b052994389b36d8429d09c23d88ce9", "lat": 38.922320666666664, "name": "d0b052994389b36d8429d09c23d88ce9", "lon": -76.97532516666666, "fusion_lon": 0.0}, {"is_reserved": 0, "type": "electric_scooter", "fusion_lat": 0.0, "is_disabled": 0, "rental_uris": {"ios": "https://dc.lft.to/lastmile_qr_scan", "android": "https://dc.lft.to/lastmile_qr_scan"}, "bike_id": "7122424f1c3779df2312906a0f6087d9", "lat": 38.930945, "name": "7122424f1c3779df2312906a0f6087d9", "lon": -77.0362095, "fusion_lon": 0.0}, {"is_reserved": 0, "type": "electric_scooter", "fusion_lat": 0.0, "is_disabled": 0, "rental_uris": {"ios": "https://dc.lft.to/lastmile_qr_scan", "android": "https://dc.lft.to/lastmile_qr_scan"}, "bike_id": "9431508ef57c6f61fe13d6b2e4e5ce81", "lat": 38.93859616666667, "name": "9431508ef57c6f61fe13d6b2e4e5ce81", "lon": -77.07824416666666, "fusion_lon": 0.0}, {"is_reserved": 0, "type": "electric_scooter", "fusion_lat": 0.0, "is_disabled": 0, "rental_uris": {"ios": "https://dc.lft.to/lastmile_qr_scan", "android": "https://dc.lft.to/lastmile_qr_scan"}, "bike_id": "cee0d0ded1cff07631e688cb76f4ee4c", "lat": 38.900809, "name": "cee0d0ded1cff07631e688cb76f4ee4c", "lon": -77.0434855, "fusion_lon": 0.0}, {"is_reserved": 0, "type": "electric_scooter", "fusion_lat": 0.0, "is_disabled": 0, "rental_uris": {"ios": "https://dc.lft.to/lastmile_qr_scan", "android": "https://dc.lft.to/lastmile_qr_scan"}, "bike_id": "c921b5f331c9e992164859b4e32a005c", "lat": 38.926910166666666, "name": "c921b5f331c9e992164859b4e32a005c", "lon": -77.02291883333334, "fusion_lon": 0.0}, {"is_reserved": 0, "type": "electric_scooter", "fusion_lat": 0.0, "is_disabled": 0, "rental_uris": {"ios": "https://dc.lft.to/lastmile_qr_scan", "android": "https://dc.lft.to/lastmile_qr_scan"}, "bike_id": "4af9e9348f2788164c0911ca594dc201", "lat": 38.936593333333334, "name": "4af9e9348f2788164c0911ca594dc201", "lon": -77.08430833333334, "fusion_lon": 0.0}, {"is_reserved": 0, "type": "electric_scooter", "fusion_lat": 0.0, "is_disabled": 0, "rental_uris": {"ios": "https://dc.lft.to/lastmile_qr_scan", "android": "https://dc.lft.to/lastmile_qr_scan"}, "bike_id": "b780089540fff9c3c875c7766151f486", "lat": 38.91784, "name": "b780089540fff9c3c875c7766151f486", "lon": -77.02397583333334, "fusion_lon": 0.0}, {"is_reserved": 0, "type": "electric_bike", "fusion_lat": 0.0, "is_disabled": 0, "rental_uris": {"ios": "https://dc.lft.to/lastmile_qr_scan", "android": "https://dc.lft.to/lastmile_qr_scan"}, "bike_id": "d817f1d82be5db4bb4a357b121fc768a", "lat": 38.8220565, "name": "d817f1d82be5db4bb4a357b121fc768a", "lon": -76.97704166666666, "fusion_lon": 0.0}, {"is_reserved": 0, "type": "electric_scooter", "fusion_lat": 0.0, "is_disabled": 0, "rental_uris": {"ios": "https://dc.lft.to/lastmile_qr_scan", "android": "https://dc.lft.to/lastmile_qr_scan"}, "bike_id": "6c5a1183f13010f873b3314c3cd3af73", "lat": 38.91697816666667, "name": "6c5a1183f13010f873b3314c3cd3af73", "lon": -77.052937, "fusion_lon": 0.0}, {"is_reserved": 0, "type": "electric_scooter", "fusion_lat": 0.0, "is_disabled": 0, "rental_uris": {"ios": "https://dc.lft.to/lastmile_qr_scan", "android": "https://dc.lft.to/lastmile_qr_scan"}, "bike_id": "a80a63c77a5e8928463514dabbaa75a4", "lat": 38.9172825, "name": "a80a63c77a5e8928463514dabbaa75a4", "lon": -77.06840216666667, "fusion_lon": 0.0}, {"is_reserved": 0, "type": "electric_scooter", "fusion_lat": 0.0, "is_disabled": 0, "rental_uris": {"ios": "https://dc.lft.to/lastmile_qr_scan", "android": "https://dc.lft.to/lastmile_qr_scan"}, "bike_id": "56b757cb0ffe0071d300d6371a864618", "lat": 38.909598333333335, "name": "56b757cb0ffe0071d300d6371a864618", "lon": -77.02285216666667, "fusion_lon": 0.0}, {"is_reserved": 0, "type": "electric_scooter", "fusion_lat": 0.0, "is_disabled": 0, "rental_uris": {"ios": "https://dc.lft.to/lastmile_qr_scan", "android": "https://dc.lft.to/lastmile_qr_scan"}, "bike_id": "8a428747d0f788ff1c3a61b7e651345c", "lat": 38.89660466666667, "name": "8a428747d0f788ff1c3a61b7e651345c", "lon": -77.043589, "fusion_lon": 0.0}, {"is_reserved": 0, "type": "electric_scooter", "fusion_lat": 0.0, "is_disabled": 0, "rental_uris": {"ios": "https://dc.lft.to/lastmile_qr_scan", "android": "https://dc.lft.to/lastmile_qr_scan"}, "bike_id": "aa43e20b5247190614c05b58f2a38143", "lat": 38.91709733333333, "name": "aa43e20b5247190614c05b58f2a38143", "lon": -77.03857483333333, "fusion_lon": 0.0}, {"is_reserved": 0, "type": "electric_scooter", "fusion_lat": 0.0, "is_disabled": 0, "rental_uris": {"ios": "https://dc.lft.to/lastmile_qr_scan", "android": "https://dc.lft.to/lastmile_qr_scan"}, "bike_id": "7b6c12988e1cfd6fbd88405c2cd3723d", "lat": 38.9153355, "name": "7b6c12988e1cfd6fbd88405c2cd3723d", "lon": -77.01254616666667, "fusion_lon": 0.0}, {"is_reserved": 0, "type": "electric_scooter", "fusion_lat": 0.0, "is_disabled": 0, "rental_uris": {"ios": "https://dc.lft.to/lastmile_qr_scan", "android": "https://dc.lft.to/lastmile_qr_scan"}, "bike_id": "4b224597729231acaf0e2f540aee9f46", "lat": 38.929446666666664, "name": "4b224597729231acaf0e2f540aee9f46", "lon": -77.032735, "fusion_lon": 0.0}, {"is_reserved": 0, "type": "electric_scooter", "fusion_lat": 0.0, "is_disabled": 0, "rental_uris": {"ios": "https://dc.lft.to/lastmile_qr_scan", "android": "https://dc.lft.to/lastmile_qr_scan"}, "bike_id": "e019ef8919e0834df7dbc544d691c061", "lat": 38.90602916666667, "name": "e019ef8919e0834df7dbc544d691c061", "lon": -77.0211215, "fusion_lon": 0.0}, {"is_reserved": 0, "type": "electric_scooter", "fusion_lat": 0.0, "is_disabled": 0, "rental_uris": {"ios": "https://dc.lft.to/lastmile_qr_scan", "android": "https://dc.lft.to/lastmile_qr_scan"},