{"data": {"bikes": [{"is_disabled": 0, "is_reserved": 0, "type": "electric_scooter", "lon": -77.01216433333333, "fusion_lon": 0.0, "lat": 38.9181675, "rental_uris": {"android": "https://dc.lft.to/lastmile_qr_scan", "ios": "https://dc.lft.to/lastmile_qr_scan"}, "fusion_lat": 0.0, "name": "dbb0e963fb64c86426d616c5cbca619e", "bike_id": "dbb0e963fb64c86426d616c5cbca619e"}, {"is_disabled": 0, "is_reserved": 0, "type": "electric_scooter", "lon": -77.03180166666667, "fusion_lon": 0.0, "lat": 38.919201, "rental_uris": {"android": "https://dc.lft.to/lastmile_qr_scan", "ios": "https://dc.lft.to/lastmile_qr_scan"}, "fusion_lat": 0.0, "name": "23f9153640f111202ed8a5e579fca370", "bike_id": "23f9153640f111202ed8a5e579fca370"}, {"is_disabled": 0, "is_reserved": 0, "type": "electric_scooter", "lon": -77.03456416666667, "fusion_lon": 0.0, "lat": 38.917203, "rental_uris": {"android": "https://dc.lft.to/lastmile_qr_scan", "ios": "https://dc.lft.to/lastmile_qr_scan"}, "fusion_lat": 0.0, "name": "9ecbed7a211533b7a014f4a5042659d4", "bike_id": "9ecbed7a211533b7a014f4a5042659d4"}, {"is_disabled": 0, "is_reserved": 0, "type": "electric_scooter", "lon": -76.94287216666666, "fusion_lon": 0.0, "lat": 38.883034333333335, "rental_uris": {"android": "https://dc.lft.to/lastmile_qr_scan", "ios": "https://dc.lft.to/lastmile_qr_scan"}, "fusion_lat": 0.0, "name": "8c5067ecf1b4172d9549bd9ff69b640e", "bike_id": "8c5067ecf1b4172d9549bd9ff69b640e"}, {"is_disabled": 0, "is_reserved": 0, "type": "electric_bike", "lon": -77.05138166666667, "fusion_lon": 0.0, "lat": 38.92532966666667, "rental_uris": {"android": "https://dc.lft.to/lastmile_qr_scan", "ios": "https://dc.lft.to/lastmile_qr_scan"}, "fusion_lat": 0.0, "name": "d4a58ae74ba56b18402011f7f7648626", "bike_id": "d4a58ae74ba56b18402011f7f7648626"}, {"is_disabled": 0, "is_reserved": 0, "type": "electric_scooter", "lon": -77.04641033333333, "fusion_lon": 0.0, "lat": 38.89343183333333, "rental_uris": {"android": "https://dc.lft.to/lastmile_qr_scan", "ios": "https://dc.lft.to/lastmile_qr_scan"}, "fusion_lat": 0.0, "name": "fc4901281fe672be86db67a00d0ece01", "bike_id": "fc4901281fe672be86db67a00d0ece01"}, {"is_disabled": 0, "is_reserved": 0, "type": "electric_scooter", "lon": -77.04041616666666, "fusion_lon": 0.0, "lat": 38.9177545, "rental_uris": {"android": "https://dc.lft.to/lastmile_qr_scan", "ios": "https://dc.lft.to/lastmile_qr_scan"}, "fusion_lat": 0.0, "name": "2779796c136ddda2cd7ef47e3df953a5", "bike_id": "2779796c136ddda2cd7ef47e3df953a5"}, {"is_disabled": 0, "is_reserved": 0, "type": "electric_scooter", "lon": -77.048616, "fusion_lon": 0.0, "lat": 38.913343, "rental_uris": {"android": "https://dc.lft.to/lastmile_qr_scan", "ios": "https://dc.lft.to/lastmile_qr_scan"}, "fusion_lat": 0.0, "name": "acaac46a5a997b494c5ff7e7ef04f8fe", "bike_id": "acaac46a5a997b494c5ff7e7ef04f8fe"}, {"is_disabled": 0, "is_reserved": 0, "type": "electric_scooter", "lon": -76.990301, "fusion_lon": 0.0, "lat": 38.8913855, "rental_uris": {"android": "https://dc.lft.to/lastmile_qr_scan", "ios": "https://dc.lft.to/lastmile_qr_scan"}, "fusion_lat": 0.0, "name": "6b4cc5af8fda2b7d1e278b5026c534ef", "bike_id": "6b4cc5af8fda2b7d1e278b5026c534ef"}, {"is_disabled": 0, "is_reserved": 0, "type": "electric_scooter", "lon": -77.08113883333333, "fusion_lon": 0.0, "lat": 38.92461466666666, "rental_uris": {"android": "https://dc.lft.to/lastmile_qr_scan", "ios": "https://dc.lft.to/lastmile_qr_scan"}, "fusion_lat": 0.0, "name": "335ca64d7cdb57c324529ff3a79ca4ce", "bike_id": "335ca64d7cdb57c324529ff3a79ca4ce"}, {"is_disabled": 0, "is_reserved": 0, "type": "electric_scooter", "lon": -76.99177116666667, "fusion_lon": 0.0, "lat": 38.8891115, "rental_uris": {"android": "https://dc.lft.to/lastmile_qr_scan", "ios": "https://dc.lft.to/lastmile_qr_scan"}, "fusion_lat": 0.0, "name": "7d90b7f425e3427366855de63a3d61c0", "bike_id": "7d90b7f425e3427366855de63a3d61c0"}, {"is_disabled": 0, "is_reserved": 0, "type": "electric_scooter", "lon": -77.03973533333334, "fusion_lon": 0.0, "lat": 38.902565833333334, "rental_uris": {"android": "https://dc.lft.to/lastmile_qr_scan", "ios": "https://dc.lft.to/lastmile_qr_scan"}, "fusion_lat": 0.0, "name": "aef1ba10e200acd5d3ee3d8bc088ddd4", "bike_id": "aef1ba10e200acd5d3ee3d8bc088ddd4"}, {"is_disabled": 0, "is_reserved": 0, "type": "electric_scooter", "lon": -77.01766066666667, "fusion_lon": 0.0, "lat": 38.890798333333336, "rental_uris": {"android": "https://dc.lft.to/lastmile_qr_scan", "ios": "https://dc.lft.to/lastmile_qr_scan"}, "fusion_lat": 0.0, "name": "9b025d698da24ffb25aa519ed63853a7", "bike_id": "9b025d698da24ffb25aa519ed63853a7"}, {"is_disabled": 0, "is_reserved": 0, "type": "electric_scooter", "lon": -77.03839916666666, "fusion_lon": 0.0, "lat": 38.93111416666667, "rental_uris": {"android": "https://dc.lft.to/lastmile_qr_scan", "ios": "https://dc.lft.to/lastmile_qr_scan"}, "fusion_lat": 0.0, "name": "bff44556ee58dbd7f25e972ead0a1c77", "bike_id": "bff44556ee58dbd7f25e972ead0a1c77"}, {"is_disabled": 0, "is_reserved": 0, "type": "electric_scooter", "lon": -77.01200366666667, "fusion_lon": 0.0, "lat": 38.89620933333333, "rental_uris": {"android": "https://dc.lft.to/lastmile_qr_scan", "ios": "https://dc.lft.to/lastmile_qr_scan"}, "fusion_lat": 0.0, "name": "933ea5f2acafbd99628097aaea85c1e0", "bike_id": "933ea5f2acafbd99628097aaea85c1e0"}, {"is_disabled": 0, "is_reserved": 0, "type": "electric_scooter", "lon": -77.0109485, "fusion_lon": 0.0, "lat": 38.905615, "rental_uris": {"android": "https://dc.lft.to/lastmile_qr_scan", "ios": "https://dc.lft.to/lastmile_qr_scan"}, "fusion_lat": 0.0, "name": "f76457b3cf7080cbe93e4ffe0db9a915", "bike_id": "f76457b3cf7080cbe93e4ffe0db9a915"}, {"is_disabled": 0, "is_reserved": 0, "type": "electric_scooter", "lon": -77.00186266666667, "fusion_lon": 0.0, "lat": 38.90010433333333, "rental_uris": {"android": "https://dc.lft.to/lastmile_qr_scan", "ios": "https://dc.lft.to/lastmile_qr_scan"}, "fusion_lat": 0.0, "name": "d40ebedde7df9eb4442414dc830c88c2", "bike_id": "d40ebedde7df9eb4442414dc830c88c2"}, {"is_disabled": 0, "is_reserved": 0, "type": "electric_bike", "lon": -76.93534883333334, "fusion_lon": 0.0, "lat": 38.9555505, "rental_uris": {"android": "https://dc.lft.to/lastmile_qr_scan", "ios": "https://dc.lft.to/lastmile_qr_scan"}, "fusion_lat": 0.0, "name": "c2312a8abe5a095cf892535e92264b51", "bike_id": "c2312a8abe5a095cf892535e92264b51"}, {"is_disabled": 0, "is_reserved": 0, "type": "electric_scooter", "lon": -77.047475, "fusion_lon": 0.0, "lat": 38.902341666666665, "rental_uris": {"android": "https://dc.lft.to/lastmile_qr_scan", "ios": "https://dc.lft.to/lastmile_qr_scan"}, "fusion_lat": 0.0, "name": "7c3bdf2952dd9840796fe61c55f3dcc3", "bike_id": "7c3bdf2952dd9840796fe61c55f3dcc3"}, {"is_disabled": 0, "is_reserved": 0, "type": "electric_bike", "lon": -77.122553, "fusion_lon": 0.0, "lat": 38.88769416666667, "rental_uris": {"android": "https://dc.lft.to/lastmile_qr_scan", "ios": "https://dc.lft.to/lastmile_qr_scan"}, "fusion_lat": 0.0, "name": "db65ce79d5e3df9b68d11f2dd22c8457", "bike_id": "db65ce79d5e3df9b68d11f2dd22c8457"}, {"is_disabled": 0, "is_reserved": 0, "type": "electric_bike", "lon": -77.076819, "fusion_lon": 0.0, "lat": 38.831936166666665, "rental_uris": {"android": "https://dc.lft.to/lastmile_qr_scan", "ios": "https://dc.lft.to/lastmile_qr_scan"}, "fusion_lat": 0.0, "name": "1cb5e6f933b3f079a5d5c3ed91a6563f", "bike_id": "1cb5e6f933b3f079a5d5c3ed91a6563f"}, {"is_disabled": 0, "is_reserved": 0, "type": "electric_bike", "lon": -77.11226516666666, "fusion_lon": 0.0, "lat": 38.8287135, "rental_uris": {"android": "https://dc.lft.to/lastmile_qr_scan", "ios": "https://dc.lft.to/lastmile_qr_scan"}, "fusion_lat": 0.0, "name": "56a806863fb474b4a0b1369e3e70c8a8", "bike_id": "56a806863fb474b4a0b1369e3e70c8a8"}, {"is_disabled": 0, "is_reserved": 0, "type": "electric_scooter", "lon": -77.04101766666666, "fusion_lon": 0.0, "lat": 38.9003675, "rental_uris": {"android": "https://dc.lft.to/lastmile_qr_scan", "ios": "https://dc.lft.to/lastmile_qr_scan"}, "fusion_lat": 0.0, "name": "386de481d1f9c498cc30149c9f0b5ff6", "bike_id": "386de481d1f9c498cc30149c9f0b5ff6"}, {"is_disabled": 0, "is_reserved": 0, "type": "electric_scooter", "lon": -77.04387083333333, "fusion_lon": 0.0, "lat": 38.90584533333333, "rental_uris": {"android": "https://dc.lft.to/lastmile_qr_scan", "ios": "https://dc.lft.to/lastmile_qr_scan"}, "fusion_lat": 0.0, "name": "26c0c37d16306f342a88803ae6c0fe25", "bike_id": "26c0c37d16306f342a88803ae6c0fe25"}, {"is_disabled": 0, "is_reserved": 0, "type": "electric_scooter", "lon": -76.94895433333333, "fusion_lon": 0.0, "lat": 38.895264166666664, "rental_uris": {"android": "https://dc.lft.to/lastmile_qr_scan", "ios": "https://dc.lft.to/lastmile_qr_scan"}, "fusion_lat": 0.0, "name": "a31d9033da8d20fb1f19655a9c27d368", "bike_id": "a31d9033da8d20fb1f19655a9c27d368"}, {"is_disabled": 0, "is_reserved": 0, "type": "electric_scooter", "lon": -76.9738115, "fusion_lon": 0.0, "lat": 38.883780333333334, "rental_uris": {"android": "https://dc.lft.to/lastmile_qr_scan", "ios": "https://dc.lft.to/lastmile_qr_scan"}, "fusion_lat": 0.0, "name": "3afe7c230a82650c01c19b2e7cbeb62f", "bike_id": "3afe7c230a82650c01c19b2e7cbeb62f"}, {"is_disabled": 0, "is_reserved": 0, "type": "electric_scooter", "lon": -76.947858, "fusion_lon": 0.0, "lat": 38.884657, "rental_uris": {"android": "https://dc.lft.to/lastmile_qr_scan", "ios": "https://dc.lft.to/lastmile_qr_scan"}, "fusion_lat": 0.0, "name": "4e2c046667b2edb4182e9494a2422474", "bike_id": "4e2c046667b2edb4182e9494a2422474"}, {"is_disabled": 0, "is_reserved": 0, "type": "electric_scooter", "lon": -77.03656966666667, "fusion_lon": 0.0, "lat": 38.954983666666664, "rental_uris": {"android": "https://dc.lft.to/lastmile_qr_scan", "ios": "https://dc.lft.to/lastmile_qr_scan"}, "fusion_lat": 0.0, "name": "a756d8a6114f9e8cd86ff8f3a0c4205b", "bike_id": "a756d8a6114f9e8cd86ff8f3a0c4205b"}, {"is_disabled": 0, "is_reserved": 0, "type": "electric_scooter", "lon": -77.05404116666666, "fusion_lon": 0.0, "lat": 38.950459333333335, "rental_uris": {"android": "https://dc.lft.to/lastmile_qr_scan", "ios": "https://dc.lft.to/lastmile_qr_scan"}, "fusion_lat": 0.0, "name": "0d7cf793fcbc5785b80efacd1b6072ba", "bike_id": "0d7cf793fcbc5785b80efacd1b6072ba"}, {"is_disabled": 0, "is_reserved": 0, "type": "electric_scooter", "lon": -77.04069916666667, "fusion_lon": 0.0, "lat": 38.896184166666664, "rental_uris": {"android": "https://dc.lft.to/lastmile_qr_scan", "ios": "https://dc.lft.to/lastmile_qr_scan"}, "fusion_lat": 0.0, "name": "70b6707a2039a0f918aa7d2c0f1875ec", "bike_id": "70b6707a2039a0f918aa7d2c0f1875ec"}, {"is_disabled": 0, "is_reserved": 0, "type": "electric_scooter", "lon": -77.02161316666667, "fusion_lon": 0.0, "lat": 38.92614433333333, "rental_uris": {"android": "https://dc.lft.to/lastmile_qr_scan", "ios": "https://dc.lft.to/lastmile_qr_scan"}, "fusion_lat": 0.0, "name": "14b59adf61410bd270e0de62769a3f8c", "bike_id": "14b59adf61410bd270e0de62769a3f8c"}, {"is_disabled": 0, "is_reserved": 0, "type": "electric_scooter", "lon": -77.003127, "fusion_lon": 0.0, "lat": 38.8403295, "rental_uris": {"android": "https://dc.lft.to/lastmile_qr_scan", "ios": "https://dc.lft.to/lastmile_qr_scan"}, "fusion_lat": 0.0, "name": "b49943f9ce10f17186a8572c25b73499", "bike_id": "b49943f9ce10f17186a8572c25b73499"}, {"is_disabled": 0, "is_reserved": 0, "type": "electric_scooter", "lon": -77.03627483333334, "fusion_lon": 0.0, "lat": 38.9368625, "rental_uris": {"android": "https://dc.lft.to/lastmile_qr_scan", "ios": "https://dc.lft.to/lastmile_qr_scan"}, "fusion_lat": 0.0, "name": "d02e58825647b87e9059c991c140159f", "bike_id": "d02e58825647b87e9059c991c140159f"}, {"is_disabled": 0, "is_reserved": 0, "type": "electric_scooter", "lon": -76.994986, "fusion_lon": 0.0, "lat": 38.88582433333333, "rental_uris": {"android": "https://dc.lft.to/lastmile_qr_scan", "ios": "https://dc.lft.to/lastmile_qr_scan"}, "fusion_lat": 0.0, "name": "f923462f1cbc5a4a826f43e56cd4486c", "bike_id": "f923462f1cbc5a4a826f43e56cd4486c"}, {"is_disabled": 0, "is_reserved": 0, "type": "electric_bike", "lon": -77.06959433333333, "fusion_lon": 0.0, "lat": 38.990604833333336, "rental_uris": {"android": "https://dc.lft.to/lastmile_qr_scan", "ios": "https://dc.lft.to/lastmile_qr_scan"}, "fusion_lat": 0.0, "name": "2e8d5b2ae053f5e331d008d9e37d91a1", "bike_id": "2e8d5b2ae053f5e331d008d9e37d91a1"}, {"is_disabled": 0, "is_reserved": 0, "type": "electric_scooter", "lon": -77.050344, "fusion_lon": 0.0, "lat": 38.89825966666667, "rental_uris": {"android": "https://dc.lft.to/lastmile_qr_scan", "ios": "https://dc.lft.to/lastmile_qr_scan"}, "fusion_lat": 0.0, "name": "9e0747ddb7973b24f9bba5a0397b591a", "bike_id": "9e0747ddb7973b24f9bba5a0397b591a"}, {"is_disabled": 0, "is_reserved": 0, "type": "electric_scooter", "lon": -77.01617566666667, "fusion_lon": 0.0, "lat": 38.88741566666667, "rental_uris": {"android": "https://dc.lft.to/lastmile_qr_scan", "ios": "https://dc.lft.to/lastmile_qr_scan"}, "fusion_lat": 0.0, "name": "70f9d6067188a1fea2c0096fc380387b", "bike_id": "70f9d6067188a1fea2c0096fc380387b"}, {"is_disabled": 0, "is_reserved": 0, "type": "electric_scooter", "lon": -77.03446016666666, "fusion_lon": 0.0, "lat": 38.904874, "rental_uris": {"android": "https://dc.lft.to/lastmile_qr_scan", "ios": "https://dc.lft.to/lastmile_qr_scan"}, "fusion_lat": 0.0, "name": "731e8696d6e48d87f0cba45b9e61423b", "bike_id": "731e8696d6e48d87f0cba45b9e61423b"}, {"is_disabled": 0, "is_reserved": 0, "type": "electric_scooter", "lon": -76.98114566666666, "fusion_lon": 0.0, "lat": 38.89605483333333, "rental_uris": {"android": "https://dc.lft.to/lastmile_qr_scan", "ios": "https://dc.lft.to/lastmile_qr_scan"}, "fusion_lat": 0.0, "name": "09d7c838bbcd7df3a754432a5a74caac", "bike_id": "09d7c838bbcd7df3a754432a5a74caac"}, {"is_disabled": 0, "is_reserved": 0, "type": "electric_scooter", "lon": -77.013926, "fusion_lon": 0.0, "lat": 38.880294666666664, "rental_uris": {"android": "https://dc.lft.to/lastmile_qr_scan", "ios": "https://dc.lft.to/lastmile_qr_scan"}, "fusion_lat": 0.0, "name": "c165470948120a46415989d0f2c6e2b8", "bike_id": "c165470948120a46415989d0f2c6e2b8"}, {"is_disabled": 0, "is_reserved": 0, "type": "electric_scooter", "lon": -77.01664616666666, "fusion_lon": 0.0, "lat": 38.8832995, "rental_uris": {"android": "https://dc.lft.to/lastmile_qr_scan", "ios": "https://dc.lft.to/lastmile_qr_scan"}, "fusion_lat": 0.0, "name": "953f117f3d23af00aaf983d47fe3ff3e", "bike_id": "953f117f3d23af00aaf983d47fe3ff3e"}, {"is_disabled": 0, "is_reserved": 0, "type": "electric_bike", "lon": -77.0312575, "fusion_lon": 0.0, "lat": 38.973747, "rental_uris": {"android": "https://dc.lft.to/lastmile_qr_scan", "ios": "https://dc.lft.to/lastmile_qr_scan"}, "fusion_lat": 0.0, "name": "5756ffc77ccddc97949907283c8440d5", "bike_id": "5756ffc77ccddc97949907283c8440d5"}, {"is_disabled": 0, "is_reserved": 0, "type": "electric_scooter", "lon": -77.02801833333334, "fusion_lon": 0.0, "lat": 38.916773666666664, "rental_uris": {"android": "https://dc.lft.to/lastmile_qr_scan", "ios": "https://dc.lft.to/lastmile_qr_scan"}, "fusion_lat": 0.0, "name": "7e3ae77489e4bcfe078eb394af77e075", "bike_id": "7e3ae77489e4bcfe078eb394af77e075"}, {"is_disabled": 0, "is_reserved": 0, "type": "electric_scooter", "lon": -77.02802183333333, "fusion_lon": 0.0, "lat": 38.907408833333335, "rental_uris": {"android": "https://dc.lft.to/lastmile_qr_scan", "ios": "https://dc.lft.to/lastmile_qr_scan"}, "fusion_lat": 0.0, "name": "268bbf2a9d4cf795a3b01d1009ee47c3", "bike_id": "268bbf2a9d4cf795a3b01d1009ee47c3"}, {"is_disabled": 0, "is_reserved": 0, "type": "electric_scooter", "lon": -77.07078483333333, "fusion_lon": 0.0, "lat": 38.939052833333335, "rental_uris": {"android": "https://dc.lft.to/lastmile_qr_scan", "ios": "https://dc.lft.to/lastmile_qr_scan"}, "fusion_lat": 0.0, "name": "cf5e15b3ee1b83f31ddb1356575ced98", "bike_id": "cf5e15b3ee1b83f31ddb1356575ced98"}, {"is_disabled": 0, "is_reserved": 0, "type": "electric_scooter", "lon": -77.02327, "fusion_lon": 0.0, "lat": 38.90931766666667, "rental_uris": {"android": "https://dc.lft.to/lastmile_qr_scan", "ios": "https://dc.lft.to/lastmile_qr_scan"}, "fusion_lat": 0.0, "name": "e8eca27f26c8caa3d95fcd651aad0937", "bike_id": "e8eca27f26c8caa3d95fcd651aad0937"}, {"is_disabled": 0, "is_reserved": 0, "type": "electric_scooter", "lon": -76.99610716666666, "fusion_lon": 0.0, "lat": 38.864676, "rental_uris": {"android": "https://dc.lft.to/lastmile_qr_scan", "ios": "https://dc.lft.to/lastmile_qr_scan"}, "fusion_lat": 0.0, "name": "89b2bf0918022e3528923e3e43de669d", "bike_id": "89b2bf0918022e3528923e3e43de669d"}, {"is_disabled": 0, "is_reserved": 0, "type": "electric_scooter", "lon": -77.020511, "fusion_lon": 0.0, "lat": 38.958724333333336, "rental_uris": {"android": "https://dc.lft.to/lastmile_qr_scan", "ios": "https://dc.lft.to/lastmile_qr_scan"}, "fusion_lat": 0.0, "name": "1066bb6d6fc15acccce072e48236e557", "bike_id": "1066bb6d6fc15acccce072e48236e557"}, {"is_disabled": 0, "is_reserved": 0, "type": "electric_scooter", "lon": -76.990543, "fusion_lon": 0.0, "lat": 38.8636175, "rental_uris": {"android": "https://dc.lft.to/lastmile_qr_scan", "ios": "https://dc.lft.to/lastmile_qr_scan"}, "fusion_lat": 0.0, "name": "d2ca542126d68dfffa8e8964b4fbc96f", "bike_id": "d2ca542126d68dfffa8e8964b4fbc96f"}, {"is_disabled": 0, "is_reserved": 0, "type": "electric_bike", "lon": -77.10649416666666, "fusion_lon": 0.0, "lat": 39.030015166666665, "rental_uris": {"android": "https://dc.lft.to/lastmile_qr_scan", "ios": "https://dc.lft.to/lastmile_qr_scan"}, "fusion_lat": 0.0, "name": "d69b0612303a0b2f44dc57ec51cb3430", "bike_id": "d69b0612303a0b2f44dc57ec51cb3430"}, {"is_disabled": 0, "is_reserved": 0, "type": "electric_scooter", "lon": -77.04406866666666, "fusion_lon": 0.0, "lat": 38.929478333333336, "rental_uris": {"android": "https://dc.lft.to/lastmile_qr_scan", "ios": "https://dc.lft.to/lastmile_qr_scan"}, "fusion_lat": 0.0, "name": "f6509c3d1f307ea0bb4318a8eb6a8c03", "bike_id": "f6509c3d1f307ea0bb4318a8eb6a8c03"}, {"is_disabled": 0, "is_reserved": 0, "type": "electric_scooter", "lon": -77.03978816666667, "fusion_lon": 0.0, "lat": 38.90522833333333, "rental_uris": {"android": "https://dc.lft.to/lastmile_qr_scan", "ios": "https://dc.lft.to/lastmile_qr_scan"}, "fusion_lat": 0.0, "name": "666748386936db85974b5aa31c4e5b76", "bike_id": "666748386936db85974b5aa31c4e5b76"}, {"is_disabled": 0, "is_reserved": 0, "type": "electric_scooter", "lon": -77.02050233333334, "fusion_lon": 0.0, "lat": 38.941243166666666, "rental_uris": {"android": "https://dc.lft.to/lastmile_qr_scan", "ios": "https://dc.lft.to/lastmile_qr_scan"}, "fusion_lat": 0.0, "name": "f92d09fd5f57d39616953cf6973402c3", "bike_id": "f92d09fd5f57d39616953cf6973402c3"}, {"is_disabled": 0, "is_reserved": 0, "type": "electric_scooter", "lon": -77.01958066666667, "fusion_lon": 0.0, "lat": 38.905570166666664, "rental_uris": {"android": "https://dc.lft.to/lastmile_qr_scan", "ios": "https://dc.lft.to/lastmile_qr_scan"}, "fusion_lat": 0.0, "name": "e68c9b734d736ed55c41e1b5fd13177d", "bike_id": "e68c9b734d736ed55c41e1b5fd13177d"}, {"is_disabled": 0, "is_reserved": 0, "type": "electric_scooter", "lon": -77.01248033333333, "fusion_lon": 0.0, "lat": 38.931112666666664, "rental_uris": {"android": "https://dc.lft.to/lastmile_qr_scan", "ios": "https://dc.lft.to/lastmile_qr_scan"}, "fusion_lat": 0.0, "name": "414a9ce22ce7b98b2ecf06923ce11ca2", "bike_id": "414a9ce22ce7b98b2ecf06923ce11ca2"}, {"is_disabled": 0, "is_reserved": 0, "type": "electric_scooter", "lon": -77.02467083333333, "fusion_lon": 0.0, "lat": 38.937509666666664, "rental_uris": {"android": "https://dc.lft.to/lastmile_qr_scan", "ios": "https://dc.lft.to/lastmile_qr_scan"}, "fusion_lat": 0.0, "name": "9e415584f9079c0fb75768a751cca4b1", "bike_id": "9e415584f9079c0fb75768a751cca4b1"}, {"is_disabled": 0, "is_reserved": 0, "type": "electric_scooter", "lon": -77.04135683333334, "fusion_lon": 0.0, "lat": 38.921338666666664, "rental_uris": {"android": "https://dc.lft.to/lastmile_qr_scan", "ios": "https://dc.lft.to/lastmile_qr_scan"}, "fusion_lat": 0.0, "name": "ee5298da02e09199a1806e9a482a0418", "bike_id": "ee5298da02e09199a1806e9a482a0418"}, {"is_disabled": 0, "is_reserved": 0, "type": "electric_scooter", "lon": -77.03288633333334, "fusion_lon": 0.0, "lat": 38.92757483333333, "rental_uris": {"android": "https://dc.lft.to/lastmile_qr_scan", "ios": "https://dc.lft.to/lastmile_qr_scan"}, "fusion_lat": 0.0, "name": "38e843cdcbdd11951d4e10c44db5df68", "bike_id": "38e843cdcbdd11951d4e10c44db5df68"}, {"is_disabled": 0, "is_reserved": 0, "type": "electric_scooter", "lon": -77.02718683333333, "fusion_lon": 0.0, "lat": 38.9247885, "rental_uris": {"android": "https://dc.lft.to/lastmile_qr_scan", "ios": "https://dc.lft.to/lastmile_qr_scan"}, "fusion_lat": 0.0, "name": "11e5ea97d9ad17d91710ed1b229f400f", "bike_id": "11e5ea97d9ad17d91710ed1b229f400f"}, {"is_disabled": 0, "is_reserved": 0, "type": "electric_scooter", "lon": -77.00272766666667, "fusion_lon": 0.0, "lat": 38.905734333333335, "rental_uris": {"android": "https://dc.lft.to/lastmile_qr_scan", "ios": "https://dc.lft.to/lastmile_qr_scan"}, "fusion_lat": 0.0, "name": "5d5ba6453f82aad39806b39bf23efcd2", "bike_id": "5d5ba6453f82aad39806b39bf23efcd2"}, {"is_disabled": 0, "is_reserved": 0, "type": "electric_scooter", "lon": -77.00943866666667, "fusion_lon": 0.0, "lat": 38.89497316666667, "rental_uris": {"android": "https://dc.lft.to/lastmile_qr_scan", "ios": "https://dc.lft.to/lastmile_qr_scan"}, "fusion_lat": 0.0, "name": "1ddae5ba544ab5cb0a2b7d1424a82ef8", "bike_id": "1ddae5ba544ab5cb0a2b7d1424a82ef8"}, {"is_disabled": 0, "is_reserved": 0, "type": "electric_scooter", "lon": -77.04062266666666, "fusion_lon": 0.0, "lat": 38.917688166666665, "rental_uris": {"android": "https://dc.lft.to/lastmile_qr_scan", "ios": "https://dc.lft.to/lastmile_qr_scan"}, "fusion_lat": 0.0, "name": "2a2ad95f2b89ee32868104f14153cf75", "bike_id": "2a2ad95f2b89ee32868104f14153cf75"}, {"is_disabled": 0, "is_reserved": 0, "type": "electric_scooter", "lon": -77.00225816666666, "fusion_lon": 0.0, "lat": 38.913364333333334, "rental_uris": {"android": "https://dc.lft.to/lastmile_qr_scan", "ios": "https://dc.lft.to/lastmile_qr_scan"}, "fusion_lat": 0.0, "name": "37209c46d08bff4fde0de061b09b07a0", "bike_id": "37209c46d08bff4fde0de061b09b07a0"}, {"is_disabled": 0, "is_reserved": 0, "type": "electric_bike", "lon": -77.08432633333334, "fusion_lon": 0.0, "lat": 38.81028366666666, "rental_uris": {"android": "https://dc.lft.to/lastmile_qr_scan", "ios": "https://dc.lft.to/lastmile_qr_scan"}, "fusion_lat": 0.0, "name": "bd8926d5372ca4f363336ec67fde74eb", "bike_id": "bd8926d5372ca4f363336ec67fde74eb"}, {"is_disabled": 0, "is_reserved": 0, "type": "electric_scooter", "lon": -77.02333233333333, "fusion_lon": 0.0, "lat": 38.922328666666665, "rental_uris": {"android": "https://dc.lft.to/lastmile_qr_scan", "ios": "https://dc.lft.to/lastmile_qr_scan"}, "fusion_lat": 0.0, "name": "4cb54a01e0a8f9c053fbc639f55fa9d9", "bike_id": "4cb54a01e0a8f9c053fbc639f55fa9d9"}, {"is_disabled": 0, "is_reserved": 0, "type": "electric_bike", "lon": -76.975015, "fusion_lon": 0.0, "lat": 38.919380333333336, "rental_uris": {"android": "https://dc.lft.to/lastmile_qr_scan", "ios": "https://dc.lft.to/lastmile_qr_scan"}, "fusion_lat": 0.0, "name": "23b5a04a445aa76c843de9851fba83a8", "bike_id": "23b5a04a445aa76c843de9851fba83a8"}, {"is_disabled": 0, "is_reserved": 0, "type": "electric_scooter", "lon": -77.00566433333333, "fusion_lon": 0.0, "lat": 38.8860195, "rental_uris": {"android": "https://dc.lft.to/lastmile_qr_scan", "ios": "https://dc.lft.to/lastmile_qr_scan"}, "fusion_lat": 0.0, "name": "62266468cc5f091fb745eef52695ac0a", "bike_id": "62266468cc5f091fb745eef52695ac0a"}, {"is_disabled": 0, "is_reserved": 0, "type": "electric_scooter", "lon": -77.0428065, "fusion_lon": 0.0, "lat": 38.9169905, "rental_uris": {"android": "https://dc.lft.to/lastmile_qr_scan", "ios": "https://dc.lft.to/lastmile_qr_scan"}, "fusion_lat": 0.0, "name": "5eeb409e1c3f791e9aa97b9b523f3304", "bike_id": "5eeb409e1c3f791e9aa97b9b523f3304"}, {"is_disabled": 0, "is_reserved": 0, "type": "electric_scooter", "lon": -77.0230245, "fusion_lon": 0.0, "lat": 38.91740683333333, "rental_uris": {"android": "https://dc.lft.to/lastmile_qr_scan", "ios": "https://dc.lft.to/lastmile_qr_scan"}, "fusion_lat": 0.0, "name": "aa54ef1aac9875867ab02732bafd5204", "bike_id": "aa54ef1aac9875867ab02732bafd5204"}, {"is_disabled": 0, "is_reserved": 0, "type": "electric_scooter", "lon": -77.0276525, "fusion_lon": 0.0, "lat": 38.943003166666664, "rental_uris": {"android": "https://dc.lft.to/lastmile_qr_scan", "ios": "https://dc.lft.to/lastmile_qr_scan"}, "fusion_lat": 0.0, "name": "c1544c278c73db4642b5f15916c5101b", "bike_id": "c1544c278c73db4642b5f15916c5101b"}, {"is_disabled": 0, "is_reserved": 0, "type": "electric_scooter", "lon": -76.97904466666667, "fusion_lon": 0.0, "lat": 38.90401883333333, "rental_uris": {"android": "https://dc.lft.to/lastmile_qr_scan", "ios": "https://dc.lft.to/lastmile_qr_scan"}, "fusion_lat": 0.0, "name": "df3111d37b41127f66f8cb6a68a9a6b9", "bike_id": "df3111d37b41127f66f8cb6a68a9a6b9"}, {"is_disabled": 0, "is_reserved": 0, "type": "electric_scooter", "lon": -76.94941366666667, "fusion_lon": 0.0, "lat": 38.89365183333334, "rental_uris": {"android": "https://dc.lft.to/lastmile_qr_scan", "ios": "https://dc.lft.to/lastmile_qr_scan"}, "fusion_lat": 0.0, "name": "44352b536a6bff867a18c35cc08ae8e0", "bike_id": "44352b536a6bff867a18c35cc08ae8e0"}, {"is_disabled": 0, "is_reserved": 0, "type": "electric_scooter", "lon": -77.04144783333334, "fusion_lon": 0.0, "lat": 38.923002833333335, "rental_uris": {"android": "https://dc.lft.to/lastmile_qr_scan", "ios": "https://dc.lft.to/lastmile_qr_scan"}, "fusion_lat": 0.0, "name": "be7f24d2b2d63c0cb6cbb4962f30693c", "bike_id": "be7f24d2b2d63c0cb6cbb4962f30693c"}, {"is_disabled": 0, "is_reserved": 0, "type": "electric_scooter", "lon": -76.99031716666667, "fusion_lon": 0.0, "lat": 38.898802, "rental_uris": {"android": "https://dc.lft.to/lastmile_qr_scan", "ios": "https://dc.lft.to/lastmile_qr_scan"}, "fusion_lat": 0.0, "name": "b7c1ecd11d82b31c95411e54059588ff", "bike_id": "b7c1ecd11d82b31c95411e54059588ff"}, {"is_disabled": 0, "is_reserved": 0, "type": "electric_scooter", "lon": -77.04726866666667, "fusion_lon": 0.0, "lat": 38.898404666666664, "rental_uris": {"android": "https://dc.lft.to/lastmile_qr_scan", "ios": "https://dc.lft.to/lastmile_qr_scan"}, "fusion_lat": 0.0, "name": "5c7e40507236e9823de81c7d847b9bc0", "bike_id": "5c7e40507236e9823de81c7d847b9bc0"}, {"is_disabled": 0, "is_reserved": 0, "type": "electric_scooter", "lon": -77.0405975, "fusion_lon": 0.0, "lat": 38.92405333333333, "rental_uris": {"android": "https://dc.lft.to/lastmile_qr_scan", "ios": "https://dc.lft.to/lastmile_qr_scan"}, "fusion_lat": 0.0, "name": "a72b15b2343b4936ac1ef52feaea10d2", "bike_id": "a72b15b2343b4936ac1ef52feaea10d2"}, {"is_disabled": 0, "is_reserved": 0, "type": "electric_scooter", "lon": -77.02155583333334, "fusion_lon": 0.0, "lat": 38.92604216666667, "rental_uris": {"android": "https://dc.lft.to/lastmile_qr_scan", "ios": "https://dc.lft.to/lastmile_qr_scan"}, "fusion_lat": 0.0, "name": "012fc88e5f512888f1a1cc432f9ca2c2", "bike_id": "012fc88e5f512888f1a1cc432f9ca2c2"}, {"is_disabled": 0, "is_reserved": 0, "type": "electric_scooter", "lon": -77.04177283333334, "fusion_lon": 0.0, "lat": 38.917343, "rental_uris": {"android": "https://dc.lft.to/lastmile_qr_scan", "ios": "https://dc.lft.to/lastmile_qr_scan"}, "fusion_lat": 0.0, "name": "df82dfd24cd28fe162b373365084e79e", "bike_id": "df82dfd24cd28fe162b373365084e79e"}, {"is_disabled": 0, "is_reserved": 0, "type": "electric_bike", "lon": -77.028781, "fusion_lon": 0.0, "lat": 38.99880916666667, "rental_uris": {"android": "https://dc.lft.to/lastmile_qr_scan", "ios": "https://dc.lft.to/lastmile_qr_scan"}, "fusion_lat": 0.0, "name": "11a9497fa36155f7ecffbe9675626c91", "bike_id": "11a9497fa36155f7ecffbe9675626c91"}, {"is_disabled": 0, "is_reserved": 0, "type": "electric_scooter", "lon": -76.97343983333333, "fusion_lon": 0.0, "lat": 38.86511633333333, "rental_uris": {"android": "https://dc.lft.to/lastmile_qr_scan", "ios": "https://dc.lft.to/lastmile_qr_scan"}, "fusion_lat": 0.0, "name": "3caa0ead34436dcce8de3e9a83f72570", "bike_id": "3caa0ead34436dcce8de3e9a83f72570"}, {"is_disabled": 0, "is_reserved": 0, "type": "electric_scooter", "lon": -77.067573, "fusion_lon": 0.0, "lat": 38.949803, "rental_uris": {"android": "https://dc.lft.to/lastmile_qr_scan", "ios": "https://dc.lft.to/lastmile_qr_scan"}, "fusion_lat": 0.0, "name": "a626846768ba8443db8ce3e83eb05f50", "bike_id": "a626846768ba8443db8ce3e83eb05f50"}, {"is_disabled": 0, "is_reserved": 0, "type": "electric_scooter", "lon": -77.05828083333333, "fusion_lon": 0.0, "lat": 38.935366333333334, "rental_uris": {"android": "https://dc.lft.to/lastmile_qr_scan", "ios": "https://dc.lft.to/lastmile_qr_scan"}, "fusion_lat": 0.0, "name": "1f904918d2db4a7b16b12b10a0dc5129", "bike_id": "1f904918d2db4a7b16b12b10a0dc5129"}, {"is_disabled": 0, "is_reserved": 0, "type": "electric_scooter", "lon": -77.02693816666667, "fusion_lon": 0.0, "lat": 38.9086625, "rental_uris": {"android": "https://dc.lft.to/lastmile_qr_scan", "ios": "https://dc.lft.to/lastmile_qr_scan"}, "fusion_lat": 0.0, "name": "0a47b5f9d60fb3b145e58a08bdcbac36", "bike_id": "0a47b5f9d60fb3b145e58a08bdcbac36"}, {"is_disabled": 0, "is_reserved": 0, "type": "electric_bike", "lon": -76.97209266666667, "fusion_lon": 0.0, "lat": 38.844794666666665, "rental_uris": {"android": "https://dc.lft.to/lastmile_qr_scan", "ios": "https://dc.lft.to/lastmile_qr_scan"}, "fusion_lat": 0.0, "name": "7c2ca251af29bc38329a39f2933f815e", "bike_id": "7c2ca251af29bc38329a39f2933f815e"}, {"is_disabled": 0, "is_reserved": 0, "type": "electric_scooter", "lon": -77.05909916666667, "fusion_lon": 0.0, "lat": 38.905389666666665, "rental_uris": {"android": "https://dc.lft.to/lastmile_qr_scan", "ios": "https://dc.lft.to/lastmile_qr_scan"}, "fusion_lat": 0.0, "name": "5cecf5569ec07f7b6341400056c83621", "bike_id": "5cecf5569ec07f7b6341400056c83621"}, {"is_disabled": 0, "is_reserved": 0, "type": "electric_scooter", "lon": -77.0175105, "fusion_lon": 0.0, "lat": 38.88584183333333, "rental_uris": {"android": "https://dc.lft.to/lastmile_qr_scan", "ios": "https://dc.lft.to/lastmile_qr_scan"}, "fusion_lat": 0.0, "name": "5105a35334120caf3eb1a7ab95f54e4c", "bike_id": "5105a35334120caf3eb1a7ab95f54e4c"}, {"is_disabled": 0, "is_reserved": 0, "type": "electric_bike", "lon": -77.04976633333334, "fusion_lon": 0.0, "lat": 38.992432, "rental_uris": {"android": "https://dc.lft.to/lastmile_qr_scan", "ios": "https://dc.lft.to/lastmile_qr_scan"}, "fusion_lat": 0.0, "name": "60a009eb9cc91105d652e5a12b59c5fe", "bike_id": "60a009eb9cc91105d652e5a12b59c5fe"}, {"is_disabled": 0, "is_reserved": 0, "type": "electric_scooter", "lon": -77.02551, "fusion_lon": 0.0, "lat": 38.91635733333333, "rental_uris": {"android": "https://dc.lft.to/lastmile_qr_scan", "ios": "https://dc.lft.to/lastmile_qr_scan"}, "fusion_lat": 0.0, "name": "5403f69c49a31d25016201255aa1b59a", "bike_id": "5403f69c49a31d25016201255aa1b59a"}, {"is_disabled": 0, "is_reserved": 0, "type": "electric_scooter", "lon": -77.0467775, "fusion_lon": 0.0, "lat": 38.915754166666666, "rental_uris": {"android": "https://dc.lft.to/lastmile_qr_scan", "ios": "https://dc.lft.to/lastmile_qr_scan"}, "fusion_lat": 0.0, "name": "a19b76b24c0fa1759ec3ceb1e0dafb05", "bike_id": "a19b76b24c0fa1759ec3ceb1e0dafb05"}, {"is_disabled": 0, "is_reserved": 0, "type": "electric_scooter", "lon": -77.0234725, "fusion_lon": 0.0, "lat": 38.94295, "rental_uris": {"android": "https://dc.lft.to/lastmile_qr_scan", "ios": "https://dc.lft.to/lastmile_qr_scan"}, "fusion_lat": 0.0, "name": "2a9266bf91ac5e3acaa1117575600a87", "bike_id": "2a9266bf91ac5e3acaa1117575600a87"}, {"is_disabled": 0, "is_reserved": 0, "type": "electric_bike", "lon": -77.195463, "fusion_lon": 0.0, "lat": 39.115107333333334, "rental_uris": {"android": "https://dc.lft.to/lastmile_qr_scan", "ios": "https://dc.lft.to/lastmile_qr_scan"}, "fusion_lat": 0.0, "name": "a3579a9ab12340c184a893e1ec4e7fc6", "bike_id": "a3579a9ab12340c184a893e1ec4e7fc6"}, {"is_disabled": 0, "is_reserved": 0, "type": "electric_scooter", "lon": -76.9905505, "fusion_lon": 0.0, "lat": 38.85899383333334, "rental_uris": {"android": "https://dc.lft.to/lastmile_qr_scan", "ios": "https://dc.lft.to/lastmile_qr_scan"}, "fusion_lat": 0.0, "name": "7de20d0c0425109d44462778a49d027e", "bike_id": "7de20d0c0425109d44462778a49d027e"}, {"is_disabled": 0, "is_reserved": 0, "type": "electric_scooter", "lon": -77.00495283333333, "fusion_lon": 0.0, "lat": 38.8968975, "rental_uris": {"android": "https://dc.lft.to/lastmile_qr_scan", "ios": "https://dc.lft.to/lastmile_qr_scan"}, "fusion_lat": 0.0, "name": "281ac72cb66784e4fb80d2a9de668f89", "bike_id": "281ac72cb66784e4fb80d2a9de668f89"}, {"is_disabled": 0, "is_reserved": 0, "type": "electric_scooter", "lon": -77.00736033333334, "fusion_lon": 0.0, "lat": 38.903479833333336, "rental_uris": {"android": "https://dc.lft.to/lastmile_qr_scan", "ios": "https://dc.lft.to/lastmile_qr_scan"}, "fusion_lat": 0.0, "name": "01cb635c08e7a96b43126348279f1b5f", "bike_id": "01cb635c08e7a96b43126348279f1b5f"}, {"is_disabled": 0, "is_reserved": 0, "type": "electric_bike", "lon": -77.073933, "fusion_lon": 0.0, "lat": 38.961758333333336, "rental_uris": {"android": "https://dc.lft.to/lastmile_qr_scan", "ios": "https://dc.lft.to/lastmile_qr_scan"}, "fusion_lat": 0.0, "name": "7f06b5b0552725c72a57799592f11c64", "bike_id": "7f06b5b0552725c72a57799592f11c64"}, {"is_disabled": 0, "is_reserved": 0, "type": "electric_scooter", "lon": -76.99487866666666, "fusion_lon": 0.0, "lat": 38.86245666666667, "rental_uris": {"android": "https://dc.lft.to/lastmile_qr_scan", "ios": "https://dc.lft.to/lastmile_qr_scan"}, "fusion_lat": 0.0, "name": "efb569f50737fb07b8270966a04883e1", "bike_id": "efb569f50737fb07b8270966a04883e1"}, {"is_disabled": 0, "is_reserved": 0, "type": "electric_bike", "lon": -76.95468233333334, "fusion_lon": 0.0, "lat": 38.935763, "rental_uris": {"android": "https://dc.lft.to/lastmile_qr_scan", "ios": "https://dc.lft.to/lastmile_qr_scan"}, "fusion_lat": 0.0, "name": "c52b0b9c963bfbb76dae352cb9467158", "bike_id": "c52b0b9c963bfbb76dae352cb9467158"}, {"is_disabled": 0, "is_reserved": 0, "type": "electric_scooter", "lon": -76.9795155, "fusion_lon": 0.0, "lat": 38.905005833333334, "rental_uris": {"android": "https://dc.lft.to/lastmile_qr_scan", "ios": "https://dc.lft.to/lastmile_qr_scan"}, "fusion_lat": 0.0, "name": "c7fba5e07810dc1de9eb0d94c01a4143", "bike_id": "c7fba5e07810dc1de9eb0d94c01a4143"}, {"is_disabled": 0, "is_reserved": 0, "type": "electric_scooter", "lon": -77.0200155, "fusion_lon": 0.0, "lat": 38.92411366666666, "rental_uris": {"android": "https://dc.lft.to/lastmile_qr_scan", "ios": "https://dc.lft.to/lastmile_qr_scan"}, "fusion_lat": 0.0, "name": "505e89e7654c0b3a12b10346a5a7c5fe", "bike_id": "505e89e7654c0b3a12b10346a5a7c5fe"}, {"is_disabled": 0, "is_reserved": 0, "type": "electric_scooter", "lon": -77.00333, "fusion_lon": 0.0, "lat": 38.87496383333333, "rental_uris": {"android": "https://dc.lft.to/lastmile_qr_scan", "ios": "https://dc.lft.to/lastmile_qr_scan"}, "fusion_lat": 0.0, "name": "f163337657c27a44acba7705031eb5f5", "bike_id": "f163337657c27a44acba7705031eb5f5"}, {"is_disabled": 0, "is_reserved": 0, "type": "electric_scooter", "lon": -77.021648, "fusion_lon": 0.0, "lat": 38.89420666666667, "rental_uris": {"android": "https://dc.lft.to/lastmile_qr_scan", "ios": "https://dc.lft.to/lastmile_qr_scan"}, "fusion_lat": 0.0, "name": "a71489ef4a5f1871a129d44fbb58c042", "bike_id": "a71489ef4a5f1871a129d44fbb58c042"}, {"is_disabled": 0, "is_reserved": 0, "type": "electric_scooter", "lon": -77.02797783333334, "fusion_lon": 0.0, "lat": 38.89641683333333, "rental_uris": {"android": "https://dc.lft.to/lastmile_qr_scan", "ios": "https://dc.lft.to/lastmile_qr_scan"}, "fusion_lat": 0.0, "name": "a2dfe00cc2cb2757886df13fc87999df", "bike_id": "a2dfe00cc2cb2757886df13fc87999df"}, {"is_disabled": 0, "is_reserved": 0, "type": "electric_scooter", "lon": -77.04527033333333, "fusion_lon": 0.0, "lat": 38.903701166666664, "rental_uris": {"android": "https://dc.lft.to/lastmile_qr_scan", "ios": "https://dc.lft.to/lastmile_qr_scan"}, "fusion_lat": 0.0, "name": "8860e0bd5298dbe78ce13fb144f780a7", "bike_id": "8860e0bd5298dbe78ce13fb144f780a7"}, {"is_disabled": 0, "is_reserved": 0, "type": "electric_scooter", "lon": -77.0343165, "fusion_lon": 0.0, "lat": 38.90275183333333, "rental_uris": {"android": "https://dc.lft.to/lastmile_qr_scan", "ios": "https://dc.lft.to/lastmile_qr_scan"}, "fusion_lat": 0.0, "name": "9f7ed9c39043dbeaf797e29cc1d67711", "bike_id": "9f7ed9c39043dbeaf797e29cc1d67711"}, {"is_disabled": 0, "is_reserved": 0, "type": "electric_scooter", "lon": -77.02782, "fusion_lon": 0.0, "lat": 38.892205, "rental_uris": {"android": "https://dc.lft.to/lastmile_qr_scan", "ios": "https://dc.lft.to/lastmile_qr_scan"}, "fusion_lat": 0.0, "name": "debb302ca433add42f45d95393791d1e", "bike_id": "debb302ca433add42f45d95393791d1e"}, {"is_disabled": 0, "is_reserved": 0, "type": "electric_scooter", "lon": -77.02970866666666, "fusion_lon": 0.0, "lat": 38.90711183333333, "rental_uris": {"android": "https://dc.lft.to/lastmile_qr_scan", "ios": "https://dc.lft.to/lastmile_qr_scan"}, "fusion_lat": 0.0, "name": "7945f2e4837261895f32b841890cc51f", "bike_id": "7945f2e4837261895f32b841890cc51f"}, {"is_disabled": 0, "is_reserved": 0, "type": "electric_scooter", "lon": -77.04415183333333, "fusion_lon": 0.0, "lat": 38.90048216666667, "rental_uris": {"android": "https://dc.lft.to/lastmile_qr_scan", "ios": "https://dc.lft.to/lastmile_qr_scan"}, "fusion_lat": 0.0, "name": "4e64f3e2db0d0da274a26b821dbadc10", "bike_id": "4e64f3e2db0d0da274a26b821dbadc10"}, {"is_disabled": 0, "is_reserved": 0, "type": "electric_scooter", "lon": -77.031548, "fusion_lon": 0.0, "lat": 38.88762333333333, "rental_uris": {"android": "https://dc.lft.to/lastmile_qr_scan", "ios": "https://dc.lft.to/lastmile_qr_scan"}, "fusion_lat": 0.0, "name": "2bc84e877de28f23c203e58e5ae7d3e7", "bike_id": "2bc84e877de28f23c203e58e5ae7d3e7"}, {"is_disabled": 0, "is_reserved": 0, "type": "electric_scooter", "lon": -77.02257933333334, "fusion_lon": 0.0, "lat": 38.923088166666666, "rental_uris": {"android": "https://dc.lft.to/lastmile_qr_scan", "ios": "https://dc.lft.to/lastmile_qr_scan"}, "fusion_lat": 0.0, "name": "9ab073fb48fd6c3c6fc624b87f6a0e90", "bike_id": "9ab073fb48fd6c3c6fc624b87f6a0e90"}, {"is_disabled": 0, "is_reserved": 0, "type": "electric_scooter", "lon": -77.04160416666667, "fusion_lon": 0.0, "lat": 38.9085525, "rental_uris": {"android": "https://dc.lft.to/lastmile_qr_scan", "ios": "https://dc.lft.to/lastmile_qr_scan"}, "fusion_lat": 0.0, "name": "b15792d64998b8a3d9cf1677fa17c4aa", "bike_id": "b15792d64998b8a3d9cf1677fa17c4aa"}, {"is_disabled": 0, "is_reserved": 0, "type": "electric_scooter", "lon": -77.04669966666667, "fusion_lon": 0.0, "lat": 38.90666183333333, "rental_uris": {"android": "https://dc.lft.to/lastmile_qr_scan", "ios": "https://dc.lft.to/lastmile_qr_scan"}, "fusion_lat": 0.0, "name": "0eb5e70a86253df075b043712d496df9", "bike_id": "0eb5e70a86253df075b043712d496df9"}, {"is_disabled": 0, "is_reserved": 0, "type": "electric_scooter", "lon": -77.02536966666666, "fusion_lon": 0.0, "lat": 38.903206, "rental_uris": {"android": "https://dc.lft.to/lastmile_qr_scan", "ios": "https://dc.lft.to/lastmile_qr_scan"}, "fusion_lat": 0.0, "name": "e079786d2727f2f0c23320a79198b4a5", "bike_id": "e079786d2727f2f0c23320a79198b4a5"}, {"is_disabled": 0, "is_reserved": 0, "type": "electric_scooter", "lon": -77.039709, "fusion_lon": 0.0, "lat": 38.902398, "rental_uris": {"android": "https://dc.lft.to/lastmile_qr_scan", "ios": "https://dc.lft.to/lastmile_qr_scan"}, "fusion_lat": 0.0, "name": "e8cd5204bd1dc0ce36a96365664d3f31", "bike_id": "e8cd5204bd1dc0ce36a96365664d3f31"}, {"is_disabled": 0, "is_reserved": 0, "type": "electric_scooter", "lon": -76.93187333333333, "fusion_lon": 0.0, "lat": 38.89879033333333, "rental_uris": {"android": "https://dc.lft.to/lastmile_qr_scan", "ios": "https://dc.lft.to/lastmile_qr_scan"}, "fusion_lat": 0.0, "name": "9e9907f9cdaa009fa99130157b3f1bfb", "bike_id": "9e9907f9cdaa009fa99130157b3f1bfb"}, {"is_disabled": 0, "is_reserved": 0, "type": "electric_scooter", "lon": -77.03469733333333, "fusion_lon": 0.0, "lat": 38.90866533333333, "rental_uris": {"android": "https://dc.lft.to/lastmile_qr_scan", "ios": "https://dc.lft.to/lastmile_qr_scan"}, "fusion_lat": 0.0, "name": "a49044033675d0161641fae3eb10742d", "bike_id": "a49044033675d0161641fae3eb10742d"}, {"is_disabled": 0, "is_reserved": 0, "type": "electric_scooter", "lon": -76.98932533333334, "fusion_lon": 0.0, "lat": 38.9022735, "rental_uris": {"android": "https://dc.lft.to/lastmile_qr_scan", "ios": "https://dc.lft.to/lastmile_qr_scan"}, "fusion_lat": 0.0, "name": "63631d3f6f5f2df29d28ce7280661c60", "bike_id": "63631d3f6f5f2df29d28ce7280661c60"}, {"is_disabled": 0, "is_reserved": 0, "type": "electric_scooter", "lon": -77.04187183333333, "fusion_lon": 0.0, "lat": 38.90531883333333, "rental_uris": {"android": "https://dc.lft.to/lastmile_qr_scan", "ios": "https://dc.lft.to/lastmile_qr_scan"}, "fusion_lat": 0.0, "name": "1c1b5b6a4df5363c5b2da12ec4e81cda", "bike_id": "1c1b5b6a4df5363c5b2da12ec4e81cda"}, {"is_disabled": 0, "is_reserved": 0, "type": "electric_scooter", "lon": -77.05516733333333, "fusion_lon": 0.0, "lat": 38.944123, "rental_uris": {"android": "https://dc.lft.to/lastmile_qr_scan", "ios": "https://dc.lft.to/lastmile_qr_scan"}, "fusion_lat": 0.0, "name": "c460ecc77f4038a564e62e8232792c58", "bike_id": "c460ecc77f4038a564e62e8232792c58"}, {"is_disabled": 0, "is_reserved": 0, "type": "electric_scooter", "lon": -77.04381766666667, "fusion_lon": 0.0, "lat": 38.9104805, "rental_uris": {"android": "https://dc.lft.to/lastmile_qr_scan", "ios": "https://dc.lft.to/lastmile_qr_scan"}, "fusion_lat": 0.0, "name": "e7905e88abbb9e24b7174d3eb3ba3ebd", "bike_id": "e7905e88abbb9e24b7174d3eb3ba3ebd"}, {"is_disabled": 0, "is_reserved": 0, "type": "electric_scooter", "lon": -77.057285, "fusion_lon": 0.0, "lat": 38.933687166666665, "rental_uris": {"android": "https://dc.lft.to/lastmile_qr_scan", "ios": "https://dc.lft.to/lastmile_qr_scan"}, "fusion_lat": 0.0, "name": "3e1e8c486beffcf01d1512508e062a0a", "bike_id": "3e1e8c486beffcf01d1512508e062a0a"}, {"is_disabled": 0, "is_reserved": 0, "type": "electric_scooter", "lon": -77.03957733333333, "fusion_lon": 0.0, "lat": 38.924694833333334, "rental_uris": {"android": "https://dc.lft.to/lastmile_qr_scan", "ios": "https://dc.lft.to/lastmile_qr_scan"}, "fusion_lat": 0.0, "name": "679b93ccc562c5ff0e569e6eeb415508", "bike_id": "679b93ccc562c5ff0e569e6eeb415508"}, {"is_disabled": 0, "is_reserved": 0, "type": "electric_scooter", "lon": -77.03697983333333, "fusion_lon": 0.0, "lat": 38.9264445, "rental_uris": {"android": "https://dc.lft.to/lastmile_qr_scan", "ios": "https://dc.lft.to/lastmile_qr_scan"}, "fusion_lat": 0.0, "name": "c076e05150a8a6feca777fd2253d20c7", "bike_id": "c076e05150a8a6feca777fd2253d20c7"}, {"is_disabled": 0, "is_reserved": 0, "type": "electric_bike", "lon": -77.04360833333334, "fusion_lon": 0.0, "lat": 38.83183783333333, "rental_uris": {"android": "https://dc.lft.to/lastmile_qr_scan", "ios": "https://dc.lft.to/lastmile_qr_scan"}, "fusion_lat": 0.0, "name": "2960397edfad8dceedf4ade8305e4577", "bike_id": "2960397edfad8dceedf4ade8305e4577"}, {"is_disabled": 0, "is_reserved": 0, "type": "electric_scooter", "lon": -76.93368216666667, "fusion_lon": 0.0, "lat": 38.8992535, "rental_uris": {"android": "https://dc.lft.to/lastmile_qr_scan", "ios": "https://dc.lft.to/lastmile_qr_scan"}, "fusion_lat": 0.0, "name": "92ea07d87e78315bca8d59468e297d7d", "bike_id": "92ea07d87e78315bca8d59468e297d7d"}, {"is_disabled": 0, "is_reserved": 0, "type": "electric_scooter", "lon": -76.99001983333333, "fusion_lon": 0.0, "lat": 38.865059, "rental_uris": {"android": "https://dc.lft.to/lastmile_qr_scan", "ios": "https://dc.lft.to/lastmile_qr_scan"}, "fusion_lat": 0.0, "name": "714982b00254f14fa5186d31dcff251d", "bike_id": "714982b00254f14fa5186d31dcff251d"}, {"is_disabled": 0, "is_reserved": 0, "type": "electric_scooter", "lon": -77.02848433333334, "fusion_lon": 0.0, "lat": 38.92238433333333, "rental_uris": {"android": "https://dc.lft.to/lastmile_qr_scan", "ios": "https://dc.lft.to/lastmile_qr_scan"}, "fusion_lat": 0.0, "name": "9eac7b609f3508f3d89a6501cb1b24f9", "bike_id": "9eac7b609f3508f3d89a6501cb1b24f9"}, {"is_disabled": 0, "is_reserved": 0, "type": "electric_scooter", "lon": -77.02489083333333, "fusion_lon": 0.0, "lat": 38.91888516666667, "rental_uris": {"android": "https://dc.lft.to/lastmile_qr_scan", "ios": "https://dc.lft.to/lastmile_qr_scan"}, "fusion_lat": 0.0, "name": "40be6d2ddae01e2b360d193d996a5319", "bike_id": "40be6d2ddae01e2b360d193d996a5319"}, {"is_disabled": 0, "is_reserved": 0, "type": "electric_scooter", "lon": -77.02211033333333, "fusion_lon": 0.0, "lat": 38.8960485, "rental_uris": {"android": "https://dc.lft.to/lastmile_qr_scan", "ios": "https://dc.lft.to/lastmile_qr_scan"}, "fusion_lat": 0.0, "name": "c0fdd9d0e6a849b7a53b8ef109ba55b5", "bike_id": "c0fdd9d0e6a849b7a53b8ef109ba55b5"}, {"is_disabled": 0, "is_reserved": 0, "type": "electric_bike", "lon": -76.9833255, "fusion_lon": 0.0, "lat": 38.966045333333334, "rental_uris": {"android": "https://dc.lft.to/lastmile_qr_scan", "ios": "https://dc.lft.to/lastmile_qr_scan"}, "fusion_lat": 0.0, "name": "2048692114028a16d28dcdf0ee681c29", "bike_id": "2048692114028a16d28dcdf0ee681c29"}, {"is_disabled": 0, "is_reserved": 0, "type": "electric_scooter", "lon": -77.004505, "fusion_lon": 0.0, "lat": 38.877521333333334, "rental_uris": {"android": "https://dc.lft.to/lastmile_qr_scan", "ios": "https://dc.lft.to/lastmile_qr_scan"}, "fusion_lat": 0.0, "name": "32a94ec24db9f4fe556bbd444ea3f4c9", "bike_id": "32a94ec24db9f4fe556bbd444ea3f4c9"}, {"is_disabled": 0, "is_reserved": 0, "type": "electric_scooter", "lon": -77.024973, "fusion_lon": 0.0, "lat": 38.91805333333333, "rental_uris": {"android": "https://dc.lft.to/lastmile_qr_scan", "ios": "https://dc.lft.to/lastmile_qr_scan"}, "fusion_lat": 0.0, "name": "0f39181672c54a1e39637ad1bc392b89", "bike_id": "0f39181672c54a1e39637ad1bc392b89"}, {"is_disabled": 0, "is_reserved": 0, "type": "electric_scooter", "lon": -77.0305145, "fusion_lon": 0.0, "lat": 38.899709333333334, "rental_uris": {"android": "https://dc.lft.to/lastmile_qr_scan", "ios": "https://dc.lft.to/lastmile_qr_scan"}, "fusion_lat": 0.0, "name": "b11076e0c20cbd59e2476ad97a9d9e85", "bike_id": "b11076e0c20cbd59e2476ad97a9d9e85"}, {"is_disabled": 0, "is_reserved": 0, "type": "electric_scooter", "lon": -77.01614816666667, "fusion_lon": 0.0, "lat": 38.8875, "rental_uris": {"android": "https://dc.lft.to/lastmile_qr_scan", "ios": "https://dc.lft.to/lastmile_qr_scan"}, "fusion_lat": 0.0, "name": "4b13d898af0abfc64cbf5bc9292a299d", "bike_id": "4b13d898af0abfc64cbf5bc9292a299d"}, {"is_disabled": 0, "is_reserved": 0, "type": "electric_scooter", "lon": -77.032109, "fusion_lon": 0.0, "lat": 38.925835666666664, "rental_uris": {"android": "https://dc.lft.to/lastmile_qr_scan", "ios": "https://dc.lft.to/lastmile_qr_scan"}, "fusion_lat": 0.0, "name": "1a73cf6b22f0d37242b309d453b0a872", "bike_id": "1a73cf6b22f0d37242b309d453b0a872"}, {"is_disabled": 0, "is_reserved": 0, "type": "electric_scooter", "lon": -77.01655416666667, "fusion_lon": 0.0, "lat": 38.881186166666666, "rental_uris": {"android": "https://dc.lft.to/lastmile_qr_scan", "ios": "https://dc.lft.to/lastmile_qr_scan"}, "fusion_lat": 0.0, "name": "9ffcac19a347d5af5d86184d2565da35", "bike_id": "9ffcac19a347d5af5d86184d2565da35"}, {"is_disabled": 0, "is_reserved": 0, "type": "electric_scooter", "lon": -77.06348466666667, "fusion_lon": 0.0, "lat": 38.94440433333333, "rental_uris": {"android": "https://dc.lft.to/lastmile_qr_scan", "ios": "https://dc.lft.to/lastmile_qr_scan"}, "fusion_lat": 0.0, "name": "db3ec439745f400a4febab1e0746af8b", "bike_id": "db3ec439745f400a4febab1e0746af8b"}, {"is_disabled": 0, "is_reserved": 0, "type": "electric_scooter", "lon": -76.98951866666667, "fusion_lon": 0.0, "lat": 38.84403483333333, "rental_uris": {"android": "https://dc.lft.to/lastmile_qr_scan", "ios": "https://dc.lft.to/lastmile_qr_scan"}, "fusion_lat": 0.0, "name": "628eb79f3604fa397f5c395258d656b8", "bike_id": "628eb79f3604fa397f5c395258d656b8"}, {"is_disabled": 0, "is_reserved": 0, "type": "electric_scooter", "lon": -77.01887083333334, "fusion_lon": 0.0, "lat": 38.94644916666667, "rental_uris": {"android": "https://dc.lft.to/lastmile_qr_scan", "ios": "https://dc.lft.to/lastmile_qr_scan"}, "fusion_lat": 0.0, "name": "c64384a707be1cf9173d868b9aae9835", "bike_id": "c64384a707be1cf9173d868b9aae9835"}, {"is_disabled": 0, "is_reserved": 0, "type": "electric_scooter", "lon": -77.021953, "fusion_lon": 0.0, "lat": 38.92229366666667, "rental_uris": {"android": "https://dc.lft.to/lastmile_qr_scan", "ios": "https://dc.lft.to/lastmile_qr_scan"}, "fusion_lat": 0.0, "name": "456e1ee6234ad8f57f469110941c6c22", "bike_id": "456e1ee6234ad8f57f469110941c6c22"}, {"is_disabled": 0, "is_reserved": 0, "type": "electric_scooter", "lon": -77.005227, "fusion_lon": 0.0, "lat": 38.87915733333333, "rental_uris": {"android": "https://dc.lft.to/lastmile_qr_scan", "ios": "https://dc.lft.to/lastmile_qr_scan"}, "fusion_lat": 0.0, "name": "9f332c0ec5b98c58e4b492caf425bb37", "bike_id": "9f332c0ec5b98c58e4b492caf425bb37"}, {"is_disabled": 0, "is_reserved": 0, "type": "electric_scooter", "lon": -77.0460795, "fusion_lon": 0.0, "lat": 38.905538166666666, "rental_uris": {"android": "https://dc.lft.to/lastmile_qr_scan", "ios": "https://dc.lft.to/lastmile_qr_scan"}, "fusion_lat": 0.0, "name": "853a7ecfe3f3fe60eb37c2e2f06dd5be", "bike_id": "853a7ecfe3f3fe60eb37c2e2f06dd5be"}, {"is_disabled": 0, "is_reserved": 0, "type": "electric_scooter", "lon": -77.04377366666667, "fusion_lon": 0.0, "lat": 38.92573766666667, "rental_uris": {"android": "https://dc.lft.to/lastmile_qr_scan", "ios": "https://dc.lft.to/lastmile_qr_scan"}, "fusion_lat": 0.0, "name": "755d928336ecb84ac27fc39e8084eae5", "bike_id": "755d928336ecb84ac27fc39e8084eae5"}, {"is_disabled": 0, "is_reserved": 0, "type": "electric_scooter", "lon": -77.00916833333333, "fusion_lon": 0.0, "lat": 38.89829316666667, "rental_uris": {"android": "https://dc.lft.to/lastmile_qr_scan", "ios": "https://dc.lft.to/lastmile_qr_scan"}, "fusion_lat": 0.0, "name": "0fe92448317ff66b3d2d83c60ff1101f", "bike_id": "0fe92448317ff66b3d2d83c60ff1101f"}, {"is_disabled": 0, "is_reserved": 0, "type": "electric_scooter", "lon": -76.9946435, "fusion_lon": 0.0, "lat": 38.86198866666667, "rental_uris": {"android": "https://dc.lft.to/lastmile_qr_scan", "ios": "https://dc.lft.to/lastmile_qr_scan"}, "fusion_lat": 0.0, "name": "10b981b6116e474de370683a23f9419e", "bike_id": "10b981b6116e474de370683a23f9419e"}, {"is_disabled": 0, "is_reserved": 0, "type": "electric_scooter", "lon": -77.02715483333333, "fusion_lon": 0.0, "lat": 38.9048805, "rental_uris": {"android": "https://dc.lft.to/lastmile_qr_scan", "ios": "https://dc.lft.to/lastmile_qr_scan"}, "fusion_lat": 0.0, "name": "b107f440a32cc55038028283b4cc804c", "bike_id": "b107f440a32cc55038028283b4cc804c"}, {"is_disabled": 0, "is_reserved": 0, "type": "electric_scooter", "lon": -77.03856433333333, "fusion_lon": 0.0, "lat": 38.918382333333334, "rental_uris": {"android": "https://dc.lft.to/lastmile_qr_scan", "ios": "https://dc.lft.to/lastmile_qr_scan"}, "fusion_lat": 0.0, "name": "35348259aa0da30e8094cf3c3d2ea7ef", "bike_id": "35348259aa0da30e8094cf3c3d2ea7ef"}, {"is_disabled": 0, "is_reserved": 0, "type": "electric_scooter", "lon": -77.10034566666667, "fusion_lon": 0.0, "lat": 38.94926683333333, "rental_uris": {"android": "https://dc.lft.to/lastmile_qr_scan", "ios": "https://dc.lft.to/lastmile_qr_scan"}, "fusion_lat": 0.0, "name": "c0e3fd57d93f27f1c751bb82da339b28", "bike_id": "c0e3fd57d93f27f1c751bb82da339b28"}, {"is_disabled": 0, "is_reserved": 0, "type": "electric_bike", "lon": -77.1143275, "fusion_lon": 0.0, "lat": 38.85243583333333, "rental_uris": {"android": "https://dc.lft.to/lastmile_qr_scan", "ios": "https://dc.lft.to/lastmile_qr_scan"}, "fusion_lat": 0.0, "name": "88afc1a1f8e124ea5ab6e66b7066de8b", "bike_id": "88afc1a1f8e124ea5ab6e66b7066de8b"}, {"is_disabled": 0, "is_reserved": 0, "type": "electric_scooter", "lon": -77.016036, "fusion_lon": 0.0, "lat": 38.917595166666665, "rental_uris": {"android": "https://dc.lft.to/lastmile_qr_scan", "ios": "https://dc.lft.to/lastmile_qr_scan"}, "fusion_lat": 0.0, "name": "d06f7fd3b617313c1c5554c7f2b393a6", "bike_id": "d06f7fd3b617313c1c5554c7f2b393a6"}, {"is_disabled": 0, "is_reserved": 0, "type": "electric_scooter", "lon": -77.04792983333333, "fusion_lon": 0.0, "lat": 38.89368916666667, "rental_uris": {"android": "https://dc.lft.to/lastmile_qr_scan", "ios": "https://dc.lft.to/lastmile_qr_scan"}, "fusion_lat": 0.0, "name": "aa143e86e48a46e0802cdc93aa2c3073", "bike_id": "aa143e86e48a46e0802cdc93aa2c3073"}, {"is_disabled": 0, "is_reserved": 0, "type": "electric_scooter", "lon": -77.04165433333333, "fusion_lon": 0.0, "lat": 38.9085715, "rental_uris": {"android": "https://dc.lft.to/lastmile_qr_scan", "ios": "https://dc.lft.to/lastmile_qr_scan"}, "fusion_lat": 0.0, "name": "093060f6ff18558742dc9dcc9e662b6e", "bike_id": "093060f6ff18558742dc9dcc9e662b6e"}, {"is_disabled": 0, "is_reserved": 0, "type": "electric_scooter", "lon": -76.99029483333334, "fusion_lon": 0.0, "lat": 38.92872116666667, "rental_uris": {"android": "https://dc.lft.to/lastmile_qr_scan", "ios": "https://dc.lft.to/lastmile_qr_scan"}, "fusion_lat": 0.0, "name": "69b24db2e41f2b523fa6be306546432c", "bike_id": "69b24db2e41f2b523fa6be306546432c"}, {"is_disabled": 0, "is_reserved": 0, "type": "electric_scooter", "lon": -77.03213066666666, "fusion_lon": 0.0, "lat": 38.9361355, "rental_uris": {"android": "https://dc.lft.to/lastmile_qr_scan", "ios": "https://dc.lft.to/lastmile_qr_scan"}, "fusion_lat": 0.0, "name": "30abf2d911676a9e209f81432599aba1", "bike_id": "30abf2d911676a9e209f81432599aba1"}, {"is_disabled": 0, "is_reserved": 0, "type": "electric_scooter", "lon": -77.02934566666667, "fusion_lon": 0.0, "lat": 38.89521516666667, "rental_uris": {"android": "https://dc.lft.to/lastmile_qr_scan", "ios": "https://dc.lft.to/lastmile_qr_scan"}, "fusion_lat": 0.0, "name": "73d94d6ac7889a89f1b92bb1ec2eb6ff", "bike_id": "73d94d6ac7889a89f1b92bb1ec2eb6ff"}, {"is_disabled": 0, "is_reserved": 0, "type": "electric_scooter", "lon": -77.003353, "fusion_lon": 0.0, "lat": 38.895244166666664, "rental_uris": {"android": "https://dc.lft.to/lastmile_qr_scan", "ios": "https://dc.lft.to/lastmile_qr_scan"}, "fusion_lat": 0.0, "name": "bd7e6240ed7593ca27418dd278ee3a0e", "bike_id": "bd7e6240ed7593ca27418dd278ee3a0e"}, {"is_disabled": 0, "is_reserved": 0, "type": "electric_scooter", "lon": -77.0448745, "fusion_lon": 0.0, "lat": 38.9242985, "rental_uris": {"android": "https://dc.lft.to/lastmile_qr_scan", "ios": "https://dc.lft.to/lastmile_qr_scan"}, "fusion_lat": 0.0, "name": "c4e3c21e426bb578f73a1406e923abf6", "bike_id": "c4e3c21e426bb578f73a1406e923abf6"}, {"is_disabled": 0, "is_reserved": 0, "type": "electric_scooter", "lon": -77.07112566666666, "fusion_lon": 0.0, "lat": 38.919699, "rental_uris": {"android": "https://dc.lft.to/lastmile_qr_scan", "ios": "https://dc.lft.to/lastmile_qr_scan"}, "fusion_lat": 0.0, "name": "cc5f028ca23e9c3b9ba0b7fa1b01e1c4", "bike_id": "cc5f028ca23e9c3b9ba0b7fa1b01e1c4"}, {"is_disabled": 0, "is_reserved": 0, "type": "electric_scooter", "lon": -76.9915535, "fusion_lon": 0.0, "lat": 38.89771666666667, "rental_uris": {"android": "https://dc.lft.to/lastmile_qr_scan", "ios": "https://dc.lft.to/lastmile_qr_scan"}, "fusion_lat": 0.0, "name": "0e20b516f4f872aa9f0d4dcb12706f32", "bike_id": "0e20b516f4f872aa9f0d4dcb12706f32"}, {"is_disabled": 0, "is_reserved": 0, "type": "electric_scooter", "lon": -77.01200966666667, "fusion_lon": 0.0, "lat": 38.89535433333333, "rental_uris": {"android": "https://dc.lft.to/lastmile_qr_scan", "ios": "https://dc.lft.to/lastmile_qr_scan"}, "fusion_lat": 0.0, "name": "ad63bb040561cc764977b7af61355b66", "bike_id": "ad63bb040561cc764977b7af61355b66"}, {"is_disabled": 0, "is_reserved": 0, "type": "electric_scooter", "lon": -77.03633516666666, "fusion_lon": 0.0, "lat": 38.930501166666666, "rental_uris": {"android": "https://dc.lft.to/lastmile_qr_scan", "ios": "https://dc.lft.to/lastmile_qr_scan"}, "fusion_lat": 0.0, "name": "0d1b8a9edf9e00643b467117807ca943", "bike_id": "0d1b8a9edf9e00643b467117807ca943"}, {"is_disabled": 0, "is_reserved": 0, "type": "electric_scooter", "lon": -76.9963305, "fusion_lon": 0.0, "lat": 38.8462065, "rental_uris": {"android": "https://dc.lft.to/lastmile_qr_scan", "ios": "https://dc.lft.to/lastmile_qr_scan"}, "fusion_lat": 0.0, "name": "1a796774eed477dbc47a9440c6ba9dae", "bike_id": "1a796774eed477dbc47a9440c6ba9dae"}, {"is_disabled": 0, "is_reserved": 0, "type": "electric_scooter", "lon": -77.02168983333334, "fusion_lon": 0.0, "lat": 38.9261475, "rental_uris": {"android": "https://dc.lft.to/lastmile_qr_scan", "ios": "https://dc.lft.to/lastmile_qr_scan"}, "fusion_lat": 0.0, "name": "c77dc1d5f9b293e3269a1609cc3f832a", "bike_id": "c77dc1d5f9b293e3269a1609cc3f832a"}, {"is_disabled": 0, "is_reserved": 0, "type": "electric_scooter", "lon": -77.051328, "fusion_lon": 0.0, "lat": 38.92363916666667, "rental_uris": {"android": "https://dc.lft.to/lastmile_qr_scan", "ios": "https://dc.lft.to/lastmile_qr_scan"}, "fusion_lat": 0.0, "name": "16a1d19ad0f55347967987d5fef72912", "bike_id": "16a1d19ad0f55347967987d5fef72912"}, {"is_disabled": 0, "is_reserved": 0, "type": "electric_scooter", "lon": -77.03656133333334, "fusion_lon": 0.0, "lat": 38.9046205, "rental_uris": {"android": "https://dc.lft.to/lastmile_qr_scan", "ios": "https://dc.lft.to/lastmile_qr_scan"}, "fusion_lat": 0.0, "name": "83d942c40ca58d431f669d940470c47b", "bike_id": "83d942c40ca58d431f669d940470c47b"}, {"is_disabled": 0, "is_reserved": 0, "type": "electric_bike", "lon": -76.92888016666667, "fusion_lon": 0.0, "lat": 38.97844166666667, "rental_uris": {"android": "https://dc.lft.to/lastmile_qr_scan", "ios": "https://dc.lft.to/lastmile_qr_scan"}, "fusion_lat": 0.0, "name": "3f1c5fbafb230a0b36a4e315fdc39e67", "bike_id": "3f1c5fbafb230a0b36a4e315fdc39e67"}, {"is_disabled": 0, "is_reserved": 0, "type": "electric_scooter", "lon": -76.93360416666667, "fusion_lon": 0.0, "lat": 38.8879515, "rental_uris": {"android": "https://dc.lft.to/lastmile_qr_scan", "ios": "https://dc.lft.to/lastmile_qr_scan"}, "fusion_lat": 0.0, "name": "ac58f2127d8a858f1fc8e0181726776d", "bike_id": "ac58f2127d8a858f1fc8e0181726776d"}, {"is_disabled": 0, "is_reserved": 0, "type": "electric_scooter", "lon": -77.0508365, "fusion_lon": 0.0, "lat": 38.90066016666667, "rental_uris": {"android": "https://dc.lft.to/lastmile_qr_scan", "ios": "https://dc.lft.to/lastmile_qr_scan"}, "fusion_lat": 0.0, "name": "04efb3fdd9a073c10d3fbe93ad296bbb", "bike_id": "04efb3fdd9a073c10d3fbe93ad296bbb"}, {"is_disabled": 0, "is_reserved": 0, "type": "electric_scooter", "lon": -77.01751816666666, "fusion_lon": 0.0, "lat": 38.87680183333333, "rental_uris": {"android": "https://dc.lft.to/lastmile_qr_scan", "ios": "https://dc.lft.to/lastmile_qr_scan"}, "fusion_lat": 0.0, "name": "b4a8ad5cfd9a67c7e4173115f796b247", "bike_id": "b4a8ad5cfd9a67c7e4173115f796b247"}, {"is_disabled": 0, "is_reserved": 0, "type": "electric_scooter", "lon": -76.98821516666666, "fusion_lon": 0.0, "lat": 38.9004845, "rental_uris": {"android": "https://dc.lft.to/lastmile_qr_scan", "ios": "https://dc.lft.to/lastmile_qr_scan"}, "fusion_lat": 0.0, "name": "c8874bfa756f2344d35c2dbb65fdf095", "bike_id": "c8874bfa756f2344d35c2dbb65fdf095"}, {"is_disabled": 0, "is_reserved": 0, "type": "electric_scooter", "lon": -77.04067166666667, "fusion_lon": 0.0, "lat": 38.908772, "rental_uris": {"android": "https://dc.lft.to/lastmile_qr_scan", "ios": "https://dc.lft.to/lastmile_qr_scan"}, "fusion_lat": 0.0, "name": "debcf5d339c415677dc0248d82ee7503", "bike_id": "debcf5d339c415677dc0248d82ee7503"}, {"is_disabled": 0, "is_reserved": 0, "type": "electric_scooter", "lon": -77.02655116666666, "fusion_lon": 0.0, "lat": 38.892274666666665, "rental_uris": {"android": "https://dc.lft.to/lastmile_qr_scan", "ios": "https://dc.lft.to/lastmile_qr_scan"}, "fusion_lat": 0.0, "name": "01468951c878e4040f3d9b1649feae01", "bike_id": "01468951c878e4040f3d9b1649feae01"}, {"is_disabled": 0, "is_reserved": 0, "type": "electric_scooter", "lon": -77.04367033333334, "fusion_lon": 0.0, "lat": 38.903995333333334, "rental_uris": {"android": "https://dc.lft.to/lastmile_qr_scan", "ios": "https://dc.lft.to/lastmile_qr_scan"}, "fusion_lat": 0.0, "name": "ea80c6fff196b9dca40568c4b691b0de", "bike_id": "ea80c6fff196b9dca40568c4b691b0de"}, {"is_disabled": 0, "is_reserved": 0, "type": "electric_bike", "lon": -77.034953, "fusion_lon": 0.0, "lat": 38.91927116666667, "rental_uris": {"android": "https://dc.lft.to/lastmile_qr_scan", "ios": "https://dc.lft.to/lastmile_qr_scan"}, "fusion_lat": 0.0, "name": "e6ea0e11e606c04a95fc5db38ff3e6f6", "bike_id": "e6ea0e11e606c04a95fc5db38ff3e6f6"}, {"is_disabled": 0, "is_reserved": 0, "type": "electric_scooter", "lon": -77.02973166666666, "fusion_lon": 0.0, "lat": 38.89612533333333, "rental_uris": {"android": "https://dc.lft.to/lastmile_qr_scan", "ios": "https://dc.lft.to/lastmile_qr_scan"}, "fusion_lat": 0.0, "name": "4e5d6d41336edca99a57a84c10f47e9b", "bike_id": "4e5d6d41336edca99a57a84c10f47e9b"}, {"is_disabled": 0, "is_reserved": 0, "type": "electric_bike", "lon": -76.98750433333333, "fusion_lon": 0.0, "lat": 38.988248166666665, "rental_uris": {"android": "https://dc.lft.to/lastmile_qr_scan", "ios": "https://dc.lft.to/lastmile_qr_scan"}, "fusion_lat": 0.0, "name": "04febdd2c35e994dba0e97a9e5118ad5", "bike_id": "04febdd2c35e994dba0e97a9e5118ad5"}, {"is_disabled": 0, "is_reserved": 0, "type": "electric_scooter", "lon": -77.0315555, "fusion_lon": 0.0, "lat": 38.92815216666666, "rental_uris": {"android": "https://dc.lft.to/lastmile_qr_scan", "ios": "https://dc.lft.to/lastmile_qr_scan"}, "fusion_lat": 0.0, "name": "78e4df6279f874a6f133daa840ed9f91", "bike_id": "78e4df6279f874a6f133daa840ed9f91"}, {"is_disabled": 0, "is_reserved": 0, "type": "electric_scooter", "lon": -77.03223433333334, "fusion_lon": 0.0, "lat": 38.91022, "rental_uris": {"android": "https://dc.lft.to/lastmile_qr_scan", "ios": "https://dc.lft.to/lastmile_qr_scan"}, "fusion_lat": 0.0, "name": "8942d53f67abb1761b1a91589ec9eb21", "bike_id": "8942d53f67abb1761b1a91589ec9eb21"}, {"is_disabled": 0, "is_reserved": 0, "type": "electric_scooter", "lon": -77.05036366666667, "fusion_lon": 0.0, "lat": 38.896945333333335, "rental_uris": {"android": "https://dc.lft.to/lastmile_qr_scan", "ios": "https://dc.lft.to/lastmile_qr_scan"}, "fusion_lat": 0.0, "name": "43f580b831d4f1c83e0e1b0b70591af7", "bike_id": "43f580b831d4f1c83e0e1b0b70591af7"}, {"is_disabled": 0, "is_reserved": 0, "type": "electric_scooter", "lon": -77.00342816666667, "fusion_lon": 0.0, "lat": 38.90365216666667, "rental_uris": {"android": "https://dc.lft.to/lastmile_qr_scan", "ios": "https://dc.lft.to/lastmile_qr_scan"}, "fusion_lat": 0.0, "name": "e598e1a51dd90cad5bf29ecb7a9efcd9", "bike_id": "e598e1a51dd90cad5bf29ecb7a9efcd9"}, {"is_disabled": 0, "is_reserved": 0, "type": "electric_bike", "lon": -77.04862816666666, "fusion_lon": 0.0, "lat": 38.904676333333335, "rental_uris": {"android": "https://dc.lft.to/lastmile_qr_scan", "ios": "https://dc.lft.to/lastmile_qr_scan"}, "fusion_lat": 0.0, "name": "82457399b0239baaf8ce8502ed9fbf26", "bike_id": "82457399b0239baaf8ce8502ed9fbf26"}, {"is_disabled": 0, "is_reserved": 0, "type": "electric_scooter", "lon": -77.020114, "fusion_lon": 0.0, "lat": 38.883193166666665, "rental_uris": {"android": "https://dc.lft.to/lastmile_qr_scan", "ios": "https://dc.lft.to/lastmile_qr_scan"}, "fusion_lat": 0.0, "name": "67ac3406ed940fd6b17d73c20b344215", "bike_id": "67ac3406ed940fd6b17d73c20b344215"}, {"is_disabled": 0, "is_reserved": 0, "type": "electric_scooter", "lon": -76.967127, "fusion_lon": 0.0, "lat": 38.84799183333333, "rental_uris": {"android": "https://dc.lft.to/lastmile_qr_scan", "ios": "https://dc.lft.to/lastmile_qr_scan"}, "fusion_lat": 0.0, "name": "1881dadfe6aa76584d541aeb513d3512", "bike_id": "1881dadfe6aa76584d541aeb513d3512"}, {"is_disabled": 0, "is_reserved": 0, "type": "electric_scooter", "lon": -77.02584133333333, "fusion_lon": 0.0, "lat": 38.88089466666667, "rental_uris": {"android": "https://dc.lft.to/lastmile_qr_scan", "ios": "https://dc.lft.to/lastmile_qr_scan"}, "fusion_lat": 0.0, "name": "4f62e445106ac24aa074cf2cd973bf60", "bike_id": "4f62e445106ac24aa074cf2cd973bf60"}, {"is_disabled": 0, "is_reserved": 0, "type": "electric_scooter", "lon": -76.9982885, "fusion_lon": 0.0, "lat": 38.885423, "rental_uris": {"android": "https://dc.lft.to/lastmile_qr_scan", "ios": "https://dc.lft.to/lastmile_qr_scan"}, "fusion_lat": 0.0, "name": "cd77e4940821b9249ed63e2411cff7a1", "bike_id": "cd77e4940821b9249ed63e2411cff7a1"}, {"is_disabled": 0, "is_reserved": 0, "type": "electric_scooter", "lon": -77.029717, "fusion_lon": 0.0, "lat": 38.89625783333334, "rental_uris": {"android": "https://dc.lft.to/lastmile_qr_scan", "ios": "https://dc.lft.to/lastmile_qr_scan"}, "fusion_lat": 0.0, "name": "63883a3880a5b71dbccdbd6044b59918", "bike_id": "63883a3880a5b71dbccdbd6044b59918"}, {"is_disabled": 0, "is_reserved": 0, "type": "electric_scooter", "lon": -76.97998116666666, "fusion_lon": 0.0, "lat": 38.906832666666666, "rental_uris": {"android": "https://dc.lft.to/lastmile_qr_scan", "ios": "https://dc.lft.to/lastmile_qr_scan"}, "fusion_lat": 0.0, "name": "15893090ded8a085b5d62adc1b86daa5", "bike_id": "15893090ded8a085b5d62adc1b86daa5"}, {"is_disabled": 0, "is_reserved": 0, "type": "electric_scooter", "lon": -77.0486395, "fusion_lon": 0.0, "lat": 38.89223333333333, "rental_uris": {"android": "https://dc.lft.to/lastmile_qr_scan", "ios": "https://dc.lft.to/lastmile_qr_scan"}, "fusion_lat": 0.0, "name": "378f538d16f4292785fbb2137da125d7", "bike_id": "378f538d16f4292785fbb2137da125d7"}, {"is_disabled": 0, "is_reserved": 0, "type": "electric_scooter", "lon": -76.9990175, "fusion_lon": 0.0, "lat": 38.8920375, "rental_uris": {"android": "https://dc.lft.to/lastmile_qr_scan", "ios": "https://dc.lft.to/lastmile_qr_scan"}, "fusion_lat": 0.0, "name": "465f94aff22cc47b548a0816caced758", "bike_id": "465f94aff22cc47b548a0816caced758"}, {"is_disabled": 0, "is_reserved": 0, "type": "electric_bike", "lon": -77.02997833333333, "fusion_lon": 0.0, "lat": 38.8840685, "rental_uris": {"android": "https://dc.lft.to/lastmile_qr_scan", "ios": "https://dc.lft.to/lastmile_qr_scan"}, "fusion_lat": 0.0, "name": "c55233f3c11849d504fd4026490080a2", "bike_id": "c55233f3c11849d504fd4026490080a2"}, {"is_disabled": 0, "is_reserved": 0, "type": "electric_scooter", "lon": -77.01562333333334, "fusion_lon": 0.0, "lat": 38.915113, "rental_uris": {"android": "https://dc.lft.to/lastmile_qr_scan", "ios": "https://dc.lft.to/lastmile_qr_scan"}, "fusion_lat": 0.0, "name": "e66d8bb230b8e33d82ac6fcb343bb039", "bike_id": "e66d8bb230b8e33d82ac6fcb343bb039"}, {"is_disabled": 0, "is_reserved": 0, "type": "electric_scooter", "lon": -77.035124, "fusion_lon": 0.0, "lat": 38.921542, "rental_uris": {"android": "https://dc.lft.to/lastmile_qr_scan", "ios": "https://dc.lft.to/lastmile_qr_scan"}, "fusion_lat": 0.0, "name": "8b07ca1b13eee61e81007c76aed55f1b", "bike_id": "8b07ca1b13eee61e81007c76aed55f1b"}, {"is_disabled": 0, "is_reserved": 0, "type": "electric_scooter", "lon": -76.9790815, "fusion_lon": 0.0, "lat": 38.894348, "rental_uris": {"android": "https://dc.lft.to/lastmile_qr_scan", "ios": "https://dc.lft.to/lastmile_qr_scan"}, "fusion_lat": 0.0, "name": "42de385483ad2e0d816f60792f11e0ab", "bike_id": "42de385483ad2e0d816f60792f11e0ab"}, {"is_disabled": 0, "is_reserved": 0, "type": "electric_scooter", "lon": -77.04177833333334, "fusion_lon": 0.0, "lat": 38.919114, "rental_uris": {"android": "https://dc.lft.to/lastmile_qr_scan", "ios": "https://dc.lft.to/lastmile_qr_scan"}, "fusion_lat": 0.0, "name": "b11edfed9dce266e1e0a068525d79084", "bike_id": "b11edfed9dce266e1e0a068525d79084"}, {"is_disabled": 0, "is_reserved": 0, "type": "electric_scooter", "lon": -77.01495433333334, "fusion_lon": 0.0, "lat": 38.956475166666664, "rental_uris": {"android": "https://dc.lft.to/lastmile_qr_scan", "ios": "https://dc.lft.to/lastmile_qr_scan"}, "fusion_lat": 0.0, "name": "132fb4d0ec7b26e2e08fb7785ce78ba3", "bike_id": "132fb4d0ec7b26e2e08fb7785ce78ba3"}, {"is_disabled": 0, "is_reserved": 0, "type": "electric_scooter", "lon": -77.031001, "fusion_lon": 0.0, "lat": 38.925752833333334, "rental_uris": {"android": "https://dc.lft.to/lastmile_qr_scan", "ios": "https://dc.lft.to/lastmile_qr_scan"}, "fusion_lat": 0.0, "name": "849ff753bbfec4ef3f928fd3eb70a9e3", "bike_id": "849ff753bbfec4ef3f928fd3eb70a9e3"}, {"is_disabled": 0, "is_reserved": 0, "type": "electric_scooter", "lon": -77.05058383333333, "fusion_lon": 0.0, "lat": 38.900735166666664, "rental_uris": {"android": "https://dc.lft.to/lastmile_qr_scan", "ios": "https://dc.lft.to/lastmile_qr_scan"}, "fusion_lat": 0.0, "name": "b64fa943a6e5a15543149a755d590133", "bike_id": "b64fa943a6e5a15543149a755d590133"}, {"is_disabled": 0, "is_reserved": 0, "type": "electric_scooter", "lon": -77.0220005, "fusion_lon": 0.0, "lat": 38.89591016666667, "rental_uris": {"android": "https://dc.lft.to/lastmile_qr_scan", "ios": "https://dc.lft.to/lastmile_qr_scan"}, "fusion_lat": 0.0, "name": "4dcd37426b23980d03bf4900a2cfac64", "bike_id": "4dcd37426b23980d03bf4900a2cfac64"}, {"is_disabled": 0, "is_reserved": 0, "type": "electric_scooter", "lon": -77.01950216666667, "fusion_lon": 0.0, "lat": 38.922527, "rental_uris": {"android": "https://dc.lft.to/lastmile_qr_scan", "ios": "https://dc.lft.to/lastmile_qr_scan"}, "fusion_lat": 0.0, "name": "08001c76de5e41f5cc17ed95352b1dea", "bike_id": "08001c76de5e41f5cc17ed95352b1dea"}, {"is_disabled": 0, "is_reserved": 0, "type": "electric_scooter", "lon": -77.00335516666667, "fusion_lon": 0.0, "lat": 38.8935455, "rental_uris": {"android": "https://dc.lft.to/lastmile_qr_scan", "ios": "https://dc.lft.to/lastmile_qr_scan"}, "fusion_lat": 0.0, "name": "7fb0f93e73807c70839d50c29f254964", "bike_id": "7fb0f93e73807c70839d50c29f254964"}, {"is_disabled": 0, "is_reserved": 0, "type": "electric_bike", "lon": -77.10682983333334, "fusion_lon": 0.0, "lat": 38.935792666666664, "rental_uris": {"android": "https://dc.lft.to/lastmile_qr_scan", "ios": "https://dc.lft.to/lastmile_qr_scan"}, "fusion_lat": 0.0, "name": "a5008099cc499f967ff366fe75519da1", "bike_id": "a5008099cc499f967ff366fe75519da1"}, {"is_disabled": 0, "is_reserved": 0, "type": "electric_scooter", "lon": -77.033126, "fusion_lon": 0.0, "lat": 38.91410483333333, "rental_uris": {"android": "https://dc.lft.to/lastmile_qr_scan", "ios": "https://dc.lft.to/lastmile_qr_scan"}, "fusion_lat": 0.0, "name": "4e39eff7fc4340424376e7655be303d0", "bike_id": "4e39eff7fc4340424376e7655be303d0"}, {"is_disabled": 0, "is_reserved": 0, "type": "electric_scooter", "lon": -76.98660216666667, "fusion_lon": 0.0, "lat": 38.9015145, "rental_uris": {"android": "https://dc.lft.to/lastmile_qr_scan", "ios": "https://dc.lft.to/lastmile_qr_scan"}, "fusion_lat": 0.0, "name": "bd8ce54dc818b6cddbd2b000b272fa83", "bike_id": "bd8ce54dc818b6cddbd2b000b272fa83"}, {"is_disabled": 0, "is_reserved": 0, "type": "electric_bike", "lon": -76.98746983333334, "fusion_lon": 0.0, "lat": 38.8578345, "rental_uris": {"android": "https://dc.lft.to/lastmile_qr_scan", "ios": "https://dc.lft.to/lastmile_qr_scan"}, "fusion_lat": 0.0, "name": "d791ee09bafe77c7cf3ed74a73f4af27", "bike_id": "d791ee09bafe77c7cf3ed74a73f4af27"}, {"is_disabled": 0, "is_reserved": 0, "type": "electric_scooter", "lon": -77.04413533333333, "fusion_lon": 0.0, "lat": 38.91773, "rental_uris": {"android": "https://dc.lft.to/lastmile_qr_scan", "ios": "https://dc.lft.to/lastmile_qr_scan"}, "fusion_lat": 0.0, "name": "fb37e7bd6cc576be157b0522fce5294e", "bike_id": "fb37e7bd6cc576be157b0522fce5294e"}, {"is_disabled": 0, "is_reserved": 0, "type": "electric_scooter", "lon": -77.02951083333333, "fusion_lon": 0.0, "lat": 38.896266, "rental_uris": {"android": "https://dc.lft.to/lastmile_qr_scan", "ios": "https://dc.lft.to/lastmile_qr_scan"}, "fusion_lat": 0.0, "name": "ecdb1d0e23c0f949ac84a15f7f4a251c", "bike_id": "ecdb1d0e23c0f949ac84a15f7f4a251c"}, {"is_disabled": 0, "is_reserved": 0, "type": "electric_scooter", "lon": -77.01397766666666, "fusion_lon": 0.0, "lat": 38.88030933333334, "rental_uris": {"android": "https://dc.lft.to/lastmile_qr_scan", "ios": "https://dc.lft.to/lastmile_qr_scan"}, "fusion_lat": 0.0, "name": "7123be1c42b7970af23c7d3e6b53eb06", "bike_id": "7123be1c42b7970af23c7d3e6b53eb06"}, {"is_disabled": 0, "is_reserved": 0, "type": "electric_scooter", "lon": -77.03203983333333, "fusion_lon": 0.0, "lat": 38.9397265, "rental_uris": {"android": "https://dc.lft.to/lastmile_qr_scan", "ios": "https://dc.lft.to/lastmile_qr_scan"}, "fusion_lat": 0.0, "name": "2c39a31897b380e085f56b594af26966", "bike_id": "2c39a31897b380e085f56b594af26966"}, {"is_disabled": 0, "is_reserved": 0, "type": "electric_scooter", "lon": -77.03828116666666, "fusion_lon": 0.0, "lat": 38.91112283333333, "rental_uris": {"android": "https://dc.lft.to/lastmile_qr_scan", "ios": "https://dc.lft.to/lastmile_qr_scan"}, "fusion_lat": 0.0, "name": "0654bb18438814df98173a686cb7ac8a", "bike_id": "0654bb18438814df98173a686cb7ac8a"}, {"is_disabled": 0, "is_reserved": 0, "type": "electric_scooter", "lon": -77.0358065, "fusion_lon": 0.0, "lat": 38.907572333333334, "rental_uris": {"android": "https://dc.lft.to/lastmile_qr_scan", "ios": "https://dc.lft.to/lastmile_qr_scan"}, "fusion_lat": 0.0, "name": "d7cf0e75f2e7b644cd2eb8a73db522a4", "bike_id": "d7cf0e75f2e7b644cd2eb8a73db522a4"}, {"is_disabled": 0, "is_reserved": 0, "type": "electric_scooter", "lon": -77.02489683333333, "fusion_lon": 0.0, "lat": 38.9023715, "rental_uris": {"android": "https://dc.lft.to/lastmile_qr_scan", "ios": "https://dc.lft.to/lastmile_qr_scan"}, "fusion_lat": 0.0, "name": "745683593336bc1e68f5ca7c6ca1022f", "bike_id": "745683593336bc1e68f5ca7c6ca1022f"}, {"is_disabled": 0, "is_reserved": 0, "type": "electric_scooter", "lon": -77.0044025, "fusion_lon": 0.0, "lat": 38.876948, "rental_uris": {"android": "https://dc.lft.to/lastmile_qr_scan", "ios": "https://dc.lft.to/lastmile_qr_scan"}, "fusion_lat": 0.0, "name": "51b8fac93762f31724dcc058968c0829", "bike_id": "51b8fac93762f31724dcc058968c0829"}, {"is_disabled": 0, "is_reserved": 0, "type": "electric_scooter", "lon": -77.0255815, "fusion_lon": 0.0, "lat": 38.892208, "rental_uris": {"android": "https://dc.lft.to/lastmile_qr_scan", "ios": "https://dc.lft.to/lastmile_qr_scan"}, "fusion_lat": 0.0, "name": "cba148313ae9b5321d08f19150131b90", "bike_id": "cba148313ae9b5321d08f19150131b90"}, {"is_disabled": 0, "is_reserved": 0, "type": "electric_scooter", "lon": -77.032411, "fusion_lon": 0.0, "lat": 38.901051, "rental_uris": {"android": "https://dc.lft.to/lastmile_qr_scan", "ios": "https://dc.lft.to/lastmile_qr_scan"}, "fusion_lat": 0.0, "name": "d9dfe9c21252cd0a7237e2b0bc4b6077", "bike_id": "d9dfe9c21252cd0a7237e2b0bc4b6077"}, {"is_disabled": 0, "is_reserved": 0, "type": "electric_scooter", "lon": -77.02599416666666, "fusion_lon": 0.0, "lat": 38.975881, "rental_uris": {"android": "https://dc.lft.to/lastmile_qr_scan", "ios": "https://dc.lft.to/lastmile_qr_scan"}, "fusion_lat": 0.0, "name": "dbd2c8afac66511e285b2587a2000675", "bike_id": "dbd2c8afac66511e285b2587a2000675"}, {"is_disabled": 0, "is_reserved": 0, "type": "electric_scooter", "lon": -77.0335605, "fusion_lon": 0.0, "lat": 38.92442616666666, "rental_uris": {"android": "https://dc.lft.to/lastmile_qr_scan", "ios": "https://dc.lft.to/lastmile_qr_scan"}, "fusion_lat": 0.0, "name": "a2d58d0f4e903f0a5a0d632d8f2e1dfa", "bike_id": "a2d58d0f4e903f0a5a0d632d8f2e1dfa"}, {"is_disabled": 0, "is_reserved": 0, "type": "electric_scooter", "lon": -76.93383783333333, "fusion_lon": 0.0, "lat": 38.8991015, "rental_uris": {"android": "https://dc.lft.to/lastmile_qr_scan", "ios": "https://dc.lft.to/lastmile_qr_scan"}, "fusion_lat": 0.0, "name": "b6c951304da84140dde3fe0c649a5cc9", "bike_id": "b6c951304da84140dde3fe0c649a5cc9"}, {"is_disabled": 0, "is_reserved": 0, "type": "electric_scooter", "lon": -76.998706, "fusion_lon": 0.0, "lat": 38.9000785, "rental_uris": {"android": "https://dc.lft.to/lastmile_qr_scan", "ios": "https://dc.lft.to/lastmile_qr_scan"}, "fusion_lat": 0.0, "name": "679404a3112ac3ddd83fe60a1a57a3a5", "bike_id": "679404a3112ac3ddd83fe60a1a57a3a5"}, {"is_disabled": 0, "is_reserved": 0, "type": "electric_bike", "lon": -76.96174916666666, "fusion_lon": 0.0, "lat": 38.918621, "rental_uris": {"android": "https://dc.lft.to/lastmile_qr_scan", "ios": "https://dc.lft.to/lastmile_qr_scan"}, "fusion_lat": 0.0, "name": "7486ac55a5fdb0b06883812fd18708ed", "bike_id": "7486ac55a5fdb0b06883812fd18708ed"}, {"is_disabled": 0, "is_reserved": 0, "type": "electric_scooter", "lon": -77.0701505, "fusion_lon": 0.0, "lat": 38.90588116666667, "rental_uris": {"android": "https://dc.lft.to/lastmile_qr_scan", "ios": "https://dc.lft.to/lastmile_qr_scan"}, "fusion_lat": 0.0, "name": "ad53b1b1746564271c3f67de6e1b4d41", "bike_id": "ad53b1b1746564271c3f67de6e1b4d41"}, {"is_disabled": 0, "is_reserved": 0, "type": "electric_bike", "lon": -76.9293105, "fusion_lon": 0.0, "lat": 38.902921666666664, "rental_uris": {"android": "https://dc.lft.to/lastmile_qr_scan", "ios": "https://dc.lft.to/lastmile_qr_scan"}, "fusion_lat": 0.0, "name": "4c0257357da9cd5e59623a8b6bf6907d", "bike_id": "4c0257357da9cd5e59623a8b6bf6907d"}, {"is_disabled": 0, "is_reserved": 0, "type": "electric_scooter", "lon": -77.039451, "fusion_lon": 0.0, "lat": 38.9071425, "rental_uris": {"android": "https://dc.lft.to/lastmile_qr_scan", "ios": "https://dc.lft.to/lastmile_qr_scan"}, "fusion_lat": 0.0, "name": "f03640348afdc15e868e76d3d91bb3ee", "bike_id": "f03640348afdc15e868e76d3d91bb3ee"}, {"is_disabled": 0, "is_reserved": 0, "type": "electric_scooter", "lon": -77.01176233333334, "fusion_lon": 0.0, "lat": 38.87077133333333, "rental_uris": {"android": "https://dc.lft.to/lastmile_qr_scan", "ios": "https://dc.lft.to/lastmile_qr_scan"}, "fusion_lat": 0.0, "name": "1a9f09ac0bb198b5e9e1e7ce9930855c", "bike_id": "1a9f09ac0bb198b5e9e1e7ce9930855c"}, {"is_disabled": 0, "is_reserved": 0, "type": "electric_bike", "lon": -77.0058405, "fusion_lon": 0.0, "lat": 38.83695683333333, "rental_uris": {"android": "https://dc.lft.to/lastmile_qr_scan", "ios": "https://dc.lft.to/lastmile_qr_scan"}, "fusion_lat": 0.0, "name": "565493cda9457cac2301e6dd9bfe05ba", "bike_id": "565493cda9457cac2301e6dd9bfe05ba"}, {"is_disabled": 0, "is_reserved": 0, "type": "electric_scooter", "lon": -77.00591933333334, "fusion_lon": 0.0, "lat": 38.90614466666667, "rental_uris": {"android": "https://dc.lft.to/lastmile_qr_scan", "ios": "https://dc.lft.to/lastmile_qr_scan"}, "fusion_lat": 0.0, "name": "68891194eb211f2f05ff1aa84bcbabbf", "bike_id": "68891194eb211f2f05ff1aa84bcbabbf"}, {"is_disabled": 0, "is_reserved": 0, "type": "electric_scooter", "lon": -77.03142866666667, "fusion_lon": 0.0, "lat": 38.91267066666666, "rental_uris": {"android": "https://dc.lft.to/lastmile_qr_scan", "ios": "https://dc.lft.to/lastmile_qr_scan"}, "fusion_lat": 0.0, "name": "8d81a1e4a7c605808d88bfdd4fabf102", "bike_id": "8d81a1e4a7c605808d88bfdd4fabf102"}, {"is_disabled": 0, "is_reserved": 0, "type": "electric_scooter", "lon": -77.02650116666666, "fusion_lon": 0.0, "lat": 38.892224666666664, "rental_uris": {"android": "https://dc.lft.to/lastmile_qr_scan", "ios": "https://dc.lft.to/lastmile_qr_scan"}, "fusion_lat": 0.0, "name": "bdee2bfa0c75c57c9dd01689a18b8a7b", "bike_id": "bdee2bfa0c75c57c9dd01689a18b8a7b"}, {"is_disabled": 0, "is_reserved": 0, "type": "electric_scooter", "lon": -77.02623433333333, "fusion_lon": 0.0, "lat": 38.9334125, "rental_uris": {"android": "https://dc.lft.to/lastmile_qr_scan", "ios": "https://dc.lft.to/lastmile_qr_scan"}, "fusion_lat": 0.0, "name": "dcfc803313bb33698e69f9611a40c5e1", "bike_id": "dcfc803313bb33698e69f9611a40c5e1"}, {"is_disabled": 0, "is_reserved": 0, "type": "electric_bike", "lon": -77.0491535, "fusion_lon": 0.0, "lat": 38.855216166666665, "rental_uris": {"android": "https://dc.lft.to/lastmile_qr_scan", "ios": "https://dc.lft.to/lastmile_qr_scan"}, "fusion_lat": 0.0, "name": "97b1e58ea9898339ebb910dee9e0357c", "bike_id": "97b1e58ea9898339ebb910dee9e0357c"}, {"is_disabled": 0, "is_reserved": 0, "type": "electric_scooter", "lon": -77.0389325, "fusion_lon": 0.0, "lat": 38.922356, "rental_uris": {"android": "https://dc.lft.to/lastmile_qr_scan", "ios": "https://dc.lft.to/lastmile_qr_scan"}, "fusion_lat": 0.0, "name": "db383c9699cd195354143d215f65d8ee", "bike_id": "db383c9699cd195354143d215f65d8ee"}, {"is_disabled": 0, "is_reserved": 0, "type": "electric_scooter", "lon": -77.03437466666666, "fusion_lon": 0.0, "lat": 38.91806583333333, "rental_uris": {"android": "https://dc.lft.to/lastmile_qr_scan", "ios": "https://dc.lft.to/lastmile_qr_scan"}, "fusion_lat": 0.0, "name": "bace1b677359f7318df9261161265114", "bike_id": "bace1b677359f7318df9261161265114"}, {"is_disabled": 0, "is_reserved": 0, "type": "electric_scooter", "lon": -76.99372666666666, "fusion_lon": 0.0, "lat": 38.923941166666665, "rental_uris": {"android": "https://dc.lft.to/lastmile_qr_scan", "ios": "https://dc.lft.to/lastmile_qr_scan"}, "fusion_lat": 0.0, "name": "2e161adeebbb3cb8c27792caf0b6cade", "bike_id": "2e161adeebbb3cb8c27792caf0b6cade"}, {"is_disabled": 0, "is_reserved": 0, "type": "electric_scooter", "lon": -77.04161233333333, "fusion_lon": 0.0, "lat": 38.901527, "rental_uris": {"android": "https://dc.lft.to/lastmile_qr_scan", "ios": "https://dc.lft.to/lastmile_qr_scan"}, "fusion_lat": 0.0, "name": "7ef1ed9dc2699973fca2a3721a32d475", "bike_id": "7ef1ed9dc2699973fca2a3721a32d475"}, {"is_disabled": 0, "is_reserved": 0, "type": "electric_scooter", "lon": -77.0250655, "fusion_lon": 0.0, "lat": 38.900887166666664, "rental_uris": {"android": "https://dc.lft.to/lastmile_qr_scan", "ios": "https://dc.lft.to/lastmile_qr_scan"}, "fusion_lat": 0.0, "name": "2a8699a186e38a0d3a4b4a163d6bae64", "bike_id": "2a8699a186e38a0d3a4b4a163d6bae64"}, {"is_disabled": 0, "is_reserved": 0, "type": "electric_scooter", "lon": -77.03063283333333, "fusion_lon": 0.0, "lat": 38.90565383333333, "rental_uris": {"android": "https://dc.lft.to/lastmile_qr_scan", "ios": "https://dc.lft.to/lastmile_qr_scan"}, "fusion_lat": 0.0, "name": "c62a6667c1d66e157e19b5602964ad07", "bike_id": "c62a6667c1d66e157e19b5602964ad07"}, {"is_disabled": 0, "is_reserved": 0, "type": "electric_scooter", "lon": -76.98556783333333, "fusion_lon": 0.0, "lat": 38.85584466666667, "rental_uris": {"android": "https://dc.lft.to/lastmile_qr_scan", "ios": "https://dc.lft.to/lastmile_qr_scan"}, "fusion_lat": 0.0, "name": "3dadacc2416f6836ed1cf0fc06765520", "bike_id": "3dadacc2416f6836ed1cf0fc06765520"}, {"is_disabled": 0, "is_reserved": 0, "type": "electric_scooter", "lon": -77.02201133333334, "fusion_lon": 0.0, "lat": 38.8970505, "rental_uris": {"android": "https://dc.lft.to/lastmile_qr_scan", "ios": "https://dc.lft.to/lastmile_qr_scan"}, "fusion_lat": 0.0, "name": "e78b2fcdd6486be1bbd23b90992c1a71", "bike_id": "e78b2fcdd6486be1bbd23b90992c1a71"}, {"is_disabled": 0, "is_reserved": 0, "type": "electric_scooter", "lon": -77.00746883333333, "fusion_lon": 0.0, "lat": 38.91197233333333, "rental_uris": {"android": "https://dc.lft.to/lastmile_qr_scan", "ios": "https://dc.lft.to/lastmile_qr_scan"}, "fusion_lat": 0.0, "name": "0492ffdb8fb177575ff0d04fef23ed5a", "bike_id": "0492ffdb8fb177575ff0d04fef23ed5a"}, {"is_disabled": 0, "is_reserved": 0, "type": "electric_scooter", "lon": -77.04174566666667, "fusion_lon": 0.0, "lat": 38.916634333333334, "rental_uris": {"android": "https://dc.lft.to/lastmile_qr_scan", "ios": "https://dc.lft.to/lastmile_qr_scan"}, "fusion_lat": 0.0, "name": "146c65b900407088ff975fbb607e2749", "bike_id": "146c65b900407088ff975fbb607e2749"}, {"is_disabled": 0, "is_reserved": 0, "type": "electric_scooter", "lon": -77.0293085, "fusion_lon": 0.0, "lat": 38.8821835, "rental_uris": {"android": "https://dc.lft.to/lastmile_qr_scan", "ios": "https://dc.lft.to/lastmile_qr_scan"}, "fusion_lat": 0.0, "name": "d1637f88cd256fb59d56688b5b3faf27", "bike_id": "d1637f88cd256fb59d56688b5b3faf27"}, {"is_disabled": 0, "is_reserved": 0, "type": "electric_scooter", "lon": -77.02957833333333, "fusion_lon": 0.0, "lat": 38.89850366666667, "rental_uris": {"android": "https://dc.lft.to/lastmile_qr_scan", "ios": "https://dc.lft.to/lastmile_qr_scan"}, "fusion_lat": 0.0, "name": "d23a145ed65bc135d686b3a5fdeb16bb", "bike_id": "d23a145ed65bc135d686b3a5fdeb16bb"}, {"is_disabled": 0, "is_reserved": 0, "type": "electric_bike", "lon": -77.00860133333333, "fusion_lon": 0.0, "lat": 38.827276166666664, "rental_uris": {"android": "https://dc.lft.to/lastmile_qr_scan", "ios": "https://dc.lft.to/lastmile_qr_scan"}, "fusion_lat": 0.0, "name": "e4e70d0889269e35709e30730bc92bd6", "bike_id": "e4e70d0889269e35709e30730bc92bd6"}, {"is_disabled": 0, "is_reserved": 0, "type": "electric_scooter", "lon": -77.03850783333333, "fusion_lon": 0.0, "lat": 38.911720833333334, "rental_uris": {"android": "https://dc.lft.to/lastmile_qr_scan", "ios": "https://dc.lft.to/lastmile_qr_scan"}, "fusion_lat": 0.0, "name": "1b4ab621406a0a52e108b7a6ae3804a8", "bike_id": "1b4ab621406a0a52e108b7a6ae3804a8"}, {"is_disabled": 0, "is_reserved": 0, "type": "electric_scooter", "lon": -77.02574383333334, "fusion_lon": 0.0, "lat": 38.88460333333333, "rental_uris": {"android": "https://dc.lft.to/lastmile_qr_scan", "ios": "https://dc.lft.to/lastmile_qr_scan"}, "fusion_lat": 0.0, "name": "ef3f4781a0bfdf2c5adc2b710822faf5", "bike_id": "ef3f4781a0bfdf2c5adc2b710822faf5"}, {"is_disabled": 0, "is_reserved": 0, "type": "electric_scooter", "lon": -77.03240516666666, "fusion_lon": 0.0, "lat": 38.90521966666667, "rental_uris": {"android": "https://dc.lft.to/lastmile_qr_scan", "ios": "https://dc.lft.to/lastmile_qr_scan"}, "fusion_lat": 0.0, "name": "264ae3a62e321fa5a4694af36f5d89a6", "bike_id": "264ae3a62e321fa5a4694af36f5d89a6"}, {"is_disabled": 0, "is_reserved": 0, "type": "electric_scooter", "lon": -77.03998683333333, "fusion_lon": 0.0, "lat": 38.91812483333333, "rental_uris": {"android": "https://dc.lft.to/lastmile_qr_scan", "ios": "https://dc.lft.to/lastmile_qr_scan"}, "fusion_lat": 0.0, "name": "29360722987e9f6d08318397778c8073", "bike_id": "29360722987e9f6d08318397778c8073"}, {"is_disabled": 0, "is_reserved": 0, "type": "electric_scooter", "lon": -77.05332, "fusion_lon": 0.0, "lat": 38.92312016666666, "rental_uris": {"android": "https://dc.lft.to/lastmile_qr_scan", "ios": "https://dc.lft.to/lastmile_qr_scan"}, "fusion_lat": 0.0, "name": "83152e662e3e250de8ba46417d8b62ae", "bike_id": "83152e662e3e250de8ba46417d8b62ae"}, {"is_disabled": 0, "is_reserved": 0, "type": "electric_scooter", "lon": -77.04169916666666, "fusion_lon": 0.0, "lat": 38.898694666666664, "rental_uris": {"android": "https://dc.lft.to/lastmile_qr_scan", "ios": "https://dc.lft.to/lastmile_qr_scan"}, "fusion_lat": 0.0, "name": "2058c84977aec3329c28051190320456", "bike_id": "2058c84977aec3329c28051190320456"}, {"is_disabled": 0, "is_reserved": 0, "type": "electric_scooter", "lon": -76.99520933333334, "fusion_lon": 0.0, "lat": 38.88367266666667, "rental_uris": {"android": "https://dc.lft.to/lastmile_qr_scan", "ios": "https://dc.lft.to/lastmile_qr_scan"}, "fusion_lat": 0.0, "name": "58d6549a34f6ad3d04326fe9cdbd733c", "bike_id": "58d6549a34f6ad3d04326fe9cdbd733c"}, {"is_disabled": 0, "is_reserved": 0, "type": "electric_scooter", "lon": -77.01510533333334, "fusion_lon": 0.0, "lat": 38.8873465, "rental_uris": {"android": "https://dc.lft.to/lastmile_qr_scan", "ios": "https://dc.lft.to/lastmile_qr_scan"}, "fusion_lat": 0.0, "name": "f56116c6d1831bd7fc03ba772c8adb2b", "bike_id": "f56116c6d1831bd7fc03ba772c8adb2b"}, {"is_disabled": 0, "is_reserved": 0, "type": "electric_scooter", "lon": -77.06054516666667, "fusion_lon": 0.0, "lat": 38.9051505, "rental_uris": {"android": "https://dc.lft.to/lastmile_qr_scan", "ios": "https://dc.lft.to/lastmile_qr_scan"}, "fusion_lat": 0.0, "name": "2254e8e6619072b372d9b9aac60eab25", "bike_id": "2254e8e6619072b372d9b9aac60eab25"}, {"is_disabled": 0, "is_reserved": 0, "type": "electric_scooter", "lon": -77.007427, "fusion_lon": 0.0, "lat": 38.915539833333334, "rental_uris": {"android": "https://dc.lft.to/lastmile_qr_scan", "ios": "https://dc.lft.to/lastmile_qr_scan"}, "fusion_lat": 0.0, "name": "f7b80f9f712c8263b34e8d3c735246d5", "bike_id": "f7b80f9f712c8263b34e8d3c735246d5"}, {"is_disabled": 0, "is_reserved": 0, "type": "electric_scooter", "lon": -77.04063483333333, "fusion_lon": 0.0, "lat": 38.925503, "rental_uris": {"android": "https://dc.lft.to/lastmile_qr_scan", "ios": "https://dc.lft.to/lastmile_qr_scan"}, "fusion_lat": 0.0, "name": "8e44cab23f0816af9f6ecbe1c1e9d49b", "bike_id": "8e44cab23f0816af9f6ecbe1c1e9d49b"}, {"is_disabled": 0, "is_reserved": 0, "type": "electric_scooter", "lon": -77.02958383333333, "fusion_lon": 0.0, "lat": 38.8922145, "rental_uris": {"android": "https://dc.lft.to/lastmile_qr_scan", "ios": "https://dc.lft.to/lastmile_qr_scan"}, "fusion_lat": 0.0, "name": "65c55bdc5040914b7b88ff71e50f0f0c", "bike_id": "65c55bdc5040914b7b88ff71e50f0f0c"}, {"is_disabled": 0, "is_reserved": 0, "type": "electric_scooter", "lon": -76.9981535, "fusion_lon": 0.0, "lat": 38.84434616666667, "rental_uris": {"android": "https://dc.lft.to/lastmile_qr_scan", "ios": "https://dc.lft.to/lastmile_qr_scan"}, "fusion_lat": 0.0, "name": "11562c0c963c08501bfd34d81d7cb3c1", "bike_id": "11562c0c963c08501bfd34d81d7cb3c1"}, {"is_disabled": 0, "is_reserved": 0, "type": "electric_bike", "lon": -77.08581033333333, "fusion_lon": 0.0, "lat": 38.87412616666667, "rental_uris": {"android": "https://dc.lft.to/lastmile_qr_scan", "ios": "https://dc.lft.to/lastmile_qr_scan"}, "fusion_lat": 0.0, "name": "4b6c6425212342bed7a17e8993375621", "bike_id": "4b6c6425212342bed7a17e8993375621"}, {"is_disabled": 0, "is_reserved": 0, "type": "electric_scooter", "lon": -77.02122766666666, "fusion_lon": 0.0, "lat": 38.88745616666667, "rental_uris": {"android": "https://dc.lft.to/lastmile_qr_scan", "ios": "https://dc.lft.to/lastmile_qr_scan"}, "fusion_lat": 0.0, "name": "a7a682c75b524afb250eb97b0f5e11e2", "bike_id": "a7a682c75b524afb250eb97b0f5e11e2"}, {"is_disabled": 0, "is_reserved": 0, "type": "electric_scooter", "lon": -77.03179083333333, "fusion_lon": 0.0, "lat": 38.91913983333333, "rental_uris": {"android": "https://dc.lft.to/lastmile_qr_scan", "ios": "https://dc.lft.to/lastmile_qr_scan"}, "fusion_lat": 0.0, "name": "89dcfe3a52a4b759238ef694cbb734d6", "bike_id": "89dcfe3a52a4b759238ef694cbb734d6"}, {"is_disabled": 0, "is_reserved": 0, "type": "electric_scooter", "lon": -77.0270745, "fusion_lon": 0.0, "lat": 38.8813485, "rental_uris": {"android": "https://dc.lft.to/lastmile_qr_scan", "ios": "https://dc.lft.to/lastmile_qr_scan"}, "fusion_lat": 0.0, "name": "055ff98144a042ffa7b48883ffc2af19", "bike_id": "055ff98144a042ffa7b48883ffc2af19"}, {"is_disabled": 0, "is_reserved": 0, "type": "electric_scooter", "lon": -77.0271505, "fusion_lon": 0.0, "lat": 38.928741, "rental_uris": {"android": "https://dc.lft.to/lastmile_qr_scan", "ios": "https://dc.lft.to/lastmile_qr_scan"}, "fusion_lat": 0.0, "name": "eaa58002f067fdba66ef5d7277373dd3", "bike_id": "eaa58002f067fdba66ef5d7277373dd3"}, {"is_disabled": 0, "is_reserved": 0, "type": "electric_bike", "lon": -77.17510066666667, "fusion_lon": 0.0, "lat": 39.09605966666667, "rental_uris": {"android": "https://dc.lft.to/lastmile_qr_scan", "ios": "https://dc.lft.to/lastmile_qr_scan"}, "fusion_lat": 0.0, "name": "11ba4e3fff32c1af0666c34747f60d14", "bike_id": "11ba4e3fff32c1af0666c34747f60d14"}, {"is_disabled": 0, "is_reserved": 0, "type": "electric_bike", "lon": -77.126226, "fusion_lon": 0.0, "lat": 39.05812066666667, "rental_uris": {"android": "https://dc.lft.to/lastmile_qr_scan", "ios": "https://dc.lft.to/lastmile_qr_scan"}, "fusion_lat": 0.0, "name": "f5e7f6d45daec6065a24124938276b53", "bike_id": "f5e7f6d45daec6065a24124938276b53"}, {"is_disabled": 0, "is_reserved": 0, "type": "electric_scooter", "lon": -77.03345066666667, "fusion_lon": 0.0, "lat": 38.922353, "rental_uris": {"android": "https://dc.lft.to/lastmile_qr_scan", "ios": "https://dc.lft.to/lastmile_qr_scan"}, "fusion_lat": 0.0, "name": "0f4e559fc905b9f3f643e253662cdc4f", "bike_id": "0f4e559fc905b9f3f643e253662cdc4f"}, {"is_disabled": 0, "is_reserved": 0, "type": "electric_scooter", "lon": -77.03226116666667, "fusion_lon": 0.0, "lat": 38.9087115, "rental_uris": {"android": "https://dc.lft.to/lastmile_qr_scan", "ios": "https://dc.lft.to/lastmile_qr_scan"}, "fusion_lat": 0.0, "name": "87500d2b58627b7a1eb8b85b9652ac08", "bike_id": "87500d2b58627b7a1eb8b85b9652ac08"}, {"is_disabled": 0, "is_reserved": 0, "type": "electric_scooter", "lon": -76.9881015, "fusion_lon": 0.0, "lat": 38.90826583333333, "rental_uris": {"android": "https://dc.lft.to/lastmile_qr_scan", "ios": "https://dc.lft.to/lastmile_qr_scan"}, "fusion_lat": 0.0, "name": "b3f5545388ba9af0a2e4670dafff09f5", "bike_id": "b3f5545388ba9af0a2e4670dafff09f5"}, {"is_disabled": 0, "is_reserved": 0, "type": "electric_scooter", "lon": -77.0173505, "fusion_lon": 0.0, "lat": 38.97521033333334, "rental_uris": {"android": "https://dc.lft.to/lastmile_qr_scan", "ios": "https://dc.lft.to/lastmile_qr_scan"}, "fusion_lat": 0.0, "name": "b39349d33c5606096f23a8fa72263484", "bike_id": "b39349d33c5606096f23a8fa72263484"}, {"is_disabled": 0, "is_reserved": 0, "type": "electric_scooter", "lon": -77.03778483333333, "fusion_lon": 0.0, "lat": 38.93610366666667, "rental_uris": {"android": "https://dc.lft.to/lastmile_qr_scan", "ios": "https://dc.lft.to/lastmile_qr_scan"}, "fusion_lat": 0.0, "name": "5b5b1e65aecd2c5a4a2f2a23fc96da37", "bike_id": "5b5b1e65aecd2c5a4a2f2a23fc96da37"}, {"is_disabled": 0, "is_reserved": 0, "type": "electric_scooter", "lon": -76.99838466666667, "fusion_lon": 0.0, "lat": 38.900367833333334, "rental_uris": {"android": "https://dc.lft.to/lastmile_qr_scan", "ios": "https://dc.lft.to/lastmile_qr_scan"}, "fusion_lat": 0.0, "name": "15e8e0cfaf22062ef176a2786f81a801", "bike_id": "15e8e0cfaf22062ef176a2786f81a801"}, {"is_disabled": 0, "is_reserved": 0, "type": "electric_scooter", "lon": -77.02422783333333, "fusion_lon": 0.0, "lat": 38.920123333333336, "rental_uris": {"android": "https://dc.lft.to/lastmile_qr_scan", "ios": "https://dc.lft.to/lastmile_qr_scan"}, "fusion_lat": 0.0, "name": "7146a4d0601dcd06b91299d0f757faa5", "bike_id": "7146a4d0601dcd06b91299d0f757faa5"}, {"is_disabled": 0, "is_reserved": 0, "type": "electric_scooter", "lon": -76.91237883333334, "fusion_lon": 0.0, "lat": 38.893968666666666, "rental_uris": {"android": "https://dc.lft.to/lastmile_qr_scan", "ios": "https://dc.lft.to/lastmile_qr_scan"}, "fusion_lat": 0.0, "name": "f66bfc67716c268c1d3f102fd5f45a79", "bike_id": "f66bfc67716c268c1d3f102fd5f45a79"}, {"is_disabled": 0, "is_reserved": 0, "type": "electric_scooter", "lon": -77.0460735, "fusion_lon": 0.0, "lat": 38.89972566666667, "rental_uris": {"android": "https://dc.lft.to/lastmile_qr_scan", "ios": "https://dc.lft.to/lastmile_qr_scan"}, "fusion_lat": 0.0, "name": "81d15a0ebcce6278d37ae59919a2af0d", "bike_id": "81d15a0ebcce6278d37ae59919a2af0d"}, {"is_disabled": 0, "is_reserved": 0, "type": "electric_scooter", "lon": -77.0272145, "fusion_lon": 0.0, "lat": 38.92481383333333, "rental_uris": {"android": "https://dc.lft.to/lastmile_qr_scan", "ios": "https://dc.lft.to/lastmile_qr_scan"}, "fusion_lat": 0.0, "name": "69cbbc6c0abbb0bf9bb43b7cfe88884e", "bike_id": "69cbbc6c0abbb0bf9bb43b7cfe88884e"}, {"is_disabled": 0, "is_reserved": 0, "type": "electric_scooter", "lon": -77.0419445, "fusion_lon": 0.0, "lat": 38.90785666666667, "rental_uris": {"android": "https://dc.lft.to/lastmile_qr_scan", "ios": "https://dc.lft.to/lastmile_qr_scan"}, "fusion_lat": 0.0, "name": "ac21dd36f2a39c364493729c9e1ad24f", "bike_id": "ac21dd36f2a39c364493729c9e1ad24f"}, {"is_disabled": 0, "is_reserved": 0, "type": "electric_scooter", "lon": -77.02704883333334, "fusion_lon": 0.0, "lat": 38.91961333333333, "rental_uris": {"android": "https://dc.lft.to/lastmile_qr_scan", "ios": "https://dc.lft.to/lastmile_qr_scan"}, "fusion_lat": 0.0, "name": "c46efb8f38a29bcb05a49d4258e89b1b", "bike_id": "c46efb8f38a29bcb05a49d4258e89b1b"}, {"is_disabled": 0, "is_reserved": 0, "type": "electric_scooter", "lon": -76.94117983333334, "fusion_lon": 0.0, "lat": 38.907927, "rental_uris": {"android": "https://dc.lft.to/lastmile_qr_scan", "ios": "https://dc.lft.to/lastmile_qr_scan"}, "fusion_lat": 0.0, "name": "284e3e2c9b01d95228cc858ef67ef885", "bike_id": "284e3e2c9b01d95228cc858ef67ef885"}, {"is_disabled": 0, "is_reserved": 0, "type": "electric_scooter", "lon": -77.02791133333334, "fusion_lon": 0.0, "lat": 38.903899833333334, "rental_uris": {"android": "https://dc.lft.to/lastmile_qr_scan", "ios": "https://dc.lft.to/lastmile_qr_scan"}, "fusion_lat": 0.0, "name": "506c402cf525d70bc820b738f5689c56", "bike_id": "506c402cf525d70bc820b738f5689c56"}, {"is_disabled": 0, "is_reserved": 0, "type": "electric_scooter", "lon": -77.00905716666666, "fusion_lon": 0.0, "lat": 38.91285333333333, "rental_uris": {"android": "https://dc.lft.to/lastmile_qr_scan", "ios": "https://dc.lft.to/lastmile_qr_scan"}, "fusion_lat": 0.0, "name": "ac2dbe8e7f3921c7b3b88e2560ee81ee", "bike_id": "ac2dbe8e7f3921c7b3b88e2560ee81ee"}, {"is_disabled": 0, "is_reserved": 0, "type": "electric_scooter", "lon": -76.986259, "fusion_lon": 0.0, "lat": 38.85470333333333, "rental_uris": {"android": "https://dc.lft.to/lastmile_qr_scan", "ios": "https://dc.lft.to/lastmile_qr_scan"}, "fusion_lat": 0.0, "name": "dafd3bcc571a03fac59c9795eba07788", "bike_id": "dafd3bcc571a03fac59c9795eba07788"}, {"is_disabled": 0, "is_reserved": 0, "type": "electric_scooter", "lon": -77.01232933333333, "fusion_lon": 0.0, "lat": 38.874769666666666, "rental_uris": {"android": "https://dc.lft.to/lastmile_qr_scan", "ios": "https://dc.lft.to/lastmile_qr_scan"}, "fusion_lat": 0.0, "name": "40562b89c2f35b2487aca6679836cad1", "bike_id": "40562b89c2f35b2487aca6679836cad1"}, {"is_disabled": 0, "is_reserved": 0, "type": "electric_bike", "lon": -77.16229083333333, "fusion_lon": 0.0, "lat": 38.886785833333334, "rental_uris": {"android": "https://dc.lft.to/lastmile_qr_scan", "ios": "https://dc.lft.to/lastmile_qr_scan"}, "fusion_lat": 0.0, "name": "8fcfb835ca9d9afc6eb58528b7f9ee28", "bike_id": "8fcfb835ca9d9afc6eb58528b7f9ee28"}, {"is_disabled": 0, "is_reserved": 0, "type": "electric_scooter", "lon": -77.06352116666666, "fusion_lon": 0.0, "lat": 38.9445355, "rental_uris": {"android": "https://dc.lft.to/lastmile_qr_scan", "ios": "https://dc.lft.to/lastmile_qr_scan"}, "fusion_lat": 0.0, "name": "e2f273de16b8eb57b8dfe686676abcdb", "bike_id": "e2f273de16b8eb57b8dfe686676abcdb"}, {"is_disabled": 0, "is_reserved": 0, "type": "electric_scooter", "lon": -77.0100215, "fusion_lon": 0.0, "lat": 38.87211283333333, "rental_uris": {"android": "https://dc.lft.to/lastmile_qr_scan", "ios": "https://dc.lft.to/lastmile_qr_scan"}, "fusion_lat": 0.0, "name": "4d4bb19c802697aa4d7cd187185ff11e", "bike_id": "4d4bb19c802697aa4d7cd187185ff11e"}, {"is_disabled": 0, "is_reserved": 0, "type": "electric_scooter", "lon": -77.02467666666666, "fusion_lon": 0.0, "lat": 38.93770466666667, "rental_uris": {"android": "https://dc.lft.to/lastmile_qr_scan", "ios": "https://dc.lft.to/lastmile_qr_scan"}, "fusion_lat": 0.0, "name": "fcfe88bbbb62944b5fff663e12389543", "bike_id": "fcfe88bbbb62944b5fff663e12389543"},