{"data": {"bikes": [{"lon": -77.02902933333333, "fusion_lat": 0.0, "type": "electric_scooter", "lat": 38.92371816666667, "is_disabled": 0, "name": "44975264f978d0d560454e2bc0f4e89c", "is_reserved": 0, "bike_id": "44975264f978d0d560454e2bc0f4e89c", "fusion_lon": 0.0, "rental_uris": {"ios": "https://dc.lft.to/lastmile_qr_scan", "android": "https://dc.lft.to/lastmile_qr_scan"}}, {"lon": -77.01715733333333, "fusion_lat": 0.0, "type": "electric_scooter", "lat": 38.902472333333336, "is_disabled": 0, "name": "3bc05a264c5487886e0fd00155675cee", "is_reserved": 0, "bike_id": "3bc05a264c5487886e0fd00155675cee", "fusion_lon": 0.0, "rental_uris": {"ios": "https://dc.lft.to/lastmile_qr_scan", "android": "https://dc.lft.to/lastmile_qr_scan"}}, {"lon": -77.02296066666666, "fusion_lat": 0.0, "type": "electric_scooter", "lat": 38.920609, "is_disabled": 0, "name": "d359f654fd4bc6e984f4705ec0e52203", "is_reserved": 0, "bike_id": "d359f654fd4bc6e984f4705ec0e52203", "fusion_lon": 0.0, "rental_uris": {"ios": "https://dc.lft.to/lastmile_qr_scan", "android": "https://dc.lft.to/lastmile_qr_scan"}}, {"lon": -77.02305533333333, "fusion_lat": 0.0, "type": "electric_scooter", "lat": 38.92061666666667, "is_disabled": 0, "name": "692cb722e6255038f073fa3bbb4bfa29", "is_reserved": 0, "bike_id": "692cb722e6255038f073fa3bbb4bfa29", "fusion_lon": 0.0, "rental_uris": {"ios": "https://dc.lft.to/lastmile_qr_scan", "android": "https://dc.lft.to/lastmile_qr_scan"}}, {"lon": -77.0320405, "fusion_lat": 0.0, "type": "electric_scooter", "lat": 38.910952, "is_disabled": 0, "name": "1f776805ba326039df44fd1fa7e7a882", "is_reserved": 0, "bike_id": "1f776805ba326039df44fd1fa7e7a882", "fusion_lon": 0.0, "rental_uris": {"ios": "https://dc.lft.to/lastmile_qr_scan", "android": "https://dc.lft.to/lastmile_qr_scan"}}, {"lon": -77.06122683333334, "fusion_lat": 0.0, "type": "electric_scooter", "lat": 38.90195833333333, "is_disabled": 0, "name": "f771ac00259c5de59ba2a1ca94b98628", "is_reserved": 0, "bike_id": "f771ac00259c5de59ba2a1ca94b98628", "fusion_lon": 0.0, "rental_uris": {"ios": "https://dc.lft.to/lastmile_qr_scan", "android": "https://dc.lft.to/lastmile_qr_scan"}}, {"lon": -77.024265, "fusion_lat": 0.0, "type": "electric_scooter", "lat": 38.956239833333335, "is_disabled": 0, "name": "59b0130d75482515d4ce612949041d39", "is_reserved": 0, "bike_id": "59b0130d75482515d4ce612949041d39", "fusion_lon": 0.0, "rental_uris": {"ios": "https://dc.lft.to/lastmile_qr_scan", "android": "https://dc.lft.to/lastmile_qr_scan"}}, {"lon": -77.03633166666667, "fusion_lat": 0.0, "type": "electric_scooter", "lat": 38.9366225, "is_disabled": 0, "name": "6722e907d8dd48fab64116ec636413e0", "is_reserved": 0, "bike_id": "6722e907d8dd48fab64116ec636413e0", "fusion_lon": 0.0, "rental_uris": {"ios": "https://dc.lft.to/lastmile_qr_scan", "android": "https://dc.lft.to/lastmile_qr_scan"}}, {"lon": -77.0214625, "fusion_lat": 0.0, "type": "electric_scooter", "lat": 38.90423933333334, "is_disabled": 0, "name": "547ed392f0b6083b9aa4ab4ae884a0ec", "is_reserved": 0, "bike_id": "547ed392f0b6083b9aa4ab4ae884a0ec", "fusion_lon": 0.0, "rental_uris": {"ios": "https://dc.lft.to/lastmile_qr_scan", "android": "https://dc.lft.to/lastmile_qr_scan"}}, {"lon": -77.03255633333333, "fusion_lat": 0.0, "type": "electric_scooter", "lat": 38.935233, "is_disabled": 0, "name": "d6228e1cd531978885b0f032f7d2fca2", "is_reserved": 0, "bike_id": "d6228e1cd531978885b0f032f7d2fca2", "fusion_lon": 0.0, "rental_uris": {"ios": "https://dc.lft.to/lastmile_qr_scan", "android": "https://dc.lft.to/lastmile_qr_scan"}}, {"lon": -77.01168783333334, "fusion_lat": 0.0, "type": "electric_scooter", "lat": 38.89616733333333, "is_disabled": 0, "name": "e7fc93741c07792adb369ebbf82a0863", "is_reserved": 0, "bike_id": "e7fc93741c07792adb369ebbf82a0863", "fusion_lon": 0.0, "rental_uris": {"ios": "https://dc.lft.to/lastmile_qr_scan", "android": "https://dc.lft.to/lastmile_qr_scan"}}, {"lon": -77.01656, "fusion_lat": 0.0, "type": "electric_scooter", "lat": 38.8763025, "is_disabled": 0, "name": "d95113bb9108f6dd5721d8e0cc371161", "is_reserved": 0, "bike_id": "d95113bb9108f6dd5721d8e0cc371161", "fusion_lon": 0.0, "rental_uris": {"ios": "https://dc.lft.to/lastmile_qr_scan", "android": "https://dc.lft.to/lastmile_qr_scan"}}, {"lon": -77.07144583333333, "fusion_lat": 0.0, "type": "electric_scooter", "lat": 38.9202445, "is_disabled": 0, "name": "78f075518e28f3054ddd79165c04351d", "is_reserved": 0, "bike_id": "78f075518e28f3054ddd79165c04351d", "fusion_lon": 0.0, "rental_uris": {"ios": "https://dc.lft.to/lastmile_qr_scan", "android": "https://dc.lft.to/lastmile_qr_scan"}}, {"lon": -76.92737733333334, "fusion_lat": 0.0, "type": "electric_scooter", "lat": 38.90069966666667, "is_disabled": 0, "name": "69ebc2b1a5fe852001eadbf188c7ccb7", "is_reserved": 0, "bike_id": "69ebc2b1a5fe852001eadbf188c7ccb7", "fusion_lon": 0.0, "rental_uris": {"ios": "https://dc.lft.to/lastmile_qr_scan", "android": "https://dc.lft.to/lastmile_qr_scan"}}, {"lon": -77.02209866666666, "fusion_lat": 0.0, "type": "electric_scooter", "lat": 38.92198416666667, "is_disabled": 0, "name": "f66a8d7035191726dacb186528e3486d", "is_reserved": 0, "bike_id": "f66a8d7035191726dacb186528e3486d", "fusion_lon": 0.0, "rental_uris": {"ios": "https://dc.lft.to/lastmile_qr_scan", "android": "https://dc.lft.to/lastmile_qr_scan"}}, {"lon": -76.9919905, "fusion_lat": 0.0, "type": "electric_scooter", "lat": 38.882673833333335, "is_disabled": 0, "name": "ec9856be5b6da0dd9b91e529b8be7930", "is_reserved": 0, "bike_id": "ec9856be5b6da0dd9b91e529b8be7930", "fusion_lon": 0.0, "rental_uris": {"ios": "https://dc.lft.to/lastmile_qr_scan", "android": "https://dc.lft.to/lastmile_qr_scan"}}, {"lon": -77.02843283333333, "fusion_lat": 0.0, "type": "electric_scooter", "lat": 38.93523283333333, "is_disabled": 0, "name": "e5545494ab5aa2f3bba5bfb9883abee9", "is_reserved": 0, "bike_id": "e5545494ab5aa2f3bba5bfb9883abee9", "fusion_lon": 0.0, "rental_uris": {"ios": "https://dc.lft.to/lastmile_qr_scan", "android": "https://dc.lft.to/lastmile_qr_scan"}}, {"lon": -77.035668, "fusion_lat": 0.0, "type": "electric_scooter", "lat": 38.9073705, "is_disabled": 0, "name": "61f6435605549b2f758d602ac385c3de", "is_reserved": 0, "bike_id": "61f6435605549b2f758d602ac385c3de", "fusion_lon": 0.0, "rental_uris": {"ios": "https://dc.lft.to/lastmile_qr_scan", "android": "https://dc.lft.to/lastmile_qr_scan"}}, {"lon": -76.9975995, "fusion_lat": 0.0, "type": "electric_bike", "lat": 38.953218166666666, "is_disabled": 0, "name": "6602864f905d814ea2333cb2606a8bad", "is_reserved": 0, "bike_id": "6602864f905d814ea2333cb2606a8bad", "fusion_lon": 0.0, "rental_uris": {"ios": "https://dc.lft.to/lastmile_qr_scan", "android": "https://dc.lft.to/lastmile_qr_scan"}}, {"lon": -77.03448, "fusion_lat": 0.0, "type": "electric_scooter", "lat": 38.90550066666667, "is_disabled": 0, "name": "178c09ddb6324d7dc8a05e086b4dbba1", "is_reserved": 0, "bike_id": "178c09ddb6324d7dc8a05e086b4dbba1", "fusion_lon": 0.0, "rental_uris": {"ios": "https://dc.lft.to/lastmile_qr_scan", "android": "https://dc.lft.to/lastmile_qr_scan"}}, {"lon": -77.03760016666666, "fusion_lat": 0.0, "type": "electric_scooter", "lat": 38.9268695, "is_disabled": 0, "name": "77f40ee7f05953adfff43f243e23e0ca", "is_reserved": 0, "bike_id": "77f40ee7f05953adfff43f243e23e0ca", "fusion_lon": 0.0, "rental_uris": {"ios": "https://dc.lft.to/lastmile_qr_scan", "android": "https://dc.lft.to/lastmile_qr_scan"}}, {"lon": -77.02590733333334, "fusion_lat": 0.0, "type": "electric_scooter", "lat": 38.9043385, "is_disabled": 0, "name": "e52bd97bb478e935e3fdb53ed9d8b6cf", "is_reserved": 0, "bike_id": "e52bd97bb478e935e3fdb53ed9d8b6cf", "fusion_lon": 0.0, "rental_uris": {"ios": "https://dc.lft.to/lastmile_qr_scan", "android": "https://dc.lft.to/lastmile_qr_scan"}}, {"lon": -77.02453266666667, "fusion_lat": 0.0, "type": "electric_scooter", "lat": 38.947320166666664, "is_disabled": 0, "name": "fa622daac078597233dcc78f779ff9e6", "is_reserved": 0, "bike_id": "fa622daac078597233dcc78f779ff9e6", "fusion_lon": 0.0, "rental_uris": {"ios": "https://dc.lft.to/lastmile_qr_scan", "android": "https://dc.lft.to/lastmile_qr_scan"}}, {"lon": -77.02678416666667, "fusion_lat": 0.0, "type": "electric_scooter", "lat": 38.90720483333333, "is_disabled": 0, "name": "61b0332dc4fca1e600fc24092feff3e3", "is_reserved": 0, "bike_id": "61b0332dc4fca1e600fc24092feff3e3", "fusion_lon": 0.0, "rental_uris": {"ios": "https://dc.lft.to/lastmile_qr_scan", "android": "https://dc.lft.to/lastmile_qr_scan"}}, {"lon": -77.03266066666667, "fusion_lat": 0.0, "type": "electric_scooter", "lat": 38.928422, "is_disabled": 0, "name": "fdb5f851a882d6861e1af593beab59ad", "is_reserved": 0, "bike_id": "fdb5f851a882d6861e1af593beab59ad", "fusion_lon": 0.0, "rental_uris": {"ios": "https://dc.lft.to/lastmile_qr_scan", "android": "https://dc.lft.to/lastmile_qr_scan"}}, {"lon": -77.003379, "fusion_lat": 0.0, "type": "electric_scooter", "lat": 38.893545333333336, "is_disabled": 0, "name": "3d1e5b7dfb17f5191cb382242ec7be9f", "is_reserved": 0, "bike_id": "3d1e5b7dfb17f5191cb382242ec7be9f", "fusion_lon": 0.0, "rental_uris": {"ios": "https://dc.lft.to/lastmile_qr_scan", "android": "https://dc.lft.to/lastmile_qr_scan"}}, {"lon": -77.08858766666667, "fusion_lat": 0.0, "type": "electric_bike", "lat": 38.935300833333336, "is_disabled": 0, "name": "c645202813e962a829f60bdc3eadc411", "is_reserved": 0, "bike_id": "c645202813e962a829f60bdc3eadc411", "fusion_lon": 0.0, "rental_uris": {"ios": "https://dc.lft.to/lastmile_qr_scan", "android": "https://dc.lft.to/lastmile_qr_scan"}}, {"lon": -77.03224366666667, "fusion_lat": 0.0, "type": "electric_scooter", "lat": 38.9086945, "is_disabled": 0, "name": "4d414729485519712b6fc1063350c6ee", "is_reserved": 0, "bike_id": "4d414729485519712b6fc1063350c6ee", "fusion_lon": 0.0, "rental_uris": {"ios": "https://dc.lft.to/lastmile_qr_scan", "android": "https://dc.lft.to/lastmile_qr_scan"}}, {"lon": -77.03210383333334, "fusion_lat": 0.0, "type": "electric_scooter", "lat": 38.91468733333333, "is_disabled": 0, "name": "5f91ca3f514d9cdaa50f5d35144439be", "is_reserved": 0, "bike_id": "5f91ca3f514d9cdaa50f5d35144439be", "fusion_lon": 0.0, "rental_uris": {"ios": "https://dc.lft.to/lastmile_qr_scan", "android": "https://dc.lft.to/lastmile_qr_scan"}}, {"lon": -77.04310066666666, "fusion_lat": 0.0, "type": "electric_scooter", "lat": 38.90882783333333, "is_disabled": 0, "name": "6a18d856bfee6676848391559822b5fc", "is_reserved": 0, "bike_id": "6a18d856bfee6676848391559822b5fc", "fusion_lon": 0.0, "rental_uris": {"ios": "https://dc.lft.to/lastmile_qr_scan", "android": "https://dc.lft.to/lastmile_qr_scan"}}, {"lon": -77.00336266666666, "fusion_lat": 0.0, "type": "electric_scooter", "lat": 38.8935395, "is_disabled": 0, "name": "dec6135debba40b051f03f3b6bf8b35d", "is_reserved": 0, "bike_id": "dec6135debba40b051f03f3b6bf8b35d", "fusion_lon": 0.0, "rental_uris": {"ios": "https://dc.lft.to/lastmile_qr_scan", "android": "https://dc.lft.to/lastmile_qr_scan"}}, {"lon": -77.04932233333334, "fusion_lat": 0.0, "type": "electric_scooter", "lat": 38.89739316666667, "is_disabled": 0, "name": "1247871aaca1b0e4a1eb196ee0e0e9cb", "is_reserved": 0, "bike_id": "1247871aaca1b0e4a1eb196ee0e0e9cb", "fusion_lon": 0.0, "rental_uris": {"ios": "https://dc.lft.to/lastmile_qr_scan", "android": "https://dc.lft.to/lastmile_qr_scan"}}, {"lon": -77.04483783333333, "fusion_lat": 0.0, "type": "electric_scooter", "lat": 38.90063283333333, "is_disabled": 0, "name": "7ad66b9b1bc265d0decb466869196047", "is_reserved": 0, "bike_id": "7ad66b9b1bc265d0decb466869196047", "fusion_lon": 0.0, "rental_uris": {"ios": "https://dc.lft.to/lastmile_qr_scan", "android": "https://dc.lft.to/lastmile_qr_scan"}}, {"lon": -76.98158283333333, "fusion_lat": 0.0, "type": "electric_scooter", "lat": 38.9032275, "is_disabled": 0, "name": "fd99ceb31fae08aeb07c8b51e1c6c87e", "is_reserved": 0, "bike_id": "fd99ceb31fae08aeb07c8b51e1c6c87e", "fusion_lon": 0.0, "rental_uris": {"ios": "https://dc.lft.to/lastmile_qr_scan", "android": "https://dc.lft.to/lastmile_qr_scan"}}, {"lon": -77.03188733333333, "fusion_lat": 0.0, "type": "electric_scooter", "lat": 38.89234116666667, "is_disabled": 0, "name": "dd070e7518bf9ec2b064ba85b7f0b0f9", "is_reserved": 0, "bike_id": "dd070e7518bf9ec2b064ba85b7f0b0f9", "fusion_lon": 0.0, "rental_uris": {"ios": "https://dc.lft.to/lastmile_qr_scan", "android": "https://dc.lft.to/lastmile_qr_scan"}}, {"lon": -77.01879866666667, "fusion_lat": 0.0, "type": "electric_scooter", "lat": 38.91943, "is_disabled": 0, "name": "48594e4c5f29e315551e6fa5d8287192", "is_reserved": 0, "bike_id": "48594e4c5f29e315551e6fa5d8287192", "fusion_lon": 0.0, "rental_uris": {"ios": "https://dc.lft.to/lastmile_qr_scan", "android": "https://dc.lft.to/lastmile_qr_scan"}}, {"lon": -77.01118883333334, "fusion_lat": 0.0, "type": "electric_scooter", "lat": 38.895299333333334, "is_disabled": 0, "name": "0dad81e814e002ea0b9fad98ab920005", "is_reserved": 0, "bike_id": "0dad81e814e002ea0b9fad98ab920005", "fusion_lon": 0.0, "rental_uris": {"ios": "https://dc.lft.to/lastmile_qr_scan", "android": "https://dc.lft.to/lastmile_qr_scan"}}, {"lon": -77.07323833333334, "fusion_lat": 0.0, "type": "electric_scooter", "lat": 38.909573, "is_disabled": 0, "name": "ed37aab8dc07903cdd601492d16f9431", "is_reserved": 0, "bike_id": "ed37aab8dc07903cdd601492d16f9431", "fusion_lon": 0.0, "rental_uris": {"ios": "https://dc.lft.to/lastmile_qr_scan", "android": "https://dc.lft.to/lastmile_qr_scan"}}, {"lon": -77.03248383333333, "fusion_lat": 0.0, "type": "electric_scooter", "lat": 38.92915083333333, "is_disabled": 0, "name": "2b5d3f7da59ed518a2e80cf13a56b5dc", "is_reserved": 0, "bike_id": "2b5d3f7da59ed518a2e80cf13a56b5dc", "fusion_lon": 0.0, "rental_uris": {"ios": "https://dc.lft.to/lastmile_qr_scan", "android": "https://dc.lft.to/lastmile_qr_scan"}}, {"lon": -76.99899483333333, "fusion_lat": 0.0, "type": "electric_scooter", "lat": 38.92836766666667, "is_disabled": 0, "name": "88065e89ca1d49ad06210540ed1b3668", "is_reserved": 0, "bike_id": "88065e89ca1d49ad06210540ed1b3668", "fusion_lon": 0.0, "rental_uris": {"ios": "https://dc.lft.to/lastmile_qr_scan", "android": "https://dc.lft.to/lastmile_qr_scan"}}, {"lon": -77.02187616666667, "fusion_lat": 0.0, "type": "electric_scooter", "lat": 38.884802666666666, "is_disabled": 0, "name": "9bf3d120ca38cdd4569c3edd5eaa315a", "is_reserved": 0, "bike_id": "9bf3d120ca38cdd4569c3edd5eaa315a", "fusion_lon": 0.0, "rental_uris": {"ios": "https://dc.lft.to/lastmile_qr_scan", "android": "https://dc.lft.to/lastmile_qr_scan"}}, {"lon": -77.03986416666666, "fusion_lat": 0.0, "type": "electric_scooter", "lat": 38.901514, "is_disabled": 0, "name": "7974f9067481191260a1c3b44b7caa54", "is_reserved": 0, "bike_id": "7974f9067481191260a1c3b44b7caa54", "fusion_lon": 0.0, "rental_uris": {"ios": "https://dc.lft.to/lastmile_qr_scan", "android": "https://dc.lft.to/lastmile_qr_scan"}}, {"lon": -77.04453783333334, "fusion_lat": 0.0, "type": "electric_scooter", "lat": 38.9101545, "is_disabled": 0, "name": "6e818f2a0f1f39389a0af21a13cac667", "is_reserved": 0, "bike_id": "6e818f2a0f1f39389a0af21a13cac667", "fusion_lon": 0.0, "rental_uris": {"ios": "https://dc.lft.to/lastmile_qr_scan", "android": "https://dc.lft.to/lastmile_qr_scan"}}, {"lon": -77.02690016666666, "fusion_lat": 0.0, "type": "electric_scooter", "lat": 38.9069655, "is_disabled": 0, "name": "173c1f527320f83828f78bf1dca57e84", "is_reserved": 0, "bike_id": "173c1f527320f83828f78bf1dca57e84", "fusion_lon": 0.0, "rental_uris": {"ios": "https://dc.lft.to/lastmile_qr_scan", "android": "https://dc.lft.to/lastmile_qr_scan"}}, {"lon": -77.04654883333333, "fusion_lat": 0.0, "type": "electric_scooter", "lat": 38.913621666666664, "is_disabled": 0, "name": "9c6f1ad1b7c0b5e4e194facb475860e3", "is_reserved": 0, "bike_id": "9c6f1ad1b7c0b5e4e194facb475860e3", "fusion_lon": 0.0, "rental_uris": {"ios": "https://dc.lft.to/lastmile_qr_scan", "android": "https://dc.lft.to/lastmile_qr_scan"}}, {"lon": -77.01943116666666, "fusion_lat": 0.0, "type": "electric_scooter", "lat": 38.924158166666665, "is_disabled": 0, "name": "2650acabe209a53afe13f08325cb30ce", "is_reserved": 0, "bike_id": "2650acabe209a53afe13f08325cb30ce", "fusion_lon": 0.0, "rental_uris": {"ios": "https://dc.lft.to/lastmile_qr_scan", "android": "https://dc.lft.to/lastmile_qr_scan"}}, {"lon": -77.0212035, "fusion_lat": 0.0, "type": "electric_scooter", "lat": 38.930041, "is_disabled": 0, "name": "ac6ce860eb12b204f344e5a917f5354d", "is_reserved": 0, "bike_id": "ac6ce860eb12b204f344e5a917f5354d", "fusion_lon": 0.0, "rental_uris": {"ios": "https://dc.lft.to/lastmile_qr_scan", "android": "https://dc.lft.to/lastmile_qr_scan"}}, {"lon": -77.036468, "fusion_lat": 0.0, "type": "electric_scooter", "lat": 38.93626583333333, "is_disabled": 0, "name": "276c6764ee3ee198fc3dbaf5ef890ec3", "is_reserved": 0, "bike_id": "276c6764ee3ee198fc3dbaf5ef890ec3", "fusion_lon": 0.0, "rental_uris": {"ios": "https://dc.lft.to/lastmile_qr_scan", "android": "https://dc.lft.to/lastmile_qr_scan"}}, {"lon": -77.012072, "fusion_lat": 0.0, "type": "electric_scooter", "lat": 38.895186333333335, "is_disabled": 0, "name": "248c629af4e3401cb6778b56c99d6991", "is_reserved": 0, "bike_id": "248c629af4e3401cb6778b56c99d6991", "fusion_lon": 0.0, "rental_uris": {"ios": "https://dc.lft.to/lastmile_qr_scan", "android": "https://dc.lft.to/lastmile_qr_scan"}}, {"lon": -77.02316, "fusion_lat": 0.0, "type": "electric_scooter", "lat": 38.8788115, "is_disabled": 0, "name": "b446f86c975840c352c8fc6e80950582", "is_reserved": 0, "bike_id": "b446f86c975840c352c8fc6e80950582", "fusion_lon": 0.0, "rental_uris": {"ios": "https://dc.lft.to/lastmile_qr_scan", "android": "https://dc.lft.to/lastmile_qr_scan"}}, {"lon": -76.97470183333333, "fusion_lat": 0.0, "type": "electric_scooter", "lat": 38.87147133333333, "is_disabled": 0, "name": "9c3481e3d86b65fef61205ba3ebaa2a5", "is_reserved": 0, "bike_id": "9c3481e3d86b65fef61205ba3ebaa2a5", "fusion_lon": 0.0, "rental_uris": {"ios": "https://dc.lft.to/lastmile_qr_scan", "android": "https://dc.lft.to/lastmile_qr_scan"}}, {"lon": -77.0098735, "fusion_lat": 0.0, "type": "electric_scooter", "lat": 38.8947525, "is_disabled": 0, "name": "444690678dc6afaecc01bf8cdd972d59", "is_reserved": 0, "bike_id": "444690678dc6afaecc01bf8cdd972d59", "fusion_lon": 0.0, "rental_uris": {"ios": "https://dc.lft.to/lastmile_qr_scan", "android": "https://dc.lft.to/lastmile_qr_scan"}}, {"lon": -77.03030266666667, "fusion_lat": 0.0, "type": "electric_scooter", "lat": 38.91810316666667, "is_disabled": 0, "name": "5a235c85b8b693243ee450afd2a140fa", "is_reserved": 0, "bike_id": "5a235c85b8b693243ee450afd2a140fa", "fusion_lon": 0.0, "rental_uris": {"ios": "https://dc.lft.to/lastmile_qr_scan", "android": "https://dc.lft.to/lastmile_qr_scan"}}, {"lon": -76.9835485, "fusion_lat": 0.0, "type": "electric_scooter", "lat": 38.8872335, "is_disabled": 0, "name": "4dc06437a6ca7349915fcfd57290b7f0", "is_reserved": 0, "bike_id": "4dc06437a6ca7349915fcfd57290b7f0", "fusion_lon": 0.0, "rental_uris": {"ios": "https://dc.lft.to/lastmile_qr_scan", "android": "https://dc.lft.to/lastmile_qr_scan"}}, {"lon": -77.0040675, "fusion_lat": 0.0, "type": "electric_scooter", "lat": 38.92947183333333, "is_disabled": 0, "name": "8e0a5b82ac30c3326a88b8460fa6056b", "is_reserved": 0, "bike_id": "8e0a5b82ac30c3326a88b8460fa6056b", "fusion_lon": 0.0, "rental_uris": {"ios": "https://dc.lft.to/lastmile_qr_scan", "android": "https://dc.lft.to/lastmile_qr_scan"}}, {"lon": -76.92742833333334, "fusion_lat": 0.0, "type": "electric_scooter", "lat": 38.90067666666667, "is_disabled": 0, "name": "43dec2cd285fbe27adbd0bb081e805ba", "is_reserved": 0, "bike_id": "43dec2cd285fbe27adbd0bb081e805ba", "fusion_lon": 0.0, "rental_uris": {"ios": "https://dc.lft.to/lastmile_qr_scan", "android": "https://dc.lft.to/lastmile_qr_scan"}}, {"lon": -77.02173233333333, "fusion_lat": 0.0, "type": "electric_scooter", "lat": 38.887134, "is_disabled": 0, "name": "a99038cb854f5443e5a32258a6efc421", "is_reserved": 0, "bike_id": "a99038cb854f5443e5a32258a6efc421", "fusion_lon": 0.0, "rental_uris": {"ios": "https://dc.lft.to/lastmile_qr_scan", "android": "https://dc.lft.to/lastmile_qr_scan"}}, {"lon": -77.02654283333334, "fusion_lat": 0.0, "type": "electric_scooter", "lat": 38.92208333333333, "is_disabled": 0, "name": "f192c2e8dfffec762cfa2dd232ba9c9e", "is_reserved": 0, "bike_id": "f192c2e8dfffec762cfa2dd232ba9c9e", "fusion_lon": 0.0, "rental_uris": {"ios": "https://dc.lft.to/lastmile_qr_scan", "android": "https://dc.lft.to/lastmile_qr_scan"}}, {"lon": -77.0243795, "fusion_lat": 0.0, "type": "electric_scooter", "lat": 38.920464333333335, "is_disabled": 0, "name": "6f5923dd0d7f30a8c151da772c9bc6f3", "is_reserved": 0, "bike_id": "6f5923dd0d7f30a8c151da772c9bc6f3", "fusion_lon": 0.0, "rental_uris": {"ios": "https://dc.lft.to/lastmile_qr_scan", "android": "https://dc.lft.to/lastmile_qr_scan"}}, {"lon": -77.023083, "fusion_lat": 0.0, "type": "electric_scooter", "lat": 38.92072683333333, "is_disabled": 0, "name": "f916f3f4299e6482b5d55dc9fd86d2b0", "is_reserved": 0, "bike_id": "f916f3f4299e6482b5d55dc9fd86d2b0", "fusion_lon": 0.0, "rental_uris": {"ios": "https://dc.lft.to/lastmile_qr_scan", "android": "https://dc.lft.to/lastmile_qr_scan"}}, {"lon": -77.03194783333333, "fusion_lat": 0.0, "type": "electric_scooter", "lat": 38.917753166666664, "is_disabled": 0, "name": "062827e32cc23975549a876be1e7f91b", "is_reserved": 0, "bike_id": "062827e32cc23975549a876be1e7f91b", "fusion_lon": 0.0, "rental_uris": {"ios": "https://dc.lft.to/lastmile_qr_scan", "android": "https://dc.lft.to/lastmile_qr_scan"}}, {"lon": -77.021134, "fusion_lat": 0.0, "type": "electric_scooter", "lat": 38.924659166666665, "is_disabled": 0, "name": "839ff3430f17722eb933180e854149ec", "is_reserved": 0, "bike_id": "839ff3430f17722eb933180e854149ec", "fusion_lon": 0.0, "rental_uris": {"ios": "https://dc.lft.to/lastmile_qr_scan", "android": "https://dc.lft.to/lastmile_qr_scan"}}, {"lon": -77.0212475, "fusion_lat": 0.0, "type": "electric_scooter", "lat": 38.89989816666667, "is_disabled": 0, "name": "56f085dc9086f7d9c2486c6bccaef9a7", "is_reserved": 0, "bike_id": "56f085dc9086f7d9c2486c6bccaef9a7", "fusion_lon": 0.0, "rental_uris": {"ios": "https://dc.lft.to/lastmile_qr_scan", "android": "https://dc.lft.to/lastmile_qr_scan"}}, {"lon": -76.9326285, "fusion_lat": 0.0, "type": "electric_scooter", "lat": 38.887737, "is_disabled": 0, "name": "d83ee3a8a1e2f2cf6e3f0d62289da618", "is_reserved": 0, "bike_id": "d83ee3a8a1e2f2cf6e3f0d62289da618", "fusion_lon": 0.0, "rental_uris": {"ios": "https://dc.lft.to/lastmile_qr_scan", "android": "https://dc.lft.to/lastmile_qr_scan"}}, {"lon": -77.02689783333334, "fusion_lat": 0.0, "type": "electric_scooter", "lat": 38.924612833333335, "is_disabled": 0, "name": "90f74e6b197b424ba4a8dd192618b6c6", "is_reserved": 0, "bike_id": "90f74e6b197b424ba4a8dd192618b6c6", "fusion_lon": 0.0, "rental_uris": {"ios": "https://dc.lft.to/lastmile_qr_scan", "android": "https://dc.lft.to/lastmile_qr_scan"}}, {"lon": -77.02765166666667, "fusion_lat": 0.0, "type": "electric_scooter", "lat": 38.92983733333333, "is_disabled": 0, "name": "4a1f1c0aa92cef7dc2056b6d2467541e", "is_reserved": 0, "bike_id": "4a1f1c0aa92cef7dc2056b6d2467541e", "fusion_lon": 0.0, "rental_uris": {"ios": "https://dc.lft.to/lastmile_qr_scan", "android": "https://dc.lft.to/lastmile_qr_scan"}}, {"lon": -77.019073, "fusion_lat": 0.0, "type": "electric_scooter", "lat": 38.920226666666665, "is_disabled": 0, "name": "72ab2e657ece3dba35b9e95aca4112ba", "is_reserved": 0, "bike_id": "72ab2e657ece3dba35b9e95aca4112ba", "fusion_lon": 0.0, "rental_uris": {"ios": "https://dc.lft.to/lastmile_qr_scan", "android": "https://dc.lft.to/lastmile_qr_scan"}}, {"lon": -77.0560105, "fusion_lat": 0.0, "type": "electric_scooter", "lat": 38.937040833333334, "is_disabled": 0, "name": "5e1857f16bc5085be89fb62ac0501f6e", "is_reserved": 0, "bike_id": "5e1857f16bc5085be89fb62ac0501f6e", "fusion_lon": 0.0, "rental_uris": {"ios": "https://dc.lft.to/lastmile_qr_scan", "android": "https://dc.lft.to/lastmile_qr_scan"}}, {"lon": -77.02176416666667, "fusion_lat": 0.0, "type": "electric_scooter", "lat": 38.9058665, "is_disabled": 0, "name": "d100b8d2223ff670c2f6f7d2b35ee68d", "is_reserved": 0, "bike_id": "d100b8d2223ff670c2f6f7d2b35ee68d", "fusion_lon": 0.0, "rental_uris": {"ios": "https://dc.lft.to/lastmile_qr_scan", "android": "https://dc.lft.to/lastmile_qr_scan"}}, {"lon": -77.0192535, "fusion_lat": 0.0, "type": "electric_scooter", "lat": 38.91507383333333, "is_disabled": 0, "name": "1f17dff776b3fe85ab70aeed1bc462a7", "is_reserved": 0, "bike_id": "1f17dff776b3fe85ab70aeed1bc462a7", "fusion_lon": 0.0, "rental_uris": {"ios": "https://dc.lft.to/lastmile_qr_scan", "android": "https://dc.lft.to/lastmile_qr_scan"}}, {"lon": -77.01116683333333, "fusion_lat": 0.0, "type": "electric_scooter", "lat": 38.8850965, "is_disabled": 0, "name": "8682ebd15f3e7d354d8c43731665a4a5", "is_reserved": 0, "bike_id": "8682ebd15f3e7d354d8c43731665a4a5", "fusion_lon": 0.0, "rental_uris": {"ios": "https://dc.lft.to/lastmile_qr_scan", "android": "https://dc.lft.to/lastmile_qr_scan"}}, {"lon": -77.0784475, "fusion_lat": 0.0, "type": "electric_scooter", "lat": 38.931425, "is_disabled": 0, "name": "5643f8b95477b42b61500db25809d4d5", "is_reserved": 0, "bike_id": "5643f8b95477b42b61500db25809d4d5", "fusion_lon": 0.0, "rental_uris": {"ios": "https://dc.lft.to/lastmile_qr_scan", "android": "https://dc.lft.to/lastmile_qr_scan"}}, {"lon": -77.04584233333334, "fusion_lat": 0.0, "type": "electric_scooter", "lat": 38.92127266666667, "is_disabled": 0, "name": "3a4ad999da32004500f4ddec20fabb38", "is_reserved": 0, "bike_id": "3a4ad999da32004500f4ddec20fabb38", "fusion_lon": 0.0, "rental_uris": {"ios": "https://dc.lft.to/lastmile_qr_scan", "android": "https://dc.lft.to/lastmile_qr_scan"}}, {"lon": -77.04493983333333, "fusion_lat": 0.0, "type": "electric_scooter", "lat": 38.9133065, "is_disabled": 0, "name": "ea84da60b69db141eace41c940c3db82", "is_reserved": 0, "bike_id": "ea84da60b69db141eace41c940c3db82", "fusion_lon": 0.0, "rental_uris": {"ios": "https://dc.lft.to/lastmile_qr_scan", "android": "https://dc.lft.to/lastmile_qr_scan"}}, {"lon": -77.0033085, "fusion_lat": 0.0, "type": "electric_scooter", "lat": 38.89357283333333, "is_disabled": 0, "name": "560c7a801b196fa56cc2f6336a00e9d2", "is_reserved": 0, "bike_id": "560c7a801b196fa56cc2f6336a00e9d2", "fusion_lon": 0.0, "rental_uris": {"ios": "https://dc.lft.to/lastmile_qr_scan", "android": "https://dc.lft.to/lastmile_qr_scan"}}, {"lon": -76.99333833333333, "fusion_lat": 0.0, "type": "electric_bike", "lat": 38.9466525, "is_disabled": 0, "name": "f6644ee64a944255a673ede14e8ba856", "is_reserved": 0, "bike_id": "f6644ee64a944255a673ede14e8ba856", "fusion_lon": 0.0, "rental_uris": {"ios": "https://dc.lft.to/lastmile_qr_scan", "android": "https://dc.lft.to/lastmile_qr_scan"}}, {"lon": -77.0344615, "fusion_lat": 0.0, "type": "electric_scooter", "lat": 38.919093, "is_disabled": 0, "name": "8d2a772f3f7163fedd95bfe4ee83e968", "is_reserved": 0, "bike_id": "8d2a772f3f7163fedd95bfe4ee83e968", "fusion_lon": 0.0, "rental_uris": {"ios": "https://dc.lft.to/lastmile_qr_scan", "android": "https://dc.lft.to/lastmile_qr_scan"}}, {"lon": -77.03016416666667, "fusion_lat": 0.0, "type": "electric_scooter", "lat": 38.9180715, "is_disabled": 0, "name": "19fd7f17efe91e764758674a811eddb1", "is_reserved": 0, "bike_id": "19fd7f17efe91e764758674a811eddb1", "fusion_lon": 0.0, "rental_uris": {"ios": "https://dc.lft.to/lastmile_qr_scan", "android": "https://dc.lft.to/lastmile_qr_scan"}}, {"lon": -77.14232783333334, "fusion_lat": 0.0, "type": "electric_bike", "lat": 38.886049166666666, "is_disabled": 0, "name": "e8aad56cf9c8f9fb0bcfebb42467d9e3", "is_reserved": 0, "bike_id": "e8aad56cf9c8f9fb0bcfebb42467d9e3", "fusion_lon": 0.0, "rental_uris": {"ios": "https://dc.lft.to/lastmile_qr_scan", "android": "https://dc.lft.to/lastmile_qr_scan"}}, {"lon": -77.01203116666667, "fusion_lat": 0.0, "type": "electric_scooter", "lat": 38.87086683333333, "is_disabled": 0, "name": "a54372e97ac64ac28918bf381e9403a2", "is_reserved": 0, "bike_id": "a54372e97ac64ac28918bf381e9403a2", "fusion_lon": 0.0, "rental_uris": {"ios": "https://dc.lft.to/lastmile_qr_scan", "android": "https://dc.lft.to/lastmile_qr_scan"}}, {"lon": -77.03097133333333, "fusion_lat": 0.0, "type": "electric_scooter", "lat": 38.919213666666664, "is_disabled": 0, "name": "fd55e3e1413e8944013598b79c050eae", "is_reserved": 0, "bike_id": "fd55e3e1413e8944013598b79c050eae", "fusion_lon": 0.0, "rental_uris": {"ios": "https://dc.lft.to/lastmile_qr_scan", "android": "https://dc.lft.to/lastmile_qr_scan"}}, {"lon": -77.06013683333333, "fusion_lat": 0.0, "type": "electric_scooter", "lat": 38.937012333333335, "is_disabled": 0, "name": "7d3d42d93eeb36d02558cb65b40a27e7", "is_reserved": 0, "bike_id": "7d3d42d93eeb36d02558cb65b40a27e7", "fusion_lon": 0.0, "rental_uris": {"ios": "https://dc.lft.to/lastmile_qr_scan", "android": "https://dc.lft.to/lastmile_qr_scan"}}, {"lon": -77.03081533333334, "fusion_lat": 0.0, "type": "electric_scooter", "lat": 38.927882833333335, "is_disabled": 0, "name": "13af6254d165a74a64056241168b30d2", "is_reserved": 0, "bike_id": "13af6254d165a74a64056241168b30d2", "fusion_lon": 0.0, "rental_uris": {"ios": "https://dc.lft.to/lastmile_qr_scan", "android": "https://dc.lft.to/lastmile_qr_scan"}}, {"lon": -76.98826083333333, "fusion_lat": 0.0, "type": "electric_scooter", "lat": 38.8990525, "is_disabled": 0, "name": "0f5037ebdec7e10d26e595a9e51c81b4", "is_reserved": 0, "bike_id": "0f5037ebdec7e10d26e595a9e51c81b4", "fusion_lon": 0.0, "rental_uris": {"ios": "https://dc.lft.to/lastmile_qr_scan", "android": "https://dc.lft.to/lastmile_qr_scan"}}, {"lon": -77.0177335, "fusion_lat": 0.0, "type": "electric_scooter", "lat": 38.92050016666666, "is_disabled": 0, "name": "659d9819ab9fbbf3eb91a6eb85037474", "is_reserved": 0, "bike_id": "659d9819ab9fbbf3eb91a6eb85037474", "fusion_lon": 0.0, "rental_uris": {"ios": "https://dc.lft.to/lastmile_qr_scan", "android": "https://dc.lft.to/lastmile_qr_scan"}}, {"lon": -77.05897633333333, "fusion_lat": 0.0, "type": "electric_bike", "lat": 38.82847683333333, "is_disabled": 0, "name": "a1f3f4e41a55b1a67b976c2b41402cea", "is_reserved": 0, "bike_id": "a1f3f4e41a55b1a67b976c2b41402cea", "fusion_lon": 0.0, "rental_uris": {"ios": "https://dc.lft.to/lastmile_qr_scan", "android": "https://dc.lft.to/lastmile_qr_scan"}}, {"lon": -77.02563216666667, "fusion_lat": 0.0, "type": "electric_scooter", "lat": 38.9207115, "is_disabled": 0, "name": "a30ec68ead5c496d681701e41ec6e23c", "is_reserved": 0, "bike_id": "a30ec68ead5c496d681701e41ec6e23c", "fusion_lon": 0.0, "rental_uris": {"ios": "https://dc.lft.to/lastmile_qr_scan", "android": "https://dc.lft.to/lastmile_qr_scan"}}, {"lon": -77.01603516666667, "fusion_lat": 0.0, "type": "electric_scooter", "lat": 38.909706, "is_disabled": 0, "name": "6c116eed7ce3642ca094ad5ddc38ad3b", "is_reserved": 0, "bike_id": "6c116eed7ce3642ca094ad5ddc38ad3b", "fusion_lon": 0.0, "rental_uris": {"ios": "https://dc.lft.to/lastmile_qr_scan", "android": "https://dc.lft.to/lastmile_qr_scan"}}, {"lon": -77.030375, "fusion_lat": 0.0, "type": "electric_scooter", "lat": 38.896130666666664, "is_disabled": 0, "name": "49fa6a4a8d30a3dcdc0b23b411453796", "is_reserved": 0, "bike_id": "49fa6a4a8d30a3dcdc0b23b411453796", "fusion_lon": 0.0, "rental_uris": {"ios": "https://dc.lft.to/lastmile_qr_scan", "android": "https://dc.lft.to/lastmile_qr_scan"}}, {"lon": -77.01908083333333, "fusion_lat": 0.0, "type": "electric_scooter", "lat": 38.91413983333333, "is_disabled": 0, "name": "17a9056938caeb089568dfa3f9db8b76", "is_reserved": 0, "bike_id": "17a9056938caeb089568dfa3f9db8b76", "fusion_lon": 0.0, "rental_uris": {"ios": "https://dc.lft.to/lastmile_qr_scan", "android": "https://dc.lft.to/lastmile_qr_scan"}}, {"lon": -77.0322135, "fusion_lat": 0.0, "type": "electric_scooter", "lat": 38.902638833333334, "is_disabled": 0, "name": "8f1e27a2157a7e1f43f3388041ce77c5", "is_reserved": 0, "bike_id": "8f1e27a2157a7e1f43f3388041ce77c5", "fusion_lon": 0.0, "rental_uris": {"ios": "https://dc.lft.to/lastmile_qr_scan", "android": "https://dc.lft.to/lastmile_qr_scan"}}, {"lon": -77.00749916666666, "fusion_lat": 0.0, "type": "electric_scooter", "lat": 38.900436, "is_disabled": 0, "name": "0ce782da4ffc1d2a51ee824bc5e6bde8", "is_reserved": 0, "bike_id": "0ce782da4ffc1d2a51ee824bc5e6bde8", "fusion_lon": 0.0, "rental_uris": {"ios": "https://dc.lft.to/lastmile_qr_scan", "android": "https://dc.lft.to/lastmile_qr_scan"}}, {"lon": -76.93260733333334, "fusion_lat": 0.0, "type": "electric_scooter", "lat": 38.887741166666665, "is_disabled": 0, "name": "b7a957bc44ee48cbeb49d5c720460b0a", "is_reserved": 0, "bike_id": "b7a957bc44ee48cbeb49d5c720460b0a", "fusion_lon": 0.0, "rental_uris": {"ios": "https://dc.lft.to/lastmile_qr_scan", "android": "https://dc.lft.to/lastmile_qr_scan"}}, {"lon": -77.02276166666667, "fusion_lat": 0.0, "type": "electric_scooter", "lat": 38.926816333333335, "is_disabled": 0, "name": "13efed9f8184202eed409a1f1bd21ce7", "is_reserved": 0, "bike_id": "13efed9f8184202eed409a1f1bd21ce7", "fusion_lon": 0.0, "rental_uris": {"ios": "https://dc.lft.to/lastmile_qr_scan", "android": "https://dc.lft.to/lastmile_qr_scan"}}, {"lon": -76.990324, "fusion_lat": 0.0, "type": "electric_scooter", "lat": 38.88875183333333, "is_disabled": 0, "name": "8ed7a4e51697750c52c551ab67655bf9", "is_reserved": 0, "bike_id": "8ed7a4e51697750c52c551ab67655bf9", "fusion_lon": 0.0, "rental_uris": {"ios": "https://dc.lft.to/lastmile_qr_scan", "android": "https://dc.lft.to/lastmile_qr_scan"}}, {"lon": -77.03370083333333, "fusion_lat": 0.0, "type": "electric_scooter", "lat": 38.90171083333333, "is_disabled": 0, "name": "2f14180383d44145112b75aad1762028", "is_reserved": 0, "bike_id": "2f14180383d44145112b75aad1762028", "fusion_lon": 0.0, "rental_uris": {"ios": "https://dc.lft.to/lastmile_qr_scan", "android": "https://dc.lft.to/lastmile_qr_scan"}}, {"lon": -76.99677216666667, "fusion_lat": 0.0, "type": "electric_scooter", "lat": 38.88722583333333, "is_disabled": 0, "name": "5d4ce4dbad74b246d4713b0252185f08", "is_reserved": 0, "bike_id": "5d4ce4dbad74b246d4713b0252185f08", "fusion_lon": 0.0, "rental_uris": {"ios": "https://dc.lft.to/lastmile_qr_scan", "android": "https://dc.lft.to/lastmile_qr_scan"}}, {"lon": -77.03900783333333, "fusion_lat": 0.0, "type": "electric_scooter", "lat": 38.924886666666666, "is_disabled": 0, "name": "60e411008b6c3febfa582fb5e3ff816d", "is_reserved": 0, "bike_id": "60e411008b6c3febfa582fb5e3ff816d", "fusion_lon": 0.0, "rental_uris": {"ios": "https://dc.lft.to/lastmile_qr_scan", "android": "https://dc.lft.to/lastmile_qr_scan"}}, {"lon": -77.02171816666667, "fusion_lat": 0.0, "type": "electric_scooter", "lat": 38.914825, "is_disabled": 0, "name": "e86c766d09a6385fbf708f7b406f4677", "is_reserved": 0, "bike_id": "e86c766d09a6385fbf708f7b406f4677", "fusion_lon": 0.0, "rental_uris": {"ios": "https://dc.lft.to/lastmile_qr_scan", "android": "https://dc.lft.to/lastmile_qr_scan"}}, {"lon": -76.99537516666666, "fusion_lat": 0.0, "type": "electric_bike", "lat": 38.8386625, "is_disabled": 0, "name": "58347e7c0697aa10918b429641b6928a", "is_reserved": 0, "bike_id": "58347e7c0697aa10918b429641b6928a", "fusion_lon": 0.0, "rental_uris": {"ios": "https://dc.lft.to/lastmile_qr_scan", "android": "https://dc.lft.to/lastmile_qr_scan"}}, {"lon": -76.99486033333334, "fusion_lat": 0.0, "type": "electric_scooter", "lat": 38.89474083333333, "is_disabled": 0, "name": "cb5bae31fa952af1f146ef4ace19c6cb", "is_reserved": 0, "bike_id": "cb5bae31fa952af1f146ef4ace19c6cb", "fusion_lon": 0.0, "rental_uris": {"ios": "https://dc.lft.to/lastmile_qr_scan", "android": "https://dc.lft.to/lastmile_qr_scan"}}, {"lon": -77.03172416666666, "fusion_lat": 0.0, "type": "electric_scooter", "lat": 38.91421783333333, "is_disabled": 0, "name": "40fe7803af15c6d6aae5ea001af987ce", "is_reserved": 0, "bike_id": "40fe7803af15c6d6aae5ea001af987ce", "fusion_lon": 0.0, "rental_uris": {"ios": "https://dc.lft.to/lastmile_qr_scan", "android": "https://dc.lft.to/lastmile_qr_scan"}}, {"lon": -77.02402683333334, "fusion_lat": 0.0, "type": "electric_scooter", "lat": 38.925001, "is_disabled": 0, "name": "c9e86f86ec253349d0f0029b9c60a467", "is_reserved": 0, "bike_id": "c9e86f86ec253349d0f0029b9c60a467", "fusion_lon": 0.0, "rental_uris": {"ios": "https://dc.lft.to/lastmile_qr_scan", "android": "https://dc.lft.to/lastmile_qr_scan"}}, {"lon": -77.03200516666666, "fusion_lat": 0.0, "type": "electric_scooter", "lat": 38.90427233333333, "is_disabled": 0, "name": "a4b5f6778ff883c1c86b76b7391e5925", "is_reserved": 0, "bike_id": "a4b5f6778ff883c1c86b76b7391e5925", "fusion_lon": 0.0, "rental_uris": {"ios": "https://dc.lft.to/lastmile_qr_scan", "android": "https://dc.lft.to/lastmile_qr_scan"}}, {"lon": -77.02176183333333, "fusion_lat": 0.0, "type": "electric_scooter", "lat": 38.901782, "is_disabled": 0, "name": "b7333a6b99e2bddc18630254fecaa754", "is_reserved": 0, "bike_id": "b7333a6b99e2bddc18630254fecaa754", "fusion_lon": 0.0, "rental_uris": {"ios": "https://dc.lft.to/lastmile_qr_scan", "android": "https://dc.lft.to/lastmile_qr_scan"}}, {"lon": -76.99699150000001, "fusion_lat": 0.0, "type": "electric_scooter", "lat": 38.908341, "is_disabled": 0, "name": "8fdd08c64754310a3acda5d160ae5b37", "is_reserved": 0, "bike_id": "8fdd08c64754310a3acda5d160ae5b37", "fusion_lon": 0.0, "rental_uris": {"ios": "https://dc.lft.to/lastmile_qr_scan", "android": "https://dc.lft.to/lastmile_qr_scan"}}, {"lon": -77.01798183333334, "fusion_lat": 0.0, "type": "electric_bike", "lat": 38.994127666666664, "is_disabled": 0, "name": "8a880ce615097e452d39f06cb6dc1494", "is_reserved": 0, "bike_id": "8a880ce615097e452d39f06cb6dc1494", "fusion_lon": 0.0, "rental_uris": {"ios": "https://dc.lft.to/lastmile_qr_scan", "android": "https://dc.lft.to/lastmile_qr_scan"}}, {"lon": -76.98687416666667, "fusion_lat": 0.0, "type": "electric_bike", "lat": 38.944641, "is_disabled": 0, "name": "aab7e56c9eed16e06b2eb2cdff0b264c", "is_reserved": 0, "bike_id": "aab7e56c9eed16e06b2eb2cdff0b264c", "fusion_lon": 0.0, "rental_uris": {"ios": "https://dc.lft.to/lastmile_qr_scan", "android": "https://dc.lft.to/lastmile_qr_scan"}}, {"lon": -77.01306966666667, "fusion_lat": 0.0, "type": "electric_scooter", "lat": 38.897226, "is_disabled": 0, "name": "54298364bbaa17142e8918990079264a", "is_reserved": 0, "bike_id": "54298364bbaa17142e8918990079264a", "fusion_lon": 0.0, "rental_uris": {"ios": "https://dc.lft.to/lastmile_qr_scan", "android": "https://dc.lft.to/lastmile_qr_scan"}}, {"lon": -77.02588416666667, "fusion_lat": 0.0, "type": "electric_scooter", "lat": 38.904315833333335, "is_disabled": 0, "name": "0518c778a16546d7a88ac5d267e1c106", "is_reserved": 0, "bike_id": "0518c778a16546d7a88ac5d267e1c106", "fusion_lon": 0.0, "rental_uris": {"ios": "https://dc.lft.to/lastmile_qr_scan", "android": "https://dc.lft.to/lastmile_qr_scan"}}, {"lon": -77.02172483333334, "fusion_lat": 0.0, "type": "electric_scooter", "lat": 38.88712983333333, "is_disabled": 0, "name": "84195262acc654f20e4a5cba010cad40", "is_reserved": 0, "bike_id": "84195262acc654f20e4a5cba010cad40", "fusion_lon": 0.0, "rental_uris": {"ios": "https://dc.lft.to/lastmile_qr_scan", "android": "https://dc.lft.to/lastmile_qr_scan"}}, {"lon": -77.0324975, "fusion_lat": 0.0, "type": "electric_scooter", "lat": 38.93380233333333, "is_disabled": 0, "name": "b96b301c18e0cf88c76724c509af4b56", "is_reserved": 0, "bike_id": "b96b301c18e0cf88c76724c509af4b56", "fusion_lon": 0.0, "rental_uris": {"ios": "https://dc.lft.to/lastmile_qr_scan", "android": "https://dc.lft.to/lastmile_qr_scan"}}, {"lon": -77.0317165, "fusion_lat": 0.0, "type": "electric_scooter", "lat": 38.9141575, "is_disabled": 0, "name": "17c021afe8724556b07ae5a3919e82ff", "is_reserved": 0, "bike_id": "17c021afe8724556b07ae5a3919e82ff", "fusion_lon": 0.0, "rental_uris": {"ios": "https://dc.lft.to/lastmile_qr_scan", "android": "https://dc.lft.to/lastmile_qr_scan"}}, {"lon": -76.9837015, "fusion_lat": 0.0, "type": "electric_scooter", "lat": 38.914958166666665, "is_disabled": 0, "name": "65da31fa36bf9e31c96b6f71b302d164", "is_reserved": 0, "bike_id": "65da31fa36bf9e31c96b6f71b302d164", "fusion_lon": 0.0, "rental_uris": {"ios": "https://dc.lft.to/lastmile_qr_scan", "android": "https://dc.lft.to/lastmile_qr_scan"}}, {"lon": -77.03788966666667, "fusion_lat": 0.0, "type": "electric_bike", "lat": 38.99675916666666, "is_disabled": 0, "name": "a846bba7bacbb17df5311fd225ab1e88", "is_reserved": 0, "bike_id": "a846bba7bacbb17df5311fd225ab1e88", "fusion_lon": 0.0, "rental_uris": {"ios": "https://dc.lft.to/lastmile_qr_scan", "android": "https://dc.lft.to/lastmile_qr_scan"}}, {"lon": -77.06004233333333, "fusion_lat": 0.0, "type": "electric_scooter", "lat": 38.904459, "is_disabled": 0, "name": "e164e454ec27fe6e8ed54e538a6376d8", "is_reserved": 0, "bike_id": "e164e454ec27fe6e8ed54e538a6376d8", "fusion_lon": 0.0, "rental_uris": {"ios": "https://dc.lft.to/lastmile_qr_scan", "android": "https://dc.lft.to/lastmile_qr_scan"}}, {"lon": -77.02411466666666, "fusion_lat": 0.0, "type": "electric_scooter", "lat": 38.9207235, "is_disabled": 0, "name": "f56bff351dad6ff2719c2d9adec9f8df", "is_reserved": 0, "bike_id": "f56bff351dad6ff2719c2d9adec9f8df", "fusion_lon": 0.0, "rental_uris": {"ios": "https://dc.lft.to/lastmile_qr_scan", "android": "https://dc.lft.to/lastmile_qr_scan"}}, {"lon": -77.01877166666667, "fusion_lat": 0.0, "type": "electric_scooter", "lat": 38.92164666666667, "is_disabled": 0, "name": "7c6e2674c2dbafaa6c760762d721a474", "is_reserved": 0, "bike_id": "7c6e2674c2dbafaa6c760762d721a474", "fusion_lon": 0.0, "rental_uris": {"ios": "https://dc.lft.to/lastmile_qr_scan", "android": "https://dc.lft.to/lastmile_qr_scan"}}, {"lon": -77.01148733333333, "fusion_lat": 0.0, "type": "electric_scooter", "lat": 38.900374, "is_disabled": 0, "name": "943500ebcf1c1318a1961e5263e1c31f", "is_reserved": 0, "bike_id": "943500ebcf1c1318a1961e5263e1c31f", "fusion_lon": 0.0, "rental_uris": {"ios": "https://dc.lft.to/lastmile_qr_scan", "android": "https://dc.lft.to/lastmile_qr_scan"}}, {"lon": -77.03390183333333, "fusion_lat": 0.0, "type": "electric_scooter", "lat": 38.891859333333336, "is_disabled": 0, "name": "3eb59a7f47dc8ba381197523e3799751", "is_reserved": 0, "bike_id": "3eb59a7f47dc8ba381197523e3799751", "fusion_lon": 0.0, "rental_uris": {"ios": "https://dc.lft.to/lastmile_qr_scan", "android": "https://dc.lft.to/lastmile_qr_scan"}}, {"lon": -77.01033683333333, "fusion_lat": 0.0, "type": "electric_scooter", "lat": 38.92031216666667, "is_disabled": 0, "name": "da3e1a1c9e1b2c03d90538928b334f52", "is_reserved": 0, "bike_id": "da3e1a1c9e1b2c03d90538928b334f52", "fusion_lon": 0.0, "rental_uris": {"ios": "https://dc.lft.to/lastmile_qr_scan", "android": "https://dc.lft.to/lastmile_qr_scan"}}, {"lon": -77.04055033333333, "fusion_lat": 0.0, "type": "electric_scooter", "lat": 38.925425, "is_disabled": 0, "name": "ca1c4dd5af4f5ab223aa27c2c229fab8", "is_reserved": 0, "bike_id": "ca1c4dd5af4f5ab223aa27c2c229fab8", "fusion_lon": 0.0, "rental_uris": {"ios": "https://dc.lft.to/lastmile_qr_scan", "android": "https://dc.lft.to/lastmile_qr_scan"}}, {"lon": -77.02226866666666, "fusion_lat": 0.0, "type": "electric_scooter", "lat": 38.9261685, "is_disabled": 0, "name": "d500b99b99ee73c04321c502600098a5", "is_reserved": 0, "bike_id": "d500b99b99ee73c04321c502600098a5", "fusion_lon": 0.0, "rental_uris": {"ios": "https://dc.lft.to/lastmile_qr_scan", "android": "https://dc.lft.to/lastmile_qr_scan"}}, {"lon": -77.0319765, "fusion_lat": 0.0, "type": "electric_scooter", "lat": 38.9036995, "is_disabled": 0, "name": "710e74792f3d0decc30902ff6f8b0bb0", "is_reserved": 0, "bike_id": "710e74792f3d0decc30902ff6f8b0bb0", "fusion_lon": 0.0, "rental_uris": {"ios": "https://dc.lft.to/lastmile_qr_scan", "android": "https://dc.lft.to/lastmile_qr_scan"}}, {"lon": -77.015981, "fusion_lat": 0.0, "type": "electric_scooter", "lat": 38.89954916666667, "is_disabled": 0, "name": "254a56f3fe8dafe82661ef243f794ff4", "is_reserved": 0, "bike_id": "254a56f3fe8dafe82661ef243f794ff4", "fusion_lon": 0.0, "rental_uris": {"ios": "https://dc.lft.to/lastmile_qr_scan", "android": "https://dc.lft.to/lastmile_qr_scan"}}, {"lon": -77.01112416666666, "fusion_lat": 0.0, "type": "electric_scooter", "lat": 38.907009, "is_disabled": 0, "name": "60bf9fc33ee4c481e62c71491a730d16", "is_reserved": 0, "bike_id": "60bf9fc33ee4c481e62c71491a730d16", "fusion_lon": 0.0, "rental_uris": {"ios": "https://dc.lft.to/lastmile_qr_scan", "android": "https://dc.lft.to/lastmile_qr_scan"}}, {"lon": -77.02807283333334, "fusion_lat": 0.0, "type": "electric_scooter", "lat": 38.9037445, "is_disabled": 0, "name": "3f4c2da463da421cce634a33cdedf90e", "is_reserved": 0, "bike_id": "3f4c2da463da421cce634a33cdedf90e", "fusion_lon": 0.0, "rental_uris": {"ios": "https://dc.lft.to/lastmile_qr_scan", "android": "https://dc.lft.to/lastmile_qr_scan"}}, {"lon": -77.04953333333333, "fusion_lat": 0.0, "type": "electric_bike", "lat": 39.0109265, "is_disabled": 0, "name": "dc2cd582997d31a9a2a26a494295aa35", "is_reserved": 0, "bike_id": "dc2cd582997d31a9a2a26a494295aa35", "fusion_lon": 0.0, "rental_uris": {"ios": "https://dc.lft.to/lastmile_qr_scan", "android": "https://dc.lft.to/lastmile_qr_scan"}}, {"lon": -77.00219066666666, "fusion_lat": 0.0, "type": "electric_scooter", "lat": 38.8850395, "is_disabled": 0, "name": "d0da9f5e9bacd19222efa34cb2549dc9", "is_reserved": 0, "bike_id": "d0da9f5e9bacd19222efa34cb2549dc9", "fusion_lon": 0.0, "rental_uris": {"ios": "https://dc.lft.to/lastmile_qr_scan", "android": "https://dc.lft.to/lastmile_qr_scan"}}, {"lon": -77.0215545, "fusion_lat": 0.0, "type": "electric_scooter", "lat": 38.92602933333333, "is_disabled": 0, "name": "6606ce5e4ccdf876cdb00a4d825435c7", "is_reserved": 0, "bike_id": "6606ce5e4ccdf876cdb00a4d825435c7", "fusion_lon": 0.0, "rental_uris": {"ios": "https://dc.lft.to/lastmile_qr_scan", "android": "https://dc.lft.to/lastmile_qr_scan"}}, {"lon": -77.0379085, "fusion_lat": 0.0, "type": "electric_scooter", "lat": 38.925064, "is_disabled": 0, "name": "832b293280d7e5619743fe46df7c7116", "is_reserved": 0, "bike_id": "832b293280d7e5619743fe46df7c7116", "fusion_lon": 0.0, "rental_uris": {"ios": "https://dc.lft.to/lastmile_qr_scan", "android": "https://dc.lft.to/lastmile_qr_scan"}}, {"lon": -77.02141133333333, "fusion_lat": 0.0, "type": "electric_scooter", "lat": 38.92500233333333, "is_disabled": 0, "name": "0b490ee0002d6a82a4de77d3e77beee5", "is_reserved": 0, "bike_id": "0b490ee0002d6a82a4de77d3e77beee5", "fusion_lon": 0.0, "rental_uris": {"ios": "https://dc.lft.to/lastmile_qr_scan", "android": "https://dc.lft.to/lastmile_qr_scan"}}, {"lon": -77.0324365, "fusion_lat": 0.0, "type": "electric_scooter", "lat": 38.914758, "is_disabled": 0, "name": "4192ea44e640247bb680edb0df0bfd27", "is_reserved": 0, "bike_id": "4192ea44e640247bb680edb0df0bfd27", "fusion_lon": 0.0, "rental_uris": {"ios": "https://dc.lft.to/lastmile_qr_scan", "android": "https://dc.lft.to/lastmile_qr_scan"}}, {"lon": -77.0392835, "fusion_lat": 0.0, "type": "electric_scooter", "lat": 38.912579666666666, "is_disabled": 0, "name": "22a39190d5979b1651a5b0ef4ac8d676", "is_reserved": 0, "bike_id": "22a39190d5979b1651a5b0ef4ac8d676", "fusion_lon": 0.0, "rental_uris": {"ios": "https://dc.lft.to/lastmile_qr_scan", "android": "https://dc.lft.to/lastmile_qr_scan"}}, {"lon": -77.02690433333333, "fusion_lat": 0.0, "type": "electric_scooter", "lat": 38.906781, "is_disabled": 0, "name": "778d56891e6c9efa3bd50d920ad3cd33", "is_reserved": 0, "bike_id": "778d56891e6c9efa3bd50d920ad3cd33", "fusion_lon": 0.0, "rental_uris": {"ios": "https://dc.lft.to/lastmile_qr_scan", "android": "https://dc.lft.to/lastmile_qr_scan"}}, {"lon": -77.0376045, "fusion_lat": 0.0, "type": "electric_scooter", "lat": 38.903528333333334, "is_disabled": 0, "name": "2434c1ca8de6b114dfc87e7b51d5220e", "is_reserved": 0, "bike_id": "2434c1ca8de6b114dfc87e7b51d5220e", "fusion_lon": 0.0, "rental_uris": {"ios": "https://dc.lft.to/lastmile_qr_scan", "android": "https://dc.lft.to/lastmile_qr_scan"}}, {"lon": -77.03564116666666, "fusion_lat": 0.0, "type": "electric_scooter", "lat": 38.920783166666666, "is_disabled": 0, "name": "f91cdcb8b806eda583edf0bc7edfe1b8", "is_reserved": 0, "bike_id": "f91cdcb8b806eda583edf0bc7edfe1b8", "fusion_lon": 0.0, "rental_uris": {"ios": "https://dc.lft.to/lastmile_qr_scan", "android": "https://dc.lft.to/lastmile_qr_scan"}}, {"lon": -77.139188, "fusion_lat": 0.0, "type": "electric_bike", "lat": 38.8467625, "is_disabled": 0, "name": "0eecba21cbaa3be36b701329678f0868", "is_reserved": 0, "bike_id": "0eecba21cbaa3be36b701329678f0868", "fusion_lon": 0.0, "rental_uris": {"ios": "https://dc.lft.to/lastmile_qr_scan", "android": "https://dc.lft.to/lastmile_qr_scan"}}, {"lon": -77.04808983333334, "fusion_lat": 0.0, "type": "electric_scooter", "lat": 38.916331166666666, "is_disabled": 0, "name": "0c97964f7d2f3c9349c927af910d6f21", "is_reserved": 0, "bike_id": "0c97964f7d2f3c9349c927af910d6f21", "fusion_lon": 0.0, "rental_uris": {"ios": "https://dc.lft.to/lastmile_qr_scan", "android": "https://dc.lft.to/lastmile_qr_scan"}}, {"lon": -76.97330783333334, "fusion_lat": 0.0, "type": "electric_scooter", "lat": 38.9041195, "is_disabled": 0, "name": "25ca82b95738b71c4693afbac9fb898d", "is_reserved": 0, "bike_id": "25ca82b95738b71c4693afbac9fb898d", "fusion_lon": 0.0, "rental_uris": {"ios": "https://dc.lft.to/lastmile_qr_scan", "android": "https://dc.lft.to/lastmile_qr_scan"}}, {"lon": -77.01769416666667, "fusion_lat": 0.0, "type": "electric_scooter", "lat": 38.902727, "is_disabled": 0, "name": "e00d76355a8cdeb5001afc4e0a0b196d", "is_reserved": 0, "bike_id": "e00d76355a8cdeb5001afc4e0a0b196d", "fusion_lon": 0.0, "rental_uris": {"ios": "https://dc.lft.to/lastmile_qr_scan", "android": "https://dc.lft.to/lastmile_qr_scan"}}, {"lon": -76.9932925, "fusion_lat": 0.0, "type": "electric_scooter", "lat": 38.8765365, "is_disabled": 0, "name": "9794661f3ad7c2bf5f7ef4b011f1d984", "is_reserved": 0, "bike_id": "9794661f3ad7c2bf5f7ef4b011f1d984", "fusion_lon": 0.0, "rental_uris": {"ios": "https://dc.lft.to/lastmile_qr_scan", "android": "https://dc.lft.to/lastmile_qr_scan"}}, {"lon": -77.0494945, "fusion_lat": 0.0, "type": "electric_scooter", "lat": 38.92348833333333, "is_disabled": 0, "name": "a59768f6c786b99a0a1c6afba98336e5", "is_reserved": 0, "bike_id": "a59768f6c786b99a0a1c6afba98336e5", "fusion_lon": 0.0, "rental_uris": {"ios": "https://dc.lft.to/lastmile_qr_scan", "android": "https://dc.lft.to/lastmile_qr_scan"}}, {"lon": -77.049021, "fusion_lat": 0.0, "type": "electric_scooter", "lat": 38.89830633333333, "is_disabled": 0, "name": "7e25151133652e9ce8f3068c00d01c84", "is_reserved": 0, "bike_id": "7e25151133652e9ce8f3068c00d01c84", "fusion_lon": 0.0, "rental_uris": {"ios": "https://dc.lft.to/lastmile_qr_scan", "android": "https://dc.lft.to/lastmile_qr_scan"}}, {"lon": -76.958356, "fusion_lat": 0.0, "type": "electric_scooter", "lat": 38.93047166666667, "is_disabled": 0, "name": "649e3c22afd2b355ce63fced42687c68", "is_reserved": 0, "bike_id": "649e3c22afd2b355ce63fced42687c68", "fusion_lon": 0.0, "rental_uris": {"ios": "https://dc.lft.to/lastmile_qr_scan", "android": "https://dc.lft.to/lastmile_qr_scan"}}, {"lon": -77.0194595, "fusion_lat": 0.0, "type": "electric_scooter", "lat": 38.924187, "is_disabled": 0, "name": "5370cc349d95abe6face8639415da082", "is_reserved": 0, "bike_id": "5370cc349d95abe6face8639415da082", "fusion_lon": 0.0, "rental_uris": {"ios": "https://dc.lft.to/lastmile_qr_scan", "android": "https://dc.lft.to/lastmile_qr_scan"}}, {"lon": -77.020541, "fusion_lat": 0.0, "type": "electric_scooter", "lat": 38.91902116666667, "is_disabled": 0, "name": "2b8e68a5007fcb76cf0714abb772fd48", "is_reserved": 0, "bike_id": "2b8e68a5007fcb76cf0714abb772fd48", "fusion_lon": 0.0, "rental_uris": {"ios": "https://dc.lft.to/lastmile_qr_scan", "android": "https://dc.lft.to/lastmile_qr_scan"}}, {"lon": -77.01899033333333, "fusion_lat": 0.0, "type": "electric_scooter", "lat": 38.923359, "is_disabled": 0, "name": "3bdacaff79ece3dcd72202b8e9798f6f", "is_reserved": 0, "bike_id": "3bdacaff79ece3dcd72202b8e9798f6f", "fusion_lon": 0.0, "rental_uris": {"ios": "https://dc.lft.to/lastmile_qr_scan", "android": "https://dc.lft.to/lastmile_qr_scan"}}, {"lon": -77.043709, "fusion_lat": 0.0, "type": "electric_scooter", "lat": 38.8985835, "is_disabled": 0, "name": "27679348f5b6199a23278637943cb08e", "is_reserved": 0, "bike_id": "27679348f5b6199a23278637943cb08e", "fusion_lon": 0.0, "rental_uris": {"ios": "https://dc.lft.to/lastmile_qr_scan", "android": "https://dc.lft.to/lastmile_qr_scan"}}, {"lon": -77.046637, "fusion_lat": 0.0, "type": "electric_scooter", "lat": 38.900145333333334, "is_disabled": 0, "name": "d58c34e1637048dee84e9fa6786c2149", "is_reserved": 0, "bike_id": "d58c34e1637048dee84e9fa6786c2149", "fusion_lon": 0.0, "rental_uris": {"ios": "https://dc.lft.to/lastmile_qr_scan", "android": "https://dc.lft.to/lastmile_qr_scan"}}, {"lon": -77.03286016666667, "fusion_lat": 0.0, "type": "electric_scooter", "lat": 38.8987595, "is_disabled": 0, "name": "c42d1d5ae8038a56080f6528827dd02e", "is_reserved": 0, "bike_id": "c42d1d5ae8038a56080f6528827dd02e", "fusion_lon": 0.0, "rental_uris": {"ios": "https://dc.lft.to/lastmile_qr_scan", "android": "https://dc.lft.to/lastmile_qr_scan"}}, {"lon": -76.92418383333333, "fusion_lat": 0.0, "type": "electric_scooter", "lat": 38.88370116666667, "is_disabled": 0, "name": "8702fc7af26b8edbc3b4ba5d59c76db2", "is_reserved": 0, "bike_id": "8702fc7af26b8edbc3b4ba5d59c76db2", "fusion_lon": 0.0, "rental_uris": {"ios": "https://dc.lft.to/lastmile_qr_scan", "android": "https://dc.lft.to/lastmile_qr_scan"}}, {"lon": -76.938506, "fusion_lat": 0.0, "type": "electric_scooter", "lat": 38.899685833333336, "is_disabled": 0, "name": "9077e0f2aed9920e67ba4dac9f4ec59d", "is_reserved": 0, "bike_id": "9077e0f2aed9920e67ba4dac9f4ec59d", "fusion_lon": 0.0, "rental_uris": {"ios": "https://dc.lft.to/lastmile_qr_scan", "android": "https://dc.lft.to/lastmile_qr_scan"}}, {"lon": -77.03193316666666, "fusion_lat": 0.0, "type": "electric_scooter", "lat": 38.915828, "is_disabled": 0, "name": "5fb1c9a89882e0b6ca2cc22d42bdc3b9", "is_reserved": 0, "bike_id": "5fb1c9a89882e0b6ca2cc22d42bdc3b9", "fusion_lon": 0.0, "rental_uris": {"ios": "https://dc.lft.to/lastmile_qr_scan", "android": "https://dc.lft.to/lastmile_qr_scan"}}, {"lon": -77.003258, "fusion_lat": 0.0, "type": "electric_scooter", "lat": 38.9026615, "is_disabled": 0, "name": "6d28f1b62765d069ee5f73d9dfbbc153", "is_reserved": 0, "bike_id": "6d28f1b62765d069ee5f73d9dfbbc153", "fusion_lon": 0.0, "rental_uris": {"ios": "https://dc.lft.to/lastmile_qr_scan", "android": "https://dc.lft.to/lastmile_qr_scan"}}, {"lon": -77.036598, "fusion_lat": 0.0, "type": "electric_scooter", "lat": 38.92601583333333, "is_disabled": 0, "name": "4ab704ab0aa97cf840a1d58423fd6170", "is_reserved": 0, "bike_id": "4ab704ab0aa97cf840a1d58423fd6170", "fusion_lon": 0.0, "rental_uris": {"ios": "https://dc.lft.to/lastmile_qr_scan", "android": "https://dc.lft.to/lastmile_qr_scan"}}, {"lon": -77.0296065, "fusion_lat": 0.0, "type": "electric_scooter", "lat": 38.922785, "is_disabled": 0, "name": "e0e83b2bcbf6493a7a3f8749ed337ad5", "is_reserved": 0, "bike_id": "e0e83b2bcbf6493a7a3f8749ed337ad5", "fusion_lon": 0.0, "rental_uris": {"ios": "https://dc.lft.to/lastmile_qr_scan", "android": "https://dc.lft.to/lastmile_qr_scan"}}, {"lon": -77.058994, "fusion_lat": 0.0, "type": "electric_scooter", "lat": 38.905325500000004, "is_disabled": 0, "name": "f7fbe9efb48c0102ee2ad83d2126e45b", "is_reserved": 0, "bike_id": "f7fbe9efb48c0102ee2ad83d2126e45b", "fusion_lon": 0.0, "rental_uris": {"ios": "https://dc.lft.to/lastmile_qr_scan", "android": "https://dc.lft.to/lastmile_qr_scan"}}, {"lon": -77.02589566666667, "fusion_lat": 0.0, "type": "electric_scooter", "lat": 38.917279666666666, "is_disabled": 0, "name": "8e06071c8ee9c3799952046e03848d67", "is_reserved": 0, "bike_id": "8e06071c8ee9c3799952046e03848d67", "fusion_lon": 0.0, "rental_uris": {"ios": "https://dc.lft.to/lastmile_qr_scan", "android": "https://dc.lft.to/lastmile_qr_scan"}}, {"lon": -77.0505785, "fusion_lat": 0.0, "type": "electric_scooter", "lat": 38.9236195, "is_disabled": 0, "name": "1b8b2be6e31eba50953346dc01b86d7c", "is_reserved": 0, "bike_id": "1b8b2be6e31eba50953346dc01b86d7c", "fusion_lon": 0.0, "rental_uris": {"ios": "https://dc.lft.to/lastmile_qr_scan", "android": "https://dc.lft.to/lastmile_qr_scan"}}, {"lon": -77.003639, "fusion_lat": 0.0, "type": "electric_scooter", "lat": 38.9110455, "is_disabled": 0, "name": "676deec71b1a70972c7c2766bbb6070a", "is_reserved": 0, "bike_id": "676deec71b1a70972c7c2766bbb6070a", "fusion_lon": 0.0, "rental_uris": {"ios": "https://dc.lft.to/lastmile_qr_scan", "android": "https://dc.lft.to/lastmile_qr_scan"}}, {"lon": -77.026943, "fusion_lat": 0.0, "type": "electric_scooter", "lat": 38.897629333333335, "is_disabled": 0, "name": "3811e549b455553394f294d866969ebe", "is_reserved": 0, "bike_id": "3811e549b455553394f294d866969ebe", "fusion_lon": 0.0, "rental_uris": {"ios": "https://dc.lft.to/lastmile_qr_scan", "android": "https://dc.lft.to/lastmile_qr_scan"}}, {"lon": -77.033462, "fusion_lat": 0.0, "type": "electric_scooter", "lat": 38.8990345, "is_disabled": 0, "name": "112153220ab854bbf4b9379a677977f0", "is_reserved": 0, "bike_id": "112153220ab854bbf4b9379a677977f0", "fusion_lon": 0.0, "rental_uris": {"ios": "https://dc.lft.to/lastmile_qr_scan", "android": "https://dc.lft.to/lastmile_qr_scan"}}, {"lon": -77.01909833333333, "fusion_lat": 0.0, "type": "electric_scooter", "lat": 38.91414983333333, "is_disabled": 0, "name": "9b50d1975bd5ae0c4ededb2bd8c01cf9", "is_reserved": 0, "bike_id": "9b50d1975bd5ae0c4ededb2bd8c01cf9", "fusion_lon": 0.0, "rental_uris": {"ios": "https://dc.lft.to/lastmile_qr_scan", "android": "https://dc.lft.to/lastmile_qr_scan"}}, {"lon": -77.0323035, "fusion_lat": 0.0, "type": "electric_scooter", "lat": 38.9298945, "is_disabled": 0, "name": "d963c1fcb9c394b3a50cb0fe78bf25fa", "is_reserved": 0, "bike_id": "d963c1fcb9c394b3a50cb0fe78bf25fa", "fusion_lon": 0.0, "rental_uris": {"ios": "https://dc.lft.to/lastmile_qr_scan", "android": "https://dc.lft.to/lastmile_qr_scan"}}, {"lon": -76.97419333333333, "fusion_lat": 0.0, "type": "electric_scooter", "lat": 38.89832283333333, "is_disabled": 0, "name": "8aad7a4582a550b6fd121576c194345a", "is_reserved": 0, "bike_id": "8aad7a4582a550b6fd121576c194345a", "fusion_lon": 0.0, "rental_uris": {"ios": "https://dc.lft.to/lastmile_qr_scan", "android": "https://dc.lft.to/lastmile_qr_scan"}}, {"lon": -77.0447845, "fusion_lat": 0.0, "type": "electric_scooter", "lat": 38.89714333333333, "is_disabled": 0, "name": "b36fc6af6457e0f17d02ce2840691e36", "is_reserved": 0, "bike_id": "b36fc6af6457e0f17d02ce2840691e36", "fusion_lon": 0.0, "rental_uris": {"ios": "https://dc.lft.to/lastmile_qr_scan", "android": "https://dc.lft.to/lastmile_qr_scan"}}, {"lon": -77.05808766666667, "fusion_lat": 0.0, "type": "electric_scooter", "lat": 38.934603, "is_disabled": 0, "name": "27fd823c678a644fbbf7712197622b38", "is_reserved": 0, "bike_id": "27fd823c678a644fbbf7712197622b38", "fusion_lon": 0.0, "rental_uris": {"ios": "https://dc.lft.to/lastmile_qr_scan", "android": "https://dc.lft.to/lastmile_qr_scan"}}, {"lon": -76.98205233333333, "fusion_lat": 0.0, "type": "electric_scooter", "lat": 38.90565083333333, "is_disabled": 0, "name": "dce47356a89b274222e987a7303c3507", "is_reserved": 0, "bike_id": "dce47356a89b274222e987a7303c3507", "fusion_lon": 0.0, "rental_uris": {"ios": "https://dc.lft.to/lastmile_qr_scan", "android": "https://dc.lft.to/lastmile_qr_scan"}}, {"lon": -77.02197683333333, "fusion_lat": 0.0, "type": "electric_scooter", "lat": 38.903543166666665, "is_disabled": 0, "name": "00d94810c1fb71cb0f69df05bd489284", "is_reserved": 0, "bike_id": "00d94810c1fb71cb0f69df05bd489284", "fusion_lon": 0.0, "rental_uris": {"ios": "https://dc.lft.to/lastmile_qr_scan", "android": "https://dc.lft.to/lastmile_qr_scan"}}, {"lon": -77.02979566666667, "fusion_lat": 0.0, "type": "electric_scooter", "lat": 38.92547116666667, "is_disabled": 0, "name": "8ec61929c29a771fc499383100dca79f", "is_reserved": 0, "bike_id": "8ec61929c29a771fc499383100dca79f", "fusion_lon": 0.0, "rental_uris": {"ios": "https://dc.lft.to/lastmile_qr_scan", "android": "https://dc.lft.to/lastmile_qr_scan"}}, {"lon": -77.0401235, "fusion_lat": 0.0, "type": "electric_scooter", "lat": 38.90726333333333, "is_disabled": 0, "name": "b59ae6af4266048a7af7073db89ff7b2", "is_reserved": 0, "bike_id": "b59ae6af4266048a7af7073db89ff7b2", "fusion_lon": 0.0, "rental_uris": {"ios": "https://dc.lft.to/lastmile_qr_scan", "android": "https://dc.lft.to/lastmile_qr_scan"}}, {"lon": -77.02505483333333, "fusion_lat": 0.0, "type": "electric_scooter", "lat": 38.920748333333336, "is_disabled": 0, "name": "d5b0e783cf4e4dcdb4990715b21f6e08", "is_reserved": 0, "bike_id": "d5b0e783cf4e4dcdb4990715b21f6e08", "fusion_lon": 0.0, "rental_uris": {"ios": "https://dc.lft.to/lastmile_qr_scan", "android": "https://dc.lft.to/lastmile_qr_scan"}}, {"lon": -77.01528383333333, "fusion_lat": 0.0, "type": "electric_scooter", "lat": 38.884818333333335, "is_disabled": 0, "name": "38acba28abcf1a752c85765671c0292f", "is_reserved": 0, "bike_id": "38acba28abcf1a752c85765671c0292f", "fusion_lon": 0.0, "rental_uris": {"ios": "https://dc.lft.to/lastmile_qr_scan", "android": "https://dc.lft.to/lastmile_qr_scan"}}, {"lon": -77.0308785, "fusion_lat": 0.0, "type": "electric_scooter", "lat": 38.926677166666664, "is_disabled": 0, "name": "47fc4a48bc6008ade513c991604a786f", "is_reserved": 0, "bike_id": "47fc4a48bc6008ade513c991604a786f", "fusion_lon": 0.0, "rental_uris": {"ios": "https://dc.lft.to/lastmile_qr_scan", "android": "https://dc.lft.to/lastmile_qr_scan"}}, {"lon": -77.0136585, "fusion_lat": 0.0, "type": "electric_scooter", "lat": 38.887079166666666, "is_disabled": 0, "name": "127ebef49d472084b7f0c18d0241dfa9", "is_reserved": 0, "bike_id": "127ebef49d472084b7f0c18d0241dfa9", "fusion_lon": 0.0, "rental_uris": {"ios": "https://dc.lft.to/lastmile_qr_scan", "android": "https://dc.lft.to/lastmile_qr_scan"}}, {"lon": -77.03218583333333, "fusion_lat": 0.0, "type": "electric_scooter", "lat": 38.903827, "is_disabled": 0, "name": "f940b9998b0dd60b1d7e848ff4bee1a1", "is_reserved": 0, "bike_id": "f940b9998b0dd60b1d7e848ff4bee1a1", "fusion_lon": 0.0, "rental_uris": {"ios": "https://dc.lft.to/lastmile_qr_scan", "android": "https://dc.lft.to/lastmile_qr_scan"}}, {"lon": -76.9948315, "fusion_lat": 0.0, "type": "electric_scooter", "lat": 38.883660666666664, "is_disabled": 0, "name": "764979922e2f6c181a4273a8079d59a4", "is_reserved": 0, "bike_id": "764979922e2f6c181a4273a8079d59a4", "fusion_lon": 0.0, "rental_uris": {"ios": "https://dc.lft.to/lastmile_qr_scan", "android": "https://dc.lft.to/lastmile_qr_scan"}}, {"lon": -77.02094166666667, "fusion_lat": 0.0, "type": "electric_scooter", "lat": 38.894219, "is_disabled": 0, "name": "9c8ad1cb9278322d7553bee55ded930e", "is_reserved": 0, "bike_id": "9c8ad1cb9278322d7553bee55ded930e", "fusion_lon": 0.0, "rental_uris": {"ios": "https://dc.lft.to/lastmile_qr_scan", "android": "https://dc.lft.to/lastmile_qr_scan"}}, {"lon": -76.99169616666667, "fusion_lat": 0.0, "type": "electric_scooter", "lat": 38.8734195, "is_disabled": 0, "name": "784607830b99c63c30618b2271553eec", "is_reserved": 0, "bike_id": "784607830b99c63c30618b2271553eec", "fusion_lon": 0.0, "rental_uris": {"ios": "https://dc.lft.to/lastmile_qr_scan", "android": "https://dc.lft.to/lastmile_qr_scan"}}, {"lon": -77.03183216666666, "fusion_lat": 0.0, "type": "electric_scooter", "lat": 38.8990405, "is_disabled": 0, "name": "1275574e7c5c32195740aeb72feadf87", "is_reserved": 0, "bike_id": "1275574e7c5c32195740aeb72feadf87", "fusion_lon": 0.0, "rental_uris": {"ios": "https://dc.lft.to/lastmile_qr_scan", "android": "https://dc.lft.to/lastmile_qr_scan"}}, {"lon": -77.03253366666667, "fusion_lat": 0.0, "type": "electric_scooter", "lat": 38.91553916666667, "is_disabled": 0, "name": "2babbf02c9e835f430826747e3d260c6", "is_reserved": 0, "bike_id": "2babbf02c9e835f430826747e3d260c6", "fusion_lon": 0.0, "rental_uris": {"ios": "https://dc.lft.to/lastmile_qr_scan", "android": "https://dc.lft.to/lastmile_qr_scan"}}, {"lon": -77.022331, "fusion_lat": 0.0, "type": "electric_scooter", "lat": 38.87845266666667, "is_disabled": 0, "name": "dfac1a6dbbd8152d32e9616d52fd8c36", "is_reserved": 0, "bike_id": "dfac1a6dbbd8152d32e9616d52fd8c36", "fusion_lon": 0.0, "rental_uris": {"ios": "https://dc.lft.to/lastmile_qr_scan", "android": "https://dc.lft.to/lastmile_qr_scan"}}, {"lon": -77.024933, "fusion_lat": 0.0, "type": "electric_scooter", "lat": 38.94180033333333, "is_disabled": 0, "name": "6d216310100b03bd1b386ab4a6b775e4", "is_reserved": 0, "bike_id": "6d216310100b03bd1b386ab4a6b775e4", "fusion_lon": 0.0, "rental_uris": {"ios": "https://dc.lft.to/lastmile_qr_scan", "android": "https://dc.lft.to/lastmile_qr_scan"}}, {"lon": -77.02795866666666, "fusion_lat": 0.0, "type": "electric_scooter", "lat": 38.893554333333334, "is_disabled": 0, "name": "e3297caef92d0e2a9ff5fdd5e70d337f", "is_reserved": 0, "bike_id": "e3297caef92d0e2a9ff5fdd5e70d337f", "fusion_lon": 0.0, "rental_uris": {"ios": "https://dc.lft.to/lastmile_qr_scan", "android": "https://dc.lft.to/lastmile_qr_scan"}}, {"lon": -76.9835355, "fusion_lat": 0.0, "type": "electric_scooter", "lat": 38.88723783333333, "is_disabled": 0, "name": "216e3f6768f9bd12058985148fcf4fae", "is_reserved": 0, "bike_id": "216e3f6768f9bd12058985148fcf4fae", "fusion_lon": 0.0, "rental_uris": {"ios": "https://dc.lft.to/lastmile_qr_scan", "android": "https://dc.lft.to/lastmile_qr_scan"}}, {"lon": -77.00584833333333, "fusion_lat": 0.0, "type": "electric_scooter", "lat": 38.9055295, "is_disabled": 0, "name": "69db07260450f742515f79ef4882984a", "is_reserved": 0, "bike_id": "69db07260450f742515f79ef4882984a", "fusion_lon": 0.0, "rental_uris": {"ios": "https://dc.lft.to/lastmile_qr_scan", "android": "https://dc.lft.to/lastmile_qr_scan"}}, {"lon": -77.0359985, "fusion_lat": 0.0, "type": "electric_scooter", "lat": 38.923160333333335, "is_disabled": 0, "name": "abe478dd732a03aeca1033a88f554e03", "is_reserved": 0, "bike_id": "abe478dd732a03aeca1033a88f554e03", "fusion_lon": 0.0, "rental_uris": {"ios": "https://dc.lft.to/lastmile_qr_scan", "android": "https://dc.lft.to/lastmile_qr_scan"}}, {"lon": -77.02979283333333, "fusion_lat": 0.0, "type": "electric_scooter", "lat": 38.93441933333333, "is_disabled": 0, "name": "cdee7bb3d06a0d00e106ecd7f40b74ff", "is_reserved": 0, "bike_id": "cdee7bb3d06a0d00e106ecd7f40b74ff", "fusion_lon": 0.0, "rental_uris": {"ios": "https://dc.lft.to/lastmile_qr_scan", "android": "https://dc.lft.to/lastmile_qr_scan"}}, {"lon": -77.0532415, "fusion_lat": 0.0, "type": "electric_scooter", "lat": 38.904161, "is_disabled": 0, "name": "1f1f778e7939958f67effcaada8dd2c1", "is_reserved": 0, "bike_id": "1f1f778e7939958f67effcaada8dd2c1", "fusion_lon": 0.0, "rental_uris": {"ios": "https://dc.lft.to/lastmile_qr_scan", "android": "https://dc.lft.to/lastmile_qr_scan"}}, {"lon": -77.0220505, "fusion_lat": 0.0, "type": "electric_scooter", "lat": 38.92148133333333, "is_disabled": 0, "name": "11b284b6365cf355b769566b4fcaf079", "is_reserved": 0, "bike_id": "11b284b6365cf355b769566b4fcaf079", "fusion_lon": 0.0, "rental_uris": {"ios": "https://dc.lft.to/lastmile_qr_scan", "android": "https://dc.lft.to/lastmile_qr_scan"}}, {"lon": -77.02966733333334, "fusion_lat": 0.0, "type": "electric_scooter", "lat": 38.93036133333333, "is_disabled": 0, "name": "0894734f184c2351ad46b1d87e54c079", "is_reserved": 0, "bike_id": "0894734f184c2351ad46b1d87e54c079", "fusion_lon": 0.0, "rental_uris": {"ios": "https://dc.lft.to/lastmile_qr_scan", "android": "https://dc.lft.to/lastmile_qr_scan"}}, {"lon": -77.03641283333333, "fusion_lat": 0.0, "type": "electric_scooter", "lat": 38.9234195, "is_disabled": 0, "name": "d11dae7defe618f24e42d204fb6aa2b1", "is_reserved": 0, "bike_id": "d11dae7defe618f24e42d204fb6aa2b1", "fusion_lon": 0.0, "rental_uris": {"ios": "https://dc.lft.to/lastmile_qr_scan", "android": "https://dc.lft.to/lastmile_qr_scan"}}, {"lon": -77.0168045, "fusion_lat": 0.0, "type": "electric_scooter", "lat": 38.879392833333334, "is_disabled": 0, "name": "3e717d29ce9b4cd5d2aa63c91ed0ca07", "is_reserved": 0, "bike_id": "3e717d29ce9b4cd5d2aa63c91ed0ca07", "fusion_lon": 0.0, "rental_uris": {"ios": "https://dc.lft.to/lastmile_qr_scan", "android": "https://dc.lft.to/lastmile_qr_scan"}}, {"lon": -77.02505683333334, "fusion_lat": 0.0, "type": "electric_scooter", "lat": 38.92645316666667, "is_disabled": 0, "name": "eb1042ded82b7dfa0f35435cc16193d3", "is_reserved": 0, "bike_id": "eb1042ded82b7dfa0f35435cc16193d3", "fusion_lon": 0.0, "rental_uris": {"ios": "https://dc.lft.to/lastmile_qr_scan", "android": "https://dc.lft.to/lastmile_qr_scan"}}, {"lon": -77.0409355, "fusion_lat": 0.0, "type": "electric_scooter", "lat": 38.9002935, "is_disabled": 0, "name": "f80af44bcb6342becfbe485813a9da60", "is_reserved": 0, "bike_id": "f80af44bcb6342becfbe485813a9da60", "fusion_lon": 0.0, "rental_uris": {"ios": "https://dc.lft.to/lastmile_qr_scan", "android": "https://dc.lft.to/lastmile_qr_scan"}}, {"lon": -77.041358, "fusion_lat": 0.0, "type": "electric_scooter", "lat": 38.91877316666667, "is_disabled": 0, "name": "7d61868ed97158616148d1fb3959658a", "is_reserved": 0, "bike_id": "7d61868ed97158616148d1fb3959658a", "fusion_lon": 0.0, "rental_uris": {"ios": "https://dc.lft.to/lastmile_qr_scan", "android": "https://dc.lft.to/lastmile_qr_scan"}}, {"lon": -77.036487, "fusion_lat": 0.0, "type": "electric_scooter", "lat": 38.91649016666667, "is_disabled": 0, "name": "8f44b8b4bc18c453a5a00b9adba9e301", "is_reserved": 0, "bike_id": "8f44b8b4bc18c453a5a00b9adba9e301", "fusion_lon": 0.0, "rental_uris": {"ios": "https://dc.lft.to/lastmile_qr_scan", "android": "https://dc.lft.to/lastmile_qr_scan"}}, {"lon": -77.04542983333333, "fusion_lat": 0.0, "type": "electric_scooter", "lat": 38.894536333333335, "is_disabled": 0, "name": "b18fce2d62bc88f2c3d41ff5d8852deb", "is_reserved": 0, "bike_id": "b18fce2d62bc88f2c3d41ff5d8852deb", "fusion_lon": 0.0, "rental_uris": {"ios": "https://dc.lft.to/lastmile_qr_scan", "android": "https://dc.lft.to/lastmile_qr_scan"}}, {"lon": -76.98996383333333, "fusion_lat": 0.0, "type": "electric_scooter", "lat": 38.9027145, "is_disabled": 0, "name": "06cdb5348706dd912e41999267cda13e", "is_reserved": 0, "bike_id": "06cdb5348706dd912e41999267cda13e", "fusion_lon": 0.0, "rental_uris": {"ios": "https://dc.lft.to/lastmile_qr_scan", "android": "https://dc.lft.to/lastmile_qr_scan"}}, {"lon": -77.0482815, "fusion_lat": 0.0, "type": "electric_scooter", "lat": 38.9051485, "is_disabled": 0, "name": "bf29b43dddcee1d3bebc1ac1db309c74", "is_reserved": 0, "bike_id": "bf29b43dddcee1d3bebc1ac1db309c74", "fusion_lon": 0.0, "rental_uris": {"ios": "https://dc.lft.to/lastmile_qr_scan", "android": "https://dc.lft.to/lastmile_qr_scan"}}, {"lon": -77.02303933333333, "fusion_lat": 0.0, "type": "electric_scooter", "lat": 38.92058883333333, "is_disabled": 0, "name": "e034ad6a823073d76a6ccf94b64f080f", "is_reserved": 0, "bike_id": "e034ad6a823073d76a6ccf94b64f080f", "fusion_lon": 0.0, "rental_uris": {"ios": "https://dc.lft.to/lastmile_qr_scan", "android": "https://dc.lft.to/lastmile_qr_scan"}}, {"lon": -77.05799, "fusion_lat": 0.0, "type": "electric_scooter", "lat": 38.90266183333333, "is_disabled": 0, "name": "da4b894b35511d62b9d6be80177af076", "is_reserved": 0, "bike_id": "da4b894b35511d62b9d6be80177af076", "fusion_lon": 0.0, "rental_uris": {"ios": "https://dc.lft.to/lastmile_qr_scan", "android": "https://dc.lft.to/lastmile_qr_scan"}}, {"lon": -76.9913545, "fusion_lat": 0.0, "type": "electric_scooter", "lat": 38.91070333333333, "is_disabled": 0, "name": "763b497be34a91fb0598010d2ebcb778", "is_reserved": 0, "bike_id": "763b497be34a91fb0598010d2ebcb778", "fusion_lon": 0.0, "rental_uris": {"ios": "https://dc.lft.to/lastmile_qr_scan", "android": "https://dc.lft.to/lastmile_qr_scan"}}, {"lon": -77.01226233333334, "fusion_lat": 0.0, "type": "electric_scooter", "lat": 38.87523516666667, "is_disabled": 0, "name": "3946ce0d9d738dbf8b26d322e51b9213", "is_reserved": 0, "bike_id": "3946ce0d9d738dbf8b26d322e51b9213", "fusion_lon": 0.0, "rental_uris": {"ios": "https://dc.lft.to/lastmile_qr_scan", "android": "https://dc.lft.to/lastmile_qr_scan"}}, {"lon": -77.03101033333333, "fusion_lat": 0.0, "type": "electric_scooter", "lat": 38.8962705, "is_disabled": 0, "name": "93dabe7d9bcdcc060569e2643f707ac1", "is_reserved": 0, "bike_id": "93dabe7d9bcdcc060569e2643f707ac1", "fusion_lon": 0.0, "rental_uris": {"ios": "https://dc.lft.to/lastmile_qr_scan", "android": "https://dc.lft.to/lastmile_qr_scan"}}, {"lon": -77.03198583333334, "fusion_lat": 0.0, "type": "electric_scooter", "lat": 38.91774916666667, "is_disabled": 0, "name": "b2ab3e7729616a2299743838bd83043d", "is_reserved": 0, "bike_id": "b2ab3e7729616a2299743838bd83043d", "fusion_lon": 0.0, "rental_uris": {"ios": "https://dc.lft.to/lastmile_qr_scan", "android": "https://dc.lft.to/lastmile_qr_scan"}}, {"lon": -77.03361433333333, "fusion_lat": 0.0, "type": "electric_scooter", "lat": 38.919172333333336, "is_disabled": 0, "name": "f5a4f283fca29801d8d8dd9c218095b5", "is_reserved": 0, "bike_id": "f5a4f283fca29801d8d8dd9c218095b5", "fusion_lon": 0.0, "rental_uris": {"ios": "https://dc.lft.to/lastmile_qr_scan", "android": "https://dc.lft.to/lastmile_qr_scan"}}, {"lon": -76.99763016666667, "fusion_lat": 0.0, "type": "electric_scooter", "lat": 38.9069645, "is_disabled": 0, "name": "9b93305396806367a598ad37c0caffaa", "is_reserved": 0, "bike_id": "9b93305396806367a598ad37c0caffaa", "fusion_lon": 0.0, "rental_uris": {"ios": "https://dc.lft.to/lastmile_qr_scan", "android": "https://dc.lft.to/lastmile_qr_scan"}}, {"lon": -77.02306016666667, "fusion_lat": 0.0, "type": "electric_scooter", "lat": 38.92074616666667, "is_disabled": 0, "name": "799435984089d5591d9bc2149e1d11a3", "is_reserved": 0, "bike_id": "799435984089d5591d9bc2149e1d11a3", "fusion_lon": 0.0, "rental_uris": {"ios": "https://dc.lft.to/lastmile_qr_scan", "android": "https://dc.lft.to/lastmile_qr_scan"}}, {"lon": -77.032138, "fusion_lat": 0.0, "type": "electric_scooter", "lat": 38.908848, "is_disabled": 0, "name": "6cc06e60730cc9c511ac6eafedbd094b", "is_reserved": 0, "bike_id": "6cc06e60730cc9c511ac6eafedbd094b", "fusion_lon": 0.0, "rental_uris": {"ios": "https://dc.lft.to/lastmile_qr_scan", "android": "https://dc.lft.to/lastmile_qr_scan"}}, {"lon": -76.99369316666667, "fusion_lat": 0.0, "type": "electric_scooter", "lat": 38.910203833333334, "is_disabled": 0, "name": "42acfc92ef9278152b764b5b3c19be81", "is_reserved": 0, "bike_id": "42acfc92ef9278152b764b5b3c19be81", "fusion_lon": 0.0, "rental_uris": {"ios": "https://dc.lft.to/lastmile_qr_scan", "android": "https://dc.lft.to/lastmile_qr_scan"}}, {"lon": -77.03265583333334, "fusion_lat": 0.0, "type": "electric_scooter", "lat": 38.92898316666667, "is_disabled": 0, "name": "1e5dc90eca074104eee77dac50b3b1de", "is_reserved": 0, "bike_id": "1e5dc90eca074104eee77dac50b3b1de", "fusion_lon": 0.0, "rental_uris": {"ios": "https://dc.lft.to/lastmile_qr_scan", "android": "https://dc.lft.to/lastmile_qr_scan"}}, {"lon": -77.058234, "fusion_lat": 0.0, "type": "electric_scooter", "lat": 38.905218166666664, "is_disabled": 0, "name": "3e629cb16a99e31efd81b5166f47281b", "is_reserved": 0, "bike_id": "3e629cb16a99e31efd81b5166f47281b", "fusion_lon": 0.0, "rental_uris": {"ios": "https://dc.lft.to/lastmile_qr_scan", "android": "https://dc.lft.to/lastmile_qr_scan"}}, {"lon": -77.07265633333333, "fusion_lat": 0.0, "type": "electric_scooter", "lat": 38.908938, "is_disabled": 0, "name": "f2f88689af9f3b46e29962c5735bb6df", "is_reserved": 0, "bike_id": "f2f88689af9f3b46e29962c5735bb6df", "fusion_lon": 0.0, "rental_uris": {"ios": "https://dc.lft.to/lastmile_qr_scan", "android": "https://dc.lft.to/lastmile_qr_scan"}}, {"lon": -77.00064283333333, "fusion_lat": 0.0, "type": "electric_scooter", "lat": 38.924352666666664, "is_disabled": 0, "name": "905ddc8aec3106ebb67e3c3e5f45eb73", "is_reserved": 0, "bike_id": "905ddc8aec3106ebb67e3c3e5f45eb73", "fusion_lon": 0.0, "rental_uris": {"ios": "https://dc.lft.to/lastmile_qr_scan", "android": "https://dc.lft.to/lastmile_qr_scan"}}, {"lon": -77.03081533333334, "fusion_lat": 0.0, "type": "electric_scooter", "lat": 38.927898666666664, "is_disabled": 0, "name": "4baa30fe97c9da3e8f61ff8f0b9c318a", "is_reserved": 0, "bike_id": "4baa30fe97c9da3e8f61ff8f0b9c318a", "fusion_lon": 0.0, "rental_uris": {"ios": "https://dc.lft.to/lastmile_qr_scan", "android": "https://dc.lft.to/lastmile_qr_scan"}}, {"lon": -77.04077366666667, "fusion_lat": 0.0, "type": "electric_scooter", "lat": 38.9002575, "is_disabled": 0, "name": "ed161fe5c36e0efbd863e166e9e5d37d", "is_reserved": 0, "bike_id": "ed161fe5c36e0efbd863e166e9e5d37d", "fusion_lon": 0.0, "rental_uris": {"ios": "https://dc.lft.to/lastmile_qr_scan", "android": "https://dc.lft.to/lastmile_qr_scan"}}, {"lon": -77.04632133333334, "fusion_lat": 0.0, "type": "electric_scooter", "lat": 38.9022095, "is_disabled": 0, "name": "d69ae88228defff36d0cbf4c3b4111c1", "is_reserved": 0, "bike_id": "d69ae88228defff36d0cbf4c3b4111c1", "fusion_lon": 0.0, "rental_uris": {"ios": "https://dc.lft.to/lastmile_qr_scan", "android": "https://dc.lft.to/lastmile_qr_scan"}}, {"lon": -77.02680616666666, "fusion_lat": 0.0, "type": "electric_scooter", "lat": 38.89720366666667, "is_disabled": 0, "name": "9e518603509083bf34b409f5d3d406b4", "is_reserved": 0, "bike_id": "9e518603509083bf34b409f5d3d406b4", "fusion_lon": 0.0, "rental_uris": {"ios": "https://dc.lft.to/lastmile_qr_scan", "android": "https://dc.lft.to/lastmile_qr_scan"}}, {"lon": -77.0603825, "fusion_lat": 0.0, "type": "electric_scooter", "lat": 38.939068666666664, "is_disabled": 0, "name": "3bc8b4f00ab25e7264ce3b42f71d1ff5", "is_reserved": 0, "bike_id": "3bc8b4f00ab25e7264ce3b42f71d1ff5", "fusion_lon": 0.0, "rental_uris": {"ios": "https://dc.lft.to/lastmile_qr_scan", "android": "https://dc.lft.to/lastmile_qr_scan"}}, {"lon": -77.02700733333333, "fusion_lat": 0.0, "type": "electric_scooter", "lat": 38.89718416666667, "is_disabled": 0, "name": "57925caaec8139a65461300809b9ad2a", "is_reserved": 0, "bike_id": "57925caaec8139a65461300809b9ad2a", "fusion_lon": 0.0, "rental_uris": {"ios": "https://dc.lft.to/lastmile_qr_scan", "android": "https://dc.lft.to/lastmile_qr_scan"}}, {"lon": -77.03328716666667, "fusion_lat": 0.0, "type": "electric_scooter", "lat": 38.919774833333335, "is_disabled": 0, "name": "78cab6bc736227bf1d5c1ab8ae4434c7", "is_reserved": 0, "bike_id": "78cab6bc736227bf1d5c1ab8ae4434c7", "fusion_lon": 0.0, "rental_uris": {"ios": "https://dc.lft.to/lastmile_qr_scan", "android": "https://dc.lft.to/lastmile_qr_scan"}}, {"lon": -76.985418, "fusion_lat": 0.0, "type": "electric_scooter", "lat": 38.9129195, "is_disabled": 0, "name": "638bfa718f02adcf914bad35b06f5834", "is_reserved": 0, "bike_id": "638bfa718f02adcf914bad35b06f5834", "fusion_lon": 0.0, "rental_uris": {"ios": "https://dc.lft.to/lastmile_qr_scan", "android": "https://dc.lft.to/lastmile_qr_scan"}}, {"lon": -77.0220905, "fusion_lat": 0.0, "type": "electric_scooter", "lat": 38.896051, "is_disabled": 0, "name": "bd689d8a992297fa49a0e59b0bcdfb29", "is_reserved": 0, "bike_id": "bd689d8a992297fa49a0e59b0bcdfb29", "fusion_lon": 0.0, "rental_uris": {"ios": "https://dc.lft.to/lastmile_qr_scan", "android": "https://dc.lft.to/lastmile_qr_scan"}}, {"lon": -77.0376065, "fusion_lat": 0.0, "type": "electric_scooter", "lat": 38.907794833333334, "is_disabled": 0, "name": "685c043c0357ae2cc782281cebb70cdd", "is_reserved": 0, "bike_id": "685c043c0357ae2cc782281cebb70cdd", "fusion_lon": 0.0, "rental_uris": {"ios": "https://dc.lft.to/lastmile_qr_scan", "android": "https://dc.lft.to/lastmile_qr_scan"}}, {"lon": -77.06976666666667, "fusion_lat": 0.0, "type": "electric_scooter", "lat": 38.95259933333333, "is_disabled": 0, "name": "9bd7067f11e6fb200a7c6c66649417cf", "is_reserved": 0, "bike_id": "9bd7067f11e6fb200a7c6c66649417cf", "fusion_lon": 0.0, "rental_uris": {"ios": "https://dc.lft.to/lastmile_qr_scan", "android": "https://dc.lft.to/lastmile_qr_scan"}}, {"lon": -77.0837035, "fusion_lat": 0.0, "type": "electric_scooter", "lat": 38.956564666666665, "is_disabled": 0, "name": "5f1148934fb7f2dbc1f50c8d8422304f", "is_reserved": 0, "bike_id": "5f1148934fb7f2dbc1f50c8d8422304f", "fusion_lon": 0.0, "rental_uris": {"ios": "https://dc.lft.to/lastmile_qr_scan", "android": "https://dc.lft.to/lastmile_qr_scan"}}, {"lon": -77.02238116666666, "fusion_lat": 0.0, "type": "electric_scooter", "lat": 38.878449, "is_disabled": 0, "name": "b1ac480675646f5fc47686768654f986", "is_reserved": 0, "bike_id": "b1ac480675646f5fc47686768654f986", "fusion_lon": 0.0, "rental_uris": {"ios": "https://dc.lft.to/lastmile_qr_scan", "android": "https://dc.lft.to/lastmile_qr_scan"}}, {"lon": -77.00330016666666, "fusion_lat": 0.0, "type": "electric_scooter", "lat": 38.893589166666665, "is_disabled": 0, "name": "1a64abe8d3a04955b138b793c545dd4b", "is_reserved": 0, "bike_id": "1a64abe8d3a04955b138b793c545dd4b", "fusion_lon": 0.0, "rental_uris": {"ios": "https://dc.lft.to/lastmile_qr_scan", "android": "https://dc.lft.to/lastmile_qr_scan"}}, {"lon": -77.022078, "fusion_lat": 0.0, "type": "electric_scooter", "lat": 38.92476633333333, "is_disabled": 0, "name": "404f2585b7aac0bb120bbe4aaed90137", "is_reserved": 0, "bike_id": "404f2585b7aac0bb120bbe4aaed90137", "fusion_lon": 0.0, "rental_uris": {"ios": "https://dc.lft.to/lastmile_qr_scan", "android": "https://dc.lft.to/lastmile_qr_scan"}}, {"lon": -76.99268416666666, "fusion_lat": 0.0, "type": "electric_scooter", "lat": 38.88354133333333, "is_disabled": 0, "name": "d42e3cfbdf7d1ac5507970251b0baef0", "is_reserved": 0, "bike_id": "d42e3cfbdf7d1ac5507970251b0baef0", "fusion_lon": 0.0, "rental_uris": {"ios": "https://dc.lft.to/lastmile_qr_scan", "android": "https://dc.lft.to/lastmile_qr_scan"}}, {"lon": -77.0321875, "fusion_lat": 0.0, "type": "electric_scooter", "lat": 38.91404033333333, "is_disabled": 0, "name": "bfac7f131f1879a7b16acc57d08a6d89", "is_reserved": 0, "bike_id": "bfac7f131f1879a7b16acc57d08a6d89", "fusion_lon": 0.0, "rental_uris": {"ios": "https://dc.lft.to/lastmile_qr_scan", "android": "https://dc.lft.to/lastmile_qr_scan"}}, {"lon": -76.9467925, "fusion_lat": 0.0, "type": "electric_scooter", "lat": 38.89864816666667, "is_disabled": 0, "name": "edecc10f8dd57bdf7bdf838d6992fbdd", "is_reserved": 0, "bike_id": "edecc10f8dd57bdf7bdf838d6992fbdd", "fusion_lon": 0.0, "rental_uris": {"ios": "https://dc.lft.to/lastmile_qr_scan", "android": "https://dc.lft.to/lastmile_qr_scan"}}, {"lon": -77.00711566666666, "fusion_lat": 0.0, "type": "electric_scooter", "lat": 38.884898666666665, "is_disabled": 0, "name": "d6e58ad98142c0c8463469e94a1838a0", "is_reserved": 0, "bike_id": "d6e58ad98142c0c8463469e94a1838a0", "fusion_lon": 0.0, "rental_uris": {"ios": "https://dc.lft.to/lastmile_qr_scan", "android": "https://dc.lft.to/lastmile_qr_scan"}}, {"lon": -77.041396, "fusion_lat": 0.0, "type": "electric_scooter", "lat": 38.91038283333334, "is_disabled": 0, "name": "beb6b25b29a2dcdda2ce94bb7f5b0984", "is_reserved": 0, "bike_id": "beb6b25b29a2dcdda2ce94bb7f5b0984", "fusion_lon": 0.0, "rental_uris": {"ios": "https://dc.lft.to/lastmile_qr_scan", "android": "https://dc.lft.to/lastmile_qr_scan"}}, {"lon": -76.9784525, "fusion_lat": 0.0, "type": "electric_scooter", "lat": 38.86566633333333, "is_disabled": 0, "name": "83e0099c5b3e36cddfa3c38897063cd9", "is_reserved": 0, "bike_id": "83e0099c5b3e36cddfa3c38897063cd9", "fusion_lon": 0.0, "rental_uris": {"ios": "https://dc.lft.to/lastmile_qr_scan", "android": "https://dc.lft.to/lastmile_qr_scan"}}, {"lon": -77.05809833333333, "fusion_lat": 0.0, "type": "electric_scooter", "lat": 38.9029605, "is_disabled": 0, "name": "834ee34248c0a875a421f89156d60be9", "is_reserved": 0, "bike_id": "834ee34248c0a875a421f89156d60be9", "fusion_lon": 0.0, "rental_uris": {"ios": "https://dc.lft.to/lastmile_qr_scan", "android": "https://dc.lft.to/lastmile_qr_scan"}}, {"lon": -77.02135016666666, "fusion_lat": 0.0, "type": "electric_scooter", "lat": 38.915529, "is_disabled": 0, "name": "d542dc448684ba4c1d3944e3408fee4c", "is_reserved": 0, "bike_id": "d542dc448684ba4c1d3944e3408fee4c", "fusion_lon": 0.0, "rental_uris": {"ios": "https://dc.lft.to/lastmile_qr_scan", "android": "https://dc.lft.to/lastmile_qr_scan"}}, {"lon": -77.03190883333333, "fusion_lat": 0.0, "type": "electric_scooter", "lat": 38.886156666666665, "is_disabled": 0, "name": "db7f246ff0624a8dc31f36d6fbdbaddb", "is_reserved": 0, "bike_id": "db7f246ff0624a8dc31f36d6fbdbaddb", "fusion_lon": 0.0, "rental_uris": {"ios": "https://dc.lft.to/lastmile_qr_scan", "android": "https://dc.lft.to/lastmile_qr_scan"}}, {"lon": -77.04818266666666, "fusion_lat": 0.0, "type": "electric_scooter", "lat": 38.92040183333334, "is_disabled": 0, "name": "f95e61e0f33abba6ab086a9597606336", "is_reserved": 0, "bike_id": "f95e61e0f33abba6ab086a9597606336", "fusion_lon": 0.0, "rental_uris": {"ios": "https://dc.lft.to/lastmile_qr_scan", "android": "https://dc.lft.to/lastmile_qr_scan"}}, {"lon": -77.024926, "fusion_lat": 0.0, "type": "electric_scooter", "lat": 38.897383166666664, "is_disabled": 0, "name": "d85d98fd9843a5797eb8fc911fa2f2df", "is_reserved": 0, "bike_id": "d85d98fd9843a5797eb8fc911fa2f2df", "fusion_lon": 0.0, "rental_uris": {"ios": "https://dc.lft.to/lastmile_qr_scan", "android": "https://dc.lft.to/lastmile_qr_scan"}}, {"lon": -77.02559766666667, "fusion_lat": 0.0, "type": "electric_scooter", "lat": 38.90723833333333, "is_disabled": 0, "name": "3a091ff8ed31e78286b9556c3ef34ba1", "is_reserved": 0, "bike_id": "3a091ff8ed31e78286b9556c3ef34ba1", "fusion_lon": 0.0, "rental_uris": {"ios": "https://dc.lft.to/lastmile_qr_scan", "android": "https://dc.lft.to/lastmile_qr_scan"}}, {"lon": -77.00162766666666, "fusion_lat": 0.0, "type": "electric_bike", "lat": 38.89927816666667, "is_disabled": 0, "name": "512598ca88c8654c2afa5dae22a30036", "is_reserved": 0, "bike_id": "512598ca88c8654c2afa5dae22a30036", "fusion_lon": 0.0, "rental_uris": {"ios": "https://dc.lft.to/lastmile_qr_scan", "android": "https://dc.lft.to/lastmile_qr_scan"}}, {"lon": -77.02726616666666, "fusion_lat": 0.0, "type": "electric_scooter", "lat": 38.93453066666667, "is_disabled": 0, "name": "fc80cbb354d95a9481f09245c45fef52", "is_reserved": 0, "bike_id": "fc80cbb354d95a9481f09245c45fef52", "fusion_lon": 0.0, "rental_uris": {"ios": "https://dc.lft.to/lastmile_qr_scan", "android": "https://dc.lft.to/lastmile_qr_scan"}}, {"lon": -77.005996, "fusion_lat": 0.0, "type": "electric_scooter", "lat": 38.878792833333335, "is_disabled": 0, "name": "e9224b21c2f0d47ba149629db382c966", "is_reserved": 0, "bike_id": "e9224b21c2f0d47ba149629db382c966", "fusion_lon": 0.0, "rental_uris": {"ios": "https://dc.lft.to/lastmile_qr_scan", "android": "https://dc.lft.to/lastmile_qr_scan"}}, {"lon": -77.03939233333334, "fusion_lat": 0.0, "type": "electric_scooter", "lat": 38.89930316666667, "is_disabled": 0, "name": "cc9d294f733bc60b556f7830730a2ec0", "is_reserved": 0, "bike_id": "cc9d294f733bc60b556f7830730a2ec0", "fusion_lon": 0.0, "rental_uris": {"ios": "https://dc.lft.to/lastmile_qr_scan", "android": "https://dc.lft.to/lastmile_qr_scan"}}, {"lon": -77.02965316666666, "fusion_lat": 0.0, "type": "electric_scooter", "lat": 38.92925783333333, "is_disabled": 0, "name": "a7bdbabe35c98c45a63156a2401dcd23", "is_reserved": 0, "bike_id": "a7bdbabe35c98c45a63156a2401dcd23", "fusion_lon": 0.0, "rental_uris": {"ios": "https://dc.lft.to/lastmile_qr_scan", "android": "https://dc.lft.to/lastmile_qr_scan"}}, {"lon": -77.04238066666667, "fusion_lat": 0.0, "type": "electric_scooter", "lat": 38.90583766666666, "is_disabled": 0, "name": "a641db27cdb64c36834ccce9d2c85579", "is_reserved": 0, "bike_id": "a641db27cdb64c36834ccce9d2c85579", "fusion_lon": 0.0, "rental_uris": {"ios": "https://dc.lft.to/lastmile_qr_scan", "android": "https://dc.lft.to/lastmile_qr_scan"}}, {"lon": -77.02555166666667, "fusion_lat": 0.0, "type": "electric_scooter", "lat": 38.94166583333333, "is_disabled": 0, "name": "8666b293866a71cacf0df32608b4663c", "is_reserved": 0, "bike_id": "8666b293866a71cacf0df32608b4663c", "fusion_lon": 0.0, "rental_uris": {"ios": "https://dc.lft.to/lastmile_qr_scan", "android": "https://dc.lft.to/lastmile_qr_scan"}}, {"lon": -77.03461283333333, "fusion_lat": 0.0, "type": "electric_scooter", "lat": 38.92063266666667, "is_disabled": 0, "name": "b9f85914d6788ea186e0273991b936ea", "is_reserved": 0, "bike_id": "b9f85914d6788ea186e0273991b936ea", "fusion_lon": 0.0, "rental_uris": {"ios": "https://dc.lft.to/lastmile_qr_scan", "android": "https://dc.lft.to/lastmile_qr_scan"}}, {"lon": -77.0000795, "fusion_lat": 0.0, "type": "electric_scooter", "lat": 38.90731316666667, "is_disabled": 0, "name": "47fef55b52126e9668b1f3d7ba329ace", "is_reserved": 0, "bike_id": "47fef55b52126e9668b1f3d7ba329ace", "fusion_lon": 0.0, "rental_uris": {"ios": "https://dc.lft.to/lastmile_qr_scan", "android": "https://dc.lft.to/lastmile_qr_scan"}}, {"lon": -77.02176383333334, "fusion_lat": 0.0, "type": "electric_scooter", "lat": 38.884819, "is_disabled": 0, "name": "b217a0106f4bd1eef15aa289eb73b8df", "is_reserved": 0, "bike_id": "b217a0106f4bd1eef15aa289eb73b8df", "fusion_lon": 0.0, "rental_uris": {"ios": "https://dc.lft.to/lastmile_qr_scan", "android": "https://dc.lft.to/lastmile_qr_scan"}}, {"lon": -77.05906816666666, "fusion_lat": 0.0, "type": "electric_scooter", "lat": 38.90538633333333, "is_disabled": 0, "name": "3ee2d5b07997f69341af63838c4ea4e1", "is_reserved": 0, "bike_id": "3ee2d5b07997f69341af63838c4ea4e1", "fusion_lon": 0.0, "rental_uris": {"ios": "https://dc.lft.to/lastmile_qr_scan", "android": "https://dc.lft.to/lastmile_qr_scan"}}, {"lon": -77.0320125, "fusion_lat": 0.0, "type": "electric_scooter", "lat": 38.921193, "is_disabled": 0, "name": "d4d73917d4f0471fe9b4daf1f8b1b243", "is_reserved": 0, "bike_id": "d4d73917d4f0471fe9b4daf1f8b1b243", "fusion_lon": 0.0, "rental_uris": {"ios": "https://dc.lft.to/lastmile_qr_scan", "android": "https://dc.lft.to/lastmile_qr_scan"}}, {"lon": -77.08019083333333, "fusion_lat": 0.0, "type": "electric_scooter", "lat": 38.948506333333334, "is_disabled": 0, "name": "7f9ab63ae559e46e1243c830abe63161", "is_reserved": 0, "bike_id": "7f9ab63ae559e46e1243c830abe63161", "fusion_lon": 0.0, "rental_uris": {"ios": "https://dc.lft.to/lastmile_qr_scan", "android": "https://dc.lft.to/lastmile_qr_scan"}}, {"lon": -77.0241535, "fusion_lat": 0.0, "type": "electric_scooter", "lat": 38.92072983333333, "is_disabled": 0, "name": "dfed61e849ea8778f1cdf0cf21bed379", "is_reserved": 0, "bike_id": "dfed61e849ea8778f1cdf0cf21bed379", "fusion_lon": 0.0, "rental_uris": {"ios": "https://dc.lft.to/lastmile_qr_scan", "android": "https://dc.lft.to/lastmile_qr_scan"}}, {"lon": -76.98336433333333, "fusion_lat": 0.0, "type": "electric_scooter", "lat": 38.895437333333334, "is_disabled": 0, "name": "e1800afd5309fdf032ec19761bda1435", "is_reserved": 0, "bike_id": "e1800afd5309fdf032ec19761bda1435", "fusion_lon": 0.0, "rental_uris": {"ios": "https://dc.lft.to/lastmile_qr_scan", "android": "https://dc.lft.to/lastmile_qr_scan"}}, {"lon": -76.9960695, "fusion_lat": 0.0, "type": "electric_scooter", "lat": 38.876638666666665, "is_disabled": 0, "name": "f5bbd1540c83e1549f2d954e663ab33a", "is_reserved": 0, "bike_id": "f5bbd1540c83e1549f2d954e663ab33a", "fusion_lon": 0.0, "rental_uris": {"ios": "https://dc.lft.to/lastmile_qr_scan", "android": "https://dc.lft.to/lastmile_qr_scan"}}, {"lon": -76.94246616666666, "fusion_lat": 0.0, "type": "electric_bike", "lat": 38.94796566666667, "is_disabled": 0, "name": "99bf7179fe7b467220c79f6821fab73b", "is_reserved": 0, "bike_id": "99bf7179fe7b467220c79f6821fab73b", "fusion_lon": 0.0, "rental_uris": {"ios": "https://dc.lft.to/lastmile_qr_scan", "android": "https://dc.lft.to/lastmile_qr_scan"}}, {"lon": -77.02548716666666, "fusion_lat": 0.0, "type": "electric_scooter", "lat": 38.8806805, "is_disabled": 0, "name": "dfbcfbc45770eb831c15247cb710a235", "is_reserved": 0, "bike_id": "dfbcfbc45770eb831c15247cb710a235", "fusion_lon": 0.0, "rental_uris": {"ios": "https://dc.lft.to/lastmile_qr_scan", "android": "https://dc.lft.to/lastmile_qr_scan"}}, {"lon": -77.0179745, "fusion_lat": 0.0, "type": "electric_scooter", "lat": 38.91969383333333, "is_disabled": 0, "name": "69e22fad697175dae6e7ade9456a170f", "is_reserved": 0, "bike_id": "69e22fad697175dae6e7ade9456a170f", "fusion_lon": 0.0, "rental_uris": {"ios": "https://dc.lft.to/lastmile_qr_scan", "android": "https://dc.lft.to/lastmile_qr_scan"}}, {"lon": -77.03348466666667, "fusion_lat": 0.0, "type": "electric_scooter", "lat": 38.902776833333334, "is_disabled": 0, "name": "c9272199662577ef5a466be7ab78d2f5", "is_reserved": 0, "bike_id": "c9272199662577ef5a466be7ab78d2f5", "fusion_lon": 0.0, "rental_uris": {"ios": "https://dc.lft.to/lastmile_qr_scan", "android": "https://dc.lft.to/lastmile_qr_scan"}}, {"lon": -77.04141366666667, "fusion_lat": 0.0, "type": "electric_scooter", "lat": 38.92295466666667, "is_disabled": 0, "name": "c66ba947be2df1cd5683115ef822f820", "is_reserved": 0, "bike_id": "c66ba947be2df1cd5683115ef822f820", "fusion_lon": 0.0, "rental_uris": {"ios": "https://dc.lft.to/lastmile_qr_scan", "android": "https://dc.lft.to/lastmile_qr_scan"}}, {"lon": -77.0319845, "fusion_lat": 0.0, "type": "electric_scooter", "lat": 38.9133975, "is_disabled": 0, "name": "83b54f817214c2a47fa653504299793e", "is_reserved": 0, "bike_id": "83b54f817214c2a47fa653504299793e", "fusion_lon": 0.0, "rental_uris": {"ios": "https://dc.lft.to/lastmile_qr_scan", "android": "https://dc.lft.to/lastmile_qr_scan"}}, {"lon": -76.99557416666667, "fusion_lat": 0.0, "type": "electric_scooter", "lat": 38.921335666666664, "is_disabled": 0, "name": "6c1aa21c4834bcbd517ec76c320ec306", "is_reserved": 0, "bike_id": "6c1aa21c4834bcbd517ec76c320ec306", "fusion_lon": 0.0, "rental_uris": {"ios": "https://dc.lft.to/lastmile_qr_scan", "android": "https://dc.lft.to/lastmile_qr_scan"}}, {"lon": -77.0321265, "fusion_lat": 0.0, "type": "electric_scooter", "lat": 38.93619266666666, "is_disabled": 0, "name": "2b3f6dd6f0facf7f919d33c7a8f9448d", "is_reserved": 0, "bike_id": "2b3f6dd6f0facf7f919d33c7a8f9448d", "fusion_lon": 0.0, "rental_uris": {"ios": "https://dc.lft.to/lastmile_qr_scan", "android": "https://dc.lft.to/lastmile_qr_scan"}}, {"lon": -76.92134283333333, "fusion_lat": 0.0, "type": "electric_scooter", "lat": 38.90154733333333, "is_disabled": 0, "name": "c2c4e77515e478b77b7c7ea0884d2927", "is_reserved": 0, "bike_id": "c2c4e77515e478b77b7c7ea0884d2927", "fusion_lon": 0.0, "rental_uris": {"ios": "https://dc.lft.to/lastmile_qr_scan", "android": "https://dc.lft.to/lastmile_qr_scan"}}, {"lon": -77.060392, "fusion_lat": 0.0, "type": "electric_scooter", "lat": 38.939008, "is_disabled": 0, "name": "1f84b8b49b45f1351ab982b3c15df0b8", "is_reserved": 0, "bike_id": "1f84b8b49b45f1351ab982b3c15df0b8", "fusion_lon": 0.0, "rental_uris": {"ios": "https://dc.lft.to/lastmile_qr_scan", "android": "https://dc.lft.to/lastmile_qr_scan"}}, {"lon": -77.01644766666666, "fusion_lat": 0.0, "type": "electric_scooter", "lat": 38.9037915, "is_disabled": 0, "name": "cdc56b24acfe0c1293c0ba7e08535cfd", "is_reserved": 0, "bike_id": "cdc56b24acfe0c1293c0ba7e08535cfd", "fusion_lon": 0.0, "rental_uris": {"ios": "https://dc.lft.to/lastmile_qr_scan", "android": "https://dc.lft.to/lastmile_qr_scan"}}, {"lon": -77.00577383333334, "fusion_lat": 0.0, "type": "electric_scooter", "lat": 38.874115, "is_disabled": 0, "name": "3431f115e1ea281d1aa6b54828a78854", "is_reserved": 0, "bike_id": "3431f115e1ea281d1aa6b54828a78854", "fusion_lon": 0.0, "rental_uris": {"ios": "https://dc.lft.to/lastmile_qr_scan", "android": "https://dc.lft.to/lastmile_qr_scan"}}, {"lon": -77.02683366666666, "fusion_lat": 0.0, "type": "electric_scooter", "lat": 38.92384416666667, "is_disabled": 0, "name": "ea99edb38cb081701115d4fecdb58af6", "is_reserved": 0, "bike_id": "ea99edb38cb081701115d4fecdb58af6", "fusion_lon": 0.0, "rental_uris": {"ios": "https://dc.lft.to/lastmile_qr_scan", "android": "https://dc.lft.to/lastmile_qr_scan"}}, {"lon": -77.04601516666666, "fusion_lat": 0.0, "type": "electric_scooter", "lat": 38.90965383333333, "is_disabled": 0, "name": "57c9fd937bd0b029d3ee207621b86789", "is_reserved": 0, "bike_id": "57c9fd937bd0b029d3ee207621b86789", "fusion_lon": 0.0, "rental_uris": {"ios": "https://dc.lft.to/lastmile_qr_scan", "android": "https://dc.lft.to/lastmile_qr_scan"}}, {"lon": -76.9942835, "fusion_lat": 0.0, "type": "electric_scooter", "lat": 38.85215916666667, "is_disabled": 0, "name": "ef3de1f41c008e77ec9ffc417000185e", "is_reserved": 0, "bike_id": "ef3de1f41c008e77ec9ffc417000185e", "fusion_lon": 0.0, "rental_uris": {"ios": "https://dc.lft.to/lastmile_qr_scan", "android": "https://dc.lft.to/lastmile_qr_scan"}}, {"lon": -76.98893233333334, "fusion_lat": 0.0, "type": "electric_scooter", "lat": 38.91341516666667, "is_disabled": 0, "name": "e947b74c53edc04a1804f88a8536d926", "is_reserved": 0, "bike_id": "e947b74c53edc04a1804f88a8536d926", "fusion_lon": 0.0, "rental_uris": {"ios": "https://dc.lft.to/lastmile_qr_scan", "android": "https://dc.lft.to/lastmile_qr_scan"}}, {"lon": -77.000407, "fusion_lat": 0.0, "type": "electric_scooter", "lat": 38.87627, "is_disabled": 0, "name": "339e80752ae0a06360a3b467a552614a", "is_reserved": 0, "bike_id": "339e80752ae0a06360a3b467a552614a", "fusion_lon": 0.0, "rental_uris": {"ios": "https://dc.lft.to/lastmile_qr_scan", "android": "https://dc.lft.to/lastmile_qr_scan"}}, {"lon": -77.03161066666667, "fusion_lat": 0.0, "type": "electric_scooter", "lat": 38.916933666666665, "is_disabled": 0, "name": "bbeec87065643b7b769546fd244f7fc6", "is_reserved": 0, "bike_id": "bbeec87065643b7b769546fd244f7fc6", "fusion_lon": 0.0, "rental_uris": {"ios": "https://dc.lft.to/lastmile_qr_scan", "android": "https://dc.lft.to/lastmile_qr_scan"}}, {"lon": -76.992554, "fusion_lat": 0.0, "type": "electric_scooter", "lat": 38.8810985, "is_disabled": 0, "name": "fd6e75742f70a74a21a5330d1a6bab02", "is_reserved": 0, "bike_id": "fd6e75742f70a74a21a5330d1a6bab02", "fusion_lon": 0.0, "rental_uris": {"ios": "https://dc.lft.to/lastmile_qr_scan", "android": "https://dc.lft.to/lastmile_qr_scan"}}, {"lon": -76.99257766666666, "fusion_lat": 0.0, "type": "electric_bike", "lat": 38.8073365, "is_disabled": 0, "name": "62ca75ddd9173bfb39d3ad463a0a679d", "is_reserved": 0, "bike_id": "62ca75ddd9173bfb39d3ad463a0a679d", "fusion_lon": 0.0, "rental_uris": {"ios": "https://dc.lft.to/lastmile_qr_scan", "android": "https://dc.lft.to/lastmile_qr_scan"}}, {"lon": -76.93020683333333, "fusion_lat": 0.0, "type": "electric_scooter", "lat": 38.90162083333333, "is_disabled": 0, "name": "191e651a2ce92ee5052bfc0b793b064a", "is_reserved": 0, "bike_id": "191e651a2ce92ee5052bfc0b793b064a", "fusion_lon": 0.0, "rental_uris": {"ios": "https://dc.lft.to/lastmile_qr_scan", "android": "https://dc.lft.to/lastmile_qr_scan"}}, {"lon": -77.0315965, "fusion_lat": 0.0, "type": "electric_scooter", "lat": 38.905971, "is_disabled": 0, "name": "ba5c9e63059e1913de99f40f82bef14f", "is_reserved": 0, "bike_id": "ba5c9e63059e1913de99f40f82bef14f", "fusion_lon": 0.0, "rental_uris": {"ios": "https://dc.lft.to/lastmile_qr_scan", "android": "https://dc.lft.to/lastmile_qr_scan"}}, {"lon": -77.02961083333334, "fusion_lat": 0.0, "type": "electric_scooter", "lat": 38.92685, "is_disabled": 0, "name": "0eccd4ba56ce42ba442895ff4de25f8d", "is_reserved": 0, "bike_id": "0eccd4ba56ce42ba442895ff4de25f8d", "fusion_lon": 0.0, "rental_uris": {"ios": "https://dc.lft.to/lastmile_qr_scan", "android": "https://dc.lft.to/lastmile_qr_scan"}},