{"data": {"bikes": [{"is_disabled": 0, "is_reserved": 0, "fusion_lat": 0.0, "lat": 38.928647, "fusion_lon": 0.0, "rental_uris": {"ios": "https://dc.lft.to/lastmile_qr_scan", "android": "https://dc.lft.to/lastmile_qr_scan"}, "lon": -77.07889783333333, "bike_id": "dd207df76ad95ef89d3f502ffb4f5846", "type": "electric_scooter", "name": "dd207df76ad95ef89d3f502ffb4f5846"}, {"is_disabled": 0, "is_reserved": 0, "fusion_lat": 0.0, "lat": 38.89248166666667, "fusion_lon": 0.0, "rental_uris": {"ios": "https://dc.lft.to/lastmile_qr_scan", "android": "https://dc.lft.to/lastmile_qr_scan"}, "lon": -77.039569, "bike_id": "5359fda6937e84bcac298d0d566114c2", "type": "electric_scooter", "name": "5359fda6937e84bcac298d0d566114c2"}, {"is_disabled": 0, "is_reserved": 0, "fusion_lat": 0.0, "lat": 38.87660416666667, "fusion_lon": 0.0, "rental_uris": {"ios": "https://dc.lft.to/lastmile_qr_scan", "android": "https://dc.lft.to/lastmile_qr_scan"}, "lon": -77.00881916666667, "bike_id": "7fde36fa0edc952492ff009d85d2e19c", "type": "electric_scooter", "name": "7fde36fa0edc952492ff009d85d2e19c"}, {"is_disabled": 0, "is_reserved": 0, "fusion_lat": 0.0, "lat": 38.863685833333335, "fusion_lon": 0.0, "rental_uris": {"ios": "https://dc.lft.to/lastmile_qr_scan", "android": "https://dc.lft.to/lastmile_qr_scan"}, "lon": -76.97009683333333, "bike_id": "519083ce206a10c3474fc733785cece8", "type": "electric_bike", "name": "519083ce206a10c3474fc733785cece8"}, {"is_disabled": 0, "is_reserved": 0, "fusion_lat": 0.0, "lat": 38.90630183333333, "fusion_lon": 0.0, "rental_uris": {"ios": "https://dc.lft.to/lastmile_qr_scan", "android": "https://dc.lft.to/lastmile_qr_scan"}, "lon": -77.029796, "bike_id": "7b5c7d82cfe32a4f4f36100c74f7850d", "type": "electric_scooter", "name": "7b5c7d82cfe32a4f4f36100c74f7850d"}, {"is_disabled": 0, "is_reserved": 0, "fusion_lat": 0.0, "lat": 38.901627, "fusion_lon": 0.0, "rental_uris": {"ios": "https://dc.lft.to/lastmile_qr_scan", "android": "https://dc.lft.to/lastmile_qr_scan"}, "lon": -77.02512933333334, "bike_id": "265813339d6b3354e8feed9c7e55160d", "type": "electric_scooter", "name": "265813339d6b3354e8feed9c7e55160d"}, {"is_disabled": 0, "is_reserved": 0, "fusion_lat": 0.0, "lat": 38.902626833333336, "fusion_lon": 0.0, "rental_uris": {"ios": "https://dc.lft.to/lastmile_qr_scan", "android": "https://dc.lft.to/lastmile_qr_scan"}, "lon": -76.92848816666667, "bike_id": "b7b0ca9fcb159b97e92a5352d0ffb48b", "type": "electric_scooter", "name": "b7b0ca9fcb159b97e92a5352d0ffb48b"}, {"is_disabled": 0, "is_reserved": 0, "fusion_lat": 0.0, "lat": 38.88361866666666, "fusion_lon": 0.0, "rental_uris": {"ios": "https://dc.lft.to/lastmile_qr_scan", "android": "https://dc.lft.to/lastmile_qr_scan"}, "lon": -76.927908, "bike_id": "7b49156f9bd2901676fae5dbea0293dc", "type": "electric_scooter", "name": "7b49156f9bd2901676fae5dbea0293dc"}, {"is_disabled": 0, "is_reserved": 0, "fusion_lat": 0.0, "lat": 38.939851833333336, "fusion_lon": 0.0, "rental_uris": {"ios": "https://dc.lft.to/lastmile_qr_scan", "android": "https://dc.lft.to/lastmile_qr_scan"}, "lon": -77.0191735, "bike_id": "87dfdd458f32f674403c3461a29fdfcd", "type": "electric_scooter", "name": "87dfdd458f32f674403c3461a29fdfcd"}, {"is_disabled": 0, "is_reserved": 0, "fusion_lat": 0.0, "lat": 38.982063, "fusion_lon": 0.0, "rental_uris": {"ios": "https://dc.lft.to/lastmile_qr_scan", "android": "https://dc.lft.to/lastmile_qr_scan"}, "lon": -76.97820383333334, "bike_id": "237f7d34b34a7bff059c26f8ffe7f63a", "type": "electric_bike", "name": "237f7d34b34a7bff059c26f8ffe7f63a"}, {"is_disabled": 0, "is_reserved": 0, "fusion_lat": 0.0, "lat": 38.951084, "fusion_lon": 0.0, "rental_uris": {"ios": "https://dc.lft.to/lastmile_qr_scan", "android": "https://dc.lft.to/lastmile_qr_scan"}, "lon": -77.018885, "bike_id": "8dd6219d9934fb1457c3820c6078afac", "type": "electric_scooter", "name": "8dd6219d9934fb1457c3820c6078afac"}, {"is_disabled": 0, "is_reserved": 0, "fusion_lat": 0.0, "lat": 38.893626166666664, "fusion_lon": 0.0, "rental_uris": {"ios": "https://dc.lft.to/lastmile_qr_scan", "android": "https://dc.lft.to/lastmile_qr_scan"}, "lon": -77.044773, "bike_id": "341cd02c19a26d1a6ab2154dbeb5d02d", "type": "electric_scooter", "name": "341cd02c19a26d1a6ab2154dbeb5d02d"}, {"is_disabled": 0, "is_reserved": 0, "fusion_lat": 0.0, "lat": 38.935944166666665, "fusion_lon": 0.0, "rental_uris": {"ios": "https://dc.lft.to/lastmile_qr_scan", "android": "https://dc.lft.to/lastmile_qr_scan"}, "lon": -77.05604683333334, "bike_id": "180017f812f78694637f99905993b48f", "type": "electric_scooter", "name": "180017f812f78694637f99905993b48f"}, {"is_disabled": 0, "is_reserved": 0, "fusion_lat": 0.0, "lat": 38.87833233333333, "fusion_lon": 0.0, "rental_uris": {"ios": "https://dc.lft.to/lastmile_qr_scan", "android": "https://dc.lft.to/lastmile_qr_scan"}, "lon": -76.98606716666667, "bike_id": "e15e36d0cc57c17d1f2868332169d2a1", "type": "electric_scooter", "name": "e15e36d0cc57c17d1f2868332169d2a1"}, {"is_disabled": 0, "is_reserved": 0, "fusion_lat": 0.0, "lat": 38.941658833333335, "fusion_lon": 0.0, "rental_uris": {"ios": "https://dc.lft.to/lastmile_qr_scan", "android": "https://dc.lft.to/lastmile_qr_scan"}, "lon": -76.9940775, "bike_id": "aa7b1bd3486347863136fa05a7b039dd", "type": "electric_bike", "name": "aa7b1bd3486347863136fa05a7b039dd"}, {"is_disabled": 0, "is_reserved": 0, "fusion_lat": 0.0, "lat": 38.927785666666665, "fusion_lon": 0.0, "rental_uris": {"ios": "https://dc.lft.to/lastmile_qr_scan", "android": "https://dc.lft.to/lastmile_qr_scan"}, "lon": -77.0526165, "bike_id": "cd0ea7f4cdb5805e4865ac4926493e2c", "type": "electric_scooter", "name": "cd0ea7f4cdb5805e4865ac4926493e2c"}, {"is_disabled": 0, "is_reserved": 0, "fusion_lat": 0.0, "lat": 38.92611516666667, "fusion_lon": 0.0, "rental_uris": {"ios": "https://dc.lft.to/lastmile_qr_scan", "android": "https://dc.lft.to/lastmile_qr_scan"}, "lon": -77.00649883333334, "bike_id": "cd6ddd983c03a0249bd6e5af115cf811", "type": "electric_scooter", "name": "cd6ddd983c03a0249bd6e5af115cf811"}, {"is_disabled": 0, "is_reserved": 0, "fusion_lat": 0.0, "lat": 38.920433, "fusion_lon": 0.0, "rental_uris": {"ios": "https://dc.lft.to/lastmile_qr_scan", "android": "https://dc.lft.to/lastmile_qr_scan"}, "lon": -77.02426216666667, "bike_id": "1fd9007f7e06a9ba9a4cf9a18a464b58", "type": "electric_scooter", "name": "1fd9007f7e06a9ba9a4cf9a18a464b58"}, {"is_disabled": 0, "is_reserved": 0, "fusion_lat": 0.0, "lat": 38.93636433333333, "fusion_lon": 0.0, "rental_uris": {"ios": "https://dc.lft.to/lastmile_qr_scan", "android": "https://dc.lft.to/lastmile_qr_scan"}, "lon": -77.03255033333333, "bike_id": "2218d58ed5a742daf1ddf8175c7c7aec", "type": "electric_scooter", "name": "2218d58ed5a742daf1ddf8175c7c7aec"}, {"is_disabled": 0, "is_reserved": 0, "fusion_lat": 0.0, "lat": 38.91745216666666, "fusion_lon": 0.0, "rental_uris": {"ios": "https://dc.lft.to/lastmile_qr_scan", "android": "https://dc.lft.to/lastmile_qr_scan"}, "lon": -77.02312616666667, "bike_id": "611734c4f9e6c80508f0f262b025efc3", "type": "electric_scooter", "name": "611734c4f9e6c80508f0f262b025efc3"}, {"is_disabled": 0, "is_reserved": 0, "fusion_lat": 0.0, "lat": 38.89341483333333, "fusion_lon": 0.0, "rental_uris": {"ios": "https://dc.lft.to/lastmile_qr_scan", "android": "https://dc.lft.to/lastmile_qr_scan"}, "lon": -76.9855805, "bike_id": "5085c9142b5e7f326329aac44ca94f97", "type": "electric_scooter", "name": "5085c9142b5e7f326329aac44ca94f97"}, {"is_disabled": 0, "is_reserved": 0, "fusion_lat": 0.0, "lat": 38.876702333333334, "fusion_lon": 0.0, "rental_uris": {"ios": "https://dc.lft.to/lastmile_qr_scan", "android": "https://dc.lft.to/lastmile_qr_scan"}, "lon": -77.008195, "bike_id": "61e7960d0005f44114fff276d6e0b928", "type": "electric_scooter", "name": "61e7960d0005f44114fff276d6e0b928"}, {"is_disabled": 0, "is_reserved": 0, "fusion_lat": 0.0, "lat": 38.92763816666667, "fusion_lon": 0.0, "rental_uris": {"ios": "https://dc.lft.to/lastmile_qr_scan", "android": "https://dc.lft.to/lastmile_qr_scan"}, "lon": -77.02789716666666, "bike_id": "8c634114ab35a185d0be19346b47eff2", "type": "electric_scooter", "name": "8c634114ab35a185d0be19346b47eff2"}, {"is_disabled": 0, "is_reserved": 0, "fusion_lat": 0.0, "lat": 38.929716, "fusion_lon": 0.0, "rental_uris": {"ios": "https://dc.lft.to/lastmile_qr_scan", "android": "https://dc.lft.to/lastmile_qr_scan"}, "lon": -77.0308955, "bike_id": "d5e19af540074066436d7aa87cb09ba9", "type": "electric_scooter", "name": "d5e19af540074066436d7aa87cb09ba9"}, {"is_disabled": 0, "is_reserved": 0, "fusion_lat": 0.0, "lat": 38.918775333333336, "fusion_lon": 0.0, "rental_uris": {"ios": "https://dc.lft.to/lastmile_qr_scan", "android": "https://dc.lft.to/lastmile_qr_scan"}, "lon": -77.03546933333334, "bike_id": "2fdc9ec7810153c81b76fefc5b32a040", "type": "electric_scooter", "name": "2fdc9ec7810153c81b76fefc5b32a040"}, {"is_disabled": 0, "is_reserved": 0, "fusion_lat": 0.0, "lat": 38.93587633333333, "fusion_lon": 0.0, "rental_uris": {"ios": "https://dc.lft.to/lastmile_qr_scan", "android": "https://dc.lft.to/lastmile_qr_scan"}, "lon": -77.07434183333334, "bike_id": "f4108645f2983945c169a80cb9c53f9e", "type": "electric_scooter", "name": "f4108645f2983945c169a80cb9c53f9e"}, {"is_disabled": 0, "is_reserved": 0, "fusion_lat": 0.0, "lat": 38.911119166666666, "fusion_lon": 0.0, "rental_uris": {"ios": "https://dc.lft.to/lastmile_qr_scan", "android": "https://dc.lft.to/lastmile_qr_scan"}, "lon": -77.0217295, "bike_id": "03ef5b150cc6a934b0177c77b22b889e", "type": "electric_scooter", "name": "03ef5b150cc6a934b0177c77b22b889e"}, {"is_disabled": 0, "is_reserved": 0, "fusion_lat": 0.0, "lat": 38.899532, "fusion_lon": 0.0, "rental_uris": {"ios": "https://dc.lft.to/lastmile_qr_scan", "android": "https://dc.lft.to/lastmile_qr_scan"}, "lon": -77.0505125, "bike_id": "2dc18e6457f3bb8cea9d69bb34afe6be", "type": "electric_scooter", "name": "2dc18e6457f3bb8cea9d69bb34afe6be"}, {"is_disabled": 0, "is_reserved": 0, "fusion_lat": 0.0, "lat": 38.90615966666667, "fusion_lon": 0.0, "rental_uris": {"ios": "https://dc.lft.to/lastmile_qr_scan", "android": "https://dc.lft.to/lastmile_qr_scan"}, "lon": -77.04140366666667, "bike_id": "b2bae2030aa8d429a7268d02f8ff7044", "type": "electric_scooter", "name": "b2bae2030aa8d429a7268d02f8ff7044"}, {"is_disabled": 0, "is_reserved": 0, "fusion_lat": 0.0, "lat": 38.9140825, "fusion_lon": 0.0, "rental_uris": {"ios": "https://dc.lft.to/lastmile_qr_scan", "android": "https://dc.lft.to/lastmile_qr_scan"}, "lon": -77.0107175, "bike_id": "97302ee8bb38ab994da4c4c354574ac8", "type": "electric_scooter", "name": "97302ee8bb38ab994da4c4c354574ac8"}, {"is_disabled": 0, "is_reserved": 0, "fusion_lat": 0.0, "lat": 38.905035, "fusion_lon": 0.0, "rental_uris": {"ios": "https://dc.lft.to/lastmile_qr_scan", "android": "https://dc.lft.to/lastmile_qr_scan"}, "lon": -77.048254, "bike_id": "97f3ee4317acb7510085a84e0d4ff074", "type": "electric_scooter", "name": "97f3ee4317acb7510085a84e0d4ff074"}, {"is_disabled": 0, "is_reserved": 0, "fusion_lat": 0.0, "lat": 38.928060333333335, "fusion_lon": 0.0, "rental_uris": {"ios": "https://dc.lft.to/lastmile_qr_scan", "android": "https://dc.lft.to/lastmile_qr_scan"}, "lon": -76.97609, "bike_id": "8417391a2929fd72801b320a4b5e56c8", "type": "electric_scooter", "name": "8417391a2929fd72801b320a4b5e56c8"}, {"is_disabled": 0, "is_reserved": 0, "fusion_lat": 0.0, "lat": 38.903806, "fusion_lon": 0.0, "rental_uris": {"ios": "https://dc.lft.to/lastmile_qr_scan", "android": "https://dc.lft.to/lastmile_qr_scan"}, "lon": -77.01636433333333, "bike_id": "7f879e8535e68cac51fcbe444ec89a6d", "type": "electric_scooter", "name": "7f879e8535e68cac51fcbe444ec89a6d"}, {"is_disabled": 0, "is_reserved": 0, "fusion_lat": 0.0, "lat": 38.822048833333334, "fusion_lon": 0.0, "rental_uris": {"ios": "https://dc.lft.to/lastmile_qr_scan", "android": "https://dc.lft.to/lastmile_qr_scan"}, "lon": -76.9770445, "bike_id": "057fa43ea2d7a6bde6df01fe431fb923", "type": "electric_bike", "name": "057fa43ea2d7a6bde6df01fe431fb923"}, {"is_disabled": 0, "is_reserved": 0, "fusion_lat": 0.0, "lat": 38.9223985, "fusion_lon": 0.0, "rental_uris": {"ios": "https://dc.lft.to/lastmile_qr_scan", "android": "https://dc.lft.to/lastmile_qr_scan"}, "lon": -77.046369, "bike_id": "ea14e31b2fe4ed30f4390e4c9988d071", "type": "electric_scooter", "name": "ea14e31b2fe4ed30f4390e4c9988d071"}, {"is_disabled": 0, "is_reserved": 0, "fusion_lat": 0.0, "lat": 38.90722316666667, "fusion_lon": 0.0, "rental_uris": {"ios": "https://dc.lft.to/lastmile_qr_scan", "android": "https://dc.lft.to/lastmile_qr_scan"}, "lon": -77.02561, "bike_id": "93bc61bf525332dfe8edfa2b9bfb82bf", "type": "electric_scooter", "name": "93bc61bf525332dfe8edfa2b9bfb82bf"}, {"is_disabled": 0, "is_reserved": 0, "fusion_lat": 0.0, "lat": 38.923528166666664, "fusion_lon": 0.0, "rental_uris": {"ios": "https://dc.lft.to/lastmile_qr_scan", "android": "https://dc.lft.to/lastmile_qr_scan"}, "lon": -77.02444, "bike_id": "45d2e91f57fef6196a907c6be3ccf9a5", "type": "electric_scooter", "name": "45d2e91f57fef6196a907c6be3ccf9a5"}, {"is_disabled": 0, "is_reserved": 0, "fusion_lat": 0.0, "lat": 38.92365183333333, "fusion_lon": 0.0, "rental_uris": {"ios": "https://dc.lft.to/lastmile_qr_scan", "android": "https://dc.lft.to/lastmile_qr_scan"}, "lon": -77.05042283333333, "bike_id": "b8f1e8b15a08dadb7d326ec8fbfe5c52", "type": "electric_scooter", "name": "b8f1e8b15a08dadb7d326ec8fbfe5c52"}, {"is_disabled": 0, "is_reserved": 0, "fusion_lat": 0.0, "lat": 38.9182535, "fusion_lon": 0.0, "rental_uris": {"ios": "https://dc.lft.to/lastmile_qr_scan", "android": "https://dc.lft.to/lastmile_qr_scan"}, "lon": -77.01209783333333, "bike_id": "234ff530f7806c7363166e601342848a", "type": "electric_scooter", "name": "234ff530f7806c7363166e601342848a"}, {"is_disabled": 0, "is_reserved": 0, "fusion_lat": 0.0, "lat": 38.8837105, "fusion_lon": 0.0, "rental_uris": {"ios": "https://dc.lft.to/lastmile_qr_scan", "android": "https://dc.lft.to/lastmile_qr_scan"}, "lon": -77.03005716666667, "bike_id": "729c1e05af5a1b2196f9fcb68d5bd953", "type": "electric_scooter", "name": "729c1e05af5a1b2196f9fcb68d5bd953"}, {"is_disabled": 0, "is_reserved": 0, "fusion_lat": 0.0, "lat": 38.9290865, "fusion_lon": 0.0, "rental_uris": {"ios": "https://dc.lft.to/lastmile_qr_scan", "android": "https://dc.lft.to/lastmile_qr_scan"}, "lon": -77.059874, "bike_id": "3dcf934ff4ab2317cf7ee8de3357d1c3", "type": "electric_scooter", "name": "3dcf934ff4ab2317cf7ee8de3357d1c3"}, {"is_disabled": 0, "is_reserved": 0, "fusion_lat": 0.0, "lat": 38.9677615, "fusion_lon": 0.0, "rental_uris": {"ios": "https://dc.lft.to/lastmile_qr_scan", "android": "https://dc.lft.to/lastmile_qr_scan"}, "lon": -76.9964935, "bike_id": "5456c28d458df45b59f9e8cd510268bd", "type": "electric_bike", "name": "5456c28d458df45b59f9e8cd510268bd"}, {"is_disabled": 0, "is_reserved": 0, "fusion_lat": 0.0, "lat": 38.91125533333334, "fusion_lon": 0.0, "rental_uris": {"ios": "https://dc.lft.to/lastmile_qr_scan", "android": "https://dc.lft.to/lastmile_qr_scan"}, "lon": -76.99741783333333, "bike_id": "9af53db0dab31a4d560b0e2a9c285a21", "type": "electric_scooter", "name": "9af53db0dab31a4d560b0e2a9c285a21"}, {"is_disabled": 0, "is_reserved": 0, "fusion_lat": 0.0, "lat": 38.87939083333333, "fusion_lon": 0.0, "rental_uris": {"ios": "https://dc.lft.to/lastmile_qr_scan", "android": "https://dc.lft.to/lastmile_qr_scan"}, "lon": -77.01266716666666, "bike_id": "eacf5390cd2d51aa169ea563659ca2e7", "type": "electric_scooter", "name": "eacf5390cd2d51aa169ea563659ca2e7"}, {"is_disabled": 0, "is_reserved": 0, "fusion_lat": 0.0, "lat": 38.9050375, "fusion_lon": 0.0, "rental_uris": {"ios": "https://dc.lft.to/lastmile_qr_scan", "android": "https://dc.lft.to/lastmile_qr_scan"}, "lon": -77.06115366666667, "bike_id": "1ff9053bd4125f3b2a20750071a55708", "type": "electric_scooter", "name": "1ff9053bd4125f3b2a20750071a55708"}, {"is_disabled": 0, "is_reserved": 0, "fusion_lat": 0.0, "lat": 38.90040666666667, "fusion_lon": 0.0, "rental_uris": {"ios": "https://dc.lft.to/lastmile_qr_scan", "android": "https://dc.lft.to/lastmile_qr_scan"}, "lon": -77.00627333333334, "bike_id": "8d6cee12bf7a89a2d324bf816727db76", "type": "electric_scooter", "name": "8d6cee12bf7a89a2d324bf816727db76"}, {"is_disabled": 0, "is_reserved": 0, "fusion_lat": 0.0, "lat": 38.92096016666667, "fusion_lon": 0.0, "rental_uris": {"ios": "https://dc.lft.to/lastmile_qr_scan", "android": "https://dc.lft.to/lastmile_qr_scan"}, "lon": -77.03947016666666, "bike_id": "3378441c7b8f835f96594229193b430e", "type": "electric_scooter", "name": "3378441c7b8f835f96594229193b430e"}, {"is_disabled": 0, "is_reserved": 0, "fusion_lat": 0.0, "lat": 38.927217666666664, "fusion_lon": 0.0, "rental_uris": {"ios": "https://dc.lft.to/lastmile_qr_scan", "android": "https://dc.lft.to/lastmile_qr_scan"}, "lon": -77.02315466666667, "bike_id": "239fa69f84808a0f8ab8d6a4187c6946", "type": "electric_scooter", "name": "239fa69f84808a0f8ab8d6a4187c6946"}, {"is_disabled": 0, "is_reserved": 0, "fusion_lat": 0.0, "lat": 38.93736333333333, "fusion_lon": 0.0, "rental_uris": {"ios": "https://dc.lft.to/lastmile_qr_scan", "android": "https://dc.lft.to/lastmile_qr_scan"}, "lon": -77.07359083333333, "bike_id": "f18fd5b2679f73b5ee7cb61e9765897f", "type": "electric_scooter", "name": "f18fd5b2679f73b5ee7cb61e9765897f"}, {"is_disabled": 0, "is_reserved": 0, "fusion_lat": 0.0, "lat": 38.85893466666667, "fusion_lon": 0.0, "rental_uris": {"ios": "https://dc.lft.to/lastmile_qr_scan", "android": "https://dc.lft.to/lastmile_qr_scan"}, "lon": -77.09556933333333, "bike_id": "3fc13596282b5f0f078259602b75085d", "type": "electric_bike", "name": "3fc13596282b5f0f078259602b75085d"}, {"is_disabled": 0, "is_reserved": 0, "fusion_lat": 0.0, "lat": 38.88446016666666, "fusion_lon": 0.0, "rental_uris": {"ios": "https://dc.lft.to/lastmile_qr_scan", "android": "https://dc.lft.to/lastmile_qr_scan"}, "lon": -77.00900483333334, "bike_id": "ac284691f2a4c4a840d9cc4cc77d5ef2", "type": "electric_scooter", "name": "ac284691f2a4c4a840d9cc4cc77d5ef2"}, {"is_disabled": 0, "is_reserved": 0, "fusion_lat": 0.0, "lat": 38.9081385, "fusion_lon": 0.0, "rental_uris": {"ios": "https://dc.lft.to/lastmile_qr_scan", "android": "https://dc.lft.to/lastmile_qr_scan"}, "lon": -77.00069016666667, "bike_id": "18dae641ac78f8fe9c3a2bf0a6fadf83", "type": "electric_scooter", "name": "18dae641ac78f8fe9c3a2bf0a6fadf83"}, {"is_disabled": 0, "is_reserved": 0, "fusion_lat": 0.0, "lat": 38.88390283333333, "fusion_lon": 0.0, "rental_uris": {"ios": "https://dc.lft.to/lastmile_qr_scan", "android": "https://dc.lft.to/lastmile_qr_scan"}, "lon": -76.9303585, "bike_id": "840e2a04f6030dbd0d8f48ed3342d5cb", "type": "electric_scooter", "name": "840e2a04f6030dbd0d8f48ed3342d5cb"}, {"is_disabled": 0, "is_reserved": 0, "fusion_lat": 0.0, "lat": 38.883751, "fusion_lon": 0.0, "rental_uris": {"ios": "https://dc.lft.to/lastmile_qr_scan", "android": "https://dc.lft.to/lastmile_qr_scan"}, "lon": -76.92371566666667, "bike_id": "ac292e1551f5ed4f49e6b16903ed7cc2", "type": "electric_bike", "name": "ac292e1551f5ed4f49e6b16903ed7cc2"}, {"is_disabled": 0, "is_reserved": 0, "fusion_lat": 0.0, "lat": 38.957047, "fusion_lon": 0.0, "rental_uris": {"ios": "https://dc.lft.to/lastmile_qr_scan", "android": "https://dc.lft.to/lastmile_qr_scan"}, "lon": -77.35971433333333, "bike_id": "14069187ea4cfe4f5d09f7fa010ca1aa", "type": "electric_bike", "name": "14069187ea4cfe4f5d09f7fa010ca1aa"}, {"is_disabled": 0, "is_reserved": 0, "fusion_lat": 0.0, "lat": 39.08433316666667, "fusion_lon": 0.0, "rental_uris": {"ios": "https://dc.lft.to/lastmile_qr_scan", "android": "https://dc.lft.to/lastmile_qr_scan"}, "lon": -76.95140966666666, "bike_id": "feb2ac7bc7768e9499dcb5da4a2ef738", "type": "electric_bike", "name": "feb2ac7bc7768e9499dcb5da4a2ef738"}, {"is_disabled": 0, "is_reserved": 0, "fusion_lat": 0.0, "lat": 38.913116333333335, "fusion_lon": 0.0, "rental_uris": {"ios": "https://dc.lft.to/lastmile_qr_scan", "android": "https://dc.lft.to/lastmile_qr_scan"}, "lon": -77.04331666666667, "bike_id": "ef13ef284c2e31a30416113d346aeda8", "type": "electric_scooter", "name": "ef13ef284c2e31a30416113d346aeda8"}, {"is_disabled": 0, "is_reserved": 0, "fusion_lat": 0.0, "lat": 38.9314415, "fusion_lon": 0.0, "rental_uris": {"ios": "https://dc.lft.to/lastmile_qr_scan", "android": "https://dc.lft.to/lastmile_qr_scan"}, "lon": -77.056935, "bike_id": "dd0fae6379a9a207b3ce9cea435fdddb", "type": "electric_scooter", "name": "dd0fae6379a9a207b3ce9cea435fdddb"}, {"is_disabled": 0, "is_reserved": 0, "fusion_lat": 0.0, "lat": 38.891333333333336, "fusion_lon": 0.0, "rental_uris": {"ios": "https://dc.lft.to/lastmile_qr_scan", "android": "https://dc.lft.to/lastmile_qr_scan"}, "lon": -76.99939483333333, "bike_id": "1f5f6ca382a820a8da0999b62e2054bc", "type": "electric_scooter", "name": "1f5f6ca382a820a8da0999b62e2054bc"}, {"is_disabled": 0, "is_reserved": 0, "fusion_lat": 0.0, "lat": 38.864715333333336, "fusion_lon": 0.0, "rental_uris": {"ios": "https://dc.lft.to/lastmile_qr_scan", "android": "https://dc.lft.to/lastmile_qr_scan"}, "lon": -76.977587, "bike_id": "5a755c54f7d3c9638f3a2755b8ad0a9e", "type": "electric_scooter", "name": "5a755c54f7d3c9638f3a2755b8ad0a9e"}, {"is_disabled": 0, "is_reserved": 0, "fusion_lat": 0.0, "lat": 38.9248775, "fusion_lon": 0.0, "rental_uris": {"ios": "https://dc.lft.to/lastmile_qr_scan", "android": "https://dc.lft.to/lastmile_qr_scan"}, "lon": -77.03180633333334, "bike_id": "1f932d6934a8a09c7aa6a4aabf5d7d79", "type": "electric_scooter", "name": "1f932d6934a8a09c7aa6a4aabf5d7d79"}, {"is_disabled": 0, "is_reserved": 0, "fusion_lat": 0.0, "lat": 38.915922, "fusion_lon": 0.0, "rental_uris": {"ios": "https://dc.lft.to/lastmile_qr_scan", "android": "https://dc.lft.to/lastmile_qr_scan"}, "lon": -76.983022, "bike_id": "cd44ad3527d2daf0a814f43d09bdaf67", "type": "electric_scooter", "name": "cd44ad3527d2daf0a814f43d09bdaf67"}, {"is_disabled": 0, "is_reserved": 0, "fusion_lat": 0.0, "lat": 38.831603, "fusion_lon": 0.0, "rental_uris": {"ios": "https://dc.lft.to/lastmile_qr_scan", "android": "https://dc.lft.to/lastmile_qr_scan"}, "lon": -76.99546966666666, "bike_id": "c2e0f2029bd7951340e483641ee1150b", "type": "electric_bike", "name": "c2e0f2029bd7951340e483641ee1150b"}, {"is_disabled": 0, "is_reserved": 0, "fusion_lat": 0.0, "lat": 38.8764235, "fusion_lon": 0.0, "rental_uris": {"ios": "https://dc.lft.to/lastmile_qr_scan", "android": "https://dc.lft.to/lastmile_qr_scan"}, "lon": -76.99294133333333, "bike_id": "73d11baeaecf082b3921aa46d3b3c9f2", "type": "electric_scooter", "name": "73d11baeaecf082b3921aa46d3b3c9f2"}, {"is_disabled": 0, "is_reserved": 0, "fusion_lat": 0.0, "lat": 38.909099166666664, "fusion_lon": 0.0, "rental_uris": {"ios": "https://dc.lft.to/lastmile_qr_scan", "android": "https://dc.lft.to/lastmile_qr_scan"}, "lon": -77.03510966666667, "bike_id": "ed4f70891f891576544bd84bf89e6c11", "type": "electric_scooter", "name": "ed4f70891f891576544bd84bf89e6c11"}, {"is_disabled": 0, "is_reserved": 0, "fusion_lat": 0.0, "lat": 38.9300285, "fusion_lon": 0.0, "rental_uris": {"ios": "https://dc.lft.to/lastmile_qr_scan", "android": "https://dc.lft.to/lastmile_qr_scan"}, "lon": -77.02628383333334, "bike_id": "27077ab76b8c10020fd6646f0193033b", "type": "electric_scooter", "name": "27077ab76b8c10020fd6646f0193033b"}, {"is_disabled": 0, "is_reserved": 0, "fusion_lat": 0.0, "lat": 38.912741833333335, "fusion_lon": 0.0, "rental_uris": {"ios": "https://dc.lft.to/lastmile_qr_scan", "android": "https://dc.lft.to/lastmile_qr_scan"}, "lon": -77.04507366666667, "bike_id": "6707ad322c8f542637f325f8de4c97c0", "type": "electric_scooter", "name": "6707ad322c8f542637f325f8de4c97c0"}, {"is_disabled": 0, "is_reserved": 0, "fusion_lat": 0.0, "lat": 38.927864666666665, "fusion_lon": 0.0, "rental_uris": {"ios": "https://dc.lft.to/lastmile_qr_scan", "android": "https://dc.lft.to/lastmile_qr_scan"}, "lon": -77.03149166666667, "bike_id": "c53ccd5bf839ab6ed89e9b7714610d50", "type": "electric_scooter", "name": "c53ccd5bf839ab6ed89e9b7714610d50"}, {"is_disabled": 0, "is_reserved": 0, "fusion_lat": 0.0, "lat": 38.960300333333336, "fusion_lon": 0.0, "rental_uris": {"ios": "https://dc.lft.to/lastmile_qr_scan", "android": "https://dc.lft.to/lastmile_qr_scan"}, "lon": -77.03398133333333, "bike_id": "12ec6be702b8f75742a816785d285848", "type": "electric_bike", "name": "12ec6be702b8f75742a816785d285848"}, {"is_disabled": 0, "is_reserved": 0, "fusion_lat": 0.0, "lat": 38.9188475, "fusion_lon": 0.0, "rental_uris": {"ios": "https://dc.lft.to/lastmile_qr_scan", "android": "https://dc.lft.to/lastmile_qr_scan"}, "lon": -77.03484833333333, "bike_id": "044b99fd54da8563752e44d7b71ddc07", "type": "electric_scooter", "name": "044b99fd54da8563752e44d7b71ddc07"}, {"is_disabled": 0, "is_reserved": 0, "fusion_lat": 0.0, "lat": 38.89425216666667, "fusion_lon": 0.0, "rental_uris": {"ios": "https://dc.lft.to/lastmile_qr_scan", "android": "https://dc.lft.to/lastmile_qr_scan"}, "lon": -77.05598883333333, "bike_id": "9fb46c68a536643a47059c4717ff540c", "type": "electric_scooter", "name": "9fb46c68a536643a47059c4717ff540c"}, {"is_disabled": 0, "is_reserved": 0, "fusion_lat": 0.0, "lat": 38.90915583333334, "fusion_lon": 0.0, "rental_uris": {"ios": "https://dc.lft.to/lastmile_qr_scan", "android": "https://dc.lft.to/lastmile_qr_scan"}, "lon": -77.0457605, "bike_id": "7c1fd19367aeedcfe28daea6b6a7d60b", "type": "electric_scooter", "name": "7c1fd19367aeedcfe28daea6b6a7d60b"}, {"is_disabled": 0, "is_reserved": 0, "fusion_lat": 0.0, "lat": 38.8951405, "fusion_lon": 0.0, "rental_uris": {"ios": "https://dc.lft.to/lastmile_qr_scan", "android": "https://dc.lft.to/lastmile_qr_scan"}, "lon": -77.02302333333333, "bike_id": "23bc08c451eaec1976486437ae05c5fd", "type": "electric_scooter", "name": "23bc08c451eaec1976486437ae05c5fd"}, {"is_disabled": 0, "is_reserved": 0, "fusion_lat": 0.0, "lat": 38.8986915, "fusion_lon": 0.0, "rental_uris": {"ios": "https://dc.lft.to/lastmile_qr_scan", "android": "https://dc.lft.to/lastmile_qr_scan"}, "lon": -77.01897, "bike_id": "92f6845eb7e947084a5bde7b62796424", "type": "electric_scooter", "name": "92f6845eb7e947084a5bde7b62796424"}, {"is_disabled": 0, "is_reserved": 0, "fusion_lat": 0.0, "lat": 39.000979, "fusion_lon": 0.0, "rental_uris": {"ios": "https://dc.lft.to/lastmile_qr_scan", "android": "https://dc.lft.to/lastmile_qr_scan"}, "lon": -76.909868, "bike_id": "114cdd0faf04c8d4086b07a3bf118255", "type": "electric_bike", "name": "114cdd0faf04c8d4086b07a3bf118255"}, {"is_disabled": 0, "is_reserved": 0, "fusion_lat": 0.0, "lat": 38.89243666666667, "fusion_lon": 0.0, "rental_uris": {"ios": "https://dc.lft.to/lastmile_qr_scan", "android": "https://dc.lft.to/lastmile_qr_scan"}, "lon": -77.03956533333333, "bike_id": "c69a75ec2728df3d5b3414bbc4d8cc19", "type": "electric_scooter", "name": "c69a75ec2728df3d5b3414bbc4d8cc19"}, {"is_disabled": 0, "is_reserved": 0, "fusion_lat": 0.0, "lat": 38.92526933333333, "fusion_lon": 0.0, "rental_uris": {"ios": "https://dc.lft.to/lastmile_qr_scan", "android": "https://dc.lft.to/lastmile_qr_scan"}, "lon": -77.02621133333334, "bike_id": "f865e55f0c40e1b137aebde522eb69a1", "type": "electric_bike", "name": "f865e55f0c40e1b137aebde522eb69a1"}, {"is_disabled": 0, "is_reserved": 0, "fusion_lat": 0.0, "lat": 38.932089, "fusion_lon": 0.0, "rental_uris": {"ios": "https://dc.lft.to/lastmile_qr_scan", "android": "https://dc.lft.to/lastmile_qr_scan"}, "lon": -77.02288766666666, "bike_id": "606492b30ede81ab9e070388bd75a905", "type": "electric_scooter", "name": "606492b30ede81ab9e070388bd75a905"}, {"is_disabled": 0, "is_reserved": 0, "fusion_lat": 0.0, "lat": 38.930703, "fusion_lon": 0.0, "rental_uris": {"ios": "https://dc.lft.to/lastmile_qr_scan", "android": "https://dc.lft.to/lastmile_qr_scan"}, "lon": -77.03200866666667, "bike_id": "569fc23974a0822bd34613d21d46efec", "type": "electric_scooter", "name": "569fc23974a0822bd34613d21d46efec"}, {"is_disabled": 0, "is_reserved": 0, "fusion_lat": 0.0, "lat": 38.9023785, "fusion_lon": 0.0, "rental_uris": {"ios": "https://dc.lft.to/lastmile_qr_scan", "android": "https://dc.lft.to/lastmile_qr_scan"}, "lon": -77.06067833333333, "bike_id": "11d4189408a3042a020cd7b70e7a1cd8", "type": "electric_scooter", "name": "11d4189408a3042a020cd7b70e7a1cd8"}, {"is_disabled": 0, "is_reserved": 0, "fusion_lat": 0.0, "lat": 38.902407333333336, "fusion_lon": 0.0, "rental_uris": {"ios": "https://dc.lft.to/lastmile_qr_scan", "android": "https://dc.lft.to/lastmile_qr_scan"}, "lon": -77.01913366666666, "bike_id": "d5f74436c3b97e254f6d3cae55967a5b", "type": "electric_scooter", "name": "d5f74436c3b97e254f6d3cae55967a5b"}, {"is_disabled": 0, "is_reserved": 0, "fusion_lat": 0.0, "lat": 38.91738016666667, "fusion_lon": 0.0, "rental_uris": {"ios": "https://dc.lft.to/lastmile_qr_scan", "android": "https://dc.lft.to/lastmile_qr_scan"}, "lon": -77.06903533333333, "bike_id": "9eda1dfabb4ebb300185de5b0fbd1f02", "type": "electric_scooter", "name": "9eda1dfabb4ebb300185de5b0fbd1f02"}, {"is_disabled": 0, "is_reserved": 0, "fusion_lat": 0.0, "lat": 38.804827, "fusion_lon": 0.0, "rental_uris": {"ios": "https://dc.lft.to/lastmile_qr_scan", "android": "https://dc.lft.to/lastmile_qr_scan"}, "lon": -76.99107383333333, "bike_id": "fbcf981b62d964344482aa55ac067d0c", "type": "electric_bike", "name": "fbcf981b62d964344482aa55ac067d0c"}, {"is_disabled": 0, "is_reserved": 0, "fusion_lat": 0.0, "lat": 38.92081566666667, "fusion_lon": 0.0, "rental_uris": {"ios": "https://dc.lft.to/lastmile_qr_scan", "android": "https://dc.lft.to/lastmile_qr_scan"}, "lon": -77.02306716666666, "bike_id": "9859f90223007a07740a50e1979d91d7", "type": "electric_scooter", "name": "9859f90223007a07740a50e1979d91d7"}, {"is_disabled": 0, "is_reserved": 0, "fusion_lat": 0.0, "lat": 38.9155565, "fusion_lon": 0.0, "rental_uris": {"ios": "https://dc.lft.to/lastmile_qr_scan", "android": "https://dc.lft.to/lastmile_qr_scan"}, "lon": -77.02337016666667, "bike_id": "632f68e786f7334aea1288632f9e6fe9", "type": "electric_scooter", "name": "632f68e786f7334aea1288632f9e6fe9"}, {"is_disabled": 0, "is_reserved": 0, "fusion_lat": 0.0, "lat": 38.84621683333334, "fusion_lon": 0.0, "rental_uris": {"ios": "https://dc.lft.to/lastmile_qr_scan", "android": "https://dc.lft.to/lastmile_qr_scan"}, "lon": -76.97839766666667, "bike_id": "bbb8fd1edb34b2604d3ced073794f09e", "type": "electric_bike", "name": "bbb8fd1edb34b2604d3ced073794f09e"}, {"is_disabled": 0, "is_reserved": 0, "fusion_lat": 0.0, "lat": 38.89888966666667, "fusion_lon": 0.0, "rental_uris": {"ios": "https://dc.lft.to/lastmile_qr_scan", "android": "https://dc.lft.to/lastmile_qr_scan"}, "lon": -77.01972366666666, "bike_id": "d3bbb2fb28e0190110bcff496213f48d", "type": "electric_scooter", "name": "d3bbb2fb28e0190110bcff496213f48d"}, {"is_disabled": 0, "is_reserved": 0, "fusion_lat": 0.0, "lat": 38.904677, "fusion_lon": 0.0, "rental_uris": {"ios": "https://dc.lft.to/lastmile_qr_scan", "android": "https://dc.lft.to/lastmile_qr_scan"}, "lon": -77.06281416666667, "bike_id": "641a60a8242166b5f4247da9405c971f", "type": "electric_scooter", "name": "641a60a8242166b5f4247da9405c971f"}, {"is_disabled": 0, "is_reserved": 0, "fusion_lat": 0.0, "lat": 38.90897416666667, "fusion_lon": 0.0, "rental_uris": {"ios": "https://dc.lft.to/lastmile_qr_scan", "android": "https://dc.lft.to/lastmile_qr_scan"}, "lon": -77.03455183333334, "bike_id": "b8f0b4791abad6bd9c11fa826a47587b", "type": "electric_scooter", "name": "b8f0b4791abad6bd9c11fa826a47587b"}, {"is_disabled": 0, "is_reserved": 0, "fusion_lat": 0.0, "lat": 38.88710583333334, "fusion_lon": 0.0, "rental_uris": {"ios": "https://dc.lft.to/lastmile_qr_scan", "android": "https://dc.lft.to/lastmile_qr_scan"}, "lon": -76.98344316666666, "bike_id": "793f01a530ddbea7b7a045c9dadaef07", "type": "electric_scooter", "name": "793f01a530ddbea7b7a045c9dadaef07"}, {"is_disabled": 0, "is_reserved": 0, "fusion_lat": 0.0, "lat": 38.88025, "fusion_lon": 0.0, "rental_uris": {"ios": "https://dc.lft.to/lastmile_qr_scan", "android": "https://dc.lft.to/lastmile_qr_scan"}, "lon": -76.94324933333333, "bike_id": "0d4f5419944717b2f3dd891caefa391d", "type": "electric_scooter", "name": "0d4f5419944717b2f3dd891caefa391d"}, {"is_disabled": 0, "is_reserved": 0, "fusion_lat": 0.0, "lat": 38.900325, "fusion_lon": 0.0, "rental_uris": {"ios": "https://dc.lft.to/lastmile_qr_scan", "android": "https://dc.lft.to/lastmile_qr_scan"}, "lon": -77.01770083333334, "bike_id": "7730097b937fe79c4847e56ec98bffd7", "type": "electric_scooter", "name": "7730097b937fe79c4847e56ec98bffd7"}, {"is_disabled": 0, "is_reserved": 0, "fusion_lat": 0.0, "lat": 38.84647433333333, "fusion_lon": 0.0, "rental_uris": {"ios": "https://dc.lft.to/lastmile_qr_scan", "android": "https://dc.lft.to/lastmile_qr_scan"}, "lon": -77.0036845, "bike_id": "eebfee5feb5ff44fc58581c7e77c92c8", "type": "electric_scooter", "name": "eebfee5feb5ff44fc58581c7e77c92c8"}, {"is_disabled": 0, "is_reserved": 0, "fusion_lat": 0.0, "lat": 38.93290533333333, "fusion_lon": 0.0, "rental_uris": {"ios": "https://dc.lft.to/lastmile_qr_scan", "android": "https://dc.lft.to/lastmile_qr_scan"}, "lon": -77.02450533333334, "bike_id": "c72e5ac1c0c84425843e7eb783ab8bdd", "type": "electric_scooter", "name": "c72e5ac1c0c84425843e7eb783ab8bdd"}, {"is_disabled": 0, "is_reserved": 0, "fusion_lat": 0.0, "lat": 38.91646583333333, "fusion_lon": 0.0, "rental_uris": {"ios": "https://dc.lft.to/lastmile_qr_scan", "android": "https://dc.lft.to/lastmile_qr_scan"}, "lon": -77.00953183333333, "bike_id": "f3d285376e1168b2a24b2cd77d2e9494", "type": "electric_scooter", "name": "f3d285376e1168b2a24b2cd77d2e9494"}, {"is_disabled": 0, "is_reserved": 0, "fusion_lat": 0.0, "lat": 38.990978, "fusion_lon": 0.0, "rental_uris": {"ios": "https://dc.lft.to/lastmile_qr_scan", "android": "https://dc.lft.to/lastmile_qr_scan"}, "lon": -76.99384966666666, "bike_id": "2182926d604665f7f48d27d479114225", "type": "electric_bike", "name": "2182926d604665f7f48d27d479114225"}, {"is_disabled": 0, "is_reserved": 0, "fusion_lat": 0.0, "lat": 38.906596, "fusion_lon": 0.0, "rental_uris": {"ios": "https://dc.lft.to/lastmile_qr_scan", "android": "https://dc.lft.to/lastmile_qr_scan"}, "lon": -77.04870966666667, "bike_id": "56ed318a414fc7160cb02815b963f949", "type": "electric_scooter", "name": "56ed318a414fc7160cb02815b963f949"}, {"is_disabled": 0, "is_reserved": 0, "fusion_lat": 0.0, "lat": 38.8956195, "fusion_lon": 0.0, "rental_uris": {"ios": "https://dc.lft.to/lastmile_qr_scan", "android": "https://dc.lft.to/lastmile_qr_scan"}, "lon": -77.021753, "bike_id": "f5cb11ee91f1915744a10c6fb05c62b2", "type": "electric_scooter", "name": "f5cb11ee91f1915744a10c6fb05c62b2"}, {"is_disabled": 0, "is_reserved": 0, "fusion_lat": 0.0, "lat": 38.902573833333335, "fusion_lon": 0.0, "rental_uris": {"ios": "https://dc.lft.to/lastmile_qr_scan", "android": "https://dc.lft.to/lastmile_qr_scan"}, "lon": -77.02706666666667, "bike_id": "248b63ad6c29d4ada7956334ca7d0ede", "type": "electric_scooter", "name": "248b63ad6c29d4ada7956334ca7d0ede"}, {"is_disabled": 0, "is_reserved": 0, "fusion_lat": 0.0, "lat": 38.914944166666665, "fusion_lon": 0.0, "rental_uris": {"ios": "https://dc.lft.to/lastmile_qr_scan", "android": "https://dc.lft.to/lastmile_qr_scan"}, "lon": -77.02117616666666, "bike_id": "7b0b2a9ad8060eef73bdbddd0de4ce87", "type": "electric_scooter", "name": "7b0b2a9ad8060eef73bdbddd0de4ce87"}, {"is_disabled": 0, "is_reserved": 0, "fusion_lat": 0.0, "lat": 38.84861016666667, "fusion_lon": 0.0, "rental_uris": {"ios": "https://dc.lft.to/lastmile_qr_scan", "android": "https://dc.lft.to/lastmile_qr_scan"}, "lon": -77.06828866666666, "bike_id": "3bbe3391e1540ad33b2ac07889a0e3d7", "type": "electric_bike", "name": "3bbe3391e1540ad33b2ac07889a0e3d7"}, {"is_disabled": 0, "is_reserved": 0, "fusion_lat": 0.0, "lat": 38.87884066666667, "fusion_lon": 0.0, "rental_uris": {"ios": "https://dc.lft.to/lastmile_qr_scan", "android": "https://dc.lft.to/lastmile_qr_scan"}, "lon": -77.00733233333334, "bike_id": "fb207ffd13cc58e9adcb2d6b378d9a5f", "type": "electric_scooter", "name": "fb207ffd13cc58e9adcb2d6b378d9a5f"}, {"is_disabled": 0, "is_reserved": 0, "fusion_lat": 0.0, "lat": 38.89750016666667, "fusion_lon": 0.0, "rental_uris": {"ios": "https://dc.lft.to/lastmile_qr_scan", "android": "https://dc.lft.to/lastmile_qr_scan"}, "lon": -77.046348, "bike_id": "f941788dabc288a1cfbf0df096c16bfa", "type": "electric_scooter", "name": "f941788dabc288a1cfbf0df096c16bfa"}, {"is_disabled": 0, "is_reserved": 0, "fusion_lat": 0.0, "lat": 38.9085175, "fusion_lon": 0.0, "rental_uris": {"ios": "https://dc.lft.to/lastmile_qr_scan", "android": "https://dc.lft.to/lastmile_qr_scan"}, "lon": -77.058133, "bike_id": "3db338aadb7a38be1c2c9887545b054a", "type": "electric_scooter", "name": "3db338aadb7a38be1c2c9887545b054a"}, {"is_disabled": 0, "is_reserved": 0, "fusion_lat": 0.0, "lat": 38.9195915, "fusion_lon": 0.0, "rental_uris": {"ios": "https://dc.lft.to/lastmile_qr_scan", "android": "https://dc.lft.to/lastmile_qr_scan"}, "lon": -77.078699, "bike_id": "106bb006886bfcbabbdad01edf43f40a", "type": "electric_scooter", "name": "106bb006886bfcbabbdad01edf43f40a"}, {"is_disabled": 0, "is_reserved": 0, "fusion_lat": 0.0, "lat": 38.86618133333333, "fusion_lon": 0.0, "rental_uris": {"ios": "https://dc.lft.to/lastmile_qr_scan", "android": "https://dc.lft.to/lastmile_qr_scan"}, "lon": -76.99001333333334, "bike_id": "2cef73c00bcf6d5f54da9769b7c28d8a", "type": "electric_bike", "name": "2cef73c00bcf6d5f54da9769b7c28d8a"}, {"is_disabled": 0, "is_reserved": 0, "fusion_lat": 0.0, "lat": 38.8790345, "fusion_lon": 0.0, "rental_uris": {"ios": "https://dc.lft.to/lastmile_qr_scan", "android": "https://dc.lft.to/lastmile_qr_scan"}, "lon": -77.00772883333333, "bike_id": "977d89490c49946bb85ebff25b30b321", "type": "electric_scooter", "name": "977d89490c49946bb85ebff25b30b321"}, {"is_disabled": 0, "is_reserved": 0, "fusion_lat": 0.0, "lat": 38.901183333333336, "fusion_lon": 0.0, "rental_uris": {"ios": "https://dc.lft.to/lastmile_qr_scan", "android": "https://dc.lft.to/lastmile_qr_scan"}, "lon": -77.0338055, "bike_id": "510d63ffe2a272a1823920f03d0e7c61", "type": "electric_scooter", "name": "510d63ffe2a272a1823920f03d0e7c61"}, {"is_disabled": 0, "is_reserved": 0, "fusion_lat": 0.0, "lat": 38.918868333333336, "fusion_lon": 0.0, "rental_uris": {"ios": "https://dc.lft.to/lastmile_qr_scan", "android": "https://dc.lft.to/lastmile_qr_scan"}, "lon": -77.03488, "bike_id": "ea1cbfeb53f6c3df765896d92ab5c0fb", "type": "electric_scooter", "name": "ea1cbfeb53f6c3df765896d92ab5c0fb"}, {"is_disabled": 0, "is_reserved": 0, "fusion_lat": 0.0, "lat": 38.91325283333333, "fusion_lon": 0.0, "rental_uris": {"ios": "https://dc.lft.to/lastmile_qr_scan", "android": "https://dc.lft.to/lastmile_qr_scan"}, "lon": -77.03126716666667, "bike_id": "8c2947647a7bcea92415786a43c10cfd", "type": "electric_scooter", "name": "8c2947647a7bcea92415786a43c10cfd"}, {"is_disabled": 0, "is_reserved": 0, "fusion_lat": 0.0, "lat": 38.911851666666664, "fusion_lon": 0.0, "rental_uris": {"ios": "https://dc.lft.to/lastmile_qr_scan", "android": "https://dc.lft.to/lastmile_qr_scan"}, "lon": -77.00230766666667, "bike_id": "e6f06abcd74ba3abef35d0b0b2d923b3", "type": "electric_scooter", "name": "e6f06abcd74ba3abef35d0b0b2d923b3"}, {"is_disabled": 0, "is_reserved": 0, "fusion_lat": 0.0, "lat": 38.9205085, "fusion_lon": 0.0, "rental_uris": {"ios": "https://dc.lft.to/lastmile_qr_scan", "android": "https://dc.lft.to/lastmile_qr_scan"}, "lon": -77.03381633333333, "bike_id": "ce4cfa37a44c057da643d40d08b62646", "type": "electric_scooter", "name": "ce4cfa37a44c057da643d40d08b62646"}, {"is_disabled": 0, "is_reserved": 0, "fusion_lat": 0.0, "lat": 38.90426033333333, "fusion_lon": 0.0, "rental_uris": {"ios": "https://dc.lft.to/lastmile_qr_scan", "android": "https://dc.lft.to/lastmile_qr_scan"}, "lon": -77.01649133333333, "bike_id": "f66b49ebe417c8acf2d22aeffde1706b", "type": "electric_scooter", "name": "f66b49ebe417c8acf2d22aeffde1706b"}, {"is_disabled": 0, "is_reserved": 0, "fusion_lat": 0.0, "lat": 38.90399216666667, "fusion_lon": 0.0, "rental_uris": {"ios": "https://dc.lft.to/lastmile_qr_scan", "android": "https://dc.lft.to/lastmile_qr_scan"}, "lon": -77.02478266666667, "bike_id": "a00e95c271da36f53daec4b0db4faddc", "type": "electric_scooter", "name": "a00e95c271da36f53daec4b0db4faddc"}, {"is_disabled": 0, "is_reserved": 0, "fusion_lat": 0.0, "lat": 38.925802166666664, "fusion_lon": 0.0, "rental_uris": {"ios": "https://dc.lft.to/lastmile_qr_scan", "android": "https://dc.lft.to/lastmile_qr_scan"}, "lon": -77.02503466666667, "bike_id": "0fd3c7de57a8b1f3f960b7be92c3d72a", "type": "electric_scooter", "name": "0fd3c7de57a8b1f3f960b7be92c3d72a"}, {"is_disabled": 0, "is_reserved": 0, "fusion_lat": 0.0, "lat": 38.926551333333336, "fusion_lon": 0.0, "rental_uris": {"ios": "https://dc.lft.to/lastmile_qr_scan", "android": "https://dc.lft.to/lastmile_qr_scan"}, "lon": -77.02430666666666, "bike_id": "998ca2958abde54d7b8f116bde4f4cf8", "type": "electric_scooter", "name": "998ca2958abde54d7b8f116bde4f4cf8"}, {"is_disabled": 0, "is_reserved": 0, "fusion_lat": 0.0, "lat": 38.94722816666667, "fusion_lon": 0.0, "rental_uris": {"ios": "https://dc.lft.to/lastmile_qr_scan", "android": "https://dc.lft.to/lastmile_qr_scan"}, "lon": -77.0235535, "bike_id": "de8fe797461aa089cfb294e3d420ecdf", "type": "electric_scooter", "name": "de8fe797461aa089cfb294e3d420ecdf"}, {"is_disabled": 0, "is_reserved": 0, "fusion_lat": 0.0, "lat": 38.91765933333333, "fusion_lon": 0.0, "rental_uris": {"ios": "https://dc.lft.to/lastmile_qr_scan", "android": "https://dc.lft.to/lastmile_qr_scan"}, "lon": -77.02307566666667, "bike_id": "ec21141f4a11d041ed8074415c1858a3", "type": "electric_scooter", "name": "ec21141f4a11d041ed8074415c1858a3"}, {"is_disabled": 0, "is_reserved": 0, "fusion_lat": 0.0, "lat": 38.914194333333334, "fusion_lon": 0.0, "rental_uris": {"ios": "https://dc.lft.to/lastmile_qr_scan", "android": "https://dc.lft.to/lastmile_qr_scan"}, "lon": -77.02116933333333, "bike_id": "4d7a382ab5de14ce0e3c823e48edbb19", "type": "electric_scooter", "name": "4d7a382ab5de14ce0e3c823e48edbb19"}, {"is_disabled": 0, "is_reserved": 0, "fusion_lat": 0.0, "lat": 38.933476, "fusion_lon": 0.0, "rental_uris": {"ios": "https://dc.lft.to/lastmile_qr_scan", "android": "https://dc.lft.to/lastmile_qr_scan"}, "lon": -77.06046366666666, "bike_id": "8186f85bcba949257b832ffde9551eae", "type": "electric_scooter", "name": "8186f85bcba949257b832ffde9551eae"}, {"is_disabled": 0, "is_reserved": 0, "fusion_lat": 0.0, "lat": 38.9182485, "fusion_lon": 0.0, "rental_uris": {"ios": "https://dc.lft.to/lastmile_qr_scan", "android": "https://dc.lft.to/lastmile_qr_scan"}, "lon": -77.012085, "bike_id": "657841ab3e7a71e8d7f1db80d0c1558f", "type": "electric_scooter", "name": "657841ab3e7a71e8d7f1db80d0c1558f"}, {"is_disabled": 0, "is_reserved": 0, "fusion_lat": 0.0, "lat": 38.956331166666665, "fusion_lon": 0.0, "rental_uris": {"ios": "https://dc.lft.to/lastmile_qr_scan", "android": "https://dc.lft.to/lastmile_qr_scan"}, "lon": -77.02212783333333, "bike_id": "efa29c5c1ca2ee690c2baf4c5030a753", "type": "electric_scooter", "name": "efa29c5c1ca2ee690c2baf4c5030a753"}, {"is_disabled": 0, "is_reserved": 0, "fusion_lat": 0.0, "lat": 38.9170835, "fusion_lon": 0.0, "rental_uris": {"ios": "https://dc.lft.to/lastmile_qr_scan", "android": "https://dc.lft.to/lastmile_qr_scan"}, "lon": -77.03210483333334, "bike_id": "180816eb881d14029d0504eb76cbbd80", "type": "electric_scooter", "name": "180816eb881d14029d0504eb76cbbd80"}, {"is_disabled": 0, "is_reserved": 0, "fusion_lat": 0.0, "lat": 38.951515, "fusion_lon": 0.0, "rental_uris": {"ios": "https://dc.lft.to/lastmile_qr_scan", "android": "https://dc.lft.to/lastmile_qr_scan"}, "lon": -77.018707, "bike_id": "67c66ba4f94eadd8d100346a361adedd", "type": "electric_scooter", "name": "67c66ba4f94eadd8d100346a361adedd"}, {"is_disabled": 0, "is_reserved": 0, "fusion_lat": 0.0, "lat": 38.898987166666664, "fusion_lon": 0.0, "rental_uris": {"ios": "https://dc.lft.to/lastmile_qr_scan", "android": "https://dc.lft.to/lastmile_qr_scan"}, "lon": -77.049941, "bike_id": "0f76e1f435900fec43f4e8a782d3a8c8", "type": "electric_scooter", "name": "0f76e1f435900fec43f4e8a782d3a8c8"}, {"is_disabled": 0, "is_reserved": 0, "fusion_lat": 0.0, "lat": 38.82774533333333, "fusion_lon": 0.0, "rental_uris": {"ios": "https://dc.lft.to/lastmile_qr_scan", "android": "https://dc.lft.to/lastmile_qr_scan"}, "lon": -77.06010583333334, "bike_id": "3fe5483f215d424d982c18eeb9bf25bb", "type": "electric_bike", "name": "3fe5483f215d424d982c18eeb9bf25bb"}, {"is_disabled": 0, "is_reserved": 0, "fusion_lat": 0.0, "lat": 38.923603166666666, "fusion_lon": 0.0, "rental_uris": {"ios": "https://dc.lft.to/lastmile_qr_scan", "android": "https://dc.lft.to/lastmile_qr_scan"}, "lon": -77.05245983333333, "bike_id": "eeaee2faab7d25fcb329206e55a5efed", "type": "electric_scooter", "name": "eeaee2faab7d25fcb329206e55a5efed"}, {"is_disabled": 0, "is_reserved": 0, "fusion_lat": 0.0, "lat": 38.9015055, "fusion_lon": 0.0, "rental_uris": {"ios": "https://dc.lft.to/lastmile_qr_scan", "android": "https://dc.lft.to/lastmile_qr_scan"}, "lon": -77.015141, "bike_id": "79fac675b662460a4388d1dd656b0b8c", "type": "electric_scooter", "name": "79fac675b662460a4388d1dd656b0b8c"}, {"is_disabled": 0, "is_reserved": 0, "fusion_lat": 0.0, "lat": 38.92136033333333, "fusion_lon": 0.0, "rental_uris": {"ios": "https://dc.lft.to/lastmile_qr_scan", "android": "https://dc.lft.to/lastmile_qr_scan"}, "lon": -77.00403133333333, "bike_id": "53a0e8881a03d03af2a5401ed774415a", "type": "electric_scooter", "name": "53a0e8881a03d03af2a5401ed774415a"}, {"is_disabled": 0, "is_reserved": 0, "fusion_lat": 0.0, "lat": 38.972405333333334, "fusion_lon": 0.0, "rental_uris": {"ios": "https://dc.lft.to/lastmile_qr_scan", "android": "https://dc.lft.to/lastmile_qr_scan"}, "lon": -77.02571683333333, "bike_id": "d5548eb9e659986d3adf4829c4318842", "type": "electric_scooter", "name": "d5548eb9e659986d3adf4829c4318842"}, {"is_disabled": 0, "is_reserved": 0, "fusion_lat": 0.0, "lat": 38.92817333333333, "fusion_lon": 0.0, "rental_uris": {"ios": "https://dc.lft.to/lastmile_qr_scan", "android": "https://dc.lft.to/lastmile_qr_scan"}, "lon": -77.04337166666667, "bike_id": "4c7333c621acd0b50a288665ad4d3938", "type": "electric_scooter", "name": "4c7333c621acd0b50a288665ad4d3938"}, {"is_disabled": 0, "is_reserved": 0, "fusion_lat": 0.0, "lat": 38.92508516666667, "fusion_lon": 0.0, "rental_uris": {"ios": "https://dc.lft.to/lastmile_qr_scan", "android": "https://dc.lft.to/lastmile_qr_scan"}, "lon": -77.02442866666667, "bike_id": "55c78dda118d2d9d04f990e81ab1c0cd", "type": "electric_scooter", "name": "55c78dda118d2d9d04f990e81ab1c0cd"}, {"is_disabled": 0, "is_reserved": 0, "fusion_lat": 0.0, "lat": 38.883826, "fusion_lon": 0.0, "rental_uris": {"ios": "https://dc.lft.to/lastmile_qr_scan", "android": "https://dc.lft.to/lastmile_qr_scan"}, "lon": -77.04609416666666, "bike_id": "b07fb283625589e4aea2c66ce56084ec", "type": "electric_scooter", "name": "b07fb283625589e4aea2c66ce56084ec"}, {"is_disabled": 0, "is_reserved": 0, "fusion_lat": 0.0, "lat": 38.90652516666667, "fusion_lon": 0.0, "rental_uris": {"ios": "https://dc.lft.to/lastmile_qr_scan", "android": "https://dc.lft.to/lastmile_qr_scan"}, "lon": -77.02481033333333, "bike_id": "4385c663255b552c6f42ebfd4e8c266b", "type": "electric_scooter", "name": "4385c663255b552c6f42ebfd4e8c266b"}, {"is_disabled": 0, "is_reserved": 0, "fusion_lat": 0.0, "lat": 38.9613075, "fusion_lon": 0.0, "rental_uris": {"ios": "https://dc.lft.to/lastmile_qr_scan", "android": "https://dc.lft.to/lastmile_qr_scan"}, "lon": -77.03271483333333, "bike_id": "c6125d3c1317189e0605cf66331b5289", "type": "electric_bike", "name": "c6125d3c1317189e0605cf66331b5289"}, {"is_disabled": 0, "is_reserved": 0, "fusion_lat": 0.0, "lat": 38.909676, "fusion_lon": 0.0, "rental_uris": {"ios": "https://dc.lft.to/lastmile_qr_scan", "android": "https://dc.lft.to/lastmile_qr_scan"}, "lon": -77.03328916666666, "bike_id": "bfaea09892923b3e8ffdf7d6be54535b", "type": "electric_scooter", "name": "bfaea09892923b3e8ffdf7d6be54535b"}, {"is_disabled": 0, "is_reserved": 0, "fusion_lat": 0.0, "lat": 38.927883666666666, "fusion_lon": 0.0, "rental_uris": {"ios": "https://dc.lft.to/lastmile_qr_scan", "android": "https://dc.lft.to/lastmile_qr_scan"}, "lon": -77.02134016666666, "bike_id": "b1ffb9b2401eb68f4469d971076dc371", "type": "electric_scooter", "name": "b1ffb9b2401eb68f4469d971076dc371"}, {"is_disabled": 0, "is_reserved": 0, "fusion_lat": 0.0, "lat": 38.91719283333333, "fusion_lon": 0.0, "rental_uris": {"ios": "https://dc.lft.to/lastmile_qr_scan", "android": "https://dc.lft.to/lastmile_qr_scan"}, "lon": -77.03205166666666, "bike_id": "1979d2c9302b4090024d9c1435702858", "type": "electric_scooter", "name": "1979d2c9302b4090024d9c1435702858"}, {"is_disabled": 0, "is_reserved": 0, "fusion_lat": 0.0, "lat": 38.93381266666667, "fusion_lon": 0.0, "rental_uris": {"ios": "https://dc.lft.to/lastmile_qr_scan", "android": "https://dc.lft.to/lastmile_qr_scan"}, "lon": -77.02407466666666, "bike_id": "140752f7f4127f63b9545367a1bd694f", "type": "electric_scooter", "name": "140752f7f4127f63b9545367a1bd694f"}, {"is_disabled": 0, "is_reserved": 0, "fusion_lat": 0.0, "lat": 38.952412, "fusion_lon": 0.0, "rental_uris": {"ios": "https://dc.lft.to/lastmile_qr_scan", "android": "https://dc.lft.to/lastmile_qr_scan"}, "lon": -76.98245133333333, "bike_id": "51c09f5857ab430252ab8bd0f4bf3b18", "type": "electric_bike", "name": "51c09f5857ab430252ab8bd0f4bf3b18"}, {"is_disabled": 0, "is_reserved": 0, "fusion_lat": 0.0, "lat": 38.89820266666667, "fusion_lon": 0.0, "rental_uris": {"ios": "https://dc.lft.to/lastmile_qr_scan", "android": "https://dc.lft.to/lastmile_qr_scan"}, "lon": -77.00210883333334, "bike_id": "3cf627e3e947f84da59af0e26d1149b4", "type": "electric_scooter", "name": "3cf627e3e947f84da59af0e26d1149b4"}, {"is_disabled": 0, "is_reserved": 0, "fusion_lat": 0.0, "lat": 38.92437416666667, "fusion_lon": 0.0, "rental_uris": {"ios": "https://dc.lft.to/lastmile_qr_scan", "android": "https://dc.lft.to/lastmile_qr_scan"}, "lon": -77.0340515, "bike_id": "4adb70208d60e639f5895f68e57c6c17", "type": "electric_scooter", "name": "4adb70208d60e639f5895f68e57c6c17"}, {"is_disabled": 0, "is_reserved": 0, "fusion_lat": 0.0, "lat": 38.94201666666667, "fusion_lon": 0.0, "rental_uris": {"ios": "https://dc.lft.to/lastmile_qr_scan", "android": "https://dc.lft.to/lastmile_qr_scan"}, "lon": -77.02566433333334, "bike_id": "f689e177c3979cd92267c8bd4748b67d", "type": "electric_scooter", "name": "f689e177c3979cd92267c8bd4748b67d"}, {"is_disabled": 0, "is_reserved": 0, "fusion_lat": 0.0, "lat": 38.89250216666667, "fusion_lon": 0.0, "rental_uris": {"ios": "https://dc.lft.to/lastmile_qr_scan", "android": "https://dc.lft.to/lastmile_qr_scan"}, "lon": -77.03957083333333, "bike_id": "f1ad341272a132cf7b213682a285e461", "type": "electric_scooter", "name": "f1ad341272a132cf7b213682a285e461"}, {"is_disabled": 0, "is_reserved": 0, "fusion_lat": 0.0, "lat": 38.915037, "fusion_lon": 0.0, "rental_uris": {"ios": "https://dc.lft.to/lastmile_qr_scan", "android": "https://dc.lft.to/lastmile_qr_scan"}, "lon": -77.00922, "bike_id": "a80c6a456b7c55c0e7d8a0f2bf57406b", "type": "electric_scooter", "name": "a80c6a456b7c55c0e7d8a0f2bf57406b"}, {"is_disabled": 0, "is_reserved": 0, "fusion_lat": 0.0, "lat": 38.805249333333336, "fusion_lon": 0.0, "rental_uris": {"ios": "https://dc.lft.to/lastmile_qr_scan", "android": "https://dc.lft.to/lastmile_qr_scan"}, "lon": -77.04336033333334, "bike_id": "c1504027542ac9e4f0b84b3dbb1f4ace", "type": "electric_bike", "name": "c1504027542ac9e4f0b84b3dbb1f4ace"}, {"is_disabled": 0, "is_reserved": 0, "fusion_lat": 0.0, "lat": 38.91609616666667, "fusion_lon": 0.0, "rental_uris": {"ios": "https://dc.lft.to/lastmile_qr_scan", "android": "https://dc.lft.to/lastmile_qr_scan"}, "lon": -76.98303083333333, "bike_id": "7d9ebf0b2ab229edcb499a1c9cbd7f2a", "type": "electric_scooter", "name": "7d9ebf0b2ab229edcb499a1c9cbd7f2a"}, {"is_disabled": 0, "is_reserved": 0, "fusion_lat": 0.0, "lat": 38.967993166666666, "fusion_lon": 0.0, "rental_uris": {"ios": "https://dc.lft.to/lastmile_qr_scan", "android": "https://dc.lft.to/lastmile_qr_scan"}, "lon": -77.02429333333333, "bike_id": "bbf868b398350a74fe642ce7a89ca175", "type": "electric_scooter", "name": "bbf868b398350a74fe642ce7a89ca175"}, {"is_disabled": 0, "is_reserved": 0, "fusion_lat": 0.0, "lat": 38.9032945, "fusion_lon": 0.0, "rental_uris": {"ios": "https://dc.lft.to/lastmile_qr_scan", "android": "https://dc.lft.to/lastmile_qr_scan"}, "lon": -77.0196715, "bike_id": "8d9f3031dfb4e91a8ecebc46990a99e7", "type": "electric_scooter", "name": "8d9f3031dfb4e91a8ecebc46990a99e7"}, {"is_disabled": 0, "is_reserved": 0, "fusion_lat": 0.0, "lat": 38.96555866666667, "fusion_lon": 0.0, "rental_uris": {"ios": "https://dc.lft.to/lastmile_qr_scan", "android": "https://dc.lft.to/lastmile_qr_scan"}, "lon": -77.01627983333333, "bike_id": "e6d70cd558311ec41688af37ceb9618c", "type": "electric_bike", "name": "e6d70cd558311ec41688af37ceb9618c"}, {"is_disabled": 0, "is_reserved": 0, "fusion_lat": 0.0, "lat": 38.90845983333333, "fusion_lon": 0.0, "rental_uris": {"ios": "https://dc.lft.to/lastmile_qr_scan", "android": "https://dc.lft.to/lastmile_qr_scan"}, "lon": -76.93446183333333, "bike_id": "a3dff2f1f606b195d836c35e418a8c3f", "type": "electric_scooter", "name": "a3dff2f1f606b195d836c35e418a8c3f"}, {"is_disabled": 0, "is_reserved": 0, "fusion_lat": 0.0, "lat": 38.9449565, "fusion_lon": 0.0, "rental_uris": {"ios": "https://dc.lft.to/lastmile_qr_scan", "android": "https://dc.lft.to/lastmile_qr_scan"}, "lon": -77.00743783333333, "bike_id": "f294c3934619fe0e659ee35ad9b492c3", "type": "electric_bike", "name": "f294c3934619fe0e659ee35ad9b492c3"}, {"is_disabled": 0, "is_reserved": 0, "fusion_lat": 0.0, "lat": 38.87685616666667, "fusion_lon": 0.0, "rental_uris": {"ios": "https://dc.lft.to/lastmile_qr_scan", "android": "https://dc.lft.to/lastmile_qr_scan"}, "lon": -77.01791516666667, "bike_id": "b6d53a9f94a0a30ce0dfc587282de1f9", "type": "electric_scooter", "name": "b6d53a9f94a0a30ce0dfc587282de1f9"}, {"is_disabled": 0, "is_reserved": 0, "fusion_lat": 0.0, "lat": 38.881220666666664, "fusion_lon": 0.0, "rental_uris": {"ios": "https://dc.lft.to/lastmile_qr_scan", "android": "https://dc.lft.to/lastmile_qr_scan"}, "lon": -76.99285766666667, "bike_id": "51f1a51fa0dd9958ebf9d026902b9671", "type": "electric_scooter", "name": "51f1a51fa0dd9958ebf9d026902b9671"}, {"is_disabled": 0, "is_reserved": 0, "fusion_lat": 0.0, "lat": 38.898382166666664, "fusion_lon": 0.0, "rental_uris": {"ios": "https://dc.lft.to/lastmile_qr_scan", "android": "https://dc.lft.to/lastmile_qr_scan"}, "lon": -77.02278716666666, "bike_id": "9fc17dae7719ba1a7514f5a0ba546edf", "type": "electric_scooter", "name": "9fc17dae7719ba1a7514f5a0ba546edf"}, {"is_disabled": 0, "is_reserved": 0, "fusion_lat": 0.0, "lat": 38.921435, "fusion_lon": 0.0, "rental_uris": {"ios": "https://dc.lft.to/lastmile_qr_scan", "android": "https://dc.lft.to/lastmile_qr_scan"}, "lon": -77.04561883333334, "bike_id": "4d7bd2a0804923d3ea83ac9ea5b9b4c6", "type": "electric_scooter", "name": "4d7bd2a0804923d3ea83ac9ea5b9b4c6"}, {"is_disabled": 0, "is_reserved": 0, "fusion_lat": 0.0, "lat": 38.91754366666667, "fusion_lon": 0.0, "rental_uris": {"ios": "https://dc.lft.to/lastmile_qr_scan", "android": "https://dc.lft.to/lastmile_qr_scan"}, "lon": -77.04763966666667, "bike_id": "72a133f4aea8e49cc3c4ed278aef0a85", "type": "electric_scooter", "name": "72a133f4aea8e49cc3c4ed278aef0a85"}, {"is_disabled": 0, "is_reserved": 0, "fusion_lat": 0.0, "lat": 38.904387166666666, "fusion_lon": 0.0, "rental_uris": {"ios": "https://dc.lft.to/lastmile_qr_scan", "android": "https://dc.lft.to/lastmile_qr_scan"}, "lon": -77.03090983333334, "bike_id": "d27e5b114a15dcfe40945c4555fdf742", "type": "electric_scooter", "name": "d27e5b114a15dcfe40945c4555fdf742"}, {"is_disabled": 0, "is_reserved": 0, "fusion_lat": 0.0, "lat": 38.96796483333333, "fusion_lon": 0.0, "rental_uris": {"ios": "https://dc.lft.to/lastmile_qr_scan", "android": "https://dc.lft.to/lastmile_qr_scan"}, "lon": -77.02559933333333, "bike_id": "1d38b0d5a9c6132e4735411ce7a5a381", "type": "electric_scooter", "name": "1d38b0d5a9c6132e4735411ce7a5a381"}, {"is_disabled": 0, "is_reserved": 0, "fusion_lat": 0.0, "lat": 38.8845105, "fusion_lon": 0.0, "rental_uris": {"ios": "https://dc.lft.to/lastmile_qr_scan", "android": "https://dc.lft.to/lastmile_qr_scan"}, "lon": -77.02499816666666, "bike_id": "53904a00a8f63abab4d262f533683765", "type": "electric_scooter", "name": "53904a00a8f63abab4d262f533683765"}, {"is_disabled": 0, "is_reserved": 0, "fusion_lat": 0.0, "lat": 38.922178333333335, "fusion_lon": 0.0, "rental_uris": {"ios": "https://dc.lft.to/lastmile_qr_scan", "android": "https://dc.lft.to/lastmile_qr_scan"}, "lon": -77.0743785, "bike_id": "6bc578fc1d2b6c6f2252969c5e31fd2c", "type": "electric_scooter", "name": "6bc578fc1d2b6c6f2252969c5e31fd2c"}, {"is_disabled": 0, "is_reserved": 0, "fusion_lat": 0.0, "lat": 38.905886333333335, "fusion_lon": 0.0, "rental_uris": {"ios": "https://dc.lft.to/lastmile_qr_scan", "android": "https://dc.lft.to/lastmile_qr_scan"}, "lon": -77.01610683333334, "bike_id": "0b4d9a18d60e7e38dfd0d3ebb3cbc0dc", "type": "electric_scooter", "name": "0b4d9a18d60e7e38dfd0d3ebb3cbc0dc"}, {"is_disabled": 0, "is_reserved": 0, "fusion_lat": 0.0, "lat": 38.917443, "fusion_lon": 0.0, "rental_uris": {"ios": "https://dc.lft.to/lastmile_qr_scan", "android": "https://dc.lft.to/lastmile_qr_scan"}, "lon": -77.02691783333333, "bike_id": "ab9ceb7f52c7997f4d42d0ad573d895e", "type": "electric_scooter", "name": "ab9ceb7f52c7997f4d42d0ad573d895e"}, {"is_disabled": 0, "is_reserved": 0, "fusion_lat": 0.0, "lat": 38.915576333333334, "fusion_lon": 0.0, "rental_uris": {"ios": "https://dc.lft.to/lastmile_qr_scan", "android": "https://dc.lft.to/lastmile_qr_scan"}, "lon": -77.038337, "bike_id": "831e230b9293c5666cd0918ac8a97c63", "type": "electric_scooter", "name": "831e230b9293c5666cd0918ac8a97c63"}, {"is_disabled": 0, "is_reserved": 0, "fusion_lat": 0.0, "lat": 38.903665333333336, "fusion_lon": 0.0, "rental_uris": {"ios": "https://dc.lft.to/lastmile_qr_scan", "android": "https://dc.lft.to/lastmile_qr_scan"}, "lon": -77.01757816666667, "bike_id": "87d1cbb8e69d334da02381e6f33fead2", "type": "electric_scooter", "name": "87d1cbb8e69d334da02381e6f33fead2"}, {"is_disabled": 0, "is_reserved": 0, "fusion_lat": 0.0, "lat": 38.92186266666667, "fusion_lon": 0.0, "rental_uris": {"ios": "https://dc.lft.to/lastmile_qr_scan", "android": "https://dc.lft.to/lastmile_qr_scan"}, "lon": -77.01814483333334, "bike_id": "975113510a9fa40e9c7716e3a143a8f9", "type": "electric_scooter", "name": "975113510a9fa40e9c7716e3a143a8f9"}, {"is_disabled": 0, "is_reserved": 0, "fusion_lat": 0.0, "lat": 38.887128, "fusion_lon": 0.0, "rental_uris": {"ios": "https://dc.lft.to/lastmile_qr_scan", "android": "https://dc.lft.to/lastmile_qr_scan"}, "lon": -76.98382483333333, "bike_id": "a86e01fa5e72aa30ba7205509a229cfc", "type": "electric_scooter", "name": "a86e01fa5e72aa30ba7205509a229cfc"}, {"is_disabled": 0, "is_reserved": 0, "fusion_lat": 0.0, "lat": 38.917474, "fusion_lon": 0.0, "rental_uris": {"ios": "https://dc.lft.to/lastmile_qr_scan", "android": "https://dc.lft.to/lastmile_qr_scan"}, "lon": -77.0268985, "bike_id": "f56d1b4bfcbd64fa3fdc0d5de96c1051", "type": "electric_scooter", "name": "f56d1b4bfcbd64fa3fdc0d5de96c1051"}, {"is_disabled": 0, "is_reserved": 0, "fusion_lat": 0.0, "lat": 38.92019, "fusion_lon": 0.0, "rental_uris": {"ios": "https://dc.lft.to/lastmile_qr_scan", "android": "https://dc.lft.to/lastmile_qr_scan"}, "lon": -76.99972866666667, "bike_id": "cd05bb6ec166260299599ede064896ac", "type": "electric_scooter", "name": "cd05bb6ec166260299599ede064896ac"}, {"is_disabled": 0, "is_reserved": 0, "fusion_lat": 0.0, "lat": 38.95732116666667, "fusion_lon": 0.0, "rental_uris": {"ios": "https://dc.lft.to/lastmile_qr_scan", "android": "https://dc.lft.to/lastmile_qr_scan"}, "lon": -77.02424733333334, "bike_id": "e556091aa9b0d1c9b1633c889b4c7812", "type": "electric_scooter", "name": "e556091aa9b0d1c9b1633c889b4c7812"}, {"is_disabled": 0, "is_reserved": 0, "fusion_lat": 0.0, "lat": 38.93036566666667, "fusion_lon": 0.0, "rental_uris": {"ios": "https://dc.lft.to/lastmile_qr_scan", "android": "https://dc.lft.to/lastmile_qr_scan"}, "lon": -77.02966366666666, "bike_id": "a916ca925733ccfe6590e2ca570a04f8", "type": "electric_scooter", "name": "a916ca925733ccfe6590e2ca570a04f8"}, {"is_disabled": 0, "is_reserved": 0, "fusion_lat": 0.0, "lat": 38.8984885, "fusion_lon": 0.0, "rental_uris": {"ios": "https://dc.lft.to/lastmile_qr_scan", "android": "https://dc.lft.to/lastmile_qr_scan"}, "lon": -77.001959, "bike_id": "3b3bbf2a49db81645d70330d217c3e51", "type": "electric_scooter", "name": "3b3bbf2a49db81645d70330d217c3e51"}, {"is_disabled": 0, "is_reserved": 0, "fusion_lat": 0.0, "lat": 38.925494, "fusion_lon": 0.0, "rental_uris": {"ios": "https://dc.lft.to/lastmile_qr_scan", "android": "https://dc.lft.to/lastmile_qr_scan"}, "lon": -76.996106, "bike_id": "2d86adcfeeeacb0ad3970e2e5ae4bdda", "type": "electric_scooter", "name": "2d86adcfeeeacb0ad3970e2e5ae4bdda"}, {"is_disabled": 0, "is_reserved": 0, "fusion_lat": 0.0, "lat": 38.881584333333336, "fusion_lon": 0.0, "rental_uris": {"ios": "https://dc.lft.to/lastmile_qr_scan", "android": "https://dc.lft.to/lastmile_qr_scan"}, "lon": -77.02751466666666, "bike_id": "1226d907d9dc1103ac046ac2280cc978", "type": "electric_scooter", "name": "1226d907d9dc1103ac046ac2280cc978"}, {"is_disabled": 0, "is_reserved": 0, "fusion_lat": 0.0, "lat": 38.960208333333334, "fusion_lon": 0.0, "rental_uris": {"ios": "https://dc.lft.to/lastmile_qr_scan", "android": "https://dc.lft.to/lastmile_qr_scan"}, "lon": -77.0282215, "bike_id": "ec901a50d99c8c127a8e116e95fee253", "type": "electric_scooter", "name": "ec901a50d99c8c127a8e116e95fee253"}, {"is_disabled": 0, "is_reserved": 0, "fusion_lat": 0.0, "lat": 38.91674316666667, "fusion_lon": 0.0, "rental_uris": {"ios": "https://dc.lft.to/lastmile_qr_scan", "android": "https://dc.lft.to/lastmile_qr_scan"}, "lon": -77.023893, "bike_id": "6f44c8b1c5b1ff602d1543d2b6f18960", "type": "electric_scooter", "name": "6f44c8b1c5b1ff602d1543d2b6f18960"}, {"is_disabled": 0, "is_reserved": 0, "fusion_lat": 0.0, "lat": 38.92494833333333, "fusion_lon": 0.0, "rental_uris": {"ios": "https://dc.lft.to/lastmile_qr_scan", "android": "https://dc.lft.to/lastmile_qr_scan"}, "lon": -77.042603, "bike_id": "7958706cf1e83e64c073bfd4d62831ee", "type": "electric_bike", "name": "7958706cf1e83e64c073bfd4d62831ee"}, {"is_disabled": 0, "is_reserved": 0, "fusion_lat": 0.0, "lat": 38.90437166666667, "fusion_lon": 0.0, "rental_uris": {"ios": "https://dc.lft.to/lastmile_qr_scan", "android": "https://dc.lft.to/lastmile_qr_scan"}, "lon": -77.05148516666667, "bike_id": "c03deb95fb7ef2c3cccc25a5ca76efdb", "type": "electric_scooter", "name": "c03deb95fb7ef2c3cccc25a5ca76efdb"}, {"is_disabled": 0, "is_reserved": 0, "fusion_lat": 0.0, "lat": 38.85785766666667, "fusion_lon": 0.0, "rental_uris": {"ios": "https://dc.lft.to/lastmile_qr_scan", "android": "https://dc.lft.to/lastmile_qr_scan"}, "lon": -76.98761766666667, "bike_id": "d73f46de98f8003fbb0f275f6f9bfd72", "type": "electric_bike", "name": "d73f46de98f8003fbb0f275f6f9bfd72"}, {"is_disabled": 0, "is_reserved": 0, "fusion_lat": 0.0, "lat": 38.858385166666665, "fusion_lon": 0.0, "rental_uris": {"ios": "https://dc.lft.to/lastmile_qr_scan", "android": "https://dc.lft.to/lastmile_qr_scan"}, "lon": -76.988254, "bike_id": "412d1424ce039f36e3e39a0112e7ea00", "type": "electric_scooter", "name": "412d1424ce039f36e3e39a0112e7ea00"}, {"is_disabled": 0, "is_reserved": 0, "fusion_lat": 0.0, "lat": 38.924125833333335, "fusion_lon": 0.0, "rental_uris": {"ios": "https://dc.lft.to/lastmile_qr_scan", "android": "https://dc.lft.to/lastmile_qr_scan"}, "lon": -77.02006583333333, "bike_id": "4044a0aeb06036a603209a1b15493628", "type": "electric_scooter", "name": "4044a0aeb06036a603209a1b15493628"}, {"is_disabled": 0, "is_reserved": 0, "fusion_lat": 0.0, "lat": 38.907605833333335, "fusion_lon": 0.0, "rental_uris": {"ios": "https://dc.lft.to/lastmile_qr_scan", "android": "https://dc.lft.to/lastmile_qr_scan"}, "lon": -77.041557, "bike_id": "fc74acfea0d5935a4cde3bc633f946ec", "type": "electric_scooter", "name": "fc74acfea0d5935a4cde3bc633f946ec"}, {"is_disabled": 0, "is_reserved": 0, "fusion_lat": 0.0, "lat": 38.918563666666664, "fusion_lon": 0.0, "rental_uris": {"ios": "https://dc.lft.to/lastmile_qr_scan", "android": "https://dc.lft.to/lastmile_qr_scan"}, "lon": -77.02459833333333, "bike_id": "0501fc9a1a9ce21b707847aa08f575f6", "type": "electric_scooter", "name": "0501fc9a1a9ce21b707847aa08f575f6"}, {"is_disabled": 0, "is_reserved": 0, "fusion_lat": 0.0, "lat": 38.918012, "fusion_lon": 0.0, "rental_uris": {"ios": "https://dc.lft.to/lastmile_qr_scan", "android": "https://dc.lft.to/lastmile_qr_scan"}, "lon": -77.02488466666667, "bike_id": "6b7e3a5dc2f53519a017f652de44a725", "type": "electric_scooter", "name": "6b7e3a5dc2f53519a017f652de44a725"}, {"is_disabled": 0, "is_reserved": 0, "fusion_lat": 0.0, "lat": 38.83607116666667, "fusion_lon": 0.0, "rental_uris": {"ios": "https://dc.lft.to/lastmile_qr_scan", "android": "https://dc.lft.to/lastmile_qr_scan"}, "lon": -77.003757, "bike_id": "64c6a333e64810946b181c35a6ab3335", "type": "electric_bike", "name": "64c6a333e64810946b181c35a6ab3335"}, {"is_disabled": 0, "is_reserved": 0, "fusion_lat": 0.0, "lat": 38.88155116666667, "fusion_lon": 0.0, "rental_uris": {"ios": "https://dc.lft.to/lastmile_qr_scan", "android": "https://dc.lft.to/lastmile_qr_scan"}, "lon": -77.013228, "bike_id": "9dbb2530e3014b908ca22078c1289d35", "type": "electric_scooter", "name": "9dbb2530e3014b908ca22078c1289d35"}, {"is_disabled": 0, "is_reserved": 0, "fusion_lat": 0.0, "lat": 38.95073333333333, "fusion_lon": 0.0, "rental_uris": {"ios": "https://dc.lft.to/lastmile_qr_scan", "android": "https://dc.lft.to/lastmile_qr_scan"}, "lon": -76.99600566666666, "bike_id": "b94b86827aa0ca51caef28cdf8696699", "type": "electric_bike", "name": "b94b86827aa0ca51caef28cdf8696699"}, {"is_disabled": 0, "is_reserved": 0, "fusion_lat": 0.0, "lat": 38.9533495, "fusion_lon": 0.0, "rental_uris": {"ios": "https://dc.lft.to/lastmile_qr_scan", "android": "https://dc.lft.to/lastmile_qr_scan"}, "lon": -76.98255533333334, "bike_id": "effe8baa1174c294a5e04f8014032c3d", "type": "electric_bike", "name": "effe8baa1174c294a5e04f8014032c3d"}, {"is_disabled": 0, "is_reserved": 0, "fusion_lat": 0.0, "lat": 38.905719833333336, "fusion_lon": 0.0, "rental_uris": {"ios": "https://dc.lft.to/lastmile_qr_scan", "android": "https://dc.lft.to/lastmile_qr_scan"}, "lon": -77.02762466666667, "bike_id": "614e9c2d152913beccde2e9128793983", "type": "electric_scooter", "name": "614e9c2d152913beccde2e9128793983"}, {"is_disabled": 0, "is_reserved": 0, "fusion_lat": 0.0, "lat": 38.909586166666664, "fusion_lon": 0.0, "rental_uris": {"ios": "https://dc.lft.to/lastmile_qr_scan", "android": "https://dc.lft.to/lastmile_qr_scan"}, "lon": -77.022202, "bike_id": "e8d925184186cae369acb03de4103d14", "type": "electric_scooter", "name": "e8d925184186cae369acb03de4103d14"}, {"is_disabled": 0, "is_reserved": 0, "fusion_lat": 0.0, "lat": 38.896357333333334, "fusion_lon": 0.0, "rental_uris": {"ios": "https://dc.lft.to/lastmile_qr_scan", "android": "https://dc.lft.to/lastmile_qr_scan"}, "lon": -76.93935466666667, "bike_id": "1551891659a20b7db0ae3b9a05ee2110", "type": "electric_scooter", "name": "1551891659a20b7db0ae3b9a05ee2110"}, {"is_disabled": 0, "is_reserved": 0, "fusion_lat": 0.0, "lat": 38.8983015, "fusion_lon": 0.0, "rental_uris": {"ios": "https://dc.lft.to/lastmile_qr_scan", "android": "https://dc.lft.to/lastmile_qr_scan"}, "lon": -77.04651033333333, "bike_id": "b59d80b24d88f2cdfedda767ae19cd2a", "type": "electric_scooter", "name": "b59d80b24d88f2cdfedda767ae19cd2a"}, {"is_disabled": 0, "is_reserved": 0, "fusion_lat": 0.0, "lat": 38.89751066666667, "fusion_lon": 0.0, "rental_uris": {"ios": "https://dc.lft.to/lastmile_qr_scan", "android": "https://dc.lft.to/lastmile_qr_scan"}, "lon": -77.05486166666667, "bike_id": "e581524d64e03ee5ebda1ea2d44e9e75", "type": "electric_scooter", "name": "e581524d64e03ee5ebda1ea2d44e9e75"}, {"is_disabled": 0, "is_reserved": 0, "fusion_lat": 0.0, "lat": 38.914523833333334, "fusion_lon": 0.0, "rental_uris": {"ios": "https://dc.lft.to/lastmile_qr_scan", "android": "https://dc.lft.to/lastmile_qr_scan"}, "lon": -77.00890366666667, "bike_id": "8a8abf8bbcf4e77eb939d8b0de6f9b6f", "type": "electric_scooter", "name": "8a8abf8bbcf4e77eb939d8b0de6f9b6f"}, {"is_disabled": 0, "is_reserved": 0, "fusion_lat": 0.0, "lat": 38.9060815, "fusion_lon": 0.0, "rental_uris": {"ios": "https://dc.lft.to/lastmile_qr_scan", "android": "https://dc.lft.to/lastmile_qr_scan"}, "lon": -77.041317, "bike_id": "3be3e0a5607adaebcaabb181db7575a4", "type": "electric_scooter", "name": "3be3e0a5607adaebcaabb181db7575a4"}, {"is_disabled": 0, "is_reserved": 0, "fusion_lat": 0.0, "lat": 38.93120666666667, "fusion_lon": 0.0, "rental_uris": {"ios": "https://dc.lft.to/lastmile_qr_scan", "android": "https://dc.lft.to/lastmile_qr_scan"}, "lon": -77.02072983333333, "bike_id": "4046393f7d70f92077a2bdcff7177ca5", "type": "electric_scooter", "name": "4046393f7d70f92077a2bdcff7177ca5"}, {"is_disabled": 0, "is_reserved": 0, "fusion_lat": 0.0, "lat": 38.9153855, "fusion_lon": 0.0, "rental_uris": {"ios": "https://dc.lft.to/lastmile_qr_scan", "android": "https://dc.lft.to/lastmile_qr_scan"}, "lon": -77.03214533333333, "bike_id": "c8dfbb626d1fb0ab0dc68e6b112d3559", "type": "electric_scooter", "name": "c8dfbb626d1fb0ab0dc68e6b112d3559"}, {"is_disabled": 0, "is_reserved": 0, "fusion_lat": 0.0, "lat": 38.92658616666667, "fusion_lon": 0.0, "rental_uris": {"ios": "https://dc.lft.to/lastmile_qr_scan", "android": "https://dc.lft.to/lastmile_qr_scan"}, "lon": -77.02428166666667, "bike_id": "0e53970b900a59e76f03509e40ffd3d4", "type": "electric_scooter", "name": "0e53970b900a59e76f03509e40ffd3d4"}, {"is_disabled": 0, "is_reserved": 0, "fusion_lat": 0.0, "lat": 38.93700116666667, "fusion_lon": 0.0, "rental_uris": {"ios": "https://dc.lft.to/lastmile_qr_scan", "android": "https://dc.lft.to/lastmile_qr_scan"}, "lon": -77.0560085, "bike_id": "300425e45c464417f8b0d640afc2a653", "type": "electric_scooter", "name": "300425e45c464417f8b0d640afc2a653"}, {"is_disabled": 0, "is_reserved": 0, "fusion_lat": 0.0, "lat": 38.93597483333333, "fusion_lon": 0.0, "rental_uris": {"ios": "https://dc.lft.to/lastmile_qr_scan", "android": "https://dc.lft.to/lastmile_qr_scan"}, "lon": -77.055907, "bike_id": "28062e2240812e2e26a641f1011275f7", "type": "electric_scooter", "name": "28062e2240812e2e26a641f1011275f7"}, {"is_disabled": 0, "is_reserved": 0, "fusion_lat": 0.0, "lat": 38.92361183333333, "fusion_lon": 0.0, "rental_uris": {"ios": "https://dc.lft.to/lastmile_qr_scan", "android": "https://dc.lft.to/lastmile_qr_scan"}, "lon": -77.07316366666667, "bike_id": "fb781f59c0f7e4673c86844696c7d7cb", "type": "electric_scooter", "name": "fb781f59c0f7e4673c86844696c7d7cb"}, {"is_disabled": 0, "is_reserved": 0, "fusion_lat": 0.0, "lat": 38.914153666666664, "fusion_lon": 0.0, "rental_uris": {"ios": "https://dc.lft.to/lastmile_qr_scan", "android": "https://dc.lft.to/lastmile_qr_scan"}, "lon": -77.04394933333333, "bike_id": "a0c819092acf39f239ee106cfcd1689a", "type": "electric_scooter", "name": "a0c819092acf39f239ee106cfcd1689a"}, {"is_disabled": 0, "is_reserved": 0, "fusion_lat": 0.0, "lat": 38.9099545, "fusion_lon": 0.0, "rental_uris": {"ios": "https://dc.lft.to/lastmile_qr_scan", "android": "https://dc.lft.to/lastmile_qr_scan"}, "lon": -77.04009583333334, "bike_id": "cdff26def3bf70f5af94d1f0d4aac452", "type": "electric_scooter", "name": "cdff26def3bf70f5af94d1f0d4aac452"}, {"is_disabled": 0, "is_reserved": 0, "fusion_lat": 0.0, "lat": 38.92649633333333, "fusion_lon": 0.0, "rental_uris": {"ios": "https://dc.lft.to/lastmile_qr_scan", "android": "https://dc.lft.to/lastmile_qr_scan"}, "lon": -77.0244995, "bike_id": "baf273e430cbd318403952c90eb02bbe", "type": "electric_scooter", "name": "baf273e430cbd318403952c90eb02bbe"}, {"is_disabled": 0, "is_reserved": 0, "fusion_lat": 0.0, "lat": 38.92046966666667, "fusion_lon": 0.0, "rental_uris": {"ios": "https://dc.lft.to/lastmile_qr_scan", "android": "https://dc.lft.to/lastmile_qr_scan"}, "lon": -77.02369616666667, "bike_id": "d392722f93b901e729b7fbe0669df7dc", "type": "electric_scooter", "name": "d392722f93b901e729b7fbe0669df7dc"}, {"is_disabled": 0, "is_reserved": 0, "fusion_lat": 0.0, "lat": 38.90009233333333, "fusion_lon": 0.0, "rental_uris": {"ios": "https://dc.lft.to/lastmile_qr_scan", "android": "https://dc.lft.to/lastmile_qr_scan"}, "lon": -76.9799035, "bike_id": "a4086ff62ed23c042c068c5363dd4235", "type": "electric_scooter", "name": "a4086ff62ed23c042c068c5363dd4235"}, {"is_disabled": 0, "is_reserved": 0, "fusion_lat": 0.0, "lat": 38.879210666666665, "fusion_lon": 0.0, "rental_uris": {"ios": "https://dc.lft.to/lastmile_qr_scan", "android": "https://dc.lft.to/lastmile_qr_scan"}, "lon": -77.0137475, "bike_id": "5ad3ed4cc39ac64c2424fb7dfe432279", "type": "electric_scooter", "name": "5ad3ed4cc39ac64c2424fb7dfe432279"}, {"is_disabled": 0, "is_reserved": 0, "fusion_lat": 0.0, "lat": 38.922396666666664, "fusion_lon": 0.0, "rental_uris": {"ios": "https://dc.lft.to/lastmile_qr_scan", "android": "https://dc.lft.to/lastmile_qr_scan"}, "lon": -77.04009683333334, "bike_id": "acf68290ffb8b4ac64e09611a892fab1", "type": "electric_scooter", "name": "acf68290ffb8b4ac64e09611a892fab1"}, {"is_disabled": 0, "is_reserved": 0, "fusion_lat": 0.0, "lat": 38.90070166666667, "fusion_lon": 0.0, "rental_uris": {"ios": "https://dc.lft.to/lastmile_qr_scan", "android": "https://dc.lft.to/lastmile_qr_scan"}, "lon": -77.00659066666667, "bike_id": "3027f4882abcf9a8e0a907456b6642dc", "type": "electric_scooter", "name": "3027f4882abcf9a8e0a907456b6642dc"}, {"is_disabled": 0, "is_reserved": 0, "fusion_lat": 0.0, "lat": 38.91639833333333, "fusion_lon": 0.0, "rental_uris": {"ios": "https://dc.lft.to/lastmile_qr_scan", "android": "https://dc.lft.to/lastmile_qr_scan"}, "lon": -77.02692433333333, "bike_id": "29b95ce459291c3132e7dbe6cf1fb536", "type": "electric_scooter", "name": "29b95ce459291c3132e7dbe6cf1fb536"}, {"is_disabled": 0, "is_reserved": 0, "fusion_lat": 0.0, "lat": 38.93352983333333, "fusion_lon": 0.0, "rental_uris": {"ios": "https://dc.lft.to/lastmile_qr_scan", "android": "https://dc.lft.to/lastmile_qr_scan"}, "lon": -77.0342035, "bike_id": "05818a2c5b35f232fee7a8b60c868a2a", "type": "electric_scooter", "name": "05818a2c5b35f232fee7a8b60c868a2a"}, {"is_disabled": 0, "is_reserved": 0, "fusion_lat": 0.0, "lat": 38.894352, "fusion_lon": 0.0, "rental_uris": {"ios": "https://dc.lft.to/lastmile_qr_scan", "android": "https://dc.lft.to/lastmile_qr_scan"}, "lon": -77.01089833333333, "bike_id": "ab45fd01697b37c92c78b08124c91449", "type": "electric_scooter", "name": "ab45fd01697b37c92c78b08124c91449"}, {"is_disabled": 0, "is_reserved": 0, "fusion_lat": 0.0, "lat": 38.87358733333333, "fusion_lon": 0.0, "rental_uris": {"ios": "https://dc.lft.to/lastmile_qr_scan", "android": "https://dc.lft.to/lastmile_qr_scan"}, "lon": -77.118699, "bike_id": "ad6789755c1ec0edee633d4b0f12c169", "type": "electric_bike", "name": "ad6789755c1ec0edee633d4b0f12c169"}, {"is_disabled": 0, "is_reserved": 0, "fusion_lat": 0.0, "lat": 38.90925283333333, "fusion_lon": 0.0, "rental_uris": {"ios": "https://dc.lft.to/lastmile_qr_scan", "android": "https://dc.lft.to/lastmile_qr_scan"}, "lon": -76.998998, "bike_id": "e0a99a7cafb069d454cd94d4175a784e", "type": "electric_scooter", "name": "e0a99a7cafb069d454cd94d4175a784e"}, {"is_disabled": 0, "is_reserved": 0, "fusion_lat": 0.0, "lat": 38.9026795, "fusion_lon": 0.0, "rental_uris": {"ios": "https://dc.lft.to/lastmile_qr_scan", "android": "https://dc.lft.to/lastmile_qr_scan"}, "lon": -77.0089715, "bike_id": "9cd1c979adf47cb6f64edea54d0a496e", "type": "electric_scooter", "name": "9cd1c979adf47cb6f64edea54d0a496e"}, {"is_disabled": 0, "is_reserved": 0, "fusion_lat": 0.0, "lat": 38.901907666666666, "fusion_lon": 0.0, "rental_uris": {"ios": "https://dc.lft.to/lastmile_qr_scan", "android": "https://dc.lft.to/lastmile_qr_scan"}, "lon": -77.0021225, "bike_id": "2da00004a247ad2c6b68d0a3922be1ec", "type": "electric_scooter", "name": "2da00004a247ad2c6b68d0a3922be1ec"}, {"is_disabled": 0, "is_reserved": 0, "fusion_lat": 0.0, "lat": 38.93245066666667, "fusion_lon": 0.0, "rental_uris": {"ios": "https://dc.lft.to/lastmile_qr_scan", "android": "https://dc.lft.to/lastmile_qr_scan"}, "lon": -77.0285005, "bike_id": "c5c8116d1cce9ff40c080629ff2d5409", "type": "electric_scooter", "name": "c5c8116d1cce9ff40c080629ff2d5409"}, {"is_disabled": 0, "is_reserved": 0, "fusion_lat": 0.0, "lat": 38.8887155, "fusion_lon": 0.0, "rental_uris": {"ios": "https://dc.lft.to/lastmile_qr_scan", "android": "https://dc.lft.to/lastmile_qr_scan"}, "lon": -76.957029, "bike_id": "9bf40dc75bf4a01fd9d55033a4e01fe5", "type": "electric_bike", "name": "9bf40dc75bf4a01fd9d55033a4e01fe5"}, {"is_disabled": 0, "is_reserved": 0, "fusion_lat": 0.0, "lat": 38.879546500000004, "fusion_lon": 0.0, "rental_uris": {"ios": "https://dc.lft.to/lastmile_qr_scan", "android": "https://dc.lft.to/lastmile_qr_scan"}, "lon": -76.9318635, "bike_id": "3161159b94f8cb3438f001735044e728", "type": "electric_bike", "name": "3161159b94f8cb3438f001735044e728"}, {"is_disabled": 0, "is_reserved": 0, "fusion_lat": 0.0, "lat": 38.903018, "fusion_lon": 0.0, "rental_uris": {"ios": "https://dc.lft.to/lastmile_qr_scan", "android": "https://dc.lft.to/lastmile_qr_scan"}, "lon": -77.03987066666667, "bike_id": "a436a2249155ec5aac4025adc8aaa6fc", "type": "electric_scooter", "name": "a436a2249155ec5aac4025adc8aaa6fc"}, {"is_disabled": 0, "is_reserved": 0, "fusion_lat": 0.0, "lat": 38.926604, "fusion_lon": 0.0, "rental_uris": {"ios": "https://dc.lft.to/lastmile_qr_scan", "android": "https://dc.lft.to/lastmile_qr_scan"}, "lon": -76.992988, "bike_id": "9009fbcc93070d61cad21fbcabbac7bc", "type": "electric_scooter", "name": "9009fbcc93070d61cad21fbcabbac7bc"}, {"is_disabled": 0, "is_reserved": 0, "fusion_lat": 0.0, "lat": 38.8933525, "fusion_lon": 0.0, "rental_uris": {"ios": "https://dc.lft.to/lastmile_qr_scan", "android": "https://dc.lft.to/lastmile_qr_scan"}, "lon": -76.92892183333333, "bike_id": "d1b121a67083d391b811fb6b0a196ec9", "type": "electric_scooter", "name": "d1b121a67083d391b811fb6b0a196ec9"}, {"is_disabled": 0, "is_reserved": 0, "fusion_lat": 0.0, "lat": 38.933676, "fusion_lon": 0.0, "rental_uris": {"ios": "https://dc.lft.to/lastmile_qr_scan", "android": "https://dc.lft.to/lastmile_qr_scan"}, "lon": -77.03895583333333, "bike_id": "829ba712d77843cbb4c9788ae56dc2c9", "type": "electric_scooter", "name": "829ba712d77843cbb4c9788ae56dc2c9"}, {"is_disabled": 0, "is_reserved": 0, "fusion_lat": 0.0, "lat": 38.916819, "fusion_lon": 0.0, "rental_uris": {"ios": "https://dc.lft.to/lastmile_qr_scan", "android": "https://dc.lft.to/lastmile_qr_scan"}, "lon": -77.029649, "bike_id": "11ca195c2f5d99658221a3510f532b78", "type": "electric_scooter", "name": "11ca195c2f5d99658221a3510f532b78"}, {"is_disabled": 0, "is_reserved": 0, "fusion_lat": 0.0, "lat": 38.930049, "fusion_lon": 0.0, "rental_uris": {"ios": "https://dc.lft.to/lastmile_qr_scan", "android": "https://dc.lft.to/lastmile_qr_scan"}, "lon": -77.038035, "bike_id": "0a02ca034107709db7641005ea204aee", "type": "electric_scooter", "name": "0a02ca034107709db7641005ea204aee"}, {"is_disabled": 0, "is_reserved": 0, "fusion_lat": 0.0, "lat": 38.956301833333335, "fusion_lon": 0.0, "rental_uris": {"ios": "https://dc.lft.to/lastmile_qr_scan", "android": "https://dc.lft.to/lastmile_qr_scan"}, "lon": -77.03641983333333, "bike_id": "f047d4ed48ffbf5ca60f6b6369c45c8a", "type": "electric_scooter", "name": "f047d4ed48ffbf5ca60f6b6369c45c8a"}, {"is_disabled": 0, "is_reserved": 0, "fusion_lat": 0.0, "lat": 38.952383, "fusion_lon": 0.0, "rental_uris": {"ios": "https://dc.lft.to/lastmile_qr_scan", "android": "https://dc.lft.to/lastmile_qr_scan"}, "lon": -76.97953466666667, "bike_id": "5b54434248ac4453499470d5d0e40dea", "type": "electric_bike", "name": "5b54434248ac4453499470d5d0e40dea"}, {"is_disabled": 0, "is_reserved": 0, "fusion_lat": 0.0, "lat": 38.93755616666667, "fusion_lon": 0.0, "rental_uris": {"ios": "https://dc.lft.to/lastmile_qr_scan", "android": "https://dc.lft.to/lastmile_qr_scan"}, "lon": -77.03285983333333, "bike_id": "a83582135936c2a6c493aa850b3c6129", "type": "electric_scooter", "name": "a83582135936c2a6c493aa850b3c6129"}, {"is_disabled": 0, "is_reserved": 0, "fusion_lat": 0.0, "lat": 38.91120566666667, "fusion_lon": 0.0, "rental_uris": {"ios": "https://dc.lft.to/lastmile_qr_scan", "android": "https://dc.lft.to/lastmile_qr_scan"}, "lon": -77.01114716666666, "bike_id": "6db91b05a12c75aa11ac47af0c0bbe17", "type": "electric_scooter", "name": "6db91b05a12c75aa11ac47af0c0bbe17"}, {"is_disabled": 0, "is_reserved": 0, "fusion_lat": 0.0, "lat": 38.9232365, "fusion_lon": 0.0, "rental_uris": {"ios": "https://dc.lft.to/lastmile_qr_scan", "android": "https://dc.lft.to/lastmile_qr_scan"}, "lon": -77.04517483333333, "bike_id": "4f8872e85ec035d8df56c1c5b6062159", "type": "electric_scooter", "name": "4f8872e85ec035d8df56c1c5b6062159"}, {"is_disabled": 0, "is_reserved": 0, "fusion_lat": 0.0, "lat": 38.894240833333335, "fusion_lon": 0.0, "rental_uris": {"ios": "https://dc.lft.to/lastmile_qr_scan", "android": "https://dc.lft.to/lastmile_qr_scan"}, "lon": -77.0560045, "bike_id": "70f9458675a20603930a69d1fa5d498e", "type": "electric_scooter", "name": "70f9458675a20603930a69d1fa5d498e"}, {"is_disabled": 0, "is_reserved": 0, "fusion_lat": 0.0, "lat": 38.917101333333335, "fusion_lon": 0.0, "rental_uris": {"ios": "https://dc.lft.to/lastmile_qr_scan", "android": "https://dc.lft.to/lastmile_qr_scan"}, "lon": -77.00514816666667, "bike_id": "4978750f993cac279aa277ae51ffe657", "type": "electric_scooter", "name": "4978750f993cac279aa277ae51ffe657"}, {"is_disabled": 0, "is_reserved": 0, "fusion_lat": 0.0, "lat": 38.917271, "fusion_lon": 0.0, "rental_uris": {"ios": "https://dc.lft.to/lastmile_qr_scan", "android": "https://dc.lft.to/lastmile_qr_scan"}, "lon": -77.02501566666666, "bike_id": "a112d3095e1813d18a8f4c6e35a21518", "type": "electric_scooter", "name": "a112d3095e1813d18a8f4c6e35a21518"}, {"is_disabled": 0, "is_reserved": 0, "fusion_lat": 0.0, "lat": 38.9254225, "fusion_lon": 0.0, "rental_uris": {"ios": "https://dc.lft.to/lastmile_qr_scan", "android": "https://dc.lft.to/lastmile_qr_scan"}, "lon": -77.03236566666666, "bike_id": "3e703f67a088db15bc9e73da58871603", "type": "electric_scooter", "name": "3e703f67a088db15bc9e73da58871603"}, {"is_disabled": 0, "is_reserved": 0, "fusion_lat": 0.0, "lat": 38.91745016666667, "fusion_lon": 0.0, "rental_uris": {"ios": "https://dc.lft.to/lastmile_qr_scan", "android": "https://dc.lft.to/lastmile_qr_scan"}, "lon": -77.02298166666667, "bike_id": "dced0756dc70dd2c528cc03b181d1716", "type": "electric_scooter", "name": "dced0756dc70dd2c528cc03b181d1716"}, {"is_disabled": 0, "is_reserved": 0, "fusion_lat": 0.0, "lat": 38.897019666666665, "fusion_lon": 0.0, "rental_uris": {"ios": "https://dc.lft.to/lastmile_qr_scan", "android": "https://dc.lft.to/lastmile_qr_scan"}, "lon": -77.0435395, "bike_id": "03f86dc17446553463e297986bca3309", "type": "electric_scooter", "name": "03f86dc17446553463e297986bca3309"}, {"is_disabled": 0, "is_reserved": 0, "fusion_lat": 0.0, "lat": 38.90646866666667, "fusion_lon": 0.0, "rental_uris": {"ios": "https://dc.lft.to/lastmile_qr_scan", "android": "https://dc.lft.to/lastmile_qr_scan"}, "lon": -77.06887633333334, "bike_id": "d5f21bbe151fb2f722321b7f9e4a3eb4", "type": "electric_scooter", "name": "d5f21bbe151fb2f722321b7f9e4a3eb4"}, {"is_disabled": 0, "is_reserved": 0, "fusion_lat": 0.0, "lat": 38.914691833333336, "fusion_lon": 0.0, "rental_uris": {"ios": "https://dc.lft.to/lastmile_qr_scan", "android": "https://dc.lft.to/lastmile_qr_scan"}, "lon": -77.03188233333333, "bike_id": "540c65ca4b9d6d3752a21cef22e497b3", "type": "electric_scooter", "name": "540c65ca4b9d6d3752a21cef22e497b3"}, {"is_disabled": 0, "is_reserved": 0, "fusion_lat": 0.0, "lat": 38.92904333333333, "fusion_lon": 0.0, "rental_uris": {"ios": "https://dc.lft.to/lastmile_qr_scan", "android": "https://dc.lft.to/lastmile_qr_scan"}, "lon": -77.05454466666667, "bike_id": "727320b8d682b542e8afc702dbc2bf50", "type": "electric_scooter", "name": "727320b8d682b542e8afc702dbc2bf50"}, {"is_disabled": 0, "is_reserved": 0, "fusion_lat": 0.0, "lat": 38.9297665, "fusion_lon": 0.0, "rental_uris": {"ios": "https://dc.lft.to/lastmile_qr_scan", "android": "https://dc.lft.to/lastmile_qr_scan"}, "lon": -77.03936883333333, "bike_id": "cc6831f0bb32a36bfc0d00c7dbad39b4", "type": "electric_scooter", "name": "cc6831f0bb32a36bfc0d00c7dbad39b4"}, {"is_disabled": 0, "is_reserved": 0, "fusion_lat": 0.0, "lat": 38.87893283333333, "fusion_lon": 0.0, "rental_uris": {"ios": "https://dc.lft.to/lastmile_qr_scan", "android": "https://dc.lft.to/lastmile_qr_scan"}, "lon": -76.9353165, "bike_id": "cf685f81f244a66d92e7abd7820db287", "type": "electric_scooter", "name": "cf685f81f244a66d92e7abd7820db287"}, {"is_disabled": 0, "is_reserved": 0, "fusion_lat": 0.0, "lat": 38.9367695, "fusion_lon": 0.0, "rental_uris": {"ios": "https://dc.lft.to/lastmile_qr_scan", "android": "https://dc.lft.to/lastmile_qr_scan"}, "lon": -77.03594266666667, "bike_id": "24f228077a52e9b0ac840da18468177b", "type": "electric_scooter", "name": "24f228077a52e9b0ac840da18468177b"}, {"is_disabled": 0, "is_reserved": 0, "fusion_lat": 0.0, "lat": 38.933354, "fusion_lon": 0.0, "rental_uris": {"ios": "https://dc.lft.to/lastmile_qr_scan", "android": "https://dc.lft.to/lastmile_qr_scan"}, "lon": -77.03989416666667, "bike_id": "dc6ff367ad50d3886eec7262b061f5d3", "type": "electric_bike", "name": "dc6ff367ad50d3886eec7262b061f5d3"}, {"is_disabled": 0, "is_reserved": 0, "fusion_lat": 0.0, "lat": 38.906012, "fusion_lon": 0.0, "rental_uris": {"ios": "https://dc.lft.to/lastmile_qr_scan", "android": "https://dc.lft.to/lastmile_qr_scan"}, "lon": -77.041422, "bike_id": "c9344be46d1e98f243cfc21ea787814f", "type": "electric_scooter", "name": "c9344be46d1e98f243cfc21ea787814f"}, {"is_disabled": 0, "is_reserved": 0, "fusion_lat": 0.0, "lat": 38.805224, "fusion_lon": 0.0, "rental_uris": {"ios": "https://dc.lft.to/lastmile_qr_scan", "android": "https://dc.lft.to/lastmile_qr_scan"}, "lon": -77.04337916666667, "bike_id": "6e03563296dc3c53fa56fe1f244a8a98", "type": "electric_bike", "name": "6e03563296dc3c53fa56fe1f244a8a98"}, {"is_disabled": 0, "is_reserved": 0, "fusion_lat": 0.0, "lat": 38.89518433333333, "fusion_lon": 0.0, "rental_uris": {"ios": "https://dc.lft.to/lastmile_qr_scan", "android": "https://dc.lft.to/lastmile_qr_scan"}, "lon": -77.02285333333333, "bike_id": "ec915d03cf8d63e63a3b69e3dd901061", "type": "electric_scooter", "name": "ec915d03cf8d63e63a3b69e3dd901061"}, {"is_disabled": 0, "is_reserved": 0, "fusion_lat": 0.0, "lat": 38.8974075, "fusion_lon": 0.0, "rental_uris": {"ios": "https://dc.lft.to/lastmile_qr_scan", "android": "https://dc.lft.to/lastmile_qr_scan"}, "lon": -77.017587, "bike_id": "f0b42d30c550c0a4e07464813d2b8e56", "type": "electric_scooter", "name": "f0b42d30c550c0a4e07464813d2b8e56"}, {"is_disabled": 0, "is_reserved": 0, "fusion_lat": 0.0, "lat": 38.864952833333334, "fusion_lon": 0.0, "rental_uris": {"ios": "https://dc.lft.to/lastmile_qr_scan", "android": "https://dc.lft.to/lastmile_qr_scan"}, "lon": -76.9698695, "bike_id": "97d394c225cb75228899908f2dfa3b7c", "type": "electric_bike", "name": "97d394c225cb75228899908f2dfa3b7c"}, {"is_disabled": 0, "is_reserved": 0, "fusion_lat": 0.0, "lat": 38.92653, "fusion_lon": 0.0, "rental_uris": {"ios": "https://dc.lft.to/lastmile_qr_scan", "android": "https://dc.lft.to/lastmile_qr_scan"}, "lon": -77.0330675, "bike_id": "5c6e84bb0dc1376f28372798df0401c0", "type": "electric_scooter", "name": "5c6e84bb0dc1376f28372798df0401c0"}, {"is_disabled": 0, "is_reserved": 0, "fusion_lat": 0.0, "lat": 38.899517833333334, "fusion_lon": 0.0, "rental_uris": {"ios": "https://dc.lft.to/lastmile_qr_scan", "android": "https://dc.lft.to/lastmile_qr_scan"}, "lon": -77.0475905, "bike_id": "8c302371c4103013620cbeca157f1400", "type": "electric_scooter", "name": "8c302371c4103013620cbeca157f1400"}, {"is_disabled": 0, "is_reserved": 0, "fusion_lat": 0.0, "lat": 38.89881866666666, "fusion_lon": 0.0, "rental_uris": {"ios": "https://dc.lft.to/lastmile_qr_scan", "android": "https://dc.lft.to/lastmile_qr_scan"}, "lon": -76.93177966666667, "bike_id": "088b6b0a4e9a4c61c098f7864c5a69f2", "type": "electric_scooter", "name": "088b6b0a4e9a4c61c098f7864c5a69f2"}, {"is_disabled": 0, "is_reserved": 0, "fusion_lat": 0.0, "lat": 38.90466383333333, "fusion_lon": 0.0, "rental_uris": {"ios": "https://dc.lft.to/lastmile_qr_scan", "android": "https://dc.lft.to/lastmile_qr_scan"}, "lon": -77.03886366666667, "bike_id": "1959bdb35d701ebe401dbc6c67adab5d", "type": "electric_scooter", "name": "1959bdb35d701ebe401dbc6c67adab5d"}, {"is_disabled": 0, "is_reserved": 0, "fusion_lat": 0.0, "lat": 38.880136666666665, "fusion_lon": 0.0, "rental_uris": {"ios": "https://dc.lft.to/lastmile_qr_scan", "android": "https://dc.lft.to/lastmile_qr_scan"}, "lon": -76.9973925, "bike_id": "f86afeb59a948ab152daf83c61f04ab0", "type": "electric_scooter", "name": "f86afeb59a948ab152daf83c61f04ab0"}, {"is_disabled": 0, "is_reserved": 0, "fusion_lat": 0.0, "lat": 38.92723183333333, "fusion_lon": 0.0, "rental_uris": {"ios": "https://dc.lft.to/lastmile_qr_scan", "android": "https://dc.lft.to/lastmile_qr_scan"}, "lon": -77.05137666666667, "bike_id": "bd96c7db248ed167a3f164f120c9b6b7", "type": "electric_scooter", "name": "bd96c7db248ed167a3f164f120c9b6b7"}, {"is_disabled": 0, "is_reserved": 0, "fusion_lat": 0.0, "lat": 38.863701666666664, "fusion_lon": 0.0, "rental_uris": {"ios": "https://dc.lft.to/lastmile_qr_scan", "android": "https://dc.lft.to/lastmile_qr_scan"}, "lon": -77.01366366666667, "bike_id": "59623b8cb2844c7253b9e31aaa060cac", "type": "electric_scooter", "name": "59623b8cb2844c7253b9e31aaa060cac"}, {"is_disabled": 0, "is_reserved": 0, "fusion_lat": 0.0, "lat": 38.9117595, "fusion_lon": 0.0, "rental_uris": {"ios": "https://dc.lft.to/lastmile_qr_scan", "android": "https://dc.lft.to/lastmile_qr_scan"}, "lon": -77.06862616666666, "bike_id": "5fe7efa4f2e00194e7b691f35db502c0", "type": "electric_scooter", "name": "5fe7efa4f2e00194e7b691f35db502c0"}, {"is_disabled": 0, "is_reserved": 0, "fusion_lat": 0.0, "lat": 38.9593275, "fusion_lon": 0.0, "rental_uris": {"ios": "https://dc.lft.to/lastmile_qr_scan", "android": "https://dc.lft.to/lastmile_qr_scan"}, "lon": -76.92516766666667, "bike_id": "32ad3a895368097dded1c53c4c9ff954", "type": "electric_bike", "name": "32ad3a895368097dded1c53c4c9ff954"}, {"is_disabled": 0, "is_reserved": 0, "fusion_lat": 0.0, "lat": 38.918238333333335, "fusion_lon": 0.0, "rental_uris": {"ios": "https://dc.lft.to/lastmile_qr_scan", "android": "https://dc.lft.to/lastmile_qr_scan"}, "lon": -77.0121105, "bike_id": "1f2074df97a2a5dc735fd92b95e16f2d", "type": "electric_scooter", "name": "1f2074df97a2a5dc735fd92b95e16f2d"}, {"is_disabled": 0, "is_reserved": 0, "fusion_lat": 0.0, "lat": 38.910544, "fusion_lon": 0.0, "rental_uris": {"ios": "https://dc.lft.to/lastmile_qr_scan", "android": "https://dc.lft.to/lastmile_qr_scan"}, "lon": -77.06088966666667, "bike_id": "2d16e5c73daec8ca2b8cf490f8538a61", "type": "electric_scooter", "name": "2d16e5c73daec8ca2b8cf490f8538a61"}, {"is_disabled": 0, "is_reserved": 0, "fusion_lat": 0.0, "lat": 38.89246383333333, "fusion_lon": 0.0, "rental_uris": {"ios": "https://dc.lft.to/lastmile_qr_scan", "android": "https://dc.lft.to/lastmile_qr_scan"}, "lon": -77.03957966666667, "bike_id": "5a6f2f0f2a5a8992f945598e99e321f4", "type": "electric_scooter", "name": "5a6f2f0f2a5a8992f945598e99e321f4"}, {"is_disabled": 0, "is_reserved": 0, "fusion_lat": 0.0, "lat": 38.9002775, "fusion_lon": 0.0, "rental_uris": {"ios": "https://dc.lft.to/lastmile_qr_scan", "android": "https://dc.lft.to/lastmile_qr_scan"}, "lon": -76.99227066666667, "bike_id": "933634549cf36b9d9cb284d2d327749f", "type": "electric_scooter", "name": "933634549cf36b9d9cb284d2d327749f"}, {"is_disabled": 0, "is_reserved": 0, "fusion_lat": 0.0, "lat": 38.90963, "fusion_lon": 0.0, "rental_uris": {"ios": "https://dc.lft.to/lastmile_qr_scan", "android": "https://dc.lft.to/lastmile_qr_scan"}, "lon": -77.045678, "bike_id": "76e14ebf3bfa075df9cf324caecaa10a", "type": "electric_scooter", "name": "76e14ebf3bfa075df9cf324caecaa10a"}, {"is_disabled": 0, "is_reserved": 0, "fusion_lat": 0.0, "lat": 38.90655683333333, "fusion_lon": 0.0, "rental_uris": {"ios": "https://dc.lft.to/lastmile_qr_scan", "android": "https://dc.lft.to/lastmile_qr_scan"}, "lon": -77.045531, "bike_id": "34ce1c6e62810c2f57576d0f00bedc4c", "type": "electric_scooter", "name": "34ce1c6e62810c2f57576d0f00bedc4c"}, {"is_disabled": 0, "is_reserved": 0, "fusion_lat": 0.0, "lat": 38.912600833333336, "fusion_lon": 0.0, "rental_uris": {"ios": "https://dc.lft.to/lastmile_qr_scan", "android": "https://dc.lft.to/lastmile_qr_scan"}, "lon": -77.04600133333334, "bike_id": "dc2463fbb7f7095c5ca575681b475325", "type": "electric_scooter", "name": "dc2463fbb7f7095c5ca575681b475325"}, {"is_disabled": 0, "is_reserved": 0, "fusion_lat": 0.0, "lat": 38.946333833333334, "fusion_lon": 0.0, "rental_uris": {"ios": "https://dc.lft.to/lastmile_qr_scan", "android": "https://dc.lft.to/lastmile_qr_scan"}, "lon": -77.01844083333333, "bike_id": "b195697fcae8f41c491eb9b93bb2879f", "type": "electric_scooter", "name": "b195697fcae8f41c491eb9b93bb2879f"}, {"is_disabled": 0, "is_reserved": 0, "fusion_lat": 0.0, "lat": 38.8067615, "fusion_lon": 0.0, "rental_uris": {"ios": "https://dc.lft.to/lastmile_qr_scan", "android": "https://dc.lft.to/lastmile_qr_scan"}, "lon": -77.0691855, "bike_id": "233d0b436c341f5123c2aab8294b44bb", "type": "electric_bike", "name": "233d0b436c341f5123c2aab8294b44bb"}, {"is_disabled": 0, "is_reserved": 0, "fusion_lat": 0.0, "lat": 38.84279633333333, "fusion_lon": 0.0, "rental_uris": {"ios": "https://dc.lft.to/lastmile_qr_scan", "android": "https://dc.lft.to/lastmile_qr_scan"}, "lon": -76.98840183333333, "bike_id": "b1d30886ba5b4473a040d793c9e37074", "type": "electric_bike", "name": "b1d30886ba5b4473a040d793c9e37074"}, {"is_disabled": 0, "is_reserved": 0, "fusion_lat": 0.0, "lat": 38.902924666666664, "fusion_lon": 0.0, "rental_uris": {"ios": "https://dc.lft.to/lastmile_qr_scan", "android": "https://dc.lft.to/lastmile_qr_scan"}, "lon": -77.0121635, "bike_id": "9bf1c53ef046d9ada7cfc3f7963049a6", "type": "electric_scooter", "name": "9bf1c53ef046d9ada7cfc3f7963049a6"}, {"is_disabled": 0, "is_reserved": 0, "fusion_lat": 0.0, "lat": 38.923823, "fusion_lon": 0.0, "rental_uris": {"ios": "https://dc.lft.to/lastmile_qr_scan", "android": "https://dc.lft.to/lastmile_qr_scan"}, "lon": -77.04022316666666, "bike_id": "48d34f02dc074529f85552be8243bcd2", "type": "electric_scooter", "name": "48d34f02dc074529f85552be8243bcd2"}, {"is_disabled": 0, "is_reserved": 0, "fusion_lat": 0.0, "lat": 38.945860333333336, "fusion_lon": 0.0, "rental_uris": {"ios": "https://dc.lft.to/lastmile_qr_scan", "android": "https://dc.lft.to/lastmile_qr_scan"}, "lon": -77.02040383333333, "bike_id": "e8081329ef72caaaffcc2b2fe330e7fc", "type": "electric_scooter", "name": "e8081329ef72caaaffcc2b2fe330e7fc"}, {"is_disabled": 0, "is_reserved": 0, "fusion_lat": 0.0, "lat": 38.8857655, "fusion_lon": 0.0, "rental_uris": {"ios": "https://dc.lft.to/lastmile_qr_scan", "android": "https://dc.lft.to/lastmile_qr_scan"}, "lon": -77.02011316666666, "bike_id": "839a7333b9fb92a49fb4ea98ee4be966", "type": "electric_scooter", "name": "839a7333b9fb92a49fb4ea98ee4be966"}, {"is_disabled": 0, "is_reserved": 0, "fusion_lat": 0.0, "lat": 38.934258, "fusion_lon": 0.0, "rental_uris": {"ios": "https://dc.lft.to/lastmile_qr_scan", "android": "https://dc.lft.to/lastmile_qr_scan"}, "lon": -77.04316866666667, "bike_id": "0f456f30c03454ec5ee40bec98f7b416", "type": "electric_scooter", "name": "0f456f30c03454ec5ee40bec98f7b416"}, {"is_disabled": 0, "is_reserved": 0, "fusion_lat": 0.0, "lat": 38.9104765, "fusion_lon": 0.0, "rental_uris": {"ios": "https://dc.lft.to/lastmile_qr_scan", "android": "https://dc.lft.to/lastmile_qr_scan"}, "lon": -77.01512016666666, "bike_id": "ca66e4b3b4fc2134e026e15531ac78ca", "type": "electric_scooter", "name": "ca66e4b3b4fc2134e026e15531ac78ca"}, {"is_disabled": 0, "is_reserved": 0, "fusion_lat": 0.0, "lat": 38.91339933333333, "fusion_lon": 0.0, "rental_uris": {"ios": "https://dc.lft.to/lastmile_qr_scan", "android": "https://dc.lft.to/lastmile_qr_scan"}, "lon": -77.0162575, "bike_id": "ff984793a591e931e111987cc6631975", "type": "electric_scooter", "name": "ff984793a591e931e111987cc6631975"}, {"is_disabled": 0, "is_reserved": 0, "fusion_lat": 0.0, "lat": 38.8942785, "fusion_lon": 0.0, "rental_uris": {"ios": "https://dc.lft.to/lastmile_qr_scan", "android": "https://dc.lft.to/lastmile_qr_scan"}, "lon": -77.01086833333333, "bike_id": "abb0574ea8ab5cf61b3bb1184bcc75ea", "type": "electric_scooter", "name": "abb0574ea8ab5cf61b3bb1184bcc75ea"}, {"is_disabled": 0, "is_reserved": 0, "fusion_lat": 0.0, "lat": 38.922120166666666, "fusion_lon": 0.0, "rental_uris": {"ios": "https://dc.lft.to/lastmile_qr_scan", "android": "https://dc.lft.to/lastmile_qr_scan"}, "lon": -77.08199616666667, "bike_id": "cd3c7b27137f5cd8847272d4d92dcde3", "type": "electric_bike", "name": "cd3c7b27137f5cd8847272d4d92dcde3"}, {"is_disabled": 0, "is_reserved": 0, "fusion_lat": 0.0, "lat": 38.95682216666667, "fusion_lon": 0.0, "rental_uris": {"ios": "https://dc.lft.to/lastmile_qr_scan", "android": "https://dc.lft.to/lastmile_qr_scan"}, "lon": -77.02236583333334, "bike_id": "7d7dfa9c9a9002a572e67f2454b56052", "type": "electric_scooter", "name": "7d7dfa9c9a9002a572e67f2454b56052"}, {"is_disabled": 0, "is_reserved": 0, "fusion_lat": 0.0, "lat": 38.95750783333333, "fusion_lon": 0.0, "rental_uris": {"ios": "https://dc.lft.to/lastmile_qr_scan", "android": "https://dc.lft.to/lastmile_qr_scan"}, "lon": -77.02212716666666, "bike_id": "fcfc8624ea4038da8ab7bd8258448432", "type": "electric_scooter", "name": "fcfc8624ea4038da8ab7bd8258448432"}, {"is_disabled": 0, "is_reserved": 0, "fusion_lat": 0.0, "lat": 38.896228666666666, "fusion_lon": 0.0, "rental_uris": {"ios": "https://dc.lft.to/lastmile_qr_scan", "android": "https://dc.lft.to/lastmile_qr_scan"}, "lon": -76.90751033333333, "bike_id": "b044081ff4b03cddce103055be130324", "type": "electric_bike", "name": "b044081ff4b03cddce103055be130324"}, {"is_disabled": 0, "is_reserved": 0, "fusion_lat": 0.0, "lat": 38.92406316666667, "fusion_lon": 0.0, "rental_uris": {"ios": "https://dc.lft.to/lastmile_qr_scan", "android": "https://dc.lft.to/lastmile_qr_scan"}, "lon": -77.02000333333334, "bike_id": "f88e836279664c380c5871d2f86c2b7c", "type": "electric_scooter", "name": "f88e836279664c380c5871d2f86c2b7c"}, {"is_disabled": 0, "is_reserved": 0, "fusion_lat": 0.0, "lat": 38.9229415, "fusion_lon": 0.0, "rental_uris": {"ios": "https://dc.lft.to/lastmile_qr_scan", "android": "https://dc.lft.to/lastmile_qr_scan"}, "lon": -77.029882, "bike_id": "46f42b7435fe2cc2f52dd7dc8256c149", "type": "electric_scooter", "name": "46f42b7435fe2cc2f52dd7dc8256c149"}, {"is_disabled": 0, "is_reserved": 0, "fusion_lat": 0.0, "lat": 38.874946666666666, "fusion_lon": 0.0, "rental_uris": {"ios": "https://dc.lft.to/lastmile_qr_scan", "android": "https://dc.lft.to/lastmile_qr_scan"}, "lon": -77.00085583333333, "bike_id": "3fc1584fd6a8be40d8580b7a7350ca07", "type": "electric_scooter", "name": "3fc1584fd6a8be40d8580b7a7350ca07"}, {"is_disabled": 0, "is_reserved": 0, "fusion_lat": 0.0, "lat": 38.8854185, "fusion_lon": 0.0, "rental_uris": {"ios": "https://dc.lft.to/lastmile_qr_scan", "android": "https://dc.lft.to/lastmile_qr_scan"},