{"data": {"bikes": [{"rental_uris": {"ios": "https://dc.lft.to/lastmile_qr_scan", "android": "https://dc.lft.to/lastmile_qr_scan"}, "lat": 38.929205833333334, "bike_id": "d0cf3d7f3e986f3b1b15b62fd310c722", "lon": -77.0324195, "type": "electric_scooter", "fusion_lon": 0.0, "fusion_lat": 0.0, "is_reserved": 0, "name": "d0cf3d7f3e986f3b1b15b62fd310c722", "is_disabled": 0}, {"rental_uris": {"ios": "https://dc.lft.to/lastmile_qr_scan", "android": "https://dc.lft.to/lastmile_qr_scan"}, "lat": 38.91827416666667, "bike_id": "bd425a192d4ffdfcf02840c9d9f856be", "lon": -77.0493785, "type": "electric_scooter", "fusion_lon": 0.0, "fusion_lat": 0.0, "is_reserved": 0, "name": "bd425a192d4ffdfcf02840c9d9f856be", "is_disabled": 0}, {"rental_uris": {"ios": "https://dc.lft.to/lastmile_qr_scan", "android": "https://dc.lft.to/lastmile_qr_scan"}, "lat": 38.91847383333333, "bike_id": "1b81f4644d7949764d3d872b7887cc45", "lon": -76.96539583333333, "type": "electric_scooter", "fusion_lon": 0.0, "fusion_lat": 0.0, "is_reserved": 0, "name": "1b81f4644d7949764d3d872b7887cc45", "is_disabled": 0}, {"rental_uris": {"ios": "https://dc.lft.to/lastmile_qr_scan", "android": "https://dc.lft.to/lastmile_qr_scan"}, "lat": 38.895000333333336, "bike_id": "99c29c3774b5667fc2f8559756aa8c6f", "lon": -77.02303083333334, "type": "electric_scooter", "fusion_lon": 0.0, "fusion_lat": 0.0, "is_reserved": 0, "name": "99c29c3774b5667fc2f8559756aa8c6f", "is_disabled": 0}, {"rental_uris": {"ios": "https://dc.lft.to/lastmile_qr_scan", "android": "https://dc.lft.to/lastmile_qr_scan"}, "lat": 38.875739833333334, "bike_id": "309be9f94aa8d6f619f4add18d20d206", "lon": -77.00599366666667, "type": "electric_scooter", "fusion_lon": 0.0, "fusion_lat": 0.0, "is_reserved": 0, "name": "309be9f94aa8d6f619f4add18d20d206", "is_disabled": 0}, {"rental_uris": {"ios": "https://dc.lft.to/lastmile_qr_scan", "android": "https://dc.lft.to/lastmile_qr_scan"}, "lat": 38.874665666666665, "bike_id": "8569f9c5093c9d4f14d8f0951cb683d7", "lon": -77.00486333333333, "type": "electric_scooter", "fusion_lon": 0.0, "fusion_lat": 0.0, "is_reserved": 0, "name": "8569f9c5093c9d4f14d8f0951cb683d7", "is_disabled": 0}, {"rental_uris": {"ios": "https://dc.lft.to/lastmile_qr_scan", "android": "https://dc.lft.to/lastmile_qr_scan"}, "lat": 38.8687585, "bike_id": "be8469772187a7f7156163f773103ea5", "lon": -76.95777883333334, "type": "electric_bike", "fusion_lon": 0.0, "fusion_lat": 0.0, "is_reserved": 0, "name": "be8469772187a7f7156163f773103ea5", "is_disabled": 0}, {"rental_uris": {"ios": "https://dc.lft.to/lastmile_qr_scan", "android": "https://dc.lft.to/lastmile_qr_scan"}, "lat": 38.90510733333333, "bike_id": "4bc07d81903b24a67cfe33909b2dcdc4", "lon": -77.04330266666666, "type": "electric_scooter", "fusion_lon": 0.0, "fusion_lat": 0.0, "is_reserved": 0, "name": "4bc07d81903b24a67cfe33909b2dcdc4", "is_disabled": 0}, {"rental_uris": {"ios": "https://dc.lft.to/lastmile_qr_scan", "android": "https://dc.lft.to/lastmile_qr_scan"}, "lat": 38.88740966666667, "bike_id": "aa2e0bdcd57e7e61dcb976cea35c098c", "lon": -77.01530033333333, "type": "electric_scooter", "fusion_lon": 0.0, "fusion_lat": 0.0, "is_reserved": 0, "name": "aa2e0bdcd57e7e61dcb976cea35c098c", "is_disabled": 0}, {"rental_uris": {"ios": "https://dc.lft.to/lastmile_qr_scan", "android": "https://dc.lft.to/lastmile_qr_scan"}, "lat": 38.914016333333336, "bike_id": "6a313ec1a770896e0dd7069e152afcb2", "lon": -77.02406016666667, "type": "electric_scooter", "fusion_lon": 0.0, "fusion_lat": 0.0, "is_reserved": 0, "name": "6a313ec1a770896e0dd7069e152afcb2", "is_disabled": 0}, {"rental_uris": {"ios": "https://dc.lft.to/lastmile_qr_scan", "android": "https://dc.lft.to/lastmile_qr_scan"}, "lat": 38.925324333333336, "bike_id": "db132ba7de7b908fa9cdd02c6d981574", "lon": -77.077173, "type": "electric_scooter", "fusion_lon": 0.0, "fusion_lat": 0.0, "is_reserved": 0, "name": "db132ba7de7b908fa9cdd02c6d981574", "is_disabled": 0}, {"rental_uris": {"ios": "https://dc.lft.to/lastmile_qr_scan", "android": "https://dc.lft.to/lastmile_qr_scan"}, "lat": 38.91500333333333, "bike_id": "b04709386b5012c9938827a3bfc5776b", "lon": -77.04496083333333, "type": "electric_scooter", "fusion_lon": 0.0, "fusion_lat": 0.0, "is_reserved": 0, "name": "b04709386b5012c9938827a3bfc5776b", "is_disabled": 0}, {"rental_uris": {"ios": "https://dc.lft.to/lastmile_qr_scan", "android": "https://dc.lft.to/lastmile_qr_scan"}, "lat": 38.904535333333335, "bike_id": "2d8ae37e4259dc9aaa6b3d690cbcb22f", "lon": -77.0345955, "type": "electric_scooter", "fusion_lon": 0.0, "fusion_lat": 0.0, "is_reserved": 0, "name": "2d8ae37e4259dc9aaa6b3d690cbcb22f", "is_disabled": 0}, {"rental_uris": {"ios": "https://dc.lft.to/lastmile_qr_scan", "android": "https://dc.lft.to/lastmile_qr_scan"}, "lat": 38.93341733333333, "bike_id": "28d1d6cc4492760b4abbe6708ff35ba4", "lon": -77.02056166666667, "type": "electric_scooter", "fusion_lon": 0.0, "fusion_lat": 0.0, "is_reserved": 0, "name": "28d1d6cc4492760b4abbe6708ff35ba4", "is_disabled": 0}, {"rental_uris": {"ios": "https://dc.lft.to/lastmile_qr_scan", "android": "https://dc.lft.to/lastmile_qr_scan"}, "lat": 38.902696, "bike_id": "dd02cea78d7f0c57363ccfc654f5a372", "lon": -77.03866116666667, "type": "electric_scooter", "fusion_lon": 0.0, "fusion_lat": 0.0, "is_reserved": 0, "name": "dd02cea78d7f0c57363ccfc654f5a372", "is_disabled": 0}, {"rental_uris": {"ios": "https://dc.lft.to/lastmile_qr_scan", "android": "https://dc.lft.to/lastmile_qr_scan"}, "lat": 39.05252733333333, "bike_id": "a9f5c524ab2c4171f0ddb31c1343fe88", "lon": -77.080653, "type": "electric_bike", "fusion_lon": 0.0, "fusion_lat": 0.0, "is_reserved": 0, "name": "a9f5c524ab2c4171f0ddb31c1343fe88", "is_disabled": 0}, {"rental_uris": {"ios": "https://dc.lft.to/lastmile_qr_scan", "android": "https://dc.lft.to/lastmile_qr_scan"}, "lat": 38.89742666666667, "bike_id": "55137fb1d6ceb84c4e242939d5f48593", "lon": -77.04692583333333, "type": "electric_scooter", "fusion_lon": 0.0, "fusion_lat": 0.0, "is_reserved": 0, "name": "55137fb1d6ceb84c4e242939d5f48593", "is_disabled": 0}, {"rental_uris": {"ios": "https://dc.lft.to/lastmile_qr_scan", "android": "https://dc.lft.to/lastmile_qr_scan"}, "lat": 38.873599, "bike_id": "759856c88979a183548690189edab6f0", "lon": -76.97024433333333, "type": "electric_scooter", "fusion_lon": 0.0, "fusion_lat": 0.0, "is_reserved": 0, "name": "759856c88979a183548690189edab6f0", "is_disabled": 0}, {"rental_uris": {"ios": "https://dc.lft.to/lastmile_qr_scan", "android": "https://dc.lft.to/lastmile_qr_scan"}, "lat": 38.89980533333333, "bike_id": "624988819476b8e56755c318025aeb85", "lon": -77.02801733333334, "type": "electric_scooter", "fusion_lon": 0.0, "fusion_lat": 0.0, "is_reserved": 0, "name": "624988819476b8e56755c318025aeb85", "is_disabled": 0}, {"rental_uris": {"ios": "https://dc.lft.to/lastmile_qr_scan", "android": "https://dc.lft.to/lastmile_qr_scan"}, "lat": 38.928690833333334, "bike_id": "2c042b7ee32c83298a8934368cd2c4c8", "lon": -77.03099383333333, "type": "electric_scooter", "fusion_lon": 0.0, "fusion_lat": 0.0, "is_reserved": 0, "name": "2c042b7ee32c83298a8934368cd2c4c8", "is_disabled": 0}, {"rental_uris": {"ios": "https://dc.lft.to/lastmile_qr_scan", "android": "https://dc.lft.to/lastmile_qr_scan"}, "lat": 38.87475766666667, "bike_id": "1257a675681b45001e83b827e6294f37", "lon": -77.012068, "type": "electric_scooter", "fusion_lon": 0.0, "fusion_lat": 0.0, "is_reserved": 0, "name": "1257a675681b45001e83b827e6294f37", "is_disabled": 0}, {"rental_uris": {"ios": "https://dc.lft.to/lastmile_qr_scan", "android": "https://dc.lft.to/lastmile_qr_scan"}, "lat": 38.8952405, "bike_id": "e21ce98b746e334c3b205ecfddcb358c", "lon": -77.02202, "type": "electric_scooter", "fusion_lon": 0.0, "fusion_lat": 0.0, "is_reserved": 0, "name": "e21ce98b746e334c3b205ecfddcb358c", "is_disabled": 0}, {"rental_uris": {"ios": "https://dc.lft.to/lastmile_qr_scan", "android": "https://dc.lft.to/lastmile_qr_scan"}, "lat": 38.92418333333333, "bike_id": "f82340f3c241e05fa0e82a0b2a52daa8", "lon": -77.0194385, "type": "electric_scooter", "fusion_lon": 0.0, "fusion_lat": 0.0, "is_reserved": 0, "name": "f82340f3c241e05fa0e82a0b2a52daa8", "is_disabled": 0}, {"rental_uris": {"ios": "https://dc.lft.to/lastmile_qr_scan", "android": "https://dc.lft.to/lastmile_qr_scan"}, "lat": 38.92131966666667, "bike_id": "c9966080c71fafa91d4395fe3d58cba3", "lon": -77.0442955, "type": "electric_scooter", "fusion_lon": 0.0, "fusion_lat": 0.0, "is_reserved": 0, "name": "c9966080c71fafa91d4395fe3d58cba3", "is_disabled": 0}, {"rental_uris": {"ios": "https://dc.lft.to/lastmile_qr_scan", "android": "https://dc.lft.to/lastmile_qr_scan"}, "lat": 38.92184666666667, "bike_id": "7f73b2f367c8b0eb9984784496d06abc", "lon": -77.04229816666667, "type": "electric_scooter", "fusion_lon": 0.0, "fusion_lat": 0.0, "is_reserved": 0, "name": "7f73b2f367c8b0eb9984784496d06abc", "is_disabled": 0}, {"rental_uris": {"ios": "https://dc.lft.to/lastmile_qr_scan", "android": "https://dc.lft.to/lastmile_qr_scan"}, "lat": 38.876710333333335, "bike_id": "7c9a06f3f679d1f06cc418823e87f900", "lon": -77.00819566666667, "type": "electric_scooter", "fusion_lon": 0.0, "fusion_lat": 0.0, "is_reserved": 0, "name": "7c9a06f3f679d1f06cc418823e87f900", "is_disabled": 0}, {"rental_uris": {"ios": "https://dc.lft.to/lastmile_qr_scan", "android": "https://dc.lft.to/lastmile_qr_scan"}, "lat": 38.903819666666664, "bike_id": "75cdd9d2ad94d650d3366cca4cefa813", "lon": -77.04684566666667, "type": "electric_scooter", "fusion_lon": 0.0, "fusion_lat": 0.0, "is_reserved": 0, "name": "75cdd9d2ad94d650d3366cca4cefa813", "is_disabled": 0}, {"rental_uris": {"ios": "https://dc.lft.to/lastmile_qr_scan", "android": "https://dc.lft.to/lastmile_qr_scan"}, "lat": 38.928777333333336, "bike_id": "6c7715008e8e27344bc63a00028c4dce", "lon": -77.03732816666667, "type": "electric_scooter", "fusion_lon": 0.0, "fusion_lat": 0.0, "is_reserved": 0, "name": "6c7715008e8e27344bc63a00028c4dce", "is_disabled": 0}, {"rental_uris": {"ios": "https://dc.lft.to/lastmile_qr_scan", "android": "https://dc.lft.to/lastmile_qr_scan"}, "lat": 38.91728616666666, "bike_id": "c52daada451c6aac141f48f2415bc8df", "lon": -77.01890283333333, "type": "electric_scooter", "fusion_lon": 0.0, "fusion_lat": 0.0, "is_reserved": 0, "name": "c52daada451c6aac141f48f2415bc8df", "is_disabled": 0}, {"rental_uris": {"ios": "https://dc.lft.to/lastmile_qr_scan", "android": "https://dc.lft.to/lastmile_qr_scan"}, "lat": 38.921128, "bike_id": "a4843cad10223b578f8d8b8df03467c5", "lon": -77.0632805, "type": "electric_scooter", "fusion_lon": 0.0, "fusion_lat": 0.0, "is_reserved": 0, "name": "a4843cad10223b578f8d8b8df03467c5", "is_disabled": 0}, {"rental_uris": {"ios": "https://dc.lft.to/lastmile_qr_scan", "android": "https://dc.lft.to/lastmile_qr_scan"}, "lat": 38.911295333333335, "bike_id": "1e3fe9805f1b937fb95f7acb568292ed", "lon": -77.0219485, "type": "electric_scooter", "fusion_lon": 0.0, "fusion_lat": 0.0, "is_reserved": 0, "name": "1e3fe9805f1b937fb95f7acb568292ed", "is_disabled": 0}, {"rental_uris": {"ios": "https://dc.lft.to/lastmile_qr_scan", "android": "https://dc.lft.to/lastmile_qr_scan"}, "lat": 38.925517166666666, "bike_id": "a4f0ac994820c41a790ba095eb83c726", "lon": -77.04268733333333, "type": "electric_scooter", "fusion_lon": 0.0, "fusion_lat": 0.0, "is_reserved": 0, "name": "a4f0ac994820c41a790ba095eb83c726", "is_disabled": 0}, {"rental_uris": {"ios": "https://dc.lft.to/lastmile_qr_scan", "android": "https://dc.lft.to/lastmile_qr_scan"}, "lat": 38.90518383333333, "bike_id": "b1c9bb0b85a6c7f5215f4d5ad3d91f99", "lon": -77.0418765, "type": "electric_scooter", "fusion_lon": 0.0, "fusion_lat": 0.0, "is_reserved": 0, "name": "b1c9bb0b85a6c7f5215f4d5ad3d91f99", "is_disabled": 0}, {"rental_uris": {"ios": "https://dc.lft.to/lastmile_qr_scan", "android": "https://dc.lft.to/lastmile_qr_scan"}, "lat": 38.9347845, "bike_id": "ec0dafc490b109d147d45ec5084ea51c", "lon": -77.07275266666667, "type": "electric_scooter", "fusion_lon": 0.0, "fusion_lat": 0.0, "is_reserved": 0, "name": "ec0dafc490b109d147d45ec5084ea51c", "is_disabled": 0}, {"rental_uris": {"ios": "https://dc.lft.to/lastmile_qr_scan", "android": "https://dc.lft.to/lastmile_qr_scan"}, "lat": 38.90371616666667, "bike_id": "c5cd9526118d4c3ca77a02968a37fec2", "lon": -76.986004, "type": "electric_scooter", "fusion_lon": 0.0, "fusion_lat": 0.0, "is_reserved": 0, "name": "c5cd9526118d4c3ca77a02968a37fec2", "is_disabled": 0}, {"rental_uris": {"ios": "https://dc.lft.to/lastmile_qr_scan", "android": "https://dc.lft.to/lastmile_qr_scan"}, "lat": 38.90246483333333, "bike_id": "2eec1b5ae578e17bd9776fc0a1112b8d", "lon": -77.03827933333334, "type": "electric_scooter", "fusion_lon": 0.0, "fusion_lat": 0.0, "is_reserved": 0, "name": "2eec1b5ae578e17bd9776fc0a1112b8d", "is_disabled": 0}, {"rental_uris": {"ios": "https://dc.lft.to/lastmile_qr_scan", "android": "https://dc.lft.to/lastmile_qr_scan"}, "lat": 38.92534666666667, "bike_id": "69743d9574d4ca2af36155c93768bae4", "lon": -77.05074066666667, "type": "electric_scooter", "fusion_lon": 0.0, "fusion_lat": 0.0, "is_reserved": 0, "name": "69743d9574d4ca2af36155c93768bae4", "is_disabled": 0}, {"rental_uris": {"ios": "https://dc.lft.to/lastmile_qr_scan", "android": "https://dc.lft.to/lastmile_qr_scan"}, "lat": 38.915536833333334, "bike_id": "b26a2de923ecee54809fa6fe8234f465", "lon": -77.02131783333333, "type": "electric_scooter", "fusion_lon": 0.0, "fusion_lat": 0.0, "is_reserved": 0, "name": "b26a2de923ecee54809fa6fe8234f465", "is_disabled": 0}, {"rental_uris": {"ios": "https://dc.lft.to/lastmile_qr_scan", "android": "https://dc.lft.to/lastmile_qr_scan"}, "lat": 38.9897015, "bike_id": "1f790491b39be5fc51863da1c506a586", "lon": -77.02381633333333, "type": "electric_bike", "fusion_lon": 0.0, "fusion_lat": 0.0, "is_reserved": 0, "name": "1f790491b39be5fc51863da1c506a586", "is_disabled": 0}, {"rental_uris": {"ios": "https://dc.lft.to/lastmile_qr_scan", "android": "https://dc.lft.to/lastmile_qr_scan"}, "lat": 38.922887833333334, "bike_id": "70fd4c5491b7fe47d72a7cb19ae7c9eb", "lon": -77.02239866666666, "type": "electric_scooter", "fusion_lon": 0.0, "fusion_lat": 0.0, "is_reserved": 0, "name": "70fd4c5491b7fe47d72a7cb19ae7c9eb", "is_disabled": 0}, {"rental_uris": {"ios": "https://dc.lft.to/lastmile_qr_scan", "android": "https://dc.lft.to/lastmile_qr_scan"}, "lat": 38.85355933333334, "bike_id": "cb2a9b3d74ea1c1d40b6447fc39950be", "lon": -77.13463133333333, "type": "electric_bike", "fusion_lon": 0.0, "fusion_lat": 0.0, "is_reserved": 0, "name": "cb2a9b3d74ea1c1d40b6447fc39950be", "is_disabled": 0}, {"rental_uris": {"ios": "https://dc.lft.to/lastmile_qr_scan", "android": "https://dc.lft.to/lastmile_qr_scan"}, "lat": 38.905911333333336, "bike_id": "09cdf7438b7241c45d86266ecf6e2123", "lon": -77.04349833333333, "type": "electric_scooter", "fusion_lon": 0.0, "fusion_lat": 0.0, "is_reserved": 0, "name": "09cdf7438b7241c45d86266ecf6e2123", "is_disabled": 0}, {"rental_uris": {"ios": "https://dc.lft.to/lastmile_qr_scan", "android": "https://dc.lft.to/lastmile_qr_scan"}, "lat": 38.90140366666667, "bike_id": "acfd6e084073a4425320ddf3878c6ad6", "lon": -77.01309533333334, "type": "electric_scooter", "fusion_lon": 0.0, "fusion_lat": 0.0, "is_reserved": 0, "name": "acfd6e084073a4425320ddf3878c6ad6", "is_disabled": 0}, {"rental_uris": {"ios": "https://dc.lft.to/lastmile_qr_scan", "android": "https://dc.lft.to/lastmile_qr_scan"}, "lat": 38.866861166666666, "bike_id": "35a2311febe5f2ec8cd063e8538c16bc", "lon": -76.98565883333333, "type": "electric_scooter", "fusion_lon": 0.0, "fusion_lat": 0.0, "is_reserved": 0, "name": "35a2311febe5f2ec8cd063e8538c16bc", "is_disabled": 0}, {"rental_uris": {"ios": "https://dc.lft.to/lastmile_qr_scan", "android": "https://dc.lft.to/lastmile_qr_scan"}, "lat": 38.89743966666666, "bike_id": "225de93e84aaccc17a4f259c81f33197", "lon": -76.97972933333334, "type": "electric_scooter", "fusion_lon": 0.0, "fusion_lat": 0.0, "is_reserved": 0, "name": "225de93e84aaccc17a4f259c81f33197", "is_disabled": 0}, {"rental_uris": {"ios": "https://dc.lft.to/lastmile_qr_scan", "android": "https://dc.lft.to/lastmile_qr_scan"}, "lat": 38.91869533333333, "bike_id": "8c6ca8af648573b126cb30937ce72b74", "lon": -77.041686, "type": "electric_scooter", "fusion_lon": 0.0, "fusion_lat": 0.0, "is_reserved": 0, "name": "8c6ca8af648573b126cb30937ce72b74", "is_disabled": 0}, {"rental_uris": {"ios": "https://dc.lft.to/lastmile_qr_scan", "android": "https://dc.lft.to/lastmile_qr_scan"}, "lat": 38.901352833333334, "bike_id": "058803e9ba7d2b1a49a5fc150437a928", "lon": -77.04667516666666, "type": "electric_scooter", "fusion_lon": 0.0, "fusion_lat": 0.0, "is_reserved": 0, "name": "058803e9ba7d2b1a49a5fc150437a928", "is_disabled": 0}, {"rental_uris": {"ios": "https://dc.lft.to/lastmile_qr_scan", "android": "https://dc.lft.to/lastmile_qr_scan"}, "lat": 38.91681533333333, "bike_id": "b3698cf62cf9eb32a7b521e76c533c29", "lon": -77.02969916666666, "type": "electric_scooter", "fusion_lon": 0.0, "fusion_lat": 0.0, "is_reserved": 0, "name": "b3698cf62cf9eb32a7b521e76c533c29", "is_disabled": 0}, {"rental_uris": {"ios": "https://dc.lft.to/lastmile_qr_scan", "android": "https://dc.lft.to/lastmile_qr_scan"}, "lat": 38.92320316666667, "bike_id": "c9312d40834b4b8c0fc0a6690cfccf0e", "lon": -77.04618733333334, "type": "electric_scooter", "fusion_lon": 0.0, "fusion_lat": 0.0, "is_reserved": 0, "name": "c9312d40834b4b8c0fc0a6690cfccf0e", "is_disabled": 0}, {"rental_uris": {"ios": "https://dc.lft.to/lastmile_qr_scan", "android": "https://dc.lft.to/lastmile_qr_scan"}, "lat": 38.897291, "bike_id": "648aa88af4e1a3d9d13fca90a28a61eb", "lon": -77.0298145, "type": "electric_scooter", "fusion_lon": 0.0, "fusion_lat": 0.0, "is_reserved": 0, "name": "648aa88af4e1a3d9d13fca90a28a61eb", "is_disabled": 0}, {"rental_uris": {"ios": "https://dc.lft.to/lastmile_qr_scan", "android": "https://dc.lft.to/lastmile_qr_scan"}, "lat": 38.90570833333334, "bike_id": "606df5f417a3b8960fc8924bfc37104f", "lon": -76.97783183333334, "type": "electric_scooter", "fusion_lon": 0.0, "fusion_lat": 0.0, "is_reserved": 0, "name": "606df5f417a3b8960fc8924bfc37104f", "is_disabled": 0}, {"rental_uris": {"ios": "https://dc.lft.to/lastmile_qr_scan", "android": "https://dc.lft.to/lastmile_qr_scan"}, "lat": 38.9103685, "bike_id": "81f43df8b075092368d98e7f07b6ddd1", "lon": -77.04336416666666, "type": "electric_scooter", "fusion_lon": 0.0, "fusion_lat": 0.0, "is_reserved": 0, "name": "81f43df8b075092368d98e7f07b6ddd1", "is_disabled": 0}, {"rental_uris": {"ios": "https://dc.lft.to/lastmile_qr_scan", "android": "https://dc.lft.to/lastmile_qr_scan"}, "lat": 38.8324135, "bike_id": "3cd9a9f53574c046d4c487de2f3d90ba", "lon": -76.94628733333333, "type": "electric_bike", "fusion_lon": 0.0, "fusion_lat": 0.0, "is_reserved": 0, "name": "3cd9a9f53574c046d4c487de2f3d90ba", "is_disabled": 0}, {"rental_uris": {"ios": "https://dc.lft.to/lastmile_qr_scan", "android": "https://dc.lft.to/lastmile_qr_scan"}, "lat": 38.92375283333333, "bike_id": "2bf054623f8871fa89725de6cc7bf3b5", "lon": -77.05151266666667, "type": "electric_scooter", "fusion_lon": 0.0, "fusion_lat": 0.0, "is_reserved": 0, "name": "2bf054623f8871fa89725de6cc7bf3b5", "is_disabled": 0}, {"rental_uris": {"ios": "https://dc.lft.to/lastmile_qr_scan", "android": "https://dc.lft.to/lastmile_qr_scan"}, "lat": 38.9216065, "bike_id": "3f7ae523633fcbededa00bca7280a01c", "lon": -77.03379683333333, "type": "electric_scooter", "fusion_lon": 0.0, "fusion_lat": 0.0, "is_reserved": 0, "name": "3f7ae523633fcbededa00bca7280a01c", "is_disabled": 0}, {"rental_uris": {"ios": "https://dc.lft.to/lastmile_qr_scan", "android": "https://dc.lft.to/lastmile_qr_scan"}, "lat": 38.902707166666666, "bike_id": "90a98a8ae4f6ba08d0dec1d975e4a3d3", "lon": -77.046275, "type": "electric_scooter", "fusion_lon": 0.0, "fusion_lat": 0.0, "is_reserved": 0, "name": "90a98a8ae4f6ba08d0dec1d975e4a3d3", "is_disabled": 0}, {"rental_uris": {"ios": "https://dc.lft.to/lastmile_qr_scan", "android": "https://dc.lft.to/lastmile_qr_scan"}, "lat": 38.884692, "bike_id": "da1f53add7ad61f6f082562cd24b3b7f", "lon": -76.95662133333333, "type": "electric_bike", "fusion_lon": 0.0, "fusion_lat": 0.0, "is_reserved": 0, "name": "da1f53add7ad61f6f082562cd24b3b7f", "is_disabled": 0}, {"rental_uris": {"ios": "https://dc.lft.to/lastmile_qr_scan", "android": "https://dc.lft.to/lastmile_qr_scan"}, "lat": 39.034288, "bike_id": "dafa190ddcf2de4a718176bf0fb3f79a", "lon": -77.042949, "type": "electric_bike", "fusion_lon": 0.0, "fusion_lat": 0.0, "is_reserved": 0, "name": "dafa190ddcf2de4a718176bf0fb3f79a", "is_disabled": 0}, {"rental_uris": {"ios": "https://dc.lft.to/lastmile_qr_scan", "android": "https://dc.lft.to/lastmile_qr_scan"}, "lat": 38.9169805, "bike_id": "800584d03f9c5c5ca4c44fbc4229a215", "lon": -77.04106116666667, "type": "electric_scooter", "fusion_lon": 0.0, "fusion_lat": 0.0, "is_reserved": 0, "name": "800584d03f9c5c5ca4c44fbc4229a215", "is_disabled": 0}, {"rental_uris": {"ios": "https://dc.lft.to/lastmile_qr_scan", "android": "https://dc.lft.to/lastmile_qr_scan"}, "lat": 38.877581166666666, "bike_id": "5f24d3d3830ef4e25bc619117787ee94", "lon": -76.98680166666666, "type": "electric_scooter", "fusion_lon": 0.0, "fusion_lat": 0.0, "is_reserved": 0, "name": "5f24d3d3830ef4e25bc619117787ee94", "is_disabled": 0}, {"rental_uris": {"ios": "https://dc.lft.to/lastmile_qr_scan", "android": "https://dc.lft.to/lastmile_qr_scan"}, "lat": 38.90220683333333, "bike_id": "ee133c4506137a58954f7dbb87f0ccb5", "lon": -77.037887, "type": "electric_scooter", "fusion_lon": 0.0, "fusion_lat": 0.0, "is_reserved": 0, "name": "ee133c4506137a58954f7dbb87f0ccb5", "is_disabled": 0}, {"rental_uris": {"ios": "https://dc.lft.to/lastmile_qr_scan", "android": "https://dc.lft.to/lastmile_qr_scan"}, "lat": 38.87685316666666, "bike_id": "946e9294dd6bda33417623a78a87e388", "lon": -77.00061583333333, "type": "electric_scooter", "fusion_lon": 0.0, "fusion_lat": 0.0, "is_reserved": 0, "name": "946e9294dd6bda33417623a78a87e388", "is_disabled": 0}, {"rental_uris": {"ios": "https://dc.lft.to/lastmile_qr_scan", "android": "https://dc.lft.to/lastmile_qr_scan"}, "lat": 38.928670833333335, "bike_id": "820437451fcf5e14a9d5f121d0809ae6", "lon": -77.02765483333333, "type": "electric_scooter", "fusion_lon": 0.0, "fusion_lat": 0.0, "is_reserved": 0, "name": "820437451fcf5e14a9d5f121d0809ae6", "is_disabled": 0}, {"rental_uris": {"ios": "https://dc.lft.to/lastmile_qr_scan", "android": "https://dc.lft.to/lastmile_qr_scan"}, "lat": 38.89569566666667, "bike_id": "910fd55950721a568e04842590416635", "lon": -76.93026516666667, "type": "electric_scooter", "fusion_lon": 0.0, "fusion_lat": 0.0, "is_reserved": 0, "name": "910fd55950721a568e04842590416635", "is_disabled": 0}, {"rental_uris": {"ios": "https://dc.lft.to/lastmile_qr_scan", "android": "https://dc.lft.to/lastmile_qr_scan"}, "lat": 38.927451833333336, "bike_id": "84ec0c2df1b666dc6694965db5bdb7c4", "lon": -77.02289433333333, "type": "electric_scooter", "fusion_lon": 0.0, "fusion_lat": 0.0, "is_reserved": 0, "name": "84ec0c2df1b666dc6694965db5bdb7c4", "is_disabled": 0}, {"rental_uris": {"ios": "https://dc.lft.to/lastmile_qr_scan", "android": "https://dc.lft.to/lastmile_qr_scan"}, "lat": 38.90283866666667, "bike_id": "8a56049dfb2485caab131c66e1045a09", "lon": -77.03355366666666, "type": "electric_scooter", "fusion_lon": 0.0, "fusion_lat": 0.0, "is_reserved": 0, "name": "8a56049dfb2485caab131c66e1045a09", "is_disabled": 0}, {"rental_uris": {"ios": "https://dc.lft.to/lastmile_qr_scan", "android": "https://dc.lft.to/lastmile_qr_scan"}, "lat": 38.9042695, "bike_id": "b2a1f10e4c3a73d1780f79ddea583ae2", "lon": -77.04367583333334, "type": "electric_scooter", "fusion_lon": 0.0, "fusion_lat": 0.0, "is_reserved": 0, "name": "b2a1f10e4c3a73d1780f79ddea583ae2", "is_disabled": 0}, {"rental_uris": {"ios": "https://dc.lft.to/lastmile_qr_scan", "android": "https://dc.lft.to/lastmile_qr_scan"}, "lat": 38.89531916666667, "bike_id": "9edbf2ee45fa4abd8bbc35fa13245c69", "lon": -77.01990183333334, "type": "electric_scooter", "fusion_lon": 0.0, "fusion_lat": 0.0, "is_reserved": 0, "name": "9edbf2ee45fa4abd8bbc35fa13245c69", "is_disabled": 0}, {"rental_uris": {"ios": "https://dc.lft.to/lastmile_qr_scan", "android": "https://dc.lft.to/lastmile_qr_scan"}, "lat": 38.89528466666667, "bike_id": "a2e609498ca14136ae70cfd1857fcd74", "lon": -77.04480266666667, "type": "electric_scooter", "fusion_lon": 0.0, "fusion_lat": 0.0, "is_reserved": 0, "name": "a2e609498ca14136ae70cfd1857fcd74", "is_disabled": 0}, {"rental_uris": {"ios": "https://dc.lft.to/lastmile_qr_scan", "android": "https://dc.lft.to/lastmile_qr_scan"}, "lat": 38.898622333333336, "bike_id": "69db18157954bc3cf8e326d4127642e6", "lon": -76.9463425, "type": "electric_scooter", "fusion_lon": 0.0, "fusion_lat": 0.0, "is_reserved": 0, "name": "69db18157954bc3cf8e326d4127642e6", "is_disabled": 0}, {"rental_uris": {"ios": "https://dc.lft.to/lastmile_qr_scan", "android": "https://dc.lft.to/lastmile_qr_scan"}, "lat": 38.918972333333336, "bike_id": "b1a480910f54e19ff5a2100c6aee45ad", "lon": -77.03201016666667, "type": "electric_scooter", "fusion_lon": 0.0, "fusion_lat": 0.0, "is_reserved": 0, "name": "b1a480910f54e19ff5a2100c6aee45ad", "is_disabled": 0}, {"rental_uris": {"ios": "https://dc.lft.to/lastmile_qr_scan", "android": "https://dc.lft.to/lastmile_qr_scan"}, "lat": 38.89221333333333, "bike_id": "ff5b818f4bfe332e1fdf50bc45025709", "lon": -77.0436575, "type": "electric_scooter", "fusion_lon": 0.0, "fusion_lat": 0.0, "is_reserved": 0, "name": "ff5b818f4bfe332e1fdf50bc45025709", "is_disabled": 0}, {"rental_uris": {"ios": "https://dc.lft.to/lastmile_qr_scan", "android": "https://dc.lft.to/lastmile_qr_scan"}, "lat": 38.89246966666666, "bike_id": "6078ae6cc3c8d68447698e13a65de2b5", "lon": -77.05022066666666, "type": "electric_scooter", "fusion_lon": 0.0, "fusion_lat": 0.0, "is_reserved": 0, "name": "6078ae6cc3c8d68447698e13a65de2b5", "is_disabled": 0}, {"rental_uris": {"ios": "https://dc.lft.to/lastmile_qr_scan", "android": "https://dc.lft.to/lastmile_qr_scan"}, "lat": 38.950079, "bike_id": "eea5fcdda61634d74e9deea4cce19998", "lon": -77.02192833333334, "type": "electric_scooter", "fusion_lon": 0.0, "fusion_lat": 0.0, "is_reserved": 0, "name": "eea5fcdda61634d74e9deea4cce19998", "is_disabled": 0}, {"rental_uris": {"ios": "https://dc.lft.to/lastmile_qr_scan", "android": "https://dc.lft.to/lastmile_qr_scan"}, "lat": 38.8935735, "bike_id": "1ddaae4e70fb78e0af8553e513a93c9f", "lon": -77.0033245, "type": "electric_scooter", "fusion_lon": 0.0, "fusion_lat": 0.0, "is_reserved": 0, "name": "1ddaae4e70fb78e0af8553e513a93c9f", "is_disabled": 0}, {"rental_uris": {"ios": "https://dc.lft.to/lastmile_qr_scan", "android": "https://dc.lft.to/lastmile_qr_scan"}, "lat": 38.93390216666667, "bike_id": "3dd603c4876a9968ec226fc2372e1419", "lon": -77.03214983333334, "type": "electric_scooter", "fusion_lon": 0.0, "fusion_lat": 0.0, "is_reserved": 0, "name": "3dd603c4876a9968ec226fc2372e1419", "is_disabled": 0}, {"rental_uris": {"ios": "https://dc.lft.to/lastmile_qr_scan", "android": "https://dc.lft.to/lastmile_qr_scan"}, "lat": 38.90686316666667, "bike_id": "a5728c575ac3b4bdc959c412edf91028", "lon": -76.9866945, "type": "electric_scooter", "fusion_lon": 0.0, "fusion_lat": 0.0, "is_reserved": 0, "name": "a5728c575ac3b4bdc959c412edf91028", "is_disabled": 0}, {"rental_uris": {"ios": "https://dc.lft.to/lastmile_qr_scan", "android": "https://dc.lft.to/lastmile_qr_scan"}, "lat": 38.92703083333333, "bike_id": "fe06ca915cd76fb0cad8ed7170a25d3f", "lon": -77.036378, "type": "electric_scooter", "fusion_lon": 0.0, "fusion_lat": 0.0, "is_reserved": 0, "name": "fe06ca915cd76fb0cad8ed7170a25d3f", "is_disabled": 0}, {"rental_uris": {"ios": "https://dc.lft.to/lastmile_qr_scan", "android": "https://dc.lft.to/lastmile_qr_scan"}, "lat": 38.921807666666666, "bike_id": "2c970aa8ff438dad06cd03e40899cb67", "lon": -77.0210245, "type": "electric_scooter", "fusion_lon": 0.0, "fusion_lat": 0.0, "is_reserved": 0, "name": "2c970aa8ff438dad06cd03e40899cb67", "is_disabled": 0}, {"rental_uris": {"ios": "https://dc.lft.to/lastmile_qr_scan", "android": "https://dc.lft.to/lastmile_qr_scan"}, "lat": 38.90107283333333, "bike_id": "d8cfe3a8dd46fa9c577e0f3653d1d330", "lon": -77.070585, "type": "electric_scooter", "fusion_lon": 0.0, "fusion_lat": 0.0, "is_reserved": 0, "name": "d8cfe3a8dd46fa9c577e0f3653d1d330", "is_disabled": 0}, {"rental_uris": {"ios": "https://dc.lft.to/lastmile_qr_scan", "android": "https://dc.lft.to/lastmile_qr_scan"}, "lat": 38.90684666666667, "bike_id": "d9c49762bd9bd6e3fa2e66aec9687cfd", "lon": -77.06336183333333, "type": "electric_scooter", "fusion_lon": 0.0, "fusion_lat": 0.0, "is_reserved": 0, "name": "d9c49762bd9bd6e3fa2e66aec9687cfd", "is_disabled": 0}, {"rental_uris": {"ios": "https://dc.lft.to/lastmile_qr_scan", "android": "https://dc.lft.to/lastmile_qr_scan"}, "lat": 38.929697, "bike_id": "8d0cb28a9a2dc7d7f3b87541f4eddd56", "lon": -77.01320183333333, "type": "electric_scooter", "fusion_lon": 0.0, "fusion_lat": 0.0, "is_reserved": 0, "name": "8d0cb28a9a2dc7d7f3b87541f4eddd56", "is_disabled": 0}, {"rental_uris": {"ios": "https://dc.lft.to/lastmile_qr_scan", "android": "https://dc.lft.to/lastmile_qr_scan"}, "lat": 38.901083666666665, "bike_id": "17cf3ef72651cb08f250ae0808a60fa7", "lon": -77.05967466666667, "type": "electric_scooter", "fusion_lon": 0.0, "fusion_lat": 0.0, "is_reserved": 0, "name": "17cf3ef72651cb08f250ae0808a60fa7", "is_disabled": 0}, {"rental_uris": {"ios": "https://dc.lft.to/lastmile_qr_scan", "android": "https://dc.lft.to/lastmile_qr_scan"}, "lat": 38.902876666666664, "bike_id": "787a2d33080d17794dec10507e6a1e08", "lon": -77.00224983333334, "type": "electric_scooter", "fusion_lon": 0.0, "fusion_lat": 0.0, "is_reserved": 0, "name": "787a2d33080d17794dec10507e6a1e08", "is_disabled": 0}, {"rental_uris": {"ios": "https://dc.lft.to/lastmile_qr_scan", "android": "https://dc.lft.to/lastmile_qr_scan"}, "lat": 38.91398816666667, "bike_id": "cae417d25142a6b19d9433079faeb982", "lon": -77.0240585, "type": "electric_scooter", "fusion_lon": 0.0, "fusion_lat": 0.0, "is_reserved": 0, "name": "cae417d25142a6b19d9433079faeb982", "is_disabled": 0}, {"rental_uris": {"ios": "https://dc.lft.to/lastmile_qr_scan", "android": "https://dc.lft.to/lastmile_qr_scan"}, "lat": 38.90095633333333, "bike_id": "56d47b63ce0f6571e5ff18318cabd5be", "lon": -77.013436, "type": "electric_scooter", "fusion_lon": 0.0, "fusion_lat": 0.0, "is_reserved": 0, "name": "56d47b63ce0f6571e5ff18318cabd5be", "is_disabled": 0}, {"rental_uris": {"ios": "https://dc.lft.to/lastmile_qr_scan", "android": "https://dc.lft.to/lastmile_qr_scan"}, "lat": 38.900767333333334, "bike_id": "3bdae1f13338ee5bc4d084a46dda6722", "lon": -77.02298616666667, "type": "electric_scooter", "fusion_lon": 0.0, "fusion_lat": 0.0, "is_reserved": 0, "name": "3bdae1f13338ee5bc4d084a46dda6722", "is_disabled": 0}, {"rental_uris": {"ios": "https://dc.lft.to/lastmile_qr_scan", "android": "https://dc.lft.to/lastmile_qr_scan"}, "lat": 38.90921616666667, "bike_id": "427ef39ea8c7d7b41a4724dc9403ca42", "lon": -77.01894033333333, "type": "electric_scooter", "fusion_lon": 0.0, "fusion_lat": 0.0, "is_reserved": 0, "name": "427ef39ea8c7d7b41a4724dc9403ca42", "is_disabled": 0}, {"rental_uris": {"ios": "https://dc.lft.to/lastmile_qr_scan", "android": "https://dc.lft.to/lastmile_qr_scan"}, "lat": 38.9155585, "bike_id": "7386a0a894f3896cce76042caea8ab87", "lon": -77.03172366666666, "type": "electric_scooter", "fusion_lon": 0.0, "fusion_lat": 0.0, "is_reserved": 0, "name": "7386a0a894f3896cce76042caea8ab87", "is_disabled": 0}, {"rental_uris": {"ios": "https://dc.lft.to/lastmile_qr_scan", "android": "https://dc.lft.to/lastmile_qr_scan"}, "lat": 38.9157115, "bike_id": "f71a407586da4b2fec731474018d96b5", "lon": -77.022877, "type": "electric_scooter", "fusion_lon": 0.0, "fusion_lat": 0.0, "is_reserved": 0, "name": "f71a407586da4b2fec731474018d96b5", "is_disabled": 0}, {"rental_uris": {"ios": "https://dc.lft.to/lastmile_qr_scan", "android": "https://dc.lft.to/lastmile_qr_scan"}, "lat": 38.886642333333334, "bike_id": "17f2d154bed4a8fc4960b508442f06ab", "lon": -77.16226083333333, "type": "electric_bike", "fusion_lon": 0.0, "fusion_lat": 0.0, "is_reserved": 0, "name": "17f2d154bed4a8fc4960b508442f06ab", "is_disabled": 0}, {"rental_uris": {"ios": "https://dc.lft.to/lastmile_qr_scan", "android": "https://dc.lft.to/lastmile_qr_scan"}, "lat": 38.95713533333333, "bike_id": "c6fe2d9616b8fc670d774fc67b2da4ea", "lon": -77.00279733333333, "type": "electric_bike", "fusion_lon": 0.0, "fusion_lat": 0.0, "is_reserved": 0, "name": "c6fe2d9616b8fc670d774fc67b2da4ea", "is_disabled": 0}, {"rental_uris": {"ios": "https://dc.lft.to/lastmile_qr_scan", "android": "https://dc.lft.to/lastmile_qr_scan"}, "lat": 38.902844333333334, "bike_id": "4574b26e95e55b6af516670131cf3f53", "lon": -77.03349883333334, "type": "electric_scooter", "fusion_lon": 0.0, "fusion_lat": 0.0, "is_reserved": 0, "name": "4574b26e95e55b6af516670131cf3f53", "is_disabled": 0}, {"rental_uris": {"ios": "https://dc.lft.to/lastmile_qr_scan", "android": "https://dc.lft.to/lastmile_qr_scan"}, "lat": 38.91592833333333, "bike_id": "fe5458f64503d5b94317eb2e83f226f0", "lon": -77.02297516666667, "type": "electric_scooter", "fusion_lon": 0.0, "fusion_lat": 0.0, "is_reserved": 0, "name": "fe5458f64503d5b94317eb2e83f226f0", "is_disabled": 0}, {"rental_uris": {"ios": "https://dc.lft.to/lastmile_qr_scan", "android": "https://dc.lft.to/lastmile_qr_scan"}, "lat": 38.90898583333333, "bike_id": "34a3fb4f118797e53d4bcb4f63d237a2", "lon": -77.04306733333334, "type": "electric_scooter", "fusion_lon": 0.0, "fusion_lat": 0.0, "is_reserved": 0, "name": "34a3fb4f118797e53d4bcb4f63d237a2", "is_disabled": 0}, {"rental_uris": {"ios": "https://dc.lft.to/lastmile_qr_scan", "android": "https://dc.lft.to/lastmile_qr_scan"}, "lat": 38.905641833333334, "bike_id": "0abaf0f55ca9ab8de9d914924cfb6c72", "lon": -77.02213233333333, "type": "electric_scooter", "fusion_lon": 0.0, "fusion_lat": 0.0, "is_reserved": 0, "name": "0abaf0f55ca9ab8de9d914924cfb6c72", "is_disabled": 0}, {"rental_uris": {"ios": "https://dc.lft.to/lastmile_qr_scan", "android": "https://dc.lft.to/lastmile_qr_scan"}, "lat": 38.914161666666665, "bike_id": "fee0a37fca8add1c73de0e895bb2bdcd", "lon": -77.02114366666666, "type": "electric_scooter", "fusion_lon": 0.0, "fusion_lat": 0.0, "is_reserved": 0, "name": "fee0a37fca8add1c73de0e895bb2bdcd", "is_disabled": 0}, {"rental_uris": {"ios": "https://dc.lft.to/lastmile_qr_scan", "android": "https://dc.lft.to/lastmile_qr_scan"}, "lat": 38.90261516666666, "bike_id": "8aa91029ca8e2723d833496ad70d15e6", "lon": -77.039386, "type": "electric_scooter", "fusion_lon": 0.0, "fusion_lat": 0.0, "is_reserved": 0, "name": "8aa91029ca8e2723d833496ad70d15e6", "is_disabled": 0}, {"rental_uris": {"ios": "https://dc.lft.to/lastmile_qr_scan", "android": "https://dc.lft.to/lastmile_qr_scan"}, "lat": 38.94922366666667, "bike_id": "0874a9689c358cdb03adb19ed5ad405b", "lon": -77.01861916666667, "type": "electric_scooter", "fusion_lon": 0.0, "fusion_lat": 0.0, "is_reserved": 0, "name": "0874a9689c358cdb03adb19ed5ad405b", "is_disabled": 0}, {"rental_uris": {"ios": "https://dc.lft.to/lastmile_qr_scan", "android": "https://dc.lft.to/lastmile_qr_scan"}, "lat": 38.89432216666667, "bike_id": "abd9ec668b398d18d92bdd3d1e9bc926", "lon": -77.03969633333334, "type": "electric_scooter", "fusion_lon": 0.0, "fusion_lat": 0.0, "is_reserved": 0, "name": "abd9ec668b398d18d92bdd3d1e9bc926", "is_disabled": 0}, {"rental_uris": {"ios": "https://dc.lft.to/lastmile_qr_scan", "android": "https://dc.lft.to/lastmile_qr_scan"}, "lat": 38.89727833333333, "bike_id": "1a99065e4ecd4d9aa1e759908af2a059", "lon": -77.022164, "type": "electric_scooter", "fusion_lon": 0.0, "fusion_lat": 0.0, "is_reserved": 0, "name": "1a99065e4ecd4d9aa1e759908af2a059", "is_disabled": 0}, {"rental_uris": {"ios": "https://dc.lft.to/lastmile_qr_scan", "android": "https://dc.lft.to/lastmile_qr_scan"}, "lat": 38.92646933333333, "bike_id": "f27112dc62dfc6c1f7f6d08d13c309b4", "lon": -77.03276383333333, "type": "electric_scooter", "fusion_lon": 0.0, "fusion_lat": 0.0, "is_reserved": 0, "name": "f27112dc62dfc6c1f7f6d08d13c309b4", "is_disabled": 0}, {"rental_uris": {"ios": "https://dc.lft.to/lastmile_qr_scan", "android": "https://dc.lft.to/lastmile_qr_scan"}, "lat": 38.90384483333333, "bike_id": "155c4e9cf9a31cee462460dade33e378", "lon": -77.04531666666666, "type": "electric_scooter", "fusion_lon": 0.0, "fusion_lat": 0.0, "is_reserved": 0, "name": "155c4e9cf9a31cee462460dade33e378", "is_disabled": 0}, {"rental_uris": {"ios": "https://dc.lft.to/lastmile_qr_scan", "android": "https://dc.lft.to/lastmile_qr_scan"}, "lat": 38.908703833333334, "bike_id": "b45d725357be15269ed14b1e2c25ff14", "lon": -76.93340116666667, "type": "electric_scooter", "fusion_lon": 0.0, "fusion_lat": 0.0, "is_reserved": 0, "name": "b45d725357be15269ed14b1e2c25ff14", "is_disabled": 0}, {"rental_uris": {"ios": "https://dc.lft.to/lastmile_qr_scan", "android": "https://dc.lft.to/lastmile_qr_scan"}, "lat": 38.898135333333336, "bike_id": "9751a7fd73cb0171655e05d58816d173", "lon": -77.0059845, "type": "electric_bike", "fusion_lon": 0.0, "fusion_lat": 0.0, "is_reserved": 0, "name": "9751a7fd73cb0171655e05d58816d173", "is_disabled": 0}, {"rental_uris": {"ios": "https://dc.lft.to/lastmile_qr_scan", "android": "https://dc.lft.to/lastmile_qr_scan"}, "lat": 38.914080166666665, "bike_id": "f002e1c2627040f41bffca8a58debfcb", "lon": -77.04280316666667, "type": "electric_scooter", "fusion_lon": 0.0, "fusion_lat": 0.0, "is_reserved": 0, "name": "f002e1c2627040f41bffca8a58debfcb", "is_disabled": 0}, {"rental_uris": {"ios": "https://dc.lft.to/lastmile_qr_scan", "android": "https://dc.lft.to/lastmile_qr_scan"}, "lat": 38.916499, "bike_id": "4864793029df897489bd6e6322ec5650", "lon": -77.03182933333333, "type": "electric_scooter", "fusion_lon": 0.0, "fusion_lat": 0.0, "is_reserved": 0, "name": "4864793029df897489bd6e6322ec5650", "is_disabled": 0}, {"rental_uris": {"ios": "https://dc.lft.to/lastmile_qr_scan", "android": "https://dc.lft.to/lastmile_qr_scan"}, "lat": 38.90683966666667, "bike_id": "01103c20fc3b6db4e9057d7b9d0a4519", "lon": -77.021794, "type": "electric_scooter", "fusion_lon": 0.0, "fusion_lat": 0.0, "is_reserved": 0, "name": "01103c20fc3b6db4e9057d7b9d0a4519", "is_disabled": 0}, {"rental_uris": {"ios": "https://dc.lft.to/lastmile_qr_scan", "android": "https://dc.lft.to/lastmile_qr_scan"}, "lat": 38.924526666666665, "bike_id": "2861fdbd8638d01f0a007c806a1b3ae2", "lon": -77.0215835, "type": "electric_scooter", "fusion_lon": 0.0, "fusion_lat": 0.0, "is_reserved": 0, "name": "2861fdbd8638d01f0a007c806a1b3ae2", "is_disabled": 0}, {"rental_uris": {"ios": "https://dc.lft.to/lastmile_qr_scan", "android": "https://dc.lft.to/lastmile_qr_scan"}, "lat": 38.930898666666664, "bike_id": "7702c26ac2a8e88759e3b3e9ef3100df", "lon": -77.0312345, "type": "electric_scooter", "fusion_lon": 0.0, "fusion_lat": 0.0, "is_reserved": 0, "name": "7702c26ac2a8e88759e3b3e9ef3100df", "is_disabled": 0}, {"rental_uris": {"ios": "https://dc.lft.to/lastmile_qr_scan", "android": "https://dc.lft.to/lastmile_qr_scan"}, "lat": 38.917761666666664, "bike_id": "d43a1a2aae2d44822fe5f75d24f0c426", "lon": -77.0236995, "type": "electric_scooter", "fusion_lon": 0.0, "fusion_lat": 0.0, "is_reserved": 0, "name": "d43a1a2aae2d44822fe5f75d24f0c426", "is_disabled": 0}, {"rental_uris": {"ios": "https://dc.lft.to/lastmile_qr_scan", "android": "https://dc.lft.to/lastmile_qr_scan"}, "lat": 38.9007685, "bike_id": "dd592f23791e314f9dc5ba1bf0c4e60b", "lon": -77.04959383333333, "type": "electric_scooter", "fusion_lon": 0.0, "fusion_lat": 0.0, "is_reserved": 0, "name": "dd592f23791e314f9dc5ba1bf0c4e60b", "is_disabled": 0}, {"rental_uris": {"ios": "https://dc.lft.to/lastmile_qr_scan", "android": "https://dc.lft.to/lastmile_qr_scan"}, "lat": 38.93863783333333, "bike_id": "080a46d838f24c91ed7cdb50290862ad", "lon": -77.026496, "type": "electric_scooter", "fusion_lon": 0.0, "fusion_lat": 0.0, "is_reserved": 0, "name": "080a46d838f24c91ed7cdb50290862ad", "is_disabled": 0}, {"rental_uris": {"ios": "https://dc.lft.to/lastmile_qr_scan", "android": "https://dc.lft.to/lastmile_qr_scan"}, "lat": 38.92156266666667, "bike_id": "77f33752054d5053b7be594aa6946884", "lon": -77.0337305, "type": "electric_scooter", "fusion_lon": 0.0, "fusion_lat": 0.0, "is_reserved": 0, "name": "77f33752054d5053b7be594aa6946884", "is_disabled": 0}, {"rental_uris": {"ios": "https://dc.lft.to/lastmile_qr_scan", "android": "https://dc.lft.to/lastmile_qr_scan"}, "lat": 38.9094985, "bike_id": "8239db9affd48347bfa1168d3b5fb12f", "lon": -77.031805, "type": "electric_scooter", "fusion_lon": 0.0, "fusion_lat": 0.0, "is_reserved": 0, "name": "8239db9affd48347bfa1168d3b5fb12f", "is_disabled": 0}, {"rental_uris": {"ios": "https://dc.lft.to/lastmile_qr_scan", "android": "https://dc.lft.to/lastmile_qr_scan"}, "lat": 38.8973615, "bike_id": "490349c85f7912cdfc03781285eb8a72", "lon": -77.04452733333333, "type": "electric_scooter", "fusion_lon": 0.0, "fusion_lat": 0.0, "is_reserved": 0, "name": "490349c85f7912cdfc03781285eb8a72", "is_disabled": 0}, {"rental_uris": {"ios": "https://dc.lft.to/lastmile_qr_scan", "android": "https://dc.lft.to/lastmile_qr_scan"}, "lat": 38.89733233333333, "bike_id": "10b609d4c0935e137337656a53e9f95b", "lon": -77.02382716666666, "type": "electric_scooter", "fusion_lon": 0.0, "fusion_lat": 0.0, "is_reserved": 0, "name": "10b609d4c0935e137337656a53e9f95b", "is_disabled": 0}, {"rental_uris": {"ios": "https://dc.lft.to/lastmile_qr_scan", "android": "https://dc.lft.to/lastmile_qr_scan"}, "lat": 38.876873, "bike_id": "36d75e4bb59d50ebc49d720ceec3905b", "lon": -77.00062316666667, "type": "electric_scooter", "fusion_lon": 0.0, "fusion_lat": 0.0, "is_reserved": 0, "name": "36d75e4bb59d50ebc49d720ceec3905b", "is_disabled": 0}, {"rental_uris": {"ios": "https://dc.lft.to/lastmile_qr_scan", "android": "https://dc.lft.to/lastmile_qr_scan"}, "lat": 38.90451433333333, "bike_id": "45881638b32062d488d65191e01ff0f5", "lon": -77.03463616666667, "type": "electric_scooter", "fusion_lon": 0.0, "fusion_lat": 0.0, "is_reserved": 0, "name": "45881638b32062d488d65191e01ff0f5", "is_disabled": 0}, {"rental_uris": {"ios": "https://dc.lft.to/lastmile_qr_scan", "android": "https://dc.lft.to/lastmile_qr_scan"}, "lat": 38.908944, "bike_id": "4c14b5df5a37247d764991e2bd715c61", "lon": -76.98235466666667, "type": "electric_scooter", "fusion_lon": 0.0, "fusion_lat": 0.0, "is_reserved": 0, "name": "4c14b5df5a37247d764991e2bd715c61", "is_disabled": 0}, {"rental_uris": {"ios": "https://dc.lft.to/lastmile_qr_scan", "android": "https://dc.lft.to/lastmile_qr_scan"}, "lat": 38.8849725, "bike_id": "911c1f2290e7653b45ac04693ad8f01c", "lon": -77.00708483333334, "type": "electric_scooter", "fusion_lon": 0.0, "fusion_lat": 0.0, "is_reserved": 0, "name": "911c1f2290e7653b45ac04693ad8f01c", "is_disabled": 0}, {"rental_uris": {"ios": "https://dc.lft.to/lastmile_qr_scan", "android": "https://dc.lft.to/lastmile_qr_scan"}, "lat": 38.91696666666667, "bike_id": "daeb0f73e360af49d9a385805aa88723", "lon": -77.02764216666667, "type": "electric_scooter", "fusion_lon": 0.0, "fusion_lat": 0.0, "is_reserved": 0, "name": "daeb0f73e360af49d9a385805aa88723", "is_disabled": 0}, {"rental_uris": {"ios": "https://dc.lft.to/lastmile_qr_scan", "android": "https://dc.lft.to/lastmile_qr_scan"}, "lat": 38.8935695, "bike_id": "56eb096b920580a31d9fc6295c3e8bfb", "lon": -77.00336783333333, "type": "electric_scooter", "fusion_lon": 0.0, "fusion_lat": 0.0, "is_reserved": 0, "name": "56eb096b920580a31d9fc6295c3e8bfb", "is_disabled": 0}, {"rental_uris": {"ios": "https://dc.lft.to/lastmile_qr_scan", "android": "https://dc.lft.to/lastmile_qr_scan"}, "lat": 38.90729816666666, "bike_id": "4e6d31019ea2d9ab43547f0cff11be13", "lon": -77.02616433333333, "type": "electric_scooter", "fusion_lon": 0.0, "fusion_lat": 0.0, "is_reserved": 0, "name": "4e6d31019ea2d9ab43547f0cff11be13", "is_disabled": 0}, {"rental_uris": {"ios": "https://dc.lft.to/lastmile_qr_scan", "android": "https://dc.lft.to/lastmile_qr_scan"}, "lat": 38.93562583333333, "bike_id": "1dd151a3b8daa84aef39cedb072cb1b9", "lon": -77.0745745, "type": "electric_scooter", "fusion_lon": 0.0, "fusion_lat": 0.0, "is_reserved": 0, "name": "1dd151a3b8daa84aef39cedb072cb1b9", "is_disabled": 0}, {"rental_uris": {"ios": "https://dc.lft.to/lastmile_qr_scan", "android": "https://dc.lft.to/lastmile_qr_scan"}, "lat": 38.871764666666664, "bike_id": "a0143b6db2b4f58432f0ab6c73f2b5b9", "lon": -77.00622166666666, "type": "electric_scooter", "fusion_lon": 0.0, "fusion_lat": 0.0, "is_reserved": 0, "name": "a0143b6db2b4f58432f0ab6c73f2b5b9", "is_disabled": 0}, {"rental_uris": {"ios": "https://dc.lft.to/lastmile_qr_scan", "android": "https://dc.lft.to/lastmile_qr_scan"}, "lat": 38.905966, "bike_id": "f5190a1d1bb2b0209f8a9afb01caa574", "lon": -77.04039033333333, "type": "electric_scooter", "fusion_lon": 0.0, "fusion_lat": 0.0, "is_reserved": 0, "name": "f5190a1d1bb2b0209f8a9afb01caa574", "is_disabled": 0}, {"rental_uris": {"ios": "https://dc.lft.to/lastmile_qr_scan", "android": "https://dc.lft.to/lastmile_qr_scan"}, "lat": 38.891309, "bike_id": "0cdb6476c431ef416f89e29cee89baa0", "lon": -76.9518415, "type": "electric_scooter", "fusion_lon": 0.0, "fusion_lat": 0.0, "is_reserved": 0, "name": "0cdb6476c431ef416f89e29cee89baa0", "is_disabled": 0}, {"rental_uris": {"ios": "https://dc.lft.to/lastmile_qr_scan", "android": "https://dc.lft.to/lastmile_qr_scan"}, "lat": 38.896454, "bike_id": "0478caef26ef9f0d5439324320f1f0da", "lon": -77.00926083333333, "type": "electric_scooter", "fusion_lon": 0.0, "fusion_lat": 0.0, "is_reserved": 0, "name": "0478caef26ef9f0d5439324320f1f0da", "is_disabled": 0}, {"rental_uris": {"ios": "https://dc.lft.to/lastmile_qr_scan", "android": "https://dc.lft.to/lastmile_qr_scan"}, "lat": 38.90652983333333, "bike_id": "4af98bd1a3862e8442f2eb92bb5410f3", "lon": -77.04276616666667, "type": "electric_scooter", "fusion_lon": 0.0, "fusion_lat": 0.0, "is_reserved": 0, "name": "4af98bd1a3862e8442f2eb92bb5410f3", "is_disabled": 0}, {"rental_uris": {"ios": "https://dc.lft.to/lastmile_qr_scan", "android": "https://dc.lft.to/lastmile_qr_scan"}, "lat": 38.90958933333334, "bike_id": "227dbbadbce625a07306055136d48106", "lon": -77.02281616666667, "type": "electric_scooter", "fusion_lon": 0.0, "fusion_lat": 0.0, "is_reserved": 0, "name": "227dbbadbce625a07306055136d48106", "is_disabled": 0}, {"rental_uris": {"ios": "https://dc.lft.to/lastmile_qr_scan", "android": "https://dc.lft.to/lastmile_qr_scan"}, "lat": 38.880002166666664, "bike_id": "3f4cb49105b19b29fd64681e1f86d5e9", "lon": -77.02406433333333, "type": "electric_scooter", "fusion_lon": 0.0, "fusion_lat": 0.0, "is_reserved": 0, "name": "3f4cb49105b19b29fd64681e1f86d5e9", "is_disabled": 0}, {"rental_uris": {"ios": "https://dc.lft.to/lastmile_qr_scan", "android": "https://dc.lft.to/lastmile_qr_scan"}, "lat": 38.926442333333334, "bike_id": "5f8f5d15a4632d1cc0b7d1925f5dd1de", "lon": -76.98420833333333, "type": "electric_bike", "fusion_lon": 0.0, "fusion_lat": 0.0, "is_reserved": 0, "name": "5f8f5d15a4632d1cc0b7d1925f5dd1de", "is_disabled": 0}, {"rental_uris": {"ios": "https://dc.lft.to/lastmile_qr_scan", "android": "https://dc.lft.to/lastmile_qr_scan"}, "lat": 38.90207616666667, "bike_id": "4baf2830bff001c83f1041f0369a4cb0", "lon": -76.97410816666667, "type": "electric_bike", "fusion_lon": 0.0, "fusion_lat": 0.0, "is_reserved": 0, "name": "4baf2830bff001c83f1041f0369a4cb0", "is_disabled": 0}, {"rental_uris": {"ios": "https://dc.lft.to/lastmile_qr_scan", "android": "https://dc.lft.to/lastmile_qr_scan"}, "lat": 38.9084905, "bike_id": "6475d8178ee901007b41004c5ff3af62", "lon": -77.04256766666667, "type": "electric_scooter", "fusion_lon": 0.0, "fusion_lat": 0.0, "is_reserved": 0, "name": "6475d8178ee901007b41004c5ff3af62", "is_disabled": 0}, {"rental_uris": {"ios": "https://dc.lft.to/lastmile_qr_scan", "android": "https://dc.lft.to/lastmile_qr_scan"}, "lat": 38.933885833333335, "bike_id": "f0e67a4e517f4ea69ae14341ce3f777b", "lon": -76.99505416666666, "type": "electric_scooter", "fusion_lon": 0.0, "fusion_lat": 0.0, "is_reserved": 0, "name": "f0e67a4e517f4ea69ae14341ce3f777b", "is_disabled": 0}, {"rental_uris": {"ios": "https://dc.lft.to/lastmile_qr_scan", "android": "https://dc.lft.to/lastmile_qr_scan"}, "lat": 38.93922966666667, "bike_id": "97f90a3b0e10072bf6d51c725dbf36de", "lon": -76.95505916666667, "type": "electric_bike", "fusion_lon": 0.0, "fusion_lat": 0.0, "is_reserved": 0, "name": "97f90a3b0e10072bf6d51c725dbf36de", "is_disabled": 0}, {"rental_uris": {"ios": "https://dc.lft.to/lastmile_qr_scan", "android": "https://dc.lft.to/lastmile_qr_scan"}, "lat": 38.905397, "bike_id": "1511aee73dc2e45527afd6d4d740a6e3", "lon": -77.03987083333334, "type": "electric_scooter", "fusion_lon": 0.0, "fusion_lat": 0.0, "is_reserved": 0, "name": "1511aee73dc2e45527afd6d4d740a6e3", "is_disabled": 0}, {"rental_uris": {"ios": "https://dc.lft.to/lastmile_qr_scan", "android": "https://dc.lft.to/lastmile_qr_scan"}, "lat": 38.89761466666667, "bike_id": "6bf04826d7e93660a045de7bf748758e", "lon": -77.02082933333334, "type": "electric_scooter", "fusion_lon": 0.0, "fusion_lat": 0.0, "is_reserved": 0, "name": "6bf04826d7e93660a045de7bf748758e", "is_disabled": 0}, {"rental_uris": {"ios": "https://dc.lft.to/lastmile_qr_scan", "android": "https://dc.lft.to/lastmile_qr_scan"}, "lat": 38.92689166666667, "bike_id": "dff6108ca0872dd2711c68fc349ea31c", "lon": -77.02199733333333, "type": "electric_scooter", "fusion_lon": 0.0, "fusion_lat": 0.0, "is_reserved": 0, "name": "dff6108ca0872dd2711c68fc349ea31c", "is_disabled": 0}, {"rental_uris": {"ios": "https://dc.lft.to/lastmile_qr_scan", "android": "https://dc.lft.to/lastmile_qr_scan"}, "lat": 38.9245635, "bike_id": "0538d91acc908ffd0321089bc490c3b4", "lon": -77.22558716666667, "type": "electric_bike", "fusion_lon": 0.0, "fusion_lat": 0.0, "is_reserved": 0, "name": "0538d91acc908ffd0321089bc490c3b4", "is_disabled": 0}, {"rental_uris": {"ios": "https://dc.lft.to/lastmile_qr_scan", "android": "https://dc.lft.to/lastmile_qr_scan"}, "lat": 38.92043283333334, "bike_id": "cc20a1f30e82428be9b00c0fb98f8aff", "lon": -77.01675333333333, "type": "electric_scooter", "fusion_lon": 0.0, "fusion_lat": 0.0, "is_reserved": 0, "name": "cc20a1f30e82428be9b00c0fb98f8aff", "is_disabled": 0}, {"rental_uris": {"ios": "https://dc.lft.to/lastmile_qr_scan", "android": "https://dc.lft.to/lastmile_qr_scan"}, "lat": 38.89503233333333, "bike_id": "795692fd0822570e40616cd4bec2a905", "lon": -77.0467635, "type": "electric_scooter", "fusion_lon": 0.0, "fusion_lat": 0.0, "is_reserved": 0, "name": "795692fd0822570e40616cd4bec2a905", "is_disabled": 0}, {"rental_uris": {"ios": "https://dc.lft.to/lastmile_qr_scan", "android": "https://dc.lft.to/lastmile_qr_scan"}, "lat": 38.89965133333333, "bike_id": "3fd43a434d81997ec90210ff5fde2063", "lon": -77.044963, "type": "electric_scooter", "fusion_lon": 0.0, "fusion_lat": 0.0, "is_reserved": 0, "name": "3fd43a434d81997ec90210ff5fde2063", "is_disabled": 0}, {"rental_uris": {"ios": "https://dc.lft.to/lastmile_qr_scan", "android": "https://dc.lft.to/lastmile_qr_scan"}, "lat": 38.873836833333336, "bike_id": "0efd6f7fed4ae9f70aec7dda71d50b35", "lon": -77.00068066666667, "type": "electric_scooter", "fusion_lon": 0.0, "fusion_lat": 0.0, "is_reserved": 0, "name": "0efd6f7fed4ae9f70aec7dda71d50b35", "is_disabled": 0}, {"rental_uris": {"ios": "https://dc.lft.to/lastmile_qr_scan", "android": "https://dc.lft.to/lastmile_qr_scan"}, "lat": 38.93583533333333, "bike_id": "b84afdcd59482d9376e7543c1e52d1cf", "lon": -77.03347083333334, "type": "electric_scooter", "fusion_lon": 0.0, "fusion_lat": 0.0, "is_reserved": 0, "name": "b84afdcd59482d9376e7543c1e52d1cf", "is_disabled": 0}, {"rental_uris": {"ios": "https://dc.lft.to/lastmile_qr_scan", "android": "https://dc.lft.to/lastmile_qr_scan"}, "lat": 38.915541833333336, "bike_id": "bd227ddd7b60ccc0e8a4c1eeaa8e9c87", "lon": -77.0317355, "type": "electric_scooter", "fusion_lon": 0.0, "fusion_lat": 0.0, "is_reserved": 0, "name": "bd227ddd7b60ccc0e8a4c1eeaa8e9c87", "is_disabled": 0}, {"rental_uris": {"ios": "https://dc.lft.to/lastmile_qr_scan", "android": "https://dc.lft.to/lastmile_qr_scan"}, "lat": 38.884511333333336, "bike_id": "8872bd1bbdb5ff84ec1ffc3bd61cd742", "lon": -76.95092066666666, "type": "electric_scooter", "fusion_lon": 0.0, "fusion_lat": 0.0, "is_reserved": 0, "name": "8872bd1bbdb5ff84ec1ffc3bd61cd742", "is_disabled": 0}, {"rental_uris": {"ios": "https://dc.lft.to/lastmile_qr_scan", "android": "https://dc.lft.to/lastmile_qr_scan"}, "lat": 38.93216, "bike_id": "b4192b9936184fc45f45c6ed58acd5db", "lon": -76.998994, "type": "electric_scooter", "fusion_lon": 0.0, "fusion_lat": 0.0, "is_reserved": 0, "name": "b4192b9936184fc45f45c6ed58acd5db", "is_disabled": 0}, {"rental_uris": {"ios": "https://dc.lft.to/lastmile_qr_scan", "android": "https://dc.lft.to/lastmile_qr_scan"}, "lat": 38.895584666666664, "bike_id": "893559aa3f987627b2f2f4a33362531e", "lon": -77.0467345, "type": "electric_scooter", "fusion_lon": 0.0, "fusion_lat": 0.0, "is_reserved": 0, "name": "893559aa3f987627b2f2f4a33362531e", "is_disabled": 0}, {"rental_uris": {"ios": "https://dc.lft.to/lastmile_qr_scan", "android": "https://dc.lft.to/lastmile_qr_scan"}, "lat": 38.91994716666667, "bike_id": "183d26c614c6c34519a427f013a4833e", "lon": -77.03266383333333, "type": "electric_scooter", "fusion_lon": 0.0, "fusion_lat": 0.0, "is_reserved": 0, "name": "183d26c614c6c34519a427f013a4833e", "is_disabled": 0}, {"rental_uris": {"ios": "https://dc.lft.to/lastmile_qr_scan", "android": "https://dc.lft.to/lastmile_qr_scan"}, "lat": 38.93501783333333, "bike_id": "ace5ddfca614345fbdb60560de7578ac", "lon": -76.99799783333333, "type": "electric_bike", "fusion_lon": 0.0, "fusion_lat": 0.0, "is_reserved": 0, "name": "ace5ddfca614345fbdb60560de7578ac", "is_disabled": 0}, {"rental_uris": {"ios": "https://dc.lft.to/lastmile_qr_scan", "android": "https://dc.lft.to/lastmile_qr_scan"}, "lat": 39.040838, "bike_id": "d55a7ea2ec59b63cc935afc39000694f", "lon": -77.05337633333333, "type": "electric_bike", "fusion_lon": 0.0, "fusion_lat": 0.0, "is_reserved": 0, "name": "d55a7ea2ec59b63cc935afc39000694f", "is_disabled": 0}, {"rental_uris": {"ios": "https://dc.lft.to/lastmile_qr_scan", "android": "https://dc.lft.to/lastmile_qr_scan"}, "lat": 38.90579366666667, "bike_id": "076b8be7af321ea06c1f5c4105eccdc8", "lon": -77.03442116666666, "type": "electric_scooter", "fusion_lon": 0.0, "fusion_lat": 0.0, "is_reserved": 0, "name": "076b8be7af321ea06c1f5c4105eccdc8", "is_disabled": 0}, {"rental_uris": {"ios": "https://dc.lft.to/lastmile_qr_scan", "android": "https://dc.lft.to/lastmile_qr_scan"}, "lat": 38.917332333333334, "bike_id": "a2c83b6f64ab36c9c2ddb0893ce6961d", "lon": -77.04321716666666, "type": "electric_scooter", "fusion_lon": 0.0, "fusion_lat": 0.0, "is_reserved": 0, "name": "a2c83b6f64ab36c9c2ddb0893ce6961d", "is_disabled": 0}, {"rental_uris": {"ios": "https://dc.lft.to/lastmile_qr_scan", "android": "https://dc.lft.to/lastmile_qr_scan"}, "lat": 38.89222266666667, "bike_id": "40ff523e10a5db55c2911e0fd38c2520", "lon": -77.01487983333334, "type": "electric_scooter", "fusion_lon": 0.0, "fusion_lat": 0.0, "is_reserved": 0, "name": "40ff523e10a5db55c2911e0fd38c2520", "is_disabled": 0}, {"rental_uris": {"ios": "https://dc.lft.to/lastmile_qr_scan", "android": "https://dc.lft.to/lastmile_qr_scan"}, "lat": 38.908474, "bike_id": "78cc67aa2e3a0a10bfff0f64323c31b4", "lon": -77.01253233333334, "type": "electric_scooter", "fusion_lon": 0.0, "fusion_lat": 0.0, "is_reserved": 0, "name": "78cc67aa2e3a0a10bfff0f64323c31b4", "is_disabled": 0}, {"rental_uris": {"ios": "https://dc.lft.to/lastmile_qr_scan", "android": "https://dc.lft.to/lastmile_qr_scan"}, "lat": 38.938824833333335, "bike_id": "384d57c58fd62c63d1929cf6fc7717d4", "lon": -77.02480533333333, "type": "electric_scooter", "fusion_lon": 0.0, "fusion_lat": 0.0, "is_reserved": 0, "name": "384d57c58fd62c63d1929cf6fc7717d4", "is_disabled": 0}, {"rental_uris": {"ios": "https://dc.lft.to/lastmile_qr_scan", "android": "https://dc.lft.to/lastmile_qr_scan"}, "lat": 38.901655, "bike_id": "5b6f78e2a5ec725e9d57addcd99f5fe7", "lon": -77.0505355, "type": "electric_scooter", "fusion_lon": 0.0, "fusion_lat": 0.0, "is_reserved": 0, "name": "5b6f78e2a5ec725e9d57addcd99f5fe7", "is_disabled": 0}, {"rental_uris": {"ios": "https://dc.lft.to/lastmile_qr_scan", "android": "https://dc.lft.to/lastmile_qr_scan"}, "lat": 38.90970333333333, "bike_id": "e0fe1599299b8d01910daf14532f0742", "lon": -77.03288316666666, "type": "electric_scooter", "fusion_lon": 0.0, "fusion_lat": 0.0, "is_reserved": 0, "name": "e0fe1599299b8d01910daf14532f0742", "is_disabled": 0}, {"rental_uris": {"ios": "https://dc.lft.to/lastmile_qr_scan", "android": "https://dc.lft.to/lastmile_qr_scan"}, "lat": 38.901573, "bike_id": "4a618864c1d91de0872d38e6b850a022", "lon": -76.97626466666667, "type": "electric_scooter", "fusion_lon": 0.0, "fusion_lat": 0.0, "is_reserved": 0, "name": "4a618864c1d91de0872d38e6b850a022", "is_disabled": 0}, {"rental_uris": {"ios": "https://dc.lft.to/lastmile_qr_scan", "android": "https://dc.lft.to/lastmile_qr_scan"}, "lat": 38.87710883333333, "bike_id": "c12dec901294ac5df9100322e298684d", "lon": -77.01758366666667, "type": "electric_scooter", "fusion_lon": 0.0, "fusion_lat": 0.0, "is_reserved": 0, "name": "c12dec901294ac5df9100322e298684d", "is_disabled": 0}, {"rental_uris": {"ios": "https://dc.lft.to/lastmile_qr_scan", "android": "https://dc.lft.to/lastmile_qr_scan"}, "lat": 38.911169666666666, "bike_id": "372573849991441e703eff89777525b3", "lon": -77.04402866666666, "type": "electric_scooter", "fusion_lon": 0.0, "fusion_lat": 0.0, "is_reserved": 0, "name": "372573849991441e703eff89777525b3", "is_disabled": 0}, {"rental_uris": {"ios": "https://dc.lft.to/lastmile_qr_scan", "android": "https://dc.lft.to/lastmile_qr_scan"}, "lat": 38.88494766666667, "bike_id": "a8e4349f09a1ef0f8c73b2e81c422f75", "lon": -77.0072695, "type": "electric_scooter", "fusion_lon": 0.0, "fusion_lat": 0.0, "is_reserved": 0, "name": "a8e4349f09a1ef0f8c73b2e81c422f75", "is_disabled": 0}, {"rental_uris": {"ios": "https://dc.lft.to/lastmile_qr_scan", "android": "https://dc.lft.to/lastmile_qr_scan"}, "lat": 38.90875783333333, "bike_id": "c4c584579837a1bcdb6bf6737e0953d0", "lon": -77.04103, "type": "electric_scooter", "fusion_lon": 0.0, "fusion_lat": 0.0, "is_reserved": 0, "name": "c4c584579837a1bcdb6bf6737e0953d0", "is_disabled": 0}, {"rental_uris": {"ios": "https://dc.lft.to/lastmile_qr_scan", "android": "https://dc.lft.to/lastmile_qr_scan"}, "lat": 38.8729805, "bike_id": "23cb4611819f8bf8e3d4159caa55d3b1", "lon": -76.9690285, "type": "electric_scooter", "fusion_lon": 0.0, "fusion_lat": 0.0, "is_reserved": 0, "name": "23cb4611819f8bf8e3d4159caa55d3b1", "is_disabled": 0}, {"rental_uris": {"ios": "https://dc.lft.to/lastmile_qr_scan", "android": "https://dc.lft.to/lastmile_qr_scan"}, "lat": 38.92603366666667, "bike_id": "8ecf254e489332506502de986a1d287d", "lon": -77.0215655, "type": "electric_scooter", "fusion_lon": 0.0, "fusion_lat": 0.0, "is_reserved": 0, "name": "8ecf254e489332506502de986a1d287d", "is_disabled": 0}, {"rental_uris": {"ios": "https://dc.lft.to/lastmile_qr_scan", "android": "https://dc.lft.to/lastmile_qr_scan"}, "lat": 38.898218, "bike_id": "35907231250a8831b0a59598929b7911", "lon": -77.04494133333333, "type": "electric_scooter", "fusion_lon": 0.0, "fusion_lat": 0.0, "is_reserved": 0, "name": "35907231250a8831b0a59598929b7911", "is_disabled": 0}, {"rental_uris": {"ios": "https://dc.lft.to/lastmile_qr_scan", "android": "https://dc.lft.to/lastmile_qr_scan"}, "lat": 38.8952035, "bike_id": "659b5a9936e23791bd9fcbecd5376a39", "lon": -77.022922, "type": "electric_scooter", "fusion_lon": 0.0, "fusion_lat": 0.0, "is_reserved": 0, "name": "659b5a9936e23791bd9fcbecd5376a39", "is_disabled": 0}, {"rental_uris": {"ios": "https://dc.lft.to/lastmile_qr_scan", "android": "https://dc.lft.to/lastmile_qr_scan"}, "lat": 38.90522966666666, "bike_id": "878d7ff4f68a1312d8793813d77b6ce7", "lon": -77.061561, "type": "electric_scooter", "fusion_lon": 0.0, "fusion_lat": 0.0, "is_reserved": 0, "name": "878d7ff4f68a1312d8793813d77b6ce7", "is_disabled": 0}, {"rental_uris": {"ios": "https://dc.lft.to/lastmile_qr_scan", "android": "https://dc.lft.to/lastmile_qr_scan"}, "lat": 38.92040633333333, "bike_id": "944d6d5a93479f0409f1fc8b3b96bf01", "lon": -77.04198516666666, "type": "electric_scooter", "fusion_lon": 0.0, "fusion_lat": 0.0, "is_reserved": 0, "name": "944d6d5a93479f0409f1fc8b3b96bf01", "is_disabled": 0}, {"rental_uris": {"ios": "https://dc.lft.to/lastmile_qr_scan", "android": "https://dc.lft.to/lastmile_qr_scan"}, "lat": 38.921539333333335, "bike_id": "529d05a86a014754cad416d45fa3ed21", "lon": -77.03496566666666, "type": "electric_scooter", "fusion_lon": 0.0, "fusion_lat": 0.0, "is_reserved": 0, "name": "529d05a86a014754cad416d45fa3ed21", "is_disabled": 0}, {"rental_uris": {"ios": "https://dc.lft.to/lastmile_qr_scan", "android": "https://dc.lft.to/lastmile_qr_scan"}, "lat": 38.884682833333336, "bike_id": "cee781fd4cc0e3a2673116f43e9d90eb", "lon": -77.03191916666667, "type": "electric_scooter", "fusion_lon": 0.0, "fusion_lat": 0.0, "is_reserved": 0, "name": "cee781fd4cc0e3a2673116f43e9d90eb", "is_disabled": 0}, {"rental_uris": {"ios": "https://dc.lft.to/lastmile_qr_scan", "android": "https://dc.lft.to/lastmile_qr_scan"}, "lat": 38.95372866666666, "bike_id": "591bfb66270f455854add0ce5fe3bfd3", "lon": -76.97964883333333, "type": "electric_bike", "fusion_lon": 0.0, "fusion_lat": 0.0, "is_reserved": 0, "name": "591bfb66270f455854add0ce5fe3bfd3", "is_disabled": 0}, {"rental_uris": {"ios": "https://dc.lft.to/lastmile_qr_scan", "android": "https://dc.lft.to/lastmile_qr_scan"}, "lat": 38.88028083333333, "bike_id": "97548d9f53f6b47a6dee71a71e8b030f", "lon": -77.02228716666667, "type": "electric_scooter", "fusion_lon": 0.0, "fusion_lat": 0.0, "is_reserved": 0, "name": "97548d9f53f6b47a6dee71a71e8b030f", "is_disabled": 0}, {"rental_uris": {"ios": "https://dc.lft.to/lastmile_qr_scan", "android": "https://dc.lft.to/lastmile_qr_scan"}, "lat": 38.898444166666664, "bike_id": "2d28bb7e53c49f5d81519edf1f634ab8", "lon": -77.0498465, "type": "electric_scooter", "fusion_lon": 0.0, "fusion_lat": 0.0, "is_reserved": 0, "name": "2d28bb7e53c49f5d81519edf1f634ab8", "is_disabled": 0}, {"rental_uris": {"ios": "https://dc.lft.to/lastmile_qr_scan", "android": "https://dc.lft.to/lastmile_qr_scan"}, "lat": 38.90979816666667, "bike_id": "c930d63cb5819e18da6166ba31fba090", "lon": -77.03184166666666, "type": "electric_scooter", "fusion_lon": 0.0, "fusion_lat": 0.0, "is_reserved": 0, "name": "c930d63cb5819e18da6166ba31fba090", "is_disabled": 0}, {"rental_uris": {"ios": "https://dc.lft.to/lastmile_qr_scan", "android": "https://dc.lft.to/lastmile_qr_scan"}, "lat": 38.9342575, "bike_id": "44ad179dddff7f1f4b75484f5f5b8da1", "lon": -77.0399985, "type": "electric_scooter", "fusion_lon": 0.0, "fusion_lat": 0.0, "is_reserved": 0, "name": "44ad179dddff7f1f4b75484f5f5b8da1", "is_disabled": 0}, {"rental_uris": {"ios": "https://dc.lft.to/lastmile_qr_scan", "android": "https://dc.lft.to/lastmile_qr_scan"}, "lat": 38.891843333333334, "bike_id": "797233d4a4b9b82539114406cc8997cc", "lon": -76.99478283333333, "type": "electric_scooter", "fusion_lon": 0.0, "fusion_lat": 0.0, "is_reserved": 0, "name": "797233d4a4b9b82539114406cc8997cc", "is_disabled": 0}, {"rental_uris": {"ios": "https://dc.lft.to/lastmile_qr_scan", "android": "https://dc.lft.to/lastmile_qr_scan"}, "lat": 38.9278435, "bike_id": "0f7291716a4525dfac634d7d2ba75dac", "lon": -77.05256016666667, "type": "electric_scooter", "fusion_lon": 0.0, "fusion_lat": 0.0, "is_reserved": 0, "name": "0f7291716a4525dfac634d7d2ba75dac", "is_disabled": 0}, {"rental_uris": {"ios": "https://dc.lft.to/lastmile_qr_scan", "android": "https://dc.lft.to/lastmile_qr_scan"}, "lat": 38.905231666666666, "bike_id": "4712e45f91a4a7baa562122e802633e7", "lon": -77.06448783333333, "type": "electric_scooter", "fusion_lon": 0.0, "fusion_lat": 0.0, "is_reserved": 0, "name": "4712e45f91a4a7baa562122e802633e7", "is_disabled": 0}, {"rental_uris": {"ios": "https://dc.lft.to/lastmile_qr_scan", "android": "https://dc.lft.to/lastmile_qr_scan"}, "lat": 38.892346833333335, "bike_id": "ab326c2693aadc8d9c793380c977e1e7", "lon": -77.032046, "type": "electric_scooter", "fusion_lon": 0.0, "fusion_lat": 0.0, "is_reserved": 0, "name": "ab326c2693aadc8d9c793380c977e1e7", "is_disabled": 0}, {"rental_uris": {"ios": "https://dc.lft.to/lastmile_qr_scan", "android": "https://dc.lft.to/lastmile_qr_scan"}, "lat": 38.89248083333333, "bike_id": "4c7dd3b236c14e9293196de0e55dc0f1", "lon": -77.03182883333334, "type": "electric_scooter", "fusion_lon": 0.0, "fusion_lat": 0.0, "is_reserved": 0, "name": "4c7dd3b236c14e9293196de0e55dc0f1", "is_disabled": 0}, {"rental_uris": {"ios": "https://dc.lft.to/lastmile_qr_scan", "android": "https://dc.lft.to/lastmile_qr_scan"}, "lat": 38.907777, "bike_id": "50aaee97fd5acfa842af2759e61861a0", "lon": -77.0716345, "type": "electric_scooter", "fusion_lon": 0.0, "fusion_lat": 0.0, "is_reserved": 0, "name": "50aaee97fd5acfa842af2759e61861a0", "is_disabled": 0}, {"rental_uris": {"ios": "https://dc.lft.to/lastmile_qr_scan", "android": "https://dc.lft.to/lastmile_qr_scan"}, "lat": 38.902188333333335, "bike_id": "8a42e2ddbfe4befce03b88c26ae5b156", "lon": -77.04787816666666, "type": "electric_scooter", "fusion_lon": 0.0, "fusion_lat": 0.0, "is_reserved": 0, "name": "8a42e2ddbfe4befce03b88c26ae5b156", "is_disabled": 0}, {"rental_uris": {"ios": "https://dc.lft.to/lastmile_qr_scan", "android": "https://dc.lft.to/lastmile_qr_scan"}, "lat": 38.912940666666664, "bike_id": "f05939d254447f4f3cd2fb95d0be10ee", "lon": -77.023788, "type": "electric_scooter", "fusion_lon": 0.0, "fusion_lat": 0.0, "is_reserved": 0, "name": "f05939d254447f4f3cd2fb95d0be10ee", "is_disabled": 0}, {"rental_uris": {"ios": "https://dc.lft.to/lastmile_qr_scan", "android": "https://dc.lft.to/lastmile_qr_scan"}, "lat": 38.8945995, "bike_id": "9c26a406f8f9b264914d3f00de10ef5a", "lon": -77.04669766666666, "type": "electric_scooter", "fusion_lon": 0.0, "fusion_lat": 0.0, "is_reserved": 0, "name": "9c26a406f8f9b264914d3f00de10ef5a", "is_disabled": 0}, {"rental_uris": {"ios": "https://dc.lft.to/lastmile_qr_scan", "android": "https://dc.lft.to/lastmile_qr_scan"}, "lat": 38.9157365, "bike_id": "8c8585c29a5524c9ad9721b4d2705668", "lon": -77.01583283333333, "type": "electric_scooter", "fusion_lon": 0.0, "fusion_lat": 0.0, "is_reserved": 0, "name": "8c8585c29a5524c9ad9721b4d2705668", "is_disabled": 0}, {"rental_uris": {"ios": "https://dc.lft.to/lastmile_qr_scan", "android": "https://dc.lft.to/lastmile_qr_scan"}, "lat": 38.91014883333333, "bike_id": "527e3b48e2873f2ece7895426d30e0f4", "lon": -77.03427083333334, "type": "electric_scooter", "fusion_lon": 0.0, "fusion_lat": 0.0, "is_reserved": 0, "name": "527e3b48e2873f2ece7895426d30e0f4", "is_disabled": 0}, {"rental_uris": {"ios": "https://dc.lft.to/lastmile_qr_scan", "android": "https://dc.lft.to/lastmile_qr_scan"}, "lat": 38.887407, "bike_id": "4ec0af29453bd77e3de88415b288b69e", "lon": -77.0153185, "type": "electric_scooter", "fusion_lon": 0.0, "fusion_lat": 0.0, "is_reserved": 0, "name": "4ec0af29453bd77e3de88415b288b69e", "is_disabled": 0}, {"rental_uris": {"ios": "https://dc.lft.to/lastmile_qr_scan", "android": "https://dc.lft.to/lastmile_qr_scan"}, "lat": 38.945399, "bike_id": "6f500b35db0308ce0fa8e91ba5db6208", "lon": -77.07959483333333, "type": "electric_scooter", "fusion_lon": 0.0, "fusion_lat": 0.0, "is_reserved": 0, "name": "6f500b35db0308ce0fa8e91ba5db6208", "is_disabled": 0}, {"rental_uris": {"ios": "https://dc.lft.to/lastmile_qr_scan", "android": "https://dc.lft.to/lastmile_qr_scan"}, "lat": 38.87657766666667, "bike_id": "67d1b2b90db7554a782d3394d742511a", "lon": -77.00443766666666, "type": "electric_scooter", "fusion_lon": 0.0, "fusion_lat": 0.0, "is_reserved": 0, "name": "67d1b2b90db7554a782d3394d742511a", "is_disabled": 0}, {"rental_uris": {"ios": "https://dc.lft.to/lastmile_qr_scan", "android": "https://dc.lft.to/lastmile_qr_scan"}, "lat": 38.90882783333333, "bike_id": "4027c03022a29ef4075ffede6be06791", "lon": -77.031872, "type": "electric_scooter", "fusion_lon": 0.0, "fusion_lat": 0.0, "is_reserved": 0, "name": "4027c03022a29ef4075ffede6be06791", "is_disabled": 0}, {"rental_uris": {"ios": "https://dc.lft.to/lastmile_qr_scan", "android": "https://dc.lft.to/lastmile_qr_scan"}, "lat": 38.903589, "bike_id": "171814b826b0c6cff637778afc6153f2", "lon": -77.037255, "type": "electric_scooter", "fusion_lon": 0.0, "fusion_lat": 0.0, "is_reserved": 0, "name": "171814b826b0c6cff637778afc6153f2", "is_disabled": 0}, {"rental_uris": {"ios": "https://dc.lft.to/lastmile_qr_scan", "android": "https://dc.lft.to/lastmile_qr_scan"}, "lat": 38.91745516666667, "bike_id": "965d50c0d474cfe3147759cf5f277e4e", "lon": -77.010841, "type": "electric_scooter", "fusion_lon": 0.0, "fusion_lat": 0.0, "is_reserved": 0, "name": "965d50c0d474cfe3147759cf5f277e4e", "is_disabled": 0}, {"rental_uris": {"ios": "https://dc.lft.to/lastmile_qr_scan", "android": "https://dc.lft.to/lastmile_qr_scan"}, "lat": 38.90357633333333, "bike_id": "937c0556c10900204731f9b72040eb50", "lon": -77.03722783333333, "type": "electric_scooter", "fusion_lon": 0.0, "fusion_lat": 0.0, "is_reserved": 0, "name": "937c0556c10900204731f9b72040eb50", "is_disabled": 0}, {"rental_uris": {"ios": "https://dc.lft.to/lastmile_qr_scan", "android": "https://dc.lft.to/lastmile_qr_scan"}, "lat": 38.845291333333336, "bike_id": "b68bac41b9264b294413ad61e7309276", "lon": -76.9739375, "type": "electric_bike", "fusion_lon": 0.0, "fusion_lat": 0.0, "is_reserved": 0, "name": "b68bac41b9264b294413ad61e7309276", "is_disabled": 0}, {"rental_uris": {"ios": "https://dc.lft.to/lastmile_qr_scan", "android": "https://dc.lft.to/lastmile_qr_scan"}, "lat": 38.9101075, "bike_id": "dc08d595b8d5c06e3a206b1111ee3849", "lon": -76.99867366666666, "type": "electric_scooter", "fusion_lon": 0.0, "fusion_lat": 0.0, "is_reserved": 0, "name": "dc08d595b8d5c06e3a206b1111ee3849", "is_disabled": 0}, {"rental_uris": {"ios": "https://dc.lft.to/lastmile_qr_scan", "android": "https://dc.lft.to/lastmile_qr_scan"}, "lat": 38.91349483333333, "bike_id": "e9adc2f3d2fae735d29c6b70993d70f5", "lon": -77.04356883333334, "type": "electric_scooter", "fusion_lon": 0.0, "fusion_lat": 0.0, "is_reserved": 0, "name": "e9adc2f3d2fae735d29c6b70993d70f5", "is_disabled": 0}, {"rental_uris": {"ios": "https://dc.lft.to/lastmile_qr_scan", "android": "https://dc.lft.to/lastmile_qr_scan"}, "lat": 38.91566683333333, "bike_id": "8861d122a49e672e0ed828f0565863c5", "lon": -77.03150783333334, "type": "electric_scooter", "fusion_lon": 0.0, "fusion_lat": 0.0, "is_reserved": 0, "name": "8861d122a49e672e0ed828f0565863c5", "is_disabled": 0}, {"rental_uris": {"ios": "https://dc.lft.to/lastmile_qr_scan", "android": "https://dc.lft.to/lastmile_qr_scan"}, "lat": 38.90231283333333, "bike_id": "f7a340642f4dcbe94c1e681a62853306", "lon": -77.0294505, "type": "electric_scooter", "fusion_lon": 0.0, "fusion_lat": 0.0, "is_reserved": 0, "name": "f7a340642f4dcbe94c1e681a62853306", "is_disabled": 0}, {"rental_uris": {"ios": "https://dc.lft.to/lastmile_qr_scan", "android": "https://dc.lft.to/lastmile_qr_scan"}, "lat": 38.900858666666664, "bike_id": "1b4eb2ba919e875536b5395806fbf679", "lon": -77.02712716666667, "type": "electric_scooter", "fusion_lon": 0.0, "fusion_lat": 0.0, "is_reserved": 0, "name": "1b4eb2ba919e875536b5395806fbf679", "is_disabled": 0}, {"rental_uris": {"ios": "https://dc.lft.to/lastmile_qr_scan", "android": "https://dc.lft.to/lastmile_qr_scan"}, "lat": 38.904968833333335, "bike_id": "282a3a3aa8f4bb93fcda606010061513", "lon": -77.026011, "type": "electric_scooter", "fusion_lon": 0.0, "fusion_lat": 0.0, "is_reserved": 0, "name": "282a3a3aa8f4bb93fcda606010061513", "is_disabled": 0}, {"rental_uris": {"ios": "https://dc.lft.to/lastmile_qr_scan", "android": "https://dc.lft.to/lastmile_qr_scan"}, "lat": 38.920296666666665, "bike_id": "66423d238ab5d7ad22ce261be87bb371", "lon": -77.01026816666666, "type": "electric_scooter", "fusion_lon": 0.0, "fusion_lat": 0.0, "is_reserved": 0, "name": "66423d238ab5d7ad22ce261be87bb371", "is_disabled": 0}, {"rental_uris": {"ios": "https://dc.lft.to/lastmile_qr_scan", "android": "https://dc.lft.to/lastmile_qr_scan"}, "lat": 38.917114833333336, "bike_id": "9ba833e4d4534189b15e6e00183e255c", "lon": -77.024515, "type": "electric_scooter", "fusion_lon": 0.0, "fusion_lat": 0.0, "is_reserved": 0, "name": "9ba833e4d4534189b15e6e00183e255c", "is_disabled": 0}, {"rental_uris": {"ios": "https://dc.lft.to/lastmile_qr_scan", "android": "https://dc.lft.to/lastmile_qr_scan"}, "lat": 38.92365233333334, "bike_id": "97e4a75b4e894b04b5b831629c06ed22", "lon": -77.01950366666667, "type": "electric_scooter", "fusion_lon": 0.0, "fusion_lat": 0.0, "is_reserved": 0, "name": "97e4a75b4e894b04b5b831629c06ed22", "is_disabled": 0}, {"rental_uris": {"ios": "https://dc.lft.to/lastmile_qr_scan", "android": "https://dc.lft.to/lastmile_qr_scan"}, "lat": 38.911185333333336, "bike_id": "25dfeea9025addcd53af74ea367b5995", "lon": -77.02229616666666, "type": "electric_scooter", "fusion_lon": 0.0, "fusion_lat": 0.0, "is_reserved": 0, "name": "25dfeea9025addcd53af74ea367b5995", "is_disabled": 0}, {"rental_uris": {"ios": "https://dc.lft.to/lastmile_qr_scan", "android": "https://dc.lft.to/lastmile_qr_scan"}, "lat": 38.9017105, "bike_id": "9cb9e3023079a26b12a13318f6e0aaa7", "lon": -76.92657416666667, "type": "electric_scooter", "fusion_lon": 0.0, "fusion_lat": 0.0, "is_reserved": 0, "name": "9cb9e3023079a26b12a13318f6e0aaa7", "is_disabled": 0}, {"rental_uris": {"ios": "https://dc.lft.to/lastmile_qr_scan", "android": "https://dc.lft.to/lastmile_qr_scan"}, "lat": 38.9030345, "bike_id": "5f9e68757aa55babc7c5e6d805d257ca", "lon": -77.02057933333333, "type": "electric_scooter", "fusion_lon": 0.0, "fusion_lat": 0.0, "is_reserved": 0, "name": "5f9e68757aa55babc7c5e6d805d257ca", "is_disabled": 0}, {"rental_uris": {"ios": "https://dc.lft.to/lastmile_qr_scan", "android": "https://dc.lft.to/lastmile_qr_scan"}, "lat": 38.9169795, "bike_id": "fcd4ac8363a39ddfb754538f2c8d950a", "lon": -77.01192616666667, "type": "electric_scooter", "fusion_lon": 0.0, "fusion_lat": 0.0, "is_reserved": 0, "name": "fcd4ac8363a39ddfb754538f2c8d950a", "is_disabled": 0}, {"rental_uris": {"ios": "https://dc.lft.to/lastmile_qr_scan", "android": "https://dc.lft.to/lastmile_qr_scan"}, "lat": 38.905986166666665, "bike_id": "dbdf088a056e503fde25fc8fed4e7a45", "lon": -77.00584566666667, "type": "electric_scooter", "fusion_lon": 0.0, "fusion_lat": 0.0, "is_reserved": 0, "name": "dbdf088a056e503fde25fc8fed4e7a45", "is_disabled": 0}, {"rental_uris": {"ios": "https://dc.lft.to/lastmile_qr_scan", "android": "https://dc.lft.to/lastmile_qr_scan"}, "lat": 38.9737395, "bike_id": "ded5a81878f1403f67ceb2e69c5c10c8", "lon": -77.01850266666666, "type": "electric_scooter", "fusion_lon": 0.0, "fusion_lat": 0.0, "is_reserved": 0, "name": "ded5a81878f1403f67ceb2e69c5c10c8", "is_disabled": 0}, {"rental_uris": {"ios": "https://dc.lft.to/lastmile_qr_scan", "android": "https://dc.lft.to/lastmile_qr_scan"}, "lat": 38.8715535, "bike_id": "7155b0c193a737f598e45f182e834bd1", "lon": -77.007067, "type": "electric_scooter", "fusion_lon": 0.0, "fusion_lat": 0.0, "is_reserved": 0, "name": "7155b0c193a737f598e45f182e834bd1", "is_disabled": 0}, {"rental_uris": {"ios": "https://dc.lft.to/lastmile_qr_scan", "android": "https://dc.lft.to/lastmile_qr_scan"}, "lat": 38.9204825, "bike_id": "c1cce470535fe78a10dc43cd8980e105", "lon": -77.03352233333334, "type": "electric_scooter", "fusion_lon": 0.0, "fusion_lat": 0.0, "is_reserved": 0, "name": "c1cce470535fe78a10dc43cd8980e105", "is_disabled": 0}, {"rental_uris": {"ios": "https://dc.lft.to/lastmile_qr_scan", "android": "https://dc.lft.to/lastmile_qr_scan"}, "lat": 38.89949816666667, "bike_id": "5a1d5ebab721ce98ef5c2c23df532977", "lon": -77.02805166666667, "type": "electric_scooter", "fusion_lon": 0.0, "fusion_lat": 0.0, "is_reserved": 0, "name": "5a1d5ebab721ce98ef5c2c23df532977", "is_disabled": 0}, {"rental_uris": {"ios": "https://dc.lft.to/lastmile_qr_scan", "android": "https://dc.lft.to/lastmile_qr_scan"}, "lat": 38.89546166666667, "bike_id": "b8b198c520b8e1fc862c20219790feb5", "lon": -76.98248683333334, "type": "electric_scooter", "fusion_lon": 0.0, "fusion_lat": 0.0, "is_reserved": 0, "name": "b8b198c520b8e1fc862c20219790feb5", "is_disabled": 0}, {"rental_uris": {"ios": "https://dc.lft.to/lastmile_qr_scan", "android": "https://dc.lft.to/lastmile_qr_scan"}, "lat": 38.9075185, "bike_id": "24c7d1af39df4f91d46fb54973fda451", "lon": -77.03601083333334, "type": "electric_scooter", "fusion_lon": 0.0, "fusion_lat": 0.0, "is_reserved": 0, "name": "24c7d1af39df4f91d46fb54973fda451", "is_disabled": 0}, {"rental_uris": {"ios": "https://dc.lft.to/lastmile_qr_scan", "android": "https://dc.lft.to/lastmile_qr_scan"}, "lat": 38.87660983333333, "bike_id": "444cc356387c68696cb8fb8d601b32f8", "lon": -77.00459766666667, "type": "electric_scooter", "fusion_lon": 0.0, "fusion_lat": 0.0, "is_reserved": 0, "name": "444cc356387c68696cb8fb8d601b32f8", "is_disabled": 0}, {"rental_uris": {"ios": "https://dc.lft.to/lastmile_qr_scan", "android": "https://dc.lft.to/lastmile_qr_scan"}, "lat": 38.86006833333333, "bike_id": "130aa6cfef8efd0d53d6c0d296d0d9a5", "lon": -76.99657716666667, "type": "electric_scooter", "fusion_lon": 0.0, "fusion_lat": 0.0, "is_reserved": 0, "name": "130aa6cfef8efd0d53d6c0d296d0d9a5", "is_disabled": 0}, {"rental_uris": {"ios": "https://dc.lft.to/lastmile_qr_scan", "android": "https://dc.lft.to/lastmile_qr_scan"}, "lat": 38.9156675, "bike_id": "a3a60065a952305dda0a8ac2ca6399d6", "lon": -77.03187916666667, "type": "electric_scooter", "fusion_lon": 0.0, "fusion_lat": 0.0, "is_reserved": 0, "name": "a3a60065a952305dda0a8ac2ca6399d6", "is_disabled": 0}, {"rental_uris": {"ios": "https://dc.lft.to/lastmile_qr_scan", "android": "https://dc.lft.to/lastmile_qr_scan"}, "lat": 38.875494, "bike_id": "73c394ae75473b352946435af151bb06", "lon": -77.00076383333334, "type": "electric_scooter", "fusion_lon": 0.0, "fusion_lat": 0.0, "is_reserved": 0, "name": "73c394ae75473b352946435af151bb06", "is_disabled": 0}, {"rental_uris": {"ios": "https://dc.lft.to/lastmile_qr_scan", "android": "https://dc.lft.to/lastmile_qr_scan"}, "lat": 38.922734, "bike_id": "c9d4df16e3e18c5efa6fbdbd5a88849d", "lon": -77.01820066666667, "type": "electric_scooter", "fusion_lon": 0.0, "fusion_lat": 0.0, "is_reserved": 0, "name": "c9d4df16e3e18c5efa6fbdbd5a88849d", "is_disabled": 0}, {"rental_uris": {"ios": "https://dc.lft.to/lastmile_qr_scan", "android": "https://dc.lft.to/lastmile_qr_scan"}, "lat": 38.908691166666664, "bike_id": "3c50b377f7b06c81eeace853a43b95d8", "lon": -76.93335866666666, "type": "electric_scooter", "fusion_lon": 0.0, "fusion_lat": 0.0, "is_reserved": 0, "name": "3c50b377f7b06c81eeace853a43b95d8", "is_disabled": 0}, {"rental_uris": {"ios": "https://dc.lft.to/lastmile_qr_scan", "android": "https://dc.lft.to/lastmile_qr_scan"}, "lat": 38.90837583333333, "bike_id": "26ad3c0334e73f622f34894d931be507", "lon": -77.03680316666667, "type": "electric_scooter", "fusion_lon": 0.0, "fusion_lat": 0.0, "is_reserved": 0, "name": "26ad3c0334e73f622f34894d931be507", "is_disabled": 0}, {"rental_uris": {"ios": "https://dc.lft.to/lastmile_qr_scan", "android": "https://dc.lft.to/lastmile_qr_scan"}, "lat": 38.8842105, "bike_id": "af3d4d5c7c0a7de0ffc04a7cc49a0ae5", "lon": -76.99695333333334, "type": "electric_scooter", "fusion_lon": 0.0, "fusion_lat": 0.0, "is_reserved": 0, "name": "af3d4d5c7c0a7de0ffc04a7cc49a0ae5", "is_disabled": 0}, {"rental_uris": {"ios": "https://dc.lft.to/lastmile_qr_scan", "android": "https://dc.lft.to/lastmile_qr_scan"}, "lat": 38.938526, "bike_id": "82c779fdf67b49c6a166a480dff72116", "lon": -77.03389833333334, "type": "electric_scooter", "fusion_lon": 0.0, "fusion_lat": 0.0, "is_reserved": 0, "name": "82c779fdf67b49c6a166a480dff72116", "is_disabled": 0}, {"rental_uris": {"ios": "https://dc.lft.to/lastmile_qr_scan", "android": "https://dc.lft.to/lastmile_qr_scan"}, "lat": 38.8962805, "bike_id": "f1885c33a53922f3b6d624fdf785deef", "lon": -77.02248216666666, "type": "electric_scooter", "fusion_lon": 0.0, "fusion_lat": 0.0, "is_reserved": 0, "name": "f1885c33a53922f3b6d624fdf785deef", "is_disabled": 0}, {"rental_uris": {"ios": "https://dc.lft.to/lastmile_qr_scan", "android": "https://dc.lft.to/lastmile_qr_scan"}, "lat": 38.907293333333335, "bike_id": "3348712ad2ff924211e68c47f1d873a0", "lon": -77.0237205, "type": "electric_scooter", "fusion_lon": 0.0, "fusion_lat": 0.0, "is_reserved": 0, "name": "3348712ad2ff924211e68c47f1d873a0", "is_disabled": 0}, {"rental_uris": {"ios": "https://dc.lft.to/lastmile_qr_scan", "android": "https://dc.lft.to/lastmile_qr_scan"}, "lat": 38.88258733333333, "bike_id": "f85b1012e9148a44821b734aae7f836a", "lon": -76.93555733333334, "type": "electric_scooter", "fusion_lon": 0.0, "fusion_lat": 0.0, "is_reserved": 0, "name": "f85b1012e9148a44821b734aae7f836a", "is_disabled": 0}, {"rental_uris": {"ios": "https://dc.lft.to/lastmile_qr_scan", "android": "https://dc.lft.to/lastmile_qr_scan"}, "lat": 38.908531833333335, "bike_id": "63c1878741a5af54dfc7fd01f338b28e", "lon": -76.99801316666667, "type": "electric_scooter", "fusion_lon": 0.0, "fusion_lat": 0.0, "is_reserved": 0, "name": "63c1878741a5af54dfc7fd01f338b28e", "is_disabled": 0}, {"rental_uris": {"ios": "https://dc.lft.to/lastmile_qr_scan", "android": "https://dc.lft.to/lastmile_qr_scan"}, "lat": 38.905841, "bike_id": "6aa696612c05c11aebf8bc9e1fff025c", "lon": -77.05705283333333, "type": "electric_scooter", "fusion_lon": 0.0, "fusion_lat": 0.0, "is_reserved": 0, "name": "6aa696612c05c11aebf8bc9e1fff025c", "is_disabled": 0}, {"rental_uris": {"ios": "https://dc.lft.to/lastmile_qr_scan", "android": "https://dc.lft.to/lastmile_qr_scan"}, "lat": 38.89439516666667, "bike_id": "e62cbd1d2e2f489452895bb506527db5", "lon": -77.026332, "type": "electric_scooter", "fusion_lon": 0.0, "fusion_lat": 0.0, "is_reserved": 0, "name": "e62cbd1d2e2f489452895bb506527db5", "is_disabled": 0}, {"rental_uris": {"ios": "https://dc.lft.to/lastmile_qr_scan", "android": "https://dc.lft.to/lastmile_qr_scan"}, "lat": 38.903719, "bike_id": "4a5f079059b9da6c99a2256feb4777e4", "lon": -77.03582983333334, "type": "electric_scooter", "fusion_lon": 0.0, "fusion_lat": 0.0, "is_reserved": 0, "name": "4a5f079059b9da6c99a2256feb4777e4", "is_disabled": 0}, {"rental_uris": {"ios": "https://dc.lft.to/lastmile_qr_scan", "android": "https://dc.lft.to/lastmile_qr_scan"}, "lat": 38.90364066666667, "bike_id": "6b11e1754f6e51eff0669395bf655caf", "lon": -77.0450785, "type": "electric_scooter", "fusion_lon": 0.0, "fusion_lat": 0.0, "is_reserved": 0, "name": "6b11e1754f6e51eff0669395bf655caf", "is_disabled": 0}, {"rental_uris": {"ios": "https://dc.lft.to/lastmile_qr_scan", "android": "https://dc.lft.to/lastmile_qr_scan"}, "lat": 38.8872195, "bike_id": "5eaad72d9532d386772ce8ce0fd14a29", "lon": -77.01980033333334, "type": "electric_scooter", "fusion_lon": 0.0, "fusion_lat": 0.0, "is_reserved": 0, "name": "5eaad72d9532d386772ce8ce0fd14a29", "is_disabled": 0}, {"rental_uris": {"ios": "https://dc.lft.to/lastmile_qr_scan", "android": "https://dc.lft.to/lastmile_qr_scan"}, "lat": 38.897468, "bike_id": "dd7d7293f9c93d405f04d3d94f608dc5", "lon": -77.046828, "type": "electric_scooter", "fusion_lon": 0.0, "fusion_lat": 0.0, "is_reserved": 0, "name": "dd7d7293f9c93d405f04d3d94f608dc5", "is_disabled": 0}, {"rental_uris": {"ios": "https://dc.lft.to/lastmile_qr_scan", "android": "https://dc.lft.to/lastmile_qr_scan"}, "lat": 38.907937, "bike_id": "561eb4343f6ab258fbfc939c3e28cea7", "lon": -77.03672516666667, "type": "electric_scooter", "fusion_lon": 0.0, "fusion_lat": 0.0, "is_reserved": 0, "name": "561eb4343f6ab258fbfc939c3e28cea7", "is_disabled": 0}, {"rental_uris": {"ios": "https://dc.lft.to/lastmile_qr_scan", "android": "https://dc.lft.to/lastmile_qr_scan"}, "lat": 38.899307666666665, "bike_id": "5a4c53c33cfbcc31080a352b282c197b", "lon": -76.93156566666667, "type": "electric_scooter", "fusion_lon": 0.0, "fusion_lat": 0.0, "is_reserved": 0, "name": "5a4c53c33cfbcc31080a352b282c197b", "is_disabled": 0}, {"rental_uris": {"ios": "https://dc.lft.to/lastmile_qr_scan", "android": "https://dc.lft.to/lastmile_qr_scan"}, "lat": 38.9632065, "bike_id": "120bbd6d991bb81314e6b39d1a845ec2", "lon": -76.97369383333333, "type": "electric_bike", "fusion_lon": 0.0, "fusion_lat": 0.0, "is_reserved": 0, "name": "120bbd6d991bb81314e6b39d1a845ec2", "is_disabled": 0}, {"rental_uris": {"ios": "https://dc.lft.to/lastmile_qr_scan", "android": "https://dc.lft.to/lastmile_qr_scan"}, "lat": 38.904285333333334, "bike_id": "1cdffe2c181576c6e91bf29bac0ab42d", "lon": -77.0346025, "type": "electric_scooter", "fusion_lon": 0.0, "fusion_lat": 0.0, "is_reserved": 0, "name": "1cdffe2c181576c6e91bf29bac0ab42d", "is_disabled": 0}, {"rental_uris": {"ios": "https://dc.lft.to/lastmile_qr_scan", "android": "https://dc.lft.to/lastmile_qr_scan"}, "lat": 38.957476, "bike_id": "bfc5ef664588f559fd7d93f2e4240a64", "lon": -76.9725375, "type": "electric_bike", "fusion_lon": 0.0, "fusion_lat": 0.0, "is_reserved": 0, "name": "bfc5ef664588f559fd7d93f2e4240a64", "is_disabled": 0}, {"rental_uris": {"ios": "https://dc.lft.to/lastmile_qr_scan", "android": "https://dc.lft.to/lastmile_qr_scan"}, "lat": 38.9420425, "bike_id": "29c1d51153f9a4ea5fca4330925b0ae4", "lon": -77.02585133333334, "type": "electric_scooter", "fusion_lon": 0.0, "fusion_lat": 0.0, "is_reserved": 0, "name": "29c1d51153f9a4ea5fca4330925b0ae4", "is_disabled": 0}, {"rental_uris": {"ios": "https://dc.lft.to/lastmile_qr_scan", "android": "https://dc.lft.to/lastmile_qr_scan"}, "lat": 38.92826483333333, "bike_id": "4941148cb27088e91c0c69f2da87ea50", "lon": -77.02621583333334, "type": "electric_scooter", "fusion_lon": 0.0, "fusion_lat": 0.0, "is_reserved": 0, "name": "4941148cb27088e91c0c69f2da87ea50", "is_disabled": 0}, {"rental_uris": {"ios": "https://dc.lft.to/lastmile_qr_scan", "android": "https://dc.lft.to/lastmile_qr_scan"}, "lat": 38.873113333333336, "bike_id": "8e85e2fd1fbdb868297d0b39119e3d0d", "lon": -77.00144566666667, "type": "electric_scooter", "fusion_lon": 0.0, "fusion_lat": 0.0, "is_reserved": 0, "name": "8e85e2fd1fbdb868297d0b39119e3d0d", "is_disabled": 0}, {"rental_uris": {"ios": "https://dc.lft.to/lastmile_qr_scan", "android": "https://dc.lft.to/lastmile_qr_scan"}, "lat": 38.963053333333335, "bike_id": "03b1c4cdfca8ee00933894ce8543217c", "lon": -77.0110125, "type": "electric_bike", "fusion_lon": 0.0, "fusion_lat": 0.0, "is_reserved": 0, "name": "03b1c4cdfca8ee00933894ce8543217c", "is_disabled": 0}, {"rental_uris": {"ios": "https://dc.lft.to/lastmile_qr_scan", "android": "https://dc.lft.to/lastmile_qr_scan"}, "lat": 38.97496866666667, "bike_id": "8e0b977362d5ad217e5d51a3ce41257c", "lon": -77.016938, "type": "electric_scooter", "fusion_lon": 0.0, "fusion_lat": 0.0, "is_reserved": 0, "name": "8e0b977362d5ad217e5d51a3ce41257c", "is_disabled": 0}, {"rental_uris": {"ios": "https://dc.lft.to/lastmile_qr_scan", "android": "https://dc.lft.to/lastmile_qr_scan"}, "lat": 38.9096135, "bike_id": "bb01e70c0b117069821e7c633ee5eb8a", "lon": -77.01071333333333, "type": "electric_scooter", "fusion_lon": 0.0, "fusion_lat": 0.0, "is_reserved": 0, "name": "bb01e70c0b117069821e7c633ee5eb8a", "is_disabled": 0}, {"rental_uris": {"ios": "https://dc.lft.to/lastmile_qr_scan", "android": "https://dc.lft.to/lastmile_qr_scan"}, "lat": 38.9448455, "bike_id": "199b06c23337c38f4e5765897ed62cd9", "lon": -77.094345, "type": "electric_scooter", "fusion_lon": 0.0, "fusion_lat": 0.0, "is_reserved": 0, "name": "199b06c23337c38f4e5765897ed62cd9", "is_disabled": 0}, {"rental_uris": {"ios": "https://dc.lft.to/lastmile_qr_scan", "android": "https://dc.lft.to/lastmile_qr_scan"}, "lat": 38.93015183333333, "bike_id": "4ba8fdd513c16ebea0853e70100b4d19", "lon": -77.05523516666666, "type": "electric_scooter", "fusion_lon": 0.0, "fusion_lat": 0.0, "is_reserved": 0, "name": "4ba8fdd513c16ebea0853e70100b4d19", "is_disabled": 0}, {"rental_uris": {"ios": "https://dc.lft.to/lastmile_qr_scan", "android": "https://dc.lft.to/lastmile_qr_scan"}, "lat": 38.88120216666667, "bike_id": "c582f6efb007c873d59bb1e5f8813d5c", "lon": -77.01650316666667, "type": "electric_scooter", "fusion_lon": 0.0, "fusion_lat": 0.0, "is_reserved": 0, "name": "c582f6efb007c873d59bb1e5f8813d5c", "is_disabled": 0}, {"rental_uris": {"ios": "https://dc.lft.to/lastmile_qr_scan", "android": "https://dc.lft.to/lastmile_qr_scan"}, "lat": 38.89829433333333, "bike_id": "3042caf0176194b1c69de1a19e846bd3", "lon": -77.0453945, "type": "electric_scooter", "fusion_lon": 0.0, "fusion_lat": 0.0, "is_reserved": 0, "name": "3042caf0176194b1c69de1a19e846bd3", "is_disabled": 0}, {"rental_uris": {"ios": "https://dc.lft.to/lastmile_qr_scan", "android": "https://dc.lft.to/lastmile_qr_scan"}, "lat": 38.91611283333334, "bike_id": "1e60df36d76be013bd4e734c24773606", "lon": -77.017225, "type": "electric_scooter", "fusion_lon": 0.0, "fusion_lat": 0.0, "is_reserved": 0, "name": "1e60df36d76be013bd4e734c24773606", "is_disabled": 0}, {"rental_uris": {"ios": "https://dc.lft.to/lastmile_qr_scan", "android": "https://dc.lft.to/lastmile_qr_scan"}, "lat": 38.921994833333336, "bike_id": "32c665c35a6a4190036ae29bfaa1ba38", "lon": -77.03397466666667, "type": "electric_scooter", "fusion_lon": 0.0, "fusion_lat": 0.0, "is_reserved": 0, "name": "32c665c35a6a4190036ae29bfaa1ba38", "is_disabled": 0}, {"rental_uris": {"ios": "https://dc.lft.to/lastmile_qr_scan", "android": "https://dc.lft.to/lastmile_qr_scan"}, "lat": 38.90312316666667, "bike_id": "15da3a828957dc91cfd5cc001d0bad82", "lon": -77.04663883333333, "type": "electric_scooter", "fusion_lon": 0.0, "fusion_lat": 0.0, "is_reserved": 0, "name": "15da3a828957dc91cfd5cc001d0bad82", "is_disabled": 0}, {"rental_uris": {"ios": "https://dc.lft.to/lastmile_qr_scan", "android": "https://dc.lft.to/lastmile_qr_scan"}, "lat": 38.873686666666664, "bike_id": "eed83784807ac232c0201b6ce2c9376b", "lon": -77.00057516666666, "type": "electric_scooter", "fusion_lon": 0.0, "fusion_lat": 0.0, "is_reserved": 0, "name": "eed83784807ac232c0201b6ce2c9376b", "is_disabled": 0}, {"rental_uris": {"ios": "https://dc.lft.to/lastmile_qr_scan", "android": "https://dc.lft.to/lastmile_qr_scan"}, "lat": 38.918215333333336, "bike_id": "d329b498f894875d2c770e6200e188ca", "lon": -77.0344855, "type": "electric_scooter", "fusion_lon": 0.0, "fusion_lat": 0.0, "is_reserved": 0, "name": "d329b498f894875d2c770e6200e188ca", "is_disabled": 0}, {"rental_uris": {"ios": "https://dc.lft.to/lastmile_qr_scan", "android": "https://dc.lft.to/lastmile_qr_scan"}, "lat": 38.909582, "bike_id": "de3ffa7d6b40ba63b2352e21bb289d39", "lon": -77.02705333333333, "type": "electric_scooter", "fusion_lon": 0.0, "fusion_lat": 0.0, "is_reserved": 0, "name": "de3ffa7d6b40ba63b2352e21bb289d39", "is_disabled": 0}, {"rental_uris": {"ios": "https://dc.lft.to/lastmile_qr_scan", "android": "https://dc.lft.to/lastmile_qr_scan"}, "lat": 38.90573083333334, "bike_id": "66051730e3cf802ce9bc15e21ddb1a75", "lon": -77.015016, "type": "electric_scooter", "fusion_lon": 0.0, "fusion_lat": 0.0, "is_reserved": 0, "name": "66051730e3cf802ce9bc15e21ddb1a75", "is_disabled": 0}, {"rental_uris": {"ios": "https://dc.lft.to/lastmile_qr_scan", "android": "https://dc.lft.to/lastmile_qr_scan"}, "lat": 38.916323166666665, "bike_id": "f54a2d4d5b4837107b242053558f5d1e", "lon": -77.0304265, "type": "electric_scooter", "fusion_lon": 0.0, "fusion_lat": 0.0, "is_reserved": 0, "name": "f54a2d4d5b4837107b242053558f5d1e", "is_disabled": 0}, {"rental_uris": {"ios": "https://dc.lft.to/lastmile_qr_scan", "android": "https://dc.lft.to/lastmile_qr_scan"}, "lat": 38.9181315, "bike_id": "6dcc8481221730e6f2e0e951ab8c0aa4", "lon": -77.02709033333333, "type": "electric_scooter", "fusion_lon": 0.0, "fusion_lat": 0.0, "is_reserved": 0, "name": "6dcc8481221730e6f2e0e951ab8c0aa4", "is_disabled": 0}, {"rental_uris": {"ios": "https://dc.lft.to/lastmile_qr_scan", "android": "https://dc.lft.to/lastmile_qr_scan"}, "lat": 38.9038615, "bike_id": "b75bbe4b62c4ee0b3dce91a04cece5cc", "lon": -77.00510483333333, "type": "electric_scooter", "fusion_lon": 0.0, "fusion_lat": 0.0, "is_reserved": 0, "name": "b75bbe4b62c4ee0b3dce91a04cece5cc", "is_disabled": 0}, {"rental_uris": {"ios": "https://dc.lft.to/lastmile_qr_scan", "android": "https://dc.lft.to/lastmile_qr_scan"}, "lat": 38.931884333333336, "bike_id": "9c8f9084d80ae93c0a70e8b2cae68386", "lon": -77.04299383333333, "type": "electric_scooter", "fusion_lon": 0.0, "fusion_lat": 0.0, "is_reserved": 0, "name": "9c8f9084d80ae93c0a70e8b2cae68386", "is_disabled": 0}, {"rental_uris": {"ios": "https://dc.lft.to/lastmile_qr_scan", "android": "https://dc.lft.to/lastmile_qr_scan"}, "lat": 38.92509666666667, "bike_id": "630e71e4678dcff782e5df0b8fb005a6", "lon": -77.0022215, "type": "electric_scooter", "fusion_lon": 0.0, "fusion_lat": 0.0, "is_reserved": 0, "name": "630e71e4678dcff782e5df0b8fb005a6", "is_disabled": 0}, {"rental_uris": {"ios": "https://dc.lft.to/lastmile_qr_scan", "android": "https://dc.lft.to/lastmile_qr_scan"}, "lat": 38.89850766666667, "bike_id": "fc1ba40933d9856d685384b32057156c", "lon": -76.92905733333333, "type": "electric_scooter", "fusion_lon": 0.0, "fusion_lat": 0.0, "is_reserved": 0, "name": "fc1ba40933d9856d685384b32057156c", "is_disabled": 0}, {"rental_uris": {"ios": "https://dc.lft.to/lastmile_qr_scan", "android": "https://dc.lft.to/lastmile_qr_scan"}, "lat": 38.917820666666664, "bike_id": "63d8389d547b1aa240e19e5085fe2704", "lon": -77.0236825, "type": "electric_scooter", "fusion_lon": 0.0, "fusion_lat": 0.0, "is_reserved": 0, "name": "63d8389d547b1aa240e19e5085fe2704", "is_disabled": 0}, {"rental_uris": {"ios": "https://dc.lft.to/lastmile_qr_scan", "android": "https://dc.lft.to/lastmile_qr_scan"}, "lat": 38.89815316666667, "bike_id": "d3e9153b8d8cf90076a8b19f9f2b64fc", "lon": -77.024605, "type": "electric_bike", "fusion_lon": 0.0, "fusion_lat": 0.0, "is_reserved": 0, "name": "d3e9153b8d8cf90076a8b19f9f2b64fc", "is_disabled": 0}, {"rental_uris": {"ios": "https://dc.lft.to/lastmile_qr_scan", "android": "https://dc.lft.to/lastmile_qr_scan"}, "lat": 38.906536333333335, "bike_id": "9f7b40751f6b10501fcd0866dba6aa73", "lon": -77.042487, "type": "electric_scooter", "fusion_lon": 0.0, "fusion_lat": 0.0, "is_reserved": 0, "name": "9f7b40751f6b10501fcd0866dba6aa73", "is_disabled": 0}, {"rental_uris": {"ios": "https://dc.lft.to/lastmile_qr_scan", "android": "https://dc.lft.to/lastmile_qr_scan"}, "lat": 38.898411833333334, "bike_id": "5d59f8052917ec8f4e90ec58429d544d", "lon": -77.048297, "type": "electric_scooter", "fusion_lon": 0.0, "fusion_lat": 0.0, "is_reserved": 0, "name": "5d59f8052917ec8f4e90ec58429d544d", "is_disabled": 0}, {"rental_uris": {"ios": "https://dc.lft.to/lastmile_qr_scan", "android": "https://dc.lft.to/lastmile_qr_scan"}, "lat": 38.90954683333333, "bike_id": "9a39e3e23764d35cdcf17418b5316683", "lon": -77.03256983333333, "type": "electric_scooter", "fusion_lon": 0.0, "fusion_lat": 0.0, "is_reserved": 0, "name": "9a39e3e23764d35cdcf17418b5316683", "is_disabled": 0}, {"rental_uris": {"ios": "https://dc.lft.to/lastmile_qr_scan", "android": "https://dc.lft.to/lastmile_qr_scan"}, "lat": 38.8996345, "bike_id": "0a98152adc964f1bb36d45f0c902dd6d", "lon": -77.04507733333334, "type": "electric_scooter", "fusion_lon": 0.0, "fusion_lat": 0.0, "is_reserved": 0, "name": "0a98152adc964f1bb36d45f0c902dd6d", "is_disabled": 0}, {"rental_uris": {"ios": "https://dc.lft.to/lastmile_qr_scan", "android": "https://dc.lft.to/lastmile_qr_scan"}, "lat": 38.90140133333333, "bike_id": "3a74e5e8fe79e06f4815a71f88d4f70d", "lon": -77.03210183333333, "type": "electric_scooter", "fusion_lon": 0.0, "fusion_lat": 0.0, "is_reserved": 0, "name": "3a74e5e8fe79e06f4815a71f88d4f70d", "is_disabled": 0}, {"rental_uris": {"ios": "https://dc.lft.to/lastmile_qr_scan", "android": "https://dc.lft.to/lastmile_qr_scan"}, "lat": 38.88325783333333, "bike_id": "7e1ef1ebae3c09a0840724928e95762f", "lon": -77.03094316666666, "type": "electric_scooter", "fusion_lon": 0.0, "fusion_lat": 0.0, "is_reserved": 0, "name": "7e1ef1ebae3c09a0840724928e95762f", "is_disabled": 0}, {"rental_uris": {"ios": "https://dc.lft.to/lastmile_qr_scan", "android": "https://dc.lft.to/lastmile_qr_scan"}, "lat": 38.900559666666666, "bike_id": "2aa90d13f779e1c75fe3719f1fc866c7", "lon": -77.04726683333334, "type": "electric_scooter", "fusion_lon": 0.0, "fusion_lat": 0.0, "is_reserved": 0, "name": "2aa90d13f779e1c75fe3719f1fc866c7", "is_disabled": 0}, {"rental_uris": {"ios": "https://dc.lft.to/lastmile_qr_scan", "android": "https://dc.lft.to/lastmile_qr_scan"}, "lat": 38.911175666666665, "bike_id": "6f7f63195fc41608f0881de3174f663c", "lon": -77.0445475, "type": "electric_scooter", "fusion_lon": 0.0, "fusion_lat": 0.0, "is_reserved": 0, "name": "6f7f63195fc41608f0881de3174f663c", "is_disabled": 0}, {"rental_uris": {"ios": "https://dc.lft.to/lastmile_qr_scan", "android": "https://dc.lft.to/lastmile_qr_scan"}, "lat": 38.96030533333333, "bike_id": "a8d8f45cb04f39737b7a78b89d35f7fe", "lon": -77.03400416666666, "type": "electric_bike", "fusion_lon": 0.0, "fusion_lat": 0.0, "is_reserved": 0, "name": "a8d8f45cb04f39737b7a78b89d35f7fe", "is_disabled": 0}, {"rental_uris": {"ios": "https://dc.lft.to/lastmile_qr_scan", "android": "https://dc.lft.to/lastmile_qr_scan"}, "lat": 38.918117, "bike_id": "45a88db0706d6a9b9243694710685b0d", "lon": -77.02702633333334, "type": "electric_scooter", "fusion_lon": 0.0, "fusion_lat": 0.0, "is_reserved": 0, "name": "45a88db0706d6a9b9243694710685b0d", "is_disabled": 0}, {"rental_uris": {"ios": "https://dc.lft.to/lastmile_qr_scan", "android": "https://dc.lft.to/lastmile_qr_scan"}, "lat": 38.858748, "bike_id": "9f62fb9b3abc788f190873d70ce259bd", "lon": -76.9896015, "type": "electric_scooter", "fusion_lon": 0.0, "fusion_lat": 0.0, "is_reserved": 0, "name": "9f62fb9b3abc788f190873d70ce259bd", "is_disabled": 0}, {"rental_uris": {"ios": "https://dc.lft.to/lastmile_qr_scan", "android": "https://dc.lft.to/lastmile_qr_scan"}, "lat": 38.919901, "bike_id": "7a9537398712498a18917248a8e086c8", "lon": -77.029773, "type": "electric_scooter", "fusion_lon": 0.0, "fusion_lat": 0.0, "is_reserved": 0, "name": "7a9537398712498a18917248a8e086c8", "is_disabled": 0}, {"rental_uris": {"ios": "https://dc.lft.to/lastmile_qr_scan", "android": "https://dc.lft.to/lastmile_qr_scan"}, "lat": 38.931550666666666, "bike_id": "b4ad448f635cafab59962d7822cca9f6", "lon": -77.04221083333333, "type": "electric_scooter", "fusion_lon": 0.0, "fusion_lat": 0.0, "is_reserved": 0, "name": "b4ad448f635cafab59962d7822cca9f6", "is_disabled": 0}, {"rental_uris": {"ios": "https://dc.lft.to/lastmile_qr_scan", "android": "https://dc.lft.to/lastmile_qr_scan"}, "lat": 38.896329333333334, "bike_id": "1e54298c6b59d24b978d7dd9e683d59f", "lon": -77.0400815, "type": "electric_scooter", "fusion_lon": 0.0, "fusion_lat": 0.0, "is_reserved": 0, "name": "1e54298c6b59d24b978d7dd9e683d59f", "is_disabled": 0}, {"rental_uris": {"ios": "https://dc.lft.to/lastmile_qr_scan", "android": "https://dc.lft.to/lastmile_qr_scan"}, "lat": 38.90744216666667, "bike_id": "000f7c3aeaf18ba9dc4e09ad7f8c2674", "lon": -77.04531583333333, "type": "electric_scooter", "fusion_lon": 0.0, "fusion_lat": 0.0, "is_reserved": 0, "name": "000f7c3aeaf18ba9dc4e09ad7f8c2674", "is_disabled": 0}, {"rental_uris": {"ios": "https://dc.lft.to/lastmile_qr_scan", "android": "https://dc.lft.to/lastmile_qr_scan"}, "lat": 38.91912716666667, "bike_id": "d4191468a6be9e138e51cfddc61fb607", "lon": -77.02087066666667, "type": "electric_scooter", "fusion_lon": 0.0, "fusion_lat": 0.0, "is_reserved": 0, "name": "d4191468a6be9e138e51cfddc61fb607", "is_disabled": 0},