{"data": {"bikes": [{"lat": 38.952810666666664, "is_disabled": 0, "type": "electric_scooter", "lon": -77.03652916666667, "bike_id": "8497408d6a18502a4bf15fed18db8bf9", "fusion_lat": 0.0, "name": "8497408d6a18502a4bf15fed18db8bf9", "is_reserved": 0, "rental_uris": {"android": "https://dc.lft.to/lastmile_qr_scan", "ios": "https://dc.lft.to/lastmile_qr_scan"}, "fusion_lon": 0.0}, {"lat": 38.91311066666667, "is_disabled": 0, "type": "electric_scooter", "lon": -77.04558716666666, "bike_id": "a5ea0b64952d2e7a8c3d5282aa224e80", "fusion_lat": 0.0, "name": "a5ea0b64952d2e7a8c3d5282aa224e80", "is_reserved": 0, "rental_uris": {"android": "https://dc.lft.to/lastmile_qr_scan", "ios": "https://dc.lft.to/lastmile_qr_scan"}, "fusion_lon": 0.0}, {"lat": 38.91790833333334, "is_disabled": 0, "type": "electric_scooter", "lon": -77.041474, "bike_id": "b827f1d1e5c545013b2aa4e4ddcbfc83", "fusion_lat": 0.0, "name": "b827f1d1e5c545013b2aa4e4ddcbfc83", "is_reserved": 0, "rental_uris": {"android": "https://dc.lft.to/lastmile_qr_scan", "ios": "https://dc.lft.to/lastmile_qr_scan"}, "fusion_lon": 0.0}, {"lat": 38.9308435, "is_disabled": 0, "type": "electric_scooter", "lon": -77.02793466666667, "bike_id": "f4790ec4450323ea290071947b27331c", "fusion_lat": 0.0, "name": "f4790ec4450323ea290071947b27331c", "is_reserved": 0, "rental_uris": {"android": "https://dc.lft.to/lastmile_qr_scan", "ios": "https://dc.lft.to/lastmile_qr_scan"}, "fusion_lon": 0.0}, {"lat": 38.944524666666666, "is_disabled": 0, "type": "electric_scooter", "lon": -77.03278716666667, "bike_id": "38f97736db4d2c63cad2b7dcaed26e83", "fusion_lat": 0.0, "name": "38f97736db4d2c63cad2b7dcaed26e83", "is_reserved": 0, "rental_uris": {"android": "https://dc.lft.to/lastmile_qr_scan", "ios": "https://dc.lft.to/lastmile_qr_scan"}, "fusion_lon": 0.0}, {"lat": 38.917014333333334, "is_disabled": 0, "type": "electric_scooter", "lon": -77.04333433333333, "bike_id": "10028f54ed16e8bb9ad869d69f90fec4", "fusion_lat": 0.0, "name": "10028f54ed16e8bb9ad869d69f90fec4", "is_reserved": 0, "rental_uris": {"android": "https://dc.lft.to/lastmile_qr_scan", "ios": "https://dc.lft.to/lastmile_qr_scan"}, "fusion_lon": 0.0}, {"lat": 38.963960166666666, "is_disabled": 0, "type": "electric_scooter", "lon": -77.02588433333334, "bike_id": "8c948ef24e2c34a84d9e0f0648abe150", "fusion_lat": 0.0, "name": "8c948ef24e2c34a84d9e0f0648abe150", "is_reserved": 0, "rental_uris": {"android": "https://dc.lft.to/lastmile_qr_scan", "ios": "https://dc.lft.to/lastmile_qr_scan"}, "fusion_lon": 0.0}, {"lat": 38.891052333333334, "is_disabled": 0, "type": "electric_scooter", "lon": -76.94300383333334, "bike_id": "e8ac37fcc5452815de0b57c8600d8638", "fusion_lat": 0.0, "name": "e8ac37fcc5452815de0b57c8600d8638", "is_reserved": 0, "rental_uris": {"android": "https://dc.lft.to/lastmile_qr_scan", "ios": "https://dc.lft.to/lastmile_qr_scan"}, "fusion_lon": 0.0}, {"lat": 38.92109766666667, "is_disabled": 0, "type": "electric_scooter", "lon": -77.01775133333334, "bike_id": "0d485c60f98af5050a5afaeb65859dfb", "fusion_lat": 0.0, "name": "0d485c60f98af5050a5afaeb65859dfb", "is_reserved": 0, "rental_uris": {"android": "https://dc.lft.to/lastmile_qr_scan", "ios": "https://dc.lft.to/lastmile_qr_scan"}, "fusion_lon": 0.0}, {"lat": 38.924685, "is_disabled": 0, "type": "electric_bike", "lon": -77.20836883333334, "bike_id": "6e8ade313f11128f63fb4c86b41162ed", "fusion_lat": 0.0, "name": "6e8ade313f11128f63fb4c86b41162ed", "is_reserved": 0, "rental_uris": {"android": "https://dc.lft.to/lastmile_qr_scan", "ios": "https://dc.lft.to/lastmile_qr_scan"}, "fusion_lon": 0.0}, {"lat": 38.900391166666665, "is_disabled": 0, "type": "electric_scooter", "lon": -77.0056495, "bike_id": "a359bc75938529a471214598f1a397df", "fusion_lat": 0.0, "name": "a359bc75938529a471214598f1a397df", "is_reserved": 0, "rental_uris": {"android": "https://dc.lft.to/lastmile_qr_scan", "ios": "https://dc.lft.to/lastmile_qr_scan"}, "fusion_lon": 0.0}, {"lat": 38.874562166666664, "is_disabled": 0, "type": "electric_bike", "lon": -77.10820166666667, "bike_id": "65e6610121fcf5550dbd4d1fc1d46795", "fusion_lat": 0.0, "name": "65e6610121fcf5550dbd4d1fc1d46795", "is_reserved": 0, "rental_uris": {"android": "https://dc.lft.to/lastmile_qr_scan", "ios": "https://dc.lft.to/lastmile_qr_scan"}, "fusion_lon": 0.0}, {"lat": 38.858089666666665, "is_disabled": 0, "type": "electric_scooter", "lon": -76.98652366666667, "bike_id": "6c4de03ae47b9daf3ae72fdd61f22e04", "fusion_lat": 0.0, "name": "6c4de03ae47b9daf3ae72fdd61f22e04", "is_reserved": 0, "rental_uris": {"android": "https://dc.lft.to/lastmile_qr_scan", "ios": "https://dc.lft.to/lastmile_qr_scan"}, "fusion_lon": 0.0}, {"lat": 38.89381516666667, "is_disabled": 0, "type": "electric_scooter", "lon": -77.0479005, "bike_id": "9e6ade1bbdfe13bd0449b0c0f23ebb68", "fusion_lat": 0.0, "name": "9e6ade1bbdfe13bd0449b0c0f23ebb68", "is_reserved": 0, "rental_uris": {"android": "https://dc.lft.to/lastmile_qr_scan", "ios": "https://dc.lft.to/lastmile_qr_scan"}, "fusion_lon": 0.0}, {"lat": 38.9079215, "is_disabled": 0, "type": "electric_scooter", "lon": -77.0317545, "bike_id": "28c13c6de1d50c9a4f769aca204a01bb", "fusion_lat": 0.0, "name": "28c13c6de1d50c9a4f769aca204a01bb", "is_reserved": 0, "rental_uris": {"android": "https://dc.lft.to/lastmile_qr_scan", "ios": "https://dc.lft.to/lastmile_qr_scan"}, "fusion_lon": 0.0}, {"lat": 38.84591266666666, "is_disabled": 0, "type": "electric_scooter", "lon": -76.9816055, "bike_id": "e81f1054516a2f1b5a8b3b5005656c32", "fusion_lat": 0.0, "name": "e81f1054516a2f1b5a8b3b5005656c32", "is_reserved": 0, "rental_uris": {"android": "https://dc.lft.to/lastmile_qr_scan", "ios": "https://dc.lft.to/lastmile_qr_scan"}, "fusion_lon": 0.0}, {"lat": 38.907514166666665, "is_disabled": 0, "type": "electric_scooter", "lon": -77.0003345, "bike_id": "0e946bb7e3dc2b1b2ff1f05958697e53", "fusion_lat": 0.0, "name": "0e946bb7e3dc2b1b2ff1f05958697e53", "is_reserved": 0, "rental_uris": {"android": "https://dc.lft.to/lastmile_qr_scan", "ios": "https://dc.lft.to/lastmile_qr_scan"}, "fusion_lon": 0.0}, {"lat": 38.90154866666666, "is_disabled": 0, "type": "electric_scooter", "lon": -76.99028616666666, "bike_id": "6dd06392f652d9915ffe686cfeb0b62a", "fusion_lat": 0.0, "name": "6dd06392f652d9915ffe686cfeb0b62a", "is_reserved": 0, "rental_uris": {"android": "https://dc.lft.to/lastmile_qr_scan", "ios": "https://dc.lft.to/lastmile_qr_scan"}, "fusion_lon": 0.0}, {"lat": 38.96494766666667, "is_disabled": 0, "type": "electric_scooter", "lon": -77.027846, "bike_id": "784512a871b150f9bcfea5ffb8a650b1", "fusion_lat": 0.0, "name": "784512a871b150f9bcfea5ffb8a650b1", "is_reserved": 0, "rental_uris": {"android": "https://dc.lft.to/lastmile_qr_scan", "ios": "https://dc.lft.to/lastmile_qr_scan"}, "fusion_lon": 0.0}, {"lat": 38.92183466666667, "is_disabled": 0, "type": "electric_scooter", "lon": -77.04717983333333, "bike_id": "c61fda9a6bd7eb76967f141ca20ff963", "fusion_lat": 0.0, "name": "c61fda9a6bd7eb76967f141ca20ff963", "is_reserved": 0, "rental_uris": {"android": "https://dc.lft.to/lastmile_qr_scan", "ios": "https://dc.lft.to/lastmile_qr_scan"}, "fusion_lon": 0.0}, {"lat": 38.93248416666667, "is_disabled": 0, "type": "electric_scooter", "lon": -77.03264933333334, "bike_id": "9bb6b27d828e9d507eb05d9b90529039", "fusion_lat": 0.0, "name": "9bb6b27d828e9d507eb05d9b90529039", "is_reserved": 0, "rental_uris": {"android": "https://dc.lft.to/lastmile_qr_scan", "ios": "https://dc.lft.to/lastmile_qr_scan"}, "fusion_lon": 0.0}, {"lat": 38.86658533333333, "is_disabled": 0, "type": "electric_scooter", "lon": -76.988864, "bike_id": "8dca04b0d3d67579b5344bdfaed7883d", "fusion_lat": 0.0, "name": "8dca04b0d3d67579b5344bdfaed7883d", "is_reserved": 0, "rental_uris": {"android": "https://dc.lft.to/lastmile_qr_scan", "ios": "https://dc.lft.to/lastmile_qr_scan"}, "fusion_lon": 0.0}, {"lat": 38.89754466666667, "is_disabled": 0, "type": "electric_scooter", "lon": -77.01859883333333, "bike_id": "d8c1d409c91bfe539be7b3b5c1b8ca3e", "fusion_lat": 0.0, "name": "d8c1d409c91bfe539be7b3b5c1b8ca3e", "is_reserved": 0, "rental_uris": {"android": "https://dc.lft.to/lastmile_qr_scan", "ios": "https://dc.lft.to/lastmile_qr_scan"}, "fusion_lon": 0.0}, {"lat": 38.902866333333336, "is_disabled": 0, "type": "electric_scooter", "lon": -77.03851766666666, "bike_id": "7242c59526883d0b15d324051ab1e05f", "fusion_lat": 0.0, "name": "7242c59526883d0b15d324051ab1e05f", "is_reserved": 0, "rental_uris": {"android": "https://dc.lft.to/lastmile_qr_scan", "ios": "https://dc.lft.to/lastmile_qr_scan"}, "fusion_lon": 0.0}, {"lat": 38.9242935, "is_disabled": 0, "type": "electric_scooter", "lon": -77.05609966666667, "bike_id": "f7d1163ac8314c7bdf5e8101cd7a714d", "fusion_lat": 0.0, "name": "f7d1163ac8314c7bdf5e8101cd7a714d", "is_reserved": 0, "rental_uris": {"android": "https://dc.lft.to/lastmile_qr_scan", "ios": "https://dc.lft.to/lastmile_qr_scan"}, "fusion_lon": 0.0}, {"lat": 38.911937, "is_disabled": 0, "type": "electric_scooter", "lon": -77.03504166666667, "bike_id": "f1b3d181f2bc76c41e1abb49b28b1658", "fusion_lat": 0.0, "name": "f1b3d181f2bc76c41e1abb49b28b1658", "is_reserved": 0, "rental_uris": {"android": "https://dc.lft.to/lastmile_qr_scan", "ios": "https://dc.lft.to/lastmile_qr_scan"}, "fusion_lon": 0.0}, {"lat": 38.92045183333333, "is_disabled": 0, "type": "electric_scooter", "lon": -77.04204233333333, "bike_id": "9628cd77130acced025ff34f66b48782", "fusion_lat": 0.0, "name": "9628cd77130acced025ff34f66b48782", "is_reserved": 0, "rental_uris": {"android": "https://dc.lft.to/lastmile_qr_scan", "ios": "https://dc.lft.to/lastmile_qr_scan"}, "fusion_lon": 0.0}, {"lat": 38.906783, "is_disabled": 0, "type": "electric_scooter", "lon": -77.0626835, "bike_id": "cedb2e292c1f1bf5e257e4543d2a6dc4", "fusion_lat": 0.0, "name": "cedb2e292c1f1bf5e257e4543d2a6dc4", "is_reserved": 0, "rental_uris": {"android": "https://dc.lft.to/lastmile_qr_scan", "ios": "https://dc.lft.to/lastmile_qr_scan"}, "fusion_lon": 0.0}, {"lat": 38.906939, "is_disabled": 0, "type": "electric_scooter", "lon": -77.04402983333334, "bike_id": "5c36c9281d5b43092026240d08176614", "fusion_lat": 0.0, "name": "5c36c9281d5b43092026240d08176614", "is_reserved": 0, "rental_uris": {"android": "https://dc.lft.to/lastmile_qr_scan", "ios": "https://dc.lft.to/lastmile_qr_scan"}, "fusion_lon": 0.0}, {"lat": 38.9031485, "is_disabled": 0, "type": "electric_scooter", "lon": -77.033123, "bike_id": "ae156766b583840af1f41c1a0b851ae0", "fusion_lat": 0.0, "name": "ae156766b583840af1f41c1a0b851ae0", "is_reserved": 0, "rental_uris": {"android": "https://dc.lft.to/lastmile_qr_scan", "ios": "https://dc.lft.to/lastmile_qr_scan"}, "fusion_lon": 0.0}, {"lat": 38.909053666666665, "is_disabled": 0, "type": "electric_scooter", "lon": -77.08621433333333, "bike_id": "3e92148a47d361dbfe6b15c2e40eca26", "fusion_lat": 0.0, "name": "3e92148a47d361dbfe6b15c2e40eca26", "is_reserved": 0, "rental_uris": {"android": "https://dc.lft.to/lastmile_qr_scan", "ios": "https://dc.lft.to/lastmile_qr_scan"}, "fusion_lon": 0.0}, {"lat": 38.9301425, "is_disabled": 0, "type": "electric_scooter", "lon": -76.9948155, "bike_id": "698415e59c3aaca8b09a43ae6c356391", "fusion_lat": 0.0, "name": "698415e59c3aaca8b09a43ae6c356391", "is_reserved": 0, "rental_uris": {"android": "https://dc.lft.to/lastmile_qr_scan", "ios": "https://dc.lft.to/lastmile_qr_scan"}, "fusion_lon": 0.0}, {"lat": 38.918661, "is_disabled": 0, "type": "electric_scooter", "lon": -77.07427266666667, "bike_id": "792b146ce73f7ce4e8e7a1a8c424da57", "fusion_lat": 0.0, "name": "792b146ce73f7ce4e8e7a1a8c424da57", "is_reserved": 0, "rental_uris": {"android": "https://dc.lft.to/lastmile_qr_scan", "ios": "https://dc.lft.to/lastmile_qr_scan"}, "fusion_lon": 0.0}, {"lat": 38.879567333333334, "is_disabled": 0, "type": "electric_scooter", "lon": -77.00720233333334, "bike_id": "b5b550015dd08019db315ad2f015429d", "fusion_lat": 0.0, "name": "b5b550015dd08019db315ad2f015429d", "is_reserved": 0, "rental_uris": {"android": "https://dc.lft.to/lastmile_qr_scan", "ios": "https://dc.lft.to/lastmile_qr_scan"}, "fusion_lon": 0.0}, {"lat": 38.914509333333335, "is_disabled": 0, "type": "electric_scooter", "lon": -77.03841216666666, "bike_id": "5e5689b63a7b1582f92708088362f086", "fusion_lat": 0.0, "name": "5e5689b63a7b1582f92708088362f086", "is_reserved": 0, "rental_uris": {"android": "https://dc.lft.to/lastmile_qr_scan", "ios": "https://dc.lft.to/lastmile_qr_scan"}, "fusion_lon": 0.0}, {"lat": 38.929962833333335, "is_disabled": 0, "type": "electric_bike", "lon": -77.0231655, "bike_id": "819cf60054d02e51fd0b87031d2ffef4", "fusion_lat": 0.0, "name": "819cf60054d02e51fd0b87031d2ffef4", "is_reserved": 0, "rental_uris": {"android": "https://dc.lft.to/lastmile_qr_scan", "ios": "https://dc.lft.to/lastmile_qr_scan"}, "fusion_lon": 0.0}, {"lat": 38.93484466666666, "is_disabled": 0, "type": "electric_scooter", "lon": -77.0365475, "bike_id": "e74e7b8c08277686d0f65590569443d9", "fusion_lat": 0.0, "name": "e74e7b8c08277686d0f65590569443d9", "is_reserved": 0, "rental_uris": {"android": "https://dc.lft.to/lastmile_qr_scan", "ios": "https://dc.lft.to/lastmile_qr_scan"}, "fusion_lon": 0.0}, {"lat": 38.92368916666667, "is_disabled": 0, "type": "electric_scooter", "lon": -77.07678983333334, "bike_id": "afa73ccef8ca265bb873f103629627ce", "fusion_lat": 0.0, "name": "afa73ccef8ca265bb873f103629627ce", "is_reserved": 0, "rental_uris": {"android": "https://dc.lft.to/lastmile_qr_scan", "ios": "https://dc.lft.to/lastmile_qr_scan"}, "fusion_lon": 0.0}, {"lat": 38.9296635, "is_disabled": 0, "type": "electric_scooter", "lon": -77.02816316666667, "bike_id": "c2a4412a391bffb65b87cbe4a4cb8148", "fusion_lat": 0.0, "name": "c2a4412a391bffb65b87cbe4a4cb8148", "is_reserved": 0, "rental_uris": {"android": "https://dc.lft.to/lastmile_qr_scan", "ios": "https://dc.lft.to/lastmile_qr_scan"}, "fusion_lon": 0.0}, {"lat": 38.8929725, "is_disabled": 0, "type": "electric_bike", "lon": -77.00144666666667, "bike_id": "bafd3defb26ed99bb3afb555130eb013", "fusion_lat": 0.0, "name": "bafd3defb26ed99bb3afb555130eb013", "is_reserved": 0, "rental_uris": {"android": "https://dc.lft.to/lastmile_qr_scan", "ios": "https://dc.lft.to/lastmile_qr_scan"}, "fusion_lon": 0.0}, {"lat": 38.90614883333333, "is_disabled": 0, "type": "electric_scooter", "lon": -77.058569, "bike_id": "804826f935db581fd61024df151894ec", "fusion_lat": 0.0, "name": "804826f935db581fd61024df151894ec", "is_reserved": 0, "rental_uris": {"android": "https://dc.lft.to/lastmile_qr_scan", "ios": "https://dc.lft.to/lastmile_qr_scan"}, "fusion_lon": 0.0}, {"lat": 38.884276666666665, "is_disabled": 0, "type": "electric_bike", "lon": -76.98083516666667, "bike_id": "2a238b8d94ae841f499c565cd9def948", "fusion_lat": 0.0, "name": "2a238b8d94ae841f499c565cd9def948", "is_reserved": 0, "rental_uris": {"android": "https://dc.lft.to/lastmile_qr_scan", "ios": "https://dc.lft.to/lastmile_qr_scan"}, "fusion_lon": 0.0}, {"lat": 38.89204333333333, "is_disabled": 0, "type": "electric_bike", "lon": -76.97051216666667, "bike_id": "a9383931886fe9debbe46c6bcb237586", "fusion_lat": 0.0, "name": "a9383931886fe9debbe46c6bcb237586", "is_reserved": 0, "rental_uris": {"android": "https://dc.lft.to/lastmile_qr_scan", "ios": "https://dc.lft.to/lastmile_qr_scan"}, "fusion_lon": 0.0}, {"lat": 38.89530966666667, "is_disabled": 0, "type": "electric_scooter", "lon": -77.010927, "bike_id": "e79ab5c207c332768f69255e39e5ab78", "fusion_lat": 0.0, "name": "e79ab5c207c332768f69255e39e5ab78", "is_reserved": 0, "rental_uris": {"android": "https://dc.lft.to/lastmile_qr_scan", "ios": "https://dc.lft.to/lastmile_qr_scan"}, "fusion_lon": 0.0}, {"lat": 38.9508155, "is_disabled": 0, "type": "electric_scooter", "lon": -77.06653333333334, "bike_id": "fd3d929b96add6cf1946978ff1c05b84", "fusion_lat": 0.0, "name": "fd3d929b96add6cf1946978ff1c05b84", "is_reserved": 0, "rental_uris": {"android": "https://dc.lft.to/lastmile_qr_scan", "ios": "https://dc.lft.to/lastmile_qr_scan"}, "fusion_lon": 0.0}, {"lat": 38.89840516666667, "is_disabled": 0, "type": "electric_scooter", "lon": -77.02436933333334, "bike_id": "fe7519b89dee3f22a9299dbcc538ca34", "fusion_lat": 0.0, "name": "fe7519b89dee3f22a9299dbcc538ca34", "is_reserved": 0, "rental_uris": {"android": "https://dc.lft.to/lastmile_qr_scan", "ios": "https://dc.lft.to/lastmile_qr_scan"}, "fusion_lon": 0.0}, {"lat": 38.940946, "is_disabled": 0, "type": "electric_scooter", "lon": -77.0327915, "bike_id": "ac9bbc681e207f13aed7091ec852a489", "fusion_lat": 0.0, "name": "ac9bbc681e207f13aed7091ec852a489", "is_reserved": 0, "rental_uris": {"android": "https://dc.lft.to/lastmile_qr_scan", "ios": "https://dc.lft.to/lastmile_qr_scan"}, "fusion_lon": 0.0}, {"lat": 38.87630466666667, "is_disabled": 0, "type": "electric_scooter", "lon": -76.96523483333333, "bike_id": "3a287eb22999314105ee56b9311b11b6", "fusion_lat": 0.0, "name": "3a287eb22999314105ee56b9311b11b6", "is_reserved": 0, "rental_uris": {"android": "https://dc.lft.to/lastmile_qr_scan", "ios": "https://dc.lft.to/lastmile_qr_scan"}, "fusion_lon": 0.0}, {"lat": 38.93776716666667, "is_disabled": 0, "type": "electric_scooter", "lon": -77.02375116666667, "bike_id": "a2e171f4a204dffe363f236a11d9d84f", "fusion_lat": 0.0, "name": "a2e171f4a204dffe363f236a11d9d84f", "is_reserved": 0, "rental_uris": {"android": "https://dc.lft.to/lastmile_qr_scan", "ios": "https://dc.lft.to/lastmile_qr_scan"}, "fusion_lon": 0.0}, {"lat": 38.925994833333334, "is_disabled": 0, "type": "electric_scooter", "lon": -77.03436316666667, "bike_id": "88ea41e2d37e342f86aa5a1e2f6aecef", "fusion_lat": 0.0, "name": "88ea41e2d37e342f86aa5a1e2f6aecef", "is_reserved": 0, "rental_uris": {"android": "https://dc.lft.to/lastmile_qr_scan", "ios": "https://dc.lft.to/lastmile_qr_scan"}, "fusion_lon": 0.0}, {"lat": 38.905032166666665, "is_disabled": 0, "type": "electric_scooter", "lon": -77.02947233333333, "bike_id": "1157b18b2e4aa49516f2d1b8da19f8e8", "fusion_lat": 0.0, "name": "1157b18b2e4aa49516f2d1b8da19f8e8", "is_reserved": 0, "rental_uris": {"android": "https://dc.lft.to/lastmile_qr_scan", "ios": "https://dc.lft.to/lastmile_qr_scan"}, "fusion_lon": 0.0}, {"lat": 38.907462833333334, "is_disabled": 0, "type": "electric_scooter", "lon": -77.04787983333334, "bike_id": "2acf10e237830a418552579273005182", "fusion_lat": 0.0, "name": "2acf10e237830a418552579273005182", "is_reserved": 0, "rental_uris": {"android": "https://dc.lft.to/lastmile_qr_scan", "ios": "https://dc.lft.to/lastmile_qr_scan"}, "fusion_lon": 0.0}, {"lat": 38.91674666666667, "is_disabled": 0, "type": "electric_scooter", "lon": -77.0271385, "bike_id": "e2f08f4004829be566a52d782a11a904", "fusion_lat": 0.0, "name": "e2f08f4004829be566a52d782a11a904", "is_reserved": 0, "rental_uris": {"android": "https://dc.lft.to/lastmile_qr_scan", "ios": "https://dc.lft.to/lastmile_qr_scan"}, "fusion_lon": 0.0}, {"lat": 38.91928883333333, "is_disabled": 0, "type": "electric_scooter", "lon": -77.02488766666667, "bike_id": "f6490476fbff0f759a865a8649554625", "fusion_lat": 0.0, "name": "f6490476fbff0f759a865a8649554625", "is_reserved": 0, "rental_uris": {"android": "https://dc.lft.to/lastmile_qr_scan", "ios": "https://dc.lft.to/lastmile_qr_scan"}, "fusion_lon": 0.0}, {"lat": 38.8606165, "is_disabled": 0, "type": "electric_scooter", "lon": -76.98508183333334, "bike_id": "f28e65cdb68f6720702bd86bf148d979", "fusion_lat": 0.0, "name": "f28e65cdb68f6720702bd86bf148d979", "is_reserved": 0, "rental_uris": {"android": "https://dc.lft.to/lastmile_qr_scan", "ios": "https://dc.lft.to/lastmile_qr_scan"}, "fusion_lon": 0.0}, {"lat": 38.8429815, "is_disabled": 0, "type": "electric_scooter", "lon": -76.9994735, "bike_id": "9b80eb3830acb374eb67914f5b3be653", "fusion_lat": 0.0, "name": "9b80eb3830acb374eb67914f5b3be653", "is_reserved": 0, "rental_uris": {"android": "https://dc.lft.to/lastmile_qr_scan", "ios": "https://dc.lft.to/lastmile_qr_scan"}, "fusion_lon": 0.0}, {"lat": 38.896386166666666, "is_disabled": 0, "type": "electric_scooter", "lon": -77.04485233333334, "bike_id": "c83b746470dfc5b693e86982f6ee3abe", "fusion_lat": 0.0, "name": "c83b746470dfc5b693e86982f6ee3abe", "is_reserved": 0, "rental_uris": {"android": "https://dc.lft.to/lastmile_qr_scan", "ios": "https://dc.lft.to/lastmile_qr_scan"}, "fusion_lon": 0.0}, {"lat": 38.916094, "is_disabled": 0, "type": "electric_scooter", "lon": -77.021149, "bike_id": "1a52153d8e91eb4af660dc3b22da8296", "fusion_lat": 0.0, "name": "1a52153d8e91eb4af660dc3b22da8296", "is_reserved": 0, "rental_uris": {"android": "https://dc.lft.to/lastmile_qr_scan", "ios": "https://dc.lft.to/lastmile_qr_scan"}, "fusion_lon": 0.0}, {"lat": 38.89372516666667, "is_disabled": 0, "type": "electric_scooter", "lon": -76.94989733333334, "bike_id": "3403a25c5045f82428df221428a60e40", "fusion_lat": 0.0, "name": "3403a25c5045f82428df221428a60e40", "is_reserved": 0, "rental_uris": {"android": "https://dc.lft.to/lastmile_qr_scan", "ios": "https://dc.lft.to/lastmile_qr_scan"}, "fusion_lon": 0.0}, {"lat": 38.91709133333333, "is_disabled": 0, "type": "electric_scooter", "lon": -77.041483, "bike_id": "efce078703ff7c69c84a8bd8bca33df5", "fusion_lat": 0.0, "name": "efce078703ff7c69c84a8bd8bca33df5", "is_reserved": 0, "rental_uris": {"android": "https://dc.lft.to/lastmile_qr_scan", "ios": "https://dc.lft.to/lastmile_qr_scan"}, "fusion_lon": 0.0}, {"lat": 38.902447, "is_disabled": 0, "type": "electric_scooter", "lon": -77.00202983333334, "bike_id": "2b81d39edaa2fe8271ef3c7a45edde82", "fusion_lat": 0.0, "name": "2b81d39edaa2fe8271ef3c7a45edde82", "is_reserved": 0, "rental_uris": {"android": "https://dc.lft.to/lastmile_qr_scan", "ios": "https://dc.lft.to/lastmile_qr_scan"}, "fusion_lon": 0.0}, {"lat": 38.88085133333333, "is_disabled": 0, "type": "electric_scooter", "lon": -76.92728733333334, "bike_id": "f438ef6acc6a22c88303ca5fc5c04284", "fusion_lat": 0.0, "name": "f438ef6acc6a22c88303ca5fc5c04284", "is_reserved": 0, "rental_uris": {"android": "https://dc.lft.to/lastmile_qr_scan", "ios": "https://dc.lft.to/lastmile_qr_scan"}, "fusion_lon": 0.0}, {"lat": 38.839336, "is_disabled": 0, "type": "electric_bike", "lon": -77.079005, "bike_id": "8203975932085ae0ee300b127fba51ef", "fusion_lat": 0.0, "name": "8203975932085ae0ee300b127fba51ef", "is_reserved": 0, "rental_uris": {"android": "https://dc.lft.to/lastmile_qr_scan", "ios": "https://dc.lft.to/lastmile_qr_scan"}, "fusion_lon": 0.0}, {"lat": 38.92504, "is_disabled": 0, "type": "electric_scooter", "lon": -77.00894383333333, "bike_id": "e8d5890e437b2ccfb4b005ed063eb418", "fusion_lat": 0.0, "name": "e8d5890e437b2ccfb4b005ed063eb418", "is_reserved": 0, "rental_uris": {"android": "https://dc.lft.to/lastmile_qr_scan", "ios": "https://dc.lft.to/lastmile_qr_scan"}, "fusion_lon": 0.0}, {"lat": 38.927907833333336, "is_disabled": 0, "type": "electric_scooter", "lon": -77.025846, "bike_id": "d285319fe630f7118713e37143e7aac3", "fusion_lat": 0.0, "name": "d285319fe630f7118713e37143e7aac3", "is_reserved": 0, "rental_uris": {"android": "https://dc.lft.to/lastmile_qr_scan", "ios": "https://dc.lft.to/lastmile_qr_scan"}, "fusion_lon": 0.0}, {"lat": 38.95141916666667, "is_disabled": 0, "type": "electric_scooter", "lon": -77.01339116666666, "bike_id": "02f45de880a17c4d5bdc922308467f8e", "fusion_lat": 0.0, "name": "02f45de880a17c4d5bdc922308467f8e", "is_reserved": 0, "rental_uris": {"android": "https://dc.lft.to/lastmile_qr_scan", "ios": "https://dc.lft.to/lastmile_qr_scan"}, "fusion_lon": 0.0}, {"lat": 38.894841666666665, "is_disabled": 0, "type": "electric_scooter", "lon": -77.02177716666667, "bike_id": "a32c6b07d6255ed0ffa2500ce018b95a", "fusion_lat": 0.0, "name": "a32c6b07d6255ed0ffa2500ce018b95a", "is_reserved": 0, "rental_uris": {"android": "https://dc.lft.to/lastmile_qr_scan", "ios": "https://dc.lft.to/lastmile_qr_scan"}, "fusion_lon": 0.0}, {"lat": 38.90657616666667, "is_disabled": 0, "type": "electric_scooter", "lon": -77.0249825, "bike_id": "ff8c338d961358f1d83f82633c734e01", "fusion_lat": 0.0, "name": "ff8c338d961358f1d83f82633c734e01", "is_reserved": 0, "rental_uris": {"android": "https://dc.lft.to/lastmile_qr_scan", "ios": "https://dc.lft.to/lastmile_qr_scan"}, "fusion_lon": 0.0}, {"lat": 38.92562683333333, "is_disabled": 0, "type": "electric_scooter", "lon": -77.03306616666667, "bike_id": "edd0247ed953e61460c8583eace2ce1a", "fusion_lat": 0.0, "name": "edd0247ed953e61460c8583eace2ce1a", "is_reserved": 0, "rental_uris": {"android": "https://dc.lft.to/lastmile_qr_scan", "ios": "https://dc.lft.to/lastmile_qr_scan"}, "fusion_lon": 0.0}, {"lat": 38.91564233333333, "is_disabled": 0, "type": "electric_scooter", "lon": -77.04876283333333, "bike_id": "33aff0bef0ace76727a2c69135437c74", "fusion_lat": 0.0, "name": "33aff0bef0ace76727a2c69135437c74", "is_reserved": 0, "rental_uris": {"android": "https://dc.lft.to/lastmile_qr_scan", "ios": "https://dc.lft.to/lastmile_qr_scan"}, "fusion_lon": 0.0}, {"lat": 38.92590383333334, "is_disabled": 0, "type": "electric_scooter", "lon": -77.00474066666666, "bike_id": "da7cca18b001e9007e13641330c0cfd2", "fusion_lat": 0.0, "name": "da7cca18b001e9007e13641330c0cfd2", "is_reserved": 0, "rental_uris": {"android": "https://dc.lft.to/lastmile_qr_scan", "ios": "https://dc.lft.to/lastmile_qr_scan"}, "fusion_lon": 0.0}, {"lat": 38.90146033333333, "is_disabled": 0, "type": "electric_scooter", "lon": -76.99738533333333, "bike_id": "f82226f7c532fc9da0af34ac4166c6cd", "fusion_lat": 0.0, "name": "f82226f7c532fc9da0af34ac4166c6cd", "is_reserved": 0, "rental_uris": {"android": "https://dc.lft.to/lastmile_qr_scan", "ios": "https://dc.lft.to/lastmile_qr_scan"}, "fusion_lon": 0.0}, {"lat": 38.90317233333333, "is_disabled": 0, "type": "electric_scooter", "lon": -76.977971, "bike_id": "e3b4b612ae77fa87bb0a80b08cfe1c7e", "fusion_lat": 0.0, "name": "e3b4b612ae77fa87bb0a80b08cfe1c7e", "is_reserved": 0, "rental_uris": {"android": "https://dc.lft.to/lastmile_qr_scan", "ios": "https://dc.lft.to/lastmile_qr_scan"}, "fusion_lon": 0.0}, {"lat": 38.90726433333333, "is_disabled": 0, "type": "electric_scooter", "lon": -77.0475515, "bike_id": "ce11692bd6266825e5509a15ba1e1749", "fusion_lat": 0.0, "name": "ce11692bd6266825e5509a15ba1e1749", "is_reserved": 0, "rental_uris": {"android": "https://dc.lft.to/lastmile_qr_scan", "ios": "https://dc.lft.to/lastmile_qr_scan"}, "fusion_lon": 0.0}, {"lat": 38.92239466666667, "is_disabled": 0, "type": "electric_scooter", "lon": -77.0298225, "bike_id": "fdc1d160cb099f8a8a29faafa63af3e7", "fusion_lat": 0.0, "name": "fdc1d160cb099f8a8a29faafa63af3e7", "is_reserved": 0, "rental_uris": {"android": "https://dc.lft.to/lastmile_qr_scan", "ios": "https://dc.lft.to/lastmile_qr_scan"}, "fusion_lon": 0.0}, {"lat": 38.88503516666667, "is_disabled": 0, "type": "electric_scooter", "lon": -77.015528, "bike_id": "3d6a3e4bd9f2199fbd886c50fb5d558b", "fusion_lat": 0.0, "name": "3d6a3e4bd9f2199fbd886c50fb5d558b", "is_reserved": 0, "rental_uris": {"android": "https://dc.lft.to/lastmile_qr_scan", "ios": "https://dc.lft.to/lastmile_qr_scan"}, "fusion_lon": 0.0}, {"lat": 38.970952, "is_disabled": 0, "type": "electric_bike", "lon": -77.06968116666667, "bike_id": "a036bb6b183e91757bd7fd9ad10f90ea", "fusion_lat": 0.0, "name": "a036bb6b183e91757bd7fd9ad10f90ea", "is_reserved": 0, "rental_uris": {"android": "https://dc.lft.to/lastmile_qr_scan", "ios": "https://dc.lft.to/lastmile_qr_scan"}, "fusion_lon": 0.0}, {"lat": 38.8988095, "is_disabled": 0, "type": "electric_scooter", "lon": -76.9318475, "bike_id": "cc90ce41e091865eae5675a2649c96d5", "fusion_lat": 0.0, "name": "cc90ce41e091865eae5675a2649c96d5", "is_reserved": 0, "rental_uris": {"android": "https://dc.lft.to/lastmile_qr_scan", "ios": "https://dc.lft.to/lastmile_qr_scan"}, "fusion_lon": 0.0}, {"lat": 38.913279, "is_disabled": 0, "type": "electric_scooter", "lon": -77.03123816666667, "bike_id": "423c836d83e1852254be86807f3d1c0d", "fusion_lat": 0.0, "name": "423c836d83e1852254be86807f3d1c0d", "is_reserved": 0, "rental_uris": {"android": "https://dc.lft.to/lastmile_qr_scan", "ios": "https://dc.lft.to/lastmile_qr_scan"}, "fusion_lon": 0.0}, {"lat": 38.87471566666667, "is_disabled": 0, "type": "electric_scooter", "lon": -77.00938466666666, "bike_id": "aaff2ffcd7f7d1285c3068a5b0f46dfe", "fusion_lat": 0.0, "name": "aaff2ffcd7f7d1285c3068a5b0f46dfe", "is_reserved": 0, "rental_uris": {"android": "https://dc.lft.to/lastmile_qr_scan", "ios": "https://dc.lft.to/lastmile_qr_scan"}, "fusion_lon": 0.0}, {"lat": 38.922588, "is_disabled": 0, "type": "electric_scooter", "lon": -77.04212783333334, "bike_id": "cb1f9cbb4bdb0dd41ce0603f949748ec", "fusion_lat": 0.0, "name": "cb1f9cbb4bdb0dd41ce0603f949748ec", "is_reserved": 0, "rental_uris": {"android": "https://dc.lft.to/lastmile_qr_scan", "ios": "https://dc.lft.to/lastmile_qr_scan"}, "fusion_lon": 0.0}, {"lat": 38.89820683333333, "is_disabled": 0, "type": "electric_scooter", "lon": -77.00894533333333, "bike_id": "b70b2580015b83fb5d6e9bfa15339ef5", "fusion_lat": 0.0, "name": "b70b2580015b83fb5d6e9bfa15339ef5", "is_reserved": 0, "rental_uris": {"android": "https://dc.lft.to/lastmile_qr_scan", "ios": "https://dc.lft.to/lastmile_qr_scan"}, "fusion_lon": 0.0}, {"lat": 38.9061605, "is_disabled": 0, "type": "electric_scooter", "lon": -77.04344433333333, "bike_id": "3c58f0bf4a0245fc4ac32b05ba494317", "fusion_lat": 0.0, "name": "3c58f0bf4a0245fc4ac32b05ba494317", "is_reserved": 0, "rental_uris": {"android": "https://dc.lft.to/lastmile_qr_scan", "ios": "https://dc.lft.to/lastmile_qr_scan"}, "fusion_lon": 0.0}, {"lat": 38.91613816666667, "is_disabled": 0, "type": "electric_scooter", "lon": -77.021255, "bike_id": "28a1041b8bbf59ef9ed466ed6b2fedfc", "fusion_lat": 0.0, "name": "28a1041b8bbf59ef9ed466ed6b2fedfc", "is_reserved": 0, "rental_uris": {"android": "https://dc.lft.to/lastmile_qr_scan", "ios": "https://dc.lft.to/lastmile_qr_scan"}, "fusion_lon": 0.0}, {"lat": 38.904131, "is_disabled": 0, "type": "electric_scooter", "lon": -76.97327033333333, "bike_id": "99271de07966caaa8b86bb2f4f233e0f", "fusion_lat": 0.0, "name": "99271de07966caaa8b86bb2f4f233e0f", "is_reserved": 0, "rental_uris": {"android": "https://dc.lft.to/lastmile_qr_scan", "ios": "https://dc.lft.to/lastmile_qr_scan"}, "fusion_lon": 0.0}, {"lat": 38.87070533333333, "is_disabled": 0, "type": "electric_scooter", "lon": -77.0084275, "bike_id": "a10e42309e9c6e08421bdada011738a3", "fusion_lat": 0.0, "name": "a10e42309e9c6e08421bdada011738a3", "is_reserved": 0, "rental_uris": {"android": "https://dc.lft.to/lastmile_qr_scan", "ios": "https://dc.lft.to/lastmile_qr_scan"}, "fusion_lon": 0.0}, {"lat": 38.91188066666667, "is_disabled": 0, "type": "electric_scooter", "lon": -77.00649466666667, "bike_id": "0e5b2a7bb3e7f2cda66d3c61852442cd", "fusion_lat": 0.0, "name": "0e5b2a7bb3e7f2cda66d3c61852442cd", "is_reserved": 0, "rental_uris": {"android": "https://dc.lft.to/lastmile_qr_scan", "ios": "https://dc.lft.to/lastmile_qr_scan"}, "fusion_lon": 0.0}, {"lat": 38.90042433333333, "is_disabled": 0, "type": "electric_scooter", "lon": -76.988308, "bike_id": "5121dbbfe9ffe88121590cc7f724d641", "fusion_lat": 0.0, "name": "5121dbbfe9ffe88121590cc7f724d641", "is_reserved": 0, "rental_uris": {"android": "https://dc.lft.to/lastmile_qr_scan", "ios": "https://dc.lft.to/lastmile_qr_scan"}, "fusion_lon": 0.0}, {"lat": 38.90689283333333, "is_disabled": 0, "type": "electric_scooter", "lon": -77.0363875, "bike_id": "78a4c5c76e625c7ed5f7e59776e83afe", "fusion_lat": 0.0, "name": "78a4c5c76e625c7ed5f7e59776e83afe", "is_reserved": 0, "rental_uris": {"android": "https://dc.lft.to/lastmile_qr_scan", "ios": "https://dc.lft.to/lastmile_qr_scan"}, "fusion_lon": 0.0}, {"lat": 38.89772, "is_disabled": 0, "type": "electric_bike", "lon": -76.9045325, "bike_id": "32fc2e9ee19f6ff6447c33813e5680de", "fusion_lat": 0.0, "name": "32fc2e9ee19f6ff6447c33813e5680de", "is_reserved": 0, "rental_uris": {"android": "https://dc.lft.to/lastmile_qr_scan", "ios": "https://dc.lft.to/lastmile_qr_scan"}, "fusion_lon": 0.0}, {"lat": 38.89981183333333, "is_disabled": 0, "type": "electric_scooter", "lon": -77.05089, "bike_id": "bccca93e94f90951ce6422a0dbac0ca3", "fusion_lat": 0.0, "name": "bccca93e94f90951ce6422a0dbac0ca3", "is_reserved": 0, "rental_uris": {"android": "https://dc.lft.to/lastmile_qr_scan", "ios": "https://dc.lft.to/lastmile_qr_scan"}, "fusion_lon": 0.0}, {"lat": 38.8852105, "is_disabled": 0, "type": "electric_scooter", "lon": -77.00271766666667, "bike_id": "0a15264d174fd6fa870662c922f88fac", "fusion_lat": 0.0, "name": "0a15264d174fd6fa870662c922f88fac", "is_reserved": 0, "rental_uris": {"android": "https://dc.lft.to/lastmile_qr_scan", "ios": "https://dc.lft.to/lastmile_qr_scan"}, "fusion_lon": 0.0}, {"lat": 38.86623683333333, "is_disabled": 0, "type": "electric_scooter", "lon": -76.987162, "bike_id": "84a523fc77753681c34716feb9e510e7", "fusion_lat": 0.0, "name": "84a523fc77753681c34716feb9e510e7", "is_reserved": 0, "rental_uris": {"android": "https://dc.lft.to/lastmile_qr_scan", "ios": "https://dc.lft.to/lastmile_qr_scan"}, "fusion_lon": 0.0}, {"lat": 38.956345166666665, "is_disabled": 0, "type": "electric_bike", "lon": -76.9387885, "bike_id": "b66048087695b049f1480aa7bda150f9", "fusion_lat": 0.0, "name": "b66048087695b049f1480aa7bda150f9", "is_reserved": 0, "rental_uris": {"android": "https://dc.lft.to/lastmile_qr_scan", "ios": "https://dc.lft.to/lastmile_qr_scan"}, "fusion_lon": 0.0}, {"lat": 38.84275983333333, "is_disabled": 0, "type": "electric_bike", "lon": -76.98845833333333, "bike_id": "d39791d87e67db4b6f58025969614151", "fusion_lat": 0.0, "name": "d39791d87e67db4b6f58025969614151", "is_reserved": 0, "rental_uris": {"android": "https://dc.lft.to/lastmile_qr_scan", "ios": "https://dc.lft.to/lastmile_qr_scan"}, "fusion_lon": 0.0}, {"lat": 38.91538283333333, "is_disabled": 0, "type": "electric_scooter", "lon": -77.0136135, "bike_id": "d34c9d04f6d56fc40ef801335b1034cf", "fusion_lat": 0.0, "name": "d34c9d04f6d56fc40ef801335b1034cf", "is_reserved": 0, "rental_uris": {"android": "https://dc.lft.to/lastmile_qr_scan", "ios": "https://dc.lft.to/lastmile_qr_scan"}, "fusion_lon": 0.0}, {"lat": 38.94436733333333, "is_disabled": 0, "type": "electric_scooter", "lon": -77.063058, "bike_id": "4da60b2b7f66f60edeadd9e72918b8a3", "fusion_lat": 0.0, "name": "4da60b2b7f66f60edeadd9e72918b8a3", "is_reserved": 0, "rental_uris": {"android": "https://dc.lft.to/lastmile_qr_scan", "ios": "https://dc.lft.to/lastmile_qr_scan"}, "fusion_lon": 0.0}, {"lat": 38.901356166666666, "is_disabled": 0, "type": "electric_scooter", "lon": -77.00066483333333, "bike_id": "a5a08c4b629a9226ea625da61903c6d7", "fusion_lat": 0.0, "name": "a5a08c4b629a9226ea625da61903c6d7", "is_reserved": 0, "rental_uris": {"android": "https://dc.lft.to/lastmile_qr_scan", "ios": "https://dc.lft.to/lastmile_qr_scan"}, "fusion_lon": 0.0}, {"lat": 38.906182, "is_disabled": 0, "type": "electric_scooter", "lon": -77.01280166666666, "bike_id": "f955396060b7999f13e4e8725449f593", "fusion_lat": 0.0, "name": "f955396060b7999f13e4e8725449f593", "is_reserved": 0, "rental_uris": {"android": "https://dc.lft.to/lastmile_qr_scan", "ios": "https://dc.lft.to/lastmile_qr_scan"}, "fusion_lon": 0.0}, {"lat": 38.917891833333336, "is_disabled": 0, "type": "electric_scooter", "lon": -77.02396566666667, "bike_id": "1f16c41b830933eff2454e77347364f8", "fusion_lat": 0.0, "name": "1f16c41b830933eff2454e77347364f8", "is_reserved": 0, "rental_uris": {"android": "https://dc.lft.to/lastmile_qr_scan", "ios": "https://dc.lft.to/lastmile_qr_scan"}, "fusion_lon": 0.0}, {"lat": 38.911296166666666, "is_disabled": 0, "type": "electric_scooter", "lon": -77.03126516666667, "bike_id": "2346089dca6540bb2942f80234413345", "fusion_lat": 0.0, "name": "2346089dca6540bb2942f80234413345", "is_reserved": 0, "rental_uris": {"android": "https://dc.lft.to/lastmile_qr_scan", "ios": "https://dc.lft.to/lastmile_qr_scan"}, "fusion_lon": 0.0}, {"lat": 38.892366833333334, "is_disabled": 0, "type": "electric_scooter", "lon": -77.02786383333333, "bike_id": "e53e816f270cca05bcb47bc2cd9c7057", "fusion_lat": 0.0, "name": "e53e816f270cca05bcb47bc2cd9c7057", "is_reserved": 0, "rental_uris": {"android": "https://dc.lft.to/lastmile_qr_scan", "ios": "https://dc.lft.to/lastmile_qr_scan"}, "fusion_lon": 0.0}, {"lat": 38.907575666666666, "is_disabled": 0, "type": "electric_scooter", "lon": -77.00084216666667, "bike_id": "4fcc3b0b9c18b4c60fd226c6416031e0", "fusion_lat": 0.0, "name": "4fcc3b0b9c18b4c60fd226c6416031e0", "is_reserved": 0, "rental_uris": {"android": "https://dc.lft.to/lastmile_qr_scan", "ios": "https://dc.lft.to/lastmile_qr_scan"}, "fusion_lon": 0.0}, {"lat": 38.89227366666667, "is_disabled": 0, "type": "electric_scooter", "lon": -76.932983, "bike_id": "04868e630a035c37e063991026fef919", "fusion_lat": 0.0, "name": "04868e630a035c37e063991026fef919", "is_reserved": 0, "rental_uris": {"android": "https://dc.lft.to/lastmile_qr_scan", "ios": "https://dc.lft.to/lastmile_qr_scan"}, "fusion_lon": 0.0}, {"lat": 38.908562, "is_disabled": 0, "type": "electric_scooter", "lon": -77.02393683333334, "bike_id": "1e957eec0eac374d5d5fa39f701fdec6", "fusion_lat": 0.0, "name": "1e957eec0eac374d5d5fa39f701fdec6", "is_reserved": 0, "rental_uris": {"android": "https://dc.lft.to/lastmile_qr_scan", "ios": "https://dc.lft.to/lastmile_qr_scan"}, "fusion_lon": 0.0}, {"lat": 38.88976133333333, "is_disabled": 0, "type": "electric_scooter", "lon": -76.93733916666666, "bike_id": "d0301648c6186ba0c4adcb59f1ec6d15", "fusion_lat": 0.0, "name": "d0301648c6186ba0c4adcb59f1ec6d15", "is_reserved": 0, "rental_uris": {"android": "https://dc.lft.to/lastmile_qr_scan", "ios": "https://dc.lft.to/lastmile_qr_scan"}, "fusion_lon": 0.0}, {"lat": 38.8746105, "is_disabled": 0, "type": "electric_scooter", "lon": -77.00491316666667, "bike_id": "1812d3d792d993a2706becde56bbeee7", "fusion_lat": 0.0, "name": "1812d3d792d993a2706becde56bbeee7", "is_reserved": 0, "rental_uris": {"android": "https://dc.lft.to/lastmile_qr_scan", "ios": "https://dc.lft.to/lastmile_qr_scan"}, "fusion_lon": 0.0}, {"lat": 38.88429933333333, "is_disabled": 0, "type": "electric_scooter", "lon": -76.95755716666666, "bike_id": "7d90f623a278f5c57c982c7527bbc270", "fusion_lat": 0.0, "name": "7d90f623a278f5c57c982c7527bbc270", "is_reserved": 0, "rental_uris": {"android": "https://dc.lft.to/lastmile_qr_scan", "ios": "https://dc.lft.to/lastmile_qr_scan"}, "fusion_lon": 0.0}, {"lat": 38.915670666666664, "is_disabled": 0, "type": "electric_scooter", "lon": -77.0331825, "bike_id": "05eac1ea5fdf711e597ad8441b482dd2", "fusion_lat": 0.0, "name": "05eac1ea5fdf711e597ad8441b482dd2", "is_reserved": 0, "rental_uris": {"android": "https://dc.lft.to/lastmile_qr_scan", "ios": "https://dc.lft.to/lastmile_qr_scan"}, "fusion_lon": 0.0}, {"lat": 38.90397166666666, "is_disabled": 0, "type": "electric_scooter", "lon": -77.0438575, "bike_id": "de593bc9ee955105ca5674b4889bdd32", "fusion_lat": 0.0, "name": "de593bc9ee955105ca5674b4889bdd32", "is_reserved": 0, "rental_uris": {"android": "https://dc.lft.to/lastmile_qr_scan", "ios": "https://dc.lft.to/lastmile_qr_scan"}, "fusion_lon": 0.0}, {"lat": 38.89995616666667, "is_disabled": 0, "type": "electric_scooter", "lon": -77.02105066666667, "bike_id": "0df604949cee404e419aa136cb29d533", "fusion_lat": 0.0, "name": "0df604949cee404e419aa136cb29d533", "is_reserved": 0, "rental_uris": {"android": "https://dc.lft.to/lastmile_qr_scan", "ios": "https://dc.lft.to/lastmile_qr_scan"}, "fusion_lon": 0.0}, {"lat": 38.907359, "is_disabled": 0, "type": "electric_scooter", "lon": -77.02535366666666, "bike_id": "fb11df666847c2f1a969b9a0f5bc00d8", "fusion_lat": 0.0, "name": "fb11df666847c2f1a969b9a0f5bc00d8", "is_reserved": 0, "rental_uris": {"android": "https://dc.lft.to/lastmile_qr_scan", "ios": "https://dc.lft.to/lastmile_qr_scan"}, "fusion_lon": 0.0}, {"lat": 38.932232, "is_disabled": 0, "type": "electric_scooter", "lon": -77.02730283333334, "bike_id": "5629a000c37cbac1dec1f160f3183b9a", "fusion_lat": 0.0, "name": "5629a000c37cbac1dec1f160f3183b9a", "is_reserved": 0, "rental_uris": {"android": "https://dc.lft.to/lastmile_qr_scan", "ios": "https://dc.lft.to/lastmile_qr_scan"}, "fusion_lon": 0.0}, {"lat": 38.86665633333333, "is_disabled": 0, "type": "electric_scooter", "lon": -76.98898583333333, "bike_id": "30af560fad570223084031f018a31c51", "fusion_lat": 0.0, "name": "30af560fad570223084031f018a31c51", "is_reserved": 0, "rental_uris": {"android": "https://dc.lft.to/lastmile_qr_scan", "ios": "https://dc.lft.to/lastmile_qr_scan"}, "fusion_lon": 0.0}, {"lat": 38.94437333333333, "is_disabled": 0, "type": "electric_scooter", "lon": -76.99212333333334, "bike_id": "3168aeab85976d7ac5ad417df43c48ad", "fusion_lat": 0.0, "name": "3168aeab85976d7ac5ad417df43c48ad", "is_reserved": 0, "rental_uris": {"android": "https://dc.lft.to/lastmile_qr_scan", "ios": "https://dc.lft.to/lastmile_qr_scan"}, "fusion_lon": 0.0}, {"lat": 38.90951616666667, "is_disabled": 0, "type": "electric_scooter", "lon": -77.03181433333333, "bike_id": "3b4667e6294ef46d4a3f05f5eb33d908", "fusion_lat": 0.0, "name": "3b4667e6294ef46d4a3f05f5eb33d908", "is_reserved": 0, "rental_uris": {"android": "https://dc.lft.to/lastmile_qr_scan", "ios": "https://dc.lft.to/lastmile_qr_scan"}, "fusion_lon": 0.0}, {"lat": 38.88622133333333, "is_disabled": 0, "type": "electric_scooter", "lon": -77.02168133333333, "bike_id": "83f95c6fffd61c592c888eec4b2678b3", "fusion_lat": 0.0, "name": "83f95c6fffd61c592c888eec4b2678b3", "is_reserved": 0, "rental_uris": {"android": "https://dc.lft.to/lastmile_qr_scan", "ios": "https://dc.lft.to/lastmile_qr_scan"}, "fusion_lon": 0.0}, {"lat": 38.905724, "is_disabled": 0, "type": "electric_scooter", "lon": -77.04117916666667, "bike_id": "77ba71f6f07851d2224d03fe8fae5f1a", "fusion_lat": 0.0, "name": "77ba71f6f07851d2224d03fe8fae5f1a", "is_reserved": 0, "rental_uris": {"android": "https://dc.lft.to/lastmile_qr_scan", "ios": "https://dc.lft.to/lastmile_qr_scan"}, "fusion_lon": 0.0}, {"lat": 38.885958, "is_disabled": 0, "type": "electric_scooter", "lon": -77.0152105, "bike_id": "0684d41156f984bd139f7c766de3f68b", "fusion_lat": 0.0, "name": "0684d41156f984bd139f7c766de3f68b", "is_reserved": 0, "rental_uris": {"android": "https://dc.lft.to/lastmile_qr_scan", "ios": "https://dc.lft.to/lastmile_qr_scan"}, "fusion_lon": 0.0}, {"lat": 38.909570333333335, "is_disabled": 0, "type": "electric_scooter", "lon": -77.0373495, "bike_id": "17c8371804474174704ef37834ad85f0", "fusion_lat": 0.0, "name": "17c8371804474174704ef37834ad85f0", "is_reserved": 0, "rental_uris": {"android": "https://dc.lft.to/lastmile_qr_scan", "ios": "https://dc.lft.to/lastmile_qr_scan"}, "fusion_lon": 0.0}, {"lat": 38.881250666666666, "is_disabled": 0, "type": "electric_scooter", "lon": -77.00095583333334, "bike_id": "0cfc530240214152b9c0e8837ff5655e", "fusion_lat": 0.0, "name": "0cfc530240214152b9c0e8837ff5655e", "is_reserved": 0, "rental_uris": {"android": "https://dc.lft.to/lastmile_qr_scan", "ios": "https://dc.lft.to/lastmile_qr_scan"}, "fusion_lon": 0.0}, {"lat": 38.877228833333334, "is_disabled": 0, "type": "electric_bike", "lon": -77.12421466666666, "bike_id": "e41e3757ffbfdaf54a7ae0ccd1b42d9e", "fusion_lat": 0.0, "name": "e41e3757ffbfdaf54a7ae0ccd1b42d9e", "is_reserved": 0, "rental_uris": {"android": "https://dc.lft.to/lastmile_qr_scan", "ios": "https://dc.lft.to/lastmile_qr_scan"}, "fusion_lon": 0.0}, {"lat": 38.91517733333333, "is_disabled": 0, "type": "electric_scooter", "lon": -77.04340583333334, "bike_id": "5148038f6cc65491a26a49f5b0fa1cc5", "fusion_lat": 0.0, "name": "5148038f6cc65491a26a49f5b0fa1cc5", "is_reserved": 0, "rental_uris": {"android": "https://dc.lft.to/lastmile_qr_scan", "ios": "https://dc.lft.to/lastmile_qr_scan"}, "fusion_lon": 0.0}, {"lat": 38.89347133333333, "is_disabled": 0, "type": "electric_scooter", "lon": -76.94934466666666, "bike_id": "1c303d990fb633f029043c2d4b68c409", "fusion_lat": 0.0, "name": "1c303d990fb633f029043c2d4b68c409", "is_reserved": 0, "rental_uris": {"android": "https://dc.lft.to/lastmile_qr_scan", "ios": "https://dc.lft.to/lastmile_qr_scan"}, "fusion_lon": 0.0}, {"lat": 38.927776333333334, "is_disabled": 0, "type": "electric_scooter", "lon": -77.027107, "bike_id": "970cdc09983a13a426a4b8e9ca620e7c", "fusion_lat": 0.0, "name": "970cdc09983a13a426a4b8e9ca620e7c", "is_reserved": 0, "rental_uris": {"android": "https://dc.lft.to/lastmile_qr_scan", "ios": "https://dc.lft.to/lastmile_qr_scan"}, "fusion_lon": 0.0}, {"lat": 38.934730333333334, "is_disabled": 0, "type": "electric_scooter", "lon": -77.01931016666667, "bike_id": "a48787b69a9c5490faee1c3ff4fef693", "fusion_lat": 0.0, "name": "a48787b69a9c5490faee1c3ff4fef693", "is_reserved": 0, "rental_uris": {"android": "https://dc.lft.to/lastmile_qr_scan", "ios": "https://dc.lft.to/lastmile_qr_scan"}, "fusion_lon": 0.0}, {"lat": 38.907892333333336, "is_disabled": 0, "type": "electric_scooter", "lon": -77.03191483333333, "bike_id": "49c4253353725aaf0b4f2b53bd396fb4", "fusion_lat": 0.0, "name": "49c4253353725aaf0b4f2b53bd396fb4", "is_reserved": 0, "rental_uris": {"android": "https://dc.lft.to/lastmile_qr_scan", "ios": "https://dc.lft.to/lastmile_qr_scan"}, "fusion_lon": 0.0}, {"lat": 38.885488333333335, "is_disabled": 0, "type": "electric_bike", "lon": -77.11786233333333, "bike_id": "91e9b407b392ea8faf1264b8aacee405", "fusion_lat": 0.0, "name": "91e9b407b392ea8faf1264b8aacee405", "is_reserved": 0, "rental_uris": {"android": "https://dc.lft.to/lastmile_qr_scan", "ios": "https://dc.lft.to/lastmile_qr_scan"}, "fusion_lon": 0.0}, {"lat": 38.87671116666667, "is_disabled": 0, "type": "electric_scooter", "lon": -77.01760066666667, "bike_id": "8b766583a17cdac0f826f5394f8e630a", "fusion_lat": 0.0, "name": "8b766583a17cdac0f826f5394f8e630a", "is_reserved": 0, "rental_uris": {"android": "https://dc.lft.to/lastmile_qr_scan", "ios": "https://dc.lft.to/lastmile_qr_scan"}, "fusion_lon": 0.0}, {"lat": 38.85854483333333, "is_disabled": 0, "type": "electric_scooter", "lon": -76.99563666666667, "bike_id": "0703c85f79a694982249e07c93f99923", "fusion_lat": 0.0, "name": "0703c85f79a694982249e07c93f99923", "is_reserved": 0, "rental_uris": {"android": "https://dc.lft.to/lastmile_qr_scan", "ios": "https://dc.lft.to/lastmile_qr_scan"}, "fusion_lon": 0.0}, {"lat": 38.919647499999996, "is_disabled": 0, "type": "electric_scooter", "lon": -77.014414, "bike_id": "f419364279213c5d1856f15b2e37c52a", "fusion_lat": 0.0, "name": "f419364279213c5d1856f15b2e37c52a", "is_reserved": 0, "rental_uris": {"android": "https://dc.lft.to/lastmile_qr_scan", "ios": "https://dc.lft.to/lastmile_qr_scan"}, "fusion_lon": 0.0}, {"lat": 38.89801216666667, "is_disabled": 0, "type": "electric_scooter", "lon": -77.0330595, "bike_id": "fb7388ab65fba8411ddc78d9f2c1c3a6", "fusion_lat": 0.0, "name": "fb7388ab65fba8411ddc78d9f2c1c3a6", "is_reserved": 0, "rental_uris": {"android": "https://dc.lft.to/lastmile_qr_scan", "ios": "https://dc.lft.to/lastmile_qr_scan"}, "fusion_lon": 0.0}, {"lat": 38.887197, "is_disabled": 0, "type": "electric_bike", "lon": -77.1330335, "bike_id": "180220d998dbabfdca1f20a3053b1254", "fusion_lat": 0.0, "name": "180220d998dbabfdca1f20a3053b1254", "is_reserved": 0, "rental_uris": {"android": "https://dc.lft.to/lastmile_qr_scan", "ios": "https://dc.lft.to/lastmile_qr_scan"}, "fusion_lon": 0.0}, {"lat": 38.884611, "is_disabled": 0, "type": "electric_scooter", "lon": -76.92960616666667, "bike_id": "12e173eebc276ea117d8b8810eaffea9", "fusion_lat": 0.0, "name": "12e173eebc276ea117d8b8810eaffea9", "is_reserved": 0, "rental_uris": {"android": "https://dc.lft.to/lastmile_qr_scan", "ios": "https://dc.lft.to/lastmile_qr_scan"}, "fusion_lon": 0.0}, {"lat": 38.9987995, "is_disabled": 0, "type": "electric_bike", "lon": -77.028748, "bike_id": "4877d405c53c2a7ae08d8bdd7a06daf5", "fusion_lat": 0.0, "name": "4877d405c53c2a7ae08d8bdd7a06daf5", "is_reserved": 0, "rental_uris": {"android": "https://dc.lft.to/lastmile_qr_scan", "ios": "https://dc.lft.to/lastmile_qr_scan"}, "fusion_lon": 0.0}, {"lat": 38.934397833333335, "is_disabled": 0, "type": "electric_scooter", "lon": -76.965155, "bike_id": "270c110bfa0290f9f3c6e0ca33b285e2", "fusion_lat": 0.0, "name": "270c110bfa0290f9f3c6e0ca33b285e2", "is_reserved": 0, "rental_uris": {"android": "https://dc.lft.to/lastmile_qr_scan", "ios": "https://dc.lft.to/lastmile_qr_scan"}, "fusion_lon": 0.0}, {"lat": 38.957074666666664, "is_disabled": 0, "type": "electric_scooter", "lon": -77.02400883333334, "bike_id": "1e1cceeaa9c14634dfd6d35e4720c96b", "fusion_lat": 0.0, "name": "1e1cceeaa9c14634dfd6d35e4720c96b", "is_reserved": 0, "rental_uris": {"android": "https://dc.lft.to/lastmile_qr_scan", "ios": "https://dc.lft.to/lastmile_qr_scan"}, "fusion_lon": 0.0}, {"lat": 38.93759583333333, "is_disabled": 0, "type": "electric_scooter", "lon": -77.03272033333333, "bike_id": "eb6f6fdde9396f834f14a589e9b5ce3c", "fusion_lat": 0.0, "name": "eb6f6fdde9396f834f14a589e9b5ce3c", "is_reserved": 0, "rental_uris": {"android": "https://dc.lft.to/lastmile_qr_scan", "ios": "https://dc.lft.to/lastmile_qr_scan"}, "fusion_lon": 0.0}, {"lat": 38.905598833333336, "is_disabled": 0, "type": "electric_scooter", "lon": -77.05693733333334, "bike_id": "001f153824d6ae4541bb7104d0daaa7b", "fusion_lat": 0.0, "name": "001f153824d6ae4541bb7104d0daaa7b", "is_reserved": 0, "rental_uris": {"android": "https://dc.lft.to/lastmile_qr_scan", "ios": "https://dc.lft.to/lastmile_qr_scan"}, "fusion_lon": 0.0}, {"lat": 38.8791905, "is_disabled": 0, "type": "electric_scooter", "lon": -76.9915295, "bike_id": "26568c4aec4f3f0cf571ffb4f3d5b2bf", "fusion_lat": 0.0, "name": "26568c4aec4f3f0cf571ffb4f3d5b2bf", "is_reserved": 0, "rental_uris": {"android": "https://dc.lft.to/lastmile_qr_scan", "ios": "https://dc.lft.to/lastmile_qr_scan"}, "fusion_lon": 0.0}, {"lat": 38.9207105, "is_disabled": 0, "type": "electric_scooter", "lon": -76.97599916666667, "bike_id": "294c262a4ecce5f44193e9fd3256a7d8", "fusion_lat": 0.0, "name": "294c262a4ecce5f44193e9fd3256a7d8", "is_reserved": 0, "rental_uris": {"android": "https://dc.lft.to/lastmile_qr_scan", "ios": "https://dc.lft.to/lastmile_qr_scan"}, "fusion_lon": 0.0}, {"lat": 38.959606, "is_disabled": 0, "type": "electric_bike", "lon": -77.10085916666667, "bike_id": "4c5573a2e5d919a321fbce442e8fc902", "fusion_lat": 0.0, "name": "4c5573a2e5d919a321fbce442e8fc902", "is_reserved": 0, "rental_uris": {"android": "https://dc.lft.to/lastmile_qr_scan", "ios": "https://dc.lft.to/lastmile_qr_scan"}, "fusion_lon": 0.0}, {"lat": 38.961387, "is_disabled": 0, "type": "electric_scooter", "lon": -77.02802, "bike_id": "3d367f68ac8c9e328a01e61724ff8025", "fusion_lat": 0.0, "name": "3d367f68ac8c9e328a01e61724ff8025", "is_reserved": 0, "rental_uris": {"android": "https://dc.lft.to/lastmile_qr_scan", "ios": "https://dc.lft.to/lastmile_qr_scan"}, "fusion_lon": 0.0}, {"lat": 38.9314355, "is_disabled": 0, "type": "electric_scooter", "lon": -77.03823966666667, "bike_id": "24aa074330d2de8c6cc2aeab8eae4f31", "fusion_lat": 0.0, "name": "24aa074330d2de8c6cc2aeab8eae4f31", "is_reserved": 0, "rental_uris": {"android": "https://dc.lft.to/lastmile_qr_scan", "ios": "https://dc.lft.to/lastmile_qr_scan"}, "fusion_lon": 0.0}, {"lat": 38.92071983333334, "is_disabled": 0, "type": "electric_scooter", "lon": -77.0433355, "bike_id": "d7d713d1d407e611bcd802cce5d4915e", "fusion_lat": 0.0, "name": "d7d713d1d407e611bcd802cce5d4915e", "is_reserved": 0, "rental_uris": {"android": "https://dc.lft.to/lastmile_qr_scan", "ios": "https://dc.lft.to/lastmile_qr_scan"}, "fusion_lon": 0.0}, {"lat": 38.887490666666665, "is_disabled": 0, "type": "electric_scooter", "lon": -77.02173733333333, "bike_id": "78d62b4603f6efe1817798da7a65ced3", "fusion_lat": 0.0, "name": "78d62b4603f6efe1817798da7a65ced3", "is_reserved": 0, "rental_uris": {"android": "https://dc.lft.to/lastmile_qr_scan", "ios": "https://dc.lft.to/lastmile_qr_scan"}, "fusion_lon": 0.0}, {"lat": 38.903513333333336, "is_disabled": 0, "type": "electric_scooter", "lon": -77.06587316666666, "bike_id": "235c0faf7c21585e1aac8f45edef9bc6", "fusion_lat": 0.0, "name": "235c0faf7c21585e1aac8f45edef9bc6", "is_reserved": 0, "rental_uris": {"android": "https://dc.lft.to/lastmile_qr_scan", "ios": "https://dc.lft.to/lastmile_qr_scan"}, "fusion_lon": 0.0}, {"lat": 38.88047983333333, "is_disabled": 0, "type": "electric_scooter", "lon": -76.98630316666667, "bike_id": "9132ca11f0db7438f317ca014abe398a", "fusion_lat": 0.0, "name": "9132ca11f0db7438f317ca014abe398a", "is_reserved": 0, "rental_uris": {"android": "https://dc.lft.to/lastmile_qr_scan", "ios": "https://dc.lft.to/lastmile_qr_scan"}, "fusion_lon": 0.0}, {"lat": 38.89852116666667, "is_disabled": 0, "type": "electric_scooter", "lon": -77.01891983333333, "bike_id": "91f4247f43b1c709b077f1f1deb388ed", "fusion_lat": 0.0, "name": "91f4247f43b1c709b077f1f1deb388ed", "is_reserved": 0, "rental_uris": {"android": "https://dc.lft.to/lastmile_qr_scan", "ios": "https://dc.lft.to/lastmile_qr_scan"}, "fusion_lon": 0.0}, {"lat": 38.90377983333333, "is_disabled": 0, "type": "electric_scooter", "lon": -77.0599155, "bike_id": "87b7958810694dc36730f30c801e3d8b", "fusion_lat": 0.0, "name": "87b7958810694dc36730f30c801e3d8b", "is_reserved": 0, "rental_uris": {"android": "https://dc.lft.to/lastmile_qr_scan", "ios": "https://dc.lft.to/lastmile_qr_scan"}, "fusion_lon": 0.0}, {"lat": 38.84263083333333, "is_disabled": 0, "type": "electric_scooter", "lon": -77.00238433333334, "bike_id": "27a195cfa6d6b78b987e866a639db74d", "fusion_lat": 0.0, "name": "27a195cfa6d6b78b987e866a639db74d", "is_reserved": 0, "rental_uris": {"android": "https://dc.lft.to/lastmile_qr_scan", "ios": "https://dc.lft.to/lastmile_qr_scan"}, "fusion_lon": 0.0}, {"lat": 38.88441, "is_disabled": 0, "type": "electric_scooter", "lon": -77.03036733333333, "bike_id": "70d407145f622dd57c8ccd2e09611952", "fusion_lat": 0.0, "name": "70d407145f622dd57c8ccd2e09611952", "is_reserved": 0, "rental_uris": {"android": "https://dc.lft.to/lastmile_qr_scan", "ios": "https://dc.lft.to/lastmile_qr_scan"}, "fusion_lon": 0.0}, {"lat": 38.89732516666667, "is_disabled": 0, "type": "electric_scooter", "lon": -77.046852, "bike_id": "e47d029d35c4cdddc0d9febf6f33bff7", "fusion_lat": 0.0, "name": "e47d029d35c4cdddc0d9febf6f33bff7", "is_reserved": 0, "rental_uris": {"android": "https://dc.lft.to/lastmile_qr_scan", "ios": "https://dc.lft.to/lastmile_qr_scan"}, "fusion_lon": 0.0}, {"lat": 38.91860283333333, "is_disabled": 0, "type": "electric_scooter", "lon": -77.0457825, "bike_id": "101ff1f352416be7e16fa35c968c35f9", "fusion_lat": 0.0, "name": "101ff1f352416be7e16fa35c968c35f9", "is_reserved": 0, "rental_uris": {"android": "https://dc.lft.to/lastmile_qr_scan", "ios": "https://dc.lft.to/lastmile_qr_scan"}, "fusion_lon": 0.0}, {"lat": 38.9170435, "is_disabled": 0, "type": "electric_scooter", "lon": -77.00114566666667, "bike_id": "66bb2efd104a6817107899c4cfca8f44", "fusion_lat": 0.0, "name": "66bb2efd104a6817107899c4cfca8f44", "is_reserved": 0, "rental_uris": {"android": "https://dc.lft.to/lastmile_qr_scan", "ios": "https://dc.lft.to/lastmile_qr_scan"}, "fusion_lon": 0.0}, {"lat": 38.8997445, "is_disabled": 0, "type": "electric_scooter", "lon": -77.05704633333333, "bike_id": "73d53a9cc297c350a61da70e6fdd6ded", "fusion_lat": 0.0, "name": "73d53a9cc297c350a61da70e6fdd6ded", "is_reserved": 0, "rental_uris": {"android": "https://dc.lft.to/lastmile_qr_scan", "ios": "https://dc.lft.to/lastmile_qr_scan"}, "fusion_lon": 0.0}, {"lat": 38.927619, "is_disabled": 0, "type": "electric_scooter", "lon": -77.03220883333333, "bike_id": "29e78f72989087d3146b7f3e62f5d734", "fusion_lat": 0.0, "name": "29e78f72989087d3146b7f3e62f5d734", "is_reserved": 0, "rental_uris": {"android": "https://dc.lft.to/lastmile_qr_scan", "ios": "https://dc.lft.to/lastmile_qr_scan"}, "fusion_lon": 0.0}, {"lat": 38.92009933333333, "is_disabled": 0, "type": "electric_scooter", "lon": -77.0387845, "bike_id": "1d26d6e25f99f1abf052a943e9bf922d", "fusion_lat": 0.0, "name": "1d26d6e25f99f1abf052a943e9bf922d", "is_reserved": 0, "rental_uris": {"android": "https://dc.lft.to/lastmile_qr_scan", "ios": "https://dc.lft.to/lastmile_qr_scan"}, "fusion_lon": 0.0}, {"lat": 38.898615166666666, "is_disabled": 0, "type": "electric_scooter", "lon": -77.02410333333333, "bike_id": "bda14519d12d0be545ce43489069ee9d", "fusion_lat": 0.0, "name": "bda14519d12d0be545ce43489069ee9d", "is_reserved": 0, "rental_uris": {"android": "https://dc.lft.to/lastmile_qr_scan", "ios": "https://dc.lft.to/lastmile_qr_scan"}, "fusion_lon": 0.0}, {"lat": 38.916998666666665, "is_disabled": 0, "type": "electric_scooter", "lon": -77.03126916666666, "bike_id": "13e60a4f174d46295c717c4b315eb2db", "fusion_lat": 0.0, "name": "13e60a4f174d46295c717c4b315eb2db", "is_reserved": 0, "rental_uris": {"android": "https://dc.lft.to/lastmile_qr_scan", "ios": "https://dc.lft.to/lastmile_qr_scan"}, "fusion_lon": 0.0}, {"lat": 38.939684666666665, "is_disabled": 0, "type": "electric_bike", "lon": -77.36081866666666, "bike_id": "121c1e4609299f56a8c2e7af41a8d0c0", "fusion_lat": 0.0, "name": "121c1e4609299f56a8c2e7af41a8d0c0", "is_reserved": 0, "rental_uris": {"android": "https://dc.lft.to/lastmile_qr_scan", "ios": "https://dc.lft.to/lastmile_qr_scan"}, "fusion_lon": 0.0}, {"lat": 38.90162466666666, "is_disabled": 0, "type": "electric_scooter", "lon": -77.02394683333333, "bike_id": "bf9c3165051c72a1489e9a8a4b185bad", "fusion_lat": 0.0, "name": "bf9c3165051c72a1489e9a8a4b185bad", "is_reserved": 0, "rental_uris": {"android": "https://dc.lft.to/lastmile_qr_scan", "ios": "https://dc.lft.to/lastmile_qr_scan"}, "fusion_lon": 0.0}, {"lat": 38.89559116666667, "is_disabled": 0, "type": "electric_scooter", "lon": -76.930796, "bike_id": "793678d34e6b210581fe97a0da52f71c", "fusion_lat": 0.0, "name": "793678d34e6b210581fe97a0da52f71c", "is_reserved": 0, "rental_uris": {"android": "https://dc.lft.to/lastmile_qr_scan", "ios": "https://dc.lft.to/lastmile_qr_scan"}, "fusion_lon": 0.0}, {"lat": 38.92658983333333, "is_disabled": 0, "type": "electric_scooter", "lon": -77.02432233333333, "bike_id": "5df93adee650fd9b5709944cde66fcbf", "fusion_lat": 0.0, "name": "5df93adee650fd9b5709944cde66fcbf", "is_reserved": 0, "rental_uris": {"android": "https://dc.lft.to/lastmile_qr_scan", "ios": "https://dc.lft.to/lastmile_qr_scan"}, "fusion_lon": 0.0}, {"lat": 38.9528835, "is_disabled": 0, "type": "electric_bike", "lon": -76.945993, "bike_id": "92218423734d2ce7fb4a8dcc6b3d3a8f", "fusion_lat": 0.0, "name": "92218423734d2ce7fb4a8dcc6b3d3a8f", "is_reserved": 0, "rental_uris": {"android": "https://dc.lft.to/lastmile_qr_scan", "ios": "https://dc.lft.to/lastmile_qr_scan"}, "fusion_lon": 0.0}, {"lat": 38.93943483333334, "is_disabled": 0, "type": "electric_scooter", "lon": -77.0367595, "bike_id": "ba949033b317cfb7d7dcba1f8bb99f7f", "fusion_lat": 0.0, "name": "ba949033b317cfb7d7dcba1f8bb99f7f", "is_reserved": 0, "rental_uris": {"android": "https://dc.lft.to/lastmile_qr_scan", "ios": "https://dc.lft.to/lastmile_qr_scan"}, "fusion_lon": 0.0}, {"lat": 38.86997366666667, "is_disabled": 0, "type": "electric_bike", "lon": -77.0656365, "bike_id": "6b584f66bc70b50cd686885075d72463", "fusion_lat": 0.0, "name": "6b584f66bc70b50cd686885075d72463", "is_reserved": 0, "rental_uris": {"android": "https://dc.lft.to/lastmile_qr_scan", "ios": "https://dc.lft.to/lastmile_qr_scan"}, "fusion_lon": 0.0}, {"lat": 38.954068, "is_disabled": 0, "type": "electric_scooter", "lon": -77.027461, "bike_id": "6fe691e5c79706525bd79e09dd392692", "fusion_lat": 0.0, "name": "6fe691e5c79706525bd79e09dd392692", "is_reserved": 0, "rental_uris": {"android": "https://dc.lft.to/lastmile_qr_scan", "ios": "https://dc.lft.to/lastmile_qr_scan"}, "fusion_lon": 0.0}, {"lat": 38.865284, "is_disabled": 0, "type": "electric_scooter", "lon": -76.99027883333333, "bike_id": "446112980018f992ff6447eb246e9a8e", "fusion_lat": 0.0, "name": "446112980018f992ff6447eb246e9a8e", "is_reserved": 0, "rental_uris": {"android": "https://dc.lft.to/lastmile_qr_scan", "ios": "https://dc.lft.to/lastmile_qr_scan"}, "fusion_lon": 0.0}, {"lat": 38.85928233333333, "is_disabled": 0, "type": "electric_scooter", "lon": -76.997157, "bike_id": "71ab600755b4cc6dd4d057f130c66ea6", "fusion_lat": 0.0, "name": "71ab600755b4cc6dd4d057f130c66ea6", "is_reserved": 0, "rental_uris": {"android": "https://dc.lft.to/lastmile_qr_scan", "ios": "https://dc.lft.to/lastmile_qr_scan"}, "fusion_lon": 0.0}, {"lat": 38.929995, "is_disabled": 0, "type": "electric_scooter", "lon": -77.05672083333333, "bike_id": "0f97e3f63943af2001f4db58ab6392c2", "fusion_lat": 0.0, "name": "0f97e3f63943af2001f4db58ab6392c2", "is_reserved": 0, "rental_uris": {"android": "https://dc.lft.to/lastmile_qr_scan", "ios": "https://dc.lft.to/lastmile_qr_scan"}, "fusion_lon": 0.0}, {"lat": 38.890502, "is_disabled": 0, "type": "electric_scooter", "lon": -76.93753033333333, "bike_id": "157f8cecfaa4f4178eb2d7dafbafd565", "fusion_lat": 0.0, "name": "157f8cecfaa4f4178eb2d7dafbafd565", "is_reserved": 0, "rental_uris": {"android": "https://dc.lft.to/lastmile_qr_scan", "ios": "https://dc.lft.to/lastmile_qr_scan"}, "fusion_lon": 0.0}, {"lat": 38.90284333333334, "is_disabled": 0, "type": "electric_scooter", "lon": -77.04041933333333, "bike_id": "818dea11777756483e07616b6b00ce2d", "fusion_lat": 0.0, "name": "818dea11777756483e07616b6b00ce2d", "is_reserved": 0, "rental_uris": {"android": "https://dc.lft.to/lastmile_qr_scan", "ios": "https://dc.lft.to/lastmile_qr_scan"}, "fusion_lon": 0.0}, {"lat": 38.8961495, "is_disabled": 0, "type": "electric_scooter", "lon": -77.03002333333333, "bike_id": "46084c57c9983fe89cd0f4ca2cbc247b", "fusion_lat": 0.0, "name": "46084c57c9983fe89cd0f4ca2cbc247b", "is_reserved": 0, "rental_uris": {"android": "https://dc.lft.to/lastmile_qr_scan", "ios": "https://dc.lft.to/lastmile_qr_scan"}, "fusion_lon": 0.0}, {"lat": 38.838136166666665, "is_disabled": 0, "type": "electric_bike", "lon": -77.09526083333333, "bike_id": "5161d33dfddc7ca570f1c35441413892", "fusion_lat": 0.0, "name": "5161d33dfddc7ca570f1c35441413892", "is_reserved": 0, "rental_uris": {"android": "https://dc.lft.to/lastmile_qr_scan", "ios": "https://dc.lft.to/lastmile_qr_scan"}, "fusion_lon": 0.0}, {"lat": 38.92001833333333, "is_disabled": 0, "type": "electric_scooter", "lon": -77.04167683333333, "bike_id": "dc08e3dd54a67678d6e424bda092e538", "fusion_lat": 0.0, "name": "dc08e3dd54a67678d6e424bda092e538", "is_reserved": 0, "rental_uris": {"android": "https://dc.lft.to/lastmile_qr_scan", "ios": "https://dc.lft.to/lastmile_qr_scan"}, "fusion_lon": 0.0}, {"lat": 38.904356166666666, "is_disabled": 0, "type": "electric_scooter", "lon": -77.03646983333333, "bike_id": "b5ac70859ba67d9a2d1b104370d6d4e0", "fusion_lat": 0.0, "name": "b5ac70859ba67d9a2d1b104370d6d4e0", "is_reserved": 0, "rental_uris": {"android": "https://dc.lft.to/lastmile_qr_scan", "ios": "https://dc.lft.to/lastmile_qr_scan"}, "fusion_lon": 0.0}, {"lat": 38.902627333333335, "is_disabled": 0, "type": "electric_scooter", "lon": -77.0175735, "bike_id": "82f5b868047e98b9ba73eab7702d63c2", "fusion_lat": 0.0, "name": "82f5b868047e98b9ba73eab7702d63c2", "is_reserved": 0, "rental_uris": {"android": "https://dc.lft.to/lastmile_qr_scan", "ios": "https://dc.lft.to/lastmile_qr_scan"}, "fusion_lon": 0.0}, {"lat": 38.9463525, "is_disabled": 0, "type": "electric_scooter", "lon": -77.0184455, "bike_id": "7bf7f0adb04106ce87504e017a420712", "fusion_lat": 0.0, "name": "7bf7f0adb04106ce87504e017a420712", "is_reserved": 0, "rental_uris": {"android": "https://dc.lft.to/lastmile_qr_scan", "ios": "https://dc.lft.to/lastmile_qr_scan"}, "fusion_lon": 0.0}, {"lat": 38.876295666666664, "is_disabled": 0, "type": "electric_scooter", "lon": -76.965286, "bike_id": "148fb05c7889b835deb86097e4e56566", "fusion_lat": 0.0, "name": "148fb05c7889b835deb86097e4e56566", "is_reserved": 0, "rental_uris": {"android": "https://dc.lft.to/lastmile_qr_scan", "ios": "https://dc.lft.to/lastmile_qr_scan"}, "fusion_lon": 0.0}, {"lat": 38.90094833333333, "is_disabled": 0, "type": "electric_scooter", "lon": -77.02438883333333, "bike_id": "cd0a601ebca8917e6e125c2e310f1568", "fusion_lat": 0.0, "name": "cd0a601ebca8917e6e125c2e310f1568", "is_reserved": 0, "rental_uris": {"android": "https://dc.lft.to/lastmile_qr_scan", "ios": "https://dc.lft.to/lastmile_qr_scan"}, "fusion_lon": 0.0}, {"lat": 38.9287155, "is_disabled": 0, "type": "electric_bike", "lon": -77.03694533333334, "bike_id": "d1662e5a5a825f23fdb00bfd44c06510", "fusion_lat": 0.0, "name": "d1662e5a5a825f23fdb00bfd44c06510", "is_reserved": 0, "rental_uris": {"android": "https://dc.lft.to/lastmile_qr_scan", "ios": "https://dc.lft.to/lastmile_qr_scan"}, "fusion_lon": 0.0}, {"lat": 38.917784, "is_disabled": 0, "type": "electric_scooter", "lon": -77.04100366666667, "bike_id": "c2feec9272a358388a209e0b90214a3d", "fusion_lat": 0.0, "name": "c2feec9272a358388a209e0b90214a3d", "is_reserved": 0, "rental_uris": {"android": "https://dc.lft.to/lastmile_qr_scan", "ios": "https://dc.lft.to/lastmile_qr_scan"}, "fusion_lon": 0.0}, {"lat": 38.91407233333334, "is_disabled": 0, "type": "electric_scooter", "lon": -77.02060366666667, "bike_id": "bfb243257d1f65883f3638389b7c140a", "fusion_lat": 0.0, "name": "bfb243257d1f65883f3638389b7c140a", "is_reserved": 0, "rental_uris": {"android": "https://dc.lft.to/lastmile_qr_scan", "ios": "https://dc.lft.to/lastmile_qr_scan"}, "fusion_lon": 0.0}, {"lat": 38.91987983333333, "is_disabled": 0, "type": "electric_scooter", "lon": -76.97305383333334, "bike_id": "87d2d98074986a290e21eab6041c184f", "fusion_lat": 0.0, "name": "87d2d98074986a290e21eab6041c184f", "is_reserved": 0, "rental_uris": {"android": "https://dc.lft.to/lastmile_qr_scan", "ios": "https://dc.lft.to/lastmile_qr_scan"}, "fusion_lon": 0.0}, {"lat": 38.965622333333336, "is_disabled": 0, "type": "electric_bike", "lon": -77.02293383333334, "bike_id": "6d24444c232a4e0a651d15f79598ad92", "fusion_lat": 0.0, "name": "6d24444c232a4e0a651d15f79598ad92", "is_reserved": 0, "rental_uris": {"android": "https://dc.lft.to/lastmile_qr_scan", "ios": "https://dc.lft.to/lastmile_qr_scan"}, "fusion_lon": 0.0}, {"lat": 38.908713666666664, "is_disabled": 0, "type": "electric_scooter", "lon": -77.04656816666666, "bike_id": "df4a7fbd3c6ba62ccfdd7fd98e53bddd", "fusion_lat": 0.0, "name": "df4a7fbd3c6ba62ccfdd7fd98e53bddd", "is_reserved": 0, "rental_uris": {"android": "https://dc.lft.to/lastmile_qr_scan", "ios": "https://dc.lft.to/lastmile_qr_scan"}, "fusion_lon": 0.0}, {"lat": 38.85980083333333, "is_disabled": 0, "type": "electric_bike", "lon": -77.0562365, "bike_id": "3a9e970024d839a61effe749424602a2", "fusion_lat": 0.0, "name": "3a9e970024d839a61effe749424602a2", "is_reserved": 0, "rental_uris": {"android": "https://dc.lft.to/lastmile_qr_scan", "ios": "https://dc.lft.to/lastmile_qr_scan"}, "fusion_lon": 0.0}, {"lat": 38.915914, "is_disabled": 0, "type": "electric_scooter", "lon": -77.02382766666666, "bike_id": "d884bac69998410715264839a5089771", "fusion_lat": 0.0, "name": "d884bac69998410715264839a5089771", "is_reserved": 0, "rental_uris": {"android": "https://dc.lft.to/lastmile_qr_scan", "ios": "https://dc.lft.to/lastmile_qr_scan"}, "fusion_lon": 0.0}, {"lat": 38.91849066666666, "is_disabled": 0, "type": "electric_scooter", "lon": -77.03230966666666, "bike_id": "0a91370d515934c59ed5ed61e0369fb6", "fusion_lat": 0.0, "name": "0a91370d515934c59ed5ed61e0369fb6", "is_reserved": 0, "rental_uris": {"android": "https://dc.lft.to/lastmile_qr_scan", "ios": "https://dc.lft.to/lastmile_qr_scan"}, "fusion_lon": 0.0}, {"lat": 38.92104, "is_disabled": 0, "type": "electric_scooter", "lon": -77.021943, "bike_id": "04645a26bccc8513731145a3c59740ee", "fusion_lat": 0.0, "name": "04645a26bccc8513731145a3c59740ee", "is_reserved": 0, "rental_uris": {"android": "https://dc.lft.to/lastmile_qr_scan", "ios": "https://dc.lft.to/lastmile_qr_scan"}, "fusion_lon": 0.0}, {"lat": 38.93572416666667, "is_disabled": 0, "type": "electric_scooter", "lon": -77.0326385, "bike_id": "cb95662052e74c105ee720d3cf874373", "fusion_lat": 0.0, "name": "cb95662052e74c105ee720d3cf874373", "is_reserved": 0, "rental_uris": {"android": "https://dc.lft.to/lastmile_qr_scan", "ios": "https://dc.lft.to/lastmile_qr_scan"}, "fusion_lon": 0.0}, {"lat": 38.87208966666667, "is_disabled": 0, "type": "electric_bike", "lon": -77.015253, "bike_id": "79bd14f0fc0c9d62a223f6f17f66a2f3", "fusion_lat": 0.0, "name": "79bd14f0fc0c9d62a223f6f17f66a2f3", "is_reserved": 0, "rental_uris": {"android": "https://dc.lft.to/lastmile_qr_scan", "ios": "https://dc.lft.to/lastmile_qr_scan"}, "fusion_lon": 0.0}, {"lat": 38.9048675, "is_disabled": 0, "type": "electric_scooter", "lon": -77.05729966666667, "bike_id": "90dec64659885b37a4a188ee6732c8ea", "fusion_lat": 0.0, "name": "90dec64659885b37a4a188ee6732c8ea", "is_reserved": 0, "rental_uris": {"android": "https://dc.lft.to/lastmile_qr_scan", "ios": "https://dc.lft.to/lastmile_qr_scan"}, "fusion_lon": 0.0}, {"lat": 38.89645433333333, "is_disabled": 0, "type": "electric_scooter", "lon": -77.00784383333334, "bike_id": "3e5c1a7ea9841e1a32159bdac56efc43", "fusion_lat": 0.0, "name": "3e5c1a7ea9841e1a32159bdac56efc43", "is_reserved": 0, "rental_uris": {"android": "https://dc.lft.to/lastmile_qr_scan", "ios": "https://dc.lft.to/lastmile_qr_scan"}, "fusion_lon": 0.0}, {"lat": 38.9310405, "is_disabled": 0, "type": "electric_scooter", "lon": -76.96728333333333, "bike_id": "8fb38df9ac7f09c57f4e917caee7e323", "fusion_lat": 0.0, "name": "8fb38df9ac7f09c57f4e917caee7e323", "is_reserved": 0, "rental_uris": {"android": "https://dc.lft.to/lastmile_qr_scan", "ios": "https://dc.lft.to/lastmile_qr_scan"}, "fusion_lon": 0.0}, {"lat": 38.862775, "is_disabled": 0, "type": "electric_scooter", "lon": -76.99235816666666, "bike_id": "48c6ecc100d063109c04717c61ddbdbc", "fusion_lat": 0.0, "name": "48c6ecc100d063109c04717c61ddbdbc", "is_reserved": 0, "rental_uris": {"android": "https://dc.lft.to/lastmile_qr_scan", "ios": "https://dc.lft.to/lastmile_qr_scan"}, "fusion_lon": 0.0}, {"lat": 38.916988, "is_disabled": 0, "type": "electric_scooter", "lon": -77.03268816666667, "bike_id": "297148ca3cf51ed0ffcea26f9f775721", "fusion_lat": 0.0, "name": "297148ca3cf51ed0ffcea26f9f775721", "is_reserved": 0, "rental_uris": {"android": "https://dc.lft.to/lastmile_qr_scan", "ios": "https://dc.lft.to/lastmile_qr_scan"}, "fusion_lon": 0.0}, {"lat": 38.90468883333333, "is_disabled": 0, "type": "electric_scooter", "lon": -77.029432, "bike_id": "5612f5314b6493e71d53305f2df8a095", "fusion_lat": 0.0, "name": "5612f5314b6493e71d53305f2df8a095", "is_reserved": 0, "rental_uris": {"android": "https://dc.lft.to/lastmile_qr_scan", "ios": "https://dc.lft.to/lastmile_qr_scan"}, "fusion_lon": 0.0}, {"lat": 38.931490833333335, "is_disabled": 0, "type": "electric_scooter", "lon": -77.02821366666667, "bike_id": "6c4584f1e8c772c1ec9471802646a643", "fusion_lat": 0.0, "name": "6c4584f1e8c772c1ec9471802646a643", "is_reserved": 0, "rental_uris": {"android": "https://dc.lft.to/lastmile_qr_scan", "ios": "https://dc.lft.to/lastmile_qr_scan"}, "fusion_lon": 0.0}, {"lat": 38.94946633333333, "is_disabled": 0, "type": "electric_scooter", "lon": -77.02019566666667, "bike_id": "c8740196f34d01d11e620d7a2a7f8be7", "fusion_lat": 0.0, "name": "c8740196f34d01d11e620d7a2a7f8be7", "is_reserved": 0, "rental_uris": {"android": "https://dc.lft.to/lastmile_qr_scan", "ios": "https://dc.lft.to/lastmile_qr_scan"}, "fusion_lon": 0.0}, {"lat": 38.9247905, "is_disabled": 0, "type": "electric_scooter", "lon": -77.0262885, "bike_id": "02f16fc198267ff2641726873e5abd21", "fusion_lat": 0.0, "name": "02f16fc198267ff2641726873e5abd21", "is_reserved": 0, "rental_uris": {"android": "https://dc.lft.to/lastmile_qr_scan", "ios": "https://dc.lft.to/lastmile_qr_scan"}, "fusion_lon": 0.0}, {"lat": 38.86718183333333, "is_disabled": 0, "type": "electric_scooter", "lon": -77.01010416666666, "bike_id": "589017b0d5d3083759725367bad07ded", "fusion_lat": 0.0, "name": "589017b0d5d3083759725367bad07ded", "is_reserved": 0, "rental_uris": {"android": "https://dc.lft.to/lastmile_qr_scan", "ios": "https://dc.lft.to/lastmile_qr_scan"}, "fusion_lon": 0.0}, {"lat": 38.92256416666667, "is_disabled": 0, "type": "electric_scooter", "lon": -77.04255366666666, "bike_id": "fdcfa5a0a512a629f25ef49b21c39343", "fusion_lat": 0.0, "name": "fdcfa5a0a512a629f25ef49b21c39343", "is_reserved": 0, "rental_uris": {"android": "https://dc.lft.to/lastmile_qr_scan", "ios": "https://dc.lft.to/lastmile_qr_scan"}, "fusion_lon": 0.0}, {"lat": 38.857967333333335, "is_disabled": 0, "type": "electric_bike", "lon": -77.09960616666666, "bike_id": "dc0657918314778d329788f4ca6882ae", "fusion_lat": 0.0, "name": "dc0657918314778d329788f4ca6882ae", "is_reserved": 0, "rental_uris": {"android": "https://dc.lft.to/lastmile_qr_scan", "ios": "https://dc.lft.to/lastmile_qr_scan"}, "fusion_lon": 0.0}, {"lat": 38.93987216666667, "is_disabled": 0, "type": "electric_scooter", "lon": -77.02887333333334, "bike_id": "a3fc2fa48852e4f2f16943238b500fce", "fusion_lat": 0.0, "name": "a3fc2fa48852e4f2f16943238b500fce", "is_reserved": 0, "rental_uris": {"android": "https://dc.lft.to/lastmile_qr_scan", "ios": "https://dc.lft.to/lastmile_qr_scan"}, "fusion_lon": 0.0}, {"lat": 38.9322265, "is_disabled": 0, "type": "electric_scooter", "lon": -77.03863066666666, "bike_id": "daa8b354d8a22255f922b5b48b4f478f", "fusion_lat": 0.0, "name": "daa8b354d8a22255f922b5b48b4f478f", "is_reserved": 0, "rental_uris": {"android": "https://dc.lft.to/lastmile_qr_scan", "ios": "https://dc.lft.to/lastmile_qr_scan"}, "fusion_lon": 0.0}, {"lat": 38.912607333333334, "is_disabled": 0, "type": "electric_scooter", "lon": -77.031804, "bike_id": "fc3c7879d7dcc827c9d466539ab6df45", "fusion_lat": 0.0, "name": "fc3c7879d7dcc827c9d466539ab6df45", "is_reserved": 0, "rental_uris": {"android": "https://dc.lft.to/lastmile_qr_scan", "ios": "https://dc.lft.to/lastmile_qr_scan"}, "fusion_lon": 0.0}, {"lat": 38.892245833333334, "is_disabled": 0, "type": "electric_scooter", "lon": -77.01386583333333, "bike_id": "72af60a1cbee6a6303af990c33fd7807", "fusion_lat": 0.0, "name": "72af60a1cbee6a6303af990c33fd7807", "is_reserved": 0, "rental_uris": {"android": "https://dc.lft.to/lastmile_qr_scan", "ios": "https://dc.lft.to/lastmile_qr_scan"}, "fusion_lon": 0.0}, {"lat": 38.9169745, "is_disabled": 0, "type": "electric_scooter", "lon": -77.04597416666667, "bike_id": "b67a2de70812469fdf4dfd87fc834021", "fusion_lat": 0.0, "name": "b67a2de70812469fdf4dfd87fc834021", "is_reserved": 0, "rental_uris": {"android": "https://dc.lft.to/lastmile_qr_scan", "ios": "https://dc.lft.to/lastmile_qr_scan"}, "fusion_lon": 0.0}, {"lat": 38.93986433333333, "is_disabled": 0, "type": "electric_scooter", "lon": -77.03262966666667, "bike_id": "28f36f49181bfbae28b26091a5435b8e", "fusion_lat": 0.0, "name": "28f36f49181bfbae28b26091a5435b8e", "is_reserved": 0, "rental_uris": {"android": "https://dc.lft.to/lastmile_qr_scan", "ios": "https://dc.lft.to/lastmile_qr_scan"}, "fusion_lon": 0.0}, {"lat": 38.90839183333333, "is_disabled": 0, "type": "electric_scooter", "lon": -76.99956533333334, "bike_id": "a038a2b7bab20081b355671b6454b82a", "fusion_lat": 0.0, "name": "a038a2b7bab20081b355671b6454b82a", "is_reserved": 0, "rental_uris": {"android": "https://dc.lft.to/lastmile_qr_scan", "ios": "https://dc.lft.to/lastmile_qr_scan"}, "fusion_lon": 0.0}, {"lat": 38.90272933333333, "is_disabled": 0, "type": "electric_scooter", "lon": -77.045905, "bike_id": "c56ff39745cf61c7de5a14181cb7b76c", "fusion_lat": 0.0, "name": "c56ff39745cf61c7de5a14181cb7b76c", "is_reserved": 0, "rental_uris": {"android": "https://dc.lft.to/lastmile_qr_scan", "ios": "https://dc.lft.to/lastmile_qr_scan"}, "fusion_lon": 0.0}, {"lat": 38.90728566666667, "is_disabled": 0, "type": "electric_scooter", "lon": -76.99811883333334, "bike_id": "9e1b393293ae85c798c7dab44c80ec8b", "fusion_lat": 0.0, "name": "9e1b393293ae85c798c7dab44c80ec8b", "is_reserved": 0, "rental_uris": {"android": "https://dc.lft.to/lastmile_qr_scan", "ios": "https://dc.lft.to/lastmile_qr_scan"}, "fusion_lon": 0.0}, {"lat": 38.90799583333333, "is_disabled": 0, "type": "electric_scooter", "lon": -77.03179133333333, "bike_id": "61e860afe038fbc815421a683e369483", "fusion_lat": 0.0, "name": "61e860afe038fbc815421a683e369483", "is_reserved": 0, "rental_uris": {"android": "https://dc.lft.to/lastmile_qr_scan", "ios": "https://dc.lft.to/lastmile_qr_scan"}, "fusion_lon": 0.0}, {"lat": 38.8888085, "is_disabled": 0, "type": "electric_scooter", "lon": -76.9770405, "bike_id": "e095ae26fa5266ef7109ebb2802d64d7", "fusion_lat": 0.0, "name": "e095ae26fa5266ef7109ebb2802d64d7", "is_reserved": 0, "rental_uris": {"android": "https://dc.lft.to/lastmile_qr_scan", "ios": "https://dc.lft.to/lastmile_qr_scan"}, "fusion_lon": 0.0}, {"lat": 38.933150499999996, "is_disabled": 0, "type": "electric_scooter", "lon": -77.0343965, "bike_id": "db0e4f0702ae20dc142e77c5f6f21382", "fusion_lat": 0.0, "name": "db0e4f0702ae20dc142e77c5f6f21382", "is_reserved": 0, "rental_uris": {"android": "https://dc.lft.to/lastmile_qr_scan", "ios": "https://dc.lft.to/lastmile_qr_scan"}, "fusion_lon": 0.0}, {"lat": 38.9133985, "is_disabled": 0, "type": "electric_scooter", "lon": -77.04808666666666, "bike_id": "91384e7d3073c452c906f31a1fdbf6a1", "fusion_lat": 0.0, "name": "91384e7d3073c452c906f31a1fdbf6a1", "is_reserved": 0, "rental_uris": {"android": "https://dc.lft.to/lastmile_qr_scan", "ios": "https://dc.lft.to/lastmile_qr_scan"}, "fusion_lon": 0.0}, {"lat": 38.91350116666667, "is_disabled": 0, "type": "electric_scooter", "lon": -77.02164216666667, "bike_id": "6d8909e3e70dffacb77768f734b72fc4", "fusion_lat": 0.0, "name": "6d8909e3e70dffacb77768f734b72fc4", "is_reserved": 0, "rental_uris": {"android": "https://dc.lft.to/lastmile_qr_scan", "ios": "https://dc.lft.to/lastmile_qr_scan"}, "fusion_lon": 0.0}, {"lat": 38.909856166666664, "is_disabled": 0, "type": "electric_scooter", "lon": -77.0452575, "bike_id": "c0208df75119dcb9fbf1ae9bab3febb3", "fusion_lat": 0.0, "name": "c0208df75119dcb9fbf1ae9bab3febb3", "is_reserved": 0, "rental_uris": {"android": "https://dc.lft.to/lastmile_qr_scan", "ios": "https://dc.lft.to/lastmile_qr_scan"}, "fusion_lon": 0.0}, {"lat": 38.931155, "is_disabled": 0, "type": "electric_scooter", "lon": -77.0380945, "bike_id": "2294689f618ce1e1ceb209f3171e5010", "fusion_lat": 0.0, "name": "2294689f618ce1e1ceb209f3171e5010", "is_reserved": 0, "rental_uris": {"android": "https://dc.lft.to/lastmile_qr_scan", "ios": "https://dc.lft.to/lastmile_qr_scan"}, "fusion_lon": 0.0}, {"lat": 38.9248465, "is_disabled": 0, "type": "electric_scooter", "lon": -77.02628833333333, "bike_id": "66c9b06447be2e279198cbb78c816f41", "fusion_lat": 0.0, "name": "66c9b06447be2e279198cbb78c816f41", "is_reserved": 0, "rental_uris": {"android": "https://dc.lft.to/lastmile_qr_scan", "ios": "https://dc.lft.to/lastmile_qr_scan"}, "fusion_lon": 0.0}, {"lat": 38.9097585, "is_disabled": 0, "type": "electric_scooter", "lon": -77.03229483333334, "bike_id": "397d614b806cba7a8dfcdd0f8fd58cdd", "fusion_lat": 0.0, "name": "397d614b806cba7a8dfcdd0f8fd58cdd", "is_reserved": 0, "rental_uris": {"android": "https://dc.lft.to/lastmile_qr_scan", "ios": "https://dc.lft.to/lastmile_qr_scan"}, "fusion_lon": 0.0}, {"lat": 38.90966316666667, "is_disabled": 0, "type": "electric_scooter", "lon": -76.9843865, "bike_id": "60672d46409bccb9f017b2d2abe685ee", "fusion_lat": 0.0, "name": "60672d46409bccb9f017b2d2abe685ee", "is_reserved": 0, "rental_uris": {"android": "https://dc.lft.to/lastmile_qr_scan", "ios": "https://dc.lft.to/lastmile_qr_scan"}, "fusion_lon": 0.0}, {"lat": 38.866310666666664, "is_disabled": 0, "type": "electric_scooter", "lon": -76.986905, "bike_id": "4d81876f4bbf35b2acbd8b6b3a9aa371", "fusion_lat": 0.0, "name": "4d81876f4bbf35b2acbd8b6b3a9aa371", "is_reserved": 0, "rental_uris": {"android": "https://dc.lft.to/lastmile_qr_scan", "ios": "https://dc.lft.to/lastmile_qr_scan"}, "fusion_lon": 0.0}, {"lat": 38.8429875, "is_disabled": 0, "type": "electric_scooter", "lon": -76.99939816666667, "bike_id": "c8de05dc8d5c6adbf84b5852e2428265", "fusion_lat": 0.0, "name": "c8de05dc8d5c6adbf84b5852e2428265", "is_reserved": 0, "rental_uris": {"android": "https://dc.lft.to/lastmile_qr_scan", "ios": "https://dc.lft.to/lastmile_qr_scan"}, "fusion_lon": 0.0}, {"lat": 38.8849695, "is_disabled": 0, "type": "electric_scooter", "lon": -77.00705566666667, "bike_id": "7781cb83b7ca6c5cc4b596d756e98fee", "fusion_lat": 0.0, "name": "7781cb83b7ca6c5cc4b596d756e98fee", "is_reserved": 0, "rental_uris": {"android": "https://dc.lft.to/lastmile_qr_scan", "ios": "https://dc.lft.to/lastmile_qr_scan"}, "fusion_lon": 0.0}, {"lat": 38.9241365, "is_disabled": 0, "type": "electric_scooter", "lon": -77.02563066666667, "bike_id": "9b94b2ff70e02a9fef5c6758e2257f07", "fusion_lat": 0.0, "name": "9b94b2ff70e02a9fef5c6758e2257f07", "is_reserved": 0, "rental_uris": {"android": "https://dc.lft.to/lastmile_qr_scan", "ios": "https://dc.lft.to/lastmile_qr_scan"}, "fusion_lon": 0.0}, {"lat": 38.89377316666667, "is_disabled": 0, "type": "electric_scooter", "lon": -76.94997583333334, "bike_id": "60a2c24679f095c9e76155859be90f5e", "fusion_lat": 0.0, "name": "60a2c24679f095c9e76155859be90f5e", "is_reserved": 0, "rental_uris": {"android": "https://dc.lft.to/lastmile_qr_scan", "ios": "https://dc.lft.to/lastmile_qr_scan"}, "fusion_lon": 0.0}, {"lat": 38.909749, "is_disabled": 0, "type": "electric_scooter", "lon": -77.048034, "bike_id": "f0761a527fcf617ff266ce9569f96546", "fusion_lat": 0.0, "name": "f0761a527fcf617ff266ce9569f96546", "is_reserved": 0, "rental_uris": {"android": "https://dc.lft.to/lastmile_qr_scan", "ios": "https://dc.lft.to/lastmile_qr_scan"}, "fusion_lon": 0.0}, {"lat": 38.91831466666667, "is_disabled": 0, "type": "electric_scooter", "lon": -77.03206333333333, "bike_id": "6e8b087f52223254e4d92d9d52a43cc9", "fusion_lat": 0.0, "name": "6e8b087f52223254e4d92d9d52a43cc9", "is_reserved": 0, "rental_uris": {"android": "https://dc.lft.to/lastmile_qr_scan", "ios": "https://dc.lft.to/lastmile_qr_scan"}, "fusion_lon": 0.0}, {"lat": 38.910487833333335, "is_disabled": 0, "type": "electric_scooter", "lon": -77.03833816666666, "bike_id": "2635d8fa15a2e4ca057e75d48676065c", "fusion_lat": 0.0, "name": "2635d8fa15a2e4ca057e75d48676065c", "is_reserved": 0, "rental_uris": {"android": "https://dc.lft.to/lastmile_qr_scan", "ios": "https://dc.lft.to/lastmile_qr_scan"}, "fusion_lon": 0.0}, {"lat": 38.8427655, "is_disabled": 0, "type": "electric_bike", "lon": -76.988394, "bike_id": "47e7c78fea31e883b35109874fc18ebe", "fusion_lat": 0.0, "name": "47e7c78fea31e883b35109874fc18ebe", "is_reserved": 0, "rental_uris": {"android": "https://dc.lft.to/lastmile_qr_scan", "ios": "https://dc.lft.to/lastmile_qr_scan"}, "fusion_lon": 0.0}, {"lat": 38.84938283333334, "is_disabled": 0, "type": "electric_bike", "lon": -77.10016483333334, "bike_id": "cdd73b56dfc1c802cbf9c3ed52b21834", "fusion_lat": 0.0, "name": "cdd73b56dfc1c802cbf9c3ed52b21834", "is_reserved": 0, "rental_uris": {"android": "https://dc.lft.to/lastmile_qr_scan", "ios": "https://dc.lft.to/lastmile_qr_scan"}, "fusion_lon": 0.0}, {"lat": 38.89846516666667, "is_disabled": 0, "type": "electric_scooter", "lon": -77.00739633333333, "bike_id": "d9db13eb00738633f5cd4989e01fb3af", "fusion_lat": 0.0, "name": "d9db13eb00738633f5cd4989e01fb3af", "is_reserved": 0, "rental_uris": {"android": "https://dc.lft.to/lastmile_qr_scan", "ios": "https://dc.lft.to/lastmile_qr_scan"}, "fusion_lon": 0.0}, {"lat": 38.9185565, "is_disabled": 0, "type": "electric_scooter", "lon": -77.01650316666667, "bike_id": "5e862b67473eff350ce77c139f6468c7", "fusion_lat": 0.0, "name": "5e862b67473eff350ce77c139f6468c7", "is_reserved": 0, "rental_uris": {"android": "https://dc.lft.to/lastmile_qr_scan", "ios": "https://dc.lft.to/lastmile_qr_scan"}, "fusion_lon": 0.0}, {"lat": 38.936435333333336, "is_disabled": 0, "type": "electric_bike", "lon": -77.0328635, "bike_id": "024f9c284e15fdc0a54f591895d7b4ac", "fusion_lat": 0.0, "name": "024f9c284e15fdc0a54f591895d7b4ac", "is_reserved": 0, "rental_uris": {"android": "https://dc.lft.to/lastmile_qr_scan", "ios": "https://dc.lft.to/lastmile_qr_scan"}, "fusion_lon": 0.0}, {"lat": 38.92571916666667, "is_disabled": 0, "type": "electric_scooter", "lon": -76.97008383333333, "bike_id": "2ce6d4a3b734575355c2d10f39f0cf7d", "fusion_lat": 0.0, "name": "2ce6d4a3b734575355c2d10f39f0cf7d", "is_reserved": 0, "rental_uris": {"android": "https://dc.lft.to/lastmile_qr_scan", "ios": "https://dc.lft.to/lastmile_qr_scan"}, "fusion_lon": 0.0}, {"lat": 38.9224945, "is_disabled": 0, "type": "electric_bike", "lon": -77.04132166666666, "bike_id": "2794f9b098fe115a092720f17dffbe93", "fusion_lat": 0.0, "name": "2794f9b098fe115a092720f17dffbe93", "is_reserved": 0, "rental_uris": {"android": "https://dc.lft.to/lastmile_qr_scan", "ios": "https://dc.lft.to/lastmile_qr_scan"}, "fusion_lon": 0.0}, {"lat": 38.93333483333333, "is_disabled": 0, "type": "electric_scooter", "lon": -77.05705083333334, "bike_id": "514d67f8ad805897d6473540a17772e7", "fusion_lat": 0.0, "name": "514d67f8ad805897d6473540a17772e7", "is_reserved": 0, "rental_uris": {"android": "https://dc.lft.to/lastmile_qr_scan", "ios": "https://dc.lft.to/lastmile_qr_scan"}, "fusion_lon": 0.0}, {"lat": 38.9244245, "is_disabled": 0, "type": "electric_bike", "lon": -77.02693016666667, "bike_id": "9be2e80c792efaaf553986d65e183d22", "fusion_lat": 0.0, "name": "9be2e80c792efaaf553986d65e183d22", "is_reserved": 0, "rental_uris": {"android": "https://dc.lft.to/lastmile_qr_scan", "ios": "https://dc.lft.to/lastmile_qr_scan"}, "fusion_lon": 0.0}, {"lat": 38.938244166666664, "is_disabled": 0, "type": "electric_scooter", "lon": -77.06044283333334, "bike_id": "8310e676ac0aa56c1bd7025ab4f898c6", "fusion_lat": 0.0, "name": "8310e676ac0aa56c1bd7025ab4f898c6", "is_reserved": 0, "rental_uris": {"android": "https://dc.lft.to/lastmile_qr_scan", "ios": "https://dc.lft.to/lastmile_qr_scan"}, "fusion_lon": 0.0}, {"lat": 38.923054, "is_disabled": 0, "type": "electric_scooter", "lon": -77.04155433333334, "bike_id": "7c10d71b12ed32f3afea00b3e769ea24", "fusion_lat": 0.0, "name": "7c10d71b12ed32f3afea00b3e769ea24", "is_reserved": 0, "rental_uris": {"android": "https://dc.lft.to/lastmile_qr_scan", "ios": "https://dc.lft.to/lastmile_qr_scan"}, "fusion_lon": 0.0}, {"lat": 38.96607866666667, "is_disabled": 0, "type": "electric_bike", "lon": -76.98330283333334, "bike_id": "1bd47930a955f474c3afd8774a915ebc", "fusion_lat": 0.0, "name": "1bd47930a955f474c3afd8774a915ebc", "is_reserved": 0, "rental_uris": {"android": "https://dc.lft.to/lastmile_qr_scan", "ios": "https://dc.lft.to/lastmile_qr_scan"}, "fusion_lon": 0.0}, {"lat": 38.926925833333335, "is_disabled": 0, "type": "electric_scooter", "lon": -77.02577066666667, "bike_id": "b19c90f1ee8160aba9fd3f7259272214", "fusion_lat": 0.0, "name": "b19c90f1ee8160aba9fd3f7259272214", "is_reserved": 0, "rental_uris": {"android": "https://dc.lft.to/lastmile_qr_scan", "ios": "https://dc.lft.to/lastmile_qr_scan"}, "fusion_lon": 0.0}, {"lat": 38.898401, "is_disabled": 0, "type": "electric_scooter", "lon": -76.93102783333333, "bike_id": "a9f1ece5b2e0e086f4dd91578337a1ea", "fusion_lat": 0.0, "name": "a9f1ece5b2e0e086f4dd91578337a1ea", "is_reserved": 0, "rental_uris": {"android": "https://dc.lft.to/lastmile_qr_scan", "ios": "https://dc.lft.to/lastmile_qr_scan"}, "fusion_lon": 0.0}, {"lat": 38.937437333333335, "is_disabled": 0, "type": "electric_scooter", "lon": -77.03262133333334, "bike_id": "1c329c9b55baf0bf09c9f57f283e28d9", "fusion_lat": 0.0, "name": "1c329c9b55baf0bf09c9f57f283e28d9", "is_reserved": 0, "rental_uris": {"android": "https://dc.lft.to/lastmile_qr_scan", "ios": "https://dc.lft.to/lastmile_qr_scan"}, "fusion_lon": 0.0}, {"lat": 38.902378166666665, "is_disabled": 0, "type": "electric_scooter", "lon": -77.053416, "bike_id": "18160358fbf4503a827ab8848b064873", "fusion_lat": 0.0, "name": "18160358fbf4503a827ab8848b064873", "is_reserved": 0, "rental_uris": {"android": "https://dc.lft.to/lastmile_qr_scan", "ios": "https://dc.lft.to/lastmile_qr_scan"}, "fusion_lon": 0.0}, {"lat": 38.92328116666667, "is_disabled": 0, "type": "electric_scooter", "lon": -77.0296095, "bike_id": "235067f63a912725b0b0c47caa9fab74", "fusion_lat": 0.0, "name": "235067f63a912725b0b0c47caa9fab74", "is_reserved": 0, "rental_uris": {"android": "https://dc.lft.to/lastmile_qr_scan", "ios": "https://dc.lft.to/lastmile_qr_scan"}, "fusion_lon": 0.0}, {"lat": 38.89828716666667, "is_disabled": 0, "type": "electric_scooter", "lon": -77.00749416666666, "bike_id": "021b66817037f68d7652ebb5cb78bc6e", "fusion_lat": 0.0, "name": "021b66817037f68d7652ebb5cb78bc6e", "is_reserved": 0, "rental_uris": {"android": "https://dc.lft.to/lastmile_qr_scan", "ios": "https://dc.lft.to/lastmile_qr_scan"}, "fusion_lon": 0.0}, {"lat": 38.896362333333336, "is_disabled": 0, "type": "electric_scooter", "lon": -77.04506216666667, "bike_id": "add6e12b1ce632597601dbceac96003c", "fusion_lat": 0.0, "name": "add6e12b1ce632597601dbceac96003c", "is_reserved": 0, "rental_uris": {"android": "https://dc.lft.to/lastmile_qr_scan", "ios": "https://dc.lft.to/lastmile_qr_scan"}, "fusion_lon": 0.0}, {"lat": 38.938828666666666, "is_disabled": 0, "type": "electric_scooter", "lon": -77.02439683333333, "bike_id": "3bcc3eadfbf1cd72dfa3c9cf3921b260", "fusion_lat": 0.0, "name": "3bcc3eadfbf1cd72dfa3c9cf3921b260", "is_reserved": 0, "rental_uris": {"android": "https://dc.lft.to/lastmile_qr_scan", "ios": "https://dc.lft.to/lastmile_qr_scan"}, "fusion_lon": 0.0}, {"lat": 38.92508766666667, "is_disabled": 0, "type": "electric_scooter", "lon": -77.03789783333333, "bike_id": "eaf3fe7382bf81adcce26b8dbd3aa0bf", "fusion_lat": 0.0, "name": "eaf3fe7382bf81adcce26b8dbd3aa0bf", "is_reserved": 0, "rental_uris": {"android": "https://dc.lft.to/lastmile_qr_scan", "ios": "https://dc.lft.to/lastmile_qr_scan"}, "fusion_lon": 0.0}, {"lat": 38.92595583333333, "is_disabled": 0, "type": "electric_scooter", "lon": -77.03222533333333, "bike_id": "c17ec3329a39d6487ca819585b25dd5f", "fusion_lat": 0.0, "name": "c17ec3329a39d6487ca819585b25dd5f", "is_reserved": 0, "rental_uris": {"android": "https://dc.lft.to/lastmile_qr_scan", "ios": "https://dc.lft.to/lastmile_qr_scan"}, "fusion_lon": 0.0}, {"lat": 38.8074805, "is_disabled": 0, "type": "electric_bike", "lon": -77.09428833333334, "bike_id": "8830bddef5a342a0b169f06d170d8f5b", "fusion_lat": 0.0, "name": "8830bddef5a342a0b169f06d170d8f5b", "is_reserved": 0, "rental_uris": {"android": "https://dc.lft.to/lastmile_qr_scan", "ios": "https://dc.lft.to/lastmile_qr_scan"}, "fusion_lon": 0.0}, {"lat": 38.909555166666664, "is_disabled": 0, "type": "electric_scooter", "lon": -77.03657816666667, "bike_id": "e2d8f94dca9555cef63135b0824cbfa5", "fusion_lat": 0.0, "name": "e2d8f94dca9555cef63135b0824cbfa5", "is_reserved": 0, "rental_uris": {"android": "https://dc.lft.to/lastmile_qr_scan", "ios": "https://dc.lft.to/lastmile_qr_scan"}, "fusion_lon": 0.0}, {"lat": 38.88462633333333, "is_disabled": 0, "type": "electric_scooter", "lon": -76.9261965, "bike_id": "5e188f96c43befbbe32c2fe786e5a91e", "fusion_lat": 0.0, "name": "5e188f96c43befbbe32c2fe786e5a91e", "is_reserved": 0, "rental_uris": {"android": "https://dc.lft.to/lastmile_qr_scan", "ios": "https://dc.lft.to/lastmile_qr_scan"}, "fusion_lon": 0.0}, {"lat": 38.92858116666667, "is_disabled": 0, "type": "electric_bike", "lon": -77.10675933333333, "bike_id": "0d074cf2bd3dfef5dc5e62d069498ad6", "fusion_lat": 0.0, "name": "0d074cf2bd3dfef5dc5e62d069498ad6", "is_reserved": 0, "rental_uris": {"android": "https://dc.lft.to/lastmile_qr_scan", "ios": "https://dc.lft.to/lastmile_qr_scan"}, "fusion_lon": 0.0}, {"lat": 38.90028816666667, "is_disabled": 0, "type": "electric_scooter", "lon": -76.9980905, "bike_id": "e415b1839c13b0b2159fd2100ad5d24d", "fusion_lat": 0.0, "name": "e415b1839c13b0b2159fd2100ad5d24d", "is_reserved": 0, "rental_uris": {"android": "https://dc.lft.to/lastmile_qr_scan", "ios": "https://dc.lft.to/lastmile_qr_scan"}, "fusion_lon": 0.0}, {"lat": 38.908919, "is_disabled": 0, "type": "electric_scooter", "lon": -77.06437966666667, "bike_id": "6bd4618fd460f8a356a7cc1257292534", "fusion_lat": 0.0, "name": "6bd4618fd460f8a356a7cc1257292534", "is_reserved": 0, "rental_uris": {"android": "https://dc.lft.to/lastmile_qr_scan", "ios": "https://dc.lft.to/lastmile_qr_scan"}, "fusion_lon": 0.0}, {"lat": 38.912209833333335, "is_disabled": 0, "type": "electric_scooter", "lon": -77.04446766666666, "bike_id": "4734de7fa590bb41151bf24895ab2713", "fusion_lat": 0.0, "name": "4734de7fa590bb41151bf24895ab2713", "is_reserved": 0, "rental_uris": {"android": "https://dc.lft.to/lastmile_qr_scan", "ios": "https://dc.lft.to/lastmile_qr_scan"}, "fusion_lon": 0.0}, {"lat": 38.90613416666667, "is_disabled": 0, "type": "electric_scooter", "lon": -77.06516, "bike_id": "f7e62fcc3ea1a6f6ca0b4647cdbfcafa", "fusion_lat": 0.0, "name": "f7e62fcc3ea1a6f6ca0b4647cdbfcafa", "is_reserved": 0, "rental_uris": {"android": "https://dc.lft.to/lastmile_qr_scan", "ios": "https://dc.lft.to/lastmile_qr_scan"}, "fusion_lon": 0.0}, {"lat": 38.93423083333333, "is_disabled": 0, "type": "electric_scooter", "lon": -77.04406983333334, "bike_id": "37f49390d6e6e921ca3b397af4891ad3", "fusion_lat": 0.0, "name": "37f49390d6e6e921ca3b397af4891ad3", "is_reserved": 0, "rental_uris": {"android": "https://dc.lft.to/lastmile_qr_scan", "ios": "https://dc.lft.to/lastmile_qr_scan"}, "fusion_lon": 0.0}, {"lat": 38.931893, "is_disabled": 0, "type": "electric_scooter", "lon": -77.0315435, "bike_id": "fce0669551666d58c0be54b3ae569ed7", "fusion_lat": 0.0, "name": "fce0669551666d58c0be54b3ae569ed7", "is_reserved": 0, "rental_uris": {"android": "https://dc.lft.to/lastmile_qr_scan", "ios": "https://dc.lft.to/lastmile_qr_scan"}, "fusion_lon": 0.0}, {"lat": 38.93763766666667, "is_disabled": 0, "type": "electric_scooter", "lon": -77.03142083333333, "bike_id": "0d8378d723f9bbbe3b51dc6400beb03e", "fusion_lat": 0.0, "name": "0d8378d723f9bbbe3b51dc6400beb03e", "is_reserved": 0, "rental_uris": {"android": "https://dc.lft.to/lastmile_qr_scan", "ios": "https://dc.lft.to/lastmile_qr_scan"}, "fusion_lon": 0.0}, {"lat": 38.91976116666667, "is_disabled": 0, "type": "electric_scooter", "lon": -77.04116816666667, "bike_id": "8f6691bda1a6a92da9839887af4bd169", "fusion_lat": 0.0, "name": "8f6691bda1a6a92da9839887af4bd169", "is_reserved": 0, "rental_uris": {"android": "https://dc.lft.to/lastmile_qr_scan", "ios": "https://dc.lft.to/lastmile_qr_scan"}, "fusion_lon": 0.0}, {"lat": 38.93096116666667, "is_disabled": 0, "type": "electric_scooter", "lon": -77.02362516666666, "bike_id": "024ddc803641ffb89f285e8104b3ee5c", "fusion_lat": 0.0, "name": "024ddc803641ffb89f285e8104b3ee5c", "is_reserved": 0, "rental_uris": {"android": "https://dc.lft.to/lastmile_qr_scan", "ios": "https://dc.lft.to/lastmile_qr_scan"}, "fusion_lon": 0.0}, {"lat": 38.914877, "is_disabled": 0, "type": "electric_scooter", "lon": -77.03471983333333, "bike_id": "081ed5ff1c05397c4c0769f503a03427", "fusion_lat": 0.0, "name": "081ed5ff1c05397c4c0769f503a03427", "is_reserved": 0, "rental_uris": {"android": "https://dc.lft.to/lastmile_qr_scan", "ios": "https://dc.lft.to/lastmile_qr_scan"}, "fusion_lon": 0.0}, {"lat": 38.802734, "is_disabled": 0, "type": "electric_bike", "lon": -77.08111133333334, "bike_id": "6730e5495e5287553a6db2ea101e0009", "fusion_lat": 0.0, "name": "6730e5495e5287553a6db2ea101e0009", "is_reserved": 0, "rental_uris": {"android": "https://dc.lft.to/lastmile_qr_scan", "ios": "https://dc.lft.to/lastmile_qr_scan"}, "fusion_lon": 0.0}, {"lat": 38.9183105, "is_disabled": 0, "type": "electric_scooter", "lon": -77.04531383333334, "bike_id": "65174ed127a2efc6b59e1f58c9b73641", "fusion_lat": 0.0, "name": "65174ed127a2efc6b59e1f58c9b73641", "is_reserved": 0, "rental_uris": {"android": "https://dc.lft.to/lastmile_qr_scan", "ios": "https://dc.lft.to/lastmile_qr_scan"}, "fusion_lon": 0.0}, {"lat": 38.917186, "is_disabled": 0, "type": "electric_scooter", "lon": -77.03091333333333, "bike_id": "be52eb42a52d84b0ab127b487ea45c2e", "fusion_lat": 0.0, "name": "be52eb42a52d84b0ab127b487ea45c2e", "is_reserved": 0, "rental_uris": {"android": "https://dc.lft.to/lastmile_qr_scan", "ios": "https://dc.lft.to/lastmile_qr_scan"}, "fusion_lon": 0.0}, {"lat": 38.905645166666666, "is_disabled": 0, "type": "electric_scooter", "lon": -77.056889, "bike_id": "59518ad8f17e43ca4f8da83d24ae00e4", "fusion_lat": 0.0, "name": "59518ad8f17e43ca4f8da83d24ae00e4", "is_reserved": 0, "rental_uris": {"android": "https://dc.lft.to/lastmile_qr_scan", "ios": "https://dc.lft.to/lastmile_qr_scan"}, "fusion_lon": 0.0}, {"lat": 38.95403983333333, "is_disabled": 0, "type": "electric_scooter", "lon": -77.02748066666666, "bike_id": "59d696a743f1b4c2a11f44dc0f964702", "fusion_lat": 0.0, "name": "59d696a743f1b4c2a11f44dc0f964702", "is_reserved": 0, "rental_uris": {"android": "https://dc.lft.to/lastmile_qr_scan", "ios": "https://dc.lft.to/lastmile_qr_scan"}, "fusion_lon": 0.0}, {"lat": 38.92968616666667, "is_disabled": 0, "type": "electric_scooter", "lon": -77.0317715, "bike_id": "bc4fc1c9221b759bc7ba572561f4033e", "fusion_lat": 0.0, "name": "bc4fc1c9221b759bc7ba572561f4033e", "is_reserved": 0, "rental_uris": {"android": "https://dc.lft.to/lastmile_qr_scan", "ios": "https://dc.lft.to/lastmile_qr_scan"}, "fusion_lon": 0.0}, {"lat": 38.92286466666667, "is_disabled": 0, "type": "electric_scooter", "lon": -77.03636733333333, "bike_id": "d2ef4e47d0fa9e82bb4e20e3a105e224", "fusion_lat": 0.0, "name": "d2ef4e47d0fa9e82bb4e20e3a105e224", "is_reserved": 0, "rental_uris": {"android": "https://dc.lft.to/lastmile_qr_scan", "ios": "https://dc.lft.to/lastmile_qr_scan"}, "fusion_lon": 0.0}, {"lat": 38.9169695, "is_disabled": 0, "type": "electric_scooter", "lon": -77.02516116666666, "bike_id": "3803750f13c1f3694c5f098d72774bb4", "fusion_lat": 0.0, "name": "3803750f13c1f3694c5f098d72774bb4", "is_reserved": 0, "rental_uris": {"android": "https://dc.lft.to/lastmile_qr_scan", "ios": "https://dc.lft.to/lastmile_qr_scan"}, "fusion_lon": 0.0}, {"lat": 38.92843116666667, "is_disabled": 0, "type": "electric_scooter", "lon": -77.05421783333334, "bike_id": "3575ab6db8af022c976d839baf4623e5", "fusion_lat": 0.0, "name": "3575ab6db8af022c976d839baf4623e5", "is_reserved": 0, "rental_uris": {"android": "https://dc.lft.to/lastmile_qr_scan", "ios": "https://dc.lft.to/lastmile_qr_scan"}, "fusion_lon": 0.0}, {"lat": 38.9202785, "is_disabled": 0, "type": "electric_scooter", "lon": -77.03125183333333, "bike_id": "633a250cfdbfec809c9570a711f23b69", "fusion_lat": 0.0, "name": "633a250cfdbfec809c9570a711f23b69", "is_reserved": 0, "rental_uris": {"android": "https://dc.lft.to/lastmile_qr_scan", "ios": "https://dc.lft.to/lastmile_qr_scan"}, "fusion_lon": 0.0}, {"lat": 38.9064335, "is_disabled": 0, "type": "electric_scooter", "lon": -77.00832516666667, "bike_id": "51f0fefe6c15b6766cf03a4a72974a62", "fusion_lat": 0.0, "name": "51f0fefe6c15b6766cf03a4a72974a62", "is_reserved": 0, "rental_uris": {"android": "https://dc.lft.to/lastmile_qr_scan", "ios": "https://dc.lft.to/lastmile_qr_scan"}, "fusion_lon": 0.0}, {"lat": 38.91704383333333, "is_disabled": 0, "type": "electric_scooter", "lon": -77.030407, "bike_id": "f07d778c2966ea3c97b9eb6c729a03d0", "fusion_lat": 0.0, "name": "f07d778c2966ea3c97b9eb6c729a03d0", "is_reserved": 0, "rental_uris": {"android": "https://dc.lft.to/lastmile_qr_scan", "ios": "https://dc.lft.to/lastmile_qr_scan"}, "fusion_lon": 0.0}, {"lat": 38.92582216666667, "is_disabled": 0, "type": "electric_scooter", "lon": -77.02564133333334, "bike_id": "a83a2b6e60f7855503e183e32390e93e", "fusion_lat": 0.0, "name": "a83a2b6e60f7855503e183e32390e93e", "is_reserved": 0, "rental_uris": {"android": "https://dc.lft.to/lastmile_qr_scan", "ios": "https://dc.lft.to/lastmile_qr_scan"}, "fusion_lon": 0.0}, {"lat": 38.90979216666667, "is_disabled": 0, "type": "electric_scooter", "lon": -77.05263783333334, "bike_id": "ba86d2caaacbad2f3f42b5a9fba6456e", "fusion_lat": 0.0, "name": "ba86d2caaacbad2f3f42b5a9fba6456e", "is_reserved": 0, "rental_uris": {"android": "https://dc.lft.to/lastmile_qr_scan", "ios": "https://dc.lft.to/lastmile_qr_scan"}, "fusion_lon": 0.0},