{"data": {"bikes": [{"is_disabled": 0, "fusion_lon": 0.0, "fusion_lat": 0.0, "lat": 38.9170975, "type": "electric_scooter", "lon": -77.02610083333333, "bike_id": "4a5cb0f5a5ab065a523fdbfd89608969", "rental_uris": {"android": "https://dc.lft.to/lastmile_qr_scan", "ios": "https://dc.lft.to/lastmile_qr_scan"}, "name": "4a5cb0f5a5ab065a523fdbfd89608969", "is_reserved": 0}, {"is_disabled": 0, "fusion_lon": 0.0, "fusion_lat": 0.0, "lat": 39.026843166666666, "type": "electric_bike", "lon": -77.12597583333333, "bike_id": "435b339c892d3f742ce43b53b6e15de4", "rental_uris": {"android": "https://dc.lft.to/lastmile_qr_scan", "ios": "https://dc.lft.to/lastmile_qr_scan"}, "name": "435b339c892d3f742ce43b53b6e15de4", "is_reserved": 0}, {"is_disabled": 0, "fusion_lon": 0.0, "fusion_lat": 0.0, "lat": 38.8866645, "type": "electric_scooter", "lon": -77.00180733333333, "bike_id": "05be4e7c02351612970d20853afcaaaf", "rental_uris": {"android": "https://dc.lft.to/lastmile_qr_scan", "ios": "https://dc.lft.to/lastmile_qr_scan"}, "name": "05be4e7c02351612970d20853afcaaaf", "is_reserved": 0}, {"is_disabled": 0, "fusion_lon": 0.0, "fusion_lat": 0.0, "lat": 38.9063545, "type": "electric_scooter", "lon": -76.9856785, "bike_id": "9ea1c7de785fe0a2df8ae8470c76674a", "rental_uris": {"android": "https://dc.lft.to/lastmile_qr_scan", "ios": "https://dc.lft.to/lastmile_qr_scan"}, "name": "9ea1c7de785fe0a2df8ae8470c76674a", "is_reserved": 0}, {"is_disabled": 0, "fusion_lon": 0.0, "fusion_lat": 0.0, "lat": 38.919169, "type": "electric_scooter", "lon": -77.02373416666667, "bike_id": "53037c950c5fb894a879200f8f00e8d2", "rental_uris": {"android": "https://dc.lft.to/lastmile_qr_scan", "ios": "https://dc.lft.to/lastmile_qr_scan"}, "name": "53037c950c5fb894a879200f8f00e8d2", "is_reserved": 0}, {"is_disabled": 0, "fusion_lon": 0.0, "fusion_lat": 0.0, "lat": 38.917121333333334, "type": "electric_scooter", "lon": -77.098093, "bike_id": "b7181661acc052c45fdb3ecd9472d4fc", "rental_uris": {"android": "https://dc.lft.to/lastmile_qr_scan", "ios": "https://dc.lft.to/lastmile_qr_scan"}, "name": "b7181661acc052c45fdb3ecd9472d4fc", "is_reserved": 0}, {"is_disabled": 0, "fusion_lon": 0.0, "fusion_lat": 0.0, "lat": 38.905893166666665, "type": "electric_scooter", "lon": -77.07068633333333, "bike_id": "912ce114d48bde92541831add3c66099", "rental_uris": {"android": "https://dc.lft.to/lastmile_qr_scan", "ios": "https://dc.lft.to/lastmile_qr_scan"}, "name": "912ce114d48bde92541831add3c66099", "is_reserved": 0}, {"is_disabled": 0, "fusion_lon": 0.0, "fusion_lat": 0.0, "lat": 38.91111983333333, "type": "electric_scooter", "lon": -77.0383735, "bike_id": "62144b43be8a1fdf4572342f1406da08", "rental_uris": {"android": "https://dc.lft.to/lastmile_qr_scan", "ios": "https://dc.lft.to/lastmile_qr_scan"}, "name": "62144b43be8a1fdf4572342f1406da08", "is_reserved": 0}, {"is_disabled": 0, "fusion_lon": 0.0, "fusion_lat": 0.0, "lat": 38.889842333333334, "type": "electric_scooter", "lon": -77.002488, "bike_id": "32683ffaa1063d58ab34949a7284b695", "rental_uris": {"android": "https://dc.lft.to/lastmile_qr_scan", "ios": "https://dc.lft.to/lastmile_qr_scan"}, "name": "32683ffaa1063d58ab34949a7284b695", "is_reserved": 0}, {"is_disabled": 0, "fusion_lon": 0.0, "fusion_lat": 0.0, "lat": 38.904213166666665, "type": "electric_scooter", "lon": -76.98551483333334, "bike_id": "d7eca9ef9034dffe67b6e6c3919fb162", "rental_uris": {"android": "https://dc.lft.to/lastmile_qr_scan", "ios": "https://dc.lft.to/lastmile_qr_scan"}, "name": "d7eca9ef9034dffe67b6e6c3919fb162", "is_reserved": 0}, {"is_disabled": 0, "fusion_lon": 0.0, "fusion_lat": 0.0, "lat": 38.9144815, "type": "electric_scooter", "lon": -77.03188966666667, "bike_id": "bfb3352274dce2db9ac667bd6d3fcbde", "rental_uris": {"android": "https://dc.lft.to/lastmile_qr_scan", "ios": "https://dc.lft.to/lastmile_qr_scan"}, "name": "bfb3352274dce2db9ac667bd6d3fcbde", "is_reserved": 0}, {"is_disabled": 0, "fusion_lon": 0.0, "fusion_lat": 0.0, "lat": 38.91854683333333, "type": "electric_bike", "lon": -76.96089666666667, "bike_id": "e941726bcb4583b9297ab7ed83afa84a", "rental_uris": {"android": "https://dc.lft.to/lastmile_qr_scan", "ios": "https://dc.lft.to/lastmile_qr_scan"}, "name": "e941726bcb4583b9297ab7ed83afa84a", "is_reserved": 0}, {"is_disabled": 0, "fusion_lon": 0.0, "fusion_lat": 0.0, "lat": 38.93151816666666, "type": "electric_scooter", "lon": -77.036316, "bike_id": "262074e997e643b9e8ca53d2266d9137", "rental_uris": {"android": "https://dc.lft.to/lastmile_qr_scan", "ios": "https://dc.lft.to/lastmile_qr_scan"}, "name": "262074e997e643b9e8ca53d2266d9137", "is_reserved": 0}, {"is_disabled": 0, "fusion_lon": 0.0, "fusion_lat": 0.0, "lat": 39.0606565, "type": "electric_bike", "lon": -77.06470333333333, "bike_id": "30cc7eb059fb1a6e9051395e75754d98", "rental_uris": {"android": "https://dc.lft.to/lastmile_qr_scan", "ios": "https://dc.lft.to/lastmile_qr_scan"}, "name": "30cc7eb059fb1a6e9051395e75754d98", "is_reserved": 0}, {"is_disabled": 0, "fusion_lon": 0.0, "fusion_lat": 0.0, "lat": 38.91105016666667, "type": "electric_scooter", "lon": -77.00839283333333, "bike_id": "4575ae209f023f8154fee7f32ac9c80b", "rental_uris": {"android": "https://dc.lft.to/lastmile_qr_scan", "ios": "https://dc.lft.to/lastmile_qr_scan"}, "name": "4575ae209f023f8154fee7f32ac9c80b", "is_reserved": 0}, {"is_disabled": 0, "fusion_lon": 0.0, "fusion_lat": 0.0, "lat": 38.93114633333333, "type": "electric_scooter", "lon": -77.02042166666666, "bike_id": "9127e03b6e762f773d8bae419b7a5ba5", "rental_uris": {"android": "https://dc.lft.to/lastmile_qr_scan", "ios": "https://dc.lft.to/lastmile_qr_scan"}, "name": "9127e03b6e762f773d8bae419b7a5ba5", "is_reserved": 0}, {"is_disabled": 0, "fusion_lon": 0.0, "fusion_lat": 0.0, "lat": 38.925326166666665, "type": "electric_scooter", "lon": -77.0731795, "bike_id": "ced26ff024858fefe673cf91692b4a02", "rental_uris": {"android": "https://dc.lft.to/lastmile_qr_scan", "ios": "https://dc.lft.to/lastmile_qr_scan"}, "name": "ced26ff024858fefe673cf91692b4a02", "is_reserved": 0}, {"is_disabled": 0, "fusion_lon": 0.0, "fusion_lat": 0.0, "lat": 38.93971116666667, "type": "electric_scooter", "lon": -77.027967, "bike_id": "97ba38c2f615fe1ca5899dfd75fa3f82", "rental_uris": {"android": "https://dc.lft.to/lastmile_qr_scan", "ios": "https://dc.lft.to/lastmile_qr_scan"}, "name": "97ba38c2f615fe1ca5899dfd75fa3f82", "is_reserved": 0}, {"is_disabled": 0, "fusion_lon": 0.0, "fusion_lat": 0.0, "lat": 38.905258333333336, "type": "electric_scooter", "lon": -77.043649, "bike_id": "482806c8d2f762c389937f5db15fcf4e", "rental_uris": {"android": "https://dc.lft.to/lastmile_qr_scan", "ios": "https://dc.lft.to/lastmile_qr_scan"}, "name": "482806c8d2f762c389937f5db15fcf4e", "is_reserved": 0}, {"is_disabled": 0, "fusion_lon": 0.0, "fusion_lat": 0.0, "lat": 38.89451016666667, "type": "electric_scooter", "lon": -77.02203133333333, "bike_id": "e0bf419ccfb108d8ad05311d60c4798b", "rental_uris": {"android": "https://dc.lft.to/lastmile_qr_scan", "ios": "https://dc.lft.to/lastmile_qr_scan"}, "name": "e0bf419ccfb108d8ad05311d60c4798b", "is_reserved": 0}, {"is_disabled": 0, "fusion_lon": 0.0, "fusion_lat": 0.0, "lat": 38.89777983333333, "type": "electric_scooter", "lon": -77.02461833333334, "bike_id": "62b6f9a38b8bc897008368064e81a72f", "rental_uris": {"android": "https://dc.lft.to/lastmile_qr_scan", "ios": "https://dc.lft.to/lastmile_qr_scan"}, "name": "62b6f9a38b8bc897008368064e81a72f", "is_reserved": 0}, {"is_disabled": 0, "fusion_lon": 0.0, "fusion_lat": 0.0, "lat": 38.952686166666666, "type": "electric_scooter", "lon": -77.06883266666667, "bike_id": "8098db41671a72a0654b4b39f2d1bd68", "rental_uris": {"android": "https://dc.lft.to/lastmile_qr_scan", "ios": "https://dc.lft.to/lastmile_qr_scan"}, "name": "8098db41671a72a0654b4b39f2d1bd68", "is_reserved": 0}, {"is_disabled": 0, "fusion_lon": 0.0, "fusion_lat": 0.0, "lat": 38.95681716666667, "type": "electric_scooter", "lon": -77.02408883333334, "bike_id": "e5f939df571d00592d6d9e02b5465a14", "rental_uris": {"android": "https://dc.lft.to/lastmile_qr_scan", "ios": "https://dc.lft.to/lastmile_qr_scan"}, "name": "e5f939df571d00592d6d9e02b5465a14", "is_reserved": 0}, {"is_disabled": 0, "fusion_lon": 0.0, "fusion_lat": 0.0, "lat": 38.934680666666665, "type": "electric_scooter", "lon": -77.030637, "bike_id": "4872e6fc57d1cd0cd8b55ee8f8da0486", "rental_uris": {"android": "https://dc.lft.to/lastmile_qr_scan", "ios": "https://dc.lft.to/lastmile_qr_scan"}, "name": "4872e6fc57d1cd0cd8b55ee8f8da0486", "is_reserved": 0}, {"is_disabled": 0, "fusion_lon": 0.0, "fusion_lat": 0.0, "lat": 38.918078, "type": "electric_scooter", "lon": -77.0380605, "bike_id": "c86930d950637d2497e7bde789f243cd", "rental_uris": {"android": "https://dc.lft.to/lastmile_qr_scan", "ios": "https://dc.lft.to/lastmile_qr_scan"}, "name": "c86930d950637d2497e7bde789f243cd", "is_reserved": 0}, {"is_disabled": 0, "fusion_lon": 0.0, "fusion_lat": 0.0, "lat": 38.92905916666667, "type": "electric_scooter", "lon": -77.031936, "bike_id": "9255ab910ea3dcf2b77b978607fab8e4", "rental_uris": {"android": "https://dc.lft.to/lastmile_qr_scan", "ios": "https://dc.lft.to/lastmile_qr_scan"}, "name": "9255ab910ea3dcf2b77b978607fab8e4", "is_reserved": 0}, {"is_disabled": 0, "fusion_lon": 0.0, "fusion_lat": 0.0, "lat": 38.866968666666665, "type": "electric_scooter", "lon": -76.98716633333333, "bike_id": "09efd2f75ba432bda93ebb646b0e92f5", "rental_uris": {"android": "https://dc.lft.to/lastmile_qr_scan", "ios": "https://dc.lft.to/lastmile_qr_scan"}, "name": "09efd2f75ba432bda93ebb646b0e92f5", "is_reserved": 0}, {"is_disabled": 0, "fusion_lon": 0.0, "fusion_lat": 0.0, "lat": 38.8360065, "type": "electric_scooter", "lon": -77.00361333333333, "bike_id": "4def2111ba6fdb5a67d1fdee51e15a80", "rental_uris": {"android": "https://dc.lft.to/lastmile_qr_scan", "ios": "https://dc.lft.to/lastmile_qr_scan"}, "name": "4def2111ba6fdb5a67d1fdee51e15a80", "is_reserved": 0}, {"is_disabled": 0, "fusion_lon": 0.0, "fusion_lat": 0.0, "lat": 38.841998333333336, "type": "electric_bike", "lon": -77.106836, "bike_id": "242791f09ab664447ce13513626bf1a0", "rental_uris": {"android": "https://dc.lft.to/lastmile_qr_scan", "ios": "https://dc.lft.to/lastmile_qr_scan"}, "name": "242791f09ab664447ce13513626bf1a0", "is_reserved": 0}, {"is_disabled": 0, "fusion_lon": 0.0, "fusion_lat": 0.0, "lat": 38.904572, "type": "electric_scooter", "lon": -77.04189966666667, "bike_id": "bc25228505e51b89897dedf230460d98", "rental_uris": {"android": "https://dc.lft.to/lastmile_qr_scan", "ios": "https://dc.lft.to/lastmile_qr_scan"}, "name": "bc25228505e51b89897dedf230460d98", "is_reserved": 0}, {"is_disabled": 0, "fusion_lon": 0.0, "fusion_lat": 0.0, "lat": 38.91579083333333, "type": "electric_scooter", "lon": -76.98110366666667, "bike_id": "e5146d4273de43c5572a21691cdaa36a", "rental_uris": {"android": "https://dc.lft.to/lastmile_qr_scan", "ios": "https://dc.lft.to/lastmile_qr_scan"}, "name": "e5146d4273de43c5572a21691cdaa36a", "is_reserved": 0}, {"is_disabled": 0, "fusion_lon": 0.0, "fusion_lat": 0.0, "lat": 38.998959666666664, "type": "electric_bike", "lon": -77.02865416666667, "bike_id": "20669052684e56cab6f1b1c0ad6c63ce", "rental_uris": {"android": "https://dc.lft.to/lastmile_qr_scan", "ios": "https://dc.lft.to/lastmile_qr_scan"}, "name": "20669052684e56cab6f1b1c0ad6c63ce", "is_reserved": 0}, {"is_disabled": 0, "fusion_lon": 0.0, "fusion_lat": 0.0, "lat": 38.923797, "type": "electric_scooter", "lon": -77.04096016666666, "bike_id": "7f0edb09be96fc8009c528c2fd2115e6", "rental_uris": {"android": "https://dc.lft.to/lastmile_qr_scan", "ios": "https://dc.lft.to/lastmile_qr_scan"}, "name": "7f0edb09be96fc8009c528c2fd2115e6", "is_reserved": 0}, {"is_disabled": 0, "fusion_lon": 0.0, "fusion_lat": 0.0, "lat": 38.9283465, "type": "electric_scooter", "lon": -77.014065, "bike_id": "3b343351028f8ed885b780687d01756b", "rental_uris": {"android": "https://dc.lft.to/lastmile_qr_scan", "ios": "https://dc.lft.to/lastmile_qr_scan"}, "name": "3b343351028f8ed885b780687d01756b", "is_reserved": 0}, {"is_disabled": 0, "fusion_lon": 0.0, "fusion_lat": 0.0, "lat": 38.858080333333334, "type": "electric_scooter", "lon": -76.98654783333333, "bike_id": "8a51aaa822f73adc475c3b88f94201c6", "rental_uris": {"android": "https://dc.lft.to/lastmile_qr_scan", "ios": "https://dc.lft.to/lastmile_qr_scan"}, "name": "8a51aaa822f73adc475c3b88f94201c6", "is_reserved": 0}, {"is_disabled": 0, "fusion_lon": 0.0, "fusion_lat": 0.0, "lat": 38.86328683333333, "type": "electric_scooter", "lon": -76.990329, "bike_id": "8fde316131214ba7b55c0ea8483625d6", "rental_uris": {"android": "https://dc.lft.to/lastmile_qr_scan", "ios": "https://dc.lft.to/lastmile_qr_scan"}, "name": "8fde316131214ba7b55c0ea8483625d6", "is_reserved": 0}, {"is_disabled": 0, "fusion_lon": 0.0, "fusion_lat": 0.0, "lat": 38.917827333333335, "type": "electric_scooter", "lon": -77.0247195, "bike_id": "35ea9a25cf8a1beff645449adbbc68f8", "rental_uris": {"android": "https://dc.lft.to/lastmile_qr_scan", "ios": "https://dc.lft.to/lastmile_qr_scan"}, "name": "35ea9a25cf8a1beff645449adbbc68f8", "is_reserved": 0}, {"is_disabled": 0, "fusion_lon": 0.0, "fusion_lat": 0.0, "lat": 38.90249166666667, "type": "electric_scooter", "lon": -77.0268705, "bike_id": "f9151a4b8578e8000936f257b587b130", "rental_uris": {"android": "https://dc.lft.to/lastmile_qr_scan", "ios": "https://dc.lft.to/lastmile_qr_scan"}, "name": "f9151a4b8578e8000936f257b587b130", "is_reserved": 0}, {"is_disabled": 0, "fusion_lon": 0.0, "fusion_lat": 0.0, "lat": 38.881699, "type": "electric_scooter", "lon": -77.02814983333333, "bike_id": "b29b9e886e6073b68290480b91094e1d", "rental_uris": {"android": "https://dc.lft.to/lastmile_qr_scan", "ios": "https://dc.lft.to/lastmile_qr_scan"}, "name": "b29b9e886e6073b68290480b91094e1d", "is_reserved": 0}, {"is_disabled": 0, "fusion_lon": 0.0, "fusion_lat": 0.0, "lat": 38.89362416666667, "type": "electric_scooter", "lon": -77.02262316666666, "bike_id": "bb34d16ff055133faa6ca23f4ccedd30", "rental_uris": {"android": "https://dc.lft.to/lastmile_qr_scan", "ios": "https://dc.lft.to/lastmile_qr_scan"}, "name": "bb34d16ff055133faa6ca23f4ccedd30", "is_reserved": 0}, {"is_disabled": 0, "fusion_lon": 0.0, "fusion_lat": 0.0, "lat": 38.9260845, "type": "electric_scooter", "lon": -77.041498, "bike_id": "1f26459528ffcbceb8d5c57f3dc56cf5", "rental_uris": {"android": "https://dc.lft.to/lastmile_qr_scan", "ios": "https://dc.lft.to/lastmile_qr_scan"}, "name": "1f26459528ffcbceb8d5c57f3dc56cf5", "is_reserved": 0}, {"is_disabled": 0, "fusion_lon": 0.0, "fusion_lat": 0.0, "lat": 38.96761583333333, "type": "electric_bike", "lon": -77.09162516666666, "bike_id": "214abfe3b29d33bcbcfee5bb2957ce5a", "rental_uris": {"android": "https://dc.lft.to/lastmile_qr_scan", "ios": "https://dc.lft.to/lastmile_qr_scan"}, "name": "214abfe3b29d33bcbcfee5bb2957ce5a", "is_reserved": 0}, {"is_disabled": 0, "fusion_lon": 0.0, "fusion_lat": 0.0, "lat": 38.90067066666667, "type": "electric_scooter", "lon": -77.0271805, "bike_id": "7c7e2f670edafaea509901f2f4b15b1a", "rental_uris": {"android": "https://dc.lft.to/lastmile_qr_scan", "ios": "https://dc.lft.to/lastmile_qr_scan"}, "name": "7c7e2f670edafaea509901f2f4b15b1a", "is_reserved": 0}, {"is_disabled": 0, "fusion_lon": 0.0, "fusion_lat": 0.0, "lat": 38.8895985, "type": "electric_scooter", "lon": -76.92735616666667, "bike_id": "222aab70c1ab3684e748e1e9fbde09ad", "rental_uris": {"android": "https://dc.lft.to/lastmile_qr_scan", "ios": "https://dc.lft.to/lastmile_qr_scan"}, "name": "222aab70c1ab3684e748e1e9fbde09ad", "is_reserved": 0}, {"is_disabled": 0, "fusion_lon": 0.0, "fusion_lat": 0.0, "lat": 38.92663983333333, "type": "electric_bike", "lon": -76.992945, "bike_id": "fd0d9d9e72fd7d55248ee6cfbe41230a", "rental_uris": {"android": "https://dc.lft.to/lastmile_qr_scan", "ios": "https://dc.lft.to/lastmile_qr_scan"}, "name": "fd0d9d9e72fd7d55248ee6cfbe41230a", "is_reserved": 0}, {"is_disabled": 0, "fusion_lon": 0.0, "fusion_lat": 0.0, "lat": 38.88091083333333, "type": "electric_scooter", "lon": -77.02592016666667, "bike_id": "8b3755ce8fa435fe2a1225648e54be91", "rental_uris": {"android": "https://dc.lft.to/lastmile_qr_scan", "ios": "https://dc.lft.to/lastmile_qr_scan"}, "name": "8b3755ce8fa435fe2a1225648e54be91", "is_reserved": 0}, {"is_disabled": 0, "fusion_lon": 0.0, "fusion_lat": 0.0, "lat": 38.84515066666667, "type": "electric_scooter", "lon": -76.9879075, "bike_id": "b72828f4510fc1d4ab7b990a904c1f3b", "rental_uris": {"android": "https://dc.lft.to/lastmile_qr_scan", "ios": "https://dc.lft.to/lastmile_qr_scan"}, "name": "b72828f4510fc1d4ab7b990a904c1f3b", "is_reserved": 0}, {"is_disabled": 0, "fusion_lon": 0.0, "fusion_lat": 0.0, "lat": 38.930872666666666, "type": "electric_scooter", "lon": -77.02469466666666, "bike_id": "00f79d93436c42940e80e117da6d1ac3", "rental_uris": {"android": "https://dc.lft.to/lastmile_qr_scan", "ios": "https://dc.lft.to/lastmile_qr_scan"}, "name": "00f79d93436c42940e80e117da6d1ac3", "is_reserved": 0}, {"is_disabled": 0, "fusion_lon": 0.0, "fusion_lat": 0.0, "lat": 38.871357333333336, "type": "electric_scooter", "lon": -77.00756183333333, "bike_id": "e3ffc97c8ff03b5f891556b8b7bd1bac", "rental_uris": {"android": "https://dc.lft.to/lastmile_qr_scan", "ios": "https://dc.lft.to/lastmile_qr_scan"}, "name": "e3ffc97c8ff03b5f891556b8b7bd1bac", "is_reserved": 0}, {"is_disabled": 0, "fusion_lon": 0.0, "fusion_lat": 0.0, "lat": 38.959481833333335, "type": "electric_scooter", "lon": -77.072306, "bike_id": "7614e5cf7802aac9c4ad77aca21785a2", "rental_uris": {"android": "https://dc.lft.to/lastmile_qr_scan", "ios": "https://dc.lft.to/lastmile_qr_scan"}, "name": "7614e5cf7802aac9c4ad77aca21785a2", "is_reserved": 0}, {"is_disabled": 0, "fusion_lon": 0.0, "fusion_lat": 0.0, "lat": 38.88720466666667, "type": "electric_scooter", "lon": -77.02205916666666, "bike_id": "0f3d3b14d14d1138ef6368294212da3b", "rental_uris": {"android": "https://dc.lft.to/lastmile_qr_scan", "ios": "https://dc.lft.to/lastmile_qr_scan"}, "name": "0f3d3b14d14d1138ef6368294212da3b", "is_reserved": 0}, {"is_disabled": 0, "fusion_lon": 0.0, "fusion_lat": 0.0, "lat": 38.90067716666667, "type": "electric_scooter", "lon": -77.01306266666667, "bike_id": "11463c5d5401725923e6b9b0aa1816bf", "rental_uris": {"android": "https://dc.lft.to/lastmile_qr_scan", "ios": "https://dc.lft.to/lastmile_qr_scan"}, "name": "11463c5d5401725923e6b9b0aa1816bf", "is_reserved": 0}, {"is_disabled": 0, "fusion_lon": 0.0, "fusion_lat": 0.0, "lat": 38.9319555, "type": "electric_scooter", "lon": -77.03861833333333, "bike_id": "21404741b9ee2888ef8bece03ca4e804", "rental_uris": {"android": "https://dc.lft.to/lastmile_qr_scan", "ios": "https://dc.lft.to/lastmile_qr_scan"}, "name": "21404741b9ee2888ef8bece03ca4e804", "is_reserved": 0}, {"is_disabled": 0, "fusion_lon": 0.0, "fusion_lat": 0.0, "lat": 38.89698716666667, "type": "electric_bike", "lon": -77.0502185, "bike_id": "6e042dcc547924422d3dae83c254eb6b", "rental_uris": {"android": "https://dc.lft.to/lastmile_qr_scan", "ios": "https://dc.lft.to/lastmile_qr_scan"}, "name": "6e042dcc547924422d3dae83c254eb6b", "is_reserved": 0}, {"is_disabled": 0, "fusion_lon": 0.0, "fusion_lat": 0.0, "lat": 38.917047, "type": "electric_scooter", "lon": -77.001162, "bike_id": "d80e0ee23e105bed5f4350431fbe2e9f", "rental_uris": {"android": "https://dc.lft.to/lastmile_qr_scan", "ios": "https://dc.lft.to/lastmile_qr_scan"}, "name": "d80e0ee23e105bed5f4350431fbe2e9f", "is_reserved": 0}, {"is_disabled": 0, "fusion_lon": 0.0, "fusion_lat": 0.0, "lat": 38.93696633333333, "type": "electric_scooter", "lon": -77.05601583333333, "bike_id": "26a7b06c1e9963ea4d8ded6d9ed8b80a", "rental_uris": {"android": "https://dc.lft.to/lastmile_qr_scan", "ios": "https://dc.lft.to/lastmile_qr_scan"}, "name": "26a7b06c1e9963ea4d8ded6d9ed8b80a", "is_reserved": 0}, {"is_disabled": 0, "fusion_lon": 0.0, "fusion_lat": 0.0, "lat": 38.915829333333335, "type": "electric_scooter", "lon": -77.031787, "bike_id": "8bbfedfb7f618117868b9494245a67c2", "rental_uris": {"android": "https://dc.lft.to/lastmile_qr_scan", "ios": "https://dc.lft.to/lastmile_qr_scan"}, "name": "8bbfedfb7f618117868b9494245a67c2", "is_reserved": 0}, {"is_disabled": 0, "fusion_lon": 0.0, "fusion_lat": 0.0, "lat": 38.88454433333333, "type": "electric_bike", "lon": -76.91638333333333, "bike_id": "7a044f53d953616fd39420fa9f54ab5b", "rental_uris": {"android": "https://dc.lft.to/lastmile_qr_scan", "ios": "https://dc.lft.to/lastmile_qr_scan"}, "name": "7a044f53d953616fd39420fa9f54ab5b", "is_reserved": 0}, {"is_disabled": 0, "fusion_lon": 0.0, "fusion_lat": 0.0, "lat": 38.948842, "type": "electric_bike", "lon": -76.9637235, "bike_id": "06bf11e81a21e424be2de24290d9f9f4", "rental_uris": {"android": "https://dc.lft.to/lastmile_qr_scan", "ios": "https://dc.lft.to/lastmile_qr_scan"}, "name": "06bf11e81a21e424be2de24290d9f9f4", "is_reserved": 0}, {"is_disabled": 0, "fusion_lon": 0.0, "fusion_lat": 0.0, "lat": 38.872066, "type": "electric_bike", "lon": -77.01627766666667, "bike_id": "1b548a43bd373c2ccd70a93530bef949", "rental_uris": {"android": "https://dc.lft.to/lastmile_qr_scan", "ios": "https://dc.lft.to/lastmile_qr_scan"}, "name": "1b548a43bd373c2ccd70a93530bef949", "is_reserved": 0}, {"is_disabled": 0, "fusion_lon": 0.0, "fusion_lat": 0.0, "lat": 38.9119065, "type": "electric_scooter", "lon": -77.032197, "bike_id": "1fb697038c4e2c15cd102e2b4df2b376", "rental_uris": {"android": "https://dc.lft.to/lastmile_qr_scan", "ios": "https://dc.lft.to/lastmile_qr_scan"}, "name": "1fb697038c4e2c15cd102e2b4df2b376", "is_reserved": 0}, {"is_disabled": 0, "fusion_lon": 0.0, "fusion_lat": 0.0, "lat": 39.05265883333333, "type": "electric_bike", "lon": -77.04386666666667, "bike_id": "bce3888a28eb8b19d040288ec8f36bfe", "rental_uris": {"android": "https://dc.lft.to/lastmile_qr_scan", "ios": "https://dc.lft.to/lastmile_qr_scan"}, "name": "bce3888a28eb8b19d040288ec8f36bfe", "is_reserved": 0}, {"is_disabled": 0, "fusion_lon": 0.0, "fusion_lat": 0.0, "lat": 38.90209266666667, "type": "electric_scooter", "lon": -77.02430266666667, "bike_id": "bd7d7d53709e9543e114bc3ad63963fc", "rental_uris": {"android": "https://dc.lft.to/lastmile_qr_scan", "ios": "https://dc.lft.to/lastmile_qr_scan"}, "name": "bd7d7d53709e9543e114bc3ad63963fc", "is_reserved": 0}, {"is_disabled": 0, "fusion_lon": 0.0, "fusion_lat": 0.0, "lat": 38.922295166666665, "type": "electric_scooter", "lon": -77.02337066666666, "bike_id": "41467de06aac03dab25404ebd35010b4", "rental_uris": {"android": "https://dc.lft.to/lastmile_qr_scan", "ios": "https://dc.lft.to/lastmile_qr_scan"}, "name": "41467de06aac03dab25404ebd35010b4", "is_reserved": 0}, {"is_disabled": 0, "fusion_lon": 0.0, "fusion_lat": 0.0, "lat": 38.898443666666665, "type": "electric_scooter", "lon": -77.02907116666667, "bike_id": "92878108f20559a3954e847385dc136d", "rental_uris": {"android": "https://dc.lft.to/lastmile_qr_scan", "ios": "https://dc.lft.to/lastmile_qr_scan"}, "name": "92878108f20559a3954e847385dc136d", "is_reserved": 0}, {"is_disabled": 0, "fusion_lon": 0.0, "fusion_lat": 0.0, "lat": 38.91432916666667, "type": "electric_scooter", "lon": -77.02815633333333, "bike_id": "9978c46550531bef4cad1d662df712a8", "rental_uris": {"android": "https://dc.lft.to/lastmile_qr_scan", "ios": "https://dc.lft.to/lastmile_qr_scan"}, "name": "9978c46550531bef4cad1d662df712a8", "is_reserved": 0}, {"is_disabled": 0, "fusion_lon": 0.0, "fusion_lat": 0.0, "lat": 38.911075333333336, "type": "electric_scooter", "lon": -77.03258133333334, "bike_id": "1b51a40bf4cffc7cd170f0087756365c", "rental_uris": {"android": "https://dc.lft.to/lastmile_qr_scan", "ios": "https://dc.lft.to/lastmile_qr_scan"}, "name": "1b51a40bf4cffc7cd170f0087756365c", "is_reserved": 0}, {"is_disabled": 0, "fusion_lon": 0.0, "fusion_lat": 0.0, "lat": 38.92253783333334, "type": "electric_scooter", "lon": -77.07134516666666, "bike_id": "cdedb69b42d7e0c05f35ffae0f448e8d", "rental_uris": {"android": "https://dc.lft.to/lastmile_qr_scan", "ios": "https://dc.lft.to/lastmile_qr_scan"}, "name": "cdedb69b42d7e0c05f35ffae0f448e8d", "is_reserved": 0}, {"is_disabled": 0, "fusion_lon": 0.0, "fusion_lat": 0.0, "lat": 38.907779, "type": "electric_scooter", "lon": -76.94125666666666, "bike_id": "db37f50e47b6394527211768a85cf224", "rental_uris": {"android": "https://dc.lft.to/lastmile_qr_scan", "ios": "https://dc.lft.to/lastmile_qr_scan"}, "name": "db37f50e47b6394527211768a85cf224", "is_reserved": 0}, {"is_disabled": 0, "fusion_lon": 0.0, "fusion_lat": 0.0, "lat": 38.904607666666664, "type": "electric_scooter", "lon": -76.99212433333334, "bike_id": "27159d7eedb00d276d3948029ff11da5", "rental_uris": {"android": "https://dc.lft.to/lastmile_qr_scan", "ios": "https://dc.lft.to/lastmile_qr_scan"}, "name": "27159d7eedb00d276d3948029ff11da5", "is_reserved": 0}, {"is_disabled": 0, "fusion_lon": 0.0, "fusion_lat": 0.0, "lat": 38.91459716666667, "type": "electric_scooter", "lon": -77.01432233333334, "bike_id": "c283dc3ea02d5afabc82a6b6e21bfde3", "rental_uris": {"android": "https://dc.lft.to/lastmile_qr_scan", "ios": "https://dc.lft.to/lastmile_qr_scan"}, "name": "c283dc3ea02d5afabc82a6b6e21bfde3", "is_reserved": 0}, {"is_disabled": 0, "fusion_lon": 0.0, "fusion_lat": 0.0, "lat": 38.92031383333333, "type": "electric_scooter", "lon": -77.025859, "bike_id": "3447edc847594ede4f84e876f6c30109", "rental_uris": {"android": "https://dc.lft.to/lastmile_qr_scan", "ios": "https://dc.lft.to/lastmile_qr_scan"}, "name": "3447edc847594ede4f84e876f6c30109", "is_reserved": 0}, {"is_disabled": 0, "fusion_lon": 0.0, "fusion_lat": 0.0, "lat": 38.8591, "type": "electric_scooter", "lon": -76.98786733333333, "bike_id": "96a6ba0fd5b0bdf8d9c157c32461919c", "rental_uris": {"android": "https://dc.lft.to/lastmile_qr_scan", "ios": "https://dc.lft.to/lastmile_qr_scan"}, "name": "96a6ba0fd5b0bdf8d9c157c32461919c", "is_reserved": 0}, {"is_disabled": 0, "fusion_lon": 0.0, "fusion_lat": 0.0, "lat": 38.926024166666664, "type": "electric_scooter", "lon": -77.02155033333334, "bike_id": "79f66087d2b72e144190f4b1f7d5a172", "rental_uris": {"android": "https://dc.lft.to/lastmile_qr_scan", "ios": "https://dc.lft.to/lastmile_qr_scan"}, "name": "79f66087d2b72e144190f4b1f7d5a172", "is_reserved": 0}, {"is_disabled": 0, "fusion_lon": 0.0, "fusion_lat": 0.0, "lat": 38.929751, "type": "electric_scooter", "lon": -77.03474, "bike_id": "816a9fc75e1081b8a737e758dd63511c", "rental_uris": {"android": "https://dc.lft.to/lastmile_qr_scan", "ios": "https://dc.lft.to/lastmile_qr_scan"}, "name": "816a9fc75e1081b8a737e758dd63511c", "is_reserved": 0}, {"is_disabled": 0, "fusion_lon": 0.0, "fusion_lat": 0.0, "lat": 38.897346166666665, "type": "electric_scooter", "lon": -77.02584666666667, "bike_id": "d8f92727653d004a9f1d46d60f56d94d", "rental_uris": {"android": "https://dc.lft.to/lastmile_qr_scan", "ios": "https://dc.lft.to/lastmile_qr_scan"}, "name": "d8f92727653d004a9f1d46d60f56d94d", "is_reserved": 0}, {"is_disabled": 0, "fusion_lon": 0.0, "fusion_lat": 0.0, "lat": 38.928072666666665, "type": "electric_scooter", "lon": -77.0141365, "bike_id": "eaf40eb1d0ad243e800d83d204a67b26", "rental_uris": {"android": "https://dc.lft.to/lastmile_qr_scan", "ios": "https://dc.lft.to/lastmile_qr_scan"}, "name": "eaf40eb1d0ad243e800d83d204a67b26", "is_reserved": 0}, {"is_disabled": 0, "fusion_lon": 0.0, "fusion_lat": 0.0, "lat": 38.911409666666664, "type": "electric_scooter", "lon": -77.0449405, "bike_id": "5777ece74d02b4025850ec3c47838d14", "rental_uris": {"android": "https://dc.lft.to/lastmile_qr_scan", "ios": "https://dc.lft.to/lastmile_qr_scan"}, "name": "5777ece74d02b4025850ec3c47838d14", "is_reserved": 0}, {"is_disabled": 0, "fusion_lon": 0.0, "fusion_lat": 0.0, "lat": 38.911145166666664, "type": "electric_scooter", "lon": -77.04721333333333, "bike_id": "47046e2e732ad117c1f9a249ed85b171", "rental_uris": {"android": "https://dc.lft.to/lastmile_qr_scan", "ios": "https://dc.lft.to/lastmile_qr_scan"}, "name": "47046e2e732ad117c1f9a249ed85b171", "is_reserved": 0}, {"is_disabled": 0, "fusion_lon": 0.0, "fusion_lat": 0.0, "lat": 38.91814166666666, "type": "electric_scooter", "lon": -77.0253015, "bike_id": "8efafff00b5c782bf894c55fbe89571e", "rental_uris": {"android": "https://dc.lft.to/lastmile_qr_scan", "ios": "https://dc.lft.to/lastmile_qr_scan"}, "name": "8efafff00b5c782bf894c55fbe89571e", "is_reserved": 0}, {"is_disabled": 0, "fusion_lon": 0.0, "fusion_lat": 0.0, "lat": 38.92858783333333, "type": "electric_scooter", "lon": -77.036098, "bike_id": "1b81cb49e93e266adb671666b4f229c4", "rental_uris": {"android": "https://dc.lft.to/lastmile_qr_scan", "ios": "https://dc.lft.to/lastmile_qr_scan"}, "name": "1b81cb49e93e266adb671666b4f229c4", "is_reserved": 0}, {"is_disabled": 0, "fusion_lon": 0.0, "fusion_lat": 0.0, "lat": 38.92021916666667, "type": "electric_bike", "lon": -76.97302616666667, "bike_id": "abaebe90df09b8d8eb6a6176f4be13e8", "rental_uris": {"android": "https://dc.lft.to/lastmile_qr_scan", "ios": "https://dc.lft.to/lastmile_qr_scan"}, "name": "abaebe90df09b8d8eb6a6176f4be13e8", "is_reserved": 0}, {"is_disabled": 0, "fusion_lon": 0.0, "fusion_lat": 0.0, "lat": 38.92335466666667, "type": "electric_scooter", "lon": -77.04304683333334, "bike_id": "3e90d3f8d06fbf000528617fd8055964", "rental_uris": {"android": "https://dc.lft.to/lastmile_qr_scan", "ios": "https://dc.lft.to/lastmile_qr_scan"}, "name": "3e90d3f8d06fbf000528617fd8055964", "is_reserved": 0}, {"is_disabled": 0, "fusion_lon": 0.0, "fusion_lat": 0.0, "lat": 38.9003765, "type": "electric_scooter", "lon": -77.04683166666666, "bike_id": "d3c0dc2e785bf1181d7abba3c750e9fa", "rental_uris": {"android": "https://dc.lft.to/lastmile_qr_scan", "ios": "https://dc.lft.to/lastmile_qr_scan"}, "name": "d3c0dc2e785bf1181d7abba3c750e9fa", "is_reserved": 0}, {"is_disabled": 0, "fusion_lon": 0.0, "fusion_lat": 0.0, "lat": 38.910224, "type": "electric_scooter", "lon": -77.03828666666666, "bike_id": "d73275cecc03726845aea83c41a32940", "rental_uris": {"android": "https://dc.lft.to/lastmile_qr_scan", "ios": "https://dc.lft.to/lastmile_qr_scan"}, "name": "d73275cecc03726845aea83c41a32940", "is_reserved": 0}, {"is_disabled": 0, "fusion_lon": 0.0, "fusion_lat": 0.0, "lat": 38.88157733333333, "type": "electric_scooter", "lon": -77.00876466666666, "bike_id": "3239759640ab404fd81922a911560a90", "rental_uris": {"android": "https://dc.lft.to/lastmile_qr_scan", "ios": "https://dc.lft.to/lastmile_qr_scan"}, "name": "3239759640ab404fd81922a911560a90", "is_reserved": 0}, {"is_disabled": 0, "fusion_lon": 0.0, "fusion_lat": 0.0, "lat": 38.859758, "type": "electric_scooter", "lon": -76.98416566666667, "bike_id": "f51870a2c7de050fe6543b5ab4453245", "rental_uris": {"android": "https://dc.lft.to/lastmile_qr_scan", "ios": "https://dc.lft.to/lastmile_qr_scan"}, "name": "f51870a2c7de050fe6543b5ab4453245", "is_reserved": 0}, {"is_disabled": 0, "fusion_lon": 0.0, "fusion_lat": 0.0, "lat": 38.9279425, "type": "electric_scooter", "lon": -77.02298183333333, "bike_id": "38d9ee2f8f431cb15e87eb2a5c2b91d1", "rental_uris": {"android": "https://dc.lft.to/lastmile_qr_scan", "ios": "https://dc.lft.to/lastmile_qr_scan"}, "name": "38d9ee2f8f431cb15e87eb2a5c2b91d1", "is_reserved": 0}, {"is_disabled": 0, "fusion_lon": 0.0, "fusion_lat": 0.0, "lat": 38.92171783333333, "type": "electric_scooter", "lon": -77.01207316666667, "bike_id": "1a2de4fcc4105d9b240e301c65572dbd", "rental_uris": {"android": "https://dc.lft.to/lastmile_qr_scan", "ios": "https://dc.lft.to/lastmile_qr_scan"}, "name": "1a2de4fcc4105d9b240e301c65572dbd", "is_reserved": 0}, {"is_disabled": 0, "fusion_lon": 0.0, "fusion_lat": 0.0, "lat": 38.902618, "type": "electric_scooter", "lon": -77.01848, "bike_id": "c0456edb0af216afe5bd7e6e94bd58b0", "rental_uris": {"android": "https://dc.lft.to/lastmile_qr_scan", "ios": "https://dc.lft.to/lastmile_qr_scan"}, "name": "c0456edb0af216afe5bd7e6e94bd58b0", "is_reserved": 0}, {"is_disabled": 0, "fusion_lon": 0.0, "fusion_lat": 0.0, "lat": 38.902453666666666, "type": "electric_scooter", "lon": -77.03458133333334, "bike_id": "c91cdc5dd0dff7ae4af0c09e171c0b62", "rental_uris": {"android": "https://dc.lft.to/lastmile_qr_scan", "ios": "https://dc.lft.to/lastmile_qr_scan"}, "name": "c91cdc5dd0dff7ae4af0c09e171c0b62", "is_reserved": 0}, {"is_disabled": 0, "fusion_lon": 0.0, "fusion_lat": 0.0, "lat": 38.92735183333333, "type": "electric_bike", "lon": -76.99367583333333, "bike_id": "94e43bd55a09f5602fd0de90e33ced3e", "rental_uris": {"android": "https://dc.lft.to/lastmile_qr_scan", "ios": "https://dc.lft.to/lastmile_qr_scan"}, "name": "94e43bd55a09f5602fd0de90e33ced3e", "is_reserved": 0}, {"is_disabled": 0, "fusion_lon": 0.0, "fusion_lat": 0.0, "lat": 38.939096666666664, "type": "electric_scooter", "lon": -77.0326425, "bike_id": "f64c35faf50d5dd195dd5af42070fa16", "rental_uris": {"android": "https://dc.lft.to/lastmile_qr_scan", "ios": "https://dc.lft.to/lastmile_qr_scan"}, "name": "f64c35faf50d5dd195dd5af42070fa16", "is_reserved": 0}, {"is_disabled": 0, "fusion_lon": 0.0, "fusion_lat": 0.0, "lat": 38.85065733333333, "type": "electric_bike", "lon": -76.9733285, "bike_id": "aa0cd565b1366981788cd832d4f9938a", "rental_uris": {"android": "https://dc.lft.to/lastmile_qr_scan", "ios": "https://dc.lft.to/lastmile_qr_scan"}, "name": "aa0cd565b1366981788cd832d4f9938a", "is_reserved": 0}, {"is_disabled": 0, "fusion_lon": 0.0, "fusion_lat": 0.0, "lat": 38.917165833333335, "type": "electric_scooter", "lon": -77.02879183333333, "bike_id": "13075a921d261d3ae13982526395c195", "rental_uris": {"android": "https://dc.lft.to/lastmile_qr_scan", "ios": "https://dc.lft.to/lastmile_qr_scan"}, "name": "13075a921d261d3ae13982526395c195", "is_reserved": 0}, {"is_disabled": 0, "fusion_lon": 0.0, "fusion_lat": 0.0, "lat": 38.84429733333333, "type": "electric_scooter", "lon": -76.99814933333333, "bike_id": "57538e5ca14e6debfda8e91b334f63e4", "rental_uris": {"android": "https://dc.lft.to/lastmile_qr_scan", "ios": "https://dc.lft.to/lastmile_qr_scan"}, "name": "57538e5ca14e6debfda8e91b334f63e4", "is_reserved": 0}, {"is_disabled": 0, "fusion_lon": 0.0, "fusion_lat": 0.0, "lat": 38.93408016666667, "type": "electric_scooter", "lon": -77.0427055, "bike_id": "fa228b9e1f5dc3cdfcb756422cbf7495", "rental_uris": {"android": "https://dc.lft.to/lastmile_qr_scan", "ios": "https://dc.lft.to/lastmile_qr_scan"}, "name": "fa228b9e1f5dc3cdfcb756422cbf7495", "is_reserved": 0}, {"is_disabled": 0, "fusion_lon": 0.0, "fusion_lat": 0.0, "lat": 38.900485833333335, "type": "electric_scooter", "lon": -77.00066666666666, "bike_id": "07dad51e72e90ff57a033e1598ba10a4", "rental_uris": {"android": "https://dc.lft.to/lastmile_qr_scan", "ios": "https://dc.lft.to/lastmile_qr_scan"}, "name": "07dad51e72e90ff57a033e1598ba10a4", "is_reserved": 0}, {"is_disabled": 0, "fusion_lon": 0.0, "fusion_lat": 0.0, "lat": 38.90330733333333, "type": "electric_scooter", "lon": -77.021684, "bike_id": "9e0466fd47dee11590ef010efcda3f0a", "rental_uris": {"android": "https://dc.lft.to/lastmile_qr_scan", "ios": "https://dc.lft.to/lastmile_qr_scan"}, "name": "9e0466fd47dee11590ef010efcda3f0a", "is_reserved": 0}, {"is_disabled": 0, "fusion_lon": 0.0, "fusion_lat": 0.0, "lat": 38.897108, "type": "electric_scooter", "lon": -77.03968366666666, "bike_id": "a6b469c15a8a9bb85d72bd940a4c23ad", "rental_uris": {"android": "https://dc.lft.to/lastmile_qr_scan", "ios": "https://dc.lft.to/lastmile_qr_scan"}, "name": "a6b469c15a8a9bb85d72bd940a4c23ad", "is_reserved": 0}, {"is_disabled": 0, "fusion_lon": 0.0, "fusion_lat": 0.0, "lat": 38.91808116666667, "type": "electric_bike", "lon": -77.10186533333334, "bike_id": "c723041a545fd33a049a7c118a7c7876", "rental_uris": {"android": "https://dc.lft.to/lastmile_qr_scan", "ios": "https://dc.lft.to/lastmile_qr_scan"}, "name": "c723041a545fd33a049a7c118a7c7876", "is_reserved": 0}, {"is_disabled": 0, "fusion_lon": 0.0, "fusion_lat": 0.0, "lat": 38.91149516666667, "type": "electric_scooter", "lon": -77.01084916666667, "bike_id": "69005226a9015870a546090b31f16bc3", "rental_uris": {"android": "https://dc.lft.to/lastmile_qr_scan", "ios": "https://dc.lft.to/lastmile_qr_scan"}, "name": "69005226a9015870a546090b31f16bc3", "is_reserved": 0}, {"is_disabled": 0, "fusion_lon": 0.0, "fusion_lat": 0.0, "lat": 38.910058, "type": "electric_scooter", "lon": -77.02090266666667, "bike_id": "d433e53e1c7e146823eab1119b2c0292", "rental_uris": {"android": "https://dc.lft.to/lastmile_qr_scan", "ios": "https://dc.lft.to/lastmile_qr_scan"}, "name": "d433e53e1c7e146823eab1119b2c0292", "is_reserved": 0}, {"is_disabled": 0, "fusion_lon": 0.0, "fusion_lat": 0.0, "lat": 38.920875333333335, "type": "electric_scooter", "lon": -77.02595733333334, "bike_id": "7bce8957dd0cfceb6268bdd70dc4fbef", "rental_uris": {"android": "https://dc.lft.to/lastmile_qr_scan", "ios": "https://dc.lft.to/lastmile_qr_scan"}, "name": "7bce8957dd0cfceb6268bdd70dc4fbef", "is_reserved": 0}, {"is_disabled": 0, "fusion_lon": 0.0, "fusion_lat": 0.0, "lat": 38.88448366666667, "type": "electric_scooter", "lon": -76.95098866666666, "bike_id": "2029750183817f882ebbcfb3ba66cb06", "rental_uris": {"android": "https://dc.lft.to/lastmile_qr_scan", "ios": "https://dc.lft.to/lastmile_qr_scan"}, "name": "2029750183817f882ebbcfb3ba66cb06", "is_reserved": 0}, {"is_disabled": 0, "fusion_lon": 0.0, "fusion_lat": 0.0, "lat": 38.897886666666665, "type": "electric_scooter", "lon": -77.04754666666666, "bike_id": "9689b340fddd1307d3ab4caecfec2587", "rental_uris": {"android": "https://dc.lft.to/lastmile_qr_scan", "ios": "https://dc.lft.to/lastmile_qr_scan"}, "name": "9689b340fddd1307d3ab4caecfec2587", "is_reserved": 0}, {"is_disabled": 0, "fusion_lon": 0.0, "fusion_lat": 0.0, "lat": 38.85510683333333, "type": "electric_bike", "lon": -76.958375, "bike_id": "2fec495829fd59028061d5b497293ce1", "rental_uris": {"android": "https://dc.lft.to/lastmile_qr_scan", "ios": "https://dc.lft.to/lastmile_qr_scan"}, "name": "2fec495829fd59028061d5b497293ce1", "is_reserved": 0}, {"is_disabled": 0, "fusion_lon": 0.0, "fusion_lat": 0.0, "lat": 38.90843383333333, "type": "electric_scooter", "lon": -77.02061933333333, "bike_id": "c001dafcd214a84b91ccd58835ff0773", "rental_uris": {"android": "https://dc.lft.to/lastmile_qr_scan", "ios": "https://dc.lft.to/lastmile_qr_scan"}, "name": "c001dafcd214a84b91ccd58835ff0773", "is_reserved": 0}, {"is_disabled": 0, "fusion_lon": 0.0, "fusion_lat": 0.0, "lat": 38.897306, "type": "electric_scooter", "lon": -77.00972183333333, "bike_id": "6cb12f777e64d418a2ec98b5c6bc1724", "rental_uris": {"android": "https://dc.lft.to/lastmile_qr_scan", "ios": "https://dc.lft.to/lastmile_qr_scan"}, "name": "6cb12f777e64d418a2ec98b5c6bc1724", "is_reserved": 0}, {"is_disabled": 0, "fusion_lon": 0.0, "fusion_lat": 0.0, "lat": 38.88094133333333, "type": "electric_bike", "lon": -76.96760133333333, "bike_id": "daa290e624ad09326bd99fdb66c714e4", "rental_uris": {"android": "https://dc.lft.to/lastmile_qr_scan", "ios": "https://dc.lft.to/lastmile_qr_scan"}, "name": "daa290e624ad09326bd99fdb66c714e4", "is_reserved": 0}, {"is_disabled": 0, "fusion_lon": 0.0, "fusion_lat": 0.0, "lat": 38.90391233333333, "type": "electric_scooter", "lon": -76.99007, "bike_id": "c62437c136d2eda0b7e62de8a9804e6a", "rental_uris": {"android": "https://dc.lft.to/lastmile_qr_scan", "ios": "https://dc.lft.to/lastmile_qr_scan"}, "name": "c62437c136d2eda0b7e62de8a9804e6a", "is_reserved": 0}, {"is_disabled": 0, "fusion_lon": 0.0, "fusion_lat": 0.0, "lat": 38.93958133333334, "type": "electric_scooter", "lon": -77.0328645, "bike_id": "8f2f1c4c4497acb06dec416eef59f4d4", "rental_uris": {"android": "https://dc.lft.to/lastmile_qr_scan", "ios": "https://dc.lft.to/lastmile_qr_scan"}, "name": "8f2f1c4c4497acb06dec416eef59f4d4", "is_reserved": 0}, {"is_disabled": 0, "fusion_lon": 0.0, "fusion_lat": 0.0, "lat": 38.9421635, "type": "electric_scooter", "lon": -77.02501216666667, "bike_id": "e413b5164df8084d1e2afd3f2603b312", "rental_uris": {"android": "https://dc.lft.to/lastmile_qr_scan", "ios": "https://dc.lft.to/lastmile_qr_scan"}, "name": "e413b5164df8084d1e2afd3f2603b312", "is_reserved": 0}, {"is_disabled": 0, "fusion_lon": 0.0, "fusion_lat": 0.0, "lat": 38.92755783333333, "type": "electric_scooter", "lon": -77.006042, "bike_id": "55e73f708d5916191886474c4a075fdf", "rental_uris": {"android": "https://dc.lft.to/lastmile_qr_scan", "ios": "https://dc.lft.to/lastmile_qr_scan"}, "name": "55e73f708d5916191886474c4a075fdf", "is_reserved": 0}, {"is_disabled": 0, "fusion_lon": 0.0, "fusion_lat": 0.0, "lat": 38.9244205, "type": "electric_scooter", "lon": -77.04032566666666, "bike_id": "a8ee45102580cc0937861344add3b11d", "rental_uris": {"android": "https://dc.lft.to/lastmile_qr_scan", "ios": "https://dc.lft.to/lastmile_qr_scan"}, "name": "a8ee45102580cc0937861344add3b11d", "is_reserved": 0}, {"is_disabled": 0, "fusion_lon": 0.0, "fusion_lat": 0.0, "lat": 38.871719166666665, "type": "electric_scooter", "lon": -77.01147533333334, "bike_id": "aaaccb720be4f489f79995eead0388b1", "rental_uris": {"android": "https://dc.lft.to/lastmile_qr_scan", "ios": "https://dc.lft.to/lastmile_qr_scan"}, "name": "aaaccb720be4f489f79995eead0388b1", "is_reserved": 0}, {"is_disabled": 0, "fusion_lon": 0.0, "fusion_lat": 0.0, "lat": 38.923221166666664, "type": "electric_scooter", "lon": -77.04180816666667, "bike_id": "a89871a7ad958a62652b9e2617d055a2", "rental_uris": {"android": "https://dc.lft.to/lastmile_qr_scan", "ios": "https://dc.lft.to/lastmile_qr_scan"}, "name": "a89871a7ad958a62652b9e2617d055a2", "is_reserved": 0}, {"is_disabled": 0, "fusion_lon": 0.0, "fusion_lat": 0.0, "lat": 38.92451466666667, "type": "electric_scooter", "lon": -76.990478, "bike_id": "fb2e7f1057782a16252b6dd767a30190", "rental_uris": {"android": "https://dc.lft.to/lastmile_qr_scan", "ios": "https://dc.lft.to/lastmile_qr_scan"}, "name": "fb2e7f1057782a16252b6dd767a30190", "is_reserved": 0}, {"is_disabled": 0, "fusion_lon": 0.0, "fusion_lat": 0.0, "lat": 38.924788666666664, "type": "electric_scooter", "lon": -77.03479483333334, "bike_id": "3b91b4b2059a79a7322429de34632ebe", "rental_uris": {"android": "https://dc.lft.to/lastmile_qr_scan", "ios": "https://dc.lft.to/lastmile_qr_scan"}, "name": "3b91b4b2059a79a7322429de34632ebe", "is_reserved": 0}, {"is_disabled": 0, "fusion_lon": 0.0, "fusion_lat": 0.0, "lat": 38.921163, "type": "electric_scooter", "lon": -77.01749533333333, "bike_id": "abf2d12b4fc81add5a3ad48cdd03249d", "rental_uris": {"android": "https://dc.lft.to/lastmile_qr_scan", "ios": "https://dc.lft.to/lastmile_qr_scan"}, "name": "abf2d12b4fc81add5a3ad48cdd03249d", "is_reserved": 0}, {"is_disabled": 0, "fusion_lon": 0.0, "fusion_lat": 0.0, "lat": 38.91404433333334, "type": "electric_scooter", "lon": -77.02569616666666, "bike_id": "1d2557ac72338d46f7c3456ad6454e12", "rental_uris": {"android": "https://dc.lft.to/lastmile_qr_scan", "ios": "https://dc.lft.to/lastmile_qr_scan"}, "name": "1d2557ac72338d46f7c3456ad6454e12", "is_reserved": 0}, {"is_disabled": 0, "fusion_lon": 0.0, "fusion_lat": 0.0, "lat": 38.883171, "type": "electric_scooter", "lon": -77.00588266666666, "bike_id": "c85f7f5a92faf5173a64af85ef8dd716", "rental_uris": {"android": "https://dc.lft.to/lastmile_qr_scan", "ios": "https://dc.lft.to/lastmile_qr_scan"}, "name": "c85f7f5a92faf5173a64af85ef8dd716", "is_reserved": 0}, {"is_disabled": 0, "fusion_lon": 0.0, "fusion_lat": 0.0, "lat": 38.893908, "type": "electric_scooter", "lon": -76.95004183333333, "bike_id": "0b2dee8cefc109ab3312295577309dca", "rental_uris": {"android": "https://dc.lft.to/lastmile_qr_scan", "ios": "https://dc.lft.to/lastmile_qr_scan"}, "name": "0b2dee8cefc109ab3312295577309dca", "is_reserved": 0}, {"is_disabled": 0, "fusion_lon": 0.0, "fusion_lat": 0.0, "lat": 38.90524816666667, "type": "electric_scooter", "lon": -77.0678145, "bike_id": "a700958dec0f05076628e8f7a62aadf4", "rental_uris": {"android": "https://dc.lft.to/lastmile_qr_scan", "ios": "https://dc.lft.to/lastmile_qr_scan"}, "name": "a700958dec0f05076628e8f7a62aadf4", "is_reserved": 0}, {"is_disabled": 0, "fusion_lon": 0.0, "fusion_lat": 0.0, "lat": 38.918214, "type": "electric_scooter", "lon": -77.03197166666666, "bike_id": "ebfe337d4944b3cf818b619ee81d6125", "rental_uris": {"android": "https://dc.lft.to/lastmile_qr_scan", "ios": "https://dc.lft.to/lastmile_qr_scan"}, "name": "ebfe337d4944b3cf818b619ee81d6125", "is_reserved": 0}, {"is_disabled": 0, "fusion_lon": 0.0, "fusion_lat": 0.0, "lat": 38.91183, "type": "electric_scooter", "lon": -77.0371375, "bike_id": "3609191254830d87be59ca8db44ac520", "rental_uris": {"android": "https://dc.lft.to/lastmile_qr_scan", "ios": "https://dc.lft.to/lastmile_qr_scan"}, "name": "3609191254830d87be59ca8db44ac520", "is_reserved": 0}, {"is_disabled": 0, "fusion_lon": 0.0, "fusion_lat": 0.0, "lat": 38.9179725, "type": "electric_scooter", "lon": -77.02711616666667, "bike_id": "9cedae47454bbbe409c0c3c4ddde4a1f", "rental_uris": {"android": "https://dc.lft.to/lastmile_qr_scan", "ios": "https://dc.lft.to/lastmile_qr_scan"}, "name": "9cedae47454bbbe409c0c3c4ddde4a1f", "is_reserved": 0}, {"is_disabled": 0, "fusion_lon": 0.0, "fusion_lat": 0.0, "lat": 38.8788025, "type": "electric_scooter", "lon": -77.02325416666666, "bike_id": "186fe3e16e7ff06f9d734b67bdde677d", "rental_uris": {"android": "https://dc.lft.to/lastmile_qr_scan", "ios": "https://dc.lft.to/lastmile_qr_scan"}, "name": "186fe3e16e7ff06f9d734b67bdde677d", "is_reserved": 0}, {"is_disabled": 0, "fusion_lon": 0.0, "fusion_lat": 0.0, "lat": 38.912745, "type": "electric_scooter", "lon": -77.03720483333333, "bike_id": "a128c2372112e35a38ecd5a1cb811044", "rental_uris": {"android": "https://dc.lft.to/lastmile_qr_scan", "ios": "https://dc.lft.to/lastmile_qr_scan"}, "name": "a128c2372112e35a38ecd5a1cb811044", "is_reserved": 0}, {"is_disabled": 0, "fusion_lon": 0.0, "fusion_lat": 0.0, "lat": 39.00013366666666, "type": "electric_bike", "lon": -76.8728905, "bike_id": "9e3be9801dabe3b97f3de623f2815030", "rental_uris": {"android": "https://dc.lft.to/lastmile_qr_scan", "ios": "https://dc.lft.to/lastmile_qr_scan"}, "name": "9e3be9801dabe3b97f3de623f2815030", "is_reserved": 0}, {"is_disabled": 0, "fusion_lon": 0.0, "fusion_lat": 0.0, "lat": 38.909754, "type": "electric_scooter", "lon": -77.03396, "bike_id": "221595c1a13f8de1b37a91facb3beb4f", "rental_uris": {"android": "https://dc.lft.to/lastmile_qr_scan", "ios": "https://dc.lft.to/lastmile_qr_scan"}, "name": "221595c1a13f8de1b37a91facb3beb4f", "is_reserved": 0}, {"is_disabled": 0, "fusion_lon": 0.0, "fusion_lat": 0.0, "lat": 38.9041205, "type": "electric_scooter", "lon": -77.0221435, "bike_id": "0ad3e11d6d3c059b680a5b9d21343a3d", "rental_uris": {"android": "https://dc.lft.to/lastmile_qr_scan", "ios": "https://dc.lft.to/lastmile_qr_scan"}, "name": "0ad3e11d6d3c059b680a5b9d21343a3d", "is_reserved": 0}, {"is_disabled": 0, "fusion_lon": 0.0, "fusion_lat": 0.0, "lat": 38.909636, "type": "electric_scooter", "lon": -77.01105833333334, "bike_id": "dceb6748e00491f52def1fc29047f7c4", "rental_uris": {"android": "https://dc.lft.to/lastmile_qr_scan", "ios": "https://dc.lft.to/lastmile_qr_scan"}, "name": "dceb6748e00491f52def1fc29047f7c4", "is_reserved": 0}, {"is_disabled": 0, "fusion_lon": 0.0, "fusion_lat": 0.0, "lat": 38.828680166666665, "type": "electric_bike", "lon": -77.112263, "bike_id": "ab0313855102504af19a8a519820505f", "rental_uris": {"android": "https://dc.lft.to/lastmile_qr_scan", "ios": "https://dc.lft.to/lastmile_qr_scan"}, "name": "ab0313855102504af19a8a519820505f", "is_reserved": 0}, {"is_disabled": 0, "fusion_lon": 0.0, "fusion_lat": 0.0, "lat": 38.90548116666667, "type": "electric_scooter", "lon": -76.98145066666666, "bike_id": "2c1fb3435a266e197d153f2378b05f51", "rental_uris": {"android": "https://dc.lft.to/lastmile_qr_scan", "ios": "https://dc.lft.to/lastmile_qr_scan"}, "name": "2c1fb3435a266e197d153f2378b05f51", "is_reserved": 0}, {"is_disabled": 0, "fusion_lon": 0.0, "fusion_lat": 0.0, "lat": 38.909677, "type": "electric_scooter", "lon": -77.03254066666666, "bike_id": "4c6d3af59a507f06c38f16f7570243be", "rental_uris": {"android": "https://dc.lft.to/lastmile_qr_scan", "ios": "https://dc.lft.to/lastmile_qr_scan"}, "name": "4c6d3af59a507f06c38f16f7570243be", "is_reserved": 0}, {"is_disabled": 0, "fusion_lon": 0.0, "fusion_lat": 0.0, "lat": 38.912268833333336, "type": "electric_scooter", "lon": -77.04894866666666, "bike_id": "3a237c8a78082568deb2881958123faa", "rental_uris": {"android": "https://dc.lft.to/lastmile_qr_scan", "ios": "https://dc.lft.to/lastmile_qr_scan"}, "name": "3a237c8a78082568deb2881958123faa", "is_reserved": 0}, {"is_disabled": 0, "fusion_lon": 0.0, "fusion_lat": 0.0, "lat": 38.893863833333334, "type": "electric_scooter", "lon": -76.94992216666667, "bike_id": "18896a2f9fde793b3f5e3ae517b1b6b6", "rental_uris": {"android": "https://dc.lft.to/lastmile_qr_scan", "ios": "https://dc.lft.to/lastmile_qr_scan"}, "name": "18896a2f9fde793b3f5e3ae517b1b6b6", "is_reserved": 0}, {"is_disabled": 0, "fusion_lon": 0.0, "fusion_lat": 0.0, "lat": 38.88743266666667, "type": "electric_scooter", "lon": -77.01433, "bike_id": "f49febd519cb3c2a8effabafc2928855", "rental_uris": {"android": "https://dc.lft.to/lastmile_qr_scan", "ios": "https://dc.lft.to/lastmile_qr_scan"}, "name": "f49febd519cb3c2a8effabafc2928855", "is_reserved": 0}, {"is_disabled": 0, "fusion_lon": 0.0, "fusion_lat": 0.0, "lat": 38.88134133333333, "type": "electric_scooter", "lon": -77.02709533333334, "bike_id": "3767cc4fae3630e3fc576248d0c07695", "rental_uris": {"android": "https://dc.lft.to/lastmile_qr_scan", "ios": "https://dc.lft.to/lastmile_qr_scan"}, "name": "3767cc4fae3630e3fc576248d0c07695", "is_reserved": 0}, {"is_disabled": 0, "fusion_lon": 0.0, "fusion_lat": 0.0, "lat": 38.94598366666666, "type": "electric_bike", "lon": -77.34411933333334, "bike_id": "6d4056fb9e94a09d59d114ada0a6e59d", "rental_uris": {"android": "https://dc.lft.to/lastmile_qr_scan", "ios": "https://dc.lft.to/lastmile_qr_scan"}, "name": "6d4056fb9e94a09d59d114ada0a6e59d", "is_reserved": 0}, {"is_disabled": 0, "fusion_lon": 0.0, "fusion_lat": 0.0, "lat": 38.87752183333333, "type": "electric_scooter", "lon": -77.00588966666666, "bike_id": "9f6eb4f967ef1fcbb1feb276afe182af", "rental_uris": {"android": "https://dc.lft.to/lastmile_qr_scan", "ios": "https://dc.lft.to/lastmile_qr_scan"}, "name": "9f6eb4f967ef1fcbb1feb276afe182af", "is_reserved": 0}, {"is_disabled": 0, "fusion_lon": 0.0, "fusion_lat": 0.0, "lat": 39.05451033333333, "type": "electric_bike", "lon": -77.143257, "bike_id": "a65663bfc674af23e806ee374896cc75", "rental_uris": {"android": "https://dc.lft.to/lastmile_qr_scan", "ios": "https://dc.lft.to/lastmile_qr_scan"}, "name": "a65663bfc674af23e806ee374896cc75", "is_reserved": 0}, {"is_disabled": 0, "fusion_lon": 0.0, "fusion_lat": 0.0, "lat": 38.8844225, "type": "electric_scooter", "lon": -77.02966916666666, "bike_id": "d5abddbd03b943da444c5b3183ce511f", "rental_uris": {"android": "https://dc.lft.to/lastmile_qr_scan", "ios": "https://dc.lft.to/lastmile_qr_scan"}, "name": "d5abddbd03b943da444c5b3183ce511f", "is_reserved": 0}, {"is_disabled": 0, "fusion_lon": 0.0, "fusion_lat": 0.0, "lat": 38.894904, "type": "electric_scooter", "lon": -77.00951583333334, "bike_id": "9a2644e970534ba630a22fcd5fb48e00", "rental_uris": {"android": "https://dc.lft.to/lastmile_qr_scan", "ios": "https://dc.lft.to/lastmile_qr_scan"}, "name": "9a2644e970534ba630a22fcd5fb48e00", "is_reserved": 0}, {"is_disabled": 0, "fusion_lon": 0.0, "fusion_lat": 0.0, "lat": 38.9197045, "type": "electric_scooter", "lon": -77.0002445, "bike_id": "2ba6c6bee932d57279ec0da8ef8c5a1b", "rental_uris": {"android": "https://dc.lft.to/lastmile_qr_scan", "ios": "https://dc.lft.to/lastmile_qr_scan"}, "name": "2ba6c6bee932d57279ec0da8ef8c5a1b", "is_reserved": 0}, {"is_disabled": 0, "fusion_lon": 0.0, "fusion_lat": 0.0, "lat": 38.91412916666667, "type": "electric_scooter", "lon": -77.04178816666666, "bike_id": "e8a4e7c18c2b600da5a373a3de2cf5cf", "rental_uris": {"android": "https://dc.lft.to/lastmile_qr_scan", "ios": "https://dc.lft.to/lastmile_qr_scan"}, "name": "e8a4e7c18c2b600da5a373a3de2cf5cf", "is_reserved": 0}, {"is_disabled": 0, "fusion_lon": 0.0, "fusion_lat": 0.0, "lat": 38.9308785, "type": "electric_scooter", "lon": -77.02549466666666, "bike_id": "72b1be5061791d76b8d943bb456f5329", "rental_uris": {"android": "https://dc.lft.to/lastmile_qr_scan", "ios": "https://dc.lft.to/lastmile_qr_scan"}, "name": "72b1be5061791d76b8d943bb456f5329", "is_reserved": 0}, {"is_disabled": 0, "fusion_lon": 0.0, "fusion_lat": 0.0, "lat": 38.9999535, "type": "electric_bike", "lon": -76.91808666666667, "bike_id": "07235cb96777513cc986ea95d582bc0f", "rental_uris": {"android": "https://dc.lft.to/lastmile_qr_scan", "ios": "https://dc.lft.to/lastmile_qr_scan"}, "name": "07235cb96777513cc986ea95d582bc0f", "is_reserved": 0}, {"is_disabled": 0, "fusion_lon": 0.0, "fusion_lat": 0.0, "lat": 38.941921, "type": "electric_scooter", "lon": -77.02577466666666, "bike_id": "8a0dae3c8cf52132da2b8f80fcc0f8c1", "rental_uris": {"android": "https://dc.lft.to/lastmile_qr_scan", "ios": "https://dc.lft.to/lastmile_qr_scan"}, "name": "8a0dae3c8cf52132da2b8f80fcc0f8c1", "is_reserved": 0}, {"is_disabled": 0, "fusion_lon": 0.0, "fusion_lat": 0.0, "lat": 38.900405666666664, "type": "electric_scooter", "lon": -77.0433035, "bike_id": "e6355db8a3c91721a3326f85b526f23d", "rental_uris": {"android": "https://dc.lft.to/lastmile_qr_scan", "ios": "https://dc.lft.to/lastmile_qr_scan"}, "name": "e6355db8a3c91721a3326f85b526f23d", "is_reserved": 0}, {"is_disabled": 0, "fusion_lon": 0.0, "fusion_lat": 0.0, "lat": 38.9084065, "type": "electric_scooter", "lon": -77.026956, "bike_id": "299490065153efd73d2abfb6ff42e1c6", "rental_uris": {"android": "https://dc.lft.to/lastmile_qr_scan", "ios": "https://dc.lft.to/lastmile_qr_scan"}, "name": "299490065153efd73d2abfb6ff42e1c6", "is_reserved": 0}, {"is_disabled": 0, "fusion_lon": 0.0, "fusion_lat": 0.0, "lat": 38.933151, "type": "electric_scooter", "lon": -77.0293665, "bike_id": "2ad899dceb05eede2aae5a711bbea2e5", "rental_uris": {"android": "https://dc.lft.to/lastmile_qr_scan", "ios": "https://dc.lft.to/lastmile_qr_scan"}, "name": "2ad899dceb05eede2aae5a711bbea2e5", "is_reserved": 0}, {"is_disabled": 0, "fusion_lon": 0.0, "fusion_lat": 0.0, "lat": 38.96827716666667, "type": "electric_scooter", "lon": -77.01518583333333, "bike_id": "06ee73c8de0c3a998bfb4de07e0b16c7", "rental_uris": {"android": "https://dc.lft.to/lastmile_qr_scan", "ios": "https://dc.lft.to/lastmile_qr_scan"}, "name": "06ee73c8de0c3a998bfb4de07e0b16c7", "is_reserved": 0}, {"is_disabled": 0, "fusion_lon": 0.0, "fusion_lat": 0.0, "lat": 38.913927, "type": "electric_scooter", "lon": -77.00050416666667, "bike_id": "c518ad5f2e2c83d2b1baf0c673722593", "rental_uris": {"android": "https://dc.lft.to/lastmile_qr_scan", "ios": "https://dc.lft.to/lastmile_qr_scan"}, "name": "c518ad5f2e2c83d2b1baf0c673722593", "is_reserved": 0}, {"is_disabled": 0, "fusion_lon": 0.0, "fusion_lat": 0.0, "lat": 38.9352865, "type": "electric_scooter", "lon": -77.02070466666666, "bike_id": "d71b4510408b5a1ff6a78987c225db91", "rental_uris": {"android": "https://dc.lft.to/lastmile_qr_scan", "ios": "https://dc.lft.to/lastmile_qr_scan"}, "name": "d71b4510408b5a1ff6a78987c225db91", "is_reserved": 0}, {"is_disabled": 0, "fusion_lon": 0.0, "fusion_lat": 0.0, "lat": 38.897254833333335, "type": "electric_scooter", "lon": -77.02695, "bike_id": "3815948cb1465f410dfacc6af1b1312a", "rental_uris": {"android": "https://dc.lft.to/lastmile_qr_scan", "ios": "https://dc.lft.to/lastmile_qr_scan"}, "name": "3815948cb1465f410dfacc6af1b1312a", "is_reserved": 0}, {"is_disabled": 0, "fusion_lon": 0.0, "fusion_lat": 0.0, "lat": 38.914042333333335, "type": "electric_scooter", "lon": -77.00805816666667, "bike_id": "7c5752b231483c151b20f61ec87d19d2", "rental_uris": {"android": "https://dc.lft.to/lastmile_qr_scan", "ios": "https://dc.lft.to/lastmile_qr_scan"}, "name": "7c5752b231483c151b20f61ec87d19d2", "is_reserved": 0}, {"is_disabled": 0, "fusion_lon": 0.0, "fusion_lat": 0.0, "lat": 38.909653666666664, "type": "electric_scooter", "lon": -77.04492716666667, "bike_id": "d6cd9d042e089a6a818b4aebe3029aab", "rental_uris": {"android": "https://dc.lft.to/lastmile_qr_scan", "ios": "https://dc.lft.to/lastmile_qr_scan"}, "name": "d6cd9d042e089a6a818b4aebe3029aab", "is_reserved": 0}, {"is_disabled": 0, "fusion_lon": 0.0, "fusion_lat": 0.0, "lat": 38.908733166666664, "type": "electric_scooter", "lon": -77.076375, "bike_id": "c971cb3b154313b5cab5d2cd7bc307da", "rental_uris": {"android": "https://dc.lft.to/lastmile_qr_scan", "ios": "https://dc.lft.to/lastmile_qr_scan"}, "name": "c971cb3b154313b5cab5d2cd7bc307da", "is_reserved": 0}, {"is_disabled": 0, "fusion_lon": 0.0, "fusion_lat": 0.0, "lat": 38.925564333333334, "type": "electric_scooter", "lon": -77.04155466666667, "bike_id": "b2da43799915a744ef4b62b4d16e4939", "rental_uris": {"android": "https://dc.lft.to/lastmile_qr_scan", "ios": "https://dc.lft.to/lastmile_qr_scan"}, "name": "b2da43799915a744ef4b62b4d16e4939", "is_reserved": 0}, {"is_disabled": 0, "fusion_lon": 0.0, "fusion_lat": 0.0, "lat": 38.92462783333333, "type": "electric_scooter", "lon": -77.0282805, "bike_id": "40bfb51fbe7eb582a28d8b76d9196298", "rental_uris": {"android": "https://dc.lft.to/lastmile_qr_scan", "ios": "https://dc.lft.to/lastmile_qr_scan"}, "name": "40bfb51fbe7eb582a28d8b76d9196298", "is_reserved": 0}, {"is_disabled": 0, "fusion_lon": 0.0, "fusion_lat": 0.0, "lat": 38.918294, "type": "electric_scooter", "lon": -77.02423166666667, "bike_id": "33b370ffa67e05de55c29b0444576415", "rental_uris": {"android": "https://dc.lft.to/lastmile_qr_scan", "ios": "https://dc.lft.to/lastmile_qr_scan"}, "name": "33b370ffa67e05de55c29b0444576415", "is_reserved": 0}, {"is_disabled": 0, "fusion_lon": 0.0, "fusion_lat": 0.0, "lat": 38.930653666666664, "type": "electric_scooter", "lon": -77.03403233333333, "bike_id": "5f24875ec1d6f286bf22a7361225dd6b", "rental_uris": {"android": "https://dc.lft.to/lastmile_qr_scan", "ios": "https://dc.lft.to/lastmile_qr_scan"}, "name": "5f24875ec1d6f286bf22a7361225dd6b", "is_reserved": 0}, {"is_disabled": 0, "fusion_lon": 0.0, "fusion_lat": 0.0, "lat": 38.960139833333336, "type": "electric_scooter", "lon": -77.03314233333333, "bike_id": "df271797773521fe0e84ff335be1096f", "rental_uris": {"android": "https://dc.lft.to/lastmile_qr_scan", "ios": "https://dc.lft.to/lastmile_qr_scan"}, "name": "df271797773521fe0e84ff335be1096f", "is_reserved": 0}, {"is_disabled": 0, "fusion_lon": 0.0, "fusion_lat": 0.0, "lat": 38.903259166666665, "type": "electric_scooter", "lon": -76.98012683333333, "bike_id": "1cf39ce39b4e6342b3962b425f6a33d9", "rental_uris": {"android": "https://dc.lft.to/lastmile_qr_scan", "ios": "https://dc.lft.to/lastmile_qr_scan"}, "name": "1cf39ce39b4e6342b3962b425f6a33d9", "is_reserved": 0}, {"is_disabled": 0, "fusion_lon": 0.0, "fusion_lat": 0.0, "lat": 38.91754683333333, "type": "electric_scooter", "lon": -77.0150385, "bike_id": "8e59add166c7c1280393f73f6ee089d0", "rental_uris": {"android": "https://dc.lft.to/lastmile_qr_scan", "ios": "https://dc.lft.to/lastmile_qr_scan"}, "name": "8e59add166c7c1280393f73f6ee089d0", "is_reserved": 0}, {"is_disabled": 0, "fusion_lon": 0.0, "fusion_lat": 0.0, "lat": 38.865173166666665, "type": "electric_scooter", "lon": -76.9896615, "bike_id": "9465e978660fe93e4e2eaf3c5c4cc1fd", "rental_uris": {"android": "https://dc.lft.to/lastmile_qr_scan", "ios": "https://dc.lft.to/lastmile_qr_scan"}, "name": "9465e978660fe93e4e2eaf3c5c4cc1fd", "is_reserved": 0}, {"is_disabled": 0, "fusion_lon": 0.0, "fusion_lat": 0.0, "lat": 38.84618283333333, "type": "electric_scooter", "lon": -76.996285, "bike_id": "dff9af041b0190a09582513331e66adc", "rental_uris": {"android": "https://dc.lft.to/lastmile_qr_scan", "ios": "https://dc.lft.to/lastmile_qr_scan"}, "name": "dff9af041b0190a09582513331e66adc", "is_reserved": 0}, {"is_disabled": 0, "fusion_lon": 0.0, "fusion_lat": 0.0, "lat": 38.916934, "type": "electric_scooter", "lon": -77.02659233333334, "bike_id": "2755504c48ceead7e04616cd8c8cdaad", "rental_uris": {"android": "https://dc.lft.to/lastmile_qr_scan", "ios": "https://dc.lft.to/lastmile_qr_scan"}, "name": "2755504c48ceead7e04616cd8c8cdaad", "is_reserved": 0}, {"is_disabled": 0, "fusion_lon": 0.0, "fusion_lat": 0.0, "lat": 38.9138055, "type": "electric_scooter", "lon": -77.02978083333333, "bike_id": "86c0003f2dbaf6d864d002a5f668d10f", "rental_uris": {"android": "https://dc.lft.to/lastmile_qr_scan", "ios": "https://dc.lft.to/lastmile_qr_scan"}, "name": "86c0003f2dbaf6d864d002a5f668d10f", "is_reserved": 0}, {"is_disabled": 0, "fusion_lon": 0.0, "fusion_lat": 0.0, "lat": 38.908247833333334, "type": "electric_scooter", "lon": -77.03342166666667, "bike_id": "87de5d97db38186de8180c17125150b6", "rental_uris": {"android": "https://dc.lft.to/lastmile_qr_scan", "ios": "https://dc.lft.to/lastmile_qr_scan"}, "name": "87de5d97db38186de8180c17125150b6", "is_reserved": 0}, {"is_disabled": 0, "fusion_lon": 0.0, "fusion_lat": 0.0, "lat": 38.927052333333336, "type": "electric_scooter", "lon": -76.9721005, "bike_id": "36e5f8cd6723fd7d893e95bd7c46ed07", "rental_uris": {"android": "https://dc.lft.to/lastmile_qr_scan", "ios": "https://dc.lft.to/lastmile_qr_scan"}, "name": "36e5f8cd6723fd7d893e95bd7c46ed07", "is_reserved": 0}, {"is_disabled": 0, "fusion_lon": 0.0, "fusion_lat": 0.0, "lat": 38.831693666666666, "type": "electric_bike", "lon": -76.99755166666667, "bike_id": "179bf0b251b88d32705950a70ebbb9c6", "rental_uris": {"android": "https://dc.lft.to/lastmile_qr_scan", "ios": "https://dc.lft.to/lastmile_qr_scan"}, "name": "179bf0b251b88d32705950a70ebbb9c6", "is_reserved": 0}, {"is_disabled": 0, "fusion_lon": 0.0, "fusion_lat": 0.0, "lat": 38.9064915, "type": "electric_scooter", "lon": -77.0253565, "bike_id": "132bf793f721c949a1e6b793d82e5020", "rental_uris": {"android": "https://dc.lft.to/lastmile_qr_scan", "ios": "https://dc.lft.to/lastmile_qr_scan"}, "name": "132bf793f721c949a1e6b793d82e5020", "is_reserved": 0}, {"is_disabled": 0, "fusion_lon": 0.0, "fusion_lat": 0.0, "lat": 38.90375366666667, "type": "electric_scooter", "lon": -77.0346575, "bike_id": "a7892dff0ac4374abf853502698b1a6a", "rental_uris": {"android": "https://dc.lft.to/lastmile_qr_scan", "ios": "https://dc.lft.to/lastmile_qr_scan"}, "name": "a7892dff0ac4374abf853502698b1a6a", "is_reserved": 0}, {"is_disabled": 0, "fusion_lon": 0.0, "fusion_lat": 0.0, "lat": 38.90986516666667, "type": "electric_scooter", "lon": -77.02198316666667, "bike_id": "9c6a4502cb5daa4340a4e32412b814b5", "rental_uris": {"android": "https://dc.lft.to/lastmile_qr_scan", "ios": "https://dc.lft.to/lastmile_qr_scan"}, "name": "9c6a4502cb5daa4340a4e32412b814b5", "is_reserved": 0}, {"is_disabled": 0, "fusion_lon": 0.0, "fusion_lat": 0.0, "lat": 38.929424, "type": "electric_scooter", "lon": -77.03279683333334, "bike_id": "ef2b281d07551aa423af4241c1493029", "rental_uris": {"android": "https://dc.lft.to/lastmile_qr_scan", "ios": "https://dc.lft.to/lastmile_qr_scan"}, "name": "ef2b281d07551aa423af4241c1493029", "is_reserved": 0}, {"is_disabled": 0, "fusion_lon": 0.0, "fusion_lat": 0.0, "lat": 38.96261233333333, "type": "electric_scooter", "lon": -77.02768683333333, "bike_id": "c8a2724227d1f2e8e267e41be02b5839", "rental_uris": {"android": "https://dc.lft.to/lastmile_qr_scan", "ios": "https://dc.lft.to/lastmile_qr_scan"}, "name": "c8a2724227d1f2e8e267e41be02b5839", "is_reserved": 0}, {"is_disabled": 0, "fusion_lon": 0.0, "fusion_lat": 0.0, "lat": 38.88347433333333, "type": "electric_scooter", "lon": -76.92788933333334, "bike_id": "f9c1fdbfe85cd99530b7bb6477c3ad05", "rental_uris": {"android": "https://dc.lft.to/lastmile_qr_scan", "ios": "https://dc.lft.to/lastmile_qr_scan"}, "name": "f9c1fdbfe85cd99530b7bb6477c3ad05", "is_reserved": 0}, {"is_disabled": 0, "fusion_lon": 0.0, "fusion_lat": 0.0, "lat": 38.89257766666667, "type": "electric_scooter", "lon": -76.94158333333333, "bike_id": "35c520be276cf097e8a44618b250da21", "rental_uris": {"android": "https://dc.lft.to/lastmile_qr_scan", "ios": "https://dc.lft.to/lastmile_qr_scan"}, "name": "35c520be276cf097e8a44618b250da21", "is_reserved": 0}, {"is_disabled": 0, "fusion_lon": 0.0, "fusion_lat": 0.0, "lat": 38.931807, "type": "electric_bike", "lon": -77.22940533333333, "bike_id": "4fe82873d46a1d61958d528ff35a6ba6", "rental_uris": {"android": "https://dc.lft.to/lastmile_qr_scan", "ios": "https://dc.lft.to/lastmile_qr_scan"}, "name": "4fe82873d46a1d61958d528ff35a6ba6", "is_reserved": 0}, {"is_disabled": 0, "fusion_lon": 0.0, "fusion_lat": 0.0, "lat": 38.89663933333333, "type": "electric_scooter", "lon": -77.0269755, "bike_id": "9176946844a4290ca54e755ca321d6f8", "rental_uris": {"android": "https://dc.lft.to/lastmile_qr_scan", "ios": "https://dc.lft.to/lastmile_qr_scan"}, "name": "9176946844a4290ca54e755ca321d6f8", "is_reserved": 0}, {"is_disabled": 0, "fusion_lon": 0.0, "fusion_lat": 0.0, "lat": 38.992505666666666, "type": "electric_bike", "lon": -77.049983, "bike_id": "b1dbe65b0f73e1e70f7d0140c0aea249", "rental_uris": {"android": "https://dc.lft.to/lastmile_qr_scan", "ios": "https://dc.lft.to/lastmile_qr_scan"}, "name": "b1dbe65b0f73e1e70f7d0140c0aea249", "is_reserved": 0}, {"is_disabled": 0, "fusion_lon": 0.0, "fusion_lat": 0.0, "lat": 38.913343833333336, "type": "electric_scooter", "lon": -77.0400555, "bike_id": "f864bdd123076ff116039d8f52a6e4cc", "rental_uris": {"android": "https://dc.lft.to/lastmile_qr_scan", "ios": "https://dc.lft.to/lastmile_qr_scan"}, "name": "f864bdd123076ff116039d8f52a6e4cc", "is_reserved": 0}, {"is_disabled": 0, "fusion_lon": 0.0, "fusion_lat": 0.0, "lat": 38.95077766666667, "type": "electric_scooter", "lon": -77.02872566666667, "bike_id": "2e7764097adf8af51b2320906f3eb911", "rental_uris": {"android": "https://dc.lft.to/lastmile_qr_scan", "ios": "https://dc.lft.to/lastmile_qr_scan"}, "name": "2e7764097adf8af51b2320906f3eb911", "is_reserved": 0}, {"is_disabled": 0, "fusion_lon": 0.0, "fusion_lat": 0.0, "lat": 38.90517966666667, "type": "electric_scooter", "lon": -77.0481555, "bike_id": "5af4b0bf722a898b5d9a252fae747f52", "rental_uris": {"android": "https://dc.lft.to/lastmile_qr_scan", "ios": "https://dc.lft.to/lastmile_qr_scan"}, "name": "5af4b0bf722a898b5d9a252fae747f52", "is_reserved": 0}, {"is_disabled": 0, "fusion_lon": 0.0, "fusion_lat": 0.0, "lat": 38.917611666666666, "type": "electric_scooter", "lon": -77.03617633333333, "bike_id": "31b8afaf778f372d7353d397c8bdaece", "rental_uris": {"android": "https://dc.lft.to/lastmile_qr_scan", "ios": "https://dc.lft.to/lastmile_qr_scan"}, "name": "31b8afaf778f372d7353d397c8bdaece", "is_reserved": 0}, {"is_disabled": 0, "fusion_lon": 0.0, "fusion_lat": 0.0, "lat": 38.89621066666667, "type": "electric_scooter", "lon": -76.95640216666666, "bike_id": "aca38ff43d336bc8e002eb8ccabf51cc", "rental_uris": {"android": "https://dc.lft.to/lastmile_qr_scan", "ios": "https://dc.lft.to/lastmile_qr_scan"}, "name": "aca38ff43d336bc8e002eb8ccabf51cc", "is_reserved": 0}, {"is_disabled": 0, "fusion_lon": 0.0, "fusion_lat": 0.0, "lat": 38.8837315, "type": "electric_scooter", "lon": -76.926484, "bike_id": "983216688bfaf0175517ae137ce8c35b", "rental_uris": {"android": "https://dc.lft.to/lastmile_qr_scan", "ios": "https://dc.lft.to/lastmile_qr_scan"}, "name": "983216688bfaf0175517ae137ce8c35b", "is_reserved": 0}, {"is_disabled": 0, "fusion_lon": 0.0, "fusion_lat": 0.0, "lat": 38.90247333333333, "type": "electric_scooter", "lon": -77.02203466666667, "bike_id": "efd3898a05f5d71a74eceb3d0d4db889", "rental_uris": {"android": "https://dc.lft.to/lastmile_qr_scan", "ios": "https://dc.lft.to/lastmile_qr_scan"}, "name": "efd3898a05f5d71a74eceb3d0d4db889", "is_reserved": 0}, {"is_disabled": 0, "fusion_lon": 0.0, "fusion_lat": 0.0, "lat": 39.0065065, "type": "electric_bike", "lon": -76.90031483333334, "bike_id": "9e2ede2900c1e1f70ed5902a1d6441c8", "rental_uris": {"android": "https://dc.lft.to/lastmile_qr_scan", "ios": "https://dc.lft.to/lastmile_qr_scan"}, "name": "9e2ede2900c1e1f70ed5902a1d6441c8", "is_reserved": 0}, {"is_disabled": 0, "fusion_lon": 0.0, "fusion_lat": 0.0, "lat": 38.918758833333335, "type": "electric_scooter", "lon": -77.0159585, "bike_id": "1938b401bc641f62119b13b967e7d044", "rental_uris": {"android": "https://dc.lft.to/lastmile_qr_scan", "ios": "https://dc.lft.to/lastmile_qr_scan"}, "name": "1938b401bc641f62119b13b967e7d044", "is_reserved": 0}, {"is_disabled": 0, "fusion_lon": 0.0, "fusion_lat": 0.0, "lat": 38.9037695, "type": "electric_scooter", "lon": -77.04116616666667, "bike_id": "e546da1d3b251b61c9dcc70c242c60cf", "rental_uris": {"android": "https://dc.lft.to/lastmile_qr_scan", "ios": "https://dc.lft.to/lastmile_qr_scan"}, "name": "e546da1d3b251b61c9dcc70c242c60cf", "is_reserved": 0}, {"is_disabled": 0, "fusion_lon": 0.0, "fusion_lat": 0.0, "lat": 38.83428216666667, "type": "electric_bike", "lon": -77.10353983333333, "bike_id": "ad90c626886410e1c07cba538ff2068b", "rental_uris": {"android": "https://dc.lft.to/lastmile_qr_scan", "ios": "https://dc.lft.to/lastmile_qr_scan"}, "name": "ad90c626886410e1c07cba538ff2068b", "is_reserved": 0}, {"is_disabled": 0, "fusion_lon": 0.0, "fusion_lat": 0.0, "lat": 38.873702333333334, "type": "electric_scooter", "lon": -77.00101866666667, "bike_id": "2c4e68e04323913939f25d8665d5d599", "rental_uris": {"android": "https://dc.lft.to/lastmile_qr_scan", "ios": "https://dc.lft.to/lastmile_qr_scan"}, "name": "2c4e68e04323913939f25d8665d5d599", "is_reserved": 0}, {"is_disabled": 0, "fusion_lon": 0.0, "fusion_lat": 0.0, "lat": 38.906409833333335, "type": "electric_scooter", "lon": -77.0454125, "bike_id": "282529f55bb728f1b52144f6351e2876", "rental_uris": {"android": "https://dc.lft.to/lastmile_qr_scan", "ios": "https://dc.lft.to/lastmile_qr_scan"}, "name": "282529f55bb728f1b52144f6351e2876", "is_reserved": 0}, {"is_disabled": 0, "fusion_lon": 0.0, "fusion_lat": 0.0, "lat": 38.916861, "type": "electric_bike", "lon": -77.09168016666666, "bike_id": "468f2b06c1c2d44c72728c0460b155e5", "rental_uris": {"android": "https://dc.lft.to/lastmile_qr_scan", "ios": "https://dc.lft.to/lastmile_qr_scan"}, "name": "468f2b06c1c2d44c72728c0460b155e5", "is_reserved": 0}, {"is_disabled": 0, "fusion_lon": 0.0, "fusion_lat": 0.0, "lat": 38.905161, "type": "electric_scooter", "lon": -76.98251083333334, "bike_id": "14577f6714f6ff5f2da6fba344591d8b", "rental_uris": {"android": "https://dc.lft.to/lastmile_qr_scan", "ios": "https://dc.lft.to/lastmile_qr_scan"}, "name": "14577f6714f6ff5f2da6fba344591d8b", "is_reserved": 0}, {"is_disabled": 0, "fusion_lon": 0.0, "fusion_lat": 0.0, "lat": 38.906447666666665, "type": "electric_bike", "lon": -77.05334983333333, "bike_id": "b38b1fdf615481c5269fd29451d922a1", "rental_uris": {"android": "https://dc.lft.to/lastmile_qr_scan", "ios": "https://dc.lft.to/lastmile_qr_scan"}, "name": "b38b1fdf615481c5269fd29451d922a1", "is_reserved": 0}, {"is_disabled": 0, "fusion_lon": 0.0, "fusion_lat": 0.0, "lat": 38.9166665, "type": "electric_scooter", "lon": -77.02334216666667, "bike_id": "a118831902a33b61ea74ac721421c790", "rental_uris": {"android": "https://dc.lft.to/lastmile_qr_scan", "ios": "https://dc.lft.to/lastmile_qr_scan"}, "name": "a118831902a33b61ea74ac721421c790", "is_reserved": 0}, {"is_disabled": 0, "fusion_lon": 0.0, "fusion_lat": 0.0, "lat": 39.0078565, "type": "electric_bike", "lon": -76.9956835, "bike_id": "37d4faabf21fc1a4a90854f4dbcf20c3", "rental_uris": {"android": "https://dc.lft.to/lastmile_qr_scan", "ios": "https://dc.lft.to/lastmile_qr_scan"}, "name": "37d4faabf21fc1a4a90854f4dbcf20c3", "is_reserved": 0}, {"is_disabled": 0, "fusion_lon": 0.0, "fusion_lat": 0.0, "lat": 38.92205883333333, "type": "electric_scooter", "lon": -77.039088, "bike_id": "39d4a6dba20aae053509b6db425590ef", "rental_uris": {"android": "https://dc.lft.to/lastmile_qr_scan", "ios": "https://dc.lft.to/lastmile_qr_scan"}, "name": "39d4a6dba20aae053509b6db425590ef", "is_reserved": 0}, {"is_disabled": 0, "fusion_lon": 0.0, "fusion_lat": 0.0, "lat": 38.93385766666667, "type": "electric_scooter", "lon": -77.04554983333334, "bike_id": "468812e91bb241d9d7d067b16dbd7b14", "rental_uris": {"android": "https://dc.lft.to/lastmile_qr_scan", "ios": "https://dc.lft.to/lastmile_qr_scan"}, "name": "468812e91bb241d9d7d067b16dbd7b14", "is_reserved": 0}, {"is_disabled": 0, "fusion_lon": 0.0, "fusion_lat": 0.0, "lat": 38.8766705, "type": "electric_scooter", "lon": -76.931933, "bike_id": "62b2f28aa1ee305b076609ff76336c0d", "rental_uris": {"android": "https://dc.lft.to/lastmile_qr_scan", "ios": "https://dc.lft.to/lastmile_qr_scan"}, "name": "62b2f28aa1ee305b076609ff76336c0d", "is_reserved": 0}, {"is_disabled": 0, "fusion_lon": 0.0, "fusion_lat": 0.0, "lat": 38.912693166666664, "type": "electric_scooter", "lon": -77.03141283333333, "bike_id": "d71eaa8eabd62cda430588057bc99554", "rental_uris": {"android": "https://dc.lft.to/lastmile_qr_scan", "ios": "https://dc.lft.to/lastmile_qr_scan"}, "name": "d71eaa8eabd62cda430588057bc99554", "is_reserved": 0}, {"is_disabled": 0, "fusion_lon": 0.0, "fusion_lat": 0.0, "lat": 38.90007816666667, "type": "electric_scooter", "lon": -77.023973, "bike_id": "b5e15bb9c8a71adcb070f013a43de8ab", "rental_uris": {"android": "https://dc.lft.to/lastmile_qr_scan", "ios": "https://dc.lft.to/lastmile_qr_scan"}, "name": "b5e15bb9c8a71adcb070f013a43de8ab", "is_reserved": 0}, {"is_disabled": 0, "fusion_lon": 0.0, "fusion_lat": 0.0, "lat": 38.878223, "type": "electric_scooter", "lon": -76.96317466666666, "bike_id": "636dcc4439c3faa62e8d6061e2dae961", "rental_uris": {"android": "https://dc.lft.to/lastmile_qr_scan", "ios": "https://dc.lft.to/lastmile_qr_scan"}, "name": "636dcc4439c3faa62e8d6061e2dae961", "is_reserved": 0}, {"is_disabled": 0, "fusion_lon": 0.0, "fusion_lat": 0.0, "lat": 38.91233783333333, "type": "electric_scooter", "lon": -77.044753, "bike_id": "ee04995503ded793cb14869806155b54", "rental_uris": {"android": "https://dc.lft.to/lastmile_qr_scan", "ios": "https://dc.lft.to/lastmile_qr_scan"}, "name": "ee04995503ded793cb14869806155b54", "is_reserved": 0}, {"is_disabled": 0, "fusion_lon": 0.0, "fusion_lat": 0.0, "lat": 38.9453025, "type": "electric_bike", "lon": -77.3445885, "bike_id": "2a391da906008e8dc6b49bdb8b56ddc9", "rental_uris": {"android": "https://dc.lft.to/lastmile_qr_scan", "ios": "https://dc.lft.to/lastmile_qr_scan"}, "name": "2a391da906008e8dc6b49bdb8b56ddc9", "is_reserved": 0}, {"is_disabled": 0, "fusion_lon": 0.0, "fusion_lat": 0.0, "lat": 38.9082905, "type": "electric_scooter", "lon": -77.04885033333333, "bike_id": "9c7daf6c08b417aae13aa34d08e9d541", "rental_uris": {"android": "https://dc.lft.to/lastmile_qr_scan", "ios": "https://dc.lft.to/lastmile_qr_scan"}, "name": "9c7daf6c08b417aae13aa34d08e9d541", "is_reserved": 0}, {"is_disabled": 0, "fusion_lon": 0.0, "fusion_lat": 0.0, "lat": 38.86593333333333, "type": "electric_scooter", "lon": -76.9871645, "bike_id": "c85b3ac536daa224a3d44da12f744d61", "rental_uris": {"android": "https://dc.lft.to/lastmile_qr_scan", "ios": "https://dc.lft.to/lastmile_qr_scan"}, "name": "c85b3ac536daa224a3d44da12f744d61", "is_reserved": 0}, {"is_disabled": 0, "fusion_lon": 0.0, "fusion_lat": 0.0, "lat": 38.94973533333334, "type": "electric_scooter", "lon": -77.09441383333333, "bike_id": "c382a3e5f44424ac717f20b057138eec", "rental_uris": {"android": "https://dc.lft.to/lastmile_qr_scan", "ios": "https://dc.lft.to/lastmile_qr_scan"}, "name": "c382a3e5f44424ac717f20b057138eec", "is_reserved": 0}, {"is_disabled": 0, "fusion_lon": 0.0, "fusion_lat": 0.0, "lat": 38.870016666666665, "type": "electric_scooter", "lon": -77.01373416666667, "bike_id": "982cfcd0f45f3ee2eba72c1926084e7d", "rental_uris": {"android": "https://dc.lft.to/lastmile_qr_scan", "ios": "https://dc.lft.to/lastmile_qr_scan"}, "name": "982cfcd0f45f3ee2eba72c1926084e7d", "is_reserved": 0}, {"is_disabled": 0, "fusion_lon": 0.0, "fusion_lat": 0.0, "lat": 38.91832, "type": "electric_scooter", "lon": -77.023011, "bike_id": "5253e3e8bc27df6f6612d34937029391", "rental_uris": {"android": "https://dc.lft.to/lastmile_qr_scan", "ios": "https://dc.lft.to/lastmile_qr_scan"}, "name": "5253e3e8bc27df6f6612d34937029391", "is_reserved": 0}, {"is_disabled": 0, "fusion_lon": 0.0, "fusion_lat": 0.0, "lat": 38.9424215, "type": "electric_scooter", "lon": -77.02170366666667, "bike_id": "465ad309723001141c12bf6cc7d79830", "rental_uris": {"android": "https://dc.lft.to/lastmile_qr_scan", "ios": "https://dc.lft.to/lastmile_qr_scan"}, "name": "465ad309723001141c12bf6cc7d79830", "is_reserved": 0}, {"is_disabled": 0, "fusion_lon": 0.0, "fusion_lat": 0.0, "lat": 38.905661, "type": "electric_scooter", "lon": -77.02793383333334, "bike_id": "1a3104b868245174c53529e3e7619b92", "rental_uris": {"android": "https://dc.lft.to/lastmile_qr_scan", "ios": "https://dc.lft.to/lastmile_qr_scan"}, "name": "1a3104b868245174c53529e3e7619b92", "is_reserved": 0}, {"is_disabled": 0, "fusion_lon": 0.0, "fusion_lat": 0.0, "lat": 38.8979315, "type": "electric_scooter", "lon": -76.93054133333334, "bike_id": "7aad11236c8bfdd5536fde6f878e6fe0", "rental_uris": {"android": "https://dc.lft.to/lastmile_qr_scan", "ios": "https://dc.lft.to/lastmile_qr_scan"}, "name": "7aad11236c8bfdd5536fde6f878e6fe0", "is_reserved": 0}, {"is_disabled": 0, "fusion_lon": 0.0, "fusion_lat": 0.0, "lat": 38.93539833333333, "type": "electric_scooter", "lon": -77.05770783333334, "bike_id": "083012be5989a96f82fdea169418fcff", "rental_uris": {"android": "https://dc.lft.to/lastmile_qr_scan", "ios": "https://dc.lft.to/lastmile_qr_scan"}, "name": "083012be5989a96f82fdea169418fcff", "is_reserved": 0}, {"is_disabled": 0, "fusion_lon": 0.0, "fusion_lat": 0.0, "lat": 38.909505, "type": "electric_scooter", "lon": -77.02881766666667, "bike_id": "9ba51bf51816096019b525659ead4dc5", "rental_uris": {"android": "https://dc.lft.to/lastmile_qr_scan", "ios": "https://dc.lft.to/lastmile_qr_scan"}, "name": "9ba51bf51816096019b525659ead4dc5", "is_reserved": 0}, {"is_disabled": 0, "fusion_lon": 0.0, "fusion_lat": 0.0, "lat": 38.83148883333333, "type": "electric_bike", "lon": -76.99694733333334, "bike_id": "493ea56714d1f3c7484171afd039c8b8", "rental_uris": {"android": "https://dc.lft.to/lastmile_qr_scan", "ios": "https://dc.lft.to/lastmile_qr_scan"}, "name": "493ea56714d1f3c7484171afd039c8b8", "is_reserved": 0}, {"is_disabled": 0, "fusion_lon": 0.0, "fusion_lat": 0.0, "lat": 38.867347333333335, "type": "electric_scooter", "lon": -76.98850583333333, "bike_id": "962d45a72e1212d3823b230db3fa7568", "rental_uris": {"android": "https://dc.lft.to/lastmile_qr_scan", "ios": "https://dc.lft.to/lastmile_qr_scan"}, "name": "962d45a72e1212d3823b230db3fa7568", "is_reserved": 0}, {"is_disabled": 0, "fusion_lon": 0.0, "fusion_lat": 0.0, "lat": 38.949838, "type": "electric_scooter", "lon": -77.02706166666667, "bike_id": "31ca66060cb395676e317172d4b90387", "rental_uris": {"android": "https://dc.lft.to/lastmile_qr_scan", "ios": "https://dc.lft.to/lastmile_qr_scan"}, "name": "31ca66060cb395676e317172d4b90387", "is_reserved": 0}, {"is_disabled": 0, "fusion_lon": 0.0, "fusion_lat": 0.0, "lat": 38.87482333333333, "type": "electric_bike", "lon": -77.00226516666666, "bike_id": "217e9222ebd321367ec7b9c8719bc9b9", "rental_uris": {"android": "https://dc.lft.to/lastmile_qr_scan", "ios": "https://dc.lft.to/lastmile_qr_scan"}, "name": "217e9222ebd321367ec7b9c8719bc9b9", "is_reserved": 0}, {"is_disabled": 0, "fusion_lon": 0.0, "fusion_lat": 0.0, "lat": 38.94143583333334, "type": "electric_bike", "lon": -77.00195183333334, "bike_id": "19d9b03a30d1906bb19d2ac9cf98f2a4", "rental_uris": {"android": "https://dc.lft.to/lastmile_qr_scan", "ios": "https://dc.lft.to/lastmile_qr_scan"}, "name": "19d9b03a30d1906bb19d2ac9cf98f2a4", "is_reserved": 0}, {"is_disabled": 0, "fusion_lon": 0.0, "fusion_lat": 0.0, "lat": 38.918341166666664, "type": "electric_scooter", "lon": -77.023002, "bike_id": "caa31dfb52d88fa1a264c562d8382c19", "rental_uris": {"android": "https://dc.lft.to/lastmile_qr_scan", "ios": "https://dc.lft.to/lastmile_qr_scan"}, "name": "caa31dfb52d88fa1a264c562d8382c19", "is_reserved": 0}, {"is_disabled": 0, "fusion_lon": 0.0, "fusion_lat": 0.0, "lat": 38.912525333333335, "type": "electric_scooter", "lon": -77.028655, "bike_id": "345d7855cb028d23c823080e16a4bcbd", "rental_uris": {"android": "https://dc.lft.to/lastmile_qr_scan", "ios": "https://dc.lft.to/lastmile_qr_scan"}, "name": "345d7855cb028d23c823080e16a4bcbd", "is_reserved": 0}, {"is_disabled": 0, "fusion_lon": 0.0, "fusion_lat": 0.0, "lat": 38.90659566666667, "type": "electric_bike", "lon": -77.01090316666667, "bike_id": "61cbf1c27d976001e0f01add71e9bb6b", "rental_uris": {"android": "https://dc.lft.to/lastmile_qr_scan", "ios": "https://dc.lft.to/lastmile_qr_scan"}, "name": "61cbf1c27d976001e0f01add71e9bb6b", "is_reserved": 0}, {"is_disabled": 0, "fusion_lon": 0.0, "fusion_lat": 0.0, "lat": 38.90855333333333, "type": "electric_scooter", "lon": -77.02284316666666, "bike_id": "b4b1aa2501b8eceea182c191a06bb70b", "rental_uris": {"android": "https://dc.lft.to/lastmile_qr_scan", "ios": "https://dc.lft.to/lastmile_qr_scan"}, "name": "b4b1aa2501b8eceea182c191a06bb70b", "is_reserved": 0}, {"is_disabled": 0, "fusion_lon": 0.0, "fusion_lat": 0.0, "lat": 39.0580875, "type": "electric_bike", "lon": -77.126276, "bike_id": "8897afa83ad5b01aec0d89ec6c916998", "rental_uris": {"android": "https://dc.lft.to/lastmile_qr_scan", "ios": "https://dc.lft.to/lastmile_qr_scan"}, "name": "8897afa83ad5b01aec0d89ec6c916998", "is_reserved": 0}, {"is_disabled": 0, "fusion_lon": 0.0, "fusion_lat": 0.0, "lat": 38.9338225, "type": "electric_scooter", "lon": -77.024609, "bike_id": "e4f9c401a7cd16d50ae0a520d439ed78", "rental_uris": {"android": "https://dc.lft.to/lastmile_qr_scan", "ios": "https://dc.lft.to/lastmile_qr_scan"}, "name": "e4f9c401a7cd16d50ae0a520d439ed78", "is_reserved": 0}, {"is_disabled": 0, "fusion_lon": 0.0, "fusion_lat": 0.0, "lat": 38.93516666666667, "type": "electric_scooter", "lon": -77.023659, "bike_id": "125ec9dc22fa58332fbf1914d7e7c23f", "rental_uris": {"android": "https://dc.lft.to/lastmile_qr_scan", "ios": "https://dc.lft.to/lastmile_qr_scan"}, "name": "125ec9dc22fa58332fbf1914d7e7c23f", "is_reserved": 0}, {"is_disabled": 0, "fusion_lon": 0.0, "fusion_lat": 0.0, "lat": 38.92113066666667, "type": "electric_scooter", "lon": -77.01759466666667, "bike_id": "82b4da6c62cc98415ee996475f4e391f", "rental_uris": {"android": "https://dc.lft.to/lastmile_qr_scan", "ios": "https://dc.lft.to/lastmile_qr_scan"}, "name": "82b4da6c62cc98415ee996475f4e391f", "is_reserved": 0}, {"is_disabled": 0, "fusion_lon": 0.0, "fusion_lat": 0.0, "lat": 38.903555833333336, "type": "electric_scooter", "lon": -77.05911716666667, "bike_id": "c5623acd7ea2cc3a1827b2e189b41ccc", "rental_uris": {"android": "https://dc.lft.to/lastmile_qr_scan", "ios": "https://dc.lft.to/lastmile_qr_scan"}, "name": "c5623acd7ea2cc3a1827b2e189b41ccc", "is_reserved": 0}, {"is_disabled": 0, "fusion_lon": 0.0, "fusion_lat": 0.0, "lat": 38.92738816666667, "type": "electric_scooter", "lon": -77.07301483333333, "bike_id": "454036ba9181316b704c0176c3f2f85e", "rental_uris": {"android": "https://dc.lft.to/lastmile_qr_scan", "ios": "https://dc.lft.to/lastmile_qr_scan"}, "name": "454036ba9181316b704c0176c3f2f85e", "is_reserved": 0}, {"is_disabled": 0, "fusion_lon": 0.0, "fusion_lat": 0.0, "lat": 38.924602, "type": "electric_scooter", "lon": -77.0786555, "bike_id": "acb59c6468fa5f08c88f04832c7c4c51", "rental_uris": {"android": "https://dc.lft.to/lastmile_qr_scan", "ios": "https://dc.lft.to/lastmile_qr_scan"}, "name": "acb59c6468fa5f08c88f04832c7c4c51", "is_reserved": 0}, {"is_disabled": 0, "fusion_lon": 0.0, "fusion_lat": 0.0, "lat": 38.9170685, "type": "electric_scooter", "lon": -77.03187, "bike_id": "d379e7d5b3892a61f9866d43800b8a0c", "rental_uris": {"android": "https://dc.lft.to/lastmile_qr_scan", "ios": "https://dc.lft.to/lastmile_qr_scan"}, "name": "d379e7d5b3892a61f9866d43800b8a0c", "is_reserved": 0}, {"is_disabled": 0, "fusion_lon": 0.0, "fusion_lat": 0.0, "lat": 38.877465666666666, "type": "electric_bike", "lon": -76.98000783333333, "bike_id": "e8504b4d197388d7fd9c72ca91cffdbd", "rental_uris": {"android": "https://dc.lft.to/lastmile_qr_scan", "ios": "https://dc.lft.to/lastmile_qr_scan"}, "name": "e8504b4d197388d7fd9c72ca91cffdbd", "is_reserved": 0}, {"is_disabled": 0, "fusion_lon": 0.0, "fusion_lat": 0.0, "lat": 38.92279816666667, "type": "electric_scooter", "lon": -77.0447685, "bike_id": "e1e4e9035d21e6ce7321bccc3d3aa08c", "rental_uris": {"android": "https://dc.lft.to/lastmile_qr_scan", "ios": "https://dc.lft.to/lastmile_qr_scan"}, "name": "e1e4e9035d21e6ce7321bccc3d3aa08c", "is_reserved": 0}, {"is_disabled": 0, "fusion_lon": 0.0, "fusion_lat": 0.0, "lat": 38.94066633333333, "type": "electric_scooter", "lon": -77.028755, "bike_id": "c4c8c007eb35d28e5a789e88ecd2fb48", "rental_uris": {"android": "https://dc.lft.to/lastmile_qr_scan", "ios": "https://dc.lft.to/lastmile_qr_scan"}, "name": "c4c8c007eb35d28e5a789e88ecd2fb48", "is_reserved": 0}, {"is_disabled": 0, "fusion_lon": 0.0, "fusion_lat": 0.0, "lat": 38.87579683333333, "type": "electric_scooter", "lon": -77.00418516666667, "bike_id": "a04c2392525e36532b36501ec94f095c", "rental_uris": {"android": "https://dc.lft.to/lastmile_qr_scan", "ios": "https://dc.lft.to/lastmile_qr_scan"}, "name": "a04c2392525e36532b36501ec94f095c", "is_reserved": 0}, {"is_disabled": 0, "fusion_lon": 0.0, "fusion_lat": 0.0, "lat": 38.91599766666667, "type": "electric_scooter", "lon": -77.02402633333334, "bike_id": "fa2d45082744c8202cd5f52059831ec5", "rental_uris": {"android": "https://dc.lft.to/lastmile_qr_scan", "ios": "https://dc.lft.to/lastmile_qr_scan"}, "name": "fa2d45082744c8202cd5f52059831ec5", "is_reserved": 0}, {"is_disabled": 0, "fusion_lon": 0.0, "fusion_lat": 0.0, "lat": 38.8952465, "type": "electric_scooter", "lon": -77.0484575, "bike_id": "baab683c9709deccc0d3961705a035cc", "rental_uris": {"android": "https://dc.lft.to/lastmile_qr_scan", "ios": "https://dc.lft.to/lastmile_qr_scan"}, "name": "baab683c9709deccc0d3961705a035cc", "is_reserved": 0}, {"is_disabled": 0, "fusion_lon": 0.0, "fusion_lat": 0.0, "lat": 38.939603, "type": "electric_bike", "lon": -77.3609895, "bike_id": "f28a94eddcd56143d9f00707b8e9b56f", "rental_uris": {"android": "https://dc.lft.to/lastmile_qr_scan", "ios": "https://dc.lft.to/lastmile_qr_scan"}, "name": "f28a94eddcd56143d9f00707b8e9b56f", "is_reserved": 0}, {"is_disabled": 0, "fusion_lon": 0.0, "fusion_lat": 0.0, "lat": 38.92331033333333, "type": "electric_scooter", "lon": -77.0418515, "bike_id": "b51edd28257573044e6b4d1d2b0fcbb8", "rental_uris": {"android": "https://dc.lft.to/lastmile_qr_scan", "ios": "https://dc.lft.to/lastmile_qr_scan"}, "name": "b51edd28257573044e6b4d1d2b0fcbb8", "is_reserved": 0}, {"is_disabled": 0, "fusion_lon": 0.0, "fusion_lat": 0.0, "lat": 38.92822616666667, "type": "electric_scooter", "lon": -77.05444383333334, "bike_id": "cf206e6bd559ca432e5471bd8ec2fd58", "rental_uris": {"android": "https://dc.lft.to/lastmile_qr_scan", "ios": "https://dc.lft.to/lastmile_qr_scan"}, "name": "cf206e6bd559ca432e5471bd8ec2fd58", "is_reserved": 0}, {"is_disabled": 0, "fusion_lon": 0.0, "fusion_lat": 0.0, "lat": 38.911549666666666, "type": "electric_scooter", "lon": -77.04494733333334, "bike_id": "1e5f93e41d6214ec49eb2933a59da7f7", "rental_uris": {"android": "https://dc.lft.to/lastmile_qr_scan", "ios": "https://dc.lft.to/lastmile_qr_scan"}, "name": "1e5f93e41d6214ec49eb2933a59da7f7", "is_reserved": 0}, {"is_disabled": 0, "fusion_lon": 0.0, "fusion_lat": 0.0, "lat": 38.9189605, "type": "electric_scooter", "lon": -77.07111716666667, "bike_id": "68c0a7ad52642da1f01c78f6bff97c98", "rental_uris": {"android": "https://dc.lft.to/lastmile_qr_scan", "ios": "https://dc.lft.to/lastmile_qr_scan"}, "name": "68c0a7ad52642da1f01c78f6bff97c98", "is_reserved": 0}, {"is_disabled": 0, "fusion_lon": 0.0, "fusion_lat": 0.0, "lat": 38.919321, "type": "electric_bike", "lon": -76.97501933333334, "bike_id": "7a90482f35ad882397d25b7d2a1268fc", "rental_uris": {"android": "https://dc.lft.to/lastmile_qr_scan", "ios": "https://dc.lft.to/lastmile_qr_scan"}, "name": "7a90482f35ad882397d25b7d2a1268fc", "is_reserved": 0}, {"is_disabled": 0, "fusion_lon": 0.0, "fusion_lat": 0.0, "lat": 38.86958466666667, "type": "electric_scooter", "lon": -76.9603575, "bike_id": "a70f5ddf1589194c8d496711e51d1f74", "rental_uris": {"android": "https://dc.lft.to/lastmile_qr_scan", "ios": "https://dc.lft.to/lastmile_qr_scan"}, "name": "a70f5ddf1589194c8d496711e51d1f74", "is_reserved": 0}, {"is_disabled": 0, "fusion_lon": 0.0, "fusion_lat": 0.0, "lat": 38.93431566666667, "type": "electric_scooter", "lon": -77.072622, "bike_id": "bd767824b0d7654986d741d6dece0a74", "rental_uris": {"android": "https://dc.lft.to/lastmile_qr_scan", "ios": "https://dc.lft.to/lastmile_qr_scan"}, "name": "bd767824b0d7654986d741d6dece0a74", "is_reserved": 0}, {"is_disabled": 0, "fusion_lon": 0.0, "fusion_lat": 0.0, "lat": 38.89668433333333, "type": "electric_scooter", "lon": -76.98244883333334, "bike_id": "75446448af1fbb3a116b86da4cdf8e1b", "rental_uris": {"android": "https://dc.lft.to/lastmile_qr_scan", "ios": "https://dc.lft.to/lastmile_qr_scan"}, "name": "75446448af1fbb3a116b86da4cdf8e1b", "is_reserved": 0}, {"is_disabled": 0, "fusion_lon": 0.0, "fusion_lat": 0.0, "lat": 38.9430125, "type": "electric_scooter", "lon": -77.02762533333333, "bike_id": "a1f49d215b1bbc44c3511313275dcb7f", "rental_uris": {"android": "https://dc.lft.to/lastmile_qr_scan", "ios": "https://dc.lft.to/lastmile_qr_scan"}, "name": "a1f49d215b1bbc44c3511313275dcb7f", "is_reserved": 0}, {"is_disabled": 0, "fusion_lon": 0.0, "fusion_lat": 0.0, "lat": 38.920675833333334, "type": "electric_scooter", "lon": -77.04381633333334, "bike_id": "64cf07cb46508bb68f92a6ebaf61a8ef", "rental_uris": {"android": "https://dc.lft.to/lastmile_qr_scan", "ios": "https://dc.lft.to/lastmile_qr_scan"}, "name": "64cf07cb46508bb68f92a6ebaf61a8ef", "is_reserved": 0}, {"is_disabled": 0, "fusion_lon": 0.0, "fusion_lat": 0.0, "lat": 38.900199, "type": "electric_scooter", "lon": -77.03328533333334, "bike_id": "06225ce18a357153d797562266ef629b", "rental_uris": {"android": "https://dc.lft.to/lastmile_qr_scan", "ios": "https://dc.lft.to/lastmile_qr_scan"}, "name": "06225ce18a357153d797562266ef629b", "is_reserved": 0}, {"is_disabled": 0, "fusion_lon": 0.0, "fusion_lat": 0.0, "lat": 38.91566566666667, "type": "electric_scooter", "lon": -77.03319966666666, "bike_id": "e9a3dbb8dde9501d0c0fc3f7a9ac767b", "rental_uris": {"android": "https://dc.lft.to/lastmile_qr_scan", "ios": "https://dc.lft.to/lastmile_qr_scan"}, "name": "e9a3dbb8dde9501d0c0fc3f7a9ac767b", "is_reserved": 0}, {"is_disabled": 0, "fusion_lon": 0.0, "fusion_lat": 0.0, "lat": 38.832876166666665, "type": "electric_scooter", "lon": -77.008255, "bike_id": "c420fb47a913a7af4a10c38b6db47d83", "rental_uris": {"android": "https://dc.lft.to/lastmile_qr_scan", "ios": "https://dc.lft.to/lastmile_qr_scan"}, "name": "c420fb47a913a7af4a10c38b6db47d83", "is_reserved": 0}, {"is_disabled": 0, "fusion_lon": 0.0, "fusion_lat": 0.0, "lat": 38.94573883333333, "type": "electric_bike", "lon": -76.9877875, "bike_id": "f2b0d4b77c0eadbef9696b3da861050e", "rental_uris": {"android": "https://dc.lft.to/lastmile_qr_scan", "ios": "https://dc.lft.to/lastmile_qr_scan"}, "name": "f2b0d4b77c0eadbef9696b3da861050e", "is_reserved": 0}, {"is_disabled": 0, "fusion_lon": 0.0, "fusion_lat": 0.0, "lat": 38.93448766666667, "type": "electric_scooter", "lon": -77.03018083333333, "bike_id": "dfd66ec401af035f868f10c2ca1babfd", "rental_uris": {"android": "https://dc.lft.to/lastmile_qr_scan", "ios": "https://dc.lft.to/lastmile_qr_scan"}, "name": "dfd66ec401af035f868f10c2ca1babfd", "is_reserved": 0}, {"is_disabled": 0, "fusion_lon": 0.0, "fusion_lat": 0.0, "lat": 38.96279916666667, "type": "electric_bike", "lon": -77.02875216666666, "bike_id": "b045c0dd0539f8e9bdc2724886c9778e", "rental_uris": {"android": "https://dc.lft.to/lastmile_qr_scan", "ios": "https://dc.lft.to/lastmile_qr_scan"}, "name": "b045c0dd0539f8e9bdc2724886c9778e", "is_reserved": 0}, {"is_disabled": 0, "fusion_lon": 0.0, "fusion_lat": 0.0, "lat": 38.90131983333333, "type": "electric_scooter", "lon": -77.03316833333334, "bike_id": "0f27ecaca7f5a7936828d9416efe5a0a", "rental_uris": {"android": "https://dc.lft.to/lastmile_qr_scan", "ios": "https://dc.lft.to/lastmile_qr_scan"}, "name": "0f27ecaca7f5a7936828d9416efe5a0a", "is_reserved": 0}, {"is_disabled": 0, "fusion_lon": 0.0, "fusion_lat": 0.0, "lat": 38.898954, "type": "electric_scooter", "lon": -76.93187433333334, "bike_id": "4c37a978ff9b3e8c9331bc01c2973773", "rental_uris": {"android": "https://dc.lft.to/lastmile_qr_scan", "ios": "https://dc.lft.to/lastmile_qr_scan"}, "name": "4c37a978ff9b3e8c9331bc01c2973773", "is_reserved": 0}, {"is_disabled": 0, "fusion_lon": 0.0, "fusion_lat": 0.0, "lat": 38.880458, "type": "electric_scooter", "lon": -77.005274, "bike_id": "a11cb16cfbdfae4ef265339dd90461ad", "rental_uris": {"android": "https://dc.lft.to/lastmile_qr_scan", "ios": "https://dc.lft.to/lastmile_qr_scan"}, "name": "a11cb16cfbdfae4ef265339dd90461ad", "is_reserved": 0}, {"is_disabled": 0, "fusion_lon": 0.0, "fusion_lat": 0.0, "lat": 38.91125433333333, "type": "electric_scooter", "lon": -77.0219685, "bike_id": "aa6aad055bc588bc319129331f31d89d", "rental_uris": {"android": "https://dc.lft.to/lastmile_qr_scan", "ios": "https://dc.lft.to/lastmile_qr_scan"}, "name": "aa6aad055bc588bc319129331f31d89d", "is_reserved": 0}, {"is_disabled": 0, "fusion_lon": 0.0, "fusion_lat": 0.0, "lat": 38.88365866666667, "type": "electric_scooter", "lon": -77.02437683333333, "bike_id": "203dddeafce509b6c8481bac85fff73c", "rental_uris": {"android": "https://dc.lft.to/lastmile_qr_scan", "ios": "https://dc.lft.to/lastmile_qr_scan"}, "name": "203dddeafce509b6c8481bac85fff73c", "is_reserved": 0}, {"is_disabled": 0, "fusion_lon": 0.0, "fusion_lat": 0.0, "lat": 38.93635866666666, "type": "electric_bike", "lon": -76.95463716666667, "bike_id": "f96e1fd81c7c4e140002bb3894405a0e", "rental_uris": {"android": "https://dc.lft.to/lastmile_qr_scan", "ios": "https://dc.lft.to/lastmile_qr_scan"}, "name": "f96e1fd81c7c4e140002bb3894405a0e", "is_reserved": 0}, {"is_disabled": 0, "fusion_lon": 0.0, "fusion_lat": 0.0, "lat": 38.91052916666666, "type": "electric_scooter", "lon": -77.054441, "bike_id": "da15762f85eb576ad68c6afdd4229431", "rental_uris": {"android": "https://dc.lft.to/lastmile_qr_scan", "ios": "https://dc.lft.to/lastmile_qr_scan"}, "name": "da15762f85eb576ad68c6afdd4229431", "is_reserved": 0}, {"is_disabled": 0, "fusion_lon": 0.0, "fusion_lat": 0.0, "lat": 38.92221216666667, "type": "electric_scooter", "lon": -77.03290716666666, "bike_id": "1f7cf8d06bcf92c906c7364a323c0067", "rental_uris": {"android": "https://dc.lft.to/lastmile_qr_scan", "ios": "https://dc.lft.to/lastmile_qr_scan"}, "name": "1f7cf8d06bcf92c906c7364a323c0067", "is_reserved": 0}, {"is_disabled": 0, "fusion_lon": 0.0, "fusion_lat": 0.0, "lat": 38.9083385, "type": "electric_scooter", "lon": -76.99698, "bike_id": "4c0b15287dba1483d14dd1a4825bd6bd", "rental_uris": {"android": "https://dc.lft.to/lastmile_qr_scan", "ios": "https://dc.lft.to/lastmile_qr_scan"}, "name": "4c0b15287dba1483d14dd1a4825bd6bd", "is_reserved": 0}, {"is_disabled": 0, "fusion_lon": 0.0, "fusion_lat": 0.0, "lat": 38.8873925, "type": "electric_scooter", "lon": -77.01541966666667, "bike_id": "c88f9865df5220adad2ecb49c39c6bc0", "rental_uris": {"android": "https://dc.lft.to/lastmile_qr_scan", "ios": "https://dc.lft.to/lastmile_qr_scan"}, "name": "c88f9865df5220adad2ecb49c39c6bc0", "is_reserved": 0}, {"is_disabled": 0, "fusion_lon": 0.0, "fusion_lat": 0.0, "lat": 38.94962116666667, "type": "electric_scooter", "lon": -77.067054, "bike_id": "328398ef75d171813b1a99e9e0d34dc5", "rental_uris": {"android": "https://dc.lft.to/lastmile_qr_scan", "ios": "https://dc.lft.to/lastmile_qr_scan"}, "name": "328398ef75d171813b1a99e9e0d34dc5", "is_reserved": 0}, {"is_disabled": 0, "fusion_lon": 0.0, "fusion_lat": 0.0, "lat": 38.902045333333334, "type": "electric_scooter", "lon": -77.02376866666667, "bike_id": "c2ddef7186c17de776bf2f218d3abaca", "rental_uris": {"android": "https://dc.lft.to/lastmile_qr_scan", "ios": "https://dc.lft.to/lastmile_qr_scan"}, "name": "c2ddef7186c17de776bf2f218d3abaca", "is_reserved": 0}, {"is_disabled": 0, "fusion_lon": 0.0, "fusion_lat": 0.0, "lat": 38.87182933333333, "type": "electric_bike", "lon": -77.00602583333334, "bike_id": "136a897cea1e21ca710d84fbef64f0b1", "rental_uris": {"android": "https://dc.lft.to/lastmile_qr_scan", "ios": "https://dc.lft.to/lastmile_qr_scan"}, "name": "136a897cea1e21ca710d84fbef64f0b1", "is_reserved": 0}, {"is_disabled": 0, "fusion_lon": 0.0, "fusion_lat": 0.0, "lat": 38.8873365, "type": "electric_scooter", "lon": -77.01613116666667, "bike_id": "246986689f2503ae960645056da4c245", "rental_uris": {"android": "https://dc.lft.to/lastmile_qr_scan", "ios": "https://dc.lft.to/lastmile_qr_scan"}, "name": "246986689f2503ae960645056da4c245", "is_reserved": 0}, {"is_disabled": 0, "fusion_lon": 0.0, "fusion_lat": 0.0, "lat": 38.877594, "type": "electric_bike", "lon": -76.9952365, "bike_id": "280b58ee30e9fd2708072d0c1c7d35a9", "rental_uris": {"android": "https://dc.lft.to/lastmile_qr_scan", "ios": "https://dc.lft.to/lastmile_qr_scan"}, "name": "280b58ee30e9fd2708072d0c1c7d35a9", "is_reserved": 0}, {"is_disabled": 0, "fusion_lon": 0.0, "fusion_lat": 0.0, "lat": 38.922543833333336, "type": "electric_scooter", "lon": -77.041295, "bike_id": "79ccb3620010c2d2b3bf3e9ae88c64e0", "rental_uris": {"android": "https://dc.lft.to/lastmile_qr_scan", "ios": "https://dc.lft.to/lastmile_qr_scan"}, "name": "79ccb3620010c2d2b3bf3e9ae88c64e0", "is_reserved": 0}, {"is_disabled": 0, "fusion_lon": 0.0, "fusion_lat": 0.0, "lat": 38.96124016666667, "type": "electric_scooter", "lon": -77.08534316666666, "bike_id": "efb90d75cbef50d4b046974d1938cabc", "rental_uris": {"android": "https://dc.lft.to/lastmile_qr_scan", "ios": "https://dc.lft.to/lastmile_qr_scan"}, "name": "efb90d75cbef50d4b046974d1938cabc", "is_reserved": 0}, {"is_disabled": 0, "fusion_lon": 0.0, "fusion_lat": 0.0, "lat": 38.93782083333333, "type": "electric_scooter", "lon": -77.01883433333333, "bike_id": "840951bbf9607a9f1f25fa9f4c7d4062", "rental_uris": {"android": "https://dc.lft.to/lastmile_qr_scan", "ios": "https://dc.lft.to/lastmile_qr_scan"}, "name": "840951bbf9607a9f1f25fa9f4c7d4062", "is_reserved": 0}, {"is_disabled": 0, "fusion_lon": 0.0, "fusion_lat": 0.0, "lat": 38.8864575, "type": "electric_bike", "lon": -77.16239466666667, "bike_id": "e02a93927f041c69aa5f5dd45ba7a01d", "rental_uris": {"android": "https://dc.lft.to/lastmile_qr_scan", "ios": "https://dc.lft.to/lastmile_qr_scan"}, "name": "e02a93927f041c69aa5f5dd45ba7a01d", "is_reserved": 0}, {"is_disabled": 0, "fusion_lon": 0.0, "fusion_lat": 0.0, "lat": 38.907689166666664, "type": "electric_scooter", "lon": -77.034635, "bike_id": "a38a5843ea46b2685b4186c66f15dd71", "rental_uris": {"android": "https://dc.lft.to/lastmile_qr_scan", "ios": "https://dc.lft.to/lastmile_qr_scan"}, "name": "a38a5843ea46b2685b4186c66f15dd71", "is_reserved": 0}, {"is_disabled": 0, "fusion_lon": 0.0, "fusion_lat": 0.0, "lat": 39.052028166666666, "type": "electric_bike", "lon": -77.044073, "bike_id": "7f25363e4532c0421e7c8fe2f5716a86", "rental_uris": {"android": "https://dc.lft.to/lastmile_qr_scan", "ios": "https://dc.lft.to/lastmile_qr_scan"}, "name": "7f25363e4532c0421e7c8fe2f5716a86", "is_reserved": 0}, {"is_disabled": 0, "fusion_lon": 0.0, "fusion_lat": 0.0, "lat": 38.91551616666667, "type": "electric_scooter", "lon": -77.03173916666667, "bike_id": "b4de2c02fdcc3cb4e7d4e2aa629b5cd3", "rental_uris": {"android": "https://dc.lft.to/lastmile_qr_scan", "ios": "https://dc.lft.to/lastmile_qr_scan"}, "name": "b4de2c02fdcc3cb4e7d4e2aa629b5cd3", "is_reserved": 0}, {"is_disabled": 0, "fusion_lon": 0.0, "fusion_lat": 0.0, "lat": 38.8868305, "type": "electric_scooter", "lon": -77.01375333333333, "bike_id": "a5bfbd6dd2fc70d126f5dcdd75264e3a", "rental_uris": {"android": "https://dc.lft.to/lastmile_qr_scan", "ios": "https://dc.lft.to/lastmile_qr_scan"},