{"data": {"bikes": [{"is_disabled": 0, "lon": -77.03261, "lat": 38.939726666666665, "name": "aaacb0616392c17cce64bce1f94981ef", "fusion_lon": 0.0, "fusion_lat": 0.0, "is_reserved": 0, "type": "electric_scooter", "bike_id": "aaacb0616392c17cce64bce1f94981ef", "rental_uris": {"android": "https://dc.lft.to/lastmile_qr_scan", "ios": "https://dc.lft.to/lastmile_qr_scan"}}, {"is_disabled": 0, "lon": -77.01214066666667, "lat": 38.9534025, "name": "121950c934af35c0c7f222ee93d20efd", "fusion_lon": 0.0, "fusion_lat": 0.0, "is_reserved": 0, "type": "electric_scooter", "bike_id": "121950c934af35c0c7f222ee93d20efd", "rental_uris": {"android": "https://dc.lft.to/lastmile_qr_scan", "ios": "https://dc.lft.to/lastmile_qr_scan"}}, {"is_disabled": 0, "lon": -77.019537, "lat": 38.92331033333333, "name": "cf450dcc758e590e68e412cd9a3b2a97", "fusion_lon": 0.0, "fusion_lat": 0.0, "is_reserved": 0, "type": "electric_scooter", "bike_id": "cf450dcc758e590e68e412cd9a3b2a97", "rental_uris": {"android": "https://dc.lft.to/lastmile_qr_scan", "ios": "https://dc.lft.to/lastmile_qr_scan"}}, {"is_disabled": 0, "lon": -77.04996016666666, "lat": 38.805287166666666, "name": "8d68ef511ed08559c4041e2bb633b928", "fusion_lon": 0.0, "fusion_lat": 0.0, "is_reserved": 0, "type": "electric_bike", "bike_id": "8d68ef511ed08559c4041e2bb633b928", "rental_uris": {"android": "https://dc.lft.to/lastmile_qr_scan", "ios": "https://dc.lft.to/lastmile_qr_scan"}}, {"is_disabled": 0, "lon": -77.024574, "lat": 38.915223166666664, "name": "76c56623c632a0c71e3bb17b646dad69", "fusion_lon": 0.0, "fusion_lat": 0.0, "is_reserved": 0, "type": "electric_scooter", "bike_id": "76c56623c632a0c71e3bb17b646dad69", "rental_uris": {"android": "https://dc.lft.to/lastmile_qr_scan", "ios": "https://dc.lft.to/lastmile_qr_scan"}}, {"is_disabled": 0, "lon": -77.05335733333334, "lat": 38.904487, "name": "dcd7110070c9a53911cbf3ff8305d61b", "fusion_lon": 0.0, "fusion_lat": 0.0, "is_reserved": 0, "type": "electric_scooter", "bike_id": "dcd7110070c9a53911cbf3ff8305d61b", "rental_uris": {"android": "https://dc.lft.to/lastmile_qr_scan", "ios": "https://dc.lft.to/lastmile_qr_scan"}}, {"is_disabled": 0, "lon": -77.03653683333333, "lat": 38.917904166666666, "name": "21de49baafecaa2c74e704ed00d896c0", "fusion_lon": 0.0, "fusion_lat": 0.0, "is_reserved": 0, "type": "electric_scooter", "bike_id": "21de49baafecaa2c74e704ed00d896c0", "rental_uris": {"android": "https://dc.lft.to/lastmile_qr_scan", "ios": "https://dc.lft.to/lastmile_qr_scan"}}, {"is_disabled": 0, "lon": -77.02136566666667, "lat": 38.92503516666667, "name": "d628bc8e81bbf08ed51f769741024bec", "fusion_lon": 0.0, "fusion_lat": 0.0, "is_reserved": 0, "type": "electric_scooter", "bike_id": "d628bc8e81bbf08ed51f769741024bec", "rental_uris": {"android": "https://dc.lft.to/lastmile_qr_scan", "ios": "https://dc.lft.to/lastmile_qr_scan"}}, {"is_disabled": 0, "lon": -76.99793066666666, "lat": 38.901347666666666, "name": "ff01247bd902fbaf8d8e846a1e8e0aea", "fusion_lon": 0.0, "fusion_lat": 0.0, "is_reserved": 0, "type": "electric_scooter", "bike_id": "ff01247bd902fbaf8d8e846a1e8e0aea", "rental_uris": {"android": "https://dc.lft.to/lastmile_qr_scan", "ios": "https://dc.lft.to/lastmile_qr_scan"}}, {"is_disabled": 0, "lon": -77.03638233333334, "lat": 38.90285316666667, "name": "061c8ee4f65acadadc161c98425aa76c", "fusion_lon": 0.0, "fusion_lat": 0.0, "is_reserved": 0, "type": "electric_scooter", "bike_id": "061c8ee4f65acadadc161c98425aa76c", "rental_uris": {"android": "https://dc.lft.to/lastmile_qr_scan", "ios": "https://dc.lft.to/lastmile_qr_scan"}}, {"is_disabled": 0, "lon": -77.04621516666667, "lat": 38.90664066666667, "name": "b739e8e3eb21ecdd2aa4134e5ec309eb", "fusion_lon": 0.0, "fusion_lat": 0.0, "is_reserved": 0, "type": "electric_scooter", "bike_id": "b739e8e3eb21ecdd2aa4134e5ec309eb", "rental_uris": {"android": "https://dc.lft.to/lastmile_qr_scan", "ios": "https://dc.lft.to/lastmile_qr_scan"}}, {"is_disabled": 0, "lon": -77.02114566666667, "lat": 38.89606033333333, "name": "70324655262041159e0c0676d4d01139", "fusion_lon": 0.0, "fusion_lat": 0.0, "is_reserved": 0, "type": "electric_scooter", "bike_id": "70324655262041159e0c0676d4d01139", "rental_uris": {"android": "https://dc.lft.to/lastmile_qr_scan", "ios": "https://dc.lft.to/lastmile_qr_scan"}}, {"is_disabled": 0, "lon": -77.1106675, "lat": 38.875886, "name": "0e25dd60169322f547321362ff9198fa", "fusion_lon": 0.0, "fusion_lat": 0.0, "is_reserved": 0, "type": "electric_scooter", "bike_id": "0e25dd60169322f547321362ff9198fa", "rental_uris": {"android": "https://dc.lft.to/lastmile_qr_scan", "ios": "https://dc.lft.to/lastmile_qr_scan"}}, {"is_disabled": 0, "lon": -77.00055616666667, "lat": 38.87880966666667, "name": "fac5907d394b7b99629f8d0f498a6e5c", "fusion_lon": 0.0, "fusion_lat": 0.0, "is_reserved": 0, "type": "electric_scooter", "bike_id": "fac5907d394b7b99629f8d0f498a6e5c", "rental_uris": {"android": "https://dc.lft.to/lastmile_qr_scan", "ios": "https://dc.lft.to/lastmile_qr_scan"}}, {"is_disabled": 0, "lon": -77.04566816666667, "lat": 38.9038465, "name": "c43ccaac97e2b95a99f92cb0b37473ea", "fusion_lon": 0.0, "fusion_lat": 0.0, "is_reserved": 0, "type": "electric_scooter", "bike_id": "c43ccaac97e2b95a99f92cb0b37473ea", "rental_uris": {"android": "https://dc.lft.to/lastmile_qr_scan", "ios": "https://dc.lft.to/lastmile_qr_scan"}}, {"is_disabled": 0, "lon": -76.98329116666666, "lat": 38.9254855, "name": "40cad7234acbba6f772262b0ec3f7e33", "fusion_lon": 0.0, "fusion_lat": 0.0, "is_reserved": 0, "type": "electric_scooter", "bike_id": "40cad7234acbba6f772262b0ec3f7e33", "rental_uris": {"android": "https://dc.lft.to/lastmile_qr_scan", "ios": "https://dc.lft.to/lastmile_qr_scan"}}, {"is_disabled": 0, "lon": -77.034473, "lat": 38.9097815, "name": "d4bc10a5bdb4775a6b3b7c367821d3d2", "fusion_lon": 0.0, "fusion_lat": 0.0, "is_reserved": 0, "type": "electric_scooter", "bike_id": "d4bc10a5bdb4775a6b3b7c367821d3d2", "rental_uris": {"android": "https://dc.lft.to/lastmile_qr_scan", "ios": "https://dc.lft.to/lastmile_qr_scan"}}, {"is_disabled": 0, "lon": -77.072647, "lat": 38.93472366666666, "name": "9705805b1a5239b11faa1977be8c4ff2", "fusion_lon": 0.0, "fusion_lat": 0.0, "is_reserved": 0, "type": "electric_scooter", "bike_id": "9705805b1a5239b11faa1977be8c4ff2", "rental_uris": {"android": "https://dc.lft.to/lastmile_qr_scan", "ios": "https://dc.lft.to/lastmile_qr_scan"}}, {"is_disabled": 0, "lon": -77.04636416666666, "lat": 38.902865, "name": "404575ab0bc0c249a2893cdddada809f", "fusion_lon": 0.0, "fusion_lat": 0.0, "is_reserved": 0, "type": "electric_scooter", "bike_id": "404575ab0bc0c249a2893cdddada809f", "rental_uris": {"android": "https://dc.lft.to/lastmile_qr_scan", "ios": "https://dc.lft.to/lastmile_qr_scan"}}, {"is_disabled": 0, "lon": -77.03400133333334, "lat": 38.9243865, "name": "fdaafd22837dc48ffe398bc5a4bc6e23", "fusion_lon": 0.0, "fusion_lat": 0.0, "is_reserved": 0, "type": "electric_scooter", "bike_id": "fdaafd22837dc48ffe398bc5a4bc6e23", "rental_uris": {"android": "https://dc.lft.to/lastmile_qr_scan", "ios": "https://dc.lft.to/lastmile_qr_scan"}}, {"is_disabled": 0, "lon": -77.04606783333334, "lat": 38.93287733333333, "name": "3cf0db172632413e35f3f36ef8b1895b", "fusion_lon": 0.0, "fusion_lat": 0.0, "is_reserved": 0, "type": "electric_scooter", "bike_id": "3cf0db172632413e35f3f36ef8b1895b", "rental_uris": {"android": "https://dc.lft.to/lastmile_qr_scan", "ios": "https://dc.lft.to/lastmile_qr_scan"}}, {"is_disabled": 0, "lon": -77.0454415, "lat": 38.89610183333333, "name": "3e7ba805672bd98674e43a74656c9eec", "fusion_lon": 0.0, "fusion_lat": 0.0, "is_reserved": 0, "type": "electric_scooter", "bike_id": "3e7ba805672bd98674e43a74656c9eec", "rental_uris": {"android": "https://dc.lft.to/lastmile_qr_scan", "ios": "https://dc.lft.to/lastmile_qr_scan"}}, {"is_disabled": 0, "lon": -77.01992783333333, "lat": 38.88592083333333, "name": "bd308e0f829107d3115d0c23d5b89eb1", "fusion_lon": 0.0, "fusion_lat": 0.0, "is_reserved": 0, "type": "electric_scooter", "bike_id": "bd308e0f829107d3115d0c23d5b89eb1", "rental_uris": {"android": "https://dc.lft.to/lastmile_qr_scan", "ios": "https://dc.lft.to/lastmile_qr_scan"}}, {"is_disabled": 0, "lon": -77.00056, "lat": 38.87881266666667, "name": "27e139f9cd37c9ebe480d75efc9fdf81", "fusion_lon": 0.0, "fusion_lat": 0.0, "is_reserved": 0, "type": "electric_scooter", "bike_id": "27e139f9cd37c9ebe480d75efc9fdf81", "rental_uris": {"android": "https://dc.lft.to/lastmile_qr_scan", "ios": "https://dc.lft.to/lastmile_qr_scan"}}, {"is_disabled": 0, "lon": -77.0229215, "lat": 38.920869, "name": "5d85ea5071cf4b2e6bdfe35ad304b302", "fusion_lon": 0.0, "fusion_lat": 0.0, "is_reserved": 0, "type": "electric_scooter", "bike_id": "5d85ea5071cf4b2e6bdfe35ad304b302", "rental_uris": {"android": "https://dc.lft.to/lastmile_qr_scan", "ios": "https://dc.lft.to/lastmile_qr_scan"}}, {"is_disabled": 0, "lon": -77.05505116666667, "lat": 38.928369, "name": "3d208c9302e8305360f5ee877350e55b", "fusion_lon": 0.0, "fusion_lat": 0.0, "is_reserved": 0, "type": "electric_scooter", "bike_id": "3d208c9302e8305360f5ee877350e55b", "rental_uris": {"android": "https://dc.lft.to/lastmile_qr_scan", "ios": "https://dc.lft.to/lastmile_qr_scan"}}, {"is_disabled": 0, "lon": -77.033392, "lat": 38.917049166666665, "name": "0a49c7f982dd762385794ee9efdfd260", "fusion_lon": 0.0, "fusion_lat": 0.0, "is_reserved": 0, "type": "electric_scooter", "bike_id": "0a49c7f982dd762385794ee9efdfd260", "rental_uris": {"android": "https://dc.lft.to/lastmile_qr_scan", "ios": "https://dc.lft.to/lastmile_qr_scan"}}, {"is_disabled": 0, "lon": -77.02200033333334, "lat": 38.90827183333333, "name": "12b9434b72a388d4ea71b13113f7b52d", "fusion_lon": 0.0, "fusion_lat": 0.0, "is_reserved": 0, "type": "electric_scooter", "bike_id": "12b9434b72a388d4ea71b13113f7b52d", "rental_uris": {"android": "https://dc.lft.to/lastmile_qr_scan", "ios": "https://dc.lft.to/lastmile_qr_scan"}}, {"is_disabled": 0, "lon": -77.03453166666667, "lat": 38.9159635, "name": "4733cb73bb1c7b0af5731e4c8151d38f", "fusion_lon": 0.0, "fusion_lat": 0.0, "is_reserved": 0, "type": "electric_scooter", "bike_id": "4733cb73bb1c7b0af5731e4c8151d38f", "rental_uris": {"android": "https://dc.lft.to/lastmile_qr_scan", "ios": "https://dc.lft.to/lastmile_qr_scan"}}, {"is_disabled": 0, "lon": -77.03863666666666, "lat": 38.90971116666667, "name": "ba177edf5db62f64fd02444bec72e474", "fusion_lon": 0.0, "fusion_lat": 0.0, "is_reserved": 0, "type": "electric_scooter", "bike_id": "ba177edf5db62f64fd02444bec72e474", "rental_uris": {"android": "https://dc.lft.to/lastmile_qr_scan", "ios": "https://dc.lft.to/lastmile_qr_scan"}}, {"is_disabled": 0, "lon": -77.034873, "lat": 38.93580516666667, "name": "8dbe4a0455cebb628d39f5275693f0ca", "fusion_lon": 0.0, "fusion_lat": 0.0, "is_reserved": 0, "type": "electric_scooter", "bike_id": "8dbe4a0455cebb628d39f5275693f0ca", "rental_uris": {"android": "https://dc.lft.to/lastmile_qr_scan", "ios": "https://dc.lft.to/lastmile_qr_scan"}}, {"is_disabled": 0, "lon": -77.01186283333334, "lat": 38.90029366666667, "name": "bbd4edd2e0b6fdaaa61f57b9b9638c01", "fusion_lon": 0.0, "fusion_lat": 0.0, "is_reserved": 0, "type": "electric_scooter", "bike_id": "bbd4edd2e0b6fdaaa61f57b9b9638c01", "rental_uris": {"android": "https://dc.lft.to/lastmile_qr_scan", "ios": "https://dc.lft.to/lastmile_qr_scan"}}, {"is_disabled": 0, "lon": -76.9446615, "lat": 38.8902785, "name": "9e96e096319af0a3151c7f6e723bd7f0", "fusion_lon": 0.0, "fusion_lat": 0.0, "is_reserved": 0, "type": "electric_scooter", "bike_id": "9e96e096319af0a3151c7f6e723bd7f0", "rental_uris": {"android": "https://dc.lft.to/lastmile_qr_scan", "ios": "https://dc.lft.to/lastmile_qr_scan"}}, {"is_disabled": 0, "lon": -77.07648083333333, "lat": 38.90608483333333, "name": "0d6f538861520d1212da25a35531cd3a", "fusion_lon": 0.0, "fusion_lat": 0.0, "is_reserved": 0, "type": "electric_bike", "bike_id": "0d6f538861520d1212da25a35531cd3a", "rental_uris": {"android": "https://dc.lft.to/lastmile_qr_scan", "ios": "https://dc.lft.to/lastmile_qr_scan"}}, {"is_disabled": 0, "lon": -77.025158, "lat": 38.9207495, "name": "d25f1091cb5080416ec22cb90546d2fe", "fusion_lon": 0.0, "fusion_lat": 0.0, "is_reserved": 0, "type": "electric_scooter", "bike_id": "d25f1091cb5080416ec22cb90546d2fe", "rental_uris": {"android": "https://dc.lft.to/lastmile_qr_scan", "ios": "https://dc.lft.to/lastmile_qr_scan"}}, {"is_disabled": 0, "lon": -77.0507445, "lat": 38.90059433333333, "name": "9ccec6852e835f4842dd65be35394298", "fusion_lon": 0.0, "fusion_lat": 0.0, "is_reserved": 0, "type": "electric_scooter", "bike_id": "9ccec6852e835f4842dd65be35394298", "rental_uris": {"android": "https://dc.lft.to/lastmile_qr_scan", "ios": "https://dc.lft.to/lastmile_qr_scan"}}, {"is_disabled": 0, "lon": -77.01745416666667, "lat": 38.9027295, "name": "95a99acfee56490284ca81d35ad5fbda", "fusion_lon": 0.0, "fusion_lat": 0.0, "is_reserved": 0, "type": "electric_scooter", "bike_id": "95a99acfee56490284ca81d35ad5fbda", "rental_uris": {"android": "https://dc.lft.to/lastmile_qr_scan", "ios": "https://dc.lft.to/lastmile_qr_scan"}}, {"is_disabled": 0, "lon": -77.019556, "lat": 38.9232705, "name": "52dbbafede917931be1900302b531a63", "fusion_lon": 0.0, "fusion_lat": 0.0, "is_reserved": 0, "type": "electric_scooter", "bike_id": "52dbbafede917931be1900302b531a63", "rental_uris": {"android": "https://dc.lft.to/lastmile_qr_scan", "ios": "https://dc.lft.to/lastmile_qr_scan"}}, {"is_disabled": 0, "lon": -77.0399075, "lat": 38.93397866666667, "name": "37083fd2949370dec97a0bb169f91388", "fusion_lon": 0.0, "fusion_lat": 0.0, "is_reserved": 0, "type": "electric_scooter", "bike_id": "37083fd2949370dec97a0bb169f91388", "rental_uris": {"android": "https://dc.lft.to/lastmile_qr_scan", "ios": "https://dc.lft.to/lastmile_qr_scan"}}, {"is_disabled": 0, "lon": -77.04155583333333, "lat": 38.915451833333336, "name": "da6b0d5d74babe5eef32b9bc0a6a5b87", "fusion_lon": 0.0, "fusion_lat": 0.0, "is_reserved": 0, "type": "electric_scooter", "bike_id": "da6b0d5d74babe5eef32b9bc0a6a5b87", "rental_uris": {"android": "https://dc.lft.to/lastmile_qr_scan", "ios": "https://dc.lft.to/lastmile_qr_scan"}}, {"is_disabled": 0, "lon": -77.02700783333333, "lat": 38.949786, "name": "7facf27cab0bc01ccceba25d24f6db36", "fusion_lon": 0.0, "fusion_lat": 0.0, "is_reserved": 0, "type": "electric_scooter", "bike_id": "7facf27cab0bc01ccceba25d24f6db36", "rental_uris": {"android": "https://dc.lft.to/lastmile_qr_scan", "ios": "https://dc.lft.to/lastmile_qr_scan"}}, {"is_disabled": 0, "lon": -77.02869283333334, "lat": 38.931574833333336, "name": "d9b05543fbc4d1d059245ce11e4ae701", "fusion_lon": 0.0, "fusion_lat": 0.0, "is_reserved": 0, "type": "electric_scooter", "bike_id": "d9b05543fbc4d1d059245ce11e4ae701", "rental_uris": {"android": "https://dc.lft.to/lastmile_qr_scan", "ios": "https://dc.lft.to/lastmile_qr_scan"}}, {"is_disabled": 0, "lon": -76.98060233333334, "lat": 38.97252816666666, "name": "e4847418c609b6f60b6fe9b03b0c0c9e", "fusion_lon": 0.0, "fusion_lat": 0.0, "is_reserved": 0, "type": "electric_bike", "bike_id": "e4847418c609b6f60b6fe9b03b0c0c9e", "rental_uris": {"android": "https://dc.lft.to/lastmile_qr_scan", "ios": "https://dc.lft.to/lastmile_qr_scan"}}, {"is_disabled": 0, "lon": -77.00483166666666, "lat": 38.874626166666665, "name": "5903ce5ec5a2247f4a8c6bc79d7b3687", "fusion_lon": 0.0, "fusion_lat": 0.0, "is_reserved": 0, "type": "electric_scooter", "bike_id": "5903ce5ec5a2247f4a8c6bc79d7b3687", "rental_uris": {"android": "https://dc.lft.to/lastmile_qr_scan", "ios": "https://dc.lft.to/lastmile_qr_scan"}}, {"is_disabled": 0, "lon": -77.025981, "lat": 38.916926333333336, "name": "9024d5fc31a0e170c215b5e7cbd8cb17", "fusion_lon": 0.0, "fusion_lat": 0.0, "is_reserved": 0, "type": "electric_scooter", "bike_id": "9024d5fc31a0e170c215b5e7cbd8cb17", "rental_uris": {"android": "https://dc.lft.to/lastmile_qr_scan", "ios": "https://dc.lft.to/lastmile_qr_scan"}}, {"is_disabled": 0, "lon": -77.03192866666667, "lat": 38.915674333333335, "name": "b79201a1eb998b8eede3eee33e5020c8", "fusion_lon": 0.0, "fusion_lat": 0.0, "is_reserved": 0, "type": "electric_scooter", "bike_id": "b79201a1eb998b8eede3eee33e5020c8", "rental_uris": {"android": "https://dc.lft.to/lastmile_qr_scan", "ios": "https://dc.lft.to/lastmile_qr_scan"}}, {"is_disabled": 0, "lon": -77.04881733333333, "lat": 38.90518383333333, "name": "5f7ba7c2561a840bfd9835bda860021b", "fusion_lon": 0.0, "fusion_lat": 0.0, "is_reserved": 0, "type": "electric_scooter", "bike_id": "5f7ba7c2561a840bfd9835bda860021b", "rental_uris": {"android": "https://dc.lft.to/lastmile_qr_scan", "ios": "https://dc.lft.to/lastmile_qr_scan"}}, {"is_disabled": 0, "lon": -77.03647583333333, "lat": 38.917923, "name": "b47d8c620dd5cb779aaf37b9546f4bbb", "fusion_lon": 0.0, "fusion_lat": 0.0, "is_reserved": 0, "type": "electric_scooter", "bike_id": "b47d8c620dd5cb779aaf37b9546f4bbb", "rental_uris": {"android": "https://dc.lft.to/lastmile_qr_scan", "ios": "https://dc.lft.to/lastmile_qr_scan"}}, {"is_disabled": 0, "lon": -77.09659933333333, "lat": 38.952182666666666, "name": "7e37dd62c191e643f7ebd3029e5a68f7", "fusion_lon": 0.0, "fusion_lat": 0.0, "is_reserved": 0, "type": "electric_bike", "bike_id": "7e37dd62c191e643f7ebd3029e5a68f7", "rental_uris": {"android": "https://dc.lft.to/lastmile_qr_scan", "ios": "https://dc.lft.to/lastmile_qr_scan"}}, {"is_disabled": 0, "lon": -77.03309466666667, "lat": 38.911196333333336, "name": "8ccdb03f2573ba42f7a2dae83dff8239", "fusion_lon": 0.0, "fusion_lat": 0.0, "is_reserved": 0, "type": "electric_scooter", "bike_id": "8ccdb03f2573ba42f7a2dae83dff8239", "rental_uris": {"android": "https://dc.lft.to/lastmile_qr_scan", "ios": "https://dc.lft.to/lastmile_qr_scan"}}, {"is_disabled": 0, "lon": -77.02804016666667, "lat": 38.915766833333336, "name": "154042feafb3b8efb9dbcd4d61777178", "fusion_lon": 0.0, "fusion_lat": 0.0, "is_reserved": 0, "type": "electric_scooter", "bike_id": "154042feafb3b8efb9dbcd4d61777178", "rental_uris": {"android": "https://dc.lft.to/lastmile_qr_scan", "ios": "https://dc.lft.to/lastmile_qr_scan"}}, {"is_disabled": 0, "lon": -77.01954483333333, "lat": 38.923323833333335, "name": "b962fc1ec8a6867f8310bcdac12cec03", "fusion_lon": 0.0, "fusion_lat": 0.0, "is_reserved": 0, "type": "electric_scooter", "bike_id": "b962fc1ec8a6867f8310bcdac12cec03", "rental_uris": {"android": "https://dc.lft.to/lastmile_qr_scan", "ios": "https://dc.lft.to/lastmile_qr_scan"}}, {"is_disabled": 0, "lon": -77.0341965, "lat": 38.919336333333334, "name": "8dff96b11cde838c2b3f670d9223de58", "fusion_lon": 0.0, "fusion_lat": 0.0, "is_reserved": 0, "type": "electric_scooter", "bike_id": "8dff96b11cde838c2b3f670d9223de58", "rental_uris": {"android": "https://dc.lft.to/lastmile_qr_scan", "ios": "https://dc.lft.to/lastmile_qr_scan"}}, {"is_disabled": 0, "lon": -77.02806716666667, "lat": 38.93082866666666, "name": "8987baa5ceb7d8bd4d30350fb8831a6c", "fusion_lon": 0.0, "fusion_lat": 0.0, "is_reserved": 0, "type": "electric_scooter", "bike_id": "8987baa5ceb7d8bd4d30350fb8831a6c", "rental_uris": {"android": "https://dc.lft.to/lastmile_qr_scan", "ios": "https://dc.lft.to/lastmile_qr_scan"}}, {"is_disabled": 0, "lon": -77.01913183333333, "lat": 38.92377116666667, "name": "109c3fa8c9aea71b1197764120fb7d72", "fusion_lon": 0.0, "fusion_lat": 0.0, "is_reserved": 0, "type": "electric_scooter", "bike_id": "109c3fa8c9aea71b1197764120fb7d72", "rental_uris": {"android": "https://dc.lft.to/lastmile_qr_scan", "ios": "https://dc.lft.to/lastmile_qr_scan"}}, {"is_disabled": 0, "lon": -77.03426416666667, "lat": 38.919269, "name": "0c00f986ba1564739434464a651fccbb", "fusion_lon": 0.0, "fusion_lat": 0.0, "is_reserved": 0, "type": "electric_scooter", "bike_id": "0c00f986ba1564739434464a651fccbb", "rental_uris": {"android": "https://dc.lft.to/lastmile_qr_scan", "ios": "https://dc.lft.to/lastmile_qr_scan"}}, {"is_disabled": 0, "lon": -77.0170285, "lat": 38.904720833333336, "name": "e887a6d9e6841c6eff924442cc725714", "fusion_lon": 0.0, "fusion_lat": 0.0, "is_reserved": 0, "type": "electric_scooter", "bike_id": "e887a6d9e6841c6eff924442cc725714", "rental_uris": {"android": "https://dc.lft.to/lastmile_qr_scan", "ios": "https://dc.lft.to/lastmile_qr_scan"}}, {"is_disabled": 0, "lon": -77.01939683333333, "lat": 38.92247183333333, "name": "c50df37fd94f8c3b3b8ffed251b58f58", "fusion_lon": 0.0, "fusion_lat": 0.0, "is_reserved": 0, "type": "electric_scooter", "bike_id": "c50df37fd94f8c3b3b8ffed251b58f58", "rental_uris": {"android": "https://dc.lft.to/lastmile_qr_scan", "ios": "https://dc.lft.to/lastmile_qr_scan"}}, {"is_disabled": 0, "lon": -77.03397866666667, "lat": 38.899572, "name": "addde86af4b1ca65895f2bb448ea1b72", "fusion_lon": 0.0, "fusion_lat": 0.0, "is_reserved": 0, "type": "electric_scooter", "bike_id": "addde86af4b1ca65895f2bb448ea1b72", "rental_uris": {"android": "https://dc.lft.to/lastmile_qr_scan", "ios": "https://dc.lft.to/lastmile_qr_scan"}}, {"is_disabled": 0, "lon": -76.9722245, "lat": 38.900347333333336, "name": "d34b0f6feddad6019adcb5eb4bdc8f64", "fusion_lon": 0.0, "fusion_lat": 0.0, "is_reserved": 0, "type": "electric_bike", "bike_id": "d34b0f6feddad6019adcb5eb4bdc8f64", "rental_uris": {"android": "https://dc.lft.to/lastmile_qr_scan", "ios": "https://dc.lft.to/lastmile_qr_scan"}}, {"is_disabled": 0, "lon": -77.034463, "lat": 38.913958, "name": "c8dea20a60edb3c8b5223e768aa315c2", "fusion_lon": 0.0, "fusion_lat": 0.0, "is_reserved": 0, "type": "electric_scooter", "bike_id": "c8dea20a60edb3c8b5223e768aa315c2", "rental_uris": {"android": "https://dc.lft.to/lastmile_qr_scan", "ios": "https://dc.lft.to/lastmile_qr_scan"}}, {"is_disabled": 0, "lon": -77.02571516666667, "lat": 38.88746116666667, "name": "d9584f5c5970dc1fa40644e934302ab8", "fusion_lon": 0.0, "fusion_lat": 0.0, "is_reserved": 0, "type": "electric_scooter", "bike_id": "d9584f5c5970dc1fa40644e934302ab8", "rental_uris": {"android": "https://dc.lft.to/lastmile_qr_scan", "ios": "https://dc.lft.to/lastmile_qr_scan"}}, {"is_disabled": 0, "lon": -76.9902555, "lat": 38.83583766666667, "name": "9ae7e559a515cf199db8ddcda18bd400", "fusion_lon": 0.0, "fusion_lat": 0.0, "is_reserved": 0, "type": "electric_bike", "bike_id": "9ae7e559a515cf199db8ddcda18bd400", "rental_uris": {"android": "https://dc.lft.to/lastmile_qr_scan", "ios": "https://dc.lft.to/lastmile_qr_scan"}}, {"is_disabled": 0, "lon": -76.9609185, "lat": 38.91862233333333, "name": "669e99e8701cd66dea6d848320b8da25", "fusion_lon": 0.0, "fusion_lat": 0.0, "is_reserved": 0, "type": "electric_bike", "bike_id": "669e99e8701cd66dea6d848320b8da25", "rental_uris": {"android": "https://dc.lft.to/lastmile_qr_scan", "ios": "https://dc.lft.to/lastmile_qr_scan"}}, {"is_disabled": 0, "lon": -76.98860916666666, "lat": 38.844234666666665, "name": "3cf108780cf5c3fee430d06cd530b966", "fusion_lon": 0.0, "fusion_lat": 0.0, "is_reserved": 0, "type": "electric_scooter", "bike_id": "3cf108780cf5c3fee430d06cd530b966", "rental_uris": {"android": "https://dc.lft.to/lastmile_qr_scan", "ios": "https://dc.lft.to/lastmile_qr_scan"}}, {"is_disabled": 0, "lon": -77.0240485, "lat": 38.92514516666667, "name": "33210f387f87ba6cb171c38903bb3a82", "fusion_lon": 0.0, "fusion_lat": 0.0, "is_reserved": 0, "type": "electric_scooter", "bike_id": "33210f387f87ba6cb171c38903bb3a82", "rental_uris": {"android": "https://dc.lft.to/lastmile_qr_scan", "ios": "https://dc.lft.to/lastmile_qr_scan"}}, {"is_disabled": 0, "lon": -77.06657416666667, "lat": 38.90523783333333, "name": "020b6964f14c4d9acfdbe5a444d7886c", "fusion_lon": 0.0, "fusion_lat": 0.0, "is_reserved": 0, "type": "electric_bike", "bike_id": "020b6964f14c4d9acfdbe5a444d7886c", "rental_uris": {"android": "https://dc.lft.to/lastmile_qr_scan", "ios": "https://dc.lft.to/lastmile_qr_scan"}}, {"is_disabled": 0, "lon": -77.03772933333333, "lat": 38.9069465, "name": "eedb1e659f293eada27025421ee7c87c", "fusion_lon": 0.0, "fusion_lat": 0.0, "is_reserved": 0, "type": "electric_bike", "bike_id": "eedb1e659f293eada27025421ee7c87c", "rental_uris": {"android": "https://dc.lft.to/lastmile_qr_scan", "ios": "https://dc.lft.to/lastmile_qr_scan"}}, {"is_disabled": 0, "lon": -77.00221, "lat": 38.887341, "name": "f2f34265164acb7009006011dc945cc8", "fusion_lon": 0.0, "fusion_lat": 0.0, "is_reserved": 0, "type": "electric_scooter", "bike_id": "f2f34265164acb7009006011dc945cc8", "rental_uris": {"android": "https://dc.lft.to/lastmile_qr_scan", "ios": "https://dc.lft.to/lastmile_qr_scan"}}, {"is_disabled": 0, "lon": -77.03479516666667, "lat": 38.92880233333333, "name": "e57a50af5c03183f9ae9e76fbd5e518c", "fusion_lon": 0.0, "fusion_lat": 0.0, "is_reserved": 0, "type": "electric_scooter", "bike_id": "e57a50af5c03183f9ae9e76fbd5e518c", "rental_uris": {"android": "https://dc.lft.to/lastmile_qr_scan", "ios": "https://dc.lft.to/lastmile_qr_scan"}}, {"is_disabled": 0, "lon": -77.02176783333333, "lat": 38.9018995, "name": "a3c36807e75ec2f35c55d160dd3126d8", "fusion_lon": 0.0, "fusion_lat": 0.0, "is_reserved": 0, "type": "electric_scooter", "bike_id": "a3c36807e75ec2f35c55d160dd3126d8", "rental_uris": {"android": "https://dc.lft.to/lastmile_qr_scan", "ios": "https://dc.lft.to/lastmile_qr_scan"}}, {"is_disabled": 0, "lon": -77.032821, "lat": 38.936386, "name": "41d5c7cdb1b294b134e4f305e3d97bff", "fusion_lon": 0.0, "fusion_lat": 0.0, "is_reserved": 0, "type": "electric_scooter", "bike_id": "41d5c7cdb1b294b134e4f305e3d97bff", "rental_uris": {"android": "https://dc.lft.to/lastmile_qr_scan", "ios": "https://dc.lft.to/lastmile_qr_scan"}}, {"is_disabled": 0, "lon": -77.039659, "lat": 38.931523, "name": "04a04c798055d10740576ba02d2a715f", "fusion_lon": 0.0, "fusion_lat": 0.0, "is_reserved": 0, "type": "electric_scooter", "bike_id": "04a04c798055d10740576ba02d2a715f", "rental_uris": {"android": "https://dc.lft.to/lastmile_qr_scan", "ios": "https://dc.lft.to/lastmile_qr_scan"}}, {"is_disabled": 0, "lon": -76.99221666666666, "lat": 38.89740616666667, "name": "57ed0c8d2b2034e6f293558d316b131b", "fusion_lon": 0.0, "fusion_lat": 0.0, "is_reserved": 0, "type": "electric_bike", "bike_id": "57ed0c8d2b2034e6f293558d316b131b", "rental_uris": {"android": "https://dc.lft.to/lastmile_qr_scan", "ios": "https://dc.lft.to/lastmile_qr_scan"}}, {"is_disabled": 0, "lon": -77.03945733333333, "lat": 38.9083285, "name": "04b1968c39d061e45faf0cca485b271d", "fusion_lon": 0.0, "fusion_lat": 0.0, "is_reserved": 0, "type": "electric_scooter", "bike_id": "04b1968c39d061e45faf0cca485b271d", "rental_uris": {"android": "https://dc.lft.to/lastmile_qr_scan", "ios": "https://dc.lft.to/lastmile_qr_scan"}}, {"is_disabled": 0, "lon": -77.07295016666667, "lat": 38.92313, "name": "71d8f737bea09875b832874b74e51bdb", "fusion_lon": 0.0, "fusion_lat": 0.0, "is_reserved": 0, "type": "electric_scooter", "bike_id": "71d8f737bea09875b832874b74e51bdb", "rental_uris": {"android": "https://dc.lft.to/lastmile_qr_scan", "ios": "https://dc.lft.to/lastmile_qr_scan"}}, {"is_disabled": 0, "lon": -77.0327045, "lat": 38.898998, "name": "4b565658cbafbc33775838e79eaae91d", "fusion_lon": 0.0, "fusion_lat": 0.0, "is_reserved": 0, "type": "electric_scooter", "bike_id": "4b565658cbafbc33775838e79eaae91d", "rental_uris": {"android": "https://dc.lft.to/lastmile_qr_scan", "ios": "https://dc.lft.to/lastmile_qr_scan"}}, {"is_disabled": 0, "lon": -77.02307416666666, "lat": 38.91766, "name": "fe97acd79c9ab21bcfdb5927779324d0", "fusion_lon": 0.0, "fusion_lat": 0.0, "is_reserved": 0, "type": "electric_scooter", "bike_id": "fe97acd79c9ab21bcfdb5927779324d0", "rental_uris": {"android": "https://dc.lft.to/lastmile_qr_scan", "ios": "https://dc.lft.to/lastmile_qr_scan"}}, {"is_disabled": 0, "lon": -76.98085, "lat": 38.90415733333333, "name": "f9448a79a42b6dfe4eca0b0fc3f77346", "fusion_lon": 0.0, "fusion_lat": 0.0, "is_reserved": 0, "type": "electric_scooter", "bike_id": "f9448a79a42b6dfe4eca0b0fc3f77346", "rental_uris": {"android": "https://dc.lft.to/lastmile_qr_scan", "ios": "https://dc.lft.to/lastmile_qr_scan"}}, {"is_disabled": 0, "lon": -77.02777216666667, "lat": 38.901141833333334, "name": "2a241afd4f781d23c15ca61c05d765d1", "fusion_lon": 0.0, "fusion_lat": 0.0, "is_reserved": 0, "type": "electric_scooter", "bike_id": "2a241afd4f781d23c15ca61c05d765d1", "rental_uris": {"android": "https://dc.lft.to/lastmile_qr_scan", "ios": "https://dc.lft.to/lastmile_qr_scan"}}, {"is_disabled": 0, "lon": -77.029327, "lat": 38.9427805, "name": "79042306e006cf65f4e5aa16f8cfcc17", "fusion_lon": 0.0, "fusion_lat": 0.0, "is_reserved": 0, "type": "electric_scooter", "bike_id": "79042306e006cf65f4e5aa16f8cfcc17", "rental_uris": {"android": "https://dc.lft.to/lastmile_qr_scan", "ios": "https://dc.lft.to/lastmile_qr_scan"}}, {"is_disabled": 0, "lon": -77.03897866666667, "lat": 38.92216466666667, "name": "6220f0983f8d64fb4c804741e97d2b3a", "fusion_lon": 0.0, "fusion_lat": 0.0, "is_reserved": 0, "type": "electric_scooter", "bike_id": "6220f0983f8d64fb4c804741e97d2b3a", "rental_uris": {"android": "https://dc.lft.to/lastmile_qr_scan", "ios": "https://dc.lft.to/lastmile_qr_scan"}}, {"is_disabled": 0, "lon": -77.02986416666667, "lat": 38.900246333333335, "name": "ebb9bb52089f55a8c97fd1bf6ee0540d", "fusion_lon": 0.0, "fusion_lat": 0.0, "is_reserved": 0, "type": "electric_bike", "bike_id": "ebb9bb52089f55a8c97fd1bf6ee0540d", "rental_uris": {"android": "https://dc.lft.to/lastmile_qr_scan", "ios": "https://dc.lft.to/lastmile_qr_scan"}}, {"is_disabled": 0, "lon": -77.0331945, "lat": 38.90025133333333, "name": "ce8d1c059b17b2ae0a649f0467bd7e59", "fusion_lon": 0.0, "fusion_lat": 0.0, "is_reserved": 0, "type": "electric_scooter", "bike_id": "ce8d1c059b17b2ae0a649f0467bd7e59", "rental_uris": {"android": "https://dc.lft.to/lastmile_qr_scan", "ios": "https://dc.lft.to/lastmile_qr_scan"}}, {"is_disabled": 0, "lon": -77.0450285, "lat": 38.912737666666665, "name": "99ef4ed0561d83bbe33ed6a8724f9120", "fusion_lon": 0.0, "fusion_lat": 0.0, "is_reserved": 0, "type": "electric_scooter", "bike_id": "99ef4ed0561d83bbe33ed6a8724f9120", "rental_uris": {"android": "https://dc.lft.to/lastmile_qr_scan", "ios": "https://dc.lft.to/lastmile_qr_scan"}}, {"is_disabled": 0, "lon": -77.03319783333333, "lat": 38.89896316666667, "name": "c85001993c5e4cfdb0c07d819489e889", "fusion_lon": 0.0, "fusion_lat": 0.0, "is_reserved": 0, "type": "electric_scooter", "bike_id": "c85001993c5e4cfdb0c07d819489e889", "rental_uris": {"android": "https://dc.lft.to/lastmile_qr_scan", "ios": "https://dc.lft.to/lastmile_qr_scan"}}, {"is_disabled": 0, "lon": -77.03645166666666, "lat": 38.91268316666667, "name": "e90357a797d8341490ecbacad7a0f292", "fusion_lon": 0.0, "fusion_lat": 0.0, "is_reserved": 0, "type": "electric_scooter", "bike_id": "e90357a797d8341490ecbacad7a0f292", "rental_uris": {"android": "https://dc.lft.to/lastmile_qr_scan", "ios": "https://dc.lft.to/lastmile_qr_scan"}}, {"is_disabled": 0, "lon": -77.01851483333333, "lat": 38.90383583333333, "name": "c41fd7ad6aae8dcab0d24cb65df9b0cf", "fusion_lon": 0.0, "fusion_lat": 0.0, "is_reserved": 0, "type": "electric_scooter", "bike_id": "c41fd7ad6aae8dcab0d24cb65df9b0cf", "rental_uris": {"android": "https://dc.lft.to/lastmile_qr_scan", "ios": "https://dc.lft.to/lastmile_qr_scan"}}, {"is_disabled": 0, "lon": -77.04197666666667, "lat": 38.903811833333336, "name": "f0225399cc84c9054911eaaa60b86975", "fusion_lon": 0.0, "fusion_lat": 0.0, "is_reserved": 0, "type": "electric_scooter", "bike_id": "f0225399cc84c9054911eaaa60b86975", "rental_uris": {"android": "https://dc.lft.to/lastmile_qr_scan", "ios": "https://dc.lft.to/lastmile_qr_scan"}}, {"is_disabled": 0, "lon": -77.0406325, "lat": 38.904054333333335, "name": "6ca6323625ace5acab935c2d407edbc9", "fusion_lon": 0.0, "fusion_lat": 0.0, "is_reserved": 0, "type": "electric_scooter", "bike_id": "6ca6323625ace5acab935c2d407edbc9", "rental_uris": {"android": "https://dc.lft.to/lastmile_qr_scan", "ios": "https://dc.lft.to/lastmile_qr_scan"}}, {"is_disabled": 0, "lon": -77.042312, "lat": 38.9111265, "name": "77d7cd356a98bb50eb5ddbe500743d0d", "fusion_lon": 0.0, "fusion_lat": 0.0, "is_reserved": 0, "type": "electric_scooter", "bike_id": "77d7cd356a98bb50eb5ddbe500743d0d", "rental_uris": {"android": "https://dc.lft.to/lastmile_qr_scan", "ios": "https://dc.lft.to/lastmile_qr_scan"}}, {"is_disabled": 0, "lon": -77.040348, "lat": 38.91804783333333, "name": "7914cdf3dec944272a6d023586fb89fd", "fusion_lon": 0.0, "fusion_lat": 0.0, "is_reserved": 0, "type": "electric_scooter", "bike_id": "7914cdf3dec944272a6d023586fb89fd", "rental_uris": {"android": "https://dc.lft.to/lastmile_qr_scan", "ios": "https://dc.lft.to/lastmile_qr_scan"}}, {"is_disabled": 0, "lon": -76.98241516666667, "lat": 38.952409, "name": "7fd8cffb0d86f9a9f86f2f0c70c396e0", "fusion_lon": 0.0, "fusion_lat": 0.0, "is_reserved": 0, "type": "electric_bike", "bike_id": "7fd8cffb0d86f9a9f86f2f0c70c396e0", "rental_uris": {"android": "https://dc.lft.to/lastmile_qr_scan", "ios": "https://dc.lft.to/lastmile_qr_scan"}}, {"is_disabled": 0, "lon": -77.03475633333333, "lat": 38.90734783333333, "name": "2050e897e1827be377e32f919391093f", "fusion_lon": 0.0, "fusion_lat": 0.0, "is_reserved": 0, "type": "electric_scooter", "bike_id": "2050e897e1827be377e32f919391093f", "rental_uris": {"android": "https://dc.lft.to/lastmile_qr_scan", "ios": "https://dc.lft.to/lastmile_qr_scan"}}, {"is_disabled": 0, "lon": -77.04022766666667, "lat": 38.9128935, "name": "d81ecc2629b5d937479fe1e5d229f5b7", "fusion_lon": 0.0, "fusion_lat": 0.0, "is_reserved": 0, "type": "electric_scooter", "bike_id": "d81ecc2629b5d937479fe1e5d229f5b7", "rental_uris": {"android": "https://dc.lft.to/lastmile_qr_scan", "ios": "https://dc.lft.to/lastmile_qr_scan"}}, {"is_disabled": 0, "lon": -77.00518716666667, "lat": 38.87641, "name": "ea66127a0cbad606f647471fbc360eb7", "fusion_lon": 0.0, "fusion_lat": 0.0, "is_reserved": 0, "type": "electric_scooter", "bike_id": "ea66127a0cbad606f647471fbc360eb7", "rental_uris": {"android": "https://dc.lft.to/lastmile_qr_scan", "ios": "https://dc.lft.to/lastmile_qr_scan"}}, {"is_disabled": 0, "lon": -77.0272745, "lat": 38.918117333333335, "name": "678c4132913fea14367193ee36391e62", "fusion_lon": 0.0, "fusion_lat": 0.0, "is_reserved": 0, "type": "electric_scooter", "bike_id": "678c4132913fea14367193ee36391e62", "rental_uris": {"android": "https://dc.lft.to/lastmile_qr_scan", "ios": "https://dc.lft.to/lastmile_qr_scan"}}, {"is_disabled": 0, "lon": -77.03441633333334, "lat": 38.90978283333333, "name": "64d039d5c0e7ac45711a8844fba7fbbd", "fusion_lon": 0.0, "fusion_lat": 0.0, "is_reserved": 0, "type": "electric_scooter", "bike_id": "64d039d5c0e7ac45711a8844fba7fbbd", "rental_uris": {"android": "https://dc.lft.to/lastmile_qr_scan", "ios": "https://dc.lft.to/lastmile_qr_scan"}}, {"is_disabled": 0, "lon": -77.128355, "lat": 38.80055083333333, "name": "fb96ccee94be23b72922fa0813a85e8b", "fusion_lon": 0.0, "fusion_lat": 0.0, "is_reserved": 0, "type": "electric_bike", "bike_id": "fb96ccee94be23b72922fa0813a85e8b", "rental_uris": {"android": "https://dc.lft.to/lastmile_qr_scan", "ios": "https://dc.lft.to/lastmile_qr_scan"}}, {"is_disabled": 0, "lon": -76.997504, "lat": 38.900322333333335, "name": "d042717e5b87f9719ab975bc9600dcc4", "fusion_lon": 0.0, "fusion_lat": 0.0, "is_reserved": 0, "type": "electric_scooter", "bike_id": "d042717e5b87f9719ab975bc9600dcc4", "rental_uris": {"android": "https://dc.lft.to/lastmile_qr_scan", "ios": "https://dc.lft.to/lastmile_qr_scan"}}, {"is_disabled": 0, "lon": -77.0109125, "lat": 38.916241666666664, "name": "846eb2e367fe90dd34ecb287265b42f3", "fusion_lon": 0.0, "fusion_lat": 0.0, "is_reserved": 0, "type": "electric_scooter", "bike_id": "846eb2e367fe90dd34ecb287265b42f3", "rental_uris": {"android": "https://dc.lft.to/lastmile_qr_scan", "ios": "https://dc.lft.to/lastmile_qr_scan"}}, {"is_disabled": 0, "lon": -77.04444683333334, "lat": 38.92229783333333, "name": "71208dd76ca02af4ae527500acf1667b", "fusion_lon": 0.0, "fusion_lat": 0.0, "is_reserved": 0, "type": "electric_scooter", "bike_id": "71208dd76ca02af4ae527500acf1667b", "rental_uris": {"android": "https://dc.lft.to/lastmile_qr_scan", "ios": "https://dc.lft.to/lastmile_qr_scan"}}, {"is_disabled": 0, "lon": -77.00711266666667, "lat": 38.884917, "name": "f1669706915c6765ff557efbc851b409", "fusion_lon": 0.0, "fusion_lat": 0.0, "is_reserved": 0, "type": "electric_scooter", "bike_id": "f1669706915c6765ff557efbc851b409", "rental_uris": {"android": "https://dc.lft.to/lastmile_qr_scan", "ios": "https://dc.lft.to/lastmile_qr_scan"}}, {"is_disabled": 0, "lon": -77.0227775, "lat": 38.898431, "name": "ff37876d44efaaa2ac3b85de56e00547", "fusion_lon": 0.0, "fusion_lat": 0.0, "is_reserved": 0, "type": "electric_scooter", "bike_id": "ff37876d44efaaa2ac3b85de56e00547", "rental_uris": {"android": "https://dc.lft.to/lastmile_qr_scan", "ios": "https://dc.lft.to/lastmile_qr_scan"}}, {"is_disabled": 0, "lon": -77.042976, "lat": 38.931865333333334, "name": "0a750ec9231527b0636e3a633a487311", "fusion_lon": 0.0, "fusion_lat": 0.0, "is_reserved": 0, "type": "electric_scooter", "bike_id": "0a750ec9231527b0636e3a633a487311", "rental_uris": {"android": "https://dc.lft.to/lastmile_qr_scan", "ios": "https://dc.lft.to/lastmile_qr_scan"}}, {"is_disabled": 0, "lon": -77.00370366666667, "lat": 38.89732, "name": "53a20c94c5927800a871a5afcfe0af6a", "fusion_lon": 0.0, "fusion_lat": 0.0, "is_reserved": 0, "type": "electric_scooter", "bike_id": "53a20c94c5927800a871a5afcfe0af6a", "rental_uris": {"android": "https://dc.lft.to/lastmile_qr_scan", "ios": "https://dc.lft.to/lastmile_qr_scan"}}, {"is_disabled": 0, "lon": -77.019735, "lat": 38.87604966666667, "name": "c5679107229091100c0dd29bd0d4970c", "fusion_lon": 0.0, "fusion_lat": 0.0, "is_reserved": 0, "type": "electric_scooter", "bike_id": "c5679107229091100c0dd29bd0d4970c", "rental_uris": {"android": "https://dc.lft.to/lastmile_qr_scan", "ios": "https://dc.lft.to/lastmile_qr_scan"}}, {"is_disabled": 0, "lon": -77.00164383333333, "lat": 38.91912766666667, "name": "be2d5c0cef5218aa0ade5abb270b6e4a", "fusion_lon": 0.0, "fusion_lat": 0.0, "is_reserved": 0, "type": "electric_scooter", "bike_id": "be2d5c0cef5218aa0ade5abb270b6e4a", "rental_uris": {"android": "https://dc.lft.to/lastmile_qr_scan", "ios": "https://dc.lft.to/lastmile_qr_scan"}}, {"is_disabled": 0, "lon": -77.03177766666667, "lat": 38.89714166666667, "name": "22d4d052568657c3e0c822b9ffdcb61b", "fusion_lon": 0.0, "fusion_lat": 0.0, "is_reserved": 0, "type": "electric_scooter", "bike_id": "22d4d052568657c3e0c822b9ffdcb61b", "rental_uris": {"android": "https://dc.lft.to/lastmile_qr_scan", "ios": "https://dc.lft.to/lastmile_qr_scan"}}, {"is_disabled": 0, "lon": -77.03447033333333, "lat": 38.908131833333336, "name": "db27a542177efaf42eb8811b645aaede", "fusion_lon": 0.0, "fusion_lat": 0.0, "is_reserved": 0, "type": "electric_scooter", "bike_id": "db27a542177efaf42eb8811b645aaede", "rental_uris": {"android": "https://dc.lft.to/lastmile_qr_scan", "ios": "https://dc.lft.to/lastmile_qr_scan"}}, {"is_disabled": 0, "lon": -77.03989983333334, "lat": 38.89900216666667, "name": "8ae4d421c55266a9a33061d005843104", "fusion_lon": 0.0, "fusion_lat": 0.0, "is_reserved": 0, "type": "electric_scooter", "bike_id": "8ae4d421c55266a9a33061d005843104", "rental_uris": {"android": "https://dc.lft.to/lastmile_qr_scan", "ios": "https://dc.lft.to/lastmile_qr_scan"}}, {"is_disabled": 0, "lon": -77.07292933333333, "lat": 38.92282683333333, "name": "2d8476f09c7a41b0da6e04deb71723cf", "fusion_lon": 0.0, "fusion_lat": 0.0, "is_reserved": 0, "type": "electric_scooter", "bike_id": "2d8476f09c7a41b0da6e04deb71723cf", "rental_uris": {"android": "https://dc.lft.to/lastmile_qr_scan", "ios": "https://dc.lft.to/lastmile_qr_scan"}}, {"is_disabled": 0, "lon": -77.00766883333333, "lat": 38.90058416666667, "name": "4cb24378d29d0e1d290bf5a112461b7e", "fusion_lon": 0.0, "fusion_lat": 0.0, "is_reserved": 0, "type": "electric_scooter", "bike_id": "4cb24378d29d0e1d290bf5a112461b7e", "rental_uris": {"android": "https://dc.lft.to/lastmile_qr_scan", "ios": "https://dc.lft.to/lastmile_qr_scan"}}, {"is_disabled": 0, "lon": -77.04646733333334, "lat": 38.9037725, "name": "d0c7f83abb85747a70a44d89a343e4f6", "fusion_lon": 0.0, "fusion_lat": 0.0, "is_reserved": 0, "type": "electric_scooter", "bike_id": "d0c7f83abb85747a70a44d89a343e4f6", "rental_uris": {"android": "https://dc.lft.to/lastmile_qr_scan", "ios": "https://dc.lft.to/lastmile_qr_scan"}}, {"is_disabled": 0, "lon": -77.0282045, "lat": 38.9026825, "name": "e3bd6ae5b58b93ea29959551797f1dc7", "fusion_lon": 0.0, "fusion_lat": 0.0, "is_reserved": 0, "type": "electric_scooter", "bike_id": "e3bd6ae5b58b93ea29959551797f1dc7", "rental_uris": {"android": "https://dc.lft.to/lastmile_qr_scan", "ios": "https://dc.lft.to/lastmile_qr_scan"}}, {"is_disabled": 0, "lon": -76.98890283333333, "lat": 38.9347345, "name": "080bec01beedb8c89f507618199e6d6e", "fusion_lon": 0.0, "fusion_lat": 0.0, "is_reserved": 0, "type": "electric_scooter", "bike_id": "080bec01beedb8c89f507618199e6d6e", "rental_uris": {"android": "https://dc.lft.to/lastmile_qr_scan", "ios": "https://dc.lft.to/lastmile_qr_scan"}}, {"is_disabled": 0, "lon": -77.01253616666666, "lat": 38.89715616666667, "name": "52b651edeef3e76d98c6ca554bb3af7b", "fusion_lon": 0.0, "fusion_lat": 0.0, "is_reserved": 0, "type": "electric_scooter", "bike_id": "52b651edeef3e76d98c6ca554bb3af7b", "rental_uris": {"android": "https://dc.lft.to/lastmile_qr_scan", "ios": "https://dc.lft.to/lastmile_qr_scan"}}, {"is_disabled": 0, "lon": -77.02695266666667, "lat": 38.9406525, "name": "0fac33f1816affcc53d9afb79da801de", "fusion_lon": 0.0, "fusion_lat": 0.0, "is_reserved": 0, "type": "electric_scooter", "bike_id": "0fac33f1816affcc53d9afb79da801de", "rental_uris": {"android": "https://dc.lft.to/lastmile_qr_scan", "ios": "https://dc.lft.to/lastmile_qr_scan"}}, {"is_disabled": 0, "lon": -77.0726375, "lat": 38.90906733333333, "name": "368459ee8a05c082fc733159fae33f67", "fusion_lon": 0.0, "fusion_lat": 0.0, "is_reserved": 0, "type": "electric_scooter", "bike_id": "368459ee8a05c082fc733159fae33f67", "rental_uris": {"android": "https://dc.lft.to/lastmile_qr_scan", "ios": "https://dc.lft.to/lastmile_qr_scan"}}, {"is_disabled": 0, "lon": -77.02392833333333, "lat": 38.916801666666665, "name": "89585811e997433e3fd8f9516be9922a", "fusion_lon": 0.0, "fusion_lat": 0.0, "is_reserved": 0, "type": "electric_scooter", "bike_id": "89585811e997433e3fd8f9516be9922a", "rental_uris": {"android": "https://dc.lft.to/lastmile_qr_scan", "ios": "https://dc.lft.to/lastmile_qr_scan"}}, {"is_disabled": 0, "lon": -77.01227616666667, "lat": 38.897694666666666, "name": "435d501dbf3d3b8392064f95c65d3787", "fusion_lon": 0.0, "fusion_lat": 0.0, "is_reserved": 0, "type": "electric_scooter", "bike_id": "435d501dbf3d3b8392064f95c65d3787", "rental_uris": {"android": "https://dc.lft.to/lastmile_qr_scan", "ios": "https://dc.lft.to/lastmile_qr_scan"}}, {"is_disabled": 0, "lon": -77.0119745, "lat": 38.95074983333333, "name": "382f4da06b2f01d12665008baeb33cb4", "fusion_lon": 0.0, "fusion_lat": 0.0, "is_reserved": 0, "type": "electric_bike", "bike_id": "382f4da06b2f01d12665008baeb33cb4", "rental_uris": {"android": "https://dc.lft.to/lastmile_qr_scan", "ios": "https://dc.lft.to/lastmile_qr_scan"}}, {"is_disabled": 0, "lon": -77.02369916666666, "lat": 38.892197, "name": "705a06d34cc257bf4601151075381f4b", "fusion_lon": 0.0, "fusion_lat": 0.0, "is_reserved": 0, "type": "electric_scooter", "bike_id": "705a06d34cc257bf4601151075381f4b", "rental_uris": {"android": "https://dc.lft.to/lastmile_qr_scan", "ios": "https://dc.lft.to/lastmile_qr_scan"}}, {"is_disabled": 0, "lon": -76.95561783333333, "lat": 38.9850215, "name": "607627fe4f54ad0ab8d90eddbae615ab", "fusion_lon": 0.0, "fusion_lat": 0.0, "is_reserved": 0, "type": "electric_bike", "bike_id": "607627fe4f54ad0ab8d90eddbae615ab", "rental_uris": {"android": "https://dc.lft.to/lastmile_qr_scan", "ios": "https://dc.lft.to/lastmile_qr_scan"}}, {"is_disabled": 0, "lon": -77.02478266666667, "lat": 38.91928466666667, "name": "4209aaa1651aa6272f257db8c0568046", "fusion_lon": 0.0, "fusion_lat": 0.0, "is_reserved": 0, "type": "electric_scooter", "bike_id": "4209aaa1651aa6272f257db8c0568046", "rental_uris": {"android": "https://dc.lft.to/lastmile_qr_scan", "ios": "https://dc.lft.to/lastmile_qr_scan"}}, {"is_disabled": 0, "lon": -77.04466816666667, "lat": 38.9247325, "name": "85ab9fc3b1a41821e4a9fdab41f90f7b", "fusion_lon": 0.0, "fusion_lat": 0.0, "is_reserved": 0, "type": "electric_scooter", "bike_id": "85ab9fc3b1a41821e4a9fdab41f90f7b", "rental_uris": {"android": "https://dc.lft.to/lastmile_qr_scan", "ios": "https://dc.lft.to/lastmile_qr_scan"}}, {"is_disabled": 0, "lon": -77.025439, "lat": 38.9206565, "name": "04765f5193573b303356d8781e3d7478", "fusion_lon": 0.0, "fusion_lat": 0.0, "is_reserved": 0, "type": "electric_scooter", "bike_id": "04765f5193573b303356d8781e3d7478", "rental_uris": {"android": "https://dc.lft.to/lastmile_qr_scan", "ios": "https://dc.lft.to/lastmile_qr_scan"}}, {"is_disabled": 0, "lon": -77.010872, "lat": 38.895356, "name": "3ed3c12b3be4605d4a3e01acfe4d17bb", "fusion_lon": 0.0, "fusion_lat": 0.0, "is_reserved": 0, "type": "electric_scooter", "bike_id": "3ed3c12b3be4605d4a3e01acfe4d17bb", "rental_uris": {"android": "https://dc.lft.to/lastmile_qr_scan", "ios": "https://dc.lft.to/lastmile_qr_scan"}}, {"is_disabled": 0, "lon": -77.03432116666667, "lat": 38.90514066666667, "name": "4a64768a075e65d1b92bc200ffbb31c4", "fusion_lon": 0.0, "fusion_lat": 0.0, "is_reserved": 0, "type": "electric_scooter", "bike_id": "4a64768a075e65d1b92bc200ffbb31c4", "rental_uris": {"android": "https://dc.lft.to/lastmile_qr_scan", "ios": "https://dc.lft.to/lastmile_qr_scan"}}, {"is_disabled": 0, "lon": -77.02549533333334, "lat": 38.916326, "name": "b15d57351c075f1e3febb6f5e2ccbe42", "fusion_lon": 0.0, "fusion_lat": 0.0, "is_reserved": 0, "type": "electric_scooter", "bike_id": "b15d57351c075f1e3febb6f5e2ccbe42", "rental_uris": {"android": "https://dc.lft.to/lastmile_qr_scan", "ios": "https://dc.lft.to/lastmile_qr_scan"}}, {"is_disabled": 0, "lon": -77.062968, "lat": 38.903962666666665, "name": "5de513cdff3c3ba75fb7c4a13fb65121", "fusion_lon": 0.0, "fusion_lat": 0.0, "is_reserved": 0, "type": "electric_scooter", "bike_id": "5de513cdff3c3ba75fb7c4a13fb65121", "rental_uris": {"android": "https://dc.lft.to/lastmile_qr_scan", "ios": "https://dc.lft.to/lastmile_qr_scan"}}, {"is_disabled": 0, "lon": -77.01539166666667, "lat": 38.8916905, "name": "4c5b6433abbc49ba6a58959d9b094094", "fusion_lon": 0.0, "fusion_lat": 0.0, "is_reserved": 0, "type": "electric_scooter", "bike_id": "4c5b6433abbc49ba6a58959d9b094094", "rental_uris": {"android": "https://dc.lft.to/lastmile_qr_scan", "ios": "https://dc.lft.to/lastmile_qr_scan"}}, {"is_disabled": 0, "lon": -77.021419, "lat": 38.92353083333333, "name": "f53a4f4bca7b573b5ccf8dc1c33f16ba", "fusion_lon": 0.0, "fusion_lat": 0.0, "is_reserved": 0, "type": "electric_scooter", "bike_id": "f53a4f4bca7b573b5ccf8dc1c33f16ba", "rental_uris": {"android": "https://dc.lft.to/lastmile_qr_scan", "ios": "https://dc.lft.to/lastmile_qr_scan"}}, {"is_disabled": 0, "lon": -77.02816166666666, "lat": 38.91754916666667, "name": "51accb58b6667c403845502a6ff3701e", "fusion_lon": 0.0, "fusion_lat": 0.0, "is_reserved": 0, "type": "electric_scooter", "bike_id": "51accb58b6667c403845502a6ff3701e", "rental_uris": {"android": "https://dc.lft.to/lastmile_qr_scan", "ios": "https://dc.lft.to/lastmile_qr_scan"}}, {"is_disabled": 0, "lon": -77.04517883333334, "lat": 38.89607266666667, "name": "8fd007e1038099bb2c000cd6b94b8a5f", "fusion_lon": 0.0, "fusion_lat": 0.0, "is_reserved": 0, "type": "electric_scooter", "bike_id": "8fd007e1038099bb2c000cd6b94b8a5f", "rental_uris": {"android": "https://dc.lft.to/lastmile_qr_scan", "ios": "https://dc.lft.to/lastmile_qr_scan"}}, {"is_disabled": 0, "lon": -77.0248085, "lat": 38.93879183333333, "name": "78f74b08ae520eddd62040600a879817", "fusion_lon": 0.0, "fusion_lat": 0.0, "is_reserved": 0, "type": "electric_scooter", "bike_id": "78f74b08ae520eddd62040600a879817", "rental_uris": {"android": "https://dc.lft.to/lastmile_qr_scan", "ios": "https://dc.lft.to/lastmile_qr_scan"}}, {"is_disabled": 0, "lon": -77.04343516666667, "lat": 38.90385333333333, "name": "9d77db83a8df638f4f94a16c35229682", "fusion_lon": 0.0, "fusion_lat": 0.0, "is_reserved": 0, "type": "electric_scooter", "bike_id": "9d77db83a8df638f4f94a16c35229682", "rental_uris": {"android": "https://dc.lft.to/lastmile_qr_scan", "ios": "https://dc.lft.to/lastmile_qr_scan"}}, {"is_disabled": 0, "lon": -77.03171983333333, "lat": 38.92061, "name": "bc6ac0b32fcd8ac1e1a1720aafd277aa", "fusion_lon": 0.0, "fusion_lat": 0.0, "is_reserved": 0, "type": "electric_scooter", "bike_id": "bc6ac0b32fcd8ac1e1a1720aafd277aa", "rental_uris": {"android": "https://dc.lft.to/lastmile_qr_scan", "ios": "https://dc.lft.to/lastmile_qr_scan"}}, {"is_disabled": 0, "lon": -77.01982933333333, "lat": 38.88719566666666, "name": "67300f1c94e2802fad2c1a6907d03449", "fusion_lon": 0.0, "fusion_lat": 0.0, "is_reserved": 0, "type": "electric_scooter", "bike_id": "67300f1c94e2802fad2c1a6907d03449", "rental_uris": {"android": "https://dc.lft.to/lastmile_qr_scan", "ios": "https://dc.lft.to/lastmile_qr_scan"}}, {"is_disabled": 0, "lon": -77.03181333333333, "lat": 38.902102666666664, "name": "22d4980a27c939cd0d83aea7b243bb5e", "fusion_lon": 0.0, "fusion_lat": 0.0, "is_reserved": 0, "type": "electric_scooter", "bike_id": "22d4980a27c939cd0d83aea7b243bb5e", "rental_uris": {"android": "https://dc.lft.to/lastmile_qr_scan", "ios": "https://dc.lft.to/lastmile_qr_scan"}}, {"is_disabled": 0, "lon": -77.036343, "lat": 38.930581833333335, "name": "f77f7360667c7b432b0c72597188467f", "fusion_lon": 0.0, "fusion_lat": 0.0, "is_reserved": 0, "type": "electric_scooter", "bike_id": "f77f7360667c7b432b0c72597188467f", "rental_uris": {"android": "https://dc.lft.to/lastmile_qr_scan", "ios": "https://dc.lft.to/lastmile_qr_scan"}}, {"is_disabled": 0, "lon": -77.01441416666667, "lat": 38.90964866666667, "name": "371765e4bec14e4e9c1b92f7b7bd7ac0", "fusion_lon": 0.0, "fusion_lat": 0.0, "is_reserved": 0, "type": "electric_scooter", "bike_id": "371765e4bec14e4e9c1b92f7b7bd7ac0", "rental_uris": {"android": "https://dc.lft.to/lastmile_qr_scan", "ios": "https://dc.lft.to/lastmile_qr_scan"}}, {"is_disabled": 0, "lon": -76.970355, "lat": 38.873173333333334, "name": "0ab9f91e360f8c1e63d88fce0cb51bd2", "fusion_lon": 0.0, "fusion_lat": 0.0, "is_reserved": 0, "type": "electric_scooter", "bike_id": "0ab9f91e360f8c1e63d88fce0cb51bd2", "rental_uris": {"android": "https://dc.lft.to/lastmile_qr_scan", "ios": "https://dc.lft.to/lastmile_qr_scan"}}, {"is_disabled": 0, "lon": -77.00345466666667, "lat": 38.87777333333333, "name": "dec854b67c63216ff4fe1b6e8ae9a4a2", "fusion_lon": 0.0, "fusion_lat": 0.0, "is_reserved": 0, "type": "electric_scooter", "bike_id": "dec854b67c63216ff4fe1b6e8ae9a4a2", "rental_uris": {"android": "https://dc.lft.to/lastmile_qr_scan", "ios": "https://dc.lft.to/lastmile_qr_scan"}}, {"is_disabled": 0, "lon": -77.0216395, "lat": 38.89730266666667, "name": "0b126a29cbfacde8765f3a25b711de29", "fusion_lon": 0.0, "fusion_lat": 0.0, "is_reserved": 0, "type": "electric_scooter", "bike_id": "0b126a29cbfacde8765f3a25b711de29", "rental_uris": {"android": "https://dc.lft.to/lastmile_qr_scan", "ios": "https://dc.lft.to/lastmile_qr_scan"}}, {"is_disabled": 0, "lon": -77.03992116666667, "lat": 38.934220833333335, "name": "93b27b61b3c95a0d13288065ef2be7e6", "fusion_lon": 0.0, "fusion_lat": 0.0, "is_reserved": 0, "type": "electric_scooter", "bike_id": "93b27b61b3c95a0d13288065ef2be7e6", "rental_uris": {"android": "https://dc.lft.to/lastmile_qr_scan", "ios": "https://dc.lft.to/lastmile_qr_scan"}}, {"is_disabled": 0, "lon": -77.02299833333333, "lat": 38.92084083333334, "name": "91dfeb3781557eb4bdcacdbbe1763730", "fusion_lon": 0.0, "fusion_lat": 0.0, "is_reserved": 0, "type": "electric_scooter", "bike_id": "91dfeb3781557eb4bdcacdbbe1763730", "rental_uris": {"android": "https://dc.lft.to/lastmile_qr_scan", "ios": "https://dc.lft.to/lastmile_qr_scan"}}, {"is_disabled": 0, "lon": -76.99370166666667, "lat": 38.990973833333335, "name": "addfcf43067e2979f7ec7dcd99594c32", "fusion_lon": 0.0, "fusion_lat": 0.0, "is_reserved": 0, "type": "electric_bike", "bike_id": "addfcf43067e2979f7ec7dcd99594c32", "rental_uris": {"android": "https://dc.lft.to/lastmile_qr_scan", "ios": "https://dc.lft.to/lastmile_qr_scan"}}, {"is_disabled": 0, "lon": -77.02785883333334, "lat": 38.9619225, "name": "a3bb3c14460419ec77c902f84d9ead14", "fusion_lon": 0.0, "fusion_lat": 0.0, "is_reserved": 0, "type": "electric_scooter", "bike_id": "a3bb3c14460419ec77c902f84d9ead14", "rental_uris": {"android": "https://dc.lft.to/lastmile_qr_scan", "ios": "https://dc.lft.to/lastmile_qr_scan"}}, {"is_disabled": 0, "lon": -77.02077783333333, "lat": 38.88184283333333, "name": "58d99d71593cc01d3cd2b9f82af589b5", "fusion_lon": 0.0, "fusion_lat": 0.0, "is_reserved": 0, "type": "electric_scooter", "bike_id": "58d99d71593cc01d3cd2b9f82af589b5", "rental_uris": {"android": "https://dc.lft.to/lastmile_qr_scan", "ios": "https://dc.lft.to/lastmile_qr_scan"}}, {"is_disabled": 0, "lon": -77.00311466666666, "lat": 38.894812333333334, "name": "0a5b2ee2aebd4e2134233b588d08cafe", "fusion_lon": 0.0, "fusion_lat": 0.0, "is_reserved": 0, "type": "electric_scooter", "bike_id": "0a5b2ee2aebd4e2134233b588d08cafe", "rental_uris": {"android": "https://dc.lft.to/lastmile_qr_scan", "ios": "https://dc.lft.to/lastmile_qr_scan"}}, {"is_disabled": 0, "lon": -77.0190485, "lat": 38.923464333333335, "name": "422301c25e2cf22b1c3b2199c289c022", "fusion_lon": 0.0, "fusion_lat": 0.0, "is_reserved": 0, "type": "electric_scooter", "bike_id": "422301c25e2cf22b1c3b2199c289c022", "rental_uris": {"android": "https://dc.lft.to/lastmile_qr_scan", "ios": "https://dc.lft.to/lastmile_qr_scan"}}, {"is_disabled": 0, "lon": -76.9977745, "lat": 38.922737, "name": "9ceffdc498db16c6df5e091221bb758b", "fusion_lon": 0.0, "fusion_lat": 0.0, "is_reserved": 0, "type": "electric_scooter", "bike_id": "9ceffdc498db16c6df5e091221bb758b", "rental_uris": {"android": "https://dc.lft.to/lastmile_qr_scan", "ios": "https://dc.lft.to/lastmile_qr_scan"}}, {"is_disabled": 0, "lon": -77.00836266666667, "lat": 38.875820833333336, "name": "6be17380451c17dca5a653d33bd91752", "fusion_lon": 0.0, "fusion_lat": 0.0, "is_reserved": 0, "type": "electric_scooter", "bike_id": "6be17380451c17dca5a653d33bd91752", "rental_uris": {"android": "https://dc.lft.to/lastmile_qr_scan", "ios": "https://dc.lft.to/lastmile_qr_scan"}}, {"is_disabled": 0, "lon": -76.94228633333333, "lat": 38.8905235, "name": "e89f358a9794321ef41b2f4f8b8d4242", "fusion_lon": 0.0, "fusion_lat": 0.0, "is_reserved": 0, "type": "electric_bike", "bike_id": "e89f358a9794321ef41b2f4f8b8d4242", "rental_uris": {"android": "https://dc.lft.to/lastmile_qr_scan", "ios": "https://dc.lft.to/lastmile_qr_scan"}}, {"is_disabled": 0, "lon": -77.04186516666667, "lat": 38.9205595, "name": "c48f330ecb406e12e21e235e2119d98d", "fusion_lon": 0.0, "fusion_lat": 0.0, "is_reserved": 0, "type": "electric_scooter", "bike_id": "c48f330ecb406e12e21e235e2119d98d", "rental_uris": {"android": "https://dc.lft.to/lastmile_qr_scan", "ios": "https://dc.lft.to/lastmile_qr_scan"}}, {"is_disabled": 0, "lon": -76.93630133333333, "lat": 38.883523833333335, "name": "3ea6c22f795d5344b659392e20b42b44", "fusion_lon": 0.0, "fusion_lat": 0.0, "is_reserved": 0, "type": "electric_scooter", "bike_id": "3ea6c22f795d5344b659392e20b42b44", "rental_uris": {"android": "https://dc.lft.to/lastmile_qr_scan", "ios": "https://dc.lft.to/lastmile_qr_scan"}}, {"is_disabled": 0, "lon": -77.06693333333334, "lat": 38.8316985, "name": "0ee6b0240cb3fa6501ed0adc90263f57", "fusion_lon": 0.0, "fusion_lat": 0.0, "is_reserved": 0, "type": "electric_bike", "bike_id": "0ee6b0240cb3fa6501ed0adc90263f57", "rental_uris": {"android": "https://dc.lft.to/lastmile_qr_scan", "ios": "https://dc.lft.to/lastmile_qr_scan"}}, {"is_disabled": 0, "lon": -77.0384105, "lat": 38.90265216666667, "name": "dfc55634f66ec2ca7327defe6baac35b", "fusion_lon": 0.0, "fusion_lat": 0.0, "is_reserved": 0, "type": "electric_scooter", "bike_id": "dfc55634f66ec2ca7327defe6baac35b", "rental_uris": {"android": "https://dc.lft.to/lastmile_qr_scan", "ios": "https://dc.lft.to/lastmile_qr_scan"}}, {"is_disabled": 0, "lon": -77.0269625, "lat": 38.90871666666666, "name": "6744c5299cea68e98d3900f5260e2129", "fusion_lon": 0.0, "fusion_lat": 0.0, "is_reserved": 0, "type": "electric_scooter", "bike_id": "6744c5299cea68e98d3900f5260e2129", "rental_uris": {"android": "https://dc.lft.to/lastmile_qr_scan", "ios": "https://dc.lft.to/lastmile_qr_scan"}}, {"is_disabled": 0, "lon": -76.9973305, "lat": 38.9203705, "name": "1359c6df3266e2491995ef99dd6775ea", "fusion_lon": 0.0, "fusion_lat": 0.0, "is_reserved": 0, "type": "electric_scooter", "bike_id": "1359c6df3266e2491995ef99dd6775ea", "rental_uris": {"android": "https://dc.lft.to/lastmile_qr_scan", "ios": "https://dc.lft.to/lastmile_qr_scan"}}, {"is_disabled": 0, "lon": -76.935234, "lat": 38.87897016666667, "name": "88cc326e204d868c9d4b0026e25855ad", "fusion_lon": 0.0, "fusion_lat": 0.0, "is_reserved": 0, "type": "electric_scooter", "bike_id": "88cc326e204d868c9d4b0026e25855ad", "rental_uris": {"android": "https://dc.lft.to/lastmile_qr_scan", "ios": "https://dc.lft.to/lastmile_qr_scan"}}, {"is_disabled": 0, "lon": -77.02844516666667, "lat": 38.930603833333336, "name": "a153d4fbf3ebd6b900afdc9d3a13dffa", "fusion_lon": 0.0, "fusion_lat": 0.0, "is_reserved": 0, "type": "electric_scooter", "bike_id": "a153d4fbf3ebd6b900afdc9d3a13dffa", "rental_uris": {"android": "https://dc.lft.to/lastmile_qr_scan", "ios": "https://dc.lft.to/lastmile_qr_scan"}}, {"is_disabled": 0, "lon": -77.03533233333333, "lat": 38.9077625, "name": "00336376649adaaa78e5e600d45a4a07", "fusion_lon": 0.0, "fusion_lat": 0.0, "is_reserved": 0, "type": "electric_scooter", "bike_id": "00336376649adaaa78e5e600d45a4a07", "rental_uris": {"android": "https://dc.lft.to/lastmile_qr_scan", "ios": "https://dc.lft.to/lastmile_qr_scan"}}, {"is_disabled": 0, "lon": -77.08320133333334, "lat": 38.85445583333333, "name": "a3fd7e54ef15a24c2a259a69d8681090", "fusion_lon": 0.0, "fusion_lat": 0.0, "is_reserved": 0, "type": "electric_bike", "bike_id": "a3fd7e54ef15a24c2a259a69d8681090", "rental_uris": {"android": "https://dc.lft.to/lastmile_qr_scan", "ios": "https://dc.lft.to/lastmile_qr_scan"}}, {"is_disabled": 0, "lon": -77.0121205, "lat": 38.897651333333336, "name": "0374ebbc42ae2e2e4f663c5e54c4fdaa", "fusion_lon": 0.0, "fusion_lat": 0.0, "is_reserved": 0, "type": "electric_scooter", "bike_id": "0374ebbc42ae2e2e4f663c5e54c4fdaa", "rental_uris": {"android": "https://dc.lft.to/lastmile_qr_scan", "ios": "https://dc.lft.to/lastmile_qr_scan"}}, {"is_disabled": 0, "lon": -76.97700883333333, "lat": 38.82208716666667, "name": "ff1a8bd0fbb9c432d5e2e7370a914831", "fusion_lon": 0.0, "fusion_lat": 0.0, "is_reserved": 0, "type": "electric_bike", "bike_id": "ff1a8bd0fbb9c432d5e2e7370a914831", "rental_uris": {"android": "https://dc.lft.to/lastmile_qr_scan", "ios": "https://dc.lft.to/lastmile_qr_scan"}}, {"is_disabled": 0, "lon": -77.04011416666667, "lat": 38.907267833333336, "name": "78b00b388b404c3366ddda8e4d22eafd", "fusion_lon": 0.0, "fusion_lat": 0.0, "is_reserved": 0, "type": "electric_scooter", "bike_id": "78b00b388b404c3366ddda8e4d22eafd", "rental_uris": {"android": "https://dc.lft.to/lastmile_qr_scan", "ios": "https://dc.lft.to/lastmile_qr_scan"}}, {"is_disabled": 0, "lon": -77.035862, "lat": 38.908198, "name": "7712c62c1b5bdc5e6dec8221775b045a", "fusion_lon": 0.0, "fusion_lat": 0.0, "is_reserved": 0, "type": "electric_scooter", "bike_id": "7712c62c1b5bdc5e6dec8221775b045a", "rental_uris": {"android": "https://dc.lft.to/lastmile_qr_scan", "ios": "https://dc.lft.to/lastmile_qr_scan"}}, {"is_disabled": 0, "lon": -77.01189183333334, "lat": 38.900278666666665, "name": "2169c0e0eaa8d1cf42daf59df51d97ab", "fusion_lon": 0.0, "fusion_lat": 0.0, "is_reserved": 0, "type": "electric_scooter", "bike_id": "2169c0e0eaa8d1cf42daf59df51d97ab", "rental_uris": {"android": "https://dc.lft.to/lastmile_qr_scan", "ios": "https://dc.lft.to/lastmile_qr_scan"}}, {"is_disabled": 0, "lon": -77.04141666666666, "lat": 38.922594, "name": "9eac1f368615c054bd6ae1586f7f03e8", "fusion_lon": 0.0, "fusion_lat": 0.0, "is_reserved": 0, "type": "electric_scooter", "bike_id": "9eac1f368615c054bd6ae1586f7f03e8", "rental_uris": {"android": "https://dc.lft.to/lastmile_qr_scan", "ios": "https://dc.lft.to/lastmile_qr_scan"}}, {"is_disabled": 0, "lon": -77.01210266666666, "lat": 38.91556666666666, "name": "9d7fe81f24dfca8016b31a9d91bee085", "fusion_lon": 0.0, "fusion_lat": 0.0, "is_reserved": 0, "type": "electric_scooter", "bike_id": "9d7fe81f24dfca8016b31a9d91bee085", "rental_uris": {"android": "https://dc.lft.to/lastmile_qr_scan", "ios": "https://dc.lft.to/lastmile_qr_scan"}}, {"is_disabled": 0, "lon": -77.05005316666667, "lat": 38.90525933333333, "name": "4e8f40e4a888f9466d6a3f1ab50322e6", "fusion_lon": 0.0, "fusion_lat": 0.0, "is_reserved": 0, "type": "electric_scooter", "bike_id": "4e8f40e4a888f9466d6a3f1ab50322e6", "rental_uris": {"android": "https://dc.lft.to/lastmile_qr_scan", "ios": "https://dc.lft.to/lastmile_qr_scan"}}, {"is_disabled": 0, "lon": -77.03214383333334, "lat": 38.928737, "name": "78b44d52cea9fe907d410fad26f4bb4f", "fusion_lon": 0.0, "fusion_lat": 0.0, "is_reserved": 0, "type": "electric_scooter", "bike_id": "78b44d52cea9fe907d410fad26f4bb4f", "rental_uris": {"android": "https://dc.lft.to/lastmile_qr_scan", "ios": "https://dc.lft.to/lastmile_qr_scan"}}, {"is_disabled": 0, "lon": -77.02206083333333, "lat": 38.9248025, "name": "f1a581b690e2da2c7f7885dd9b9b4be4", "fusion_lon": 0.0, "fusion_lat": 0.0, "is_reserved": 0, "type": "electric_scooter", "bike_id": "f1a581b690e2da2c7f7885dd9b9b4be4", "rental_uris": {"android": "https://dc.lft.to/lastmile_qr_scan", "ios": "https://dc.lft.to/lastmile_qr_scan"}}, {"is_disabled": 0, "lon": -76.93756583333334, "lat": 38.890339, "name": "c42f70206e88ffd4f94ebb6ce60de5ec", "fusion_lon": 0.0, "fusion_lat": 0.0, "is_reserved": 0, "type": "electric_scooter", "bike_id": "c42f70206e88ffd4f94ebb6ce60de5ec", "rental_uris": {"android": "https://dc.lft.to/lastmile_qr_scan", "ios": "https://dc.lft.to/lastmile_qr_scan"}}, {"is_disabled": 0, "lon": -77.0056765, "lat": 38.885022666666664, "name": "0bf36faf52c8e85a375ff30c6d8d9035", "fusion_lon": 0.0, "fusion_lat": 0.0, "is_reserved": 0, "type": "electric_scooter", "bike_id": "0bf36faf52c8e85a375ff30c6d8d9035", "rental_uris": {"android": "https://dc.lft.to/lastmile_qr_scan", "ios": "https://dc.lft.to/lastmile_qr_scan"}}, {"is_disabled": 0, "lon": -76.991612, "lat": 38.905255333333336, "name": "77b9941a91f730b8be0604c2d3d94485", "fusion_lon": 0.0, "fusion_lat": 0.0, "is_reserved": 0, "type": "electric_scooter", "bike_id": "77b9941a91f730b8be0604c2d3d94485", "rental_uris": {"android": "https://dc.lft.to/lastmile_qr_scan", "ios": "https://dc.lft.to/lastmile_qr_scan"}}, {"is_disabled": 0, "lon": -77.02135833333334, "lat": 38.927487, "name": "3991386919ddda780c7734b15f952d2a", "fusion_lon": 0.0, "fusion_lat": 0.0, "is_reserved": 0, "type": "electric_scooter", "bike_id": "3991386919ddda780c7734b15f952d2a", "rental_uris": {"android": "https://dc.lft.to/lastmile_qr_scan", "ios": "https://dc.lft.to/lastmile_qr_scan"}}, {"is_disabled": 0, "lon": -76.983616, "lat": 38.9219795, "name": "00c9e89d875259c454eedc00a9f00e7f", "fusion_lon": 0.0, "fusion_lat": 0.0, "is_reserved": 0, "type": "electric_scooter", "bike_id": "00c9e89d875259c454eedc00a9f00e7f", "rental_uris": {"android": "https://dc.lft.to/lastmile_qr_scan", "ios": "https://dc.lft.to/lastmile_qr_scan"}}, {"is_disabled": 0, "lon": -77.03283633333334, "lat": 38.929359833333336, "name": "193c1c73784acc3a6838592f50438a71", "fusion_lon": 0.0, "fusion_lat": 0.0, "is_reserved": 0, "type": "electric_scooter", "bike_id": "193c1c73784acc3a6838592f50438a71", "rental_uris": {"android": "https://dc.lft.to/lastmile_qr_scan", "ios": "https://dc.lft.to/lastmile_qr_scan"}}, {"is_disabled": 0, "lon": -77.0118945, "lat": 38.90013883333334, "name": "8490b1b4b0c701ebbe59f363e5e5d656", "fusion_lon": 0.0, "fusion_lat": 0.0, "is_reserved": 0, "type": "electric_scooter", "bike_id": "8490b1b4b0c701ebbe59f363e5e5d656", "rental_uris": {"android": "https://dc.lft.to/lastmile_qr_scan", "ios": "https://dc.lft.to/lastmile_qr_scan"}}, {"is_disabled": 0, "lon": -77.02930883333333, "lat": 38.9170175, "name": "e59e48ae28d307869feb8900ffafb7b7", "fusion_lon": 0.0, "fusion_lat": 0.0, "is_reserved": 0, "type": "electric_scooter", "bike_id": "e59e48ae28d307869feb8900ffafb7b7", "rental_uris": {"android": "https://dc.lft.to/lastmile_qr_scan", "ios": "https://dc.lft.to/lastmile_qr_scan"}}, {"is_disabled": 0, "lon": -77.03042516666666, "lat": 38.917153, "name": "618812813685b7c09f43076ac8d22a37", "fusion_lon": 0.0, "fusion_lat": 0.0, "is_reserved": 0, "type": "electric_scooter", "bike_id": "618812813685b7c09f43076ac8d22a37", "rental_uris": {"android": "https://dc.lft.to/lastmile_qr_scan", "ios": "https://dc.lft.to/lastmile_qr_scan"}}, {"is_disabled": 0, "lon": -76.99807883333334, "lat": 38.905601, "name": "8bba87cdb078aa8c85b1e37f19839194", "fusion_lon": 0.0, "fusion_lat": 0.0, "is_reserved": 0, "type": "electric_scooter", "bike_id": "8bba87cdb078aa8c85b1e37f19839194", "rental_uris": {"android": "https://dc.lft.to/lastmile_qr_scan", "ios": "https://dc.lft.to/lastmile_qr_scan"}}, {"is_disabled": 0, "lon": -77.030189, "lat": 38.878494, "name": "f152988729a94cba238dcacbcf57ebe6", "fusion_lon": 0.0, "fusion_lat": 0.0, "is_reserved": 0, "type": "electric_scooter", "bike_id": "f152988729a94cba238dcacbcf57ebe6", "rental_uris": {"android": "https://dc.lft.to/lastmile_qr_scan", "ios": "https://dc.lft.to/lastmile_qr_scan"}}, {"is_disabled": 0, "lon": -77.03341083333333, "lat": 38.914065, "name": "f6ea270ab2103dc5b87fb2d4a8fd93d7", "fusion_lon": 0.0, "fusion_lat": 0.0, "is_reserved": 0, "type": "electric_scooter", "bike_id": "f6ea270ab2103dc5b87fb2d4a8fd93d7", "rental_uris": {"android": "https://dc.lft.to/lastmile_qr_scan", "ios": "https://dc.lft.to/lastmile_qr_scan"}}, {"is_disabled": 0, "lon": -77.01962933333333, "lat": 38.92928, "name": "62c18aaaa4fe7724ab7a059703f506d4", "fusion_lon": 0.0, "fusion_lat": 0.0, "is_reserved": 0, "type": "electric_scooter", "bike_id": "62c18aaaa4fe7724ab7a059703f506d4", "rental_uris": {"android": "https://dc.lft.to/lastmile_qr_scan", "ios": "https://dc.lft.to/lastmile_qr_scan"}}, {"is_disabled": 0, "lon": -77.0284045, "lat": 38.88182466666667, "name": "a3ac192bc00e4587e588f9c0421ed3eb", "fusion_lon": 0.0, "fusion_lat": 0.0, "is_reserved": 0, "type": "electric_scooter", "bike_id": "a3ac192bc00e4587e588f9c0421ed3eb", "rental_uris": {"android": "https://dc.lft.to/lastmile_qr_scan", "ios": "https://dc.lft.to/lastmile_qr_scan"}}, {"is_disabled": 0, "lon": -77.04674516666667, "lat": 38.895588833333335, "name": "a3e95ebde2b5ddaa110837bebad80113", "fusion_lon": 0.0, "fusion_lat": 0.0, "is_reserved": 0, "type": "electric_scooter", "bike_id": "a3e95ebde2b5ddaa110837bebad80113", "rental_uris": {"android": "https://dc.lft.to/lastmile_qr_scan", "ios": "https://dc.lft.to/lastmile_qr_scan"}}, {"is_disabled": 0, "lon": -77.129759, "lat": 38.799847, "name": "d764d1d998a8feb65ec9465d5dbef078", "fusion_lon": 0.0, "fusion_lat": 0.0, "is_reserved": 0, "type": "electric_bike", "bike_id": "d764d1d998a8feb65ec9465d5dbef078", "rental_uris": {"android": "https://dc.lft.to/lastmile_qr_scan", "ios": "https://dc.lft.to/lastmile_qr_scan"}}, {"is_disabled": 0, "lon": -77.02938333333333, "lat": 38.90728633333333, "name": "32c5bde8fb4caa718d95b93dc43580ec", "fusion_lon": 0.0, "fusion_lat": 0.0, "is_reserved": 0, "type": "electric_scooter", "bike_id": "32c5bde8fb4caa718d95b93dc43580ec", "rental_uris": {"android": "https://dc.lft.to/lastmile_qr_scan", "ios": "https://dc.lft.to/lastmile_qr_scan"}}, {"is_disabled": 0, "lon": -77.02021516666667, "lat": 38.924406166666664, "name": "8c0429670551e3d3534119da169f15a3", "fusion_lon": 0.0, "fusion_lat": 0.0, "is_reserved": 0, "type": "electric_scooter", "bike_id": "8c0429670551e3d3534119da169f15a3", "rental_uris": {"android": "https://dc.lft.to/lastmile_qr_scan", "ios": "https://dc.lft.to/lastmile_qr_scan"}}, {"is_disabled": 0, "lon": -77.03934066666666, "lat": 38.924776, "name": "805f0a251d2eb51fc072370ffdc1f828", "fusion_lon": 0.0, "fusion_lat": 0.0, "is_reserved": 0, "type": "electric_scooter", "bike_id": "805f0a251d2eb51fc072370ffdc1f828", "rental_uris": {"android": "https://dc.lft.to/lastmile_qr_scan", "ios": "https://dc.lft.to/lastmile_qr_scan"}}, {"is_disabled": 0, "lon": -77.038501, "lat": 38.902628166666666, "name": "844e7eb41a8afae496cf812b7efd86f6", "fusion_lon": 0.0, "fusion_lat": 0.0, "is_reserved": 0, "type": "electric_scooter", "bike_id": "844e7eb41a8afae496cf812b7efd86f6", "rental_uris": {"android": "https://dc.lft.to/lastmile_qr_scan", "ios": "https://dc.lft.to/lastmile_qr_scan"}}, {"is_disabled": 0, "lon": -77.01189416666666, "lat": 38.900173, "name": "a603afec649d933566de8146d2f7b579", "fusion_lon": 0.0, "fusion_lat": 0.0, "is_reserved": 0, "type": "electric_scooter", "bike_id": "a603afec649d933566de8146d2f7b579", "rental_uris": {"android": "https://dc.lft.to/lastmile_qr_scan", "ios": "https://dc.lft.to/lastmile_qr_scan"}}, {"is_disabled": 0, "lon": -77.04733516666667, "lat": 38.895561, "name": "84fe1511c6e6629c745106170f9392f0", "fusion_lon": 0.0, "fusion_lat": 0.0, "is_reserved": 0, "type": "electric_scooter", "bike_id": "84fe1511c6e6629c745106170f9392f0", "rental_uris": {"android": "https://dc.lft.to/lastmile_qr_scan", "ios": "https://dc.lft.to/lastmile_qr_scan"}}, {"is_disabled": 0, "lon": -77.069851, "lat": 38.955292166666666, "name": "fd74151a3e90dbc91e6a414f6fb3d883", "fusion_lon": 0.0, "fusion_lat": 0.0, "is_reserved": 0, "type": "electric_scooter", "bike_id": "fd74151a3e90dbc91e6a414f6fb3d883", "rental_uris": {"android": "https://dc.lft.to/lastmile_qr_scan", "ios": "https://dc.lft.to/lastmile_qr_scan"}}, {"is_disabled": 0, "lon": -77.023275, "lat": 38.89733916666667, "name": "d92832fa6614b5d39bc3192079bb6aee", "fusion_lon": 0.0, "fusion_lat": 0.0, "is_reserved": 0, "type": "electric_scooter", "bike_id": "d92832fa6614b5d39bc3192079bb6aee", "rental_uris": {"android": "https://dc.lft.to/lastmile_qr_scan", "ios": "https://dc.lft.to/lastmile_qr_scan"}}, {"is_disabled": 0, "lon": -77.04983483333334, "lat": 38.90530183333333, "name": "88db867238c01d2842b782c7c102eb6b", "fusion_lon": 0.0, "fusion_lat": 0.0, "is_reserved": 0, "type": "electric_scooter", "bike_id": "88db867238c01d2842b782c7c102eb6b", "rental_uris": {"android": "https://dc.lft.to/lastmile_qr_scan", "ios": "https://dc.lft.to/lastmile_qr_scan"}}, {"is_disabled": 0, "lon": -77.04625783333333, "lat": 38.902687, "name": "f70fa6e953a55de2c7053faee82b38ba", "fusion_lon": 0.0, "fusion_lat": 0.0, "is_reserved": 0, "type": "electric_scooter", "bike_id": "f70fa6e953a55de2c7053faee82b38ba", "rental_uris": {"android": "https://dc.lft.to/lastmile_qr_scan", "ios": "https://dc.lft.to/lastmile_qr_scan"}}, {"is_disabled": 0, "lon": -77.05760133333334, "lat": 38.92446183333333, "name": "5262392bd53c27bbab522f753d01d681", "fusion_lon": 0.0, "fusion_lat": 0.0, "is_reserved": 0, "type": "electric_scooter", "bike_id": "5262392bd53c27bbab522f753d01d681", "rental_uris": {"android": "https://dc.lft.to/lastmile_qr_scan", "ios": "https://dc.lft.to/lastmile_qr_scan"}}, {"is_disabled": 0, "lon": -76.9318525, "lat": 38.898558333333334, "name": "11a372817e9cede87d2d0d005bb0401f", "fusion_lon": 0.0, "fusion_lat": 0.0, "is_reserved": 0, "type": "electric_scooter", "bike_id": "11a372817e9cede87d2d0d005bb0401f", "rental_uris": {"android": "https://dc.lft.to/lastmile_qr_scan", "ios": "https://dc.lft.to/lastmile_qr_scan"}}, {"is_disabled": 0, "lon": -77.018458, "lat": 38.9053965, "name": "895f79e4339a6010c4741a1383e17184", "fusion_lon": 0.0, "fusion_lat": 0.0, "is_reserved": 0, "type": "electric_scooter", "bike_id": "895f79e4339a6010c4741a1383e17184", "rental_uris": {"android": "https://dc.lft.to/lastmile_qr_scan", "ios": "https://dc.lft.to/lastmile_qr_scan"}}, {"is_disabled": 0, "lon": -77.0322125, "lat": 38.91832016666667, "name": "9b0b84bb0e48f510486473506046204e", "fusion_lon": 0.0, "fusion_lat": 0.0, "is_reserved": 0, "type": "electric_scooter", "bike_id": "9b0b84bb0e48f510486473506046204e", "rental_uris": {"android": "https://dc.lft.to/lastmile_qr_scan", "ios": "https://dc.lft.to/lastmile_qr_scan"}}, {"is_disabled": 0, "lon": -77.01016583333333, "lat": 38.91257433333333, "name": "60e98a448df56e82753a66c7d2f6c9b1", "fusion_lon": 0.0, "fusion_lat": 0.0, "is_reserved": 0, "type": "electric_scooter", "bike_id": "60e98a448df56e82753a66c7d2f6c9b1", "rental_uris": {"android": "https://dc.lft.to/lastmile_qr_scan", "ios": "https://dc.lft.to/lastmile_qr_scan"}}, {"is_disabled": 0, "lon": -77.03665716666667, "lat": 38.9227495, "name": "f996553a4cb6197d95b93d424062d122", "fusion_lon": 0.0, "fusion_lat": 0.0, "is_reserved": 0, "type": "electric_scooter", "bike_id": "f996553a4cb6197d95b93d424062d122", "rental_uris": {"android": "https://dc.lft.to/lastmile_qr_scan", "ios": "https://dc.lft.to/lastmile_qr_scan"}}, {"is_disabled": 0, "lon": -77.0518965, "lat": 38.90308316666667, "name": "4027a79a4597f8725cb1669c5c7a6f67", "fusion_lon": 0.0, "fusion_lat": 0.0, "is_reserved": 0, "type": "electric_scooter", "bike_id": "4027a79a4597f8725cb1669c5c7a6f67", "rental_uris": {"android": "https://dc.lft.to/lastmile_qr_scan", "ios": "https://dc.lft.to/lastmile_qr_scan"}}, {"is_disabled": 0, "lon": -77.015621, "lat": 38.8859785, "name": "7b35642cb7d4650ac4f2175261e66e3b", "fusion_lon": 0.0, "fusion_lat": 0.0, "is_reserved": 0, "type": "electric_scooter", "bike_id": "7b35642cb7d4650ac4f2175261e66e3b", "rental_uris": {"android": "https://dc.lft.to/lastmile_qr_scan", "ios": "https://dc.lft.to/lastmile_qr_scan"}}, {"is_disabled": 0, "lon": -77.0216815, "lat": 38.94290633333333, "name": "9196143cbcf6d87952e1c379f2f9332c", "fusion_lon": 0.0, "fusion_lat": 0.0, "is_reserved": 0, "type": "electric_scooter", "bike_id": "9196143cbcf6d87952e1c379f2f9332c", "rental_uris": {"android": "https://dc.lft.to/lastmile_qr_scan", "ios": "https://dc.lft.to/lastmile_qr_scan"}}, {"is_disabled": 0, "lon": -76.98689983333334, "lat": 38.94469, "name": "aab940021eecc6492f6b458c67bcdf51", "fusion_lon": 0.0, "fusion_lat": 0.0, "is_reserved": 0, "type": "electric_bike", "bike_id": "aab940021eecc6492f6b458c67bcdf51", "rental_uris": {"android": "https://dc.lft.to/lastmile_qr_scan", "ios": "https://dc.lft.to/lastmile_qr_scan"}}, {"is_disabled": 0, "lon": -77.00219733333333, "lat": 38.9002625, "name": "2098dad003ca3ec374be55872ac41a16", "fusion_lon": 0.0, "fusion_lat": 0.0, "is_reserved": 0, "type": "electric_scooter", "bike_id": "2098dad003ca3ec374be55872ac41a16", "rental_uris": {"android": "https://dc.lft.to/lastmile_qr_scan", "ios": "https://dc.lft.to/lastmile_qr_scan"}}, {"is_disabled": 0, "lon": -77.03131016666667, "lat": 38.919043333333335, "name": "f870a31513ee5791f5bbeef258ccfd63", "fusion_lon": 0.0, "fusion_lat": 0.0, "is_reserved": 0, "type": "electric_scooter", "bike_id": "f870a31513ee5791f5bbeef258ccfd63", "rental_uris": {"android": "https://dc.lft.to/lastmile_qr_scan", "ios": "https://dc.lft.to/lastmile_qr_scan"}}, {"is_disabled": 0, "lon": -77.08614666666666, "lat": 38.931278666666664, "name": "ed9d166dc50999c3f8acfe58589ac293", "fusion_lon": 0.0, "fusion_lat": 0.0, "is_reserved": 0, "type": "electric_bike", "bike_id": "ed9d166dc50999c3f8acfe58589ac293", "rental_uris": {"android": "https://dc.lft.to/lastmile_qr_scan", "ios": "https://dc.lft.to/lastmile_qr_scan"}}, {"is_disabled": 0, "lon": -77.02004966666667, "lat": 38.924166166666666, "name": "615a5cfe2bbcde06ba016c8da33c6075", "fusion_lon": 0.0, "fusion_lat": 0.0, "is_reserved": 0, "type": "electric_scooter", "bike_id": "615a5cfe2bbcde06ba016c8da33c6075", "rental_uris": {"android": "https://dc.lft.to/lastmile_qr_scan", "ios": "https://dc.lft.to/lastmile_qr_scan"}}, {"is_disabled": 0, "lon": -76.96261916666667, "lat": 38.96786633333333, "name": "0dc00c45673bcc9c8775340afc7ff89a", "fusion_lon": 0.0, "fusion_lat": 0.0, "is_reserved": 0, "type": "electric_bike", "bike_id": "0dc00c45673bcc9c8775340afc7ff89a", "rental_uris": {"android": "https://dc.lft.to/lastmile_qr_scan", "ios": "https://dc.lft.to/lastmile_qr_scan"}}, {"is_disabled": 0, "lon": -77.0362765, "lat": 38.972979333333335, "name": "b883a4ca7b70909f0ef307c420d671b9", "fusion_lon": 0.0, "fusion_lat": 0.0, "is_reserved": 0, "type": "electric_bike", "bike_id": "b883a4ca7b70909f0ef307c420d671b9", "rental_uris": {"android": "https://dc.lft.to/lastmile_qr_scan", "ios": "https://dc.lft.to/lastmile_qr_scan"}}, {"is_disabled": 0, "lon": -76.9691815, "lat": 38.846181666666666, "name": "309c5d7b33b414c6bc386fdd9351a39a", "fusion_lon": 0.0, "fusion_lat": 0.0, "is_reserved": 0, "type": "electric_bike", "bike_id": "309c5d7b33b414c6bc386fdd9351a39a", "rental_uris": {"android": "https://dc.lft.to/lastmile_qr_scan", "ios": "https://dc.lft.to/lastmile_qr_scan"}}, {"is_disabled": 0, "lon": -77.0186775, "lat": 38.87658033333334, "name": "3e0ad429bbfbc0d764bf19f4c1c953f1", "fusion_lon": 0.0, "fusion_lat": 0.0, "is_reserved": 0, "type": "electric_scooter", "bike_id": "3e0ad429bbfbc0d764bf19f4c1c953f1", "rental_uris": {"android": "https://dc.lft.to/lastmile_qr_scan", "ios": "https://dc.lft.to/lastmile_qr_scan"}}, {"is_disabled": 0, "lon": -76.98224533333334, "lat": 38.878831, "name": "7d702e4189ca79f6abd8c9c0801edb1d", "fusion_lon": 0.0, "fusion_lat": 0.0, "is_reserved": 0, "type": "electric_bike", "bike_id": "7d702e4189ca79f6abd8c9c0801edb1d", "rental_uris": {"android": "https://dc.lft.to/lastmile_qr_scan", "ios": "https://dc.lft.to/lastmile_qr_scan"}}, {"is_disabled": 0, "lon": -77.028119, "lat": 38.904727333333334, "name": "d56123ea479adfcfbb52ce43af590a21", "fusion_lon": 0.0, "fusion_lat": 0.0, "is_reserved": 0, "type": "electric_scooter", "bike_id": "d56123ea479adfcfbb52ce43af590a21", "rental_uris": {"android": "https://dc.lft.to/lastmile_qr_scan", "ios": "https://dc.lft.to/lastmile_qr_scan"}}, {"is_disabled": 0, "lon": -77.0840525, "lat": 38.91301566666667, "name": "c7c1636de7340c0ce0355a03ee07ee00", "fusion_lon": 0.0, "fusion_lat": 0.0, "is_reserved": 0, "type": "electric_bike", "bike_id": "c7c1636de7340c0ce0355a03ee07ee00", "rental_uris": {"android": "https://dc.lft.to/lastmile_qr_scan", "ios": "https://dc.lft.to/lastmile_qr_scan"}}, {"is_disabled": 0, "lon": -76.97922783333334, "lat": 38.9168315, "name": "79a1fb184971f1fa16e14901d57f7892", "fusion_lon": 0.0, "fusion_lat": 0.0, "is_reserved": 0, "type": "electric_bike", "bike_id": "79a1fb184971f1fa16e14901d57f7892", "rental_uris": {"android": "https://dc.lft.to/lastmile_qr_scan", "ios": "https://dc.lft.to/lastmile_qr_scan"}}, {"is_disabled": 0, "lon": -77.10211416666667, "lat": 38.9200145, "name": "b9cd9512792b2ef9c7879fd2940024d4", "fusion_lon": 0.0, "fusion_lat": 0.0, "is_reserved": 0, "type": "electric_bike", "bike_id": "b9cd9512792b2ef9c7879fd2940024d4", "rental_uris": {"android": "https://dc.lft.to/lastmile_qr_scan", "ios": "https://dc.lft.to/lastmile_qr_scan"}}, {"is_disabled": 0, "lon": -77.00713266666666, "lat": 38.90024366666667, "name": "b07053fdb7996f4930445b271fbea344", "fusion_lon": 0.0, "fusion_lat": 0.0, "is_reserved": 0, "type": "electric_scooter", "bike_id": "b07053fdb7996f4930445b271fbea344", "rental_uris": {"android": "https://dc.lft.to/lastmile_qr_scan", "ios": "https://dc.lft.to/lastmile_qr_scan"}}, {"is_disabled": 0, "lon": -77.04536433333334, "lat": 38.907393, "name": "02eb32487ec92da4fa3706cf771e7a1a", "fusion_lon": 0.0, "fusion_lat": 0.0, "is_reserved": 0, "type": "electric_scooter", "bike_id": "02eb32487ec92da4fa3706cf771e7a1a", "rental_uris": {"android": "https://dc.lft.to/lastmile_qr_scan", "ios": "https://dc.lft.to/lastmile_qr_scan"}}, {"is_disabled": 0, "lon": -77.034253, "lat": 38.930843, "name": "6b698725e27b02aa01a90289a8f78ba0", "fusion_lon": 0.0, "fusion_lat": 0.0, "is_reserved": 0, "type": "electric_scooter", "bike_id": "6b698725e27b02aa01a90289a8f78ba0", "rental_uris": {"android": "https://dc.lft.to/lastmile_qr_scan", "ios": "https://dc.lft.to/lastmile_qr_scan"}}, {"is_disabled": 0, "lon": -76.98378766666667, "lat": 38.879430166666666, "name": "fa8d3f3f6fc31d9455bfa350a44a6535", "fusion_lon": 0.0, "fusion_lat": 0.0, "is_reserved": 0, "type": "electric_scooter", "bike_id": "fa8d3f3f6fc31d9455bfa350a44a6535", "rental_uris": {"android": "https://dc.lft.to/lastmile_qr_scan", "ios": "https://dc.lft.to/lastmile_qr_scan"}}, {"is_disabled": 0, "lon": -77.02645883333334, "lat": 38.89747166666667, "name": "4d909088b2dc3c4f9c42d4fdf02cef71", "fusion_lon": 0.0, "fusion_lat": 0.0, "is_reserved": 0, "type": "electric_scooter", "bike_id": "4d909088b2dc3c4f9c42d4fdf02cef71", "rental_uris": {"android": "https://dc.lft.to/lastmile_qr_scan", "ios": "https://dc.lft.to/lastmile_qr_scan"}}, {"is_disabled": 0, "lon": -77.01101083333333, "lat": 38.88540666666667, "name": "0a7560fd03afecad36082e576b1c859b", "fusion_lon": 0.0, "fusion_lat": 0.0, "is_reserved": 0, "type": "electric_scooter", "bike_id": "0a7560fd03afecad36082e576b1c859b", "rental_uris": {"android": "https://dc.lft.to/lastmile_qr_scan", "ios": "https://dc.lft.to/lastmile_qr_scan"}}, {"is_disabled": 0, "lon": -77.0100825, "lat": 38.91707066666667, "name": "9c24e0ef173e59cb953c60baaa12fc81", "fusion_lon": 0.0, "fusion_lat": 0.0, "is_reserved": 0, "type": "electric_scooter", "bike_id": "9c24e0ef173e59cb953c60baaa12fc81", "rental_uris": {"android": "https://dc.lft.to/lastmile_qr_scan", "ios": "https://dc.lft.to/lastmile_qr_scan"}}, {"is_disabled": 0, "lon": -77.0181425, "lat": 38.921543, "name": "184cc72ab3765ebcdde70bbab4926a8f", "fusion_lon": 0.0, "fusion_lat": 0.0, "is_reserved": 0, "type": "electric_scooter", "bike_id": "184cc72ab3765ebcdde70bbab4926a8f", "rental_uris": {"android": "https://dc.lft.to/lastmile_qr_scan", "ios": "https://dc.lft.to/lastmile_qr_scan"}}, {"is_disabled": 0, "lon": -77.03281066666666, "lat": 38.9364055, "name": "3022d9a8458e0f1b27adee15dcbbdd71", "fusion_lon": 0.0, "fusion_lat": 0.0, "is_reserved": 0, "type": "electric_scooter", "bike_id": "3022d9a8458e0f1b27adee15dcbbdd71", "rental_uris": {"android": "https://dc.lft.to/lastmile_qr_scan", "ios": "https://dc.lft.to/lastmile_qr_scan"}}, {"is_disabled": 0, "lon": -77.02384816666667, "lat": 38.91709083333333, "name": "f98b0f32118e918740ebeca7437c5cee", "fusion_lon": 0.0, "fusion_lat": 0.0, "is_reserved": 0, "type": "electric_scooter", "bike_id": "f98b0f32118e918740ebeca7437c5cee", "rental_uris": {"android": "https://dc.lft.to/lastmile_qr_scan", "ios": "https://dc.lft.to/lastmile_qr_scan"}}, {"is_disabled": 0, "lon": -77.065904, "lat": 38.9052145, "name": "5b76c4925fc93d151b3c44944ab2af3a", "fusion_lon": 0.0, "fusion_lat": 0.0, "is_reserved": 0, "type": "electric_scooter", "bike_id": "5b76c4925fc93d151b3c44944ab2af3a", "rental_uris": {"android": "https://dc.lft.to/lastmile_qr_scan", "ios": "https://dc.lft.to/lastmile_qr_scan"}}, {"is_disabled": 0, "lon": -77.0453755, "lat": 38.900679333333336, "name": "d2b64c53cd8d31d5c92d42909a38d622", "fusion_lon": 0.0, "fusion_lat": 0.0, "is_reserved": 0, "type": "electric_scooter", "bike_id": "d2b64c53cd8d31d5c92d42909a38d622", "rental_uris": {"android": "https://dc.lft.to/lastmile_qr_scan", "ios": "https://dc.lft.to/lastmile_qr_scan"}}, {"is_disabled": 0, "lon": -77.0697535, "lat": 38.95233316666667, "name": "b9d6bbaf8e105683f197b134c9d53059", "fusion_lon": 0.0, "fusion_lat": 0.0, "is_reserved": 0, "type": "electric_scooter", "bike_id": "b9d6bbaf8e105683f197b134c9d53059", "rental_uris": {"android": "https://dc.lft.to/lastmile_qr_scan", "ios": "https://dc.lft.to/lastmile_qr_scan"}}, {"is_disabled": 0, "lon": -76.9854555, "lat": 38.89242466666666, "name": "faf84935ec65de7fed22231e227ad596", "fusion_lon": 0.0, "fusion_lat": 0.0, "is_reserved": 0, "type": "electric_bike", "bike_id": "faf84935ec65de7fed22231e227ad596", "rental_uris": {"android": "https://dc.lft.to/lastmile_qr_scan", "ios": "https://dc.lft.to/lastmile_qr_scan"}}, {"is_disabled": 0, "lon": -77.01607466666667, "lat": 38.910749833333334, "name": "79420863f545f3bedf1b02ca1fb85d32", "fusion_lon": 0.0, "fusion_lat": 0.0, "is_reserved": 0, "type": "electric_scooter", "bike_id": "79420863f545f3bedf1b02ca1fb85d32", "rental_uris": {"android": "https://dc.lft.to/lastmile_qr_scan", "ios": "https://dc.lft.to/lastmile_qr_scan"}}, {"is_disabled": 0, "lon": -77.02553083333333, "lat": 38.916347333333334, "name": "3b6b28cdefe57b84bba52b568c84ea0e", "fusion_lon": 0.0, "fusion_lat": 0.0, "is_reserved": 0, "type": "electric_scooter", "bike_id": "3b6b28cdefe57b84bba52b568c84ea0e", "rental_uris": {"android": "https://dc.lft.to/lastmile_qr_scan", "ios": "https://dc.lft.to/lastmile_qr_scan"}}, {"is_disabled": 0, "lon": -77.04016, "lat": 38.898564, "name": "181b7eca3c6ca78f300d4de2e7887137", "fusion_lon": 0.0, "fusion_lat": 0.0, "is_reserved": 0, "type": "electric_scooter", "bike_id": "181b7eca3c6ca78f300d4de2e7887137", "rental_uris": {"android": "https://dc.lft.to/lastmile_qr_scan", "ios": "https://dc.lft.to/lastmile_qr_scan"}}, {"is_disabled": 0, "lon": -77.0259745, "lat": 38.900292, "name": "e9f29c7044eda86f6227ba8f6a8e61ea", "fusion_lon": 0.0, "fusion_lat": 0.0, "is_reserved": 0, "type": "electric_scooter", "bike_id": "e9f29c7044eda86f6227ba8f6a8e61ea", "rental_uris": {"android": "https://dc.lft.to/lastmile_qr_scan", "ios": "https://dc.lft.to/lastmile_qr_scan"}}, {"is_disabled": 0, "lon": -77.02168166666667, "lat": 38.942902333333336, "name": "3331b16b4bcf2cdaf578c6c717c35861", "fusion_lon": 0.0, "fusion_lat": 0.0, "is_reserved": 0, "type": "electric_scooter", "bike_id": "3331b16b4bcf2cdaf578c6c717c35861", "rental_uris": {"android": "https://dc.lft.to/lastmile_qr_scan", "ios": "https://dc.lft.to/lastmile_qr_scan"}}, {"is_disabled": 0, "lon": -77.0185555, "lat": 38.9149475, "name": "ca291db2d0c6882d1f46e996f4f98c0c", "fusion_lon": 0.0, "fusion_lat": 0.0, "is_reserved": 0, "type": "electric_scooter", "bike_id": "ca291db2d0c6882d1f46e996f4f98c0c", "rental_uris": {"android": "https://dc.lft.to/lastmile_qr_scan", "ios": "https://dc.lft.to/lastmile_qr_scan"}}, {"is_disabled": 0, "lon": -77.027034, "lat": 38.900934166666666, "name": "1980d68402c3bdb8028a256de35d7b8a", "fusion_lon": 0.0, "fusion_lat": 0.0, "is_reserved": 0, "type": "electric_scooter", "bike_id": "1980d68402c3bdb8028a256de35d7b8a", "rental_uris": {"android": "https://dc.lft.to/lastmile_qr_scan", "ios": "https://dc.lft.to/lastmile_qr_scan"}}, {"is_disabled": 0, "lon": -77.00579616666667, "lat": 38.905437, "name": "e1df45bc6ff7a2e5daedf8357573fa4b", "fusion_lon": 0.0, "fusion_lat": 0.0, "is_reserved": 0, "type": "electric_scooter", "bike_id": "e1df45bc6ff7a2e5daedf8357573fa4b", "rental_uris": {"android": "https://dc.lft.to/lastmile_qr_scan", "ios": "https://dc.lft.to/lastmile_qr_scan"}}, {"is_disabled": 0, "lon": -77.04212066666666, "lat": 38.90914883333333, "name": "bc1b6131c82ea2feb1e2bcfe3e433475", "fusion_lon": 0.0, "fusion_lat": 0.0, "is_reserved": 0, "type": "electric_scooter", "bike_id": "bc1b6131c82ea2feb1e2bcfe3e433475", "rental_uris": {"android": "https://dc.lft.to/lastmile_qr_scan", "ios": "https://dc.lft.to/lastmile_qr_scan"}}, {"is_disabled": 0, "lon": -76.9814025, "lat": 38.93492666666667, "name": "37088e4835dbf9a7bd756ec95ca5d7ed", "fusion_lon": 0.0, "fusion_lat": 0.0, "is_reserved": 0, "type": "electric_bike", "bike_id": "37088e4835dbf9a7bd756ec95ca5d7ed", "rental_uris": {"android": "https://dc.lft.to/lastmile_qr_scan", "ios": "https://dc.lft.to/lastmile_qr_scan"}}, {"is_disabled": 0, "lon": -77.0220765, "lat": 38.96495633333333, "name": "07b7d5fd70c39297a5aa8959dabfcc70", "fusion_lon": 0.0, "fusion_lat": 0.0, "is_reserved": 0, "type": "electric_bike", "bike_id": "07b7d5fd70c39297a5aa8959dabfcc70", "rental_uris": {"android": "https://dc.lft.to/lastmile_qr_scan", "ios": "https://dc.lft.to/lastmile_qr_scan"}}, {"is_disabled": 0, "lon": -77.01197983333333, "lat": 38.89796616666667, "name": "9aa1e278336bf26ec44107a3628d2145", "fusion_lon": 0.0, "fusion_lat": 0.0, "is_reserved": 0, "type": "electric_scooter", "bike_id": "9aa1e278336bf26ec44107a3628d2145", "rental_uris": {"android": "https://dc.lft.to/lastmile_qr_scan", "ios": "https://dc.lft.to/lastmile_qr_scan"}}, {"is_disabled": 0, "lon": -77.03218766666667, "lat": 38.91771133333334, "name": "5a3f9b79fbbef0fbd31809c8b34126aa", "fusion_lon": 0.0, "fusion_lat": 0.0, "is_reserved": 0, "type": "electric_scooter", "bike_id": "5a3f9b79fbbef0fbd31809c8b34126aa", "rental_uris": {"android": "https://dc.lft.to/lastmile_qr_scan", "ios": "https://dc.lft.to/lastmile_qr_scan"}}, {"is_disabled": 0, "lon": -77.02568316666667, "lat": 38.925242, "name": "a4ac39c1d671cdaaf30427ac1a34f9c4", "fusion_lon": 0.0, "fusion_lat": 0.0, "is_reserved": 0, "type": "electric_scooter", "bike_id": "a4ac39c1d671cdaaf30427ac1a34f9c4", "rental_uris": {"android": "https://dc.lft.to/lastmile_qr_scan", "ios": "https://dc.lft.to/lastmile_qr_scan"}}, {"is_disabled": 0, "lon": -77.01869483333333, "lat": 38.951538166666666, "name": "11a785af08737d1694ba7203b2ec3840", "fusion_lon": 0.0, "fusion_lat": 0.0, "is_reserved": 0, "type": "electric_scooter", "bike_id": "11a785af08737d1694ba7203b2ec3840", "rental_uris": {"android": "https://dc.lft.to/lastmile_qr_scan", "ios": "https://dc.lft.to/lastmile_qr_scan"}}, {"is_disabled": 0, "lon": -77.038608, "lat": 38.901542, "name": "2d6920b05374104a2146c589a8a55466", "fusion_lon": 0.0, "fusion_lat": 0.0, "is_reserved": 0, "type": "electric_scooter", "bike_id": "2d6920b05374104a2146c589a8a55466", "rental_uris": {"android": "https://dc.lft.to/lastmile_qr_scan", "ios": "https://dc.lft.to/lastmile_qr_scan"}}, {"is_disabled": 0, "lon": -77.00049383333334, "lat": 38.900229333333336, "name": "e426347e62b3305c082890c5f48d9939", "fusion_lon": 0.0, "fusion_lat": 0.0, "is_reserved": 0, "type": "electric_scooter", "bike_id": "e426347e62b3305c082890c5f48d9939", "rental_uris": {"android": "https://dc.lft.to/lastmile_qr_scan", "ios": "https://dc.lft.to/lastmile_qr_scan"}}, {"is_disabled": 0, "lon": -77.02380433333333, "lat": 38.897187833333334, "name": "e5a7023f26f55d3edf35a6961ee81b96", "fusion_lon": 0.0, "fusion_lat": 0.0, "is_reserved": 0, "type": "electric_scooter", "bike_id": "e5a7023f26f55d3edf35a6961ee81b96", "rental_uris": {"android": "https://dc.lft.to/lastmile_qr_scan", "ios": "https://dc.lft.to/lastmile_qr_scan"}}, {"is_disabled": 0, "lon": -77.04329966666667, "lat": 38.900268, "name": "7349434c62891b06569af9ba4ddb2a69", "fusion_lon": 0.0, "fusion_lat": 0.0, "is_reserved": 0, "type": "electric_scooter", "bike_id": "7349434c62891b06569af9ba4ddb2a69", "rental_uris": {"android": "https://dc.lft.to/lastmile_qr_scan", "ios": "https://dc.lft.to/lastmile_qr_scan"}}, {"is_disabled": 0, "lon": -77.019929, "lat": 38.91178633333333, "name": "9d727023fc2ccab294b8c473b6a6bde3", "fusion_lon": 0.0, "fusion_lat": 0.0, "is_reserved": 0, "type": "electric_scooter", "bike_id": "9d727023fc2ccab294b8c473b6a6bde3", "rental_uris": {"android": "https://dc.lft.to/lastmile_qr_scan", "ios": "https://dc.lft.to/lastmile_qr_scan"}}, {"is_disabled": 0, "lon": -77.03906066666667, "lat": 38.914202333333336, "name": "40e4b507619a39dcfc5c70157f21ecdc", "fusion_lon": 0.0, "fusion_lat": 0.0, "is_reserved": 0, "type": "electric_scooter", "bike_id": "40e4b507619a39dcfc5c70157f21ecdc", "rental_uris": {"android": "https://dc.lft.to/lastmile_qr_scan", "ios": "https://dc.lft.to/lastmile_qr_scan"}}, {"is_disabled": 0, "lon": -77.076403, "lat": 38.908708833333336, "name": "922fdaf71a0ddd73fea07f22fe390f29", "fusion_lon": 0.0, "fusion_lat": 0.0, "is_reserved": 0, "type": "electric_scooter", "bike_id": "922fdaf71a0ddd73fea07f22fe390f29", "rental_uris": {"android": "https://dc.lft.to/lastmile_qr_scan", "ios": "https://dc.lft.to/lastmile_qr_scan"}}, {"is_disabled": 0, "lon": -77.05177383333333, "lat": 38.90274983333333, "name": "bf9ff97b57cc812e6b2827d7fd78c419", "fusion_lon": 0.0, "fusion_lat": 0.0, "is_reserved": 0, "type": "electric_scooter", "bike_id": "bf9ff97b57cc812e6b2827d7fd78c419", "rental_uris": {"android": "https://dc.lft.to/lastmile_qr_scan", "ios": "https://dc.lft.to/lastmile_qr_scan"}}, {"is_disabled": 0, "lon": -77.02108266666667, "lat": 38.8949875, "name": "5f54bc8ac0bb97b05cb2f953943ec1ff", "fusion_lon": 0.0, "fusion_lat": 0.0, "is_reserved": 0, "type": "electric_scooter", "bike_id": "5f54bc8ac0bb97b05cb2f953943ec1ff", "rental_uris": {"android": "https://dc.lft.to/lastmile_qr_scan", "ios": "https://dc.lft.to/lastmile_qr_scan"}}, {"is_disabled": 0, "lon": -77.027733, "lat": 38.93069116666667, "name": "6b2665fa3c28327ca09875404afa0547", "fusion_lon": 0.0, "fusion_lat": 0.0, "is_reserved": 0, "type": "electric_scooter", "bike_id": "6b2665fa3c28327ca09875404afa0547", "rental_uris": {"android": "https://dc.lft.to/lastmile_qr_scan", "ios": "https://dc.lft.to/lastmile_qr_scan"}}, {"is_disabled": 0, "lon": -76.94665233333333, "lat": 38.898687, "name": "265c8ffbdc6b7a9db4a52fcb5b371d88", "fusion_lon": 0.0, "fusion_lat": 0.0, "is_reserved": 0, "type": "electric_scooter", "bike_id": "265c8ffbdc6b7a9db4a52fcb5b371d88", "rental_uris": {"android": "https://dc.lft.to/lastmile_qr_scan", "ios": "https://dc.lft.to/lastmile_qr_scan"}}, {"is_disabled": 0, "lon": -77.04074466666667, "lat": 38.920293, "name": "617bbf0704c577909fcf05004be7dc42", "fusion_lon": 0.0, "fusion_lat": 0.0, "is_reserved": 0, "type": "electric_scooter", "bike_id": "617bbf0704c577909fcf05004be7dc42", "rental_uris": {"android": "https://dc.lft.to/lastmile_qr_scan", "ios": "https://dc.lft.to/lastmile_qr_scan"}}, {"is_disabled": 0, "lon": -77.02657916666666, "lat": 38.923805333333334, "name": "7f27b95f2f45a9718ceb367b6237190f", "fusion_lon": 0.0, "fusion_lat": 0.0, "is_reserved": 0, "type": "electric_scooter", "bike_id": "7f27b95f2f45a9718ceb367b6237190f", "rental_uris": {"android": "https://dc.lft.to/lastmile_qr_scan", "ios": "https://dc.lft.to/lastmile_qr_scan"}}, {"is_disabled": 0, "lon": -77.0309555, "lat": 38.93097683333333, "name": "cf2be42861c44bcc72800922faaf4890", "fusion_lon": 0.0, "fusion_lat": 0.0, "is_reserved": 0, "type": "electric_scooter", "bike_id": "cf2be42861c44bcc72800922faaf4890", "rental_uris": {"android": "https://dc.lft.to/lastmile_qr_scan", "ios": "https://dc.lft.to/lastmile_qr_scan"}}, {"is_disabled": 0, "lon": -77.03319166666667, "lat": 38.915718, "name": "19f5d196db9580943229949ece2f1167", "fusion_lon": 0.0, "fusion_lat": 0.0, "is_reserved": 0, "type": "electric_scooter", "bike_id": "19f5d196db9580943229949ece2f1167", "rental_uris": {"android": "https://dc.lft.to/lastmile_qr_scan", "ios": "https://dc.lft.to/lastmile_qr_scan"}}, {"is_disabled": 0, "lon": -77.01089183333333, "lat": 38.89543466666667, "name": "abb8e8035446500f67b14a1ca22f0459", "fusion_lon": 0.0, "fusion_lat": 0.0, "is_reserved": 0, "type": "electric_scooter", "bike_id": "abb8e8035446500f67b14a1ca22f0459", "rental_uris": {"android": "https://dc.lft.to/lastmile_qr_scan", "ios": "https://dc.lft.to/lastmile_qr_scan"}}, {"is_disabled": 0, "lon": -77.02066916666666, "lat": 38.9644525, "name": "3549bd270e6fc3d7093d7d8bc5d8d1f0", "fusion_lon": 0.0, "fusion_lat": 0.0, "is_reserved": 0, "type": "electric_bike", "bike_id": "3549bd270e6fc3d7093d7d8bc5d8d1f0", "rental_uris": {"android": "https://dc.lft.to/lastmile_qr_scan", "ios": "https://dc.lft.to/lastmile_qr_scan"}}, {"is_disabled": 0, "lon": -77.076558, "lat": 38.809808333333336, "name": "f220ab4d35276bb609687be49260f880", "fusion_lon": 0.0, "fusion_lat": 0.0, "is_reserved": 0, "type": "electric_bike", "bike_id": "f220ab4d35276bb609687be49260f880", "rental_uris": {"android": "https://dc.lft.to/lastmile_qr_scan", "ios": "https://dc.lft.to/lastmile_qr_scan"}}, {"is_disabled": 0, "lon": -77.00339066666666, "lat": 38.891895166666664, "name": "4887b81e07fadb3bc7747b4dca093269", "fusion_lon": 0.0, "fusion_lat": 0.0, "is_reserved": 0, "type": "electric_scooter", "bike_id": "4887b81e07fadb3bc7747b4dca093269", "rental_uris": {"android": "https://dc.lft.to/lastmile_qr_scan", "ios": "https://dc.lft.to/lastmile_qr_scan"}}, {"is_disabled": 0, "lon": -77.03725466666667, "lat": 38.916131166666666, "name": "c64ed8b233ee63129577871dd238a587", "fusion_lon": 0.0, "fusion_lat": 0.0, "is_reserved": 0, "type": "electric_scooter", "bike_id": "c64ed8b233ee63129577871dd238a587", "rental_uris": {"android": "https://dc.lft.to/lastmile_qr_scan", "ios": "https://dc.lft.to/lastmile_qr_scan"}}, {"is_disabled": 0, "lon": -77.06281233333333, "lat": 38.90315983333333, "name": "38d02d3ca38b0b8b1349c5a45a8be1cd", "fusion_lon": 0.0, "fusion_lat": 0.0, "is_reserved": 0, "type": "electric_scooter", "bike_id": "38d02d3ca38b0b8b1349c5a45a8be1cd", "rental_uris": {"android": "https://dc.lft.to/lastmile_qr_scan", "ios": "https://dc.lft.to/lastmile_qr_scan"}}, {"is_disabled": 0, "lon": -77.02984383333333, "lat": 38.8974925, "name": "8bb256e76ae94db83335cffa7463d02f", "fusion_lon": 0.0, "fusion_lat": 0.0, "is_reserved": 0, "type": "electric_scooter", "bike_id": "8bb256e76ae94db83335cffa7463d02f", "rental_uris": {"android": "https://dc.lft.to/lastmile_qr_scan", "ios": "https://dc.lft.to/lastmile_qr_scan"}}, {"is_disabled": 0, "lon": -77.0327915, "lat": 38.92844316666667, "name": "ce484840e66af3affcbdecebf75286f9", "fusion_lon": 0.0, "fusion_lat": 0.0, "is_reserved": 0, "type": "electric_scooter", "bike_id": "ce484840e66af3affcbdecebf75286f9", "rental_uris": {"android": "https://dc.lft.to/lastmile_qr_scan", "ios": "https://dc.lft.to/lastmile_qr_scan"}}, {"is_disabled": 0, "lon": -77.03701333333333, "lat": 38.92635716666667, "name": "9dea8161d5994a920f423fcd830c0ea3", "fusion_lon": 0.0, "fusion_lat": 0.0, "is_reserved": 0, "type": "electric_scooter", "bike_id": "9dea8161d5994a920f423fcd830c0ea3", "rental_uris": {"android": "https://dc.lft.to/lastmile_qr_scan", "ios": "https://dc.lft.to/lastmile_qr_scan"}}, {"is_disabled": 0, "lon": -76.94188383333334, "lat": 38.8976215, "name": "74d25024faf6909008bffa67fa45e1bc", "fusion_lon": 0.0, "fusion_lat": 0.0, "is_reserved": 0, "type": "electric_scooter", "bike_id": "74d25024faf6909008bffa67fa45e1bc", "rental_uris": {"android": "https://dc.lft.to/lastmile_qr_scan", "ios": "https://dc.lft.to/lastmile_qr_scan"}}, {"is_disabled": 0, "lon": -76.9961155, "lat": 38.8854745, "name": "7affe711bdf60852ff654e154e16ba8c", "fusion_lon": 0.0, "fusion_lat": 0.0, "is_reserved": 0, "type": "electric_scooter", "bike_id": "7affe711bdf60852ff654e154e16ba8c", "rental_uris": {"android": "https://dc.lft.to/lastmile_qr_scan", "ios": "https://dc.lft.to/lastmile_qr_scan"}}, {"is_disabled": 0, "lon": -77.0337215, "lat": 38.90138983333333, "name": "2eaaa16e1c5b80db752874e0158b6bf9", "fusion_lon": 0.0, "fusion_lat": 0.0, "is_reserved": 0, "type": "electric_scooter", "bike_id": "2eaaa16e1c5b80db752874e0158b6bf9", "rental_uris": {"android": "https://dc.lft.to/lastmile_qr_scan", "ios": "https://dc.lft.to/lastmile_qr_scan"}}, {"is_disabled": 0, "lon": -77.026925, "lat": 38.912740666666664, "name": "7c5c7c55c599293019c6ca04bac30b1b", "fusion_lon": 0.0, "fusion_lat": 0.0, "is_reserved": 0, "type": "electric_scooter", "bike_id": "7c5c7c55c599293019c6ca04bac30b1b", "rental_uris": {"android": "https://dc.lft.to/lastmile_qr_scan", "ios": "https://dc.lft.to/lastmile_qr_scan"}}, {"is_disabled": 0, "lon": -77.01809816666666, "lat": 38.91954833333333, "name": "afe816f2e35fc63229e570baf5d0958a", "fusion_lon": 0.0, "fusion_lat": 0.0, "is_reserved": 0, "type": "electric_scooter", "bike_id": "afe816f2e35fc63229e570baf5d0958a", "rental_uris": {"android": "https://dc.lft.to/lastmile_qr_scan", "ios": "https://dc.lft.to/lastmile_qr_scan"}},