{"data": {"bikes": [{"fusion_lat": 0.0, "lon": -77.018659, "is_reserved": 0, "bike_id": "af7421e934009eae5bf6f5e52b0697dd", "fusion_lon": 0.0, "rental_uris": {"android": "https://dc.lft.to/lastmile_qr_scan", "ios": "https://dc.lft.to/lastmile_qr_scan"}, "name": "af7421e934009eae5bf6f5e52b0697dd", "type": "electric_scooter", "lat": 38.9736965, "is_disabled": 0}, {"fusion_lat": 0.0, "lon": -76.99143066666667, "is_reserved": 0, "bike_id": "d5ec94aa49dce835f56c5222a6429b56", "fusion_lon": 0.0, "rental_uris": {"android": "https://dc.lft.to/lastmile_qr_scan", "ios": "https://dc.lft.to/lastmile_qr_scan"}, "name": "d5ec94aa49dce835f56c5222a6429b56", "type": "electric_scooter", "lat": 38.8859585, "is_disabled": 0}, {"fusion_lat": 0.0, "lon": -76.995321, "is_reserved": 0, "bike_id": "a453a7c7e87f5baffe5fc210963234b8", "fusion_lon": 0.0, "rental_uris": {"android": "https://dc.lft.to/lastmile_qr_scan", "ios": "https://dc.lft.to/lastmile_qr_scan"}, "name": "a453a7c7e87f5baffe5fc210963234b8", "type": "electric_scooter", "lat": 38.8837235, "is_disabled": 0}, {"fusion_lat": 0.0, "lon": -77.03143433333334, "is_reserved": 0, "bike_id": "687ec18fb1a40352638d415a327a5369", "fusion_lon": 0.0, "rental_uris": {"android": "https://dc.lft.to/lastmile_qr_scan", "ios": "https://dc.lft.to/lastmile_qr_scan"}, "name": "687ec18fb1a40352638d415a327a5369", "type": "electric_scooter", "lat": 38.91905766666667, "is_disabled": 0}, {"fusion_lat": 0.0, "lon": -77.11154233333333, "is_reserved": 0, "bike_id": "d493a1396bd09e10577c388c5cdfc3fa", "fusion_lon": 0.0, "rental_uris": {"android": "https://dc.lft.to/lastmile_qr_scan", "ios": "https://dc.lft.to/lastmile_qr_scan"}, "name": "d493a1396bd09e10577c388c5cdfc3fa", "type": "electric_bike", "lat": 38.8551675, "is_disabled": 0}, {"fusion_lat": 0.0, "lon": -77.18742716666667, "is_reserved": 0, "bike_id": "665d8483d89bc37d378b8d31bc40d59f", "fusion_lon": 0.0, "rental_uris": {"android": "https://dc.lft.to/lastmile_qr_scan", "ios": "https://dc.lft.to/lastmile_qr_scan"}, "name": "665d8483d89bc37d378b8d31bc40d59f", "type": "electric_bike", "lat": 38.8935075, "is_disabled": 0}, {"fusion_lat": 0.0, "lon": -77.0351975, "is_reserved": 0, "bike_id": "86351e7f0412c5eb725d8f62070c355c", "fusion_lon": 0.0, "rental_uris": {"android": "https://dc.lft.to/lastmile_qr_scan", "ios": "https://dc.lft.to/lastmile_qr_scan"}, "name": "86351e7f0412c5eb725d8f62070c355c", "type": "electric_scooter", "lat": 38.92256966666667, "is_disabled": 0}, {"fusion_lat": 0.0, "lon": -77.03958033333333, "is_reserved": 0, "bike_id": "fa546ed149f88242abb486440cc2a514", "fusion_lon": 0.0, "rental_uris": {"android": "https://dc.lft.to/lastmile_qr_scan", "ios": "https://dc.lft.to/lastmile_qr_scan"}, "name": "fa546ed149f88242abb486440cc2a514", "type": "electric_scooter", "lat": 38.89253866666667, "is_disabled": 0}, {"fusion_lat": 0.0, "lon": -77.04689566666667, "is_reserved": 0, "bike_id": "a700d9a6993289ca32f9af9f89d607e9", "fusion_lon": 0.0, "rental_uris": {"android": "https://dc.lft.to/lastmile_qr_scan", "ios": "https://dc.lft.to/lastmile_qr_scan"}, "name": "a700d9a6993289ca32f9af9f89d607e9", "type": "electric_bike", "lat": 39.02396933333333, "is_disabled": 0}, {"fusion_lat": 0.0, "lon": -77.04356033333333, "is_reserved": 0, "bike_id": "4729ca5321472fecdf3291093389de87", "fusion_lon": 0.0, "rental_uris": {"android": "https://dc.lft.to/lastmile_qr_scan", "ios": "https://dc.lft.to/lastmile_qr_scan"}, "name": "4729ca5321472fecdf3291093389de87", "type": "electric_scooter", "lat": 38.920678333333335, "is_disabled": 0}, {"fusion_lat": 0.0, "lon": -77.03718633333334, "is_reserved": 0, "bike_id": "39bcb21ae415007c4cc4b96983052e40", "fusion_lon": 0.0, "rental_uris": {"android": "https://dc.lft.to/lastmile_qr_scan", "ios": "https://dc.lft.to/lastmile_qr_scan"}, "name": "39bcb21ae415007c4cc4b96983052e40", "type": "electric_scooter", "lat": 38.916924, "is_disabled": 0}, {"fusion_lat": 0.0, "lon": -76.9732865, "is_reserved": 0, "bike_id": "eb2a899a989d0acc1bf5ee97fd9e0fa0", "fusion_lon": 0.0, "rental_uris": {"android": "https://dc.lft.to/lastmile_qr_scan", "ios": "https://dc.lft.to/lastmile_qr_scan"}, "name": "eb2a899a989d0acc1bf5ee97fd9e0fa0", "type": "electric_scooter", "lat": 38.865815, "is_disabled": 0}, {"fusion_lat": 0.0, "lon": -77.034901, "is_reserved": 0, "bike_id": "7c497dcd440efc0d873ba5e659c5e627", "fusion_lon": 0.0, "rental_uris": {"android": "https://dc.lft.to/lastmile_qr_scan", "ios": "https://dc.lft.to/lastmile_qr_scan"}, "name": "7c497dcd440efc0d873ba5e659c5e627", "type": "electric_scooter", "lat": 38.92486516666666, "is_disabled": 0}, {"fusion_lat": 0.0, "lon": -77.01584233333334, "is_reserved": 0, "bike_id": "88b720694eaa22158cdea46ec3485e67", "fusion_lon": 0.0, "rental_uris": {"android": "https://dc.lft.to/lastmile_qr_scan", "ios": "https://dc.lft.to/lastmile_qr_scan"}, "name": "88b720694eaa22158cdea46ec3485e67", "type": "electric_scooter", "lat": 38.88613516666667, "is_disabled": 0}, {"fusion_lat": 0.0, "lon": -76.9822645, "is_reserved": 0, "bike_id": "7a28f0544a3c784b575453dad61a7239", "fusion_lon": 0.0, "rental_uris": {"android": "https://dc.lft.to/lastmile_qr_scan", "ios": "https://dc.lft.to/lastmile_qr_scan"}, "name": "7a28f0544a3c784b575453dad61a7239", "type": "electric_scooter", "lat": 38.88649816666667, "is_disabled": 0}, {"fusion_lat": 0.0, "lon": -77.06466566666667, "is_reserved": 0, "bike_id": "281f78ec59f3393b3a7267a7469ac37d", "fusion_lon": 0.0, "rental_uris": {"android": "https://dc.lft.to/lastmile_qr_scan", "ios": "https://dc.lft.to/lastmile_qr_scan"}, "name": "281f78ec59f3393b3a7267a7469ac37d", "type": "electric_scooter", "lat": 38.92752333333333, "is_disabled": 0}, {"fusion_lat": 0.0, "lon": -77.02677033333333, "is_reserved": 0, "bike_id": "94843360da8b1b10b4e0ceb06786cb27", "fusion_lon": 0.0, "rental_uris": {"android": "https://dc.lft.to/lastmile_qr_scan", "ios": "https://dc.lft.to/lastmile_qr_scan"}, "name": "94843360da8b1b10b4e0ceb06786cb27", "type": "electric_scooter", "lat": 38.90115983333333, "is_disabled": 0}, {"fusion_lat": 0.0, "lon": -77.032308, "is_reserved": 0, "bike_id": "7e082ceb4600add02258827e9dd991f7", "fusion_lon": 0.0, "rental_uris": {"android": "https://dc.lft.to/lastmile_qr_scan", "ios": "https://dc.lft.to/lastmile_qr_scan"}, "name": "7e082ceb4600add02258827e9dd991f7", "type": "electric_scooter", "lat": 38.92863216666667, "is_disabled": 0}, {"fusion_lat": 0.0, "lon": -77.03868733333333, "is_reserved": 0, "bike_id": "3afd3d8b71bdbddce692134260212afa", "fusion_lon": 0.0, "rental_uris": {"android": "https://dc.lft.to/lastmile_qr_scan", "ios": "https://dc.lft.to/lastmile_qr_scan"}, "name": "3afd3d8b71bdbddce692134260212afa", "type": "electric_scooter", "lat": 38.9215675, "is_disabled": 0}, {"fusion_lat": 0.0, "lon": -77.0120205, "is_reserved": 0, "bike_id": "bf9acc68e83e4f1afb261c8d9b9ab557", "fusion_lon": 0.0, "rental_uris": {"android": "https://dc.lft.to/lastmile_qr_scan", "ios": "https://dc.lft.to/lastmile_qr_scan"}, "name": "bf9acc68e83e4f1afb261c8d9b9ab557", "type": "electric_scooter", "lat": 38.87099283333333, "is_disabled": 0}, {"fusion_lat": 0.0, "lon": -77.06289833333334, "is_reserved": 0, "bike_id": "1f00f067389ece3d987f2262092378d6", "fusion_lon": 0.0, "rental_uris": {"android": "https://dc.lft.to/lastmile_qr_scan", "ios": "https://dc.lft.to/lastmile_qr_scan"}, "name": "1f00f067389ece3d987f2262092378d6", "type": "electric_scooter", "lat": 38.90439116666667, "is_disabled": 0}, {"fusion_lat": 0.0, "lon": -76.98368433333333, "is_reserved": 0, "bike_id": "9f6c80ea25994f8e2ea64c9d2920ed21", "fusion_lon": 0.0, "rental_uris": {"android": "https://dc.lft.to/lastmile_qr_scan", "ios": "https://dc.lft.to/lastmile_qr_scan"}, "name": "9f6c80ea25994f8e2ea64c9d2920ed21", "type": "electric_scooter", "lat": 38.914911833333335, "is_disabled": 0}, {"fusion_lat": 0.0, "lon": -77.09596666666667, "is_reserved": 0, "bike_id": "5377bb3fe5cde4ffe7a3496df0a3b162", "fusion_lon": 0.0, "rental_uris": {"android": "https://dc.lft.to/lastmile_qr_scan", "ios": "https://dc.lft.to/lastmile_qr_scan"}, "name": "5377bb3fe5cde4ffe7a3496df0a3b162", "type": "electric_bike", "lat": 39.02893233333333, "is_disabled": 0}, {"fusion_lat": 0.0, "lon": -77.01842266666667, "is_reserved": 0, "bike_id": "32bb18a21a75fa8fa6d03e77cca312bf", "fusion_lon": 0.0, "rental_uris": {"android": "https://dc.lft.to/lastmile_qr_scan", "ios": "https://dc.lft.to/lastmile_qr_scan"}, "name": "32bb18a21a75fa8fa6d03e77cca312bf", "type": "electric_scooter", "lat": 38.94999266666667, "is_disabled": 0}, {"fusion_lat": 0.0, "lon": -77.03551316666666, "is_reserved": 0, "bike_id": "971668c73ec283a0786b893defab946f", "fusion_lon": 0.0, "rental_uris": {"android": "https://dc.lft.to/lastmile_qr_scan", "ios": "https://dc.lft.to/lastmile_qr_scan"}, "name": "971668c73ec283a0786b893defab946f", "type": "electric_scooter", "lat": 38.92420216666667, "is_disabled": 0}, {"fusion_lat": 0.0, "lon": -76.99524466666666, "is_reserved": 0, "bike_id": "d9c5a83564e350bad14dc6b736bb21ce", "fusion_lon": 0.0, "rental_uris": {"android": "https://dc.lft.to/lastmile_qr_scan", "ios": "https://dc.lft.to/lastmile_qr_scan"}, "name": "d9c5a83564e350bad14dc6b736bb21ce", "type": "electric_scooter", "lat": 38.8776565, "is_disabled": 0}, {"fusion_lat": 0.0, "lon": -77.06076916666666, "is_reserved": 0, "bike_id": "5650615332a695f41f691de0a211a573", "fusion_lon": 0.0, "rental_uris": {"android": "https://dc.lft.to/lastmile_qr_scan", "ios": "https://dc.lft.to/lastmile_qr_scan"}, "name": "5650615332a695f41f691de0a211a573", "type": "electric_bike", "lat": 38.885889, "is_disabled": 0}, {"fusion_lat": 0.0, "lon": -77.02985466666667, "is_reserved": 0, "bike_id": "5405edc918adf174767b6edf08e53212", "fusion_lon": 0.0, "rental_uris": {"android": "https://dc.lft.to/lastmile_qr_scan", "ios": "https://dc.lft.to/lastmile_qr_scan"}, "name": "5405edc918adf174767b6edf08e53212", "type": "electric_scooter", "lat": 38.9056175, "is_disabled": 0}, {"fusion_lat": 0.0, "lon": -77.00626083333333, "is_reserved": 0, "bike_id": "19c01b64a36a8104d6ddf318534a9d87", "fusion_lon": 0.0, "rental_uris": {"android": "https://dc.lft.to/lastmile_qr_scan", "ios": "https://dc.lft.to/lastmile_qr_scan"}, "name": "19c01b64a36a8104d6ddf318534a9d87", "type": "electric_scooter", "lat": 38.908211666666666, "is_disabled": 0}, {"fusion_lat": 0.0, "lon": -77.05623283333334, "is_reserved": 0, "bike_id": "15767ad4e584b1c4674bac231d0abe6e", "fusion_lon": 0.0, "rental_uris": {"android": "https://dc.lft.to/lastmile_qr_scan", "ios": "https://dc.lft.to/lastmile_qr_scan"}, "name": "15767ad4e584b1c4674bac231d0abe6e", "type": "electric_scooter", "lat": 38.9607475, "is_disabled": 0}, {"fusion_lat": 0.0, "lon": -76.99959133333333, "is_reserved": 0, "bike_id": "2eb8da90f7d28cd53797bf1c9da59330", "fusion_lon": 0.0, "rental_uris": {"android": "https://dc.lft.to/lastmile_qr_scan", "ios": "https://dc.lft.to/lastmile_qr_scan"}, "name": "2eb8da90f7d28cd53797bf1c9da59330", "type": "electric_scooter", "lat": 38.92355366666666, "is_disabled": 0}, {"fusion_lat": 0.0, "lon": -77.13099133333333, "is_reserved": 0, "bike_id": "0379046fa923a8388bdbfb2621d91f92", "fusion_lon": 0.0, "rental_uris": {"android": "https://dc.lft.to/lastmile_qr_scan", "ios": "https://dc.lft.to/lastmile_qr_scan"}, "name": "0379046fa923a8388bdbfb2621d91f92", "type": "electric_bike", "lat": 39.0244185, "is_disabled": 0}, {"fusion_lat": 0.0, "lon": -77.0308955, "is_reserved": 0, "bike_id": "705aa1655d6f578a135bb78ba1e73cd8", "fusion_lon": 0.0, "rental_uris": {"android": "https://dc.lft.to/lastmile_qr_scan", "ios": "https://dc.lft.to/lastmile_qr_scan"}, "name": "705aa1655d6f578a135bb78ba1e73cd8", "type": "electric_scooter", "lat": 38.922393666666665, "is_disabled": 0}, {"fusion_lat": 0.0, "lon": -77.03874033333334, "is_reserved": 0, "bike_id": "76d54d942132fc48405658adae789010", "fusion_lon": 0.0, "rental_uris": {"android": "https://dc.lft.to/lastmile_qr_scan", "ios": "https://dc.lft.to/lastmile_qr_scan"}, "name": "76d54d942132fc48405658adae789010", "type": "electric_scooter", "lat": 38.90656516666667, "is_disabled": 0}, {"fusion_lat": 0.0, "lon": -77.01936566666667, "is_reserved": 0, "bike_id": "5d0206ac4a2aaa7078c971a2206ebe23", "fusion_lon": 0.0, "rental_uris": {"android": "https://dc.lft.to/lastmile_qr_scan", "ios": "https://dc.lft.to/lastmile_qr_scan"}, "name": "5d0206ac4a2aaa7078c971a2206ebe23", "type": "electric_scooter", "lat": 38.949276166666664, "is_disabled": 0}, {"fusion_lat": 0.0, "lon": -77.0386555, "is_reserved": 0, "bike_id": "715976d03f56659abb0043e323e89450", "fusion_lon": 0.0, "rental_uris": {"android": "https://dc.lft.to/lastmile_qr_scan", "ios": "https://dc.lft.to/lastmile_qr_scan"}, "name": "715976d03f56659abb0043e323e89450", "type": "electric_scooter", "lat": 38.9155235, "is_disabled": 0}, {"fusion_lat": 0.0, "lon": -77.00203066666667, "is_reserved": 0, "bike_id": "da2acef75d569c5d247572e7ea6759e2", "fusion_lon": 0.0, "rental_uris": {"android": "https://dc.lft.to/lastmile_qr_scan", "ios": "https://dc.lft.to/lastmile_qr_scan"}, "name": "da2acef75d569c5d247572e7ea6759e2", "type": "electric_scooter", "lat": 38.90025983333334, "is_disabled": 0}, {"fusion_lat": 0.0, "lon": -77.0033615, "is_reserved": 0, "bike_id": "e9c32ed096a5ed5412631bc6ad84e523", "fusion_lon": 0.0, "rental_uris": {"android": "https://dc.lft.to/lastmile_qr_scan", "ios": "https://dc.lft.to/lastmile_qr_scan"}, "name": "e9c32ed096a5ed5412631bc6ad84e523", "type": "electric_scooter", "lat": 38.89526566666667, "is_disabled": 0}, {"fusion_lat": 0.0, "lon": -77.04150216666666, "is_reserved": 0, "bike_id": "f292cf7c8ed56dcebe48876f3e490187", "fusion_lon": 0.0, "rental_uris": {"android": "https://dc.lft.to/lastmile_qr_scan", "ios": "https://dc.lft.to/lastmile_qr_scan"}, "name": "f292cf7c8ed56dcebe48876f3e490187", "type": "electric_scooter", "lat": 38.917033333333336, "is_disabled": 0}, {"fusion_lat": 0.0, "lon": -77.03498616666667, "is_reserved": 0, "bike_id": "e3bcb196c762cebb8e6de2210c136db1", "fusion_lon": 0.0, "rental_uris": {"android": "https://dc.lft.to/lastmile_qr_scan", "ios": "https://dc.lft.to/lastmile_qr_scan"}, "name": "e3bcb196c762cebb8e6de2210c136db1", "type": "electric_scooter", "lat": 38.923424, "is_disabled": 0}, {"fusion_lat": 0.0, "lon": -76.97747916666667, "is_reserved": 0, "bike_id": "b77659db12a7496323f62e74efbfe828", "fusion_lon": 0.0, "rental_uris": {"android": "https://dc.lft.to/lastmile_qr_scan", "ios": "https://dc.lft.to/lastmile_qr_scan"}, "name": "b77659db12a7496323f62e74efbfe828", "type": "electric_bike", "lat": 38.8646005, "is_disabled": 0}, {"fusion_lat": 0.0, "lon": -77.03863766666667, "is_reserved": 0, "bike_id": "72a11e4958906756322ee41d26179a6c", "fusion_lon": 0.0, "rental_uris": {"android": "https://dc.lft.to/lastmile_qr_scan", "ios": "https://dc.lft.to/lastmile_qr_scan"}, "name": "72a11e4958906756322ee41d26179a6c", "type": "electric_scooter", "lat": 38.89187583333333, "is_disabled": 0}, {"fusion_lat": 0.0, "lon": -77.02990466666667, "is_reserved": 0, "bike_id": "68ee1421b8a9cc3c71e657982429eebc", "fusion_lon": 0.0, "rental_uris": {"android": "https://dc.lft.to/lastmile_qr_scan", "ios": "https://dc.lft.to/lastmile_qr_scan"}, "name": "68ee1421b8a9cc3c71e657982429eebc", "type": "electric_bike", "lat": 38.97440783333333, "is_disabled": 0}, {"fusion_lat": 0.0, "lon": -77.04832316666666, "is_reserved": 0, "bike_id": "359cda33e33ec440828546507871f807", "fusion_lon": 0.0, "rental_uris": {"android": "https://dc.lft.to/lastmile_qr_scan", "ios": "https://dc.lft.to/lastmile_qr_scan"}, "name": "359cda33e33ec440828546507871f807", "type": "electric_scooter", "lat": 38.910357833333336, "is_disabled": 0}, {"fusion_lat": 0.0, "lon": -77.02229, "is_reserved": 0, "bike_id": "bbe723f288f776fb2ad0bffd40b6aa5e", "fusion_lon": 0.0, "rental_uris": {"android": "https://dc.lft.to/lastmile_qr_scan", "ios": "https://dc.lft.to/lastmile_qr_scan"}, "name": "bbe723f288f776fb2ad0bffd40b6aa5e", "type": "electric_scooter", "lat": 38.892218, "is_disabled": 0}, {"fusion_lat": 0.0, "lon": -77.0465125, "is_reserved": 0, "bike_id": "648609b595a8ec876f9a14e11686b70e", "fusion_lon": 0.0, "rental_uris": {"android": "https://dc.lft.to/lastmile_qr_scan", "ios": "https://dc.lft.to/lastmile_qr_scan"}, "name": "648609b595a8ec876f9a14e11686b70e", "type": "electric_scooter", "lat": 38.90961183333334, "is_disabled": 0}, {"fusion_lat": 0.0, "lon": -76.9976845, "is_reserved": 0, "bike_id": "35e4e8ae877c734a9d751bac2edf7d8b", "fusion_lon": 0.0, "rental_uris": {"android": "https://dc.lft.to/lastmile_qr_scan", "ios": "https://dc.lft.to/lastmile_qr_scan"}, "name": "35e4e8ae877c734a9d751bac2edf7d8b", "type": "electric_scooter", "lat": 38.92449233333333, "is_disabled": 0}, {"fusion_lat": 0.0, "lon": -77.0295835, "is_reserved": 0, "bike_id": "ab2884cb35b56ee01a7dd3152c335491", "fusion_lon": 0.0, "rental_uris": {"android": "https://dc.lft.to/lastmile_qr_scan", "ios": "https://dc.lft.to/lastmile_qr_scan"}, "name": "ab2884cb35b56ee01a7dd3152c335491", "type": "electric_scooter", "lat": 38.905042, "is_disabled": 0}, {"fusion_lat": 0.0, "lon": -77.06398883333334, "is_reserved": 0, "bike_id": "be4ba9a1b5567247035bee047d48d0d5", "fusion_lon": 0.0, "rental_uris": {"android": "https://dc.lft.to/lastmile_qr_scan", "ios": "https://dc.lft.to/lastmile_qr_scan"}, "name": "be4ba9a1b5567247035bee047d48d0d5", "type": "electric_scooter", "lat": 38.943216, "is_disabled": 0}, {"fusion_lat": 0.0, "lon": -77.039582, "is_reserved": 0, "bike_id": "e0d4cdaff9fe5eccdad303357556ae14", "fusion_lon": 0.0, "rental_uris": {"android": "https://dc.lft.to/lastmile_qr_scan", "ios": "https://dc.lft.to/lastmile_qr_scan"}, "name": "e0d4cdaff9fe5eccdad303357556ae14", "type": "electric_scooter", "lat": 38.90830966666667, "is_disabled": 0}, {"fusion_lat": 0.0, "lon": -77.03832033333333, "is_reserved": 0, "bike_id": "bf0a1d8fa4c8b3f2c170a88f092e324e", "fusion_lon": 0.0, "rental_uris": {"android": "https://dc.lft.to/lastmile_qr_scan", "ios": "https://dc.lft.to/lastmile_qr_scan"}, "name": "bf0a1d8fa4c8b3f2c170a88f092e324e", "type": "electric_scooter", "lat": 38.9119395, "is_disabled": 0}, {"fusion_lat": 0.0, "lon": -77.029635, "is_reserved": 0, "bike_id": "7f24dfb21a0aee7b29a86326c7f9df3b", "fusion_lon": 0.0, "rental_uris": {"android": "https://dc.lft.to/lastmile_qr_scan", "ios": "https://dc.lft.to/lastmile_qr_scan"}, "name": "7f24dfb21a0aee7b29a86326c7f9df3b", "type": "electric_scooter", "lat": 38.9257255, "is_disabled": 0}, {"fusion_lat": 0.0, "lon": -76.99034633333333, "is_reserved": 0, "bike_id": "99bc173eab4b5d475fc5e3aa3e62a6be", "fusion_lon": 0.0, "rental_uris": {"android": "https://dc.lft.to/lastmile_qr_scan", "ios": "https://dc.lft.to/lastmile_qr_scan"}, "name": "99bc173eab4b5d475fc5e3aa3e62a6be", "type": "electric_scooter", "lat": 38.902884, "is_disabled": 0}, {"fusion_lat": 0.0, "lon": -77.02626966666666, "is_reserved": 0, "bike_id": "0511a165de0a2ff3c58d17a4d72ee3cb", "fusion_lon": 0.0, "rental_uris": {"android": "https://dc.lft.to/lastmile_qr_scan", "ios": "https://dc.lft.to/lastmile_qr_scan"}, "name": "0511a165de0a2ff3c58d17a4d72ee3cb", "type": "electric_scooter", "lat": 38.90506583333333, "is_disabled": 0}, {"fusion_lat": 0.0, "lon": -77.03401666666667, "is_reserved": 0, "bike_id": "fc85597c7a6608f3ab809cf1c869e0a5", "fusion_lon": 0.0, "rental_uris": {"android": "https://dc.lft.to/lastmile_qr_scan", "ios": "https://dc.lft.to/lastmile_qr_scan"}, "name": "fc85597c7a6608f3ab809cf1c869e0a5", "type": "electric_scooter", "lat": 38.909647666666665, "is_disabled": 0}, {"fusion_lat": 0.0, "lon": -77.00598916666667, "is_reserved": 0, "bike_id": "0a8f1c1547e4e93e0d70dd4805fd3833", "fusion_lon": 0.0, "rental_uris": {"android": "https://dc.lft.to/lastmile_qr_scan", "ios": "https://dc.lft.to/lastmile_qr_scan"}, "name": "0a8f1c1547e4e93e0d70dd4805fd3833", "type": "electric_scooter", "lat": 38.885208, "is_disabled": 0}, {"fusion_lat": 0.0, "lon": -77.08577566666666, "is_reserved": 0, "bike_id": "48fb5522e642c52ca17716f8728de91d", "fusion_lon": 0.0, "rental_uris": {"android": "https://dc.lft.to/lastmile_qr_scan", "ios": "https://dc.lft.to/lastmile_qr_scan"}, "name": "48fb5522e642c52ca17716f8728de91d", "type": "electric_bike", "lat": 38.844277, "is_disabled": 0}, {"fusion_lat": 0.0, "lon": -77.02711916666667, "is_reserved": 0, "bike_id": "a147a6d1184e4d1413fa541aa0a4808b", "fusion_lon": 0.0, "rental_uris": {"android": "https://dc.lft.to/lastmile_qr_scan", "ios": "https://dc.lft.to/lastmile_qr_scan"}, "name": "a147a6d1184e4d1413fa541aa0a4808b", "type": "electric_scooter", "lat": 38.90675, "is_disabled": 0}, {"fusion_lat": 0.0, "lon": -77.027357, "is_reserved": 0, "bike_id": "899b65ec87ff232dedd11979f597c11e", "fusion_lon": 0.0, "rental_uris": {"android": "https://dc.lft.to/lastmile_qr_scan", "ios": "https://dc.lft.to/lastmile_qr_scan"}, "name": "899b65ec87ff232dedd11979f597c11e", "type": "electric_scooter", "lat": 38.92860266666667, "is_disabled": 0}, {"fusion_lat": 0.0, "lon": -77.019016, "is_reserved": 0, "bike_id": "1a19b3fdd28389cb920caa56c6dcb7c5", "fusion_lon": 0.0, "rental_uris": {"android": "https://dc.lft.to/lastmile_qr_scan", "ios": "https://dc.lft.to/lastmile_qr_scan"}, "name": "1a19b3fdd28389cb920caa56c6dcb7c5", "type": "electric_scooter", "lat": 38.89567433333333, "is_disabled": 0}, {"fusion_lat": 0.0, "lon": -76.93754433333334, "is_reserved": 0, "bike_id": "826602c8f3aa0f12ffcc349de7525583", "fusion_lon": 0.0, "rental_uris": {"android": "https://dc.lft.to/lastmile_qr_scan", "ios": "https://dc.lft.to/lastmile_qr_scan"}, "name": "826602c8f3aa0f12ffcc349de7525583", "type": "electric_scooter", "lat": 38.890437166666665, "is_disabled": 0}, {"fusion_lat": 0.0, "lon": -77.02696716666667, "is_reserved": 0, "bike_id": "1b6d07c8c8af361d2b7cfcef660c2667", "fusion_lon": 0.0, "rental_uris": {"android": "https://dc.lft.to/lastmile_qr_scan", "ios": "https://dc.lft.to/lastmile_qr_scan"}, "name": "1b6d07c8c8af361d2b7cfcef660c2667", "type": "electric_scooter", "lat": 38.9236845, "is_disabled": 0}, {"fusion_lat": 0.0, "lon": -77.03899366666667, "is_reserved": 0, "bike_id": "28e19a96981eafe1328f78757681e38a", "fusion_lon": 0.0, "rental_uris": {"android": "https://dc.lft.to/lastmile_qr_scan", "ios": "https://dc.lft.to/lastmile_qr_scan"}, "name": "28e19a96981eafe1328f78757681e38a", "type": "electric_scooter", "lat": 38.91469016666667, "is_disabled": 0}, {"fusion_lat": 0.0, "lon": -77.009747, "is_reserved": 0, "bike_id": "935eb76921a5577273878ed40a6e1c71", "fusion_lon": 0.0, "rental_uris": {"android": "https://dc.lft.to/lastmile_qr_scan", "ios": "https://dc.lft.to/lastmile_qr_scan"}, "name": "935eb76921a5577273878ed40a6e1c71", "type": "electric_scooter", "lat": 38.914128833333336, "is_disabled": 0}, {"fusion_lat": 0.0, "lon": -77.018988, "is_reserved": 0, "bike_id": "ecfc2ed379f512545574fdffd9ece895", "fusion_lon": 0.0, "rental_uris": {"android": "https://dc.lft.to/lastmile_qr_scan", "ios": "https://dc.lft.to/lastmile_qr_scan"}, "name": "ecfc2ed379f512545574fdffd9ece895", "type": "electric_scooter", "lat": 38.903149166666665, "is_disabled": 0}, {"fusion_lat": 0.0, "lon": -77.07073066666666, "is_reserved": 0, "bike_id": "f8cfea6b80ba8e164dd3ccbda3676f17", "fusion_lon": 0.0, "rental_uris": {"android": "https://dc.lft.to/lastmile_qr_scan", "ios": "https://dc.lft.to/lastmile_qr_scan"}, "name": "f8cfea6b80ba8e164dd3ccbda3676f17", "type": "electric_scooter", "lat": 38.931711666666665, "is_disabled": 0}, {"fusion_lat": 0.0, "lon": -77.04454916666667, "is_reserved": 0, "bike_id": "52c628b8ee4c40f2410a5ac450cc79dd", "fusion_lon": 0.0, "rental_uris": {"android": "https://dc.lft.to/lastmile_qr_scan", "ios": "https://dc.lft.to/lastmile_qr_scan"}, "name": "52c628b8ee4c40f2410a5ac450cc79dd", "type": "electric_scooter", "lat": 38.92398933333333, "is_disabled": 0}, {"fusion_lat": 0.0, "lon": -77.01982333333333, "is_reserved": 0, "bike_id": "d5cf5568dd8476d744e807f56c07a8bf", "fusion_lon": 0.0, "rental_uris": {"android": "https://dc.lft.to/lastmile_qr_scan", "ios": "https://dc.lft.to/lastmile_qr_scan"}, "name": "d5cf5568dd8476d744e807f56c07a8bf", "type": "electric_scooter", "lat": 38.887235833333335, "is_disabled": 0}, {"fusion_lat": 0.0, "lon": -77.0429755, "is_reserved": 0, "bike_id": "73d828f40dbed873184f40121e0d21ad", "fusion_lon": 0.0, "rental_uris": {"android": "https://dc.lft.to/lastmile_qr_scan", "ios": "https://dc.lft.to/lastmile_qr_scan"}, "name": "73d828f40dbed873184f40121e0d21ad", "type": "electric_scooter", "lat": 38.9165815, "is_disabled": 0}, {"fusion_lat": 0.0, "lon": -77.03188783333333, "is_reserved": 0, "bike_id": "9a673a70e50770c6129db6c6209a2976", "fusion_lon": 0.0, "rental_uris": {"android": "https://dc.lft.to/lastmile_qr_scan", "ios": "https://dc.lft.to/lastmile_qr_scan"}, "name": "9a673a70e50770c6129db6c6209a2976", "type": "electric_scooter", "lat": 38.91564966666667, "is_disabled": 0}, {"fusion_lat": 0.0, "lon": -77.026562, "is_reserved": 0, "bike_id": "d7b97fa0aac8ac1937cf3986fda07f5b", "fusion_lon": 0.0, "rental_uris": {"android": "https://dc.lft.to/lastmile_qr_scan", "ios": "https://dc.lft.to/lastmile_qr_scan"}, "name": "d7b97fa0aac8ac1937cf3986fda07f5b", "type": "electric_scooter", "lat": 38.892185, "is_disabled": 0}, {"fusion_lat": 0.0, "lon": -77.0306755, "is_reserved": 0, "bike_id": "5ac1ed671c03bf8d2b182793e7a62277", "fusion_lon": 0.0, "rental_uris": {"android": "https://dc.lft.to/lastmile_qr_scan", "ios": "https://dc.lft.to/lastmile_qr_scan"}, "name": "5ac1ed671c03bf8d2b182793e7a62277", "type": "electric_scooter", "lat": 38.90755166666667, "is_disabled": 0}, {"fusion_lat": 0.0, "lon": -77.03637116666667, "is_reserved": 0, "bike_id": "959442a15f0c404442cd15e9bea7fff4", "fusion_lon": 0.0, "rental_uris": {"android": "https://dc.lft.to/lastmile_qr_scan", "ios": "https://dc.lft.to/lastmile_qr_scan"}, "name": "959442a15f0c404442cd15e9bea7fff4", "type": "electric_scooter", "lat": 38.937142333333334, "is_disabled": 0}, {"fusion_lat": 0.0, "lon": -77.04627416666666, "is_reserved": 0, "bike_id": "874f86d21800b6d095081ad27f199515", "fusion_lon": 0.0, "rental_uris": {"android": "https://dc.lft.to/lastmile_qr_scan", "ios": "https://dc.lft.to/lastmile_qr_scan"}, "name": "874f86d21800b6d095081ad27f199515", "type": "electric_scooter", "lat": 38.923208833333334, "is_disabled": 0}, {"fusion_lat": 0.0, "lon": -77.02436, "is_reserved": 0, "bike_id": "9d9274be0edde17fe63e4fc519f9a170", "fusion_lon": 0.0, "rental_uris": {"android": "https://dc.lft.to/lastmile_qr_scan", "ios": "https://dc.lft.to/lastmile_qr_scan"}, "name": "9d9274be0edde17fe63e4fc519f9a170", "type": "electric_scooter", "lat": 38.89687416666666, "is_disabled": 0}, {"fusion_lat": 0.0, "lon": -77.01520116666667, "is_reserved": 0, "bike_id": "7bfcc6fde47de42776a144fad067a792", "fusion_lon": 0.0, "rental_uris": {"android": "https://dc.lft.to/lastmile_qr_scan", "ios": "https://dc.lft.to/lastmile_qr_scan"}, "name": "7bfcc6fde47de42776a144fad067a792", "type": "electric_scooter", "lat": 38.8865675, "is_disabled": 0}, {"fusion_lat": 0.0, "lon": -77.04271583333333, "is_reserved": 0, "bike_id": "e1d7d9bbb9cc03282820446e47e46e99", "fusion_lon": 0.0, "rental_uris": {"android": "https://dc.lft.to/lastmile_qr_scan", "ios": "https://dc.lft.to/lastmile_qr_scan"}, "name": "e1d7d9bbb9cc03282820446e47e46e99", "type": "electric_scooter", "lat": 38.908622666666666, "is_disabled": 0}, {"fusion_lat": 0.0, "lon": -77.03293966666666, "is_reserved": 0, "bike_id": "c06151dfea1f3ab4789a5a7a43a0b477", "fusion_lon": 0.0, "rental_uris": {"android": "https://dc.lft.to/lastmile_qr_scan", "ios": "https://dc.lft.to/lastmile_qr_scan"}, "name": "c06151dfea1f3ab4789a5a7a43a0b477", "type": "electric_scooter", "lat": 38.9204795, "is_disabled": 0}, {"fusion_lat": 0.0, "lon": -76.99152833333333, "is_reserved": 0, "bike_id": "13f8ec8894d1f3bcbc6c067d8e44d1b7", "fusion_lon": 0.0, "rental_uris": {"android": "https://dc.lft.to/lastmile_qr_scan", "ios": "https://dc.lft.to/lastmile_qr_scan"}, "name": "13f8ec8894d1f3bcbc6c067d8e44d1b7", "type": "electric_scooter", "lat": 38.86322366666667, "is_disabled": 0}, {"fusion_lat": 0.0, "lon": -77.04620366666667, "is_reserved": 0, "bike_id": "46ccb58ce8620ec9a8943b6d9f63e402", "fusion_lon": 0.0, "rental_uris": {"android": "https://dc.lft.to/lastmile_qr_scan", "ios": "https://dc.lft.to/lastmile_qr_scan"}, "name": "46ccb58ce8620ec9a8943b6d9f63e402", "type": "electric_scooter", "lat": 38.91615866666667, "is_disabled": 0}, {"fusion_lat": 0.0, "lon": -77.02205266666667, "is_reserved": 0, "bike_id": "4fbd2cb1325c08ef0cb4d7e54dd5dc73", "fusion_lon": 0.0, "rental_uris": {"android": "https://dc.lft.to/lastmile_qr_scan", "ios": "https://dc.lft.to/lastmile_qr_scan"}, "name": "4fbd2cb1325c08ef0cb4d7e54dd5dc73", "type": "electric_scooter", "lat": 38.893994166666666, "is_disabled": 0}, {"fusion_lat": 0.0, "lon": -77.007787, "is_reserved": 0, "bike_id": "5939c961deaa235bffb51ba87229cfbf", "fusion_lon": 0.0, "rental_uris": {"android": "https://dc.lft.to/lastmile_qr_scan", "ios": "https://dc.lft.to/lastmile_qr_scan"}, "name": "5939c961deaa235bffb51ba87229cfbf", "type": "electric_bike", "lat": 38.98392466666667, "is_disabled": 0}, {"fusion_lat": 0.0, "lon": -77.02092766666667, "is_reserved": 0, "bike_id": "06ffcee407cc74837c4d99d9e5218e6f", "fusion_lon": 0.0, "rental_uris": {"android": "https://dc.lft.to/lastmile_qr_scan", "ios": "https://dc.lft.to/lastmile_qr_scan"}, "name": "06ffcee407cc74837c4d99d9e5218e6f", "type": "electric_bike", "lat": 38.876727, "is_disabled": 0}, {"fusion_lat": 0.0, "lon": -77.00924666666667, "is_reserved": 0, "bike_id": "4faf26c8bbe8740be3ff7b9a12e548ed", "fusion_lon": 0.0, "rental_uris": {"android": "https://dc.lft.to/lastmile_qr_scan", "ios": "https://dc.lft.to/lastmile_qr_scan"}, "name": "4faf26c8bbe8740be3ff7b9a12e548ed", "type": "electric_scooter", "lat": 38.89606083333334, "is_disabled": 0}, {"fusion_lat": 0.0, "lon": -77.02698866666667, "is_reserved": 0, "bike_id": "f2346ac4321b5bd7cb3f49f434c5c703", "fusion_lon": 0.0, "rental_uris": {"android": "https://dc.lft.to/lastmile_qr_scan", "ios": "https://dc.lft.to/lastmile_qr_scan"}, "name": "f2346ac4321b5bd7cb3f49f434c5c703", "type": "electric_scooter", "lat": 38.926646, "is_disabled": 0}, {"fusion_lat": 0.0, "lon": -77.03333533333333, "is_reserved": 0, "bike_id": "505a18300f29eb1bbd8a32d0f9d5ddf7", "fusion_lon": 0.0, "rental_uris": {"android": "https://dc.lft.to/lastmile_qr_scan", "ios": "https://dc.lft.to/lastmile_qr_scan"}, "name": "505a18300f29eb1bbd8a32d0f9d5ddf7", "type": "electric_scooter", "lat": 38.91713766666667, "is_disabled": 0}, {"fusion_lat": 0.0, "lon": -76.99453483333333, "is_reserved": 0, "bike_id": "6e5a4af9799f99b30e1e1e0ba71b0b39", "fusion_lon": 0.0, "rental_uris": {"android": "https://dc.lft.to/lastmile_qr_scan", "ios": "https://dc.lft.to/lastmile_qr_scan"}, "name": "6e5a4af9799f99b30e1e1e0ba71b0b39", "type": "electric_scooter", "lat": 38.86219533333333, "is_disabled": 0}, {"fusion_lat": 0.0, "lon": -77.03808966666666, "is_reserved": 0, "bike_id": "3044f709854880333217c2654c47db1e", "fusion_lon": 0.0, "rental_uris": {"android": "https://dc.lft.to/lastmile_qr_scan", "ios": "https://dc.lft.to/lastmile_qr_scan"}, "name": "3044f709854880333217c2654c47db1e", "type": "electric_scooter", "lat": 38.915643, "is_disabled": 0}, {"fusion_lat": 0.0, "lon": -77.0106965, "is_reserved": 0, "bike_id": "223cd23f177ac99e8d18418bd310a05e", "fusion_lon": 0.0, "rental_uris": {"android": "https://dc.lft.to/lastmile_qr_scan", "ios": "https://dc.lft.to/lastmile_qr_scan"}, "name": "223cd23f177ac99e8d18418bd310a05e", "type": "electric_scooter", "lat": 38.91266816666667, "is_disabled": 0}, {"fusion_lat": 0.0, "lon": -77.02273533333333, "is_reserved": 0, "bike_id": "9d9d9b8c681bccef9b7dfa2cb8389583", "fusion_lon": 0.0, "rental_uris": {"android": "https://dc.lft.to/lastmile_qr_scan", "ios": "https://dc.lft.to/lastmile_qr_scan"}, "name": "9d9d9b8c681bccef9b7dfa2cb8389583", "type": "electric_scooter", "lat": 38.90209216666667, "is_disabled": 0}, {"fusion_lat": 0.0, "lon": -77.04542716666667, "is_reserved": 0, "bike_id": "5ab34da991ad4883b25d6806988aef77", "fusion_lon": 0.0, "rental_uris": {"android": "https://dc.lft.to/lastmile_qr_scan", "ios": "https://dc.lft.to/lastmile_qr_scan"}, "name": "5ab34da991ad4883b25d6806988aef77", "type": "electric_scooter", "lat": 38.89612866666667, "is_disabled": 0}, {"fusion_lat": 0.0, "lon": -77.02875433333334, "is_reserved": 0, "bike_id": "ff3aee4573d7eebf9a6d9b599a7289bd", "fusion_lon": 0.0, "rental_uris": {"android": "https://dc.lft.to/lastmile_qr_scan", "ios": "https://dc.lft.to/lastmile_qr_scan"}, "name": "ff3aee4573d7eebf9a6d9b599a7289bd", "type": "electric_scooter", "lat": 38.92830216666667, "is_disabled": 0}, {"fusion_lat": 0.0, "lon": -77.02490566666667, "is_reserved": 0, "bike_id": "4df1ad2eb2733957625be66645fd18a0", "fusion_lon": 0.0, "rental_uris": {"android": "https://dc.lft.to/lastmile_qr_scan", "ios": "https://dc.lft.to/lastmile_qr_scan"}, "name": "4df1ad2eb2733957625be66645fd18a0", "type": "electric_scooter", "lat": 38.941880166666664, "is_disabled": 0}, {"fusion_lat": 0.0, "lon": -77.0251145, "is_reserved": 0, "bike_id": "523e651a7728c0f5d32959a071c3e4c8", "fusion_lon": 0.0, "rental_uris": {"android": "https://dc.lft.to/lastmile_qr_scan", "ios": "https://dc.lft.to/lastmile_qr_scan"}, "name": "523e651a7728c0f5d32959a071c3e4c8", "type": "electric_scooter", "lat": 38.930975833333335, "is_disabled": 0}, {"fusion_lat": 0.0, "lon": -77.01932416666666, "is_reserved": 0, "bike_id": "82465201a633b7cb668dd634838aed15", "fusion_lon": 0.0, "rental_uris": {"android": "https://dc.lft.to/lastmile_qr_scan", "ios": "https://dc.lft.to/lastmile_qr_scan"}, "name": "82465201a633b7cb668dd634838aed15", "type": "electric_scooter", "lat": 38.905534833333334, "is_disabled": 0}, {"fusion_lat": 0.0, "lon": -77.0325635, "is_reserved": 0, "bike_id": "6a23e627fb82977a15526d88f843fb19", "fusion_lon": 0.0, "rental_uris": {"android": "https://dc.lft.to/lastmile_qr_scan", "ios": "https://dc.lft.to/lastmile_qr_scan"}, "name": "6a23e627fb82977a15526d88f843fb19", "type": "electric_scooter", "lat": 38.923639666666666, "is_disabled": 0}, {"fusion_lat": 0.0, "lon": -76.95143233333333, "is_reserved": 0, "bike_id": "61d72771d351bfc2123861a425aedfe5", "fusion_lon": 0.0, "rental_uris": {"android": "https://dc.lft.to/lastmile_qr_scan", "ios": "https://dc.lft.to/lastmile_qr_scan"}, "name": "61d72771d351bfc2123861a425aedfe5", "type": "electric_scooter", "lat": 38.890425666666665, "is_disabled": 0}, {"fusion_lat": 0.0, "lon": -76.98614366666666, "is_reserved": 0, "bike_id": "e0f7caaa4e86cd7b31d7ddfb42006a88", "fusion_lon": 0.0, "rental_uris": {"android": "https://dc.lft.to/lastmile_qr_scan", "ios": "https://dc.lft.to/lastmile_qr_scan"}, "name": "e0f7caaa4e86cd7b31d7ddfb42006a88", "type": "electric_scooter", "lat": 38.938287, "is_disabled": 0}, {"fusion_lat": 0.0, "lon": -77.0040395, "is_reserved": 0, "bike_id": "4c12477ad33ba98c1ce512a1e1f91029", "fusion_lon": 0.0, "rental_uris": {"android": "https://dc.lft.to/lastmile_qr_scan", "ios": "https://dc.lft.to/lastmile_qr_scan"}, "name": "4c12477ad33ba98c1ce512a1e1f91029", "type": "electric_scooter", "lat": 38.92134683333333, "is_disabled": 0}, {"fusion_lat": 0.0, "lon": -77.04874083333333, "is_reserved": 0, "bike_id": "a584b341e95c26b04eb8f9129d04c8a3", "fusion_lon": 0.0, "rental_uris": {"android": "https://dc.lft.to/lastmile_qr_scan", "ios": "https://dc.lft.to/lastmile_qr_scan"}, "name": "a584b341e95c26b04eb8f9129d04c8a3", "type": "electric_scooter", "lat": 38.90977016666667, "is_disabled": 0}, {"fusion_lat": 0.0, "lon": -76.90816433333333, "is_reserved": 0, "bike_id": "f128f678a379a419b814824e5d251b95", "fusion_lon": 0.0, "rental_uris": {"android": "https://dc.lft.to/lastmile_qr_scan", "ios": "https://dc.lft.to/lastmile_qr_scan"}, "name": "f128f678a379a419b814824e5d251b95", "type": "electric_bike", "lat": 39.00274783333333, "is_disabled": 0}, {"fusion_lat": 0.0, "lon": -77.36100883333333, "is_reserved": 0, "bike_id": "92f8e5d40388147053c7b1c39e03ad31", "fusion_lon": 0.0, "rental_uris": {"android": "https://dc.lft.to/lastmile_qr_scan", "ios": "https://dc.lft.to/lastmile_qr_scan"}, "name": "92f8e5d40388147053c7b1c39e03ad31", "type": "electric_bike", "lat": 38.939561166666664, "is_disabled": 0}, {"fusion_lat": 0.0, "lon": -77.02892716666666, "is_reserved": 0, "bike_id": "8f06f10ce28d57171c86c4f9d20204e1", "fusion_lon": 0.0, "rental_uris": {"android": "https://dc.lft.to/lastmile_qr_scan", "ios": "https://dc.lft.to/lastmile_qr_scan"}, "name": "8f06f10ce28d57171c86c4f9d20204e1", "type": "electric_scooter", "lat": 38.939865166666664, "is_disabled": 0}, {"fusion_lat": 0.0, "lon": -77.032268, "is_reserved": 0, "bike_id": "fc31c093c8ccaa2869d14fc59939a3cd", "fusion_lon": 0.0, "rental_uris": {"android": "https://dc.lft.to/lastmile_qr_scan", "ios": "https://dc.lft.to/lastmile_qr_scan"}, "name": "fc31c093c8ccaa2869d14fc59939a3cd", "type": "electric_scooter", "lat": 38.91408583333333, "is_disabled": 0}, {"fusion_lat": 0.0, "lon": -77.02389433333333, "is_reserved": 0, "bike_id": "1d8e5ff94c7d6884e6995129b6b2323c", "fusion_lon": 0.0, "rental_uris": {"android": "https://dc.lft.to/lastmile_qr_scan", "ios": "https://dc.lft.to/lastmile_qr_scan"}, "name": "1d8e5ff94c7d6884e6995129b6b2323c", "type": "electric_scooter", "lat": 38.9074275, "is_disabled": 0}, {"fusion_lat": 0.0, "lon": -76.97702533333333, "is_reserved": 0, "bike_id": "46ff09d50dea9f46725303af0c34900c", "fusion_lon": 0.0, "rental_uris": {"android": "https://dc.lft.to/lastmile_qr_scan", "ios": "https://dc.lft.to/lastmile_qr_scan"}, "name": "46ff09d50dea9f46725303af0c34900c", "type": "electric_bike", "lat": 38.9491825, "is_disabled": 0}, {"fusion_lat": 0.0, "lon": -77.02679616666667, "is_reserved": 0, "bike_id": "c21133a9c6034ff2b68f391fff201368", "fusion_lon": 0.0, "rental_uris": {"android": "https://dc.lft.to/lastmile_qr_scan", "ios": "https://dc.lft.to/lastmile_qr_scan"}, "name": "c21133a9c6034ff2b68f391fff201368", "type": "electric_scooter", "lat": 38.90110816666667, "is_disabled": 0}, {"fusion_lat": 0.0, "lon": -77.0174805, "is_reserved": 0, "bike_id": "850072f4757254ff0edabce4c3225955", "fusion_lon": 0.0, "rental_uris": {"android": "https://dc.lft.to/lastmile_qr_scan", "ios": "https://dc.lft.to/lastmile_qr_scan"}, "name": "850072f4757254ff0edabce4c3225955", "type": "electric_scooter", "lat": 38.883128666666664, "is_disabled": 0}, {"fusion_lat": 0.0, "lon": -77.0059735, "is_reserved": 0, "bike_id": "4b2bab56b0061af85eacea0eacb94f15", "fusion_lon": 0.0, "rental_uris": {"android": "https://dc.lft.to/lastmile_qr_scan", "ios": "https://dc.lft.to/lastmile_qr_scan"}, "name": "4b2bab56b0061af85eacea0eacb94f15", "type": "electric_scooter", "lat": 38.88521883333333, "is_disabled": 0}, {"fusion_lat": 0.0, "lon": -77.02621983333333, "is_reserved": 0, "bike_id": "5692822a2920bf96ac1ce87a2e197b2a", "fusion_lon": 0.0, "rental_uris": {"android": "https://dc.lft.to/lastmile_qr_scan", "ios": "https://dc.lft.to/lastmile_qr_scan"}, "name": "5692822a2920bf96ac1ce87a2e197b2a", "type": "electric_bike", "lat": 38.962253, "is_disabled": 0}, {"fusion_lat": 0.0, "lon": -77.026865, "is_reserved": 0, "bike_id": "b42523c7cb522d1f18370dfc8fb47741", "fusion_lon": 0.0, "rental_uris": {"android": "https://dc.lft.to/lastmile_qr_scan", "ios": "https://dc.lft.to/lastmile_qr_scan"}, "name": "b42523c7cb522d1f18370dfc8fb47741", "type": "electric_scooter", "lat": 38.90235933333334, "is_disabled": 0}, {"fusion_lat": 0.0, "lon": -77.0475905, "is_reserved": 0, "bike_id": "cfa5b049b909f1138e1d24456844e0dd", "fusion_lon": 0.0, "rental_uris": {"android": "https://dc.lft.to/lastmile_qr_scan", "ios": "https://dc.lft.to/lastmile_qr_scan"}, "name": "cfa5b049b909f1138e1d24456844e0dd", "type": "electric_scooter", "lat": 38.9054455, "is_disabled": 0}, {"fusion_lat": 0.0, "lon": -77.023687, "is_reserved": 0, "bike_id": "d594acf150024e155a725ca0bfb8fdb7", "fusion_lon": 0.0, "rental_uris": {"android": "https://dc.lft.to/lastmile_qr_scan", "ios": "https://dc.lft.to/lastmile_qr_scan"}, "name": "d594acf150024e155a725ca0bfb8fdb7", "type": "electric_scooter", "lat": 38.89218183333333, "is_disabled": 0}, {"fusion_lat": 0.0, "lon": -77.02801666666667, "is_reserved": 0, "bike_id": "c8de6892ed4c39fa6ffdc8df902c3ebf", "fusion_lon": 0.0, "rental_uris": {"android": "https://dc.lft.to/lastmile_qr_scan", "ios": "https://dc.lft.to/lastmile_qr_scan"}, "name": "c8de6892ed4c39fa6ffdc8df902c3ebf", "type": "electric_scooter", "lat": 38.892320833333336, "is_disabled": 0}, {"fusion_lat": 0.0, "lon": -77.01999383333333, "is_reserved": 0, "bike_id": "60010cb2aba4cde45ad7d0fd6863a426", "fusion_lon": 0.0, "rental_uris": {"android": "https://dc.lft.to/lastmile_qr_scan", "ios": "https://dc.lft.to/lastmile_qr_scan"}, "name": "60010cb2aba4cde45ad7d0fd6863a426", "type": "electric_scooter", "lat": 38.875938, "is_disabled": 0}, {"fusion_lat": 0.0, "lon": -76.98884516666666, "is_reserved": 0, "bike_id": "9dccafda55544fbbebadff8bd2426ea1", "fusion_lon": 0.0, "rental_uris": {"android": "https://dc.lft.to/lastmile_qr_scan", "ios": "https://dc.lft.to/lastmile_qr_scan"}, "name": "9dccafda55544fbbebadff8bd2426ea1", "type": "electric_scooter", "lat": 38.86659983333333, "is_disabled": 0}, {"fusion_lat": 0.0, "lon": -77.04373033333333, "is_reserved": 0, "bike_id": "80ca155bb230c4d66c0e120f7387beb9", "fusion_lon": 0.0, "rental_uris": {"android": "https://dc.lft.to/lastmile_qr_scan", "ios": "https://dc.lft.to/lastmile_qr_scan"}, "name": "80ca155bb230c4d66c0e120f7387beb9", "type": "electric_scooter", "lat": 38.922328, "is_disabled": 0}, {"fusion_lat": 0.0, "lon": -76.997616, "is_reserved": 0, "bike_id": "c4c70a53c4b427b16db0aad30b808f38", "fusion_lon": 0.0, "rental_uris": {"android": "https://dc.lft.to/lastmile_qr_scan", "ios": "https://dc.lft.to/lastmile_qr_scan"}, "name": "c4c70a53c4b427b16db0aad30b808f38", "type": "electric_scooter", "lat": 38.899981333333336, "is_disabled": 0}, {"fusion_lat": 0.0, "lon": -77.023999, "is_reserved": 0, "bike_id": "7987bddfbd97d2719d2aab3ccb6b8772", "fusion_lon": 0.0, "rental_uris": {"android": "https://dc.lft.to/lastmile_qr_scan", "ios": "https://dc.lft.to/lastmile_qr_scan"}, "name": "7987bddfbd97d2719d2aab3ccb6b8772", "type": "electric_scooter", "lat": 38.9370245, "is_disabled": 0}, {"fusion_lat": 0.0, "lon": -77.028058, "is_reserved": 0, "bike_id": "2ba2e4a0adabe3d71c2643cd11b782d2", "fusion_lon": 0.0, "rental_uris": {"android": "https://dc.lft.to/lastmile_qr_scan", "ios": "https://dc.lft.to/lastmile_qr_scan"}, "name": "2ba2e4a0adabe3d71c2643cd11b782d2", "type": "electric_scooter", "lat": 38.930863333333335, "is_disabled": 0}, {"fusion_lat": 0.0, "lon": -76.98743716666667, "is_reserved": 0, "bike_id": "e5fa4c8154af1c750874cd4213791a13", "fusion_lon": 0.0, "rental_uris": {"android": "https://dc.lft.to/lastmile_qr_scan", "ios": "https://dc.lft.to/lastmile_qr_scan"}, "name": "e5fa4c8154af1c750874cd4213791a13", "type": "electric_scooter", "lat": 38.88617466666667, "is_disabled": 0}, {"fusion_lat": 0.0, "lon": -77.021603, "is_reserved": 0, "bike_id": "a8062feff928598690377a1d07a9d84f", "fusion_lon": 0.0, "rental_uris": {"android": "https://dc.lft.to/lastmile_qr_scan", "ios": "https://dc.lft.to/lastmile_qr_scan"}, "name": "a8062feff928598690377a1d07a9d84f", "type": "electric_scooter", "lat": 38.92610666666667, "is_disabled": 0}, {"fusion_lat": 0.0, "lon": -77.04851616666667, "is_reserved": 0, "bike_id": "9e9d9f24d5764ac7a9b2fe4376af8b17", "fusion_lon": 0.0, "rental_uris": {"android": "https://dc.lft.to/lastmile_qr_scan", "ios": "https://dc.lft.to/lastmile_qr_scan"}, "name": "9e9d9f24d5764ac7a9b2fe4376af8b17", "type": "electric_scooter", "lat": 38.919613, "is_disabled": 0}, {"fusion_lat": 0.0, "lon": -76.99577133333334, "is_reserved": 0, "bike_id": "34ff84524918056f8b26593848f5394f", "fusion_lon": 0.0, "rental_uris": {"android": "https://dc.lft.to/lastmile_qr_scan", "ios": "https://dc.lft.to/lastmile_qr_scan"}, "name": "34ff84524918056f8b26593848f5394f", "type": "electric_bike", "lat": 38.852946, "is_disabled": 0}, {"fusion_lat": 0.0, "lon": -77.038593, "is_reserved": 0, "bike_id": "76251f674d0fd9a39558b0fdc637a07e", "fusion_lon": 0.0, "rental_uris": {"android": "https://dc.lft.to/lastmile_qr_scan", "ios": "https://dc.lft.to/lastmile_qr_scan"}, "name": "76251f674d0fd9a39558b0fdc637a07e", "type": "electric_scooter", "lat": 38.90271, "is_disabled": 0}, {"fusion_lat": 0.0, "lon": -77.043229, "is_reserved": 0, "bike_id": "c07546eb38d3a67acdc9d5d69cf76d63", "fusion_lon": 0.0, "rental_uris": {"android": "https://dc.lft.to/lastmile_qr_scan", "ios": "https://dc.lft.to/lastmile_qr_scan"}, "name": "c07546eb38d3a67acdc9d5d69cf76d63", "type": "electric_scooter", "lat": 38.892249, "is_disabled": 0}, {"fusion_lat": 0.0, "lon": -76.955356, "is_reserved": 0, "bike_id": "e8b00000f103932788b1b3aced9c356a", "fusion_lon": 0.0, "rental_uris": {"android": "https://dc.lft.to/lastmile_qr_scan", "ios": "https://dc.lft.to/lastmile_qr_scan"}, "name": "e8b00000f103932788b1b3aced9c356a", "type": "electric_scooter", "lat": 38.8877405, "is_disabled": 0}, {"fusion_lat": 0.0, "lon": -77.00484066666667, "is_reserved": 0, "bike_id": "154e19be54571991af3d86e7e25599cf", "fusion_lon": 0.0, "rental_uris": {"android": "https://dc.lft.to/lastmile_qr_scan", "ios": "https://dc.lft.to/lastmile_qr_scan"}, "name": "154e19be54571991af3d86e7e25599cf", "type": "electric_scooter", "lat": 38.87481616666667, "is_disabled": 0}, {"fusion_lat": 0.0, "lon": -77.03261066666667, "is_reserved": 0, "bike_id": "6f90be67b4dfc658529611d9526fe4e1", "fusion_lon": 0.0, "rental_uris": {"android": "https://dc.lft.to/lastmile_qr_scan", "ios": "https://dc.lft.to/lastmile_qr_scan"}, "name": "6f90be67b4dfc658529611d9526fe4e1", "type": "electric_scooter", "lat": 38.94626866666667, "is_disabled": 0}, {"fusion_lat": 0.0, "lon": -77.049295, "is_reserved": 0, "bike_id": "499d51f760628d69bd4a69311ebe2998", "fusion_lon": 0.0, "rental_uris": {"android": "https://dc.lft.to/lastmile_qr_scan", "ios": "https://dc.lft.to/lastmile_qr_scan"}, "name": "499d51f760628d69bd4a69311ebe2998", "type": "electric_scooter", "lat": 38.89530333333333, "is_disabled": 0}, {"fusion_lat": 0.0, "lon": -77.0537625, "is_reserved": 0, "bike_id": "7b5741d4542ff1e25d0ebd59ec77f0a8", "fusion_lon": 0.0, "rental_uris": {"android": "https://dc.lft.to/lastmile_qr_scan", "ios": "https://dc.lft.to/lastmile_qr_scan"}, "name": "7b5741d4542ff1e25d0ebd59ec77f0a8", "type": "electric_scooter", "lat": 38.927183666666664, "is_disabled": 0}, {"fusion_lat": 0.0, "lon": -77.04736033333333, "is_reserved": 0, "bike_id": "481b3af3913c411142b19500cbf3bb5b", "fusion_lon": 0.0, "rental_uris": {"android": "https://dc.lft.to/lastmile_qr_scan", "ios": "https://dc.lft.to/lastmile_qr_scan"}, "name": "481b3af3913c411142b19500cbf3bb5b", "type": "electric_scooter", "lat": 38.909433166666666, "is_disabled": 0}, {"fusion_lat": 0.0, "lon": -77.02394666666666, "is_reserved": 0, "bike_id": "dede8dfece344418b104059a2f428a57", "fusion_lon": 0.0, "rental_uris": {"android": "https://dc.lft.to/lastmile_qr_scan", "ios": "https://dc.lft.to/lastmile_qr_scan"}, "name": "dede8dfece344418b104059a2f428a57", "type": "electric_scooter", "lat": 38.907378, "is_disabled": 0}, {"fusion_lat": 0.0, "lon": -77.0034285, "is_reserved": 0, "bike_id": "ff076536aceb3aae98b8cbf275cfc33b", "fusion_lon": 0.0, "rental_uris": {"android": "https://dc.lft.to/lastmile_qr_scan", "ios": "https://dc.lft.to/lastmile_qr_scan"}, "name": "ff076536aceb3aae98b8cbf275cfc33b", "type": "electric_scooter", "lat": 38.886208, "is_disabled": 0}, {"fusion_lat": 0.0, "lon": -76.9809555, "is_reserved": 0, "bike_id": "d38c5ee1e327ab8118a8513ca2af55ce", "fusion_lon": 0.0, "rental_uris": {"android": "https://dc.lft.to/lastmile_qr_scan", "ios": "https://dc.lft.to/lastmile_qr_scan"}, "name": "d38c5ee1e327ab8118a8513ca2af55ce", "type": "electric_bike", "lat": 38.921095333333334, "is_disabled": 0}, {"fusion_lat": 0.0, "lon": -77.03778866666667, "is_reserved": 0, "bike_id": "caae86f29e2949535f580408beeab278", "fusion_lon": 0.0, "rental_uris": {"android": "https://dc.lft.to/lastmile_qr_scan", "ios": "https://dc.lft.to/lastmile_qr_scan"}, "name": "caae86f29e2949535f580408beeab278", "type": "electric_scooter", "lat": 38.922012, "is_disabled": 0}, {"fusion_lat": 0.0, "lon": -76.995272, "is_reserved": 0, "bike_id": "337e46c3c231c366eee172829974d910", "fusion_lon": 0.0, "rental_uris": {"android": "https://dc.lft.to/lastmile_qr_scan", "ios": "https://dc.lft.to/lastmile_qr_scan"}, "name": "337e46c3c231c366eee172829974d910", "type": "electric_scooter", "lat": 38.8837135, "is_disabled": 0}, {"fusion_lat": 0.0, "lon": -76.9979485, "is_reserved": 0, "bike_id": "fa5c0092a8867dc12c3b16f412575401", "fusion_lon": 0.0, "rental_uris": {"android": "https://dc.lft.to/lastmile_qr_scan", "ios": "https://dc.lft.to/lastmile_qr_scan"}, "name": "fa5c0092a8867dc12c3b16f412575401", "type": "electric_bike", "lat": 38.956428833333334, "is_disabled": 0}, {"fusion_lat": 0.0, "lon": -77.051979, "is_reserved": 0, "bike_id": "afcd82c06c0b0c7f7d5ce30e5ca174ee", "fusion_lon": 0.0, "rental_uris": {"android": "https://dc.lft.to/lastmile_qr_scan", "ios": "https://dc.lft.to/lastmile_qr_scan"}, "name": "afcd82c06c0b0c7f7d5ce30e5ca174ee", "type": "electric_scooter", "lat": 38.92464783333333, "is_disabled": 0}, {"fusion_lat": 0.0, "lon": -76.9646775, "is_reserved": 0, "bike_id": "f27df8e88ca45fd15400b2a5b6f94713", "fusion_lon": 0.0, "rental_uris": {"android": "https://dc.lft.to/lastmile_qr_scan", "ios": "https://dc.lft.to/lastmile_qr_scan"}, "name": "f27df8e88ca45fd15400b2a5b6f94713", "type": "electric_scooter", "lat": 38.93448033333333, "is_disabled": 0}, {"fusion_lat": 0.0, "lon": -76.985344, "is_reserved": 0, "bike_id": "ecc56a7a9a58f5676bc2a34f015589ae", "fusion_lon": 0.0, "rental_uris": {"android": "https://dc.lft.to/lastmile_qr_scan", "ios": "https://dc.lft.to/lastmile_qr_scan"}, "name": "ecc56a7a9a58f5676bc2a34f015589ae", "type": "electric_scooter", "lat": 38.910270833333335, "is_disabled": 0}, {"fusion_lat": 0.0, "lon": -77.02682983333334, "is_reserved": 0, "bike_id": "93cb57b366e84cfa8cc437e40d6f940c", "fusion_lon": 0.0, "rental_uris": {"android": "https://dc.lft.to/lastmile_qr_scan", "ios": "https://dc.lft.to/lastmile_qr_scan"}, "name": "93cb57b366e84cfa8cc437e40d6f940c", "type": "electric_scooter", "lat": 38.927747, "is_disabled": 0}, {"fusion_lat": 0.0, "lon": -77.05438366666667, "is_reserved": 0, "bike_id": "7a081bd7278c1ef53db3ea50683ce7b1", "fusion_lon": 0.0, "rental_uris": {"android": "https://dc.lft.to/lastmile_qr_scan", "ios": "https://dc.lft.to/lastmile_qr_scan"}, "name": "7a081bd7278c1ef53db3ea50683ce7b1", "type": "electric_scooter", "lat": 38.928561333333334, "is_disabled": 0}, {"fusion_lat": 0.0, "lon": -77.0268285, "is_reserved": 0, "bike_id": "346afa8030a2e9dbc62064891eb0d5b7", "fusion_lon": 0.0, "rental_uris": {"android": "https://dc.lft.to/lastmile_qr_scan", "ios": "https://dc.lft.to/lastmile_qr_scan"}, "name": "346afa8030a2e9dbc62064891eb0d5b7", "type": "electric_scooter", "lat": 38.984892, "is_disabled": 0}, {"fusion_lat": 0.0, "lon": -76.99205833333333, "is_reserved": 0, "bike_id": "894ea8342beb5b096943551ab5b2d510", "fusion_lon": 0.0, "rental_uris": {"android": "https://dc.lft.to/lastmile_qr_scan", "ios": "https://dc.lft.to/lastmile_qr_scan"}, "name": "894ea8342beb5b096943551ab5b2d510", "type": "electric_scooter", "lat": 38.8951955, "is_disabled": 0}, {"fusion_lat": 0.0, "lon": -77.0317635, "is_reserved": 0, "bike_id": "c0212865354b4ac44615ef391135083e", "fusion_lon": 0.0, "rental_uris": {"android": "https://dc.lft.to/lastmile_qr_scan", "ios": "https://dc.lft.to/lastmile_qr_scan"}, "name": "c0212865354b4ac44615ef391135083e", "type": "electric_scooter", "lat": 38.884113666666664, "is_disabled": 0}, {"fusion_lat": 0.0, "lon": -77.0181115, "is_reserved": 0, "bike_id": "2f174c872ead98f11c4cd94867013958", "fusion_lon": 0.0, "rental_uris": {"android": "https://dc.lft.to/lastmile_qr_scan", "ios": "https://dc.lft.to/lastmile_qr_scan"}, "name": "2f174c872ead98f11c4cd94867013958", "type": "electric_scooter", "lat": 38.893239333333334, "is_disabled": 0}, {"fusion_lat": 0.0, "lon": -77.02367666666666, "is_reserved": 0, "bike_id": "b06f76746ae71719fcf2bd119e715a9e", "fusion_lon": 0.0, "rental_uris": {"android": "https://dc.lft.to/lastmile_qr_scan", "ios": "https://dc.lft.to/lastmile_qr_scan"}, "name": "b06f76746ae71719fcf2bd119e715a9e", "type": "electric_scooter", "lat": 38.91974483333333, "is_disabled": 0}, {"fusion_lat": 0.0, "lon": -76.9970415, "is_reserved": 0, "bike_id": "02e87cc21ce30e461274779828a58b64", "fusion_lon": 0.0, "rental_uris": {"android": "https://dc.lft.to/lastmile_qr_scan", "ios": "https://dc.lft.to/lastmile_qr_scan"}, "name": "02e87cc21ce30e461274779828a58b64", "type": "electric_scooter", "lat": 38.908386166666666, "is_disabled": 0}, {"fusion_lat": 0.0, "lon": -76.99187833333333, "is_reserved": 0, "bike_id": "5eacee9984e10d72757048d5918b9e2a", "fusion_lon": 0.0, "rental_uris": {"android": "https://dc.lft.to/lastmile_qr_scan", "ios": "https://dc.lft.to/lastmile_qr_scan"}, "name": "5eacee9984e10d72757048d5918b9e2a", "type": "electric_scooter", "lat": 38.90030433333333, "is_disabled": 0}, {"fusion_lat": 0.0, "lon": -77.02688966666666, "is_reserved": 0, "bike_id": "83bf371a9656e96699e3ce44f36cc7a3", "fusion_lon": 0.0, "rental_uris": {"android": "https://dc.lft.to/lastmile_qr_scan", "ios": "https://dc.lft.to/lastmile_qr_scan"}, "name": "83bf371a9656e96699e3ce44f36cc7a3", "type": "electric_scooter", "lat": 38.948906666666666, "is_disabled": 0}, {"fusion_lat": 0.0, "lon": -77.014862, "is_reserved": 0, "bike_id": "d6199cc99d38cc41b7887a4871267f6d", "fusion_lon": 0.0, "rental_uris": {"android": "https://dc.lft.to/lastmile_qr_scan", "ios": "https://dc.lft.to/lastmile_qr_scan"}, "name": "d6199cc99d38cc41b7887a4871267f6d", "type": "electric_scooter", "lat": 38.926854666666664, "is_disabled": 0}, {"fusion_lat": 0.0, "lon": -77.06379566666666, "is_reserved": 0, "bike_id": "dfd40c249813a5bb5750b5bf9ae76c9b", "fusion_lon": 0.0, "rental_uris": {"android": "https://dc.lft.to/lastmile_qr_scan", "ios": "https://dc.lft.to/lastmile_qr_scan"}, "name": "dfd40c249813a5bb5750b5bf9ae76c9b", "type": "electric_scooter", "lat": 38.908217666666665, "is_disabled": 0}, {"fusion_lat": 0.0, "lon": -77.04344816666666, "is_reserved": 0, "bike_id": "99310ead234f2c08d2821daf292e64f3", "fusion_lon": 0.0, "rental_uris": {"android": "https://dc.lft.to/lastmile_qr_scan", "ios": "https://dc.lft.to/lastmile_qr_scan"}, "name": "99310ead234f2c08d2821daf292e64f3", "type": "electric_scooter", "lat": 38.902930833333336, "is_disabled": 0}, {"fusion_lat": 0.0, "lon": -77.03254383333334, "is_reserved": 0, "bike_id": "9431404914d9cbfcb6091beccf16feb1", "fusion_lon": 0.0, "rental_uris": {"android": "https://dc.lft.to/lastmile_qr_scan", "ios": "https://dc.lft.to/lastmile_qr_scan"}, "name": "9431404914d9cbfcb6091beccf16feb1", "type": "electric_scooter", "lat": 38.92913516666667, "is_disabled": 0}, {"fusion_lat": 0.0, "lon": -76.98742883333334, "is_reserved": 0, "bike_id": "344fb2af973d01c5b38cface9c573df1", "fusion_lon": 0.0, "rental_uris": {"android": "https://dc.lft.to/lastmile_qr_scan", "ios": "https://dc.lft.to/lastmile_qr_scan"}, "name": "344fb2af973d01c5b38cface9c573df1", "type": "electric_scooter", "lat": 38.8448415, "is_disabled": 0}, {"fusion_lat": 0.0, "lon": -76.9501885, "is_reserved": 0, "bike_id": "e72ab4bb0e9564ff3604c12f9d205271", "fusion_lon": 0.0, "rental_uris": {"android": "https://dc.lft.to/lastmile_qr_scan", "ios": "https://dc.lft.to/lastmile_qr_scan"}, "name": "e72ab4bb0e9564ff3604c12f9d205271", "type": "electric_scooter", "lat": 38.89390516666667, "is_disabled": 0}, {"fusion_lat": 0.0, "lon": -77.08592116666667, "is_reserved": 0, "bike_id": "492e6b3e165290bf4798e642cf38b344", "fusion_lon": 0.0, "rental_uris": {"android": "https://dc.lft.to/lastmile_qr_scan", "ios": "https://dc.lft.to/lastmile_qr_scan"}, "name": "492e6b3e165290bf4798e642cf38b344", "type": "electric_scooter", "lat": 38.908785, "is_disabled": 0}, {"fusion_lat": 0.0, "lon": -77.006081, "is_reserved": 0, "bike_id": "94dca64a5ede331e357cfab0f696f010", "fusion_lon": 0.0, "rental_uris": {"android": "https://dc.lft.to/lastmile_qr_scan", "ios": "https://dc.lft.to/lastmile_qr_scan"}, "name": "94dca64a5ede331e357cfab0f696f010", "type": "electric_bike", "lat": 38.8980945, "is_disabled": 0}, {"fusion_lat": 0.0, "lon": -77.02210383333333, "is_reserved": 0, "bike_id": "2c9b4c2a012c296adde1a0fcfb47ffc7", "fusion_lon": 0.0, "rental_uris": {"android": "https://dc.lft.to/lastmile_qr_scan", "ios": "https://dc.lft.to/lastmile_qr_scan"}, "name": "2c9b4c2a012c296adde1a0fcfb47ffc7", "type": "electric_scooter", "lat": 38.914150166666666, "is_disabled": 0}, {"fusion_lat": 0.0, "lon": -77.02582633333333, "is_reserved": 0, "bike_id": "319f0fbef90c55392487de767c87845e", "fusion_lon": 0.0, "rental_uris": {"android": "https://dc.lft.to/lastmile_qr_scan", "ios": "https://dc.lft.to/lastmile_qr_scan"}, "name": "319f0fbef90c55392487de767c87845e", "type": "electric_bike", "lat": 38.996951333333335, "is_disabled": 0}, {"fusion_lat": 0.0, "lon": -76.944194, "is_reserved": 0, "bike_id": "2e6bd1f1da23a4832cabcfc20d39c440", "fusion_lon": 0.0, "rental_uris": {"android": "https://dc.lft.to/lastmile_qr_scan", "ios": "https://dc.lft.to/lastmile_qr_scan"}, "name": "2e6bd1f1da23a4832cabcfc20d39c440", "type": "electric_bike", "lat": 38.966207833333335, "is_disabled": 0}, {"fusion_lat": 0.0, "lon": -76.998283, "is_reserved": 0, "bike_id": "a7441f245efecce04c2a434b5defc617", "fusion_lon": 0.0, "rental_uris": {"android": "https://dc.lft.to/lastmile_qr_scan", "ios": "https://dc.lft.to/lastmile_qr_scan"}, "name": "a7441f245efecce04c2a434b5defc617", "type": "electric_scooter", "lat": 38.885378, "is_disabled": 0}, {"fusion_lat": 0.0, "lon": -77.05601316666667, "is_reserved": 0, "bike_id": "cb35676946ab2e7bc4de87c01a156256", "fusion_lon": 0.0, "rental_uris": {"android": "https://dc.lft.to/lastmile_qr_scan", "ios": "https://dc.lft.to/lastmile_qr_scan"}, "name": "cb35676946ab2e7bc4de87c01a156256", "type": "electric_scooter", "lat": 38.93602883333333, "is_disabled": 0}, {"fusion_lat": 0.0, "lon": -77.02844483333334, "is_reserved": 0, "bike_id": "420ef2b9c5b3adf9fd12229a807c5ba0", "fusion_lon": 0.0, "rental_uris": {"android": "https://dc.lft.to/lastmile_qr_scan", "ios": "https://dc.lft.to/lastmile_qr_scan"}, "name": "420ef2b9c5b3adf9fd12229a807c5ba0", "type": "electric_bike", "lat": 38.933005333333334, "is_disabled": 0}, {"fusion_lat": 0.0, "lon": -77.05132966666666, "is_reserved": 0, "bike_id": "e4b4c43a830c5209705dc195fab3b3c5", "fusion_lon": 0.0, "rental_uris": {"android": "https://dc.lft.to/lastmile_qr_scan", "ios": "https://dc.lft.to/lastmile_qr_scan"}, "name": "e4b4c43a830c5209705dc195fab3b3c5", "type": "electric_scooter", "lat": 38.9071385, "is_disabled": 0}, {"fusion_lat": 0.0, "lon": -76.99937583333333, "is_reserved": 0, "bike_id": "b22a9ba02a1f5f6408dbcacc855b2d93", "fusion_lon": 0.0, "rental_uris": {"android": "https://dc.lft.to/lastmile_qr_scan", "ios": "https://dc.lft.to/lastmile_qr_scan"}, "name": "b22a9ba02a1f5f6408dbcacc855b2d93", "type": "electric_scooter", "lat": 38.84300066666667, "is_disabled": 0}, {"fusion_lat": 0.0, "lon": -77.00772883333333, "is_reserved": 0, "bike_id": "af4b43f763deaabe9ac871324750c565", "fusion_lon": 0.0, "rental_uris": {"android": "https://dc.lft.to/lastmile_qr_scan", "ios": "https://dc.lft.to/lastmile_qr_scan"}, "name": "af4b43f763deaabe9ac871324750c565", "type": "electric_scooter", "lat": 38.926760333333334, "is_disabled": 0}, {"fusion_lat": 0.0, "lon": -77.0165795, "is_reserved": 0, "bike_id": "587bc2bdcae8ff2c7c074317a09d2e8b", "fusion_lon": 0.0, "rental_uris": {"android": "https://dc.lft.to/lastmile_qr_scan", "ios": "https://dc.lft.to/lastmile_qr_scan"}, "name": "587bc2bdcae8ff2c7c074317a09d2e8b", "type": "electric_bike", "lat": 38.881456166666666, "is_disabled": 0}, {"fusion_lat": 0.0, "lon": -77.04517216666666, "is_reserved": 0, "bike_id": "8ccbbdf472a4b97efd2ec9bfacbb2d89", "fusion_lon": 0.0, "rental_uris": {"android": "https://dc.lft.to/lastmile_qr_scan", "ios": "https://dc.lft.to/lastmile_qr_scan"}, "name": "8ccbbdf472a4b97efd2ec9bfacbb2d89", "type": "electric_scooter", "lat": 38.91288816666667, "is_disabled": 0}, {"fusion_lat": 0.0, "lon": -77.02702766666667, "is_reserved": 0, "bike_id": "59a494b276f456a1b8236cdaf78aec77", "fusion_lon": 0.0, "rental_uris": {"android": "https://dc.lft.to/lastmile_qr_scan", "ios": "https://dc.lft.to/lastmile_qr_scan"}, "name": "59a494b276f456a1b8236cdaf78aec77", "type": "electric_scooter", "lat": 38.9179275, "is_disabled": 0}, {"fusion_lat": 0.0, "lon": -76.97300416666667, "is_reserved": 0, "bike_id": "64b4360e28416c7679c1e46726f46cba", "fusion_lon": 0.0, "rental_uris": {"android": "https://dc.lft.to/lastmile_qr_scan", "ios": "https://dc.lft.to/lastmile_qr_scan"}, "name": "64b4360e28416c7679c1e46726f46cba", "type": "electric_scooter", "lat": 38.8464475, "is_disabled": 0}, {"fusion_lat": 0.0, "lon": -77.03015833333333, "is_reserved": 0, "bike_id": "5789af2fa324ef51802b0edc36ef157b", "fusion_lon": 0.0, "rental_uris": {"android": "https://dc.lft.to/lastmile_qr_scan", "ios": "https://dc.lft.to/lastmile_qr_scan"}, "name": "5789af2fa324ef51802b0edc36ef157b", "type": "electric_scooter", "lat": 38.904975666666665, "is_disabled": 0}, {"fusion_lat": 0.0, "lon": -77.00066466666667, "is_reserved": 0, "bike_id": "228265eae7c48a76f03b68dc1c11f4d7", "fusion_lon": 0.0, "rental_uris": {"android": "https://dc.lft.to/lastmile_qr_scan", "ios": "https://dc.lft.to/lastmile_qr_scan"}, "name": "228265eae7c48a76f03b68dc1c11f4d7", "type": "electric_scooter", "lat": 38.9243965, "is_disabled": 0}, {"fusion_lat": 0.0, "lon": -77.0352825, "is_reserved": 0, "bike_id": "110d7de911d3105669664bde901d98f5", "fusion_lon": 0.0, "rental_uris": {"android": "https://dc.lft.to/lastmile_qr_scan", "ios": "https://dc.lft.to/lastmile_qr_scan"}, "name": "110d7de911d3105669664bde901d98f5", "type": "electric_scooter", "lat": 38.934884833333335, "is_disabled": 0}, {"fusion_lat": 0.0, "lon": -76.97695916666666, "is_reserved": 0, "bike_id": "d025184ceb1c89132e2600b6b2c4d235", "fusion_lon": 0.0, "rental_uris": {"android": "https://dc.lft.to/lastmile_qr_scan", "ios": "https://dc.lft.to/lastmile_qr_scan"}, "name": "d025184ceb1c89132e2600b6b2c4d235", "type": "electric_scooter", "lat": 38.8989215, "is_disabled": 0}, {"fusion_lat": 0.0, "lon": -76.99036233333334, "is_reserved": 0, "bike_id": "fd0569fb7aa6876ce147752b42a63bc5", "fusion_lon": 0.0, "rental_uris": {"android": "https://dc.lft.to/lastmile_qr_scan", "ios": "https://dc.lft.to/lastmile_qr_scan"}, "name": "fd0569fb7aa6876ce147752b42a63bc5", "type": "electric_bike", "lat": 38.86584716666667, "is_disabled": 0}, {"fusion_lat": 0.0, "lon": -77.00780216666666, "is_reserved": 0, "bike_id": "766c2de0b4dae600e29e9a4f8b15206c", "fusion_lon": 0.0, "rental_uris": {"android": "https://dc.lft.to/lastmile_qr_scan", "ios": "https://dc.lft.to/lastmile_qr_scan"}, "name": "766c2de0b4dae600e29e9a4f8b15206c", "type": "electric_scooter", "lat": 38.89743683333333, "is_disabled": 0}, {"fusion_lat": 0.0, "lon": -77.04004783333333, "is_reserved": 0, "bike_id": "38b4c91409bcf396395f9c61e1f2df78", "fusion_lon": 0.0, "rental_uris": {"android": "https://dc.lft.to/lastmile_qr_scan", "ios": "https://dc.lft.to/lastmile_qr_scan"}, "name": "38b4c91409bcf396395f9c61e1f2df78", "type": "electric_scooter", "lat": 38.9031325, "is_disabled": 0}, {"fusion_lat": 0.0, "lon": -77.00444066666667, "is_reserved": 0, "bike_id": "52cf7bdb02f83c53a22832e32e604661", "fusion_lon": 0.0, "rental_uris": {"android": "https://dc.lft.to/lastmile_qr_scan", "ios": "https://dc.lft.to/lastmile_qr_scan"}, "name": "52cf7bdb02f83c53a22832e32e604661", "type": "electric_scooter", "lat": 38.876514666666665, "is_disabled": 0}, {"fusion_lat": 0.0, "lon": -77.04347816666667, "is_reserved": 0, "bike_id": "4f5f45aa7fc6602b34fbfc8b9a4d28a7", "fusion_lon": 0.0, "rental_uris": {"android": "https://dc.lft.to/lastmile_qr_scan", "ios": "https://dc.lft.to/lastmile_qr_scan"}, "name": "4f5f45aa7fc6602b34fbfc8b9a4d28a7", "type": "electric_scooter", "lat": 38.902766, "is_disabled": 0}, {"fusion_lat": 0.0, "lon": -77.0269285, "is_reserved": 0, "bike_id": "096fc321a0a9e5e141012dd0a2677818", "fusion_lon": 0.0, "rental_uris": {"android": "https://dc.lft.to/lastmile_qr_scan", "ios": "https://dc.lft.to/lastmile_qr_scan"}, "name": "096fc321a0a9e5e141012dd0a2677818", "type": "electric_scooter", "lat": 38.911343333333335, "is_disabled": 0}, {"fusion_lat": 0.0, "lon": -77.01356066666666, "is_reserved": 0, "bike_id": "ba499005fa54c69c9b1789b05372a27c", "fusion_lon": 0.0, "rental_uris": {"android": "https://dc.lft.to/lastmile_qr_scan", "ios": "https://dc.lft.to/lastmile_qr_scan"}, "name": "ba499005fa54c69c9b1789b05372a27c", "type": "electric_scooter", "lat": 38.90863133333333, "is_disabled": 0}, {"fusion_lat": 0.0, "lon": -77.04472816666667, "is_reserved": 0, "bike_id": "de8b85b640387e51cc4548c82892ca2a", "fusion_lon": 0.0, "rental_uris": {"android": "https://dc.lft.to/lastmile_qr_scan", "ios": "https://dc.lft.to/lastmile_qr_scan"}, "name": "de8b85b640387e51cc4548c82892ca2a", "type": "electric_scooter", "lat": 38.92140233333333, "is_disabled": 0}, {"fusion_lat": 0.0, "lon": -77.02691616666667, "is_reserved": 0, "bike_id": "c70411bce6d49388efa3816f1ad633b8", "fusion_lon": 0.0, "rental_uris": {"android": "https://dc.lft.to/lastmile_qr_scan", "ios": "https://dc.lft.to/lastmile_qr_scan"}, "name": "c70411bce6d49388efa3816f1ad633b8", "type": "electric_scooter", "lat": 38.902342166666664, "is_disabled": 0}, {"fusion_lat": 0.0, "lon": -77.0395095, "is_reserved": 0, "bike_id": "b08e148c44e4553387eca2faab7f1ff0", "fusion_lon": 0.0, "rental_uris": {"android": "https://dc.lft.to/lastmile_qr_scan", "ios": "https://dc.lft.to/lastmile_qr_scan"}, "name": "b08e148c44e4553387eca2faab7f1ff0", "type": "electric_scooter", "lat": 38.931545166666666, "is_disabled": 0}, {"fusion_lat": 0.0, "lon": -77.034738, "is_reserved": 0, "bike_id": "f6018717327c91d64edda509c44e211f", "fusion_lon": 0.0, "rental_uris": {"android": "https://dc.lft.to/lastmile_qr_scan", "ios": "https://dc.lft.to/lastmile_qr_scan"}, "name": "f6018717327c91d64edda509c44e211f", "type": "electric_scooter", "lat": 38.9293365, "is_disabled": 0}, {"fusion_lat": 0.0, "lon": -77.02170983333333, "is_reserved": 0, "bike_id": "f738887b596862ad80aeba23ece4c19d", "fusion_lon": 0.0, "rental_uris": {"android": "https://dc.lft.to/lastmile_qr_scan", "ios": "https://dc.lft.to/lastmile_qr_scan"}, "name": "f738887b596862ad80aeba23ece4c19d", "type": "electric_scooter", "lat": 38.902170166666664, "is_disabled": 0}, {"fusion_lat": 0.0, "lon": -77.02658116666667, "is_reserved": 0, "bike_id": "a73935269861e73fc273f8172cff3da6", "fusion_lon": 0.0, "rental_uris": {"android": "https://dc.lft.to/lastmile_qr_scan", "ios": "https://dc.lft.to/lastmile_qr_scan"}, "name": "a73935269861e73fc273f8172cff3da6", "type": "electric_bike", "lat": 38.9881455, "is_disabled": 0}, {"fusion_lat": 0.0, "lon": -76.99273316666667, "is_reserved": 0, "bike_id": "a4cf44fee93ed08e030ecac35f68ab7a", "fusion_lon": 0.0, "rental_uris": {"android": "https://dc.lft.to/lastmile_qr_scan", "ios": "https://dc.lft.to/lastmile_qr_scan"}, "name": "a4cf44fee93ed08e030ecac35f68ab7a", "type": "electric_scooter", "lat": 38.897703666666665, "is_disabled": 0}, {"fusion_lat": 0.0, "lon": -76.929374, "is_reserved": 0, "bike_id": "2b39dc974930db60e10f0088b2087064", "fusion_lon": 0.0, "rental_uris": {"android": "https://dc.lft.to/lastmile_qr_scan", "ios": "https://dc.lft.to/lastmile_qr_scan"}, "name": "2b39dc974930db60e10f0088b2087064", "type": "electric_scooter", "lat": 38.88380983333333, "is_disabled": 0}, {"fusion_lat": 0.0, "lon": -77.026573, "is_reserved": 0, "bike_id": "f3c6bd6ca5a153e6c9e9b226b99847ce", "fusion_lon": 0.0, "rental_uris": {"android": "https://dc.lft.to/lastmile_qr_scan", "ios": "https://dc.lft.to/lastmile_qr_scan"}, "name": "f3c6bd6ca5a153e6c9e9b226b99847ce", "type": "electric_scooter", "lat": 38.8922275, "is_disabled": 0}, {"fusion_lat": 0.0, "lon": -76.95657383333334, "is_reserved": 0, "bike_id": "e1c1106669a059c2889df13b6c12b722", "fusion_lon": 0.0, "rental_uris": {"android": "https://dc.lft.to/lastmile_qr_scan", "ios": "https://dc.lft.to/lastmile_qr_scan"}, "name": "e1c1106669a059c2889df13b6c12b722", "type": "electric_scooter", "lat": 38.89556533333333, "is_disabled": 0}, {"fusion_lat": 0.0, "lon": -76.98470833333333, "is_reserved": 0, "bike_id": "e35a79b358961467a3942064ddc36b0c", "fusion_lon": 0.0, "rental_uris": {"android": "https://dc.lft.to/lastmile_qr_scan", "ios": "https://dc.lft.to/lastmile_qr_scan"}, "name": "e35a79b358961467a3942064ddc36b0c", "type": "electric_bike", "lat": 38.92898916666667, "is_disabled": 0}, {"fusion_lat": 0.0, "lon": -77.01211533333333, "is_reserved": 0, "bike_id": "52a86084f4488ce6f5fd91a8d72dc0de", "fusion_lon": 0.0, "rental_uris": {"android": "https://dc.lft.to/lastmile_qr_scan", "ios": "https://dc.lft.to/lastmile_qr_scan"}, "name": "52a86084f4488ce6f5fd91a8d72dc0de", "type": "electric_bike", "lat": 38.8708915, "is_disabled": 0}, {"fusion_lat": 0.0, "lon": -77.03546283333333, "is_reserved": 0, "bike_id": "a6e2fa51ff49a3100b67cf7c3602b3f4", "fusion_lon": 0.0, "rental_uris": {"android": "https://dc.lft.to/lastmile_qr_scan", "ios": "https://dc.lft.to/lastmile_qr_scan"}, "name": "a6e2fa51ff49a3100b67cf7c3602b3f4", "type": "electric_scooter", "lat": 38.90821916666667, "is_disabled": 0}, {"fusion_lat": 0.0, "lon": -77.17837583333333, "is_reserved": 0, "bike_id": "536f023e9c1b3f55356aa0c9fc58bc5f", "fusion_lon": 0.0, "rental_uris": {"android": "https://dc.lft.to/lastmile_qr_scan", "ios": "https://dc.lft.to/lastmile_qr_scan"}, "name": "536f023e9c1b3f55356aa0c9fc58bc5f", "type": "electric_bike", "lat": 39.088589166666665, "is_disabled": 0}, {"fusion_lat": 0.0, "lon": -76.99007883333333, "is_reserved": 0, "bike_id": "80b6991b61f2ea50ebe1814b3facc020", "fusion_lon": 0.0, "rental_uris": {"android": "https://dc.lft.to/lastmile_qr_scan", "ios": "https://dc.lft.to/lastmile_qr_scan"}, "name": "80b6991b61f2ea50ebe1814b3facc020", "type": "electric_scooter", "lat": 38.903878166666665, "is_disabled": 0}, {"fusion_lat": 0.0, "lon": -77.03213216666667, "is_reserved": 0, "bike_id": "5c2806129bb423d28a40c3be29ba660c", "fusion_lon": 0.0, "rental_uris": {"android": "https://dc.lft.to/lastmile_qr_scan", "ios": "https://dc.lft.to/lastmile_qr_scan"}, "name": "5c2806129bb423d28a40c3be29ba660c", "type": "electric_scooter", "lat": 38.91778633333333, "is_disabled": 0}, {"fusion_lat": 0.0, "lon": -77.02084783333333, "is_reserved": 0, "bike_id": "302a7457929639514ce14070ac6f4dd1", "fusion_lon": 0.0, "rental_uris": {"android": "https://dc.lft.to/lastmile_qr_scan", "ios": "https://dc.lft.to/lastmile_qr_scan"}, "name": "302a7457929639514ce14070ac6f4dd1", "type": "electric_scooter", "lat": 38.881864, "is_disabled": 0}, {"fusion_lat": 0.0, "lon": -77.03072933333333, "is_reserved": 0, "bike_id": "0dca38fd38dfc9bafc19474a0db60a7a", "fusion_lon": 0.0, "rental_uris": {"android": "https://dc.lft.to/lastmile_qr_scan", "ios": "https://dc.lft.to/lastmile_qr_scan"}, "name": "0dca38fd38dfc9bafc19474a0db60a7a", "type": "electric_scooter", "lat": 38.9057015, "is_disabled": 0}, {"fusion_lat": 0.0, "lon": -77.027119, "is_reserved": 0, "bike_id": "397d09efef3b40fea7bac77ba63f4571", "fusion_lon": 0.0, "rental_uris": {"android": "https://dc.lft.to/lastmile_qr_scan", "ios": "https://dc.lft.to/lastmile_qr_scan"}, "name": "397d09efef3b40fea7bac77ba63f4571", "type": "electric_scooter", "lat": 38.92467283333333, "is_disabled": 0}, {"fusion_lat": 0.0, "lon": -77.0125245, "is_reserved": 0, "bike_id": "19d76104ed8342a3e9faa569a91bb0fe", "fusion_lon": 0.0, "rental_uris": {"android": "https://dc.lft.to/lastmile_qr_scan", "ios": "https://dc.lft.to/lastmile_qr_scan"}, "name": "19d76104ed8342a3e9faa569a91bb0fe", "type": "electric_scooter", "lat": 38.915815, "is_disabled": 0}, {"fusion_lat": 0.0, "lon": -77.05914883333334, "is_reserved": 0, "bike_id": "dedc226c544526dba7bd392be43cceb2", "fusion_lon": 0.0, "rental_uris": {"android": "https://dc.lft.to/lastmile_qr_scan", "ios": "https://dc.lft.to/lastmile_qr_scan"}, "name": "dedc226c544526dba7bd392be43cceb2", "type": "electric_scooter", "lat": 38.90102916666667, "is_disabled": 0}, {"fusion_lat": 0.0, "lon": -76.999538, "is_reserved": 0, "bike_id": "f99020a1b1ba5aa97be65a6cc6b48137", "fusion_lon": 0.0, "rental_uris": {"android": "https://dc.lft.to/lastmile_qr_scan", "ios": "https://dc.lft.to/lastmile_qr_scan"}, "name": "f99020a1b1ba5aa97be65a6cc6b48137", "type": "electric_scooter", "lat": 38.906875, "is_disabled": 0}, {"fusion_lat": 0.0, "lon": -76.94597933333333, "is_reserved": 0, "bike_id": "5d0bf498a8016be62f711934122253a9", "fusion_lon": 0.0, "rental_uris": {"android": "https://dc.lft.to/lastmile_qr_scan", "ios": "https://dc.lft.to/lastmile_qr_scan"}, "name": "5d0bf498a8016be62f711934122253a9", "type": "electric_scooter", "lat": 38.90148666666666, "is_disabled": 0}, {"fusion_lat": 0.0, "lon": -77.03915183333334, "is_reserved": 0, "bike_id": "4537890faabd70238fa3fbc2875e41d2", "fusion_lon": 0.0, "rental_uris": {"android": "https://dc.lft.to/lastmile_qr_scan", "ios": "https://dc.lft.to/lastmile_qr_scan"}, "name": "4537890faabd70238fa3fbc2875e41d2", "type": "electric_scooter", "lat": 38.932557833333334, "is_disabled": 0}, {"fusion_lat": 0.0, "lon": -77.09842283333333, "is_reserved": 0, "bike_id": "a4d78e77f9db968f2e56ae55ea41c665", "fusion_lon": 0.0, "rental_uris": {"android": "https://dc.lft.to/lastmile_qr_scan", "ios": "https://dc.lft.to/lastmile_qr_scan"}, "name": "a4d78e77f9db968f2e56ae55ea41c665", "type": "electric_bike", "lat": 38.848461666666665, "is_disabled": 0}, {"fusion_lat": 0.0, "lon": -76.97398766666667, "is_reserved": 0, "bike_id": "92229ac02cd86fe8a49a43ee2e5fb8e1", "fusion_lon": 0.0, "rental_uris": {"android": "https://dc.lft.to/lastmile_qr_scan", "ios": "https://dc.lft.to/lastmile_qr_scan"}, "name": "92229ac02cd86fe8a49a43ee2e5fb8e1", "type": "electric_scooter", "lat": 38.903008166666666, "is_disabled": 0}, {"fusion_lat": 0.0, "lon": -77.00076116666666, "is_reserved": 0, "bike_id": "f2c56eed7a2cecaaf69e3be5f92089be", "fusion_lon": 0.0, "rental_uris": {"android": "https://dc.lft.to/lastmile_qr_scan", "ios": "https://dc.lft.to/lastmile_qr_scan"}, "name": "f2c56eed7a2cecaaf69e3be5f92089be", "type": "electric_scooter", "lat": 38.907062833333335, "is_disabled": 0}, {"fusion_lat": 0.0, "lon": -77.021739, "is_reserved": 0, "bike_id": "ad706c4898653eda798f166737c11906", "fusion_lon": 0.0, "rental_uris": {"android": "https://dc.lft.to/lastmile_qr_scan", "ios": "https://dc.lft.to/lastmile_qr_scan"}, "name": "ad706c4898653eda798f166737c11906", "type": "electric_scooter", "lat": 38.89742533333333, "is_disabled": 0}, {"fusion_lat": 0.0, "lon": -77.03281466666667, "is_reserved": 0, "bike_id": "409ab4b87e9f1aa73e5302c6c32cf1bd", "fusion_lon": 0.0, "rental_uris": {"android": "https://dc.lft.to/lastmile_qr_scan", "ios": "https://dc.lft.to/lastmile_qr_scan"}, "name": "409ab4b87e9f1aa73e5302c6c32cf1bd", "type": "electric_scooter", "lat": 38.92937633333333, "is_disabled": 0}, {"fusion_lat": 0.0, "lon": -77.03690833333333, "is_reserved": 0, "bike_id": "cb202322805ff6926e1c266a5646eccd", "fusion_lon": 0.0, "rental_uris": {"android": "https://dc.lft.to/lastmile_qr_scan", "ios": "https://dc.lft.to/lastmile_qr_scan"}, "name": "cb202322805ff6926e1c266a5646eccd", "type": "electric_scooter", "lat": 38.91680516666667, "is_disabled": 0}, {"fusion_lat": 0.0, "lon": -77.0181605, "is_reserved": 0, "bike_id": "4a9b8054472ba882f9c3fb1facf52a2e", "fusion_lon": 0.0, "rental_uris": {"android": "https://dc.lft.to/lastmile_qr_scan", "ios": "https://dc.lft.to/lastmile_qr_scan"}, "name": "4a9b8054472ba882f9c3fb1facf52a2e", "type": "electric_scooter", "lat": 38.930475, "is_disabled": 0}, {"fusion_lat": 0.0, "lon": -77.03905333333333, "is_reserved": 0, "bike_id": "5d7f42f79f9131167dad7c48f815dc3d", "fusion_lon": 0.0, "rental_uris": {"android": "https://dc.lft.to/lastmile_qr_scan", "ios": "https://dc.lft.to/lastmile_qr_scan"}, "name": "5d7f42f79f9131167dad7c48f815dc3d", "type": "electric_scooter", "lat": 38.918664, "is_disabled": 0}, {"fusion_lat": 0.0, "lon": -77.0433955, "is_reserved": 0, "bike_id": "a45b7561b176ffd19df284934f992212", "fusion_lon": 0.0, "rental_uris": {"android": "https://dc.lft.to/lastmile_qr_scan", "ios": "https://dc.lft.to/lastmile_qr_scan"}, "name": "a45b7561b176ffd19df284934f992212", "type": "electric_scooter", "lat": 38.90901816666667, "is_disabled": 0}, {"fusion_lat": 0.0, "lon": -77.074214, "is_reserved": 0, "bike_id": "e56160fe74d4cbf9aa678eac5aa9d9c4", "fusion_lon": 0.0, "rental_uris": {"android": "https://dc.lft.to/lastmile_qr_scan", "ios": "https://dc.lft.to/lastmile_qr_scan"}, "name": "e56160fe74d4cbf9aa678eac5aa9d9c4", "type": "electric_scooter", "lat": 38.9289355, "is_disabled": 0}, {"fusion_lat": 0.0, "lon": -76.93480616666666, "is_reserved": 0, "bike_id": "4e65bc9757bbfcda8214077a7b9adaf7", "fusion_lon": 0.0, "rental_uris": {"android": "https://dc.lft.to/lastmile_qr_scan", "ios": "https://dc.lft.to/lastmile_qr_scan"}, "name": "4e65bc9757bbfcda8214077a7b9adaf7", "type": "electric_scooter", "lat": 38.9056055, "is_disabled": 0}, {"fusion_lat": 0.0, "lon": -77.03818466666667, "is_reserved": 0, "bike_id": "d240cc63639fbd2be50a0ebac4a43b9c", "fusion_lon": 0.0, "rental_uris": {"android": "https://dc.lft.to/lastmile_qr_scan", "ios": "https://dc.lft.to/lastmile_qr_scan"}, "name": "d240cc63639fbd2be50a0ebac4a43b9c", "type": "electric_scooter", "lat": 38.908098833333334, "is_disabled": 0}, {"fusion_lat": 0.0, "lon": -76.9860095, "is_reserved": 0, "bike_id": "fccbeb983bdaef6383dbb0bc5382922b", "fusion_lon": 0.0, "rental_uris": {"android": "https://dc.lft.to/lastmile_qr_scan", "ios": "https://dc.lft.to/lastmile_qr_scan"}, "name": "fccbeb983bdaef6383dbb0bc5382922b", "type": "electric_scooter", "lat": 38.900183, "is_disabled": 0}, {"fusion_lat": 0.0, "lon": -77.0634565, "is_reserved": 0, "bike_id": "4d0e2d8f198bfbfb698dc6e76b17417c", "fusion_lon": 0.0, "rental_uris": {"android": "https://dc.lft.to/lastmile_qr_scan", "ios": "https://dc.lft.to/lastmile_qr_scan"}, "name": "4d0e2d8f198bfbfb698dc6e76b17417c", "type": "electric_scooter", "lat": 38.907475166666664, "is_disabled": 0}, {"fusion_lat": 0.0, "lon": -77.00046533333334, "is_reserved": 0, "bike_id": "31645f49876ecb8ffe2e0648778a9bf2", "fusion_lon": 0.0, "rental_uris": {"android": "https://dc.lft.to/lastmile_qr_scan", "ios": "https://dc.lft.to/lastmile_qr_scan"}, "name": "31645f49876ecb8ffe2e0648778a9bf2", "type": "electric_scooter", "lat": 38.900141, "is_disabled": 0}, {"fusion_lat": 0.0, "lon": -77.06594816666667, "is_reserved": 0, "bike_id": "7fd1136a0e957c7e0956f1b0071c4570", "fusion_lon": 0.0, "rental_uris": {"android": "https://dc.lft.to/lastmile_qr_scan", "ios": "https://dc.lft.to/lastmile_qr_scan"}, "name": "7fd1136a0e957c7e0956f1b0071c4570", "type": "electric_scooter", "lat": 38.90417683333333, "is_disabled": 0}, {"fusion_lat": 0.0, "lon": -77.02316316666666, "is_reserved": 0, "bike_id": "3ebda811e695df32e4049db8f4873cff", "fusion_lon": 0.0, "rental_uris": {"android": "https://dc.lft.to/lastmile_qr_scan", "ios": "https://dc.lft.to/lastmile_qr_scan"}, "name": "3ebda811e695df32e4049db8f4873cff", "type": "electric_scooter", "lat": 38.91836883333333, "is_disabled": 0}, {"fusion_lat": 0.0, "lon": -76.98918383333333, "is_reserved": 0, "bike_id": "e3b7acfb165066a9eaebb79c310e3a8b", "fusion_lon": 0.0, "rental_uris": {"android": "https://dc.lft.to/lastmile_qr_scan", "ios": "https://dc.lft.to/lastmile_qr_scan"}, "name": "e3b7acfb165066a9eaebb79c310e3a8b", "type": "electric_scooter", "lat": 38.86491016666667, "is_disabled": 0}, {"fusion_lat": 0.0, "lon": -76.98147383333334, "is_reserved": 0, "bike_id": "5d6c48dc280894a2b91d18ae6e549746", "fusion_lon": 0.0, "rental_uris": {"android": "https://dc.lft.to/lastmile_qr_scan", "ios": "https://dc.lft.to/lastmile_qr_scan"}, "name": "5d6c48dc280894a2b91d18ae6e549746", "type": "electric_scooter", "lat": 38.9056895, "is_disabled": 0}, {"fusion_lat": 0.0, "lon": -77.0173465, "is_reserved": 0, "bike_id": "31b9aec90645157489b02dbfe5d7c02e", "fusion_lon": 0.0, "rental_uris": {"android": "https://dc.lft.to/lastmile_qr_scan", "ios": "https://dc.lft.to/lastmile_qr_scan"}, "name": "31b9aec90645157489b02dbfe5d7c02e", "type": "electric_scooter", "lat": 38.8727785, "is_disabled": 0}, {"fusion_lat": 0.0, "lon": -77.0160405, "is_reserved": 0, "bike_id": "4cc5a3ffce5667e4acbf102c2462be59", "fusion_lon": 0.0, "rental_uris": {"android": "https://dc.lft.to/lastmile_qr_scan", "ios": "https://dc.lft.to/lastmile_qr_scan"}, "name": "4cc5a3ffce5667e4acbf102c2462be59", "type": "electric_scooter", "lat": 38.88315733333334, "is_disabled": 0}, {"fusion_lat": 0.0, "lon": -77.04206933333333, "is_reserved": 0, "bike_id": "7d324c5383bb4c70094cbec51c3cbadc", "fusion_lon": 0.0, "rental_uris": {"android": "https://dc.lft.to/lastmile_qr_scan", "ios": "https://dc.lft.to/lastmile_qr_scan"}, "name": "7d324c5383bb4c70094cbec51c3cbadc", "type": "electric_scooter", "lat": 38.919802, "is_disabled": 0}, {"fusion_lat": 0.0, "lon": -77.04309683333334, "is_reserved": 0, "bike_id": "2b5ed4efdbdd924bb3eef2484bd7860e", "fusion_lon": 0.0, "rental_uris": {"android": "https://dc.lft.to/lastmile_qr_scan", "ios": "https://dc.lft.to/lastmile_qr_scan"}, "name": "2b5ed4efdbdd924bb3eef2484bd7860e", "type": "electric_scooter", "lat": 38.92334966666667, "is_disabled": 0}, {"fusion_lat": 0.0, "lon": -77.06135516666667, "is_reserved": 0, "bike_id": "89707407cd1fbbef16dba6a0c7812152", "fusion_lon": 0.0, "rental_uris": {"android": "https://dc.lft.to/lastmile_qr_scan", "ios": "https://dc.lft.to/lastmile_qr_scan"}, "name": "89707407cd1fbbef16dba6a0c7812152", "type": "electric_scooter", "lat": 38.94092766666667, "is_disabled": 0}, {"fusion_lat": 0.0, "lon": -77.02779566666666, "is_reserved": 0, "bike_id": "c5df6ee557d414830aae84d569a3f738", "fusion_lon": 0.0, "rental_uris": {"android": "https://dc.lft.to/lastmile_qr_scan", "ios": "https://dc.lft.to/lastmile_qr_scan"}, "name": "c5df6ee557d414830aae84d569a3f738", "type": "electric_scooter", "lat": 38.92687683333333, "is_disabled": 0}, {"fusion_lat": 0.0, "lon": -77.04023233333334, "is_reserved": 0, "bike_id": "c6c5df76486cceac5e30e588803deece", "fusion_lon": 0.0, "rental_uris": {"android": "https://dc.lft.to/lastmile_qr_scan", "ios": "https://dc.lft.to/lastmile_qr_scan"}, "name": "c6c5df76486cceac5e30e588803deece", "type": "electric_scooter", "lat": 38.924429, "is_disabled": 0}, {"fusion_lat": 0.0, "lon": -77.07346, "is_reserved": 0, "bike_id": "014d3304b33a2c3b0e9275d61b438176", "fusion_lon": 0.0, "rental_uris": {"android": "https://dc.lft.to/lastmile_qr_scan", "ios": "https://dc.lft.to/lastmile_qr_scan"}, "name": "014d3304b33a2c3b0e9275d61b438176", "type": "electric_scooter", "lat": 38.91092483333333, "is_disabled": 0}, {"fusion_lat": 0.0, "lon": -76.99757466666667, "is_reserved": 0, "bike_id": "05b94731b7629b503d7fe943fdb87923", "fusion_lon": 0.0, "rental_uris": {"android": "https://dc.lft.to/lastmile_qr_scan", "ios": "https://dc.lft.to/lastmile_qr_scan"}, "name": "05b94731b7629b503d7fe943fdb87923", "type": "electric_scooter", "lat": 38.908415, "is_disabled": 0}, {"fusion_lat": 0.0, "lon": -77.060578, "is_reserved": 0, "bike_id": "5b96663c0c5f0b2ce5b883c48366df9d", "fusion_lon": 0.0, "rental_uris": {"android": "https://dc.lft.to/lastmile_qr_scan", "ios": "https://dc.lft.to/lastmile_qr_scan"}, "name": "5b96663c0c5f0b2ce5b883c48366df9d", "type": "electric_scooter", "lat": 38.939052, "is_disabled": 0}, {"fusion_lat": 0.0, "lon": -77.04360716666666, "is_reserved": 0, "bike_id": "720a03ae85152a25deaa35995b58852e", "fusion_lon": 0.0, "rental_uris": {"android": "https://dc.lft.to/lastmile_qr_scan", "ios": "https://dc.lft.to/lastmile_qr_scan"}, "name": "720a03ae85152a25deaa35995b58852e", "type": "electric_scooter", "lat": 38.90408683333333, "is_disabled": 0}, {"fusion_lat": 0.0, "lon": -77.007157, "is_reserved": 0, "bike_id": "133ba558426e99fd1005a877d3b2e588", "fusion_lon": 0.0, "rental_uris": {"android": "https://dc.lft.to/lastmile_qr_scan", "ios": "https://dc.lft.to/lastmile_qr_scan"}, "name": "133ba558426e99fd1005a877d3b2e588", "type": "electric_scooter", "lat": 38.878006166666665, "is_disabled": 0}, {"fusion_lat": 0.0, "lon": -76.99465633333334, "is_reserved": 0, "bike_id": "f7675a38091901cbe87cd72d71d0ac81", "fusion_lon": 0.0, "rental_uris": {"android": "https://dc.lft.to/lastmile_qr_scan", "ios": "https://dc.lft.to/lastmile_qr_scan"}, "name": "f7675a38091901cbe87cd72d71d0ac81", "type": "electric_scooter", "lat": 38.86225116666667, "is_disabled": 0}, {"fusion_lat": 0.0, "lon": -77.0296875, "is_reserved": 0, "bike_id": "24be4955985bb190be7d528fe026ee72", "fusion_lon": 0.0, "rental_uris": {"android": "https://dc.lft.to/lastmile_qr_scan", "ios": "https://dc.lft.to/lastmile_qr_scan"}, "name": "24be4955985bb190be7d528fe026ee72", "type": "electric_scooter", "lat": 38.910675499999996, "is_disabled": 0}, {"fusion_lat": 0.0, "lon": -77.0006255, "is_reserved": 0, "bike_id": "b9feeae6dc4f3ca5dbccf930a5102538", "fusion_lon": 0.0, "rental_uris": {"android": "https://dc.lft.to/lastmile_qr_scan", "ios": "https://dc.lft.to/lastmile_qr_scan"}, "name": "b9feeae6dc4f3ca5dbccf930a5102538", "type": "electric_scooter", "lat": 38.898364, "is_disabled": 0}, {"fusion_lat": 0.0, "lon": -77.02279533333333, "is_reserved": 0, "bike_id": "909c46568c68a27c7bcbd32e53e39ba3", "fusion_lon": 0.0, "rental_uris": {"android": "https://dc.lft.to/lastmile_qr_scan", "ios": "https://dc.lft.to/lastmile_qr_scan"}, "name": "909c46568c68a27c7bcbd32e53e39ba3", "type": "electric_scooter", "lat": 38.898405833333335, "is_disabled": 0}, {"fusion_lat": 0.0, "lon": -77.07432916666667, "is_reserved": 0, "bike_id": "ad99e20f43b425038650d78cffd5997d", "fusion_lon": 0.0, "rental_uris": {"android": "https://dc.lft.to/lastmile_qr_scan", "ios": "https://dc.lft.to/lastmile_qr_scan"}, "name": "ad99e20f43b425038650d78cffd5997d", "type": "electric_bike", "lat": 38.99950316666666, "is_disabled": 0}, {"fusion_lat": 0.0, "lon": -77.04018533333333, "is_reserved": 0, "bike_id": "7500f0b01dd112ac5925d53876f04eae", "fusion_lon": 0.0, "rental_uris": {"android": "https://dc.lft.to/lastmile_qr_scan", "ios": "https://dc.lft.to/lastmile_qr_scan"}, "name": "7500f0b01dd112ac5925d53876f04eae", "type": "electric_scooter", "lat": 38.92244816666667, "is_disabled": 0}, {"fusion_lat": 0.0, "lon": -76.98718716666667, "is_reserved": 0, "bike_id": "d7c77a261bf310e53bb5d749147fa3d0", "fusion_lon": 0.0, "rental_uris": {"android": "https://dc.lft.to/lastmile_qr_scan", "ios": "https://dc.lft.to/lastmile_qr_scan"}, "name": "d7c77a261bf310e53bb5d749147fa3d0", "type": "electric_scooter", "lat": 38.866270666666665, "is_disabled": 0}, {"fusion_lat": 0.0, "lon": -77.03871916666667, "is_reserved": 0, "bike_id": "5b7c6c573d7990b0189430c63766903b", "fusion_lon": 0.0, "rental_uris": {"android": "https://dc.lft.to/lastmile_qr_scan", "ios": "https://dc.lft.to/lastmile_qr_scan"}, "name": "5b7c6c573d7990b0189430c63766903b", "type": "electric_scooter", "lat": 38.906533, "is_disabled": 0}, {"fusion_lat": 0.0, "lon": -77.0093435, "is_reserved": 0, "bike_id": "4c51cd89ba6a42392cb0978d800c3dbf", "fusion_lon": 0.0, "rental_uris": {"android": "https://dc.lft.to/lastmile_qr_scan", "ios": "https://dc.lft.to/lastmile_qr_scan"}, "name": "4c51cd89ba6a42392cb0978d800c3dbf", "type": "electric_scooter", "lat": 38.89977283333333, "is_disabled": 0}, {"fusion_lat": 0.0, "lon": -77.0279345, "is_reserved": 0, "bike_id": "9e722ed98127da020b87a61c566b1487", "fusion_lon": 0.0, "rental_uris": {"android": "https://dc.lft.to/lastmile_qr_scan", "ios": "https://dc.lft.to/lastmile_qr_scan"}, "name": "9e722ed98127da020b87a61c566b1487", "type": "electric_scooter", "lat": 38.9307965, "is_disabled": 0}, {"fusion_lat": 0.0, "lon": -77.0243535, "is_reserved": 0, "bike_id": "034006be293f15afd32abdc4bb11643f", "fusion_lon": 0.0, "rental_uris": {"android": "https://dc.lft.to/lastmile_qr_scan", "ios": "https://dc.lft.to/lastmile_qr_scan"}, "name": "034006be293f15afd32abdc4bb11643f", "type": "electric_scooter", "lat": 38.92724483333333, "is_disabled": 0}, {"fusion_lat": 0.0, "lon": -77.0466665, "is_reserved": 0, "bike_id": "6a418c8a1c3995ba268ca68a5bf96a79", "fusion_lon": 0.0, "rental_uris": {"android": "https://dc.lft.to/lastmile_qr_scan", "ios": "https://dc.lft.to/lastmile_qr_scan"}, "name": "6a418c8a1c3995ba268ca68a5bf96a79", "type": "electric_scooter", "lat": 38.9038305, "is_disabled": 0}, {"fusion_lat": 0.0, "lon": -77.04875333333334, "is_reserved": 0, "bike_id": "92ec2c8fe91cfbcf86b60380d8dd8318", "fusion_lon": 0.0, "rental_uris": {"android": "https://dc.lft.to/lastmile_qr_scan", "ios": "https://dc.lft.to/lastmile_qr_scan"}, "name": "92ec2c8fe91cfbcf86b60380d8dd8318", "type": "electric_scooter", "lat": 38.901127333333335, "is_disabled": 0}, {"fusion_lat": 0.0, "lon": -77.01966583333333, "is_reserved": 0, "bike_id": "f745fd93257f0efa180123211cccb910", "fusion_lon": 0.0, "rental_uris": {"android": "https://dc.lft.to/lastmile_qr_scan", "ios": "https://dc.lft.to/lastmile_qr_scan"}, "name": "f745fd93257f0efa180123211cccb910", "type": "electric_scooter", "lat": 38.912787333333334, "is_disabled": 0}, {"fusion_lat": 0.0, "lon": -77.01980133333333, "is_reserved": 0, "bike_id": "6182135fbbba293874849a733d2bd51b", "fusion_lon": 0.0, "rental_uris": {"android": "https://dc.lft.to/lastmile_qr_scan", "ios": "https://dc.lft.to/lastmile_qr_scan"}, "name": "6182135fbbba293874849a733d2bd51b", "type": "electric_scooter", "lat": 38.91100216666667, "is_disabled": 0}, {"fusion_lat": 0.0, "lon": -77.031364, "is_reserved": 0, "bike_id": "8f1f34c089e763d89dfb243abbb352fc", "fusion_lon": 0.0, "rental_uris": {"android": "https://dc.lft.to/lastmile_qr_scan", "ios": "https://dc.lft.to/lastmile_qr_scan"}, "name": "8f1f34c089e763d89dfb243abbb352fc", "type": "electric_scooter", "lat": 38.925745, "is_disabled": 0}, {"fusion_lat": 0.0, "lon": -77.026172, "is_reserved": 0, "bike_id": "874dd731bed7db039ba20c0ffde93e01", "fusion_lon": 0.0, "rental_uris": {"android": "https://dc.lft.to/lastmile_qr_scan", "ios": "https://dc.lft.to/lastmile_qr_scan"}, "name": "874dd731bed7db039ba20c0ffde93e01", "type": "electric_scooter", "lat": 38.908674833333336, "is_disabled": 0}, {"fusion_lat": 0.0, "lon": -77.03516483333334, "is_reserved": 0, "bike_id": "0bbf52e32eee1e8870c3a7ae67e6c942", "fusion_lon": 0.0, "rental_uris": {"android": "https://dc.lft.to/lastmile_qr_scan", "ios": "https://dc.lft.to/lastmile_qr_scan"}, "name": "0bbf52e32eee1e8870c3a7ae67e6c942", "type": "electric_scooter", "lat": 38.921602, "is_disabled": 0}, {"fusion_lat": 0.0, "lon": -76.98091983333333, "is_reserved": 0, "bike_id": "1b630e458da7385506a7f9b044b8d384", "fusion_lon": 0.0, "rental_uris": {"android": "https://dc.lft.to/lastmile_qr_scan", "ios": "https://dc.lft.to/lastmile_qr_scan"}, "name": "1b630e458da7385506a7f9b044b8d384", "type": "electric_bike", "lat": 38.953626166666666, "is_disabled": 0}, {"fusion_lat": 0.0, "lon": -77.01353883333333, "is_reserved": 0, "bike_id": "bf95dc797b074a3e02597578f9cd8f71", "fusion_lon": 0.0, "rental_uris": {"android": "https://dc.lft.to/lastmile_qr_scan", "ios": "https://dc.lft.to/lastmile_qr_scan"}, "name": "bf95dc797b074a3e02597578f9cd8f71", "type": "electric_scooter", "lat": 38.869759, "is_disabled": 0}, {"fusion_lat": 0.0, "lon": -77.02173383333333, "is_reserved": 0, "bike_id": "3f14cd164db3ed551c8326785ff801e0", "fusion_lon": 0.0, "rental_uris": {"android": "https://dc.lft.to/lastmile_qr_scan", "ios": "https://dc.lft.to/lastmile_qr_scan"}, "name": "3f14cd164db3ed551c8326785ff801e0", "type": "electric_scooter", "lat": 38.926198166666666, "is_disabled": 0}, {"fusion_lat": 0.0, "lon": -77.01654366666666, "is_reserved": 0, "bike_id": "713fd8f2794a42663cee48fda77d4665", "fusion_lon": 0.0, "rental_uris": {"android": "https://dc.lft.to/lastmile_qr_scan", "ios": "https://dc.lft.to/lastmile_qr_scan"}, "name": "713fd8f2794a42663cee48fda77d4665", "type": "electric_scooter", "lat": 38.928892833333336, "is_disabled": 0}, {"fusion_lat": 0.0, "lon": -76.995482, "is_reserved": 0, "bike_id": "7b90dabaf17dd851e6969c8b97219d65", "fusion_lon": 0.0, "rental_uris": {"android": "https://dc.lft.to/lastmile_qr_scan", "ios": "https://dc.lft.to/lastmile_qr_scan"}, "name": "7b90dabaf17dd851e6969c8b97219d65", "type": "electric_scooter", "lat": 38.862618499999996, "is_disabled": 0}, {"fusion_lat": 0.0, "lon": -77.039126, "is_reserved": 0, "bike_id": "5707294f495b60c118dfe20d93d43ada", "fusion_lon": 0.0, "rental_uris": {"android": "https://dc.lft.to/lastmile_qr_scan", "ios": "https://dc.lft.to/lastmile_qr_scan"}, "name": "5707294f495b60c118dfe20d93d43ada", "type": "electric_scooter", "lat": 38.92315516666667, "is_disabled": 0}, {"fusion_lat": 0.0, "lon": -77.0238585, "is_reserved": 0, "bike_id": "bd91e8935c368cd337fcfbc6b040813c", "fusion_lon": 0.0, "rental_uris": {"android": "https://dc.lft.to/lastmile_qr_scan", "ios": "https://dc.lft.to/lastmile_qr_scan"}, "name": "bd91e8935c368cd337fcfbc6b040813c", "type": "electric_scooter", "lat": 38.91987533333333, "is_disabled": 0}, {"fusion_lat": 0.0, "lon": -77.04872666666667, "is_reserved": 0, "bike_id": "1b69f76ebb3456216ece04765a0ff57c", "fusion_lon": 0.0, "rental_uris": {"android": "https://dc.lft.to/lastmile_qr_scan", "ios": "https://dc.lft.to/lastmile_qr_scan"}, "name": "1b69f76ebb3456216ece04765a0ff57c", "type": "electric_scooter", "lat": 38.909786, "is_disabled": 0}, {"fusion_lat": 0.0, "lon": -76.93127816666667, "is_reserved": 0, "bike_id": "0fff5e0dbe17f744ae0e71ff8328caee", "fusion_lon": 0.0, "rental_uris": {"android": "https://dc.lft.to/lastmile_qr_scan", "ios": "https://dc.lft.to/lastmile_qr_scan"}, "name": "0fff5e0dbe17f744ae0e71ff8328caee", "type": "electric_scooter", "lat": 38.87621216666667, "is_disabled": 0}, {"fusion_lat": 0.0, "lon": -76.99538983333333, "is_reserved": 0, "bike_id": "80b282aef0563e338d0c6b1615323d39", "fusion_lon": 0.0, "rental_uris": {"android": "https://dc.lft.to/lastmile_qr_scan", "ios": "https://dc.lft.to/lastmile_qr_scan"}, "name": "80b282aef0563e338d0c6b1615323d39", "type": "electric_scooter", "lat": 38.92672616666667, "is_disabled": 0}, {"fusion_lat": 0.0, "lon": -77.023625, "is_reserved": 0, "bike_id": "46cff4f451f220909538d2722b395d9b", "fusion_lon": 0.0, "rental_uris": {"android": "https://dc.lft.to/lastmile_qr_scan", "ios": "https://dc.lft.to/lastmile_qr_scan"}, "name": "46cff4f451f220909538d2722b395d9b", "type": "electric_scooter", "lat": 38.89217266666667, "is_disabled": 0}, {"fusion_lat": 0.0, "lon": -77.02539316666666, "is_reserved": 0, "bike_id": "3f4287ea168244cdbd2c094d9eaeb639", "fusion_lon": 0.0, "rental_uris": {"android": "https://dc.lft.to/lastmile_qr_scan", "ios": "https://dc.lft.to/lastmile_qr_scan"}, "name": "3f4287ea168244cdbd2c094d9eaeb639", "type": "electric_scooter", "lat": 38.9072075, "is_disabled": 0}, {"fusion_lat": 0.0, "lon": -77.04652333333334, "is_reserved": 0, "bike_id": "9ed27d7d634444f38ebedb6d18579908", "fusion_lon": 0.0, "rental_uris": {"android": "https://dc.lft.to/lastmile_qr_scan", "ios": "https://dc.lft.to/lastmile_qr_scan"}, "name": "9ed27d7d634444f38ebedb6d18579908", "type": "electric_scooter", "lat": 38.900186833333336, "is_disabled": 0}, {"fusion_lat": 0.0, "lon": -77.03862, "is_reserved": 0, "bike_id": "57e97f275852d65161a408a89b508478", "fusion_lon": 0.0, "rental_uris": {"android": "https://dc.lft.to/lastmile_qr_scan", "ios": "https://dc.lft.to/lastmile_qr_scan"}, "name": "57e97f275852d65161a408a89b508478", "type": "electric_scooter", "lat": 38.90356883333333, "is_disabled": 0}, {"fusion_lat": 0.0, "lon": -77.046573, "is_reserved": 0, "bike_id": "58fbe0968182d429e897edc700d0bb4b", "fusion_lon": 0.0, "rental_uris": {"android": "https://dc.lft.to/lastmile_qr_scan", "ios": "https://dc.lft.to/lastmile_qr_scan"}, "name": "58fbe0968182d429e897edc700d0bb4b", "type": "electric_scooter", "lat": 38.90430033333333, "is_disabled": 0}, {"fusion_lat": 0.0, "lon": -77.02288066666667, "is_reserved": 0, "bike_id": "1130395bef56c59e85006a4bed3a988f", "fusion_lon": 0.0, "rental_uris": {"android": "https://dc.lft.to/lastmile_qr_scan", "ios": "https://dc.lft.to/lastmile_qr_scan"}, "name": "1130395bef56c59e85006a4bed3a988f", "type": "electric_scooter", "lat": 38.919875833333336, "is_disabled": 0}, {"fusion_lat": 0.0, "lon": -77.02580283333333, "is_reserved": 0, "bike_id": "30c5953a9f1786f5a38615133d378503", "fusion_lon": 0.0, "rental_uris": {"android": "https://dc.lft.to/lastmile_qr_scan", "ios": "https://dc.lft.to/lastmile_qr_scan"}, "name": "30c5953a9f1786f5a38615133d378503", "type": "electric_scooter", "lat": 38.9252705, "is_disabled": 0}, {"fusion_lat": 0.0, "lon": -77.023722, "is_reserved": 0, "bike_id": "e4d71583401be54c3dfc52e31196d4d7", "fusion_lon": 0.0, "rental_uris": {"android": "https://dc.lft.to/lastmile_qr_scan", "ios": "https://dc.lft.to/lastmile_qr_scan"}, "name": "e4d71583401be54c3dfc52e31196d4d7", "type": "electric_scooter", "lat": 38.89395966666667, "is_disabled": 0}, {"fusion_lat": 0.0, "lon": -77.04401766666666, "is_reserved": 0, "bike_id": "b12f6a10fa334defe8567e5e3bcb4d34", "fusion_lon": 0.0, "rental_uris": {"android": "https://dc.lft.to/lastmile_qr_scan", "ios": "https://dc.lft.to/lastmile_qr_scan"}, "name": "b12f6a10fa334defe8567e5e3bcb4d34", "type": "electric_scooter", "lat": 38.8961345, "is_disabled": 0}, {"fusion_lat": 0.0, "lon": -77.02201666666667, "is_reserved": 0, "bike_id": "4d118e12e84b049050830d355c971ccc", "fusion_lon": 0.0, "rental_uris": {"android": "https://dc.lft.to/lastmile_qr_scan", "ios": "https://dc.lft.to/lastmile_qr_scan"}, "name": "4d118e12e84b049050830d355c971ccc", "type": "electric_scooter", "lat": 38.8872955, "is_disabled": 0}, {"fusion_lat": 0.0, "lon": -77.02413816666666, "is_reserved": 0, "bike_id": "14658257e3a0744fec2f1203d211b26e", "fusion_lon": 0.0, "rental_uris": {"android": "https://dc.lft.to/lastmile_qr_scan", "ios": "https://dc.lft.to/lastmile_qr_scan"}, "name": "14658257e3a0744fec2f1203d211b26e", "type": "electric_scooter", "lat": 38.9369485, "is_disabled": 0}, {"fusion_lat": 0.0, "lon": -76.99529266666667, "is_reserved": 0, "bike_id": "1bc238f43b434748363926d016a81aae", "fusion_lon": 0.0, "rental_uris": {"android": "https://dc.lft.to/lastmile_qr_scan", "ios": "https://dc.lft.to/lastmile_qr_scan"}, "name": "1bc238f43b434748363926d016a81aae", "type": "electric_scooter", "lat": 38.88370316666666, "is_disabled": 0}, {"fusion_lat": 0.0, "lon": -77.03910266666666, "is_reserved": 0, "bike_id": "1667a34223762f1959e55bebc92e33d7", "fusion_lon": 0.0, "rental_uris": {"android": "https://dc.lft.to/lastmile_qr_scan", "ios": "https://dc.lft.to/lastmile_qr_scan"}, "name": "1667a34223762f1959e55bebc92e33d7", "type": "electric_scooter", "lat": 38.92312733333333, "is_disabled": 0}, {"fusion_lat": 0.0, "lon": -77.0130205, "is_reserved": 0, "bike_id": "2be785cd7ae7f60c92affabab05f3b38", "fusion_lon": 0.0, "rental_uris": {"android": "https://dc.lft.to/lastmile_qr_scan", "ios": "https://dc.lft.to/lastmile_qr_scan"}, "name": "2be785cd7ae7f60c92affabab05f3b38", "type": "electric_scooter", "lat": 38.92997783333333, "is_disabled": 0}, {"fusion_lat": 0.0, "lon": -77.011092, "is_reserved": 0, "bike_id": "0c96ae8bdcecbe9d702c103d94deadb9", "fusion_lon": 0.0, "rental_uris": {"android": "https://dc.lft.to/lastmile_qr_scan", "ios": "https://dc.lft.to/lastmile_qr_scan"}, "name": "0c96ae8bdcecbe9d702c103d94deadb9", "type": "electric_scooter", "lat": 38.903535833333336, "is_disabled": 0}, {"fusion_lat": 0.0, "lon": -77.0395895, "is_reserved": 0, "bike_id": "48591dac68bafa21a721c61e97ba0e0a", "fusion_lon": 0.0, "rental_uris": {"android": "https://dc.lft.to/lastmile_qr_scan", "ios": "https://dc.lft.to/lastmile_qr_scan"}, "name": "48591dac68bafa21a721c61e97ba0e0a", "type": "electric_scooter", "lat": 38.91184716666667, "is_disabled": 0}, {"fusion_lat": 0.0, "lon": -77.00753016666667, "is_reserved": 0, "bike_id": "7bd0c60275b712b31ccd21fd418ac852", "fusion_lon": 0.0, "rental_uris": {"android": "https://dc.lft.to/lastmile_qr_scan", "ios": "https://dc.lft.to/lastmile_qr_scan"},