{"data": {"bikes": [{"fusion_lat": 0.0, "name": "899f5e39a824d2a378321013760d8d01", "lon": -77.01968616666667, "rental_uris": {"android": "https://dc.lft.to/lastmile_qr_scan", "ios": "https://dc.lft.to/lastmile_qr_scan"}, "fusion_lon": 0.0, "bike_id": "899f5e39a824d2a378321013760d8d01", "is_disabled": 0, "lat": 38.8861325, "is_reserved": 0, "type": "electric_scooter"}, {"fusion_lat": 0.0, "name": "6bfad655ceebdde8e7b868d60c5aa783", "lon": -77.04418383333334, "rental_uris": {"android": "https://dc.lft.to/lastmile_qr_scan", "ios": "https://dc.lft.to/lastmile_qr_scan"}, "fusion_lon": 0.0, "bike_id": "6bfad655ceebdde8e7b868d60c5aa783", "is_disabled": 0, "lat": 38.911297166666664, "is_reserved": 0, "type": "electric_scooter"}, {"fusion_lat": 0.0, "name": "1d76ad6f6c25b84ea329bfeb363d6964", "lon": -76.99003783333333, "rental_uris": {"android": "https://dc.lft.to/lastmile_qr_scan", "ios": "https://dc.lft.to/lastmile_qr_scan"}, "fusion_lon": 0.0, "bike_id": "1d76ad6f6c25b84ea329bfeb363d6964", "is_disabled": 0, "lat": 38.86503483333333, "is_reserved": 0, "type": "electric_scooter"}, {"fusion_lat": 0.0, "name": "e43c39770bac52dc13c5be74c9204b65", "lon": -77.027151, "rental_uris": {"android": "https://dc.lft.to/lastmile_qr_scan", "ios": "https://dc.lft.to/lastmile_qr_scan"}, "fusion_lon": 0.0, "bike_id": "e43c39770bac52dc13c5be74c9204b65", "is_disabled": 0, "lat": 38.94984183333333, "is_reserved": 0, "type": "electric_scooter"}, {"fusion_lat": 0.0, "name": "19c546dc9e6b6ddeb730a9e6f9239b71", "lon": -77.048736, "rental_uris": {"android": "https://dc.lft.to/lastmile_qr_scan", "ios": "https://dc.lft.to/lastmile_qr_scan"}, "fusion_lon": 0.0, "bike_id": "19c546dc9e6b6ddeb730a9e6f9239b71", "is_disabled": 0, "lat": 38.8923165, "is_reserved": 0, "type": "electric_scooter"}, {"fusion_lat": 0.0, "name": "d7b784cb4ecda99d437314927319bb14", "lon": -76.94887866666667, "rental_uris": {"android": "https://dc.lft.to/lastmile_qr_scan", "ios": "https://dc.lft.to/lastmile_qr_scan"}, "fusion_lon": 0.0, "bike_id": "d7b784cb4ecda99d437314927319bb14", "is_disabled": 0, "lat": 38.8951055, "is_reserved": 0, "type": "electric_scooter"}, {"fusion_lat": 0.0, "name": "3cac61aa0252151f441c6eb5f08c3360", "lon": -77.0119645, "rental_uris": {"android": "https://dc.lft.to/lastmile_qr_scan", "ios": "https://dc.lft.to/lastmile_qr_scan"}, "fusion_lon": 0.0, "bike_id": "3cac61aa0252151f441c6eb5f08c3360", "is_disabled": 0, "lat": 38.91553483333333, "is_reserved": 0, "type": "electric_scooter"}, {"fusion_lat": 0.0, "name": "5429f801f8b7f927926336a54141c26d", "lon": -77.0589285, "rental_uris": {"android": "https://dc.lft.to/lastmile_qr_scan", "ios": "https://dc.lft.to/lastmile_qr_scan"}, "fusion_lon": 0.0, "bike_id": "5429f801f8b7f927926336a54141c26d", "is_disabled": 0, "lat": 38.936066, "is_reserved": 0, "type": "electric_scooter"}, {"fusion_lat": 0.0, "name": "f81eb3c921c778fc507ff02bf1f30a8b", "lon": -77.02395833333334, "rental_uris": {"android": "https://dc.lft.to/lastmile_qr_scan", "ios": "https://dc.lft.to/lastmile_qr_scan"}, "fusion_lon": 0.0, "bike_id": "f81eb3c921c778fc507ff02bf1f30a8b", "is_disabled": 0, "lat": 38.9195735, "is_reserved": 0, "type": "electric_scooter"}, {"fusion_lat": 0.0, "name": "50b527a4c2a3ed25fa95f19eb1be7acd", "lon": -77.00716083333333, "rental_uris": {"android": "https://dc.lft.to/lastmile_qr_scan", "ios": "https://dc.lft.to/lastmile_qr_scan"}, "fusion_lon": 0.0, "bike_id": "50b527a4c2a3ed25fa95f19eb1be7acd", "is_disabled": 0, "lat": 38.95756983333333, "is_reserved": 0, "type": "electric_bike"}, {"fusion_lat": 0.0, "name": "a5d6a98752cd5d083daea40fda444457", "lon": -76.93196766666667, "rental_uris": {"android": "https://dc.lft.to/lastmile_qr_scan", "ios": "https://dc.lft.to/lastmile_qr_scan"}, "fusion_lon": 0.0, "bike_id": "a5d6a98752cd5d083daea40fda444457", "is_disabled": 0, "lat": 38.89876916666667, "is_reserved": 0, "type": "electric_scooter"}, {"fusion_lat": 0.0, "name": "34c12fe99a87c4e33257aa5a827a88c4", "lon": -77.05009716666666, "rental_uris": {"android": "https://dc.lft.to/lastmile_qr_scan", "ios": "https://dc.lft.to/lastmile_qr_scan"}, "fusion_lon": 0.0, "bike_id": "34c12fe99a87c4e33257aa5a827a88c4", "is_disabled": 0, "lat": 38.90414366666667, "is_reserved": 0, "type": "electric_scooter"}, {"fusion_lat": 0.0, "name": "09b71db3908f793ceedb6c6994a14f25", "lon": -77.0277955, "rental_uris": {"android": "https://dc.lft.to/lastmile_qr_scan", "ios": "https://dc.lft.to/lastmile_qr_scan"}, "fusion_lon": 0.0, "bike_id": "09b71db3908f793ceedb6c6994a14f25", "is_disabled": 0, "lat": 38.89223366666667, "is_reserved": 0, "type": "electric_scooter"}, {"fusion_lat": 0.0, "name": "34ade6c4f239d63355011b61e3006a0c", "lon": -77.04493016666666, "rental_uris": {"android": "https://dc.lft.to/lastmile_qr_scan", "ios": "https://dc.lft.to/lastmile_qr_scan"}, "fusion_lon": 0.0, "bike_id": "34ade6c4f239d63355011b61e3006a0c", "is_disabled": 0, "lat": 38.90106383333333, "is_reserved": 0, "type": "electric_scooter"}, {"fusion_lat": 0.0, "name": "48816ad3012923326077fc6fc061a63c", "lon": -77.02624666666667, "rental_uris": {"android": "https://dc.lft.to/lastmile_qr_scan", "ios": "https://dc.lft.to/lastmile_qr_scan"}, "fusion_lon": 0.0, "bike_id": "48816ad3012923326077fc6fc061a63c", "is_disabled": 0, "lat": 38.933378833333336, "is_reserved": 0, "type": "electric_scooter"}, {"fusion_lat": 0.0, "name": "19931e5edd0548449e34678a19fc084c", "lon": -77.037907, "rental_uris": {"android": "https://dc.lft.to/lastmile_qr_scan", "ios": "https://dc.lft.to/lastmile_qr_scan"}, "fusion_lon": 0.0, "bike_id": "19931e5edd0548449e34678a19fc084c", "is_disabled": 0, "lat": 38.92557266666667, "is_reserved": 0, "type": "electric_scooter"}, {"fusion_lat": 0.0, "name": "6a25f320cb4fd8ef65777592bb8ed0c6", "lon": -77.0317995, "rental_uris": {"android": "https://dc.lft.to/lastmile_qr_scan", "ios": "https://dc.lft.to/lastmile_qr_scan"}, "fusion_lon": 0.0, "bike_id": "6a25f320cb4fd8ef65777592bb8ed0c6", "is_disabled": 0, "lat": 38.892261500000004, "is_reserved": 0, "type": "electric_scooter"}, {"fusion_lat": 0.0, "name": "85e5543ab961be83c3afdad0d3d7d234", "lon": -76.95187733333333, "rental_uris": {"android": "https://dc.lft.to/lastmile_qr_scan", "ios": "https://dc.lft.to/lastmile_qr_scan"}, "fusion_lon": 0.0, "bike_id": "85e5543ab961be83c3afdad0d3d7d234", "is_disabled": 0, "lat": 38.89162666666667, "is_reserved": 0, "type": "electric_scooter"}, {"fusion_lat": 0.0, "name": "bef88d63b94af68fbb3275618985cf9a", "lon": -77.032057, "rental_uris": {"android": "https://dc.lft.to/lastmile_qr_scan", "ios": "https://dc.lft.to/lastmile_qr_scan"}, "fusion_lon": 0.0, "bike_id": "bef88d63b94af68fbb3275618985cf9a", "is_disabled": 0, "lat": 38.91048516666667, "is_reserved": 0, "type": "electric_scooter"}, {"fusion_lat": 0.0, "name": "5a157926176d8422c155dda7409f6e5d", "lon": -77.03807933333333, "rental_uris": {"android": "https://dc.lft.to/lastmile_qr_scan", "ios": "https://dc.lft.to/lastmile_qr_scan"}, "fusion_lon": 0.0, "bike_id": "5a157926176d8422c155dda7409f6e5d", "is_disabled": 0, "lat": 38.931039166666665, "is_reserved": 0, "type": "electric_scooter"}, {"fusion_lat": 0.0, "name": "421d7141e64b8d1503534dc3be13e7bb", "lon": -76.98633466666666, "rental_uris": {"android": "https://dc.lft.to/lastmile_qr_scan", "ios": "https://dc.lft.to/lastmile_qr_scan"}, "fusion_lon": 0.0, "bike_id": "421d7141e64b8d1503534dc3be13e7bb", "is_disabled": 0, "lat": 38.900278166666666, "is_reserved": 0, "type": "electric_scooter"}, {"fusion_lat": 0.0, "name": "53a53ad8a8dff885997c5193265f630d", "lon": -76.98756183333333, "rental_uris": {"android": "https://dc.lft.to/lastmile_qr_scan", "ios": "https://dc.lft.to/lastmile_qr_scan"}, "fusion_lon": 0.0, "bike_id": "53a53ad8a8dff885997c5193265f630d", "is_disabled": 0, "lat": 38.84457366666667, "is_reserved": 0, "type": "electric_bike"}, {"fusion_lat": 0.0, "name": "3b782d9adfda19523486dea7599f8f3e", "lon": -77.042264, "rental_uris": {"android": "https://dc.lft.to/lastmile_qr_scan", "ios": "https://dc.lft.to/lastmile_qr_scan"}, "fusion_lon": 0.0, "bike_id": "3b782d9adfda19523486dea7599f8f3e", "is_disabled": 0, "lat": 38.92108266666666, "is_reserved": 0, "type": "electric_scooter"}, {"fusion_lat": 0.0, "name": "eb956fbbd70553d502e126490d21f923", "lon": -77.0120825, "rental_uris": {"android": "https://dc.lft.to/lastmile_qr_scan", "ios": "https://dc.lft.to/lastmile_qr_scan"}, "fusion_lon": 0.0, "bike_id": "eb956fbbd70553d502e126490d21f923", "is_disabled": 0, "lat": 38.89332316666667, "is_reserved": 0, "type": "electric_scooter"}, {"fusion_lat": 0.0, "name": "3a939882b5d3db92da10cfb918b95825", "lon": -77.03187, "rental_uris": {"android": "https://dc.lft.to/lastmile_qr_scan", "ios": "https://dc.lft.to/lastmile_qr_scan"}, "fusion_lon": 0.0, "bike_id": "3a939882b5d3db92da10cfb918b95825", "is_disabled": 0, "lat": 38.892335833333334, "is_reserved": 0, "type": "electric_scooter"}, {"fusion_lat": 0.0, "name": "284b6c59258b17868a9afd14a3f1e950", "lon": -77.044728, "rental_uris": {"android": "https://dc.lft.to/lastmile_qr_scan", "ios": "https://dc.lft.to/lastmile_qr_scan"}, "fusion_lon": 0.0, "bike_id": "284b6c59258b17868a9afd14a3f1e950", "is_disabled": 0, "lat": 38.89223333333333, "is_reserved": 0, "type": "electric_scooter"}, {"fusion_lat": 0.0, "name": "86364ebaa737f27713d2cff279daf9b4", "lon": -76.93346683333333, "rental_uris": {"android": "https://dc.lft.to/lastmile_qr_scan", "ios": "https://dc.lft.to/lastmile_qr_scan"}, "fusion_lon": 0.0, "bike_id": "86364ebaa737f27713d2cff279daf9b4", "is_disabled": 0, "lat": 38.88813316666667, "is_reserved": 0, "type": "electric_scooter"}, {"fusion_lat": 0.0, "name": "82a0879a4674cf7e4718c5e4155d2710", "lon": -77.05685583333333, "rental_uris": {"android": "https://dc.lft.to/lastmile_qr_scan", "ios": "https://dc.lft.to/lastmile_qr_scan"}, "fusion_lon": 0.0, "bike_id": "82a0879a4674cf7e4718c5e4155d2710", "is_disabled": 0, "lat": 38.906122333333336, "is_reserved": 0, "type": "electric_scooter"}, {"fusion_lat": 0.0, "name": "b92917fb375407627469d5e5ed27dc86", "lon": -77.024199, "rental_uris": {"android": "https://dc.lft.to/lastmile_qr_scan", "ios": "https://dc.lft.to/lastmile_qr_scan"}, "fusion_lon": 0.0, "bike_id": "b92917fb375407627469d5e5ed27dc86", "is_disabled": 0, "lat": 38.90969583333333, "is_reserved": 0, "type": "electric_scooter"}, {"fusion_lat": 0.0, "name": "bd09b0bc9010732dc094f17a317b10ea", "lon": -76.97892816666666, "rental_uris": {"android": "https://dc.lft.to/lastmile_qr_scan", "ios": "https://dc.lft.to/lastmile_qr_scan"}, "fusion_lon": 0.0, "bike_id": "bd09b0bc9010732dc094f17a317b10ea", "is_disabled": 0, "lat": 38.916767666666665, "is_reserved": 0, "type": "electric_scooter"}, {"fusion_lat": 0.0, "name": "0363e30894732cb27b69fe73243157f4", "lon": -77.00604366666667, "rental_uris": {"android": "https://dc.lft.to/lastmile_qr_scan", "ios": "https://dc.lft.to/lastmile_qr_scan"}, "fusion_lon": 0.0, "bike_id": "0363e30894732cb27b69fe73243157f4", "is_disabled": 0, "lat": 38.871815166666664, "is_reserved": 0, "type": "electric_scooter"}, {"fusion_lat": 0.0, "name": "4e7d58bd0318e615d536516e54d058b9", "lon": -77.022984, "rental_uris": {"android": "https://dc.lft.to/lastmile_qr_scan", "ios": "https://dc.lft.to/lastmile_qr_scan"}, "fusion_lon": 0.0, "bike_id": "4e7d58bd0318e615d536516e54d058b9", "is_disabled": 0, "lat": 38.92654566666667, "is_reserved": 0, "type": "electric_scooter"}, {"fusion_lat": 0.0, "name": "5f6701d1f4e356685c613d625013c9d4", "lon": -77.04358283333333, "rental_uris": {"android": "https://dc.lft.to/lastmile_qr_scan", "ios": "https://dc.lft.to/lastmile_qr_scan"}, "fusion_lon": 0.0, "bike_id": "5f6701d1f4e356685c613d625013c9d4", "is_disabled": 0, "lat": 38.89237, "is_reserved": 0, "type": "electric_scooter"}, {"fusion_lat": 0.0, "name": "54ae2515ed496ea1411c11fab52b5c91", "lon": -76.98534666666667, "rental_uris": {"android": "https://dc.lft.to/lastmile_qr_scan", "ios": "https://dc.lft.to/lastmile_qr_scan"}, "fusion_lon": 0.0, "bike_id": "54ae2515ed496ea1411c11fab52b5c91", "is_disabled": 0, "lat": 38.866441333333334, "is_reserved": 0, "type": "electric_scooter"}, {"fusion_lat": 0.0, "name": "120996f8525583363d54325e3c5975ed", "lon": -77.05729983333333, "rental_uris": {"android": "https://dc.lft.to/lastmile_qr_scan", "ios": "https://dc.lft.to/lastmile_qr_scan"}, "fusion_lon": 0.0, "bike_id": "120996f8525583363d54325e3c5975ed", "is_disabled": 0, "lat": 38.933646, "is_reserved": 0, "type": "electric_scooter"}, {"fusion_lat": 0.0, "name": "167010d7a1671b513e864455b5d5538f", "lon": -77.02402733333334, "rental_uris": {"android": "https://dc.lft.to/lastmile_qr_scan", "ios": "https://dc.lft.to/lastmile_qr_scan"}, "fusion_lon": 0.0, "bike_id": "167010d7a1671b513e864455b5d5538f", "is_disabled": 0, "lat": 38.91985283333333, "is_reserved": 0, "type": "electric_scooter"}, {"fusion_lat": 0.0, "name": "08dd336e029ef7d376b5f2ba98694054", "lon": -77.0318275, "rental_uris": {"android": "https://dc.lft.to/lastmile_qr_scan", "ios": "https://dc.lft.to/lastmile_qr_scan"}, "fusion_lon": 0.0, "bike_id": "08dd336e029ef7d376b5f2ba98694054", "is_disabled": 0, "lat": 38.91570866666667, "is_reserved": 0, "type": "electric_scooter"}, {"fusion_lat": 0.0, "name": "1eb26c29ddd43b23b2c241d495d37542", "lon": -77.02362516666666, "rental_uris": {"android": "https://dc.lft.to/lastmile_qr_scan", "ios": "https://dc.lft.to/lastmile_qr_scan"}, "fusion_lon": 0.0, "bike_id": "1eb26c29ddd43b23b2c241d495d37542", "is_disabled": 0, "lat": 38.933795, "is_reserved": 0, "type": "electric_scooter"}, {"fusion_lat": 0.0, "name": "95373ba8602d4017f3ca4be5ae1b9f8a", "lon": -77.02153783333333, "rental_uris": {"android": "https://dc.lft.to/lastmile_qr_scan", "ios": "https://dc.lft.to/lastmile_qr_scan"}, "fusion_lon": 0.0, "bike_id": "95373ba8602d4017f3ca4be5ae1b9f8a", "is_disabled": 0, "lat": 38.9259945, "is_reserved": 0, "type": "electric_scooter"}, {"fusion_lat": 0.0, "name": "37e9195410e6e25ac3710c99fc45df53", "lon": -77.01235166666666, "rental_uris": {"android": "https://dc.lft.to/lastmile_qr_scan", "ios": "https://dc.lft.to/lastmile_qr_scan"}, "fusion_lon": 0.0, "bike_id": "37e9195410e6e25ac3710c99fc45df53", "is_disabled": 0, "lat": 38.892941, "is_reserved": 0, "type": "electric_scooter"}, {"fusion_lat": 0.0, "name": "4deedf69aa3b5bd2bb0d13ff5db23f8f", "lon": -77.022332, "rental_uris": {"android": "https://dc.lft.to/lastmile_qr_scan", "ios": "https://dc.lft.to/lastmile_qr_scan"}, "fusion_lon": 0.0, "bike_id": "4deedf69aa3b5bd2bb0d13ff5db23f8f", "is_disabled": 0, "lat": 38.92483166666667, "is_reserved": 0, "type": "electric_scooter"}, {"fusion_lat": 0.0, "name": "5c3db709c8ab5d5cd0d5dff511694cef", "lon": -77.00704716666667, "rental_uris": {"android": "https://dc.lft.to/lastmile_qr_scan", "ios": "https://dc.lft.to/lastmile_qr_scan"}, "fusion_lon": 0.0, "bike_id": "5c3db709c8ab5d5cd0d5dff511694cef", "is_disabled": 0, "lat": 38.91549966666667, "is_reserved": 0, "type": "electric_scooter"}, {"fusion_lat": 0.0, "name": "63fb018d42c3c80361fbe70231f4a560", "lon": -76.99063466666666, "rental_uris": {"android": "https://dc.lft.to/lastmile_qr_scan", "ios": "https://dc.lft.to/lastmile_qr_scan"}, "fusion_lon": 0.0, "bike_id": "63fb018d42c3c80361fbe70231f4a560", "is_disabled": 0, "lat": 38.863763666666664, "is_reserved": 0, "type": "electric_scooter"}, {"fusion_lat": 0.0, "name": "c8ee2607e6cea53180da7a9cfeb64187", "lon": -77.032646, "rental_uris": {"android": "https://dc.lft.to/lastmile_qr_scan", "ios": "https://dc.lft.to/lastmile_qr_scan"}, "fusion_lon": 0.0, "bike_id": "c8ee2607e6cea53180da7a9cfeb64187", "is_disabled": 0, "lat": 38.9398285, "is_reserved": 0, "type": "electric_scooter"}, {"fusion_lat": 0.0, "name": "42a558e625ce8190e0ae37802121501f", "lon": -77.04559516666667, "rental_uris": {"android": "https://dc.lft.to/lastmile_qr_scan", "ios": "https://dc.lft.to/lastmile_qr_scan"}, "fusion_lon": 0.0, "bike_id": "42a558e625ce8190e0ae37802121501f", "is_disabled": 0, "lat": 38.89604666666666, "is_reserved": 0, "type": "electric_scooter"}, {"fusion_lat": 0.0, "name": "18ffea55f70d9583924811109ab739e5", "lon": -77.01367716666667, "rental_uris": {"android": "https://dc.lft.to/lastmile_qr_scan", "ios": "https://dc.lft.to/lastmile_qr_scan"}, "fusion_lon": 0.0, "bike_id": "18ffea55f70d9583924811109ab739e5", "is_disabled": 0, "lat": 38.88706283333333, "is_reserved": 0, "type": "electric_scooter"}, {"fusion_lat": 0.0, "name": "73f0628e52f06d3564ce96a41f219f9d", "lon": -77.005452, "rental_uris": {"android": "https://dc.lft.to/lastmile_qr_scan", "ios": "https://dc.lft.to/lastmile_qr_scan"}, "fusion_lon": 0.0, "bike_id": "73f0628e52f06d3564ce96a41f219f9d", "is_disabled": 0, "lat": 38.87457583333333, "is_reserved": 0, "type": "electric_scooter"}, {"fusion_lat": 0.0, "name": "f70358e9dc1a66c7aa9f3279db8a486f", "lon": -76.9852, "rental_uris": {"android": "https://dc.lft.to/lastmile_qr_scan", "ios": "https://dc.lft.to/lastmile_qr_scan"}, "fusion_lon": 0.0, "bike_id": "f70358e9dc1a66c7aa9f3279db8a486f", "is_disabled": 0, "lat": 38.86653233333333, "is_reserved": 0, "type": "electric_scooter"}, {"fusion_lat": 0.0, "name": "bd422178b230d674d93c1b8542435d5f", "lon": -77.0218815, "rental_uris": {"android": "https://dc.lft.to/lastmile_qr_scan", "ios": "https://dc.lft.to/lastmile_qr_scan"}, "fusion_lon": 0.0, "bike_id": "bd422178b230d674d93c1b8542435d5f", "is_disabled": 0, "lat": 38.8985265, "is_reserved": 0, "type": "electric_scooter"}, {"fusion_lat": 0.0, "name": "89c6b8f7c09ad5f8bb881600d829eb9e", "lon": -77.03293816666667, "rental_uris": {"android": "https://dc.lft.to/lastmile_qr_scan", "ios": "https://dc.lft.to/lastmile_qr_scan"}, "fusion_lon": 0.0, "bike_id": "89c6b8f7c09ad5f8bb881600d829eb9e", "is_disabled": 0, "lat": 38.9563145, "is_reserved": 0, "type": "electric_scooter"}, {"fusion_lat": 0.0, "name": "0c1e4cfb65b8f0eff8750b5bea93f645", "lon": -77.02535833333333, "rental_uris": {"android": "https://dc.lft.to/lastmile_qr_scan", "ios": "https://dc.lft.to/lastmile_qr_scan"}, "fusion_lon": 0.0, "bike_id": "0c1e4cfb65b8f0eff8750b5bea93f645", "is_disabled": 0, "lat": 38.918208666666665, "is_reserved": 0, "type": "electric_scooter"}, {"fusion_lat": 0.0, "name": "cbe3654ba22cf2f4df50fcc117b44a15", "lon": -77.03446133333334, "rental_uris": {"android": "https://dc.lft.to/lastmile_qr_scan", "ios": "https://dc.lft.to/lastmile_qr_scan"}, "fusion_lon": 0.0, "bike_id": "cbe3654ba22cf2f4df50fcc117b44a15", "is_disabled": 0, "lat": 38.91910983333333, "is_reserved": 0, "type": "electric_scooter"}, {"fusion_lat": 0.0, "name": "4842f964b5d74f40b07e5a29f7dbe584", "lon": -77.02179416666667, "rental_uris": {"android": "https://dc.lft.to/lastmile_qr_scan", "ios": "https://dc.lft.to/lastmile_qr_scan"}, "fusion_lon": 0.0, "bike_id": "4842f964b5d74f40b07e5a29f7dbe584", "is_disabled": 0, "lat": 38.892265333333334, "is_reserved": 0, "type": "electric_scooter"}, {"fusion_lat": 0.0, "name": "0cd8e1f9498fb84ee3b1d08d4e73a042", "lon": -77.03184833333333, "rental_uris": {"android": "https://dc.lft.to/lastmile_qr_scan", "ios": "https://dc.lft.to/lastmile_qr_scan"}, "fusion_lon": 0.0, "bike_id": "0cd8e1f9498fb84ee3b1d08d4e73a042", "is_disabled": 0, "lat": 38.89240083333333, "is_reserved": 0, "type": "electric_scooter"}, {"fusion_lat": 0.0, "name": "db0f88bc2fde6b2e16a91b41343050f6", "lon": -77.16689933333333, "rental_uris": {"android": "https://dc.lft.to/lastmile_qr_scan", "ios": "https://dc.lft.to/lastmile_qr_scan"}, "fusion_lon": 0.0, "bike_id": "db0f88bc2fde6b2e16a91b41343050f6", "is_disabled": 0, "lat": 38.885662333333336, "is_reserved": 0, "type": "electric_bike"}, {"fusion_lat": 0.0, "name": "3bb888fd6844718dc529b2cfacd2a05b", "lon": -77.0262085, "rental_uris": {"android": "https://dc.lft.to/lastmile_qr_scan", "ios": "https://dc.lft.to/lastmile_qr_scan"}, "fusion_lon": 0.0, "bike_id": "3bb888fd6844718dc529b2cfacd2a05b", "is_disabled": 0, "lat": 38.95181066666667, "is_reserved": 0, "type": "electric_scooter"}, {"fusion_lat": 0.0, "name": "3674e54b6accbd14b88a2f677c955701", "lon": -77.03223833333334, "rental_uris": {"android": "https://dc.lft.to/lastmile_qr_scan", "ios": "https://dc.lft.to/lastmile_qr_scan"}, "fusion_lon": 0.0, "bike_id": "3674e54b6accbd14b88a2f677c955701", "is_disabled": 0, "lat": 38.917852333333336, "is_reserved": 0, "type": "electric_scooter"}, {"fusion_lat": 0.0, "name": "d39be00bfaeeef539d1a249bf06d59b0", "lon": -77.029684, "rental_uris": {"android": "https://dc.lft.to/lastmile_qr_scan", "ios": "https://dc.lft.to/lastmile_qr_scan"}, "fusion_lon": 0.0, "bike_id": "d39be00bfaeeef539d1a249bf06d59b0", "is_disabled": 0, "lat": 38.918875666666665, "is_reserved": 0, "type": "electric_scooter"}, {"fusion_lat": 0.0, "name": "a27b148e598fbd1d779e3492129a41b1", "lon": -76.992947, "rental_uris": {"android": "https://dc.lft.to/lastmile_qr_scan", "ios": "https://dc.lft.to/lastmile_qr_scan"}, "fusion_lon": 0.0, "bike_id": "a27b148e598fbd1d779e3492129a41b1", "is_disabled": 0, "lat": 38.8574695, "is_reserved": 0, "type": "electric_scooter"}, {"fusion_lat": 0.0, "name": "fea00e244882f46965214d729a9cb0ce", "lon": -77.00578183333333, "rental_uris": {"android": "https://dc.lft.to/lastmile_qr_scan", "ios": "https://dc.lft.to/lastmile_qr_scan"}, "fusion_lon": 0.0, "bike_id": "fea00e244882f46965214d729a9cb0ce", "is_disabled": 0, "lat": 38.87554083333333, "is_reserved": 0, "type": "electric_scooter"}, {"fusion_lat": 0.0, "name": "6d8424e48eba765798240b2a2875dcc0", "lon": -77.0337985, "rental_uris": {"android": "https://dc.lft.to/lastmile_qr_scan", "ios": "https://dc.lft.to/lastmile_qr_scan"}, "fusion_lon": 0.0, "bike_id": "6d8424e48eba765798240b2a2875dcc0", "is_disabled": 0, "lat": 38.90554866666667, "is_reserved": 0, "type": "electric_scooter"}, {"fusion_lat": 0.0, "name": "c17203b5dd3b1b1e680d99a1f6b5a1b6", "lon": -77.0425905, "rental_uris": {"android": "https://dc.lft.to/lastmile_qr_scan", "ios": "https://dc.lft.to/lastmile_qr_scan"}, "fusion_lon": 0.0, "bike_id": "c17203b5dd3b1b1e680d99a1f6b5a1b6", "is_disabled": 0, "lat": 38.9042335, "is_reserved": 0, "type": "electric_scooter"}, {"fusion_lat": 0.0, "name": "1994a347f9023b14709609612e38a3b4", "lon": -77.03785516666667, "rental_uris": {"android": "https://dc.lft.to/lastmile_qr_scan", "ios": "https://dc.lft.to/lastmile_qr_scan"}, "fusion_lon": 0.0, "bike_id": "1994a347f9023b14709609612e38a3b4", "is_disabled": 0, "lat": 38.93046783333333, "is_reserved": 0, "type": "electric_scooter"}, {"fusion_lat": 0.0, "name": "e27c49c1dc1350879cf14c0333223468", "lon": -77.04347183333333, "rental_uris": {"android": "https://dc.lft.to/lastmile_qr_scan", "ios": "https://dc.lft.to/lastmile_qr_scan"}, "fusion_lon": 0.0, "bike_id": "e27c49c1dc1350879cf14c0333223468", "is_disabled": 0, "lat": 38.91153933333333, "is_reserved": 0, "type": "electric_scooter"}, {"fusion_lat": 0.0, "name": "b5966e956f1d5cf7b87ef9e66452a629", "lon": -77.05030366666666, "rental_uris": {"android": "https://dc.lft.to/lastmile_qr_scan", "ios": "https://dc.lft.to/lastmile_qr_scan"}, "fusion_lon": 0.0, "bike_id": "b5966e956f1d5cf7b87ef9e66452a629", "is_disabled": 0, "lat": 38.90526066666666, "is_reserved": 0, "type": "electric_scooter"}, {"fusion_lat": 0.0, "name": "8327f3ba346fb1dde5757e1ae5518236", "lon": -77.02284366666666, "rental_uris": {"android": "https://dc.lft.to/lastmile_qr_scan", "ios": "https://dc.lft.to/lastmile_qr_scan"}, "fusion_lon": 0.0, "bike_id": "8327f3ba346fb1dde5757e1ae5518236", "is_disabled": 0, "lat": 38.908457166666665, "is_reserved": 0, "type": "electric_scooter"}, {"fusion_lat": 0.0, "name": "076e8aeaec5578b03fadf1311a141e8e", "lon": -77.03447166666666, "rental_uris": {"android": "https://dc.lft.to/lastmile_qr_scan", "ios": "https://dc.lft.to/lastmile_qr_scan"}, "fusion_lon": 0.0, "bike_id": "076e8aeaec5578b03fadf1311a141e8e", "is_disabled": 0, "lat": 38.919085333333335, "is_reserved": 0, "type": "electric_scooter"}, {"fusion_lat": 0.0, "name": "fb9716af0fcfd6b57e31a19087b85dfc", "lon": -77.04464066666667, "rental_uris": {"android": "https://dc.lft.to/lastmile_qr_scan", "ios": "https://dc.lft.to/lastmile_qr_scan"}, "fusion_lon": 0.0, "bike_id": "fb9716af0fcfd6b57e31a19087b85dfc", "is_disabled": 0, "lat": 38.903855, "is_reserved": 0, "type": "electric_scooter"}, {"fusion_lat": 0.0, "name": "57e72603e3c72ed1f2adcd4df9ffa010", "lon": -77.03370866666667, "rental_uris": {"android": "https://dc.lft.to/lastmile_qr_scan", "ios": "https://dc.lft.to/lastmile_qr_scan"}, "fusion_lon": 0.0, "bike_id": "57e72603e3c72ed1f2adcd4df9ffa010", "is_disabled": 0, "lat": 38.905596, "is_reserved": 0, "type": "electric_scooter"}, {"fusion_lat": 0.0, "name": "098854da963f7653facb568f374d70e2", "lon": -77.0013145, "rental_uris": {"android": "https://dc.lft.to/lastmile_qr_scan", "ios": "https://dc.lft.to/lastmile_qr_scan"}, "fusion_lon": 0.0, "bike_id": "098854da963f7653facb568f374d70e2", "is_disabled": 0, "lat": 38.95869316666667, "is_reserved": 0, "type": "electric_bike"}, {"fusion_lat": 0.0, "name": "c3a6c0bd80c2be98dc18602821cbb54f", "lon": -77.03331016666667, "rental_uris": {"android": "https://dc.lft.to/lastmile_qr_scan", "ios": "https://dc.lft.to/lastmile_qr_scan"}, "fusion_lon": 0.0, "bike_id": "c3a6c0bd80c2be98dc18602821cbb54f", "is_disabled": 0, "lat": 38.8976095, "is_reserved": 0, "type": "electric_scooter"}, {"fusion_lat": 0.0, "name": "a9dbfd4386080ba9b79b234db130d935", "lon": -77.0346935, "rental_uris": {"android": "https://dc.lft.to/lastmile_qr_scan", "ios": "https://dc.lft.to/lastmile_qr_scan"}, "fusion_lon": 0.0, "bike_id": "a9dbfd4386080ba9b79b234db130d935", "is_disabled": 0, "lat": 38.902636333333334, "is_reserved": 0, "type": "electric_scooter"}, {"fusion_lat": 0.0, "name": "fe1fdb5d9ae7866bce8fa214de83a878", "lon": -77.045814, "rental_uris": {"android": "https://dc.lft.to/lastmile_qr_scan", "ios": "https://dc.lft.to/lastmile_qr_scan"}, "fusion_lon": 0.0, "bike_id": "fe1fdb5d9ae7866bce8fa214de83a878", "is_disabled": 0, "lat": 38.91332716666667, "is_reserved": 0, "type": "electric_scooter"}, {"fusion_lat": 0.0, "name": "cc3185013ff734e888ca957c88b2ccd8", "lon": -77.041652, "rental_uris": {"android": "https://dc.lft.to/lastmile_qr_scan", "ios": "https://dc.lft.to/lastmile_qr_scan"}, "fusion_lon": 0.0, "bike_id": "cc3185013ff734e888ca957c88b2ccd8", "is_disabled": 0, "lat": 38.91175166666667, "is_reserved": 0, "type": "electric_scooter"}, {"fusion_lat": 0.0, "name": "5b10ce27ba9f6406a69bd893f4bd1637", "lon": -77.0151605, "rental_uris": {"android": "https://dc.lft.to/lastmile_qr_scan", "ios": "https://dc.lft.to/lastmile_qr_scan"}, "fusion_lon": 0.0, "bike_id": "5b10ce27ba9f6406a69bd893f4bd1637", "is_disabled": 0, "lat": 38.9677945, "is_reserved": 0, "type": "electric_scooter"}, {"fusion_lat": 0.0, "name": "462874ca7c5f57888294740bf214922d", "lon": -77.00741683333334, "rental_uris": {"android": "https://dc.lft.to/lastmile_qr_scan", "ios": "https://dc.lft.to/lastmile_qr_scan"}, "fusion_lon": 0.0, "bike_id": "462874ca7c5f57888294740bf214922d", "is_disabled": 0, "lat": 38.90253283333333, "is_reserved": 0, "type": "electric_scooter"}, {"fusion_lat": 0.0, "name": "7ccc2c5db0b52b26c8893953581b213e", "lon": -77.01941083333334, "rental_uris": {"android": "https://dc.lft.to/lastmile_qr_scan", "ios": "https://dc.lft.to/lastmile_qr_scan"}, "fusion_lon": 0.0, "bike_id": "7ccc2c5db0b52b26c8893953581b213e", "is_disabled": 0, "lat": 38.898377333333336, "is_reserved": 0, "type": "electric_scooter"}, {"fusion_lat": 0.0, "name": "c81aca027d79b6ac542ba09d66e2cfbb", "lon": -77.04534966666667, "rental_uris": {"android": "https://dc.lft.to/lastmile_qr_scan", "ios": "https://dc.lft.to/lastmile_qr_scan"}, "fusion_lon": 0.0, "bike_id": "c81aca027d79b6ac542ba09d66e2cfbb", "is_disabled": 0, "lat": 38.91818033333333, "is_reserved": 0, "type": "electric_scooter"}, {"fusion_lat": 0.0, "name": "81e8004167812264bd2ecc689bef4fe7", "lon": -77.073328, "rental_uris": {"android": "https://dc.lft.to/lastmile_qr_scan", "ios": "https://dc.lft.to/lastmile_qr_scan"}, "fusion_lon": 0.0, "bike_id": "81e8004167812264bd2ecc689bef4fe7", "is_disabled": 0, "lat": 38.923940333333334, "is_reserved": 0, "type": "electric_scooter"}, {"fusion_lat": 0.0, "name": "e2c20acd31239633109a040784756e84", "lon": -77.04338166666666, "rental_uris": {"android": "https://dc.lft.to/lastmile_qr_scan", "ios": "https://dc.lft.to/lastmile_qr_scan"}, "fusion_lon": 0.0, "bike_id": "e2c20acd31239633109a040784756e84", "is_disabled": 0, "lat": 38.8952745, "is_reserved": 0, "type": "electric_scooter"}, {"fusion_lat": 0.0, "name": "f2a9c31c511adabf9c82cf2cf704c9fd", "lon": -77.03867066666666, "rental_uris": {"android": "https://dc.lft.to/lastmile_qr_scan", "ios": "https://dc.lft.to/lastmile_qr_scan"}, "fusion_lon": 0.0, "bike_id": "f2a9c31c511adabf9c82cf2cf704c9fd", "is_disabled": 0, "lat": 38.917064833333335, "is_reserved": 0, "type": "electric_scooter"}, {"fusion_lat": 0.0, "name": "e11b7c20220449db30b2ec502327a97f", "lon": -77.01585466666667, "rental_uris": {"android": "https://dc.lft.to/lastmile_qr_scan", "ios": "https://dc.lft.to/lastmile_qr_scan"}, "fusion_lon": 0.0, "bike_id": "e11b7c20220449db30b2ec502327a97f", "is_disabled": 0, "lat": 38.88512433333333, "is_reserved": 0, "type": "electric_scooter"}, {"fusion_lat": 0.0, "name": "13674e6f6f256812449275dc69675d1e", "lon": -76.98515366666666, "rental_uris": {"android": "https://dc.lft.to/lastmile_qr_scan", "ios": "https://dc.lft.to/lastmile_qr_scan"}, "fusion_lon": 0.0, "bike_id": "13674e6f6f256812449275dc69675d1e", "is_disabled": 0, "lat": 38.880792666666665, "is_reserved": 0, "type": "electric_scooter"}, {"fusion_lat": 0.0, "name": "dc9e0d403ac0b83d8fcfe79548d67c7a", "lon": -77.03179133333333, "rental_uris": {"android": "https://dc.lft.to/lastmile_qr_scan", "ios": "https://dc.lft.to/lastmile_qr_scan"}, "fusion_lon": 0.0, "bike_id": "dc9e0d403ac0b83d8fcfe79548d67c7a", "is_disabled": 0, "lat": 38.9125365, "is_reserved": 0, "type": "electric_scooter"}, {"fusion_lat": 0.0, "name": "89b615aa65451cf4c6212daf280faee2", "lon": -77.04173666666667, "rental_uris": {"android": "https://dc.lft.to/lastmile_qr_scan", "ios": "https://dc.lft.to/lastmile_qr_scan"}, "fusion_lon": 0.0, "bike_id": "89b615aa65451cf4c6212daf280faee2", "is_disabled": 0, "lat": 38.919819833333335, "is_reserved": 0, "type": "electric_scooter"}, {"fusion_lat": 0.0, "name": "3caed25563e95eeefe593ad65f7e45a2", "lon": -77.0710425, "rental_uris": {"android": "https://dc.lft.to/lastmile_qr_scan", "ios": "https://dc.lft.to/lastmile_qr_scan"}, "fusion_lon": 0.0, "bike_id": "3caed25563e95eeefe593ad65f7e45a2", "is_disabled": 0, "lat": 38.9317735, "is_reserved": 0, "type": "electric_scooter"}, {"fusion_lat": 0.0, "name": "21edc9b3686dbaddb4e6d814189f817a", "lon": -77.01904566666667, "rental_uris": {"android": "https://dc.lft.to/lastmile_qr_scan", "ios": "https://dc.lft.to/lastmile_qr_scan"}, "fusion_lon": 0.0, "bike_id": "21edc9b3686dbaddb4e6d814189f817a", "is_disabled": 0, "lat": 38.922728, "is_reserved": 0, "type": "electric_scooter"}, {"fusion_lat": 0.0, "name": "10170a7ce3c919f5dfbdd3daba927429", "lon": -77.02407233333334, "rental_uris": {"android": "https://dc.lft.to/lastmile_qr_scan", "ios": "https://dc.lft.to/lastmile_qr_scan"}, "fusion_lon": 0.0, "bike_id": "10170a7ce3c919f5dfbdd3daba927429", "is_disabled": 0, "lat": 38.898118, "is_reserved": 0, "type": "electric_scooter"}, {"fusion_lat": 0.0, "name": "22f0be5025497451ea3cd6cc0ffb793f", "lon": -76.93021166666666, "rental_uris": {"android": "https://dc.lft.to/lastmile_qr_scan", "ios": "https://dc.lft.to/lastmile_qr_scan"}, "fusion_lon": 0.0, "bike_id": "22f0be5025497451ea3cd6cc0ffb793f", "is_disabled": 0, "lat": 38.90082233333333, "is_reserved": 0, "type": "electric_scooter"}, {"fusion_lat": 0.0, "name": "ecdd801e3c74e36bb0144403fd3eba0f", "lon": -76.978398, "rental_uris": {"android": "https://dc.lft.to/lastmile_qr_scan", "ios": "https://dc.lft.to/lastmile_qr_scan"}, "fusion_lon": 0.0, "bike_id": "ecdd801e3c74e36bb0144403fd3eba0f", "is_disabled": 0, "lat": 38.872072833333334, "is_reserved": 0, "type": "electric_scooter"}, {"fusion_lat": 0.0, "name": "bc493a7d74b379366fee841b4ef4dd9a", "lon": -77.08014566666667, "rental_uris": {"android": "https://dc.lft.to/lastmile_qr_scan", "ios": "https://dc.lft.to/lastmile_qr_scan"}, "fusion_lon": 0.0, "bike_id": "bc493a7d74b379366fee841b4ef4dd9a", "is_disabled": 0, "lat": 38.95064633333333, "is_reserved": 0, "type": "electric_scooter"}, {"fusion_lat": 0.0, "name": "e0cea1846310d75f094a1cdd245f6d1c", "lon": -76.98421516666667, "rental_uris": {"android": "https://dc.lft.to/lastmile_qr_scan", "ios": "https://dc.lft.to/lastmile_qr_scan"}, "fusion_lon": 0.0, "bike_id": "e0cea1846310d75f094a1cdd245f6d1c", "is_disabled": 0, "lat": 38.8553775, "is_reserved": 0, "type": "electric_scooter"}, {"fusion_lat": 0.0, "name": "5284cfb1fc67839e96455ce25fd251d8", "lon": -77.0172995, "rental_uris": {"android": "https://dc.lft.to/lastmile_qr_scan", "ios": "https://dc.lft.to/lastmile_qr_scan"}, "fusion_lon": 0.0, "bike_id": "5284cfb1fc67839e96455ce25fd251d8", "is_disabled": 0, "lat": 38.902749166666666, "is_reserved": 0, "type": "electric_scooter"}, {"fusion_lat": 0.0, "name": "5b119a3f1e42fa0038de8e6c2f93e5bb", "lon": -76.97305283333333, "rental_uris": {"android": "https://dc.lft.to/lastmile_qr_scan", "ios": "https://dc.lft.to/lastmile_qr_scan"}, "fusion_lon": 0.0, "bike_id": "5b119a3f1e42fa0038de8e6c2f93e5bb", "is_disabled": 0, "lat": 38.916436833333336, "is_reserved": 0, "type": "electric_bike"}, {"fusion_lat": 0.0, "name": "2fa1350d69e455150a9f97d7b3a4a0f8", "lon": -77.0812505, "rental_uris": {"android": "https://dc.lft.to/lastmile_qr_scan", "ios": "https://dc.lft.to/lastmile_qr_scan"}, "fusion_lon": 0.0, "bike_id": "2fa1350d69e455150a9f97d7b3a4a0f8", "is_disabled": 0, "lat": 38.9357525, "is_reserved": 0, "type": "electric_scooter"}, {"fusion_lat": 0.0, "name": "41885361349ace93814d54daa382be95", "lon": -77.04876033333333, "rental_uris": {"android": "https://dc.lft.to/lastmile_qr_scan", "ios": "https://dc.lft.to/lastmile_qr_scan"}, "fusion_lon": 0.0, "bike_id": "41885361349ace93814d54daa382be95", "is_disabled": 0, "lat": 38.89274566666667, "is_reserved": 0, "type": "electric_scooter"}, {"fusion_lat": 0.0, "name": "7805203321d2edf26782e9348cbca693", "lon": -76.92622516666667, "rental_uris": {"android": "https://dc.lft.to/lastmile_qr_scan", "ios": "https://dc.lft.to/lastmile_qr_scan"}, "fusion_lon": 0.0, "bike_id": "7805203321d2edf26782e9348cbca693", "is_disabled": 0, "lat": 38.8848495, "is_reserved": 0, "type": "electric_scooter"}, {"fusion_lat": 0.0, "name": "44b417d47c292607afc4c6bfbad0f6cc", "lon": -77.02210616666666, "rental_uris": {"android": "https://dc.lft.to/lastmile_qr_scan", "ios": "https://dc.lft.to/lastmile_qr_scan"}, "fusion_lon": 0.0, "bike_id": "44b417d47c292607afc4c6bfbad0f6cc", "is_disabled": 0, "lat": 38.92090733333333, "is_reserved": 0, "type": "electric_scooter"}, {"fusion_lat": 0.0, "name": "5f1e6dd55c8a6d1e20aa6e97bcc8fe10", "lon": -77.03190583333334, "rental_uris": {"android": "https://dc.lft.to/lastmile_qr_scan", "ios": "https://dc.lft.to/lastmile_qr_scan"}, "fusion_lon": 0.0, "bike_id": "5f1e6dd55c8a6d1e20aa6e97bcc8fe10", "is_disabled": 0, "lat": 38.915688333333335, "is_reserved": 0, "type": "electric_scooter"}, {"fusion_lat": 0.0, "name": "9f818a142f556c44834140cbc6d442bf", "lon": -77.0260395, "rental_uris": {"android": "https://dc.lft.to/lastmile_qr_scan", "ios": "https://dc.lft.to/lastmile_qr_scan"}, "fusion_lon": 0.0, "bike_id": "9f818a142f556c44834140cbc6d442bf", "is_disabled": 0, "lat": 38.944115, "is_reserved": 0, "type": "electric_scooter"}, {"fusion_lat": 0.0, "name": "f8400ac5ecfe39f9b903e1b9eb0c601d", "lon": -77.0280185, "rental_uris": {"android": "https://dc.lft.to/lastmile_qr_scan", "ios": "https://dc.lft.to/lastmile_qr_scan"}, "fusion_lon": 0.0, "bike_id": "f8400ac5ecfe39f9b903e1b9eb0c601d", "is_disabled": 0, "lat": 38.91219433333333, "is_reserved": 0, "type": "electric_scooter"}, {"fusion_lat": 0.0, "name": "15bbf9b1bfc30f0e9d31cb38eb742e65", "lon": -76.99930333333333, "rental_uris": {"android": "https://dc.lft.to/lastmile_qr_scan", "ios": "https://dc.lft.to/lastmile_qr_scan"}, "fusion_lon": 0.0, "bike_id": "15bbf9b1bfc30f0e9d31cb38eb742e65", "is_disabled": 0, "lat": 38.843108666666666, "is_reserved": 0, "type": "electric_scooter"}, {"fusion_lat": 0.0, "name": "40baf98ce75fcbdc5d43001658370042", "lon": -77.05153466666667, "rental_uris": {"android": "https://dc.lft.to/lastmile_qr_scan", "ios": "https://dc.lft.to/lastmile_qr_scan"}, "fusion_lon": 0.0, "bike_id": "40baf98ce75fcbdc5d43001658370042", "is_disabled": 0, "lat": 38.906255, "is_reserved": 0, "type": "electric_scooter"}, {"fusion_lat": 0.0, "name": "d01161e6704b07023326301f36beaa10", "lon": -77.03977983333333, "rental_uris": {"android": "https://dc.lft.to/lastmile_qr_scan", "ios": "https://dc.lft.to/lastmile_qr_scan"}, "fusion_lon": 0.0, "bike_id": "d01161e6704b07023326301f36beaa10", "is_disabled": 0, "lat": 38.90265383333333, "is_reserved": 0, "type": "electric_scooter"}, {"fusion_lat": 0.0, "name": "6eb946da9838ce43fc78aa254791f410", "lon": -77.04226716666666, "rental_uris": {"android": "https://dc.lft.to/lastmile_qr_scan", "ios": "https://dc.lft.to/lastmile_qr_scan"}, "fusion_lon": 0.0, "bike_id": "6eb946da9838ce43fc78aa254791f410", "is_disabled": 0, "lat": 38.90747483333333, "is_reserved": 0, "type": "electric_scooter"}, {"fusion_lat": 0.0, "name": "ee36f0977111383a0bbca5e9a67fccd2", "lon": -77.026563, "rental_uris": {"android": "https://dc.lft.to/lastmile_qr_scan", "ios": "https://dc.lft.to/lastmile_qr_scan"}, "fusion_lon": 0.0, "bike_id": "ee36f0977111383a0bbca5e9a67fccd2", "is_disabled": 0, "lat": 38.93276683333333, "is_reserved": 0, "type": "electric_scooter"}, {"fusion_lat": 0.0, "name": "7252f75c20a62e53e2d6b72d225720ad", "lon": -77.04536166666666, "rental_uris": {"android": "https://dc.lft.to/lastmile_qr_scan", "ios": "https://dc.lft.to/lastmile_qr_scan"}, "fusion_lon": 0.0, "bike_id": "7252f75c20a62e53e2d6b72d225720ad", "is_disabled": 0, "lat": 38.900603, "is_reserved": 0, "type": "electric_scooter"}, {"fusion_lat": 0.0, "name": "dc1697396ff8f23d4fe401c5896f2746", "lon": -77.032666, "rental_uris": {"android": "https://dc.lft.to/lastmile_qr_scan", "ios": "https://dc.lft.to/lastmile_qr_scan"}, "fusion_lon": 0.0, "bike_id": "dc1697396ff8f23d4fe401c5896f2746", "is_disabled": 0, "lat": 38.92177616666667, "is_reserved": 0, "type": "electric_scooter"}, {"fusion_lat": 0.0, "name": "ce208e56d7c80e563b3d996a51b5dfcc", "lon": -77.000166, "rental_uris": {"android": "https://dc.lft.to/lastmile_qr_scan", "ios": "https://dc.lft.to/lastmile_qr_scan"}, "fusion_lon": 0.0, "bike_id": "ce208e56d7c80e563b3d996a51b5dfcc", "is_disabled": 0, "lat": 38.87394966666667, "is_reserved": 0, "type": "electric_scooter"}, {"fusion_lat": 0.0, "name": "c8f50b2a13b756e45d8609897845be02", "lon": -77.035103, "rental_uris": {"android": "https://dc.lft.to/lastmile_qr_scan", "ios": "https://dc.lft.to/lastmile_qr_scan"}, "fusion_lon": 0.0, "bike_id": "c8f50b2a13b756e45d8609897845be02", "is_disabled": 0, "lat": 38.91592766666667, "is_reserved": 0, "type": "electric_scooter"}, {"fusion_lat": 0.0, "name": "709c4ec07b7b30f0a42d2b008e34f483", "lon": -77.03639, "rental_uris": {"android": "https://dc.lft.to/lastmile_qr_scan", "ios": "https://dc.lft.to/lastmile_qr_scan"}, "fusion_lon": 0.0, "bike_id": "709c4ec07b7b30f0a42d2b008e34f483", "is_disabled": 0, "lat": 38.922748166666665, "is_reserved": 0, "type": "electric_scooter"}, {"fusion_lat": 0.0, "name": "7a9ba71b5811752f28de0d95be654ce4", "lon": -77.02780566666667, "rental_uris": {"android": "https://dc.lft.to/lastmile_qr_scan", "ios": "https://dc.lft.to/lastmile_qr_scan"}, "fusion_lon": 0.0, "bike_id": "7a9ba71b5811752f28de0d95be654ce4", "is_disabled": 0, "lat": 38.96254783333333, "is_reserved": 0, "type": "electric_scooter"}, {"fusion_lat": 0.0, "name": "be7fbf21e82715a9839348d50235e411", "lon": -77.019031, "rental_uris": {"android": "https://dc.lft.to/lastmile_qr_scan", "ios": "https://dc.lft.to/lastmile_qr_scan"}, "fusion_lon": 0.0, "bike_id": "be7fbf21e82715a9839348d50235e411", "is_disabled": 0, "lat": 38.91389733333333, "is_reserved": 0, "type": "electric_scooter"}, {"fusion_lat": 0.0, "name": "2778036ac114624416cd81bba95647ef", "lon": -77.0266855, "rental_uris": {"android": "https://dc.lft.to/lastmile_qr_scan", "ios": "https://dc.lft.to/lastmile_qr_scan"}, "fusion_lon": 0.0, "bike_id": "2778036ac114624416cd81bba95647ef", "is_disabled": 0, "lat": 38.92811716666667, "is_reserved": 0, "type": "electric_scooter"}, {"fusion_lat": 0.0, "name": "b94417114a4e3bcbce36d6517e0508e0", "lon": -77.00138533333333, "rental_uris": {"android": "https://dc.lft.to/lastmile_qr_scan", "ios": "https://dc.lft.to/lastmile_qr_scan"}, "fusion_lon": 0.0, "bike_id": "b94417114a4e3bcbce36d6517e0508e0", "is_disabled": 0, "lat": 38.87366766666667, "is_reserved": 0, "type": "electric_scooter"}, {"fusion_lat": 0.0, "name": "4a0c6595d5c19d12be29bbe7ba77f1af", "lon": -77.02654216666667, "rental_uris": {"android": "https://dc.lft.to/lastmile_qr_scan", "ios": "https://dc.lft.to/lastmile_qr_scan"}, "fusion_lon": 0.0, "bike_id": "4a0c6595d5c19d12be29bbe7ba77f1af", "is_disabled": 0, "lat": 38.938618166666664, "is_reserved": 0, "type": "electric_scooter"}, {"fusion_lat": 0.0, "name": "f4337b9da19633e4b0dec28849748f8b", "lon": -77.03413866666666, "rental_uris": {"android": "https://dc.lft.to/lastmile_qr_scan", "ios": "https://dc.lft.to/lastmile_qr_scan"}, "fusion_lon": 0.0, "bike_id": "f4337b9da19633e4b0dec28849748f8b", "is_disabled": 0, "lat": 38.96030916666667, "is_reserved": 0, "type": "electric_bike"}, {"fusion_lat": 0.0, "name": "0c9a12ea2329148d45b61cdde026a72e", "lon": -77.0282895, "rental_uris": {"android": "https://dc.lft.to/lastmile_qr_scan", "ios": "https://dc.lft.to/lastmile_qr_scan"}, "fusion_lon": 0.0, "bike_id": "0c9a12ea2329148d45b61cdde026a72e", "is_disabled": 0, "lat": 38.938853, "is_reserved": 0, "type": "electric_scooter"}, {"fusion_lat": 0.0, "name": "1ea154867f6502b28ade390ada63ea09", "lon": -77.11768933333333, "rental_uris": {"android": "https://dc.lft.to/lastmile_qr_scan", "ios": "https://dc.lft.to/lastmile_qr_scan"}, "fusion_lon": 0.0, "bike_id": "1ea154867f6502b28ade390ada63ea09", "is_disabled": 0, "lat": 38.855776666666664, "is_reserved": 0, "type": "electric_bike"}, {"fusion_lat": 0.0, "name": "55b1d40922cadfbfb7de03c0ad601ec4", "lon": -76.993555, "rental_uris": {"android": "https://dc.lft.to/lastmile_qr_scan", "ios": "https://dc.lft.to/lastmile_qr_scan"}, "fusion_lon": 0.0, "bike_id": "55b1d40922cadfbfb7de03c0ad601ec4", "is_disabled": 0, "lat": 38.8450435, "is_reserved": 0, "type": "electric_bike"}, {"fusion_lat": 0.0, "name": "0120b7d168a8b800cb352f9c917ab799", "lon": -77.04109283333334, "rental_uris": {"android": "https://dc.lft.to/lastmile_qr_scan", "ios": "https://dc.lft.to/lastmile_qr_scan"}, "fusion_lon": 0.0, "bike_id": "0120b7d168a8b800cb352f9c917ab799", "is_disabled": 0, "lat": 38.91725483333333, "is_reserved": 0, "type": "electric_scooter"}, {"fusion_lat": 0.0, "name": "f4729c939d4025d19a43daaf784fbd4e", "lon": -76.983637, "rental_uris": {"android": "https://dc.lft.to/lastmile_qr_scan", "ios": "https://dc.lft.to/lastmile_qr_scan"}, "fusion_lon": 0.0, "bike_id": "f4729c939d4025d19a43daaf784fbd4e", "is_disabled": 0, "lat": 38.915520666666666, "is_reserved": 0, "type": "electric_scooter"}, {"fusion_lat": 0.0, "name": "1524ecd8f4ea8259ac094df2b1eebb70", "lon": -77.00753416666667, "rental_uris": {"android": "https://dc.lft.to/lastmile_qr_scan", "ios": "https://dc.lft.to/lastmile_qr_scan"}, "fusion_lon": 0.0, "bike_id": "1524ecd8f4ea8259ac094df2b1eebb70", "is_disabled": 0, "lat": 38.876491333333334, "is_reserved": 0, "type": "electric_bike"}, {"fusion_lat": 0.0, "name": "b81b1ad8ed99cb72e7944be7a9c731d1", "lon": -77.0394725, "rental_uris": {"android": "https://dc.lft.to/lastmile_qr_scan", "ios": "https://dc.lft.to/lastmile_qr_scan"}, "fusion_lon": 0.0, "bike_id": "b81b1ad8ed99cb72e7944be7a9c731d1", "is_disabled": 0, "lat": 38.9006665, "is_reserved": 0, "type": "electric_scooter"}, {"fusion_lat": 0.0, "name": "b9fd8a38d65ffe4aed6cfd27df7053f1", "lon": -76.99835533333334, "rental_uris": {"android": "https://dc.lft.to/lastmile_qr_scan", "ios": "https://dc.lft.to/lastmile_qr_scan"}, "fusion_lon": 0.0, "bike_id": "b9fd8a38d65ffe4aed6cfd27df7053f1", "is_disabled": 0, "lat": 38.89451833333333, "is_reserved": 0, "type": "electric_scooter"}, {"fusion_lat": 0.0, "name": "eb85106a16036f1a63546c0bfead5de6", "lon": -77.0576055, "rental_uris": {"android": "https://dc.lft.to/lastmile_qr_scan", "ios": "https://dc.lft.to/lastmile_qr_scan"}, "fusion_lon": 0.0, "bike_id": "eb85106a16036f1a63546c0bfead5de6", "is_disabled": 0, "lat": 38.92453916666667, "is_reserved": 0, "type": "electric_scooter"}, {"fusion_lat": 0.0, "name": "1a59c12806b1f5b90a6e7133d41b78f4", "lon": -77.04235016666667, "rental_uris": {"android": "https://dc.lft.to/lastmile_qr_scan", "ios": "https://dc.lft.to/lastmile_qr_scan"}, "fusion_lon": 0.0, "bike_id": "1a59c12806b1f5b90a6e7133d41b78f4", "is_disabled": 0, "lat": 38.92197016666667, "is_reserved": 0, "type": "electric_scooter"}, {"fusion_lat": 0.0, "name": "ee57fe6a5ca24825b098bb192feed097", "lon": -77.04623616666667, "rental_uris": {"android": "https://dc.lft.to/lastmile_qr_scan", "ios": "https://dc.lft.to/lastmile_qr_scan"}, "fusion_lon": 0.0, "bike_id": "ee57fe6a5ca24825b098bb192feed097", "is_disabled": 0, "lat": 38.92316133333333, "is_reserved": 0, "type": "electric_scooter"}, {"fusion_lat": 0.0, "name": "788d399720a79c8f07250912229289a5", "lon": -77.04370533333334, "rental_uris": {"android": "https://dc.lft.to/lastmile_qr_scan", "ios": "https://dc.lft.to/lastmile_qr_scan"}, "fusion_lon": 0.0, "bike_id": "788d399720a79c8f07250912229289a5", "is_disabled": 0, "lat": 38.92099483333333, "is_reserved": 0, "type": "electric_scooter"}, {"fusion_lat": 0.0, "name": "61a9053784439f9700bf0e2c1929667c", "lon": -77.03866483333333, "rental_uris": {"android": "https://dc.lft.to/lastmile_qr_scan", "ios": "https://dc.lft.to/lastmile_qr_scan"}, "fusion_lon": 0.0, "bike_id": "61a9053784439f9700bf0e2c1929667c", "is_disabled": 0, "lat": 38.9123735, "is_reserved": 0, "type": "electric_scooter"}, {"fusion_lat": 0.0, "name": "7077fa3e6e80abf660f1751a6a4ce4c0", "lon": -77.04492166666667, "rental_uris": {"android": "https://dc.lft.to/lastmile_qr_scan", "ios": "https://dc.lft.to/lastmile_qr_scan"}, "fusion_lon": 0.0, "bike_id": "7077fa3e6e80abf660f1751a6a4ce4c0", "is_disabled": 0, "lat": 38.9070325, "is_reserved": 0, "type": "electric_scooter"}, {"fusion_lat": 0.0, "name": "e50a81f216f16e1591cf1927668ad3ec", "lon": -77.04591183333334, "rental_uris": {"android": "https://dc.lft.to/lastmile_qr_scan", "ios": "https://dc.lft.to/lastmile_qr_scan"}, "fusion_lon": 0.0, "bike_id": "e50a81f216f16e1591cf1927668ad3ec", "is_disabled": 0, "lat": 38.918512166666666, "is_reserved": 0, "type": "electric_scooter"}, {"fusion_lat": 0.0, "name": "235abc5b8c038994ea1511d4086a02f0", "lon": -77.0465375, "rental_uris": {"android": "https://dc.lft.to/lastmile_qr_scan", "ios": "https://dc.lft.to/lastmile_qr_scan"}, "fusion_lon": 0.0, "bike_id": "235abc5b8c038994ea1511d4086a02f0", "is_disabled": 0, "lat": 38.9142645, "is_reserved": 0, "type": "electric_scooter"}, {"fusion_lat": 0.0, "name": "bc81850b72ab026c9e6624bb260ed559", "lon": -77.162342, "rental_uris": {"android": "https://dc.lft.to/lastmile_qr_scan", "ios": "https://dc.lft.to/lastmile_qr_scan"}, "fusion_lon": 0.0, "bike_id": "bc81850b72ab026c9e6624bb260ed559", "is_disabled": 0, "lat": 38.886571833333335, "is_reserved": 0, "type": "electric_bike"}, {"fusion_lat": 0.0, "name": "69e077635528733cf762d11406ae9103", "lon": -76.99052066666667, "rental_uris": {"android": "https://dc.lft.to/lastmile_qr_scan", "ios": "https://dc.lft.to/lastmile_qr_scan"}, "fusion_lon": 0.0, "bike_id": "69e077635528733cf762d11406ae9103", "is_disabled": 0, "lat": 38.86376, "is_reserved": 0, "type": "electric_scooter"}, {"fusion_lat": 0.0, "name": "f773e318aa0d155f30fc3cb8afaf9999", "lon": -77.043683, "rental_uris": {"android": "https://dc.lft.to/lastmile_qr_scan", "ios": "https://dc.lft.to/lastmile_qr_scan"}, "fusion_lon": 0.0, "bike_id": "f773e318aa0d155f30fc3cb8afaf9999", "is_disabled": 0, "lat": 38.915851833333335, "is_reserved": 0, "type": "electric_scooter"}, {"fusion_lat": 0.0, "name": "95dc57900c7bb738d03db72dd2754791", "lon": -77.04618433333333, "rental_uris": {"android": "https://dc.lft.to/lastmile_qr_scan", "ios": "https://dc.lft.to/lastmile_qr_scan"}, "fusion_lon": 0.0, "bike_id": "95dc57900c7bb738d03db72dd2754791", "is_disabled": 0, "lat": 38.91565633333333, "is_reserved": 0, "type": "electric_scooter"}, {"fusion_lat": 0.0, "name": "f3e3621e9e81b8555cbac645fe670a4b", "lon": -76.9993465, "rental_uris": {"android": "https://dc.lft.to/lastmile_qr_scan", "ios": "https://dc.lft.to/lastmile_qr_scan"}, "fusion_lon": 0.0, "bike_id": "f3e3621e9e81b8555cbac645fe670a4b", "is_disabled": 0, "lat": 38.91931533333333, "is_reserved": 0, "type": "electric_scooter"}, {"fusion_lat": 0.0, "name": "f4aab128c241f2d181fb60e0693cba8d", "lon": -76.948858, "rental_uris": {"android": "https://dc.lft.to/lastmile_qr_scan", "ios": "https://dc.lft.to/lastmile_qr_scan"}, "fusion_lon": 0.0, "bike_id": "f4aab128c241f2d181fb60e0693cba8d", "is_disabled": 0, "lat": 38.894276, "is_reserved": 0, "type": "electric_scooter"}, {"fusion_lat": 0.0, "name": "3348a490313d5e145c681b8c972def58", "lon": -77.00283066666667, "rental_uris": {"android": "https://dc.lft.to/lastmile_qr_scan", "ios": "https://dc.lft.to/lastmile_qr_scan"}, "fusion_lon": 0.0, "bike_id": "3348a490313d5e145c681b8c972def58", "is_disabled": 0, "lat": 38.89099233333334, "is_reserved": 0, "type": "electric_scooter"}, {"fusion_lat": 0.0, "name": "6907d40922586b07b67887fd8fddf50f", "lon": -77.02110683333333, "rental_uris": {"android": "https://dc.lft.to/lastmile_qr_scan", "ios": "https://dc.lft.to/lastmile_qr_scan"}, "fusion_lon": 0.0, "bike_id": "6907d40922586b07b67887fd8fddf50f", "is_disabled": 0, "lat": 38.9409645, "is_reserved": 0, "type": "electric_scooter"}, {"fusion_lat": 0.0, "name": "08fc283ae756b5a61e6c202fcb454aa0", "lon": -77.04209983333334, "rental_uris": {"android": "https://dc.lft.to/lastmile_qr_scan", "ios": "https://dc.lft.to/lastmile_qr_scan"}, "fusion_lon": 0.0, "bike_id": "08fc283ae756b5a61e6c202fcb454aa0", "is_disabled": 0, "lat": 38.923125, "is_reserved": 0, "type": "electric_scooter"}, {"fusion_lat": 0.0, "name": "30fb18aa894cfb113e74a0a497595c42", "lon": -76.95578216666667, "rental_uris": {"android": "https://dc.lft.to/lastmile_qr_scan", "ios": "https://dc.lft.to/lastmile_qr_scan"}, "fusion_lon": 0.0, "bike_id": "30fb18aa894cfb113e74a0a497595c42", "is_disabled": 0, "lat": 38.88614716666667, "is_reserved": 0, "type": "electric_scooter"}, {"fusion_lat": 0.0, "name": "c746e7e061f5640c6b5f395fe05f09c2", "lon": -76.97728866666667, "rental_uris": {"android": "https://dc.lft.to/lastmile_qr_scan", "ios": "https://dc.lft.to/lastmile_qr_scan"}, "fusion_lon": 0.0, "bike_id": "c746e7e061f5640c6b5f395fe05f09c2", "is_disabled": 0, "lat": 38.87284616666667, "is_reserved": 0, "type": "electric_scooter"}, {"fusion_lat": 0.0, "name": "7d16c314d09848471e7e61341de570b9", "lon": -77.02804483333334, "rental_uris": {"android": "https://dc.lft.to/lastmile_qr_scan", "ios": "https://dc.lft.to/lastmile_qr_scan"}, "fusion_lon": 0.0, "bike_id": "7d16c314d09848471e7e61341de570b9", "is_disabled": 0, "lat": 38.892265333333334, "is_reserved": 0, "type": "electric_scooter"}, {"fusion_lat": 0.0, "name": "fbb6d50138b170547311ae4ac6ffab8e", "lon": -76.94806533333333, "rental_uris": {"android": "https://dc.lft.to/lastmile_qr_scan", "ios": "https://dc.lft.to/lastmile_qr_scan"}, "fusion_lon": 0.0, "bike_id": "fbb6d50138b170547311ae4ac6ffab8e", "is_disabled": 0, "lat": 38.861927666666666, "is_reserved": 0, "type": "electric_bike"}, {"fusion_lat": 0.0, "name": "a90d9d1ecce3950532bab6996e25a759", "lon": -77.006228, "rental_uris": {"android": "https://dc.lft.to/lastmile_qr_scan", "ios": "https://dc.lft.to/lastmile_qr_scan"}, "fusion_lon": 0.0, "bike_id": "a90d9d1ecce3950532bab6996e25a759", "is_disabled": 0, "lat": 38.88238066666667, "is_reserved": 0, "type": "electric_scooter"}, {"fusion_lat": 0.0, "name": "22f47d36639e529ffa8801026b5caabe", "lon": -77.00120333333334, "rental_uris": {"android": "https://dc.lft.to/lastmile_qr_scan", "ios": "https://dc.lft.to/lastmile_qr_scan"}, "fusion_lon": 0.0, "bike_id": "22f47d36639e529ffa8801026b5caabe", "is_disabled": 0, "lat": 38.873716, "is_reserved": 0, "type": "electric_scooter"}, {"fusion_lat": 0.0, "name": "0776083cad53c501016b131d9e054815", "lon": -77.04194583333333, "rental_uris": {"android": "https://dc.lft.to/lastmile_qr_scan", "ios": "https://dc.lft.to/lastmile_qr_scan"}, "fusion_lon": 0.0, "bike_id": "0776083cad53c501016b131d9e054815", "is_disabled": 0, "lat": 38.90796433333333, "is_reserved": 0, "type": "electric_scooter"}, {"fusion_lat": 0.0, "name": "916b6da607cb2fe02c1d0378966c82e4", "lon": -77.03276966666667, "rental_uris": {"android": "https://dc.lft.to/lastmile_qr_scan", "ios": "https://dc.lft.to/lastmile_qr_scan"}, "fusion_lon": 0.0, "bike_id": "916b6da607cb2fe02c1d0378966c82e4", "is_disabled": 0, "lat": 38.901428833333334, "is_reserved": 0, "type": "electric_scooter"}, {"fusion_lat": 0.0, "name": "d80b956aed2733fa503f4f5d96aaecb5", "lon": -77.03977033333334, "rental_uris": {"android": "https://dc.lft.to/lastmile_qr_scan", "ios": "https://dc.lft.to/lastmile_qr_scan"}, "fusion_lon": 0.0, "bike_id": "d80b956aed2733fa503f4f5d96aaecb5", "is_disabled": 0, "lat": 38.90269116666666, "is_reserved": 0, "type": "electric_scooter"}, {"fusion_lat": 0.0, "name": "b2229b180ebe7b7c2f69948ad6b4dd7e", "lon": -77.00615933333333, "rental_uris": {"android": "https://dc.lft.to/lastmile_qr_scan", "ios": "https://dc.lft.to/lastmile_qr_scan"}, "fusion_lon": 0.0, "bike_id": "b2229b180ebe7b7c2f69948ad6b4dd7e", "is_disabled": 0, "lat": 38.90407066666667, "is_reserved": 0, "type": "electric_scooter"}, {"fusion_lat": 0.0, "name": "156ef5e9976007284aa4d539b4f14148", "lon": -77.0422395, "rental_uris": {"android": "https://dc.lft.to/lastmile_qr_scan", "ios": "https://dc.lft.to/lastmile_qr_scan"}, "fusion_lon": 0.0, "bike_id": "156ef5e9976007284aa4d539b4f14148", "is_disabled": 0, "lat": 38.921733833333334, "is_reserved": 0, "type": "electric_scooter"}, {"fusion_lat": 0.0, "name": "939b52d1b9219970f2a606edb10a197f", "lon": -77.0484755, "rental_uris": {"android": "https://dc.lft.to/lastmile_qr_scan", "ios": "https://dc.lft.to/lastmile_qr_scan"}, "fusion_lon": 0.0, "bike_id": "939b52d1b9219970f2a606edb10a197f", "is_disabled": 0, "lat": 38.88836633333333, "is_reserved": 0, "type": "electric_scooter"}, {"fusion_lat": 0.0, "name": "99e7b9a21ef7766663e98f0c61ff6e81", "lon": -76.98593766666667, "rental_uris": {"android": "https://dc.lft.to/lastmile_qr_scan", "ios": "https://dc.lft.to/lastmile_qr_scan"}, "fusion_lon": 0.0, "bike_id": "99e7b9a21ef7766663e98f0c61ff6e81", "is_disabled": 0, "lat": 38.86697766666666, "is_reserved": 0, "type": "electric_scooter"}, {"fusion_lat": 0.0, "name": "f846cd693420c7e2cec3e1cc8f4c456a", "lon": -77.03218266666667, "rental_uris": {"android": "https://dc.lft.to/lastmile_qr_scan", "ios": "https://dc.lft.to/lastmile_qr_scan"}, "fusion_lon": 0.0, "bike_id": "f846cd693420c7e2cec3e1cc8f4c456a", "is_disabled": 0, "lat": 38.917299666666665, "is_reserved": 0, "type": "electric_scooter"}, {"fusion_lat": 0.0, "name": "dd859867b3d7e40364b1498891fc3dd7", "lon": -77.02734316666667, "rental_uris": {"android": "https://dc.lft.to/lastmile_qr_scan", "ios": "https://dc.lft.to/lastmile_qr_scan"}, "fusion_lon": 0.0, "bike_id": "dd859867b3d7e40364b1498891fc3dd7", "is_disabled": 0, "lat": 38.95200783333333, "is_reserved": 0, "type": "electric_scooter"}, {"fusion_lat": 0.0, "name": "5ea35e5e56c00d212eab34d537a13d16", "lon": -77.009314, "rental_uris": {"android": "https://dc.lft.to/lastmile_qr_scan", "ios": "https://dc.lft.to/lastmile_qr_scan"}, "fusion_lon": 0.0, "bike_id": "5ea35e5e56c00d212eab34d537a13d16", "is_disabled": 0, "lat": 38.896025, "is_reserved": 0, "type": "electric_scooter"}, {"fusion_lat": 0.0, "name": "550a69c8305112cd06f2a9f088634547", "lon": -76.98023316666666, "rental_uris": {"android": "https://dc.lft.to/lastmile_qr_scan", "ios": "https://dc.lft.to/lastmile_qr_scan"}, "fusion_lon": 0.0, "bike_id": "550a69c8305112cd06f2a9f088634547", "is_disabled": 0, "lat": 38.853210833333335, "is_reserved": 0, "type": "electric_bike"}, {"fusion_lat": 0.0, "name": "dfa2eabfc004d852689264c1400d39e4", "lon": -77.02175933333334, "rental_uris": {"android": "https://dc.lft.to/lastmile_qr_scan", "ios": "https://dc.lft.to/lastmile_qr_scan"}, "fusion_lon": 0.0, "bike_id": "dfa2eabfc004d852689264c1400d39e4", "is_disabled": 0, "lat": 38.899693, "is_reserved": 0, "type": "electric_scooter"}, {"fusion_lat": 0.0, "name": "30fe31072cae3a450ea1ec8b8e778769", "lon": -77.043899, "rental_uris": {"android": "https://dc.lft.to/lastmile_qr_scan", "ios": "https://dc.lft.to/lastmile_qr_scan"}, "fusion_lon": 0.0, "bike_id": "30fe31072cae3a450ea1ec8b8e778769", "is_disabled": 0, "lat": 38.91657983333333, "is_reserved": 0, "type": "electric_scooter"}, {"fusion_lat": 0.0, "name": "5279ceebe9b449d7ffd474e3f8bcd38e", "lon": -76.93028283333334, "rental_uris": {"android": "https://dc.lft.to/lastmile_qr_scan", "ios": "https://dc.lft.to/lastmile_qr_scan"}, "fusion_lon": 0.0, "bike_id": "5279ceebe9b449d7ffd474e3f8bcd38e", "is_disabled": 0, "lat": 38.9001045, "is_reserved": 0, "type": "electric_scooter"}, {"fusion_lat": 0.0, "name": "6c10a6487738efc00b58b4affb80be56", "lon": -76.99068516666667, "rental_uris": {"android": "https://dc.lft.to/lastmile_qr_scan", "ios": "https://dc.lft.to/lastmile_qr_scan"}, "fusion_lon": 0.0, "bike_id": "6c10a6487738efc00b58b4affb80be56", "is_disabled": 0, "lat": 38.86356216666667, "is_reserved": 0, "type": "electric_scooter"}, {"fusion_lat": 0.0, "name": "d9b10894fe9126b129416e33632ba4e8", "lon": -77.025939, "rental_uris": {"android": "https://dc.lft.to/lastmile_qr_scan", "ios": "https://dc.lft.to/lastmile_qr_scan"}, "fusion_lon": 0.0, "bike_id": "d9b10894fe9126b129416e33632ba4e8", "is_disabled": 0, "lat": 38.9049995, "is_reserved": 0, "type": "electric_scooter"}, {"fusion_lat": 0.0, "name": "25e00e0fc416c8fc5e085dc962f93a37", "lon": -77.04332783333334, "rental_uris": {"android": "https://dc.lft.to/lastmile_qr_scan", "ios": "https://dc.lft.to/lastmile_qr_scan"}, "fusion_lon": 0.0, "bike_id": "25e00e0fc416c8fc5e085dc962f93a37", "is_disabled": 0, "lat": 38.90134916666667, "is_reserved": 0, "type": "electric_scooter"}, {"fusion_lat": 0.0, "name": "673f5380ce85f67710a4e20b4fc5d601", "lon": -76.9859545, "rental_uris": {"android": "https://dc.lft.to/lastmile_qr_scan", "ios": "https://dc.lft.to/lastmile_qr_scan"}, "fusion_lon": 0.0, "bike_id": "673f5380ce85f67710a4e20b4fc5d601", "is_disabled": 0, "lat": 38.866981, "is_reserved": 0, "type": "electric_scooter"}, {"fusion_lat": 0.0, "name": "3766ce7e3e4c639ec353eab2bd9c5d06", "lon": -77.03437966666667, "rental_uris": {"android": "https://dc.lft.to/lastmile_qr_scan", "ios": "https://dc.lft.to/lastmile_qr_scan"}, "fusion_lon": 0.0, "bike_id": "3766ce7e3e4c639ec353eab2bd9c5d06", "is_disabled": 0, "lat": 38.930901666666664, "is_reserved": 0, "type": "electric_scooter"}, {"fusion_lat": 0.0, "name": "f434b354858a8df7deb7109dfd099bd8", "lon": -77.01489016666666, "rental_uris": {"android": "https://dc.lft.to/lastmile_qr_scan", "ios": "https://dc.lft.to/lastmile_qr_scan"}, "fusion_lon": 0.0, "bike_id": "f434b354858a8df7deb7109dfd099bd8", "is_disabled": 0, "lat": 38.892202166666664, "is_reserved": 0, "type": "electric_scooter"}, {"fusion_lat": 0.0, "name": "f8173a0d723a71778f1bcb20f4444a5d", "lon": -77.0340385, "rental_uris": {"android": "https://dc.lft.to/lastmile_qr_scan", "ios": "https://dc.lft.to/lastmile_qr_scan"}, "fusion_lon": 0.0, "bike_id": "f8173a0d723a71778f1bcb20f4444a5d", "is_disabled": 0, "lat": 38.92442283333333, "is_reserved": 0, "type": "electric_scooter"}, {"fusion_lat": 0.0, "name": "d032248dad6a81c2d414a5f38625198c", "lon": -77.04341816666667, "rental_uris": {"android": "https://dc.lft.to/lastmile_qr_scan", "ios": "https://dc.lft.to/lastmile_qr_scan"}, "fusion_lon": 0.0, "bike_id": "d032248dad6a81c2d414a5f38625198c", "is_disabled": 0, "lat": 38.92188683333333, "is_reserved": 0, "type": "electric_scooter"}, {"fusion_lat": 0.0, "name": "77b3692816887bd82da034cb3292fca5", "lon": -77.0314335, "rental_uris": {"android": "https://dc.lft.to/lastmile_qr_scan", "ios": "https://dc.lft.to/lastmile_qr_scan"}, "fusion_lon": 0.0, "bike_id": "77b3692816887bd82da034cb3292fca5", "is_disabled": 0, "lat": 38.91926016666667, "is_reserved": 0, "type": "electric_scooter"}, {"fusion_lat": 0.0, "name": "f369bdbc806a7f051a342cc1587fccdf", "lon": -77.022027, "rental_uris": {"android": "https://dc.lft.to/lastmile_qr_scan", "ios": "https://dc.lft.to/lastmile_qr_scan"}, "fusion_lon": 0.0, "bike_id": "f369bdbc806a7f051a342cc1587fccdf", "is_disabled": 0, "lat": 38.914268666666665, "is_reserved": 0, "type": "electric_scooter"}, {"fusion_lat": 0.0, "name": "d3de2a8eb4392b45d3d93892dee784c9", "lon": -76.97327716666666, "rental_uris": {"android": "https://dc.lft.to/lastmile_qr_scan", "ios": "https://dc.lft.to/lastmile_qr_scan"}, "fusion_lon": 0.0, "bike_id": "d3de2a8eb4392b45d3d93892dee784c9", "is_disabled": 0, "lat": 38.90481116666667, "is_reserved": 0, "type": "electric_bike"}, {"fusion_lat": 0.0, "name": "63942f44b46238fb79f077e194efff68", "lon": -77.0438005, "rental_uris": {"android": "https://dc.lft.to/lastmile_qr_scan", "ios": "https://dc.lft.to/lastmile_qr_scan"}, "fusion_lon": 0.0, "bike_id": "63942f44b46238fb79f077e194efff68", "is_disabled": 0, "lat": 38.89751866666667, "is_reserved": 0, "type": "electric_scooter"}, {"fusion_lat": 0.0, "name": "a11981d180304799764526cf5305c1b1", "lon": -77.04472083333333, "rental_uris": {"android": "https://dc.lft.to/lastmile_qr_scan", "ios": "https://dc.lft.to/lastmile_qr_scan"}, "fusion_lon": 0.0, "bike_id": "a11981d180304799764526cf5305c1b1", "is_disabled": 0, "lat": 38.892203, "is_reserved": 0, "type": "electric_scooter"}, {"fusion_lat": 0.0, "name": "be76b6d67ffa5ae13ff23867d7204394", "lon": -76.98883816666667, "rental_uris": {"android": "https://dc.lft.to/lastmile_qr_scan", "ios": "https://dc.lft.to/lastmile_qr_scan"}, "fusion_lon": 0.0, "bike_id": "be76b6d67ffa5ae13ff23867d7204394", "is_disabled": 0, "lat": 38.86654816666667, "is_reserved": 0, "type": "electric_scooter"}, {"fusion_lat": 0.0, "name": "4d03963a0198f2eb39b82232730033c9", "lon": -77.23334216666667, "rental_uris": {"android": "https://dc.lft.to/lastmile_qr_scan", "ios": "https://dc.lft.to/lastmile_qr_scan"}, "fusion_lon": 0.0, "bike_id": "4d03963a0198f2eb39b82232730033c9", "is_disabled": 0, "lat": 38.8727485, "is_reserved": 0, "type": "electric_bike"}, {"fusion_lat": 0.0, "name": "f3d1a86b06d0f783f35c60414154d3ed", "lon": -77.01947033333333, "rental_uris": {"android": "https://dc.lft.to/lastmile_qr_scan", "ios": "https://dc.lft.to/lastmile_qr_scan"}, "fusion_lon": 0.0, "bike_id": "f3d1a86b06d0f783f35c60414154d3ed", "is_disabled": 0, "lat": 38.9226275, "is_reserved": 0, "type": "electric_scooter"}, {"fusion_lat": 0.0, "name": "0a7f8ac114b34a624941575f82a9063b", "lon": -77.02301266666667, "rental_uris": {"android": "https://dc.lft.to/lastmile_qr_scan", "ios": "https://dc.lft.to/lastmile_qr_scan"}, "fusion_lon": 0.0, "bike_id": "0a7f8ac114b34a624941575f82a9063b", "is_disabled": 0, "lat": 38.910330333333334, "is_reserved": 0, "type": "electric_scooter"}, {"fusion_lat": 0.0, "name": "bab2a01a80c5b2da0a33b4968b8f1de4", "lon": -77.03497616666667, "rental_uris": {"android": "https://dc.lft.to/lastmile_qr_scan", "ios": "https://dc.lft.to/lastmile_qr_scan"}, "fusion_lon": 0.0, "bike_id": "bab2a01a80c5b2da0a33b4968b8f1de4", "is_disabled": 0, "lat": 38.925410166666666, "is_reserved": 0, "type": "electric_scooter"}, {"fusion_lat": 0.0, "name": "555c53ab8126448aab43981415d487ff", "lon": -77.02467016666667, "rental_uris": {"android": "https://dc.lft.to/lastmile_qr_scan", "ios": "https://dc.lft.to/lastmile_qr_scan"}, "fusion_lon": 0.0, "bike_id": "555c53ab8126448aab43981415d487ff", "is_disabled": 0, "lat": 38.955305333333335, "is_reserved": 0, "type": "electric_scooter"}, {"fusion_lat": 0.0, "name": "1d2eb137b88d1c03e90f26ee8820ae9d", "lon": -77.029689, "rental_uris": {"android": "https://dc.lft.to/lastmile_qr_scan", "ios": "https://dc.lft.to/lastmile_qr_scan"}, "fusion_lon": 0.0, "bike_id": "1d2eb137b88d1c03e90f26ee8820ae9d", "is_disabled": 0, "lat": 38.926889333333335, "is_reserved": 0, "type": "electric_scooter"}, {"fusion_lat": 0.0, "name": "931bb0a51beadc477aeebe99ef7b5ce0", "lon": -77.05008516666666, "rental_uris": {"android": "https://dc.lft.to/lastmile_qr_scan", "ios": "https://dc.lft.to/lastmile_qr_scan"}, "fusion_lon": 0.0, "bike_id": "931bb0a51beadc477aeebe99ef7b5ce0", "is_disabled": 0, "lat": 38.8923005, "is_reserved": 0, "type": "electric_scooter"}, {"fusion_lat": 0.0, "name": "e320c287f8c9817a975f6bdb31386745", "lon": -76.948304, "rental_uris": {"android": "https://dc.lft.to/lastmile_qr_scan", "ios": "https://dc.lft.to/lastmile_qr_scan"}, "fusion_lon": 0.0, "bike_id": "e320c287f8c9817a975f6bdb31386745", "is_disabled": 0, "lat": 38.893666833333334, "is_reserved": 0, "type": "electric_scooter"}, {"fusion_lat": 0.0, "name": "71eeee1087dfc0374cc09fdc3dd5e137", "lon": -77.068927, "rental_uris": {"android": "https://dc.lft.to/lastmile_qr_scan", "ios": "https://dc.lft.to/lastmile_qr_scan"}, "fusion_lon": 0.0, "bike_id": "71eeee1087dfc0374cc09fdc3dd5e137", "is_disabled": 0, "lat": 38.90510483333333, "is_reserved": 0, "type": "electric_scooter"}, {"fusion_lat": 0.0, "name": "22ed9dd887df0b0eb13df008c643b02a", "lon": -77.02353783333334, "rental_uris": {"android": "https://dc.lft.to/lastmile_qr_scan", "ios": "https://dc.lft.to/lastmile_qr_scan"}, "fusion_lon": 0.0, "bike_id": "22ed9dd887df0b0eb13df008c643b02a", "is_disabled": 0, "lat": 38.93177583333333, "is_reserved": 0, "type": "electric_scooter"}, {"fusion_lat": 0.0, "name": "7e4c4bf324931be50bd1da69343e937a", "lon": -77.032975, "rental_uris": {"android": "https://dc.lft.to/lastmile_qr_scan", "ios": "https://dc.lft.to/lastmile_qr_scan"}, "fusion_lon": 0.0, "bike_id": "7e4c4bf324931be50bd1da69343e937a", "is_disabled": 0, "lat": 38.898171, "is_reserved": 0, "type": "electric_scooter"}, {"fusion_lat": 0.0, "name": "44890fe16937ec8583c4a7c2a6bf011d", "lon": -77.03194383333333, "rental_uris": {"android": "https://dc.lft.to/lastmile_qr_scan", "ios": "https://dc.lft.to/lastmile_qr_scan"}, "fusion_lon": 0.0, "bike_id": "44890fe16937ec8583c4a7c2a6bf011d", "is_disabled": 0, "lat": 38.918215000000004, "is_reserved": 0, "type": "electric_scooter"}, {"fusion_lat": 0.0, "name": "a6eade3f2939a78d4bc21b28cc7d4950", "lon": -77.0234655, "rental_uris": {"android": "https://dc.lft.to/lastmile_qr_scan", "ios": "https://dc.lft.to/lastmile_qr_scan"}, "fusion_lon": 0.0, "bike_id": "a6eade3f2939a78d4bc21b28cc7d4950", "is_disabled": 0, "lat": 38.892252166666665, "is_reserved": 0, "type": "electric_scooter"}, {"fusion_lat": 0.0, "name": "30096325a2c3d024779407f555f688ff", "lon": -77.0376875, "rental_uris": {"android": "https://dc.lft.to/lastmile_qr_scan", "ios": "https://dc.lft.to/lastmile_qr_scan"}, "fusion_lon": 0.0, "bike_id": "30096325a2c3d024779407f555f688ff", "is_disabled": 0, "lat": 38.918856166666664, "is_reserved": 0, "type": "electric_scooter"}, {"fusion_lat": 0.0, "name": "882ce3a36c68010b8fb835b288c9b7ec", "lon": -76.9893675, "rental_uris": {"android": "https://dc.lft.to/lastmile_qr_scan", "ios": "https://dc.lft.to/lastmile_qr_scan"}, "fusion_lon": 0.0, "bike_id": "882ce3a36c68010b8fb835b288c9b7ec", "is_disabled": 0, "lat": 38.8572805, "is_reserved": 0, "type": "electric_scooter"}, {"fusion_lat": 0.0, "name": "bb2187502eb242fa9381ab484315d47e", "lon": -77.04156933333333, "rental_uris": {"android": "https://dc.lft.to/lastmile_qr_scan", "ios": "https://dc.lft.to/lastmile_qr_scan"}, "fusion_lon": 0.0, "bike_id": "bb2187502eb242fa9381ab484315d47e", "is_disabled": 0, "lat": 38.917157833333334, "is_reserved": 0, "type": "electric_scooter"}, {"fusion_lat": 0.0, "name": "d2d8013f173fd955621253f9566ce1e7", "lon": -76.99304416666666, "rental_uris": {"android": "https://dc.lft.to/lastmile_qr_scan", "ios": "https://dc.lft.to/lastmile_qr_scan"}, "fusion_lon": 0.0, "bike_id": "d2d8013f173fd955621253f9566ce1e7", "is_disabled": 0, "lat": 38.907643666666665, "is_reserved": 0, "type": "electric_scooter"}, {"fusion_lat": 0.0, "name": "a370efff95d21d18bc5e5417c588ae3d", "lon": -77.0175925, "rental_uris": {"android": "https://dc.lft.to/lastmile_qr_scan", "ios": "https://dc.lft.to/lastmile_qr_scan"}, "fusion_lon": 0.0, "bike_id": "a370efff95d21d18bc5e5417c588ae3d", "is_disabled": 0, "lat": 38.901142166666666, "is_reserved": 0, "type": "electric_scooter"}, {"fusion_lat": 0.0, "name": "c9f665cab59b885fccadea8c742f08d1", "lon": -77.003767, "rental_uris": {"android": "https://dc.lft.to/lastmile_qr_scan", "ios": "https://dc.lft.to/lastmile_qr_scan"}, "fusion_lon": 0.0, "bike_id": "c9f665cab59b885fccadea8c742f08d1", "is_disabled": 0, "lat": 38.87635383333333, "is_reserved": 0, "type": "electric_scooter"}, {"fusion_lat": 0.0, "name": "6545babb2e05e90e9e62697733b92931", "lon": -77.03439616666667, "rental_uris": {"android": "https://dc.lft.to/lastmile_qr_scan", "ios": "https://dc.lft.to/lastmile_qr_scan"}, "fusion_lon": 0.0, "bike_id": "6545babb2e05e90e9e62697733b92931", "is_disabled": 0, "lat": 38.91033066666667, "is_reserved": 0, "type": "electric_scooter"}, {"fusion_lat": 0.0, "name": "c366f139618e0b3c4430bd27469bbf7e", "lon": -77.0273655, "rental_uris": {"android": "https://dc.lft.to/lastmile_qr_scan", "ios": "https://dc.lft.to/lastmile_qr_scan"}, "fusion_lon": 0.0, "bike_id": "c366f139618e0b3c4430bd27469bbf7e", "is_disabled": 0, "lat": 38.88744166666667, "is_reserved": 0, "type": "electric_scooter"}, {"fusion_lat": 0.0, "name": "84b4efb2c45730ab7020effd34bad2a7", "lon": -77.007284, "rental_uris": {"android": "https://dc.lft.to/lastmile_qr_scan", "ios": "https://dc.lft.to/lastmile_qr_scan"}, "fusion_lon": 0.0, "bike_id": "84b4efb2c45730ab7020effd34bad2a7", "is_disabled": 0, "lat": 38.904748833333336, "is_reserved": 0, "type": "electric_scooter"}, {"fusion_lat": 0.0, "name": "75b2a2a162a925b2e4c95f1aef437dcb", "lon": -76.99358516666666, "rental_uris": {"android": "https://dc.lft.to/lastmile_qr_scan", "ios": "https://dc.lft.to/lastmile_qr_scan"}, "fusion_lon": 0.0, "bike_id": "75b2a2a162a925b2e4c95f1aef437dcb", "is_disabled": 0, "lat": 38.8778505, "is_reserved": 0, "type": "electric_scooter"}, {"fusion_lat": 0.0, "name": "dfa2cac7a6273561cab033e22ef34723", "lon": -77.015754, "rental_uris": {"android": "https://dc.lft.to/lastmile_qr_scan", "ios": "https://dc.lft.to/lastmile_qr_scan"}, "fusion_lon": 0.0, "bike_id": "dfa2cac7a6273561cab033e22ef34723", "is_disabled": 0, "lat": 38.88517016666667, "is_reserved": 0, "type": "electric_scooter"}, {"fusion_lat": 0.0, "name": "9425b3c0b93142b1f14461b86acc006c", "lon": -77.0645165, "rental_uris": {"android": "https://dc.lft.to/lastmile_qr_scan", "ios": "https://dc.lft.to/lastmile_qr_scan"}, "fusion_lon": 0.0, "bike_id": "9425b3c0b93142b1f14461b86acc006c", "is_disabled": 0, "lat": 38.90519583333333, "is_reserved": 0, "type": "electric_scooter"}, {"fusion_lat": 0.0, "name": "caa2c86cbb2354a822ec69f33cfb3342", "lon": -77.072284, "rental_uris": {"android": "https://dc.lft.to/lastmile_qr_scan", "ios": "https://dc.lft.to/lastmile_qr_scan"}, "fusion_lon": 0.0, "bike_id": "caa2c86cbb2354a822ec69f33cfb3342", "is_disabled": 0, "lat": 38.968108666666666, "is_reserved": 0, "type": "electric_bike"}, {"fusion_lat": 0.0, "name": "6524b2b180194b192db4992754fe2b0c", "lon": -77.06588166666667, "rental_uris": {"android": "https://dc.lft.to/lastmile_qr_scan", "ios": "https://dc.lft.to/lastmile_qr_scan"}, "fusion_lon": 0.0, "bike_id": "6524b2b180194b192db4992754fe2b0c", "is_disabled": 0, "lat": 38.9124505, "is_reserved": 0, "type": "electric_bike"}, {"fusion_lat": 0.0, "name": "d001492166c227f7869c2781678fb1d7", "lon": -77.04242083333334, "rental_uris": {"android": "https://dc.lft.to/lastmile_qr_scan", "ios": "https://dc.lft.to/lastmile_qr_scan"}, "fusion_lon": 0.0, "bike_id": "d001492166c227f7869c2781678fb1d7", "is_disabled": 0, "lat": 38.9222535, "is_reserved": 0, "type": "electric_scooter"}, {"fusion_lat": 0.0, "name": "6493c2ea6d178f73a6827dd3e346905a", "lon": -77.01888666666666, "rental_uris": {"android": "https://dc.lft.to/lastmile_qr_scan", "ios": "https://dc.lft.to/lastmile_qr_scan"}, "fusion_lon": 0.0, "bike_id": "6493c2ea6d178f73a6827dd3e346905a", "is_disabled": 0, "lat": 38.914540833333334, "is_reserved": 0, "type": "electric_scooter"}, {"fusion_lat": 0.0, "name": "67e29a447e315bd2685af226bed54734", "lon": -76.9609065, "rental_uris": {"android": "https://dc.lft.to/lastmile_qr_scan", "ios": "https://dc.lft.to/lastmile_qr_scan"}, "fusion_lon": 0.0, "bike_id": "67e29a447e315bd2685af226bed54734", "is_disabled": 0, "lat": 38.918594, "is_reserved": 0, "type": "electric_bike"}, {"fusion_lat": 0.0, "name": "79537513c0b7198d6436068b1635dc6d", "lon": -77.03254066666666, "rental_uris": {"android": "https://dc.lft.to/lastmile_qr_scan", "ios": "https://dc.lft.to/lastmile_qr_scan"}, "fusion_lon": 0.0, "bike_id": "79537513c0b7198d6436068b1635dc6d", "is_disabled": 0, "lat": 38.903913333333335, "is_reserved": 0, "type": "electric_scooter"}, {"fusion_lat": 0.0, "name": "c8dc711838c378367dfb25681b4fb5f3", "lon": -77.03223683333333, "rental_uris": {"android": "https://dc.lft.to/lastmile_qr_scan", "ios": "https://dc.lft.to/lastmile_qr_scan"}, "fusion_lon": 0.0, "bike_id": "c8dc711838c378367dfb25681b4fb5f3", "is_disabled": 0, "lat": 38.917808, "is_reserved": 0, "type": "electric_scooter"}, {"fusion_lat": 0.0, "name": "d9d252a06a717135fdf9eb041bd7a3fe", "lon": -77.04668383333333, "rental_uris": {"android": "https://dc.lft.to/lastmile_qr_scan", "ios": "https://dc.lft.to/lastmile_qr_scan"}, "fusion_lon": 0.0, "bike_id": "d9d252a06a717135fdf9eb041bd7a3fe", "is_disabled": 0, "lat": 38.90934, "is_reserved": 0, "type": "electric_scooter"}, {"fusion_lat": 0.0, "name": "9bbb1b3ea9ab967656941460cd721c48", "lon": -77.05571516666667, "rental_uris": {"android": "https://dc.lft.to/lastmile_qr_scan", "ios": "https://dc.lft.to/lastmile_qr_scan"}, "fusion_lon": 0.0, "bike_id": "9bbb1b3ea9ab967656941460cd721c48", "is_disabled": 0, "lat": 38.897321, "is_reserved": 0, "type": "electric_scooter"}, {"fusion_lat": 0.0, "name": "04228b4d5923d68c226cfc9a7932844c", "lon": -77.0009035, "rental_uris": {"android": "https://dc.lft.to/lastmile_qr_scan", "ios": "https://dc.lft.to/lastmile_qr_scan"}, "fusion_lon": 0.0, "bike_id": "04228b4d5923d68c226cfc9a7932844c", "is_disabled": 0, "lat": 38.90727283333333, "is_reserved": 0, "type": "electric_bike"}, {"fusion_lat": 0.0, "name": "4facbd1bed17cb3042c6e7c7a4ec0193", "lon": -76.98491383333334, "rental_uris": {"android": "https://dc.lft.to/lastmile_qr_scan", "ios": "https://dc.lft.to/lastmile_qr_scan"}, "fusion_lon": 0.0, "bike_id": "4facbd1bed17cb3042c6e7c7a4ec0193", "is_disabled": 0, "lat": 38.90438133333333, "is_reserved": 0, "type": "electric_scooter"}, {"fusion_lat": 0.0, "name": "a15bc4534ad2896a8807c8b2c9ef1a93", "lon": -77.05232883333333, "rental_uris": {"android": "https://dc.lft.to/lastmile_qr_scan", "ios": "https://dc.lft.to/lastmile_qr_scan"}, "fusion_lon": 0.0, "bike_id": "a15bc4534ad2896a8807c8b2c9ef1a93", "is_disabled": 0, "lat": 38.92461083333333, "is_reserved": 0, "type": "electric_scooter"}, {"fusion_lat": 0.0, "name": "9b69f1fdc7879997f35b592d0f08b3ec", "lon": -77.0386395, "rental_uris": {"android": "https://dc.lft.to/lastmile_qr_scan", "ios": "https://dc.lft.to/lastmile_qr_scan"}, "fusion_lon": 0.0, "bike_id": "9b69f1fdc7879997f35b592d0f08b3ec", "is_disabled": 0, "lat": 38.904919666666665, "is_reserved": 0, "type": "electric_scooter"}, {"fusion_lat": 0.0, "name": "ae21f85a3abdbd794a0db7cbbf6b4186", "lon": -77.03184716666667, "rental_uris": {"android": "https://dc.lft.to/lastmile_qr_scan", "ios": "https://dc.lft.to/lastmile_qr_scan"}, "fusion_lon": 0.0, "bike_id": "ae21f85a3abdbd794a0db7cbbf6b4186", "is_disabled": 0, "lat": 38.892245333333335, "is_reserved": 0, "type": "electric_scooter"}, {"fusion_lat": 0.0, "name": "106c8b5221ea1e853a5237e543825cb0", "lon": -76.937308, "rental_uris": {"android": "https://dc.lft.to/lastmile_qr_scan", "ios": "https://dc.lft.to/lastmile_qr_scan"}, "fusion_lon": 0.0, "bike_id": "106c8b5221ea1e853a5237e543825cb0", "is_disabled": 0, "lat": 38.8901945, "is_reserved": 0, "type": "electric_scooter"}, {"fusion_lat": 0.0, "name": "a5eff3f0315aa31e07bc916432262fdb", "lon": -77.00906516666667, "rental_uris": {"android": "https://dc.lft.to/lastmile_qr_scan", "ios": "https://dc.lft.to/lastmile_qr_scan"}, "fusion_lon": 0.0, "bike_id": "a5eff3f0315aa31e07bc916432262fdb", "is_disabled": 0, "lat": 38.89651666666666, "is_reserved": 0, "type": "electric_scooter"}, {"fusion_lat": 0.0, "name": "2424bc86f072c2ac3938fe1e457e4efc", "lon": -77.01950666666667, "rental_uris": {"android": "https://dc.lft.to/lastmile_qr_scan", "ios": "https://dc.lft.to/lastmile_qr_scan"}, "fusion_lon": 0.0, "bike_id": "2424bc86f072c2ac3938fe1e457e4efc", "is_disabled": 0, "lat": 38.922452, "is_reserved": 0, "type": "electric_scooter"}, {"fusion_lat": 0.0, "name": "2c616cec853f1d99cb180d8d31a67a1b", "lon": -77.029651, "rental_uris": {"android": "https://dc.lft.to/lastmile_qr_scan", "ios": "https://dc.lft.to/lastmile_qr_scan"}, "fusion_lon": 0.0, "bike_id": "2c616cec853f1d99cb180d8d31a67a1b", "is_disabled": 0, "lat": 38.922491666666666, "is_reserved": 0, "type": "electric_scooter"}, {"fusion_lat": 0.0, "name": "363fc0a088e73f0aa0861c571c047ee6", "lon": -76.98712666666667, "rental_uris": {"android": "https://dc.lft.to/lastmile_qr_scan", "ios": "https://dc.lft.to/lastmile_qr_scan"}, "fusion_lon": 0.0, "bike_id": "363fc0a088e73f0aa0861c571c047ee6", "is_disabled": 0, "lat": 38.866985166666666, "is_reserved": 0, "type": "electric_scooter"}, {"fusion_lat": 0.0, "name": "ace61207ff12cc585cb1f4bdc196f9f5", "lon": -76.9950035, "rental_uris": {"android": "https://dc.lft.to/lastmile_qr_scan", "ios": "https://dc.lft.to/lastmile_qr_scan"}, "fusion_lon": 0.0, "bike_id": "ace61207ff12cc585cb1f4bdc196f9f5", "is_disabled": 0, "lat": 38.862442, "is_reserved": 0, "type": "electric_scooter"}, {"fusion_lat": 0.0, "name": "776ff50acd88a51fa14cc7bf17900eff", "lon": -77.01132116666666, "rental_uris": {"android": "https://dc.lft.to/lastmile_qr_scan", "ios": "https://dc.lft.to/lastmile_qr_scan"}, "fusion_lon": 0.0, "bike_id": "776ff50acd88a51fa14cc7bf17900eff", "is_disabled": 0, "lat": 38.8804715, "is_reserved": 0, "type": "electric_bike"}, {"fusion_lat": 0.0, "name": "130e549dc08ec3483f43b40384f7907e", "lon": -76.98882833333333, "rental_uris": {"android": "https://dc.lft.to/lastmile_qr_scan", "ios": "https://dc.lft.to/lastmile_qr_scan"}, "fusion_lon": 0.0, "bike_id": "130e549dc08ec3483f43b40384f7907e", "is_disabled": 0, "lat": 38.86655416666667, "is_reserved": 0, "type": "electric_scooter"}, {"fusion_lat": 0.0, "name": "7699622ff04a7bb7f7c7bba682f58a9f", "lon": -77.073313, "rental_uris": {"android": "https://dc.lft.to/lastmile_qr_scan", "ios": "https://dc.lft.to/lastmile_qr_scan"}, "fusion_lon": 0.0, "bike_id": "7699622ff04a7bb7f7c7bba682f58a9f", "is_disabled": 0, "lat": 38.927336833333335, "is_reserved": 0, "type": "electric_scooter"}, {"fusion_lat": 0.0, "name": "bc5a46fd963c139abe249de37d09dfbf", "lon": -77.03849316666667, "rental_uris": {"android": "https://dc.lft.to/lastmile_qr_scan", "ios": "https://dc.lft.to/lastmile_qr_scan"}, "fusion_lon": 0.0, "bike_id": "bc5a46fd963c139abe249de37d09dfbf", "is_disabled": 0, "lat": 38.93185066666667, "is_reserved": 0, "type": "electric_scooter"}, {"fusion_lat": 0.0, "name": "f849ea7c2cbe8ea41e55aa07c0fc5689", "lon": -77.03296466666667, "rental_uris": {"android": "https://dc.lft.to/lastmile_qr_scan", "ios": "https://dc.lft.to/lastmile_qr_scan"}, "fusion_lon": 0.0, "bike_id": "f849ea7c2cbe8ea41e55aa07c0fc5689", "is_disabled": 0, "lat": 38.89760783333333, "is_reserved": 0, "type": "electric_scooter"}, {"fusion_lat": 0.0, "name": "5e96a7e0e8b7454756129c6b33397999", "lon": -77.000708, "rental_uris": {"android": "https://dc.lft.to/lastmile_qr_scan", "ios": "https://dc.lft.to/lastmile_qr_scan"}, "fusion_lon": 0.0, "bike_id": "5e96a7e0e8b7454756129c6b33397999", "is_disabled": 0, "lat": 38.907161333333335, "is_reserved": 0, "type": "electric_scooter"}, {"fusion_lat": 0.0, "name": "e3eb4678ffb1efccf6f2c4bd245d90d9", "lon": -76.98673733333334, "rental_uris": {"android": "https://dc.lft.to/lastmile_qr_scan", "ios": "https://dc.lft.to/lastmile_qr_scan"}, "fusion_lon": 0.0, "bike_id": "e3eb4678ffb1efccf6f2c4bd245d90d9", "is_disabled": 0, "lat": 38.951237, "is_reserved": 0, "type": "electric_scooter"}, {"fusion_lat": 0.0, "name": "dd184da2cdbdbad09e2c33ba74f3214b", "lon": -77.0280125, "rental_uris": {"android": "https://dc.lft.to/lastmile_qr_scan", "ios": "https://dc.lft.to/lastmile_qr_scan"}, "fusion_lon": 0.0, "bike_id": "dd184da2cdbdbad09e2c33ba74f3214b", "is_disabled": 0, "lat": 38.892316666666666, "is_reserved": 0, "type": "electric_scooter"}, {"fusion_lat": 0.0, "name": "b5581de2ddc5b83a51b0a774c9239934", "lon": -77.05046966666667, "rental_uris": {"android": "https://dc.lft.to/lastmile_qr_scan", "ios": "https://dc.lft.to/lastmile_qr_scan"}, "fusion_lon": 0.0, "bike_id": "b5581de2ddc5b83a51b0a774c9239934", "is_disabled": 0, "lat": 38.925168666666664, "is_reserved": 0, "type": "electric_scooter"}, {"fusion_lat": 0.0, "name": "c9eb86f300a85e1ac49ffb6af2df11c6", "lon": -77.02797983333333, "rental_uris": {"android": "https://dc.lft.to/lastmile_qr_scan", "ios": "https://dc.lft.to/lastmile_qr_scan"}, "fusion_lon": 0.0, "bike_id": "c9eb86f300a85e1ac49ffb6af2df11c6", "is_disabled": 0, "lat": 38.9428715, "is_reserved": 0, "type": "electric_scooter"}, {"fusion_lat": 0.0, "name": "f3f751f48986804a02b4e1860af44c17", "lon": -77.00032366666667, "rental_uris": {"android": "https://dc.lft.to/lastmile_qr_scan", "ios": "https://dc.lft.to/lastmile_qr_scan"}, "fusion_lon": 0.0, "bike_id": "f3f751f48986804a02b4e1860af44c17", "is_disabled": 0, "lat": 38.8739865, "is_reserved": 0, "type": "electric_scooter"}, {"fusion_lat": 0.0, "name": "11bdf9a17aaea35ba0853e37de45e86d", "lon": -77.01628533333333, "rental_uris": {"android": "https://dc.lft.to/lastmile_qr_scan", "ios": "https://dc.lft.to/lastmile_qr_scan"}, "fusion_lon": 0.0, "bike_id": "11bdf9a17aaea35ba0853e37de45e86d", "is_disabled": 0, "lat": 38.90682566666667, "is_reserved": 0, "type": "electric_scooter"}, {"fusion_lat": 0.0, "name": "564b70488e96eec1c9080ac2ee267a1b", "lon": -77.04162716666667, "rental_uris": {"android": "https://dc.lft.to/lastmile_qr_scan", "ios": "https://dc.lft.to/lastmile_qr_scan"}, "fusion_lon": 0.0, "bike_id": "564b70488e96eec1c9080ac2ee267a1b", "is_disabled": 0, "lat": 38.892379, "is_reserved": 0, "type": "electric_scooter"}, {"fusion_lat": 0.0, "name": "89591454b9bb7b1242753d6950e1e7f8", "lon": -77.04253466666667, "rental_uris": {"android": "https://dc.lft.to/lastmile_qr_scan", "ios": "https://dc.lft.to/lastmile_qr_scan"}, "fusion_lon": 0.0, "bike_id": "89591454b9bb7b1242753d6950e1e7f8", "is_disabled": 0, "lat": 38.92199883333333, "is_reserved": 0, "type": "electric_scooter"}, {"fusion_lat": 0.0, "name": "f0f93a02c1c6ae3dfbf56c178531a770", "lon": -76.995024, "rental_uris": {"android": "https://dc.lft.to/lastmile_qr_scan", "ios": "https://dc.lft.to/lastmile_qr_scan"}, "fusion_lon": 0.0, "bike_id": "f0f93a02c1c6ae3dfbf56c178531a770", "is_disabled": 0, "lat": 38.86243866666667, "is_reserved": 0, "type": "electric_scooter"}, {"fusion_lat": 0.0, "name": "c1ab403bbf101246b0e5c59f44f07ed5", "lon": -77.046774, "rental_uris": {"android": "https://dc.lft.to/lastmile_qr_scan", "ios": "https://dc.lft.to/lastmile_qr_scan"}, "fusion_lon": 0.0, "bike_id": "c1ab403bbf101246b0e5c59f44f07ed5", "is_disabled": 0, "lat": 38.8955535, "is_reserved": 0, "type": "electric_scooter"}, {"fusion_lat": 0.0, "name": "f912dbceb6d5120d436c9379606e2dc7", "lon": -77.00921383333333, "rental_uris": {"android": "https://dc.lft.to/lastmile_qr_scan", "ios": "https://dc.lft.to/lastmile_qr_scan"}, "fusion_lon": 0.0, "bike_id": "f912dbceb6d5120d436c9379606e2dc7", "is_disabled": 0, "lat": 38.92248716666667, "is_reserved": 0, "type": "electric_scooter"}, {"fusion_lat": 0.0, "name": "1a02817c2ae294cb517af98c5d90d1f4", "lon": -77.06929366666667, "rental_uris": {"android": "https://dc.lft.to/lastmile_qr_scan", "ios": "https://dc.lft.to/lastmile_qr_scan"}, "fusion_lon": 0.0, "bike_id": "1a02817c2ae294cb517af98c5d90d1f4", "is_disabled": 0, "lat": 38.913593166666665, "is_reserved": 0, "type": "electric_scooter"}, {"fusion_lat": 0.0, "name": "6eedd2b3e16c4e7bd09555f932abd788", "lon": -77.01625866666667, "rental_uris": {"android": "https://dc.lft.to/lastmile_qr_scan", "ios": "https://dc.lft.to/lastmile_qr_scan"}, "fusion_lon": 0.0, "bike_id": "6eedd2b3e16c4e7bd09555f932abd788", "is_disabled": 0, "lat": 38.9060205, "is_reserved": 0, "type": "electric_scooter"}, {"fusion_lat": 0.0, "name": "d5de7578a6f4c242d332e660c6fe7a29", "lon": -77.01306583333333, "rental_uris": {"android": "https://dc.lft.to/lastmile_qr_scan", "ios": "https://dc.lft.to/lastmile_qr_scan"}, "fusion_lon": 0.0, "bike_id": "d5de7578a6f4c242d332e660c6fe7a29", "is_disabled": 0, "lat": 38.92015633333333, "is_reserved": 0, "type": "electric_scooter"}, {"fusion_lat": 0.0, "name": "e80bece964bb72c826ca1828c5ad6bdc", "lon": -77.05478266666667, "rental_uris": {"android": "https://dc.lft.to/lastmile_qr_scan", "ios": "https://dc.lft.to/lastmile_qr_scan"}, "fusion_lon": 0.0, "bike_id": "e80bece964bb72c826ca1828c5ad6bdc", "is_disabled": 0, "lat": 38.8001875, "is_reserved": 0, "type": "electric_bike"}, {"fusion_lat": 0.0, "name": "9dfd7641278563204804941d51484ad8", "lon": -77.00600383333334, "rental_uris": {"android": "https://dc.lft.to/lastmile_qr_scan", "ios": "https://dc.lft.to/lastmile_qr_scan"}, "fusion_lon": 0.0, "bike_id": "9dfd7641278563204804941d51484ad8", "is_disabled": 0, "lat": 38.871851, "is_reserved": 0, "type": "electric_scooter"}, {"fusion_lat": 0.0, "name": "5dd8a91a71e3ddc25eebb9b03b98e938", "lon": -77.03363883333333, "rental_uris": {"android": "https://dc.lft.to/lastmile_qr_scan", "ios": "https://dc.lft.to/lastmile_qr_scan"}, "fusion_lon": 0.0, "bike_id": "5dd8a91a71e3ddc25eebb9b03b98e938", "is_disabled": 0, "lat": 38.89965466666666, "is_reserved": 0, "type": "electric_scooter"}, {"fusion_lat": 0.0, "name": "7ee774fc032cc32ee4346eff9e1ced39", "lon": -77.018497, "rental_uris": {"android": "https://dc.lft.to/lastmile_qr_scan", "ios": "https://dc.lft.to/lastmile_qr_scan"}, "fusion_lon": 0.0, "bike_id": "7ee774fc032cc32ee4346eff9e1ced39", "is_disabled": 0, "lat": 38.90576883333333, "is_reserved": 0, "type": "electric_scooter"}, {"fusion_lat": 0.0, "name": "9eec88024e6038ccdc33215e31a3da27", "lon": -77.02390566666666, "rental_uris": {"android": "https://dc.lft.to/lastmile_qr_scan", "ios": "https://dc.lft.to/lastmile_qr_scan"}, "fusion_lon": 0.0, "bike_id": "9eec88024e6038ccdc33215e31a3da27", "is_disabled": 0, "lat": 38.91564366666667, "is_reserved": 0, "type": "electric_scooter"}, {"fusion_lat": 0.0, "name": "2a3131b7d9548d67d3cbc42e12f6a653", "lon": -77.0315185, "rental_uris": {"android": "https://dc.lft.to/lastmile_qr_scan", "ios": "https://dc.lft.to/lastmile_qr_scan"}, "fusion_lon": 0.0, "bike_id": "2a3131b7d9548d67d3cbc42e12f6a653", "is_disabled": 0, "lat": 38.911069166666664, "is_reserved": 0, "type": "electric_scooter"}, {"fusion_lat": 0.0, "name": "a2a37c8c5c9e7907d59b7c8fa0f90f8b", "lon": -77.01583283333333, "rental_uris": {"android": "https://dc.lft.to/lastmile_qr_scan", "ios": "https://dc.lft.to/lastmile_qr_scan"}, "fusion_lon": 0.0, "bike_id": "a2a37c8c5c9e7907d59b7c8fa0f90f8b", "is_disabled": 0, "lat": 38.885157, "is_reserved": 0, "type": "electric_scooter"}, {"fusion_lat": 0.0, "name": "d4c5b511307cd998fe6e4da34591776c", "lon": -77.07596733333334, "rental_uris": {"android": "https://dc.lft.to/lastmile_qr_scan", "ios": "https://dc.lft.to/lastmile_qr_scan"}, "fusion_lon": 0.0, "bike_id": "d4c5b511307cd998fe6e4da34591776c", "is_disabled": 0, "lat": 38.912131333333335, "is_reserved": 0, "type": "electric_scooter"}, {"fusion_lat": 0.0, "name": "034de83d5063e105d52f8bd2a1f8465e", "lon": -77.04245816666666, "rental_uris": {"android": "https://dc.lft.to/lastmile_qr_scan", "ios": "https://dc.lft.to/lastmile_qr_scan"}, "fusion_lon": 0.0, "bike_id": "034de83d5063e105d52f8bd2a1f8465e", "is_disabled": 0, "lat": 38.9222145, "is_reserved": 0, "type": "electric_scooter"}, {"fusion_lat": 0.0, "name": "9fb367a249ae6fbfa5077d10978dbceb", "lon": -76.99811283333334, "rental_uris": {"android": "https://dc.lft.to/lastmile_qr_scan", "ios": "https://dc.lft.to/lastmile_qr_scan"}, "fusion_lon": 0.0, "bike_id": "9fb367a249ae6fbfa5077d10978dbceb", "is_disabled": 0, "lat": 38.908488166666665, "is_reserved": 0, "type": "electric_scooter"}, {"fusion_lat": 0.0, "name": "0f5f08c58913a1f0bc789c28f2bae1bc", "lon": -77.01752216666667, "rental_uris": {"android": "https://dc.lft.to/lastmile_qr_scan", "ios": "https://dc.lft.to/lastmile_qr_scan"}, "fusion_lon": 0.0, "bike_id": "0f5f08c58913a1f0bc789c28f2bae1bc", "is_disabled": 0, "lat": 38.949209833333335, "is_reserved": 0, "type": "electric_scooter"}, {"fusion_lat": 0.0, "name": "3e2a3d5cfbdc19b076fbe1d451b2cc15", "lon": -77.03109633333334, "rental_uris": {"android": "https://dc.lft.to/lastmile_qr_scan", "ios": "https://dc.lft.to/lastmile_qr_scan"}, "fusion_lon": 0.0, "bike_id": "3e2a3d5cfbdc19b076fbe1d451b2cc15", "is_disabled": 0, "lat": 38.89222983333333, "is_reserved": 0, "type": "electric_scooter"}, {"fusion_lat": 0.0, "name": "e749138f64040cb05320048b83fd1533", "lon": -77.04311, "rental_uris": {"android": "https://dc.lft.to/lastmile_qr_scan", "ios": "https://dc.lft.to/lastmile_qr_scan"}, "fusion_lon": 0.0, "bike_id": "e749138f64040cb05320048b83fd1533", "is_disabled": 0, "lat": 38.892218, "is_reserved": 0, "type": "electric_scooter"}, {"fusion_lat": 0.0, "name": "88b27885c4e7c2e7103de5c8aa6ecbad", "lon": -77.02615183333333, "rental_uris": {"android": "https://dc.lft.to/lastmile_qr_scan", "ios": "https://dc.lft.to/lastmile_qr_scan"}, "fusion_lon": 0.0, "bike_id": "88b27885c4e7c2e7103de5c8aa6ecbad", "is_disabled": 0, "lat": 38.975688, "is_reserved": 0, "type": "electric_scooter"}, {"fusion_lat": 0.0, "name": "3a8f76bf35cbb60e756f2163ebae13dc", "lon": -77.03070816666667, "rental_uris": {"android": "https://dc.lft.to/lastmile_qr_scan", "ios": "https://dc.lft.to/lastmile_qr_scan"}, "fusion_lon": 0.0, "bike_id": "3a8f76bf35cbb60e756f2163ebae13dc", "is_disabled": 0, "lat": 38.91258833333333, "is_reserved": 0, "type": "electric_scooter"}, {"fusion_lat": 0.0, "name": "6056463fc97245bb98a8c6d502d6337c", "lon": -77.0466305, "rental_uris": {"android": "https://dc.lft.to/lastmile_qr_scan", "ios": "https://dc.lft.to/lastmile_qr_scan"}, "fusion_lon": 0.0, "bike_id": "6056463fc97245bb98a8c6d502d6337c", "is_disabled": 0, "lat": 38.89249483333333, "is_reserved": 0, "type": "electric_scooter"}, {"fusion_lat": 0.0, "name": "870e518aedc1c1e20847f5aa9e526661", "lon": -77.05783383333333, "rental_uris": {"android": "https://dc.lft.to/lastmile_qr_scan", "ios": "https://dc.lft.to/lastmile_qr_scan"}, "fusion_lon": 0.0, "bike_id": "870e518aedc1c1e20847f5aa9e526661", "is_disabled": 0, "lat": 38.934624, "is_reserved": 0, "type": "electric_scooter"}, {"fusion_lat": 0.0, "name": "7d72b65e77cda78581fdc48d9850bcd7", "lon": -77.04465383333333, "rental_uris": {"android": "https://dc.lft.to/lastmile_qr_scan", "ios": "https://dc.lft.to/lastmile_qr_scan"}, "fusion_lon": 0.0, "bike_id": "7d72b65e77cda78581fdc48d9850bcd7", "is_disabled": 0, "lat": 38.922973666666664, "is_reserved": 0, "type": "electric_scooter"}, {"fusion_lat": 0.0, "name": "4f4c0d2ff9c8fac190cc948d95707536", "lon": -77.02716766666667, "rental_uris": {"android": "https://dc.lft.to/lastmile_qr_scan", "ios": "https://dc.lft.to/lastmile_qr_scan"}, "fusion_lon": 0.0, "bike_id": "4f4c0d2ff9c8fac190cc948d95707536", "is_disabled": 0, "lat": 38.90952433333333, "is_reserved": 0, "type": "electric_scooter"}, {"fusion_lat": 0.0, "name": "8ad674f7d0361e1773669d8ef014c621", "lon": -76.9317745, "rental_uris": {"android": "https://dc.lft.to/lastmile_qr_scan", "ios": "https://dc.lft.to/lastmile_qr_scan"}, "fusion_lon": 0.0, "bike_id": "8ad674f7d0361e1773669d8ef014c621", "is_disabled": 0, "lat": 38.898846166666665, "is_reserved": 0, "type": "electric_scooter"}, {"fusion_lat": 0.0, "name": "2a0bbf56e147ac288208927b04bcc772", "lon": -77.05166533333333, "rental_uris": {"android": "https://dc.lft.to/lastmile_qr_scan", "ios": "https://dc.lft.to/lastmile_qr_scan"}, "fusion_lon": 0.0, "bike_id": "2a0bbf56e147ac288208927b04bcc772", "is_disabled": 0, "lat": 38.90606233333333, "is_reserved": 0, "type": "electric_scooter"}, {"fusion_lat": 0.0, "name": "ede20c6628800d2b6dd97a250c4ef461", "lon": -77.001191, "rental_uris": {"android": "https://dc.lft.to/lastmile_qr_scan", "ios": "https://dc.lft.to/lastmile_qr_scan"}, "fusion_lon": 0.0, "bike_id": "ede20c6628800d2b6dd97a250c4ef461", "is_disabled": 0, "lat": 38.8738645, "is_reserved": 0, "type": "electric_scooter"}, {"fusion_lat": 0.0, "name": "17212869fbcfcd1f920e1a3d54ff52c5", "lon": -77.04003983333334, "rental_uris": {"android": "https://dc.lft.to/lastmile_qr_scan", "ios": "https://dc.lft.to/lastmile_qr_scan"}, "fusion_lon": 0.0, "bike_id": "17212869fbcfcd1f920e1a3d54ff52c5", "is_disabled": 0, "lat": 38.934209, "is_reserved": 0, "type": "electric_scooter"}, {"fusion_lat": 0.0, "name": "60e348c57e7d5dd44d8054163ce18071", "lon": -76.98111283333333, "rental_uris": {"android": "https://dc.lft.to/lastmile_qr_scan", "ios": "https://dc.lft.to/lastmile_qr_scan"}, "fusion_lon": 0.0, "bike_id": "60e348c57e7d5dd44d8054163ce18071", "is_disabled": 0, "lat": 38.87728383333334, "is_reserved": 0, "type": "electric_bike"}, {"fusion_lat": 0.0, "name": "1c9c60069c8e23f7897b0ac78b14fc0a", "lon": -77.00976566666667, "rental_uris": {"android": "https://dc.lft.to/lastmile_qr_scan", "ios": "https://dc.lft.to/lastmile_qr_scan"}, "fusion_lon": 0.0, "bike_id": "1c9c60069c8e23f7897b0ac78b14fc0a", "is_disabled": 0, "lat": 38.8719965, "is_reserved": 0, "type": "electric_scooter"}, {"fusion_lat": 0.0, "name": "e9e0cf049aa589609b9429498784ca45", "lon": -77.04440833333334, "rental_uris": {"android": "https://dc.lft.to/lastmile_qr_scan", "ios": "https://dc.lft.to/lastmile_qr_scan"}, "fusion_lon": 0.0, "bike_id": "e9e0cf049aa589609b9429498784ca45", "is_disabled": 0, "lat": 38.91157416666667, "is_reserved": 0, "type": "electric_scooter"}, {"fusion_lat": 0.0, "name": "97949265f1f0f05acf9e9cd02e5cbae4", "lon": -77.05812916666666, "rental_uris": {"android": "https://dc.lft.to/lastmile_qr_scan", "ios": "https://dc.lft.to/lastmile_qr_scan"}, "fusion_lon": 0.0, "bike_id": "97949265f1f0f05acf9e9cd02e5cbae4", "is_disabled": 0, "lat": 38.90501233333333, "is_reserved": 0, "type": "electric_scooter"}, {"fusion_lat": 0.0, "name": "aaefedd2163847125792f03813a4b87b", "lon": -77.00915433333333, "rental_uris": {"android": "https://dc.lft.to/lastmile_qr_scan", "ios": "https://dc.lft.to/lastmile_qr_scan"}, "fusion_lon": 0.0, "bike_id": "aaefedd2163847125792f03813a4b87b", "is_disabled": 0, "lat": 38.909862, "is_reserved": 0, "type": "electric_scooter"}, {"fusion_lat": 0.0, "name": "c6d8cbdc15b97ee1c6327095383b4393", "lon": -77.0240315, "rental_uris": {"android": "https://dc.lft.to/lastmile_qr_scan", "ios": "https://dc.lft.to/lastmile_qr_scan"}, "fusion_lon": 0.0, "bike_id": "c6d8cbdc15b97ee1c6327095383b4393", "is_disabled": 0, "lat": 38.9196025, "is_reserved": 0, "type": "electric_scooter"}, {"fusion_lat": 0.0, "name": "d75f6d92b2526543266c896be7e7fc05", "lon": -76.9842625, "rental_uris": {"android": "https://dc.lft.to/lastmile_qr_scan", "ios": "https://dc.lft.to/lastmile_qr_scan"}, "fusion_lon": 0.0, "bike_id": "d75f6d92b2526543266c896be7e7fc05", "is_disabled": 0, "lat": 38.8605805, "is_reserved": 0, "type": "electric_scooter"}, {"fusion_lat": 0.0, "name": "d2ac48712aebf25570d650a03bf49082", "lon": -77.05046683333333, "rental_uris": {"android": "https://dc.lft.to/lastmile_qr_scan", "ios": "https://dc.lft.to/lastmile_qr_scan"}, "fusion_lon": 0.0, "bike_id": "d2ac48712aebf25570d650a03bf49082", "is_disabled": 0, "lat": 38.92358316666667, "is_reserved": 0, "type": "electric_scooter"}, {"fusion_lat": 0.0, "name": "93090e490855e38d3e7b41bcf6803de5", "lon": -77.04352433333334, "rental_uris": {"android": "https://dc.lft.to/lastmile_qr_scan", "ios": "https://dc.lft.to/lastmile_qr_scan"}, "fusion_lon": 0.0, "bike_id": "93090e490855e38d3e7b41bcf6803de5", "is_disabled": 0, "lat": 38.90123716666667, "is_reserved": 0, "type": "electric_scooter"}, {"fusion_lat": 0.0, "name": "80f07236723691de034049a8ac2f4c59", "lon": -77.04167766666667, "rental_uris": {"android": "https://dc.lft.to/lastmile_qr_scan", "ios": "https://dc.lft.to/lastmile_qr_scan"}, "fusion_lon": 0.0, "bike_id": "80f07236723691de034049a8ac2f4c59", "is_disabled": 0, "lat": 38.9181655, "is_reserved": 0, "type": "electric_scooter"}, {"fusion_lat": 0.0, "name": "e8d5af778bba3682db95e93ac2012544", "lon": -77.03678516666666, "rental_uris": {"android": "https://dc.lft.to/lastmile_qr_scan", "ios": "https://dc.lft.to/lastmile_qr_scan"}, "fusion_lon": 0.0, "bike_id": "e8d5af778bba3682db95e93ac2012544", "is_disabled": 0, "lat": 38.902651666666664, "is_reserved": 0, "type": "electric_scooter"}, {"fusion_lat": 0.0, "name": "e3f17ef0ce40a3d2f55af921d9e09536", "lon": -77.02735916666667, "rental_uris": {"android": "https://dc.lft.to/lastmile_qr_scan", "ios": "https://dc.lft.to/lastmile_qr_scan"}, "fusion_lon": 0.0, "bike_id": "e3f17ef0ce40a3d2f55af921d9e09536", "is_disabled": 0, "lat": 38.887449833333335, "is_reserved": 0, "type": "electric_scooter"}, {"fusion_lat": 0.0, "name": "6fbc16daf23abbbc76e0c95df4125d22", "lon": -77.0374855, "rental_uris": {"android": "https://dc.lft.to/lastmile_qr_scan", "ios": "https://dc.lft.to/lastmile_qr_scan"}, "fusion_lon": 0.0, "bike_id": "6fbc16daf23abbbc76e0c95df4125d22", "is_disabled": 0, "lat": 38.92922983333333, "is_reserved": 0, "type": "electric_scooter"}, {"fusion_lat": 0.0, "name": "fb97fa6f27aca567e159603dcaab45f6", "lon": -77.00894466666666, "rental_uris": {"android": "https://dc.lft.to/lastmile_qr_scan", "ios": "https://dc.lft.to/lastmile_qr_scan"}, "fusion_lon": 0.0, "bike_id": "fb97fa6f27aca567e159603dcaab45f6", "is_disabled": 0, "lat": 38.87482383333333, "is_reserved": 0, "type": "electric_scooter"}, {"fusion_lat": 0.0, "name": "4134cf2e8d898952e3dfc59300901b15", "lon": -76.97342466666667, "rental_uris": {"android": "https://dc.lft.to/lastmile_qr_scan", "ios": "https://dc.lft.to/lastmile_qr_scan"}, "fusion_lon": 0.0, "bike_id": "4134cf2e8d898952e3dfc59300901b15", "is_disabled": 0, "lat": 38.8650635, "is_reserved": 0, "type": "electric_bike"}, {"fusion_lat": 0.0, "name": "4ad1f78325b23ffe32fb1a4434bf8221", "lon": -77.0240765, "rental_uris": {"android": "https://dc.lft.to/lastmile_qr_scan", "ios": "https://dc.lft.to/lastmile_qr_scan"}, "fusion_lon": 0.0, "bike_id": "4ad1f78325b23ffe32fb1a4434bf8221", "is_disabled": 0, "lat": 38.91910433333334, "is_reserved": 0, "type": "electric_scooter"}, {"fusion_lat": 0.0, "name": "d309047474dc7d4fa809243971375cfc", "lon": -76.99003533333334, "rental_uris": {"android": "https://dc.lft.to/lastmile_qr_scan", "ios": "https://dc.lft.to/lastmile_qr_scan"}, "fusion_lon": 0.0, "bike_id": "d309047474dc7d4fa809243971375cfc", "is_disabled": 0, "lat": 38.865044833333336, "is_reserved": 0, "type": "electric_scooter"}, {"fusion_lat": 0.0, "name": "6aff784f22fbba3e8dd640f0d31beaa4", "lon": -77.01894866666666, "rental_uris": {"android": "https://dc.lft.to/lastmile_qr_scan", "ios": "https://dc.lft.to/lastmile_qr_scan"}, "fusion_lon": 0.0, "bike_id": "6aff784f22fbba3e8dd640f0d31beaa4", "is_disabled": 0, "lat": 38.90894566666667, "is_reserved": 0, "type": "electric_scooter"},