{"data": {"bikes": [{"fusion_lon": 0.0, "bike_id": "7e64896c9b9990614a4b9e622b9c0a85", "is_disabled": 0, "is_reserved": 0, "lat": 38.91110283333333, "name": "7e64896c9b9990614a4b9e622b9c0a85", "rental_uris": {"ios": "https://dc.lft.to/lastmile_qr_scan", "android": "https://dc.lft.to/lastmile_qr_scan"}, "type": "electric_scooter", "fusion_lat": 0.0, "lon": -77.03829466666667}, {"fusion_lon": 0.0, "bike_id": "0de095134ba50688ad13f2ed268e0fbc", "is_disabled": 0, "is_reserved": 0, "lat": 38.942620833333336, "name": "0de095134ba50688ad13f2ed268e0fbc", "rental_uris": {"ios": "https://dc.lft.to/lastmile_qr_scan", "android": "https://dc.lft.to/lastmile_qr_scan"}, "type": "electric_scooter", "fusion_lat": 0.0, "lon": -77.0298285}, {"fusion_lon": 0.0, "bike_id": "4ebbabf8e613ebb3232d330eb267afba", "is_disabled": 0, "is_reserved": 0, "lat": 38.92752383333333, "name": "4ebbabf8e613ebb3232d330eb267afba", "rental_uris": {"ios": "https://dc.lft.to/lastmile_qr_scan", "android": "https://dc.lft.to/lastmile_qr_scan"}, "type": "electric_scooter", "fusion_lat": 0.0, "lon": -77.03299166666666}, {"fusion_lon": 0.0, "bike_id": "df0affd0e4bbbd41011abac8cff1c21a", "is_disabled": 0, "is_reserved": 0, "lat": 38.918826, "name": "df0affd0e4bbbd41011abac8cff1c21a", "rental_uris": {"ios": "https://dc.lft.to/lastmile_qr_scan", "android": "https://dc.lft.to/lastmile_qr_scan"}, "type": "electric_scooter", "fusion_lat": 0.0, "lon": -77.04473866666666}, {"fusion_lon": 0.0, "bike_id": "3fc0979cdc5c029657e44edb1c57ea6f", "is_disabled": 0, "is_reserved": 0, "lat": 38.9247785, "name": "3fc0979cdc5c029657e44edb1c57ea6f", "rental_uris": {"ios": "https://dc.lft.to/lastmile_qr_scan", "android": "https://dc.lft.to/lastmile_qr_scan"}, "type": "electric_scooter", "fusion_lat": 0.0, "lon": -77.02666616666667}, {"fusion_lon": 0.0, "bike_id": "cb0bb44f31f46164b6906dd30e443966", "is_disabled": 0, "is_reserved": 0, "lat": 38.87446166666667, "name": "cb0bb44f31f46164b6906dd30e443966", "rental_uris": {"ios": "https://dc.lft.to/lastmile_qr_scan", "android": "https://dc.lft.to/lastmile_qr_scan"}, "type": "electric_scooter", "fusion_lat": 0.0, "lon": -77.00053083333333}, {"fusion_lon": 0.0, "bike_id": "405f0b369fac4296383e59b034a26361", "is_disabled": 0, "is_reserved": 0, "lat": 38.908180333333334, "name": "405f0b369fac4296383e59b034a26361", "rental_uris": {"ios": "https://dc.lft.to/lastmile_qr_scan", "android": "https://dc.lft.to/lastmile_qr_scan"}, "type": "electric_scooter", "fusion_lat": 0.0, "lon": -77.03201116666666}, {"fusion_lon": 0.0, "bike_id": "9f86ac1d49d9350ddf07a27dc8f056a2", "is_disabled": 0, "is_reserved": 0, "lat": 38.87466033333333, "name": "9f86ac1d49d9350ddf07a27dc8f056a2", "rental_uris": {"ios": "https://dc.lft.to/lastmile_qr_scan", "android": "https://dc.lft.to/lastmile_qr_scan"}, "type": "electric_scooter", "fusion_lat": 0.0, "lon": -77.015752}, {"fusion_lon": 0.0, "bike_id": "346ab18c35f471f8feefe377e4304949", "is_disabled": 0, "is_reserved": 0, "lat": 38.92878916666667, "name": "346ab18c35f471f8feefe377e4304949", "rental_uris": {"ios": "https://dc.lft.to/lastmile_qr_scan", "android": "https://dc.lft.to/lastmile_qr_scan"}, "type": "electric_scooter", "fusion_lat": 0.0, "lon": -77.03361966666667}, {"fusion_lon": 0.0, "bike_id": "962dc5164665afce492c492a411d6ddd", "is_disabled": 0, "is_reserved": 0, "lat": 38.93638833333333, "name": "962dc5164665afce492c492a411d6ddd", "rental_uris": {"ios": "https://dc.lft.to/lastmile_qr_scan", "android": "https://dc.lft.to/lastmile_qr_scan"}, "type": "electric_scooter", "fusion_lat": 0.0, "lon": -77.02000183333334}, {"fusion_lon": 0.0, "bike_id": "43df9ec6de63fbf00daeb622c6a6784a", "is_disabled": 0, "is_reserved": 0, "lat": 38.91952216666667, "name": "43df9ec6de63fbf00daeb622c6a6784a", "rental_uris": {"ios": "https://dc.lft.to/lastmile_qr_scan", "android": "https://dc.lft.to/lastmile_qr_scan"}, "type": "electric_scooter", "fusion_lat": 0.0, "lon": -77.02484566666666}, {"fusion_lon": 0.0, "bike_id": "03770162202b77c785efb5ac71293f46", "is_disabled": 0, "is_reserved": 0, "lat": 38.8853655, "name": "03770162202b77c785efb5ac71293f46", "rental_uris": {"ios": "https://dc.lft.to/lastmile_qr_scan", "android": "https://dc.lft.to/lastmile_qr_scan"}, "type": "electric_scooter", "fusion_lat": 0.0, "lon": -76.95426366666666}, {"fusion_lon": 0.0, "bike_id": "7cd085a6db95aad4a651d92c4fa31a0a", "is_disabled": 0, "is_reserved": 0, "lat": 38.90691133333333, "name": "7cd085a6db95aad4a651d92c4fa31a0a", "rental_uris": {"ios": "https://dc.lft.to/lastmile_qr_scan", "android": "https://dc.lft.to/lastmile_qr_scan"}, "type": "electric_scooter", "fusion_lat": 0.0, "lon": -77.02717483333333}, {"fusion_lon": 0.0, "bike_id": "029cb4f933cf5ce5532fd97cc9bd9b14", "is_disabled": 0, "is_reserved": 0, "lat": 38.8944645, "name": "029cb4f933cf5ce5532fd97cc9bd9b14", "rental_uris": {"ios": "https://dc.lft.to/lastmile_qr_scan", "android": "https://dc.lft.to/lastmile_qr_scan"}, "type": "electric_scooter", "fusion_lat": 0.0, "lon": -76.977342}, {"fusion_lon": 0.0, "bike_id": "2026352cabe9d5e9953df720519b8310", "is_disabled": 0, "is_reserved": 0, "lat": 38.924671833333335, "name": "2026352cabe9d5e9953df720519b8310", "rental_uris": {"ios": "https://dc.lft.to/lastmile_qr_scan", "android": "https://dc.lft.to/lastmile_qr_scan"}, "type": "electric_scooter", "fusion_lat": 0.0, "lon": -77.02244516666667}, {"fusion_lon": 0.0, "bike_id": "cad541a75e7efbf3808e7620ea0b3b43", "is_disabled": 0, "is_reserved": 0, "lat": 38.92552883333333, "name": "cad541a75e7efbf3808e7620ea0b3b43", "rental_uris": {"ios": "https://dc.lft.to/lastmile_qr_scan", "android": "https://dc.lft.to/lastmile_qr_scan"}, "type": "electric_scooter", "fusion_lat": 0.0, "lon": -77.03329366666667}, {"fusion_lon": 0.0, "bike_id": "d8e493f8d25ce050d357067d81d9dda1", "is_disabled": 0, "is_reserved": 0, "lat": 38.916206, "name": "d8e493f8d25ce050d357067d81d9dda1", "rental_uris": {"ios": "https://dc.lft.to/lastmile_qr_scan", "android": "https://dc.lft.to/lastmile_qr_scan"}, "type": "electric_scooter", "fusion_lat": 0.0, "lon": -77.02813233333333}, {"fusion_lon": 0.0, "bike_id": "e2ad3740cc156270f98a6cd69b513fb1", "is_disabled": 0, "is_reserved": 0, "lat": 38.917088, "name": "e2ad3740cc156270f98a6cd69b513fb1", "rental_uris": {"ios": "https://dc.lft.to/lastmile_qr_scan", "android": "https://dc.lft.to/lastmile_qr_scan"}, "type": "electric_scooter", "fusion_lat": 0.0, "lon": -77.022851}, {"fusion_lon": 0.0, "bike_id": "b3358cc78cc28a4f8221c18877fcc4a3", "is_disabled": 0, "is_reserved": 0, "lat": 38.8998565, "name": "b3358cc78cc28a4f8221c18877fcc4a3", "rental_uris": {"ios": "https://dc.lft.to/lastmile_qr_scan", "android": "https://dc.lft.to/lastmile_qr_scan"}, "type": "electric_scooter", "fusion_lat": 0.0, "lon": -77.0419465}, {"fusion_lon": 0.0, "bike_id": "72cc4a058b4a7fbef017060365d001b4", "is_disabled": 0, "is_reserved": 0, "lat": 38.8779125, "name": "72cc4a058b4a7fbef017060365d001b4", "rental_uris": {"ios": "https://dc.lft.to/lastmile_qr_scan", "android": "https://dc.lft.to/lastmile_qr_scan"}, "type": "electric_scooter", "fusion_lat": 0.0, "lon": -76.99613866666667}, {"fusion_lon": 0.0, "bike_id": "3768364b47a337a6d345cbdfc42feef4", "is_disabled": 0, "is_reserved": 0, "lat": 38.91894, "name": "3768364b47a337a6d345cbdfc42feef4", "rental_uris": {"ios": "https://dc.lft.to/lastmile_qr_scan", "android": "https://dc.lft.to/lastmile_qr_scan"}, "type": "electric_scooter", "fusion_lat": 0.0, "lon": -76.96898816666666}, {"fusion_lon": 0.0, "bike_id": "4bd96ecfc2fc0ab9a27b6bae0a1b31db", "is_disabled": 0, "is_reserved": 0, "lat": 38.924031166666666, "name": "4bd96ecfc2fc0ab9a27b6bae0a1b31db", "rental_uris": {"ios": "https://dc.lft.to/lastmile_qr_scan", "android": "https://dc.lft.to/lastmile_qr_scan"}, "type": "electric_scooter", "fusion_lat": 0.0, "lon": -77.04048383333334}, {"fusion_lon": 0.0, "bike_id": "18ea85f4e6bd596de962249383114728", "is_disabled": 0, "is_reserved": 0, "lat": 38.9247555, "name": "18ea85f4e6bd596de962249383114728", "rental_uris": {"ios": "https://dc.lft.to/lastmile_qr_scan", "android": "https://dc.lft.to/lastmile_qr_scan"}, "type": "electric_scooter", "fusion_lat": 0.0, "lon": -77.03534166666667}, {"fusion_lon": 0.0, "bike_id": "8820e1db586f8a8dc1d6edc167b5eca2", "is_disabled": 0, "is_reserved": 0, "lat": 38.90812116666667, "name": "8820e1db586f8a8dc1d6edc167b5eca2", "rental_uris": {"ios": "https://dc.lft.to/lastmile_qr_scan", "android": "https://dc.lft.to/lastmile_qr_scan"}, "type": "electric_scooter", "fusion_lat": 0.0, "lon": -77.04338466666667}, {"fusion_lon": 0.0, "bike_id": "802f11c237be2e0c2ad5bc8c355c14f8", "is_disabled": 0, "is_reserved": 0, "lat": 38.91836766666667, "name": "802f11c237be2e0c2ad5bc8c355c14f8", "rental_uris": {"ios": "https://dc.lft.to/lastmile_qr_scan", "android": "https://dc.lft.to/lastmile_qr_scan"}, "type": "electric_scooter", "fusion_lat": 0.0, "lon": -77.045218}, {"fusion_lon": 0.0, "bike_id": "5735aa952275048c6e55ffa9c6789afa", "is_disabled": 0, "is_reserved": 0, "lat": 38.914176, "name": "5735aa952275048c6e55ffa9c6789afa", "rental_uris": {"ios": "https://dc.lft.to/lastmile_qr_scan", "android": "https://dc.lft.to/lastmile_qr_scan"}, "type": "electric_scooter", "fusion_lat": 0.0, "lon": -77.0221465}, {"fusion_lon": 0.0, "bike_id": "8dd58fe7dd8c3cb2eb215256ed65e31b", "is_disabled": 0, "is_reserved": 0, "lat": 38.902657, "name": "8dd58fe7dd8c3cb2eb215256ed65e31b", "rental_uris": {"ios": "https://dc.lft.to/lastmile_qr_scan", "android": "https://dc.lft.to/lastmile_qr_scan"}, "type": "electric_scooter", "fusion_lat": 0.0, "lon": -77.051604}, {"fusion_lon": 0.0, "bike_id": "785bc86e35188daa8de45f14c2eea771", "is_disabled": 0, "is_reserved": 0, "lat": 38.923611666666666, "name": "785bc86e35188daa8de45f14c2eea771", "rental_uris": {"ios": "https://dc.lft.to/lastmile_qr_scan", "android": "https://dc.lft.to/lastmile_qr_scan"}, "type": "electric_scooter", "fusion_lat": 0.0, "lon": -77.02059616666666}, {"fusion_lon": 0.0, "bike_id": "84658229396202dc5a5c88ca0f3c9d94", "is_disabled": 0, "is_reserved": 0, "lat": 38.915639666666664, "name": "84658229396202dc5a5c88ca0f3c9d94", "rental_uris": {"ios": "https://dc.lft.to/lastmile_qr_scan", "android": "https://dc.lft.to/lastmile_qr_scan"}, "type": "electric_scooter", "fusion_lat": 0.0, "lon": -77.038024}, {"fusion_lon": 0.0, "bike_id": "4399d42fb9cd57cee7cafd33865b9e6e", "is_disabled": 0, "is_reserved": 0, "lat": 38.941664, "name": "4399d42fb9cd57cee7cafd33865b9e6e", "rental_uris": {"ios": "https://dc.lft.to/lastmile_qr_scan", "android": "https://dc.lft.to/lastmile_qr_scan"}, "type": "electric_scooter", "fusion_lat": 0.0, "lon": -77.0255925}, {"fusion_lon": 0.0, "bike_id": "ecc8cc6ae8ac593d547a26f238257cf1", "is_disabled": 0, "is_reserved": 0, "lat": 38.913586333333335, "name": "ecc8cc6ae8ac593d547a26f238257cf1", "rental_uris": {"ios": "https://dc.lft.to/lastmile_qr_scan", "android": "https://dc.lft.to/lastmile_qr_scan"}, "type": "electric_scooter", "fusion_lat": 0.0, "lon": -77.00825283333333}, {"fusion_lon": 0.0, "bike_id": "d42833ed331c05015ca740e17a4be616", "is_disabled": 0, "is_reserved": 0, "lat": 38.913407166666666, "name": "d42833ed331c05015ca740e17a4be616", "rental_uris": {"ios": "https://dc.lft.to/lastmile_qr_scan", "android": "https://dc.lft.to/lastmile_qr_scan"}, "type": "electric_scooter", "fusion_lat": 0.0, "lon": -77.0258105}, {"fusion_lon": 0.0, "bike_id": "7281a0206322e9709ffc6975a0e8342e", "is_disabled": 0, "is_reserved": 0, "lat": 38.90318, "name": "7281a0206322e9709ffc6975a0e8342e", "rental_uris": {"ios": "https://dc.lft.to/lastmile_qr_scan", "android": "https://dc.lft.to/lastmile_qr_scan"}, "type": "electric_scooter", "fusion_lat": 0.0, "lon": -77.0363535}, {"fusion_lon": 0.0, "bike_id": "297b59dba19dfe5769585d37e453395b", "is_disabled": 0, "is_reserved": 0, "lat": 38.92169916666667, "name": "297b59dba19dfe5769585d37e453395b", "rental_uris": {"ios": "https://dc.lft.to/lastmile_qr_scan", "android": "https://dc.lft.to/lastmile_qr_scan"}, "type": "electric_scooter", "fusion_lat": 0.0, "lon": -77.02670516666667}, {"fusion_lon": 0.0, "bike_id": "d1008bd41f91b46d635e83e304575ca4", "is_disabled": 0, "is_reserved": 0, "lat": 38.911596, "name": "d1008bd41f91b46d635e83e304575ca4", "rental_uris": {"ios": "https://dc.lft.to/lastmile_qr_scan", "android": "https://dc.lft.to/lastmile_qr_scan"}, "type": "electric_scooter", "fusion_lat": 0.0, "lon": -77.01999283333333}, {"fusion_lon": 0.0, "bike_id": "2f74887c1b63fcfa18dbe6c032ff48c8", "is_disabled": 0, "is_reserved": 0, "lat": 38.998591166666664, "name": "2f74887c1b63fcfa18dbe6c032ff48c8", "rental_uris": {"ios": "https://dc.lft.to/lastmile_qr_scan", "android": "https://dc.lft.to/lastmile_qr_scan"}, "type": "electric_bike", "fusion_lat": 0.0, "lon": -77.00389633333333}, {"fusion_lon": 0.0, "bike_id": "6da117be48594ab0f8be89c393e67e7c", "is_disabled": 0, "is_reserved": 0, "lat": 38.907801666666664, "name": "6da117be48594ab0f8be89c393e67e7c", "rental_uris": {"ios": "https://dc.lft.to/lastmile_qr_scan", "android": "https://dc.lft.to/lastmile_qr_scan"}, "type": "electric_scooter", "fusion_lat": 0.0, "lon": -77.07252}, {"fusion_lon": 0.0, "bike_id": "fa71ad543491e2953f0bfb23d3d7ad96", "is_disabled": 0, "is_reserved": 0, "lat": 38.892218166666666, "name": "fa71ad543491e2953f0bfb23d3d7ad96", "rental_uris": {"ios": "https://dc.lft.to/lastmile_qr_scan", "android": "https://dc.lft.to/lastmile_qr_scan"}, "type": "electric_scooter", "fusion_lat": 0.0, "lon": -77.02538683333333}, {"fusion_lon": 0.0, "bike_id": "871615c2ea18f5233da25974e36d35aa", "is_disabled": 0, "is_reserved": 0, "lat": 38.905368833333334, "name": "871615c2ea18f5233da25974e36d35aa", "rental_uris": {"ios": "https://dc.lft.to/lastmile_qr_scan", "android": "https://dc.lft.to/lastmile_qr_scan"}, "type": "electric_scooter", "fusion_lat": 0.0, "lon": -76.986489}, {"fusion_lon": 0.0, "bike_id": "40951e6d07776486627d7d93cee66fa0", "is_disabled": 0, "is_reserved": 0, "lat": 38.925004, "name": "40951e6d07776486627d7d93cee66fa0", "rental_uris": {"ios": "https://dc.lft.to/lastmile_qr_scan", "android": "https://dc.lft.to/lastmile_qr_scan"}, "type": "electric_scooter", "fusion_lat": 0.0, "lon": -77.0433545}, {"fusion_lon": 0.0, "bike_id": "1d87e5164caf6e171e1d85b51b907655", "is_disabled": 0, "is_reserved": 0, "lat": 38.9236895, "name": "1d87e5164caf6e171e1d85b51b907655", "rental_uris": {"ios": "https://dc.lft.to/lastmile_qr_scan", "android": "https://dc.lft.to/lastmile_qr_scan"}, "type": "electric_scooter", "fusion_lat": 0.0, "lon": -77.0196345}, {"fusion_lon": 0.0, "bike_id": "3cb5e1044147fc446e2bdb71b4153e92", "is_disabled": 0, "is_reserved": 0, "lat": 38.89327566666667, "name": "3cb5e1044147fc446e2bdb71b4153e92", "rental_uris": {"ios": "https://dc.lft.to/lastmile_qr_scan", "android": "https://dc.lft.to/lastmile_qr_scan"}, "type": "electric_scooter", "fusion_lat": 0.0, "lon": -77.03375133333333}, {"fusion_lon": 0.0, "bike_id": "4344b4727a659db7dce6951f7af2e469", "is_disabled": 0, "is_reserved": 0, "lat": 38.914182, "name": "4344b4727a659db7dce6951f7af2e469", "rental_uris": {"ios": "https://dc.lft.to/lastmile_qr_scan", "android": "https://dc.lft.to/lastmile_qr_scan"}, "type": "electric_scooter", "fusion_lat": 0.0, "lon": -77.02225316666667}, {"fusion_lon": 0.0, "bike_id": "1db5b88b814505ee8a5ac18a9d45eac7", "is_disabled": 0, "is_reserved": 0, "lat": 38.90441166666667, "name": "1db5b88b814505ee8a5ac18a9d45eac7", "rental_uris": {"ios": "https://dc.lft.to/lastmile_qr_scan", "android": "https://dc.lft.to/lastmile_qr_scan"}, "type": "electric_scooter", "fusion_lat": 0.0, "lon": -77.02876666666667}, {"fusion_lon": 0.0, "bike_id": "dfa8556fb02e6cabac4030fe7378be99", "is_disabled": 0, "is_reserved": 0, "lat": 38.916184666666666, "name": "dfa8556fb02e6cabac4030fe7378be99", "rental_uris": {"ios": "https://dc.lft.to/lastmile_qr_scan", "android": "https://dc.lft.to/lastmile_qr_scan"}, "type": "electric_scooter", "fusion_lat": 0.0, "lon": -77.0375035}, {"fusion_lon": 0.0, "bike_id": "4fc745faf2639662f122f29aadf4caf8", "is_disabled": 0, "is_reserved": 0, "lat": 38.896747166666664, "name": "4fc745faf2639662f122f29aadf4caf8", "rental_uris": {"ios": "https://dc.lft.to/lastmile_qr_scan", "android": "https://dc.lft.to/lastmile_qr_scan"}, "type": "electric_scooter", "fusion_lat": 0.0, "lon": -76.93212983333333}, {"fusion_lon": 0.0, "bike_id": "6a3c63edea9bac63c51ad6bd286ecf6c", "is_disabled": 0, "is_reserved": 0, "lat": 38.89961066666667, "name": "6a3c63edea9bac63c51ad6bd286ecf6c", "rental_uris": {"ios": "https://dc.lft.to/lastmile_qr_scan", "android": "https://dc.lft.to/lastmile_qr_scan"}, "type": "electric_scooter", "fusion_lat": 0.0, "lon": -77.04520366666667}, {"fusion_lon": 0.0, "bike_id": "107154e8d8f2a25525f5bc30472dfaca", "is_disabled": 0, "is_reserved": 0, "lat": 38.918389833333336, "name": "107154e8d8f2a25525f5bc30472dfaca", "rental_uris": {"ios": "https://dc.lft.to/lastmile_qr_scan", "android": "https://dc.lft.to/lastmile_qr_scan"}, "type": "electric_scooter", "fusion_lat": 0.0, "lon": -77.041731}, {"fusion_lon": 0.0, "bike_id": "c15b8a71bc6b3c83d3d49730be42016c", "is_disabled": 0, "is_reserved": 0, "lat": 38.92060383333333, "name": "c15b8a71bc6b3c83d3d49730be42016c", "rental_uris": {"ios": "https://dc.lft.to/lastmile_qr_scan", "android": "https://dc.lft.to/lastmile_qr_scan"}, "type": "electric_scooter", "fusion_lat": 0.0, "lon": -77.041985}, {"fusion_lon": 0.0, "bike_id": "8d7fd9bca47f4386bdef6433a185f1a9", "is_disabled": 0, "is_reserved": 0, "lat": 38.927845, "name": "8d7fd9bca47f4386bdef6433a185f1a9", "rental_uris": {"ios": "https://dc.lft.to/lastmile_qr_scan", "android": "https://dc.lft.to/lastmile_qr_scan"}, "type": "electric_scooter", "fusion_lat": 0.0, "lon": -77.0272025}, {"fusion_lon": 0.0, "bike_id": "5abd8f6a77a211423c0adb6d5bb21e23", "is_disabled": 0, "is_reserved": 0, "lat": 38.868194333333335, "name": "5abd8f6a77a211423c0adb6d5bb21e23", "rental_uris": {"ios": "https://dc.lft.to/lastmile_qr_scan", "android": "https://dc.lft.to/lastmile_qr_scan"}, "type": "electric_bike", "fusion_lat": 0.0, "lon": -76.9802715}, {"fusion_lon": 0.0, "bike_id": "c9935a44bba330159aeb201a4de66dd4", "is_disabled": 0, "is_reserved": 0, "lat": 38.91110283333333, "name": "c9935a44bba330159aeb201a4de66dd4", "rental_uris": {"ios": "https://dc.lft.to/lastmile_qr_scan", "android": "https://dc.lft.to/lastmile_qr_scan"}, "type": "electric_scooter", "fusion_lat": 0.0, "lon": -77.01164316666667}, {"fusion_lon": 0.0, "bike_id": "a3c39cefb9d39c85c693f497475e7834", "is_disabled": 0, "is_reserved": 0, "lat": 38.89832233333333, "name": "a3c39cefb9d39c85c693f497475e7834", "rental_uris": {"ios": "https://dc.lft.to/lastmile_qr_scan", "android": "https://dc.lft.to/lastmile_qr_scan"}, "type": "electric_scooter", "fusion_lat": 0.0, "lon": -77.04947583333333}, {"fusion_lon": 0.0, "bike_id": "4d5897856c2c9631545ee105ca2df272", "is_disabled": 0, "is_reserved": 0, "lat": 38.92963566666667, "name": "4d5897856c2c9631545ee105ca2df272", "rental_uris": {"ios": "https://dc.lft.to/lastmile_qr_scan", "android": "https://dc.lft.to/lastmile_qr_scan"}, "type": "electric_scooter", "fusion_lat": 0.0, "lon": -77.0403345}, {"fusion_lon": 0.0, "bike_id": "bb4fb58fa9cea593cea0fc542023ea0e", "is_disabled": 0, "is_reserved": 0, "lat": 38.985352, "name": "bb4fb58fa9cea593cea0fc542023ea0e", "rental_uris": {"ios": "https://dc.lft.to/lastmile_qr_scan", "android": "https://dc.lft.to/lastmile_qr_scan"}, "type": "electric_bike", "fusion_lat": 0.0, "lon": -77.004219}, {"fusion_lon": 0.0, "bike_id": "1b560d8fe1faae0370b9f78d5d4c5ba6", "is_disabled": 0, "is_reserved": 0, "lat": 38.930481666666665, "name": "1b560d8fe1faae0370b9f78d5d4c5ba6", "rental_uris": {"ios": "https://dc.lft.to/lastmile_qr_scan", "android": "https://dc.lft.to/lastmile_qr_scan"}, "type": "electric_scooter", "fusion_lat": 0.0, "lon": -77.05562683333333}, {"fusion_lon": 0.0, "bike_id": "9f9acc443818721489855b29ce0bcc86", "is_disabled": 0, "is_reserved": 0, "lat": 38.913522, "name": "9f9acc443818721489855b29ce0bcc86", "rental_uris": {"ios": "https://dc.lft.to/lastmile_qr_scan", "android": "https://dc.lft.to/lastmile_qr_scan"}, "type": "electric_scooter", "fusion_lat": 0.0, "lon": -77.0318405}, {"fusion_lon": 0.0, "bike_id": "d7e0a3cc1b392e7404d357182357af91", "is_disabled": 0, "is_reserved": 0, "lat": 38.94508166666667, "name": "d7e0a3cc1b392e7404d357182357af91", "rental_uris": {"ios": "https://dc.lft.to/lastmile_qr_scan", "android": "https://dc.lft.to/lastmile_qr_scan"}, "type": "electric_bike", "fusion_lat": 0.0, "lon": -77.00672916666667}, {"fusion_lon": 0.0, "bike_id": "28800b81a85ba9d763cfd3e1dce220b3", "is_disabled": 0, "is_reserved": 0, "lat": 38.93202766666667, "name": "28800b81a85ba9d763cfd3e1dce220b3", "rental_uris": {"ios": "https://dc.lft.to/lastmile_qr_scan", "android": "https://dc.lft.to/lastmile_qr_scan"}, "type": "electric_scooter", "fusion_lat": 0.0, "lon": -77.03748633333333}, {"fusion_lon": 0.0, "bike_id": "c9f0305417079a0a20257403808f7247", "is_disabled": 0, "is_reserved": 0, "lat": 38.917548333333336, "name": "c9f0305417079a0a20257403808f7247", "rental_uris": {"ios": "https://dc.lft.to/lastmile_qr_scan", "android": "https://dc.lft.to/lastmile_qr_scan"}, "type": "electric_scooter", "fusion_lat": 0.0, "lon": -77.0238765}, {"fusion_lon": 0.0, "bike_id": "56220aa8604342dcd93cddff92368f58", "is_disabled": 0, "is_reserved": 0, "lat": 38.8221535, "name": "56220aa8604342dcd93cddff92368f58", "rental_uris": {"ios": "https://dc.lft.to/lastmile_qr_scan", "android": "https://dc.lft.to/lastmile_qr_scan"}, "type": "electric_bike", "fusion_lat": 0.0, "lon": -76.97700783333333}, {"fusion_lon": 0.0, "bike_id": "8213d248404be9a164b8c6d28ec19e68", "is_disabled": 0, "is_reserved": 0, "lat": 38.958486666666666, "name": "8213d248404be9a164b8c6d28ec19e68", "rental_uris": {"ios": "https://dc.lft.to/lastmile_qr_scan", "android": "https://dc.lft.to/lastmile_qr_scan"}, "type": "electric_scooter", "fusion_lat": 0.0, "lon": -77.07172866666667}, {"fusion_lon": 0.0, "bike_id": "0b172dc7ca76fa003347afd94ebb4420", "is_disabled": 0, "is_reserved": 0, "lat": 38.90496066666667, "name": "0b172dc7ca76fa003347afd94ebb4420", "rental_uris": {"ios": "https://dc.lft.to/lastmile_qr_scan", "android": "https://dc.lft.to/lastmile_qr_scan"}, "type": "electric_scooter", "fusion_lat": 0.0, "lon": -77.02954016666666}, {"fusion_lon": 0.0, "bike_id": "809640f30364718e3e4611069a743028", "is_disabled": 0, "is_reserved": 0, "lat": 38.905142833333336, "name": "809640f30364718e3e4611069a743028", "rental_uris": {"ios": "https://dc.lft.to/lastmile_qr_scan", "android": "https://dc.lft.to/lastmile_qr_scan"}, "type": "electric_scooter", "fusion_lat": 0.0, "lon": -76.983957}, {"fusion_lon": 0.0, "bike_id": "caa2af2a85c885f6cc8652d6e54dcec8", "is_disabled": 0, "is_reserved": 0, "lat": 38.9077285, "name": "caa2af2a85c885f6cc8652d6e54dcec8", "rental_uris": {"ios": "https://dc.lft.to/lastmile_qr_scan", "android": "https://dc.lft.to/lastmile_qr_scan"}, "type": "electric_scooter", "fusion_lat": 0.0, "lon": -77.04542266666667}, {"fusion_lon": 0.0, "bike_id": "0c2bfa97f7d0ddf5782593c0e1604a0c", "is_disabled": 0, "is_reserved": 0, "lat": 38.921234, "name": "0c2bfa97f7d0ddf5782593c0e1604a0c", "rental_uris": {"ios": "https://dc.lft.to/lastmile_qr_scan", "android": "https://dc.lft.to/lastmile_qr_scan"}, "type": "electric_scooter", "fusion_lat": 0.0, "lon": -77.02099466666667}, {"fusion_lon": 0.0, "bike_id": "d0824f75f92db3cc3e52d6d8567268ec", "is_disabled": 0, "is_reserved": 0, "lat": 38.92283833333333, "name": "d0824f75f92db3cc3e52d6d8567268ec", "rental_uris": {"ios": "https://dc.lft.to/lastmile_qr_scan", "android": "https://dc.lft.to/lastmile_qr_scan"}, "type": "electric_scooter", "fusion_lat": 0.0, "lon": -77.03660516666666}, {"fusion_lon": 0.0, "bike_id": "adf5316c2d3f4339a98b88e7fc8980e8", "is_disabled": 0, "is_reserved": 0, "lat": 38.892570666666664, "name": "adf5316c2d3f4339a98b88e7fc8980e8", "rental_uris": {"ios": "https://dc.lft.to/lastmile_qr_scan", "android": "https://dc.lft.to/lastmile_qr_scan"}, "type": "electric_scooter", "fusion_lat": 0.0, "lon": -77.0450625}, {"fusion_lon": 0.0, "bike_id": "636b0af48c03261c199ab2f67e296736", "is_disabled": 0, "is_reserved": 0, "lat": 38.913621, "name": "636b0af48c03261c199ab2f67e296736", "rental_uris": {"ios": "https://dc.lft.to/lastmile_qr_scan", "android": "https://dc.lft.to/lastmile_qr_scan"}, "type": "electric_scooter", "fusion_lat": 0.0, "lon": -77.020604}, {"fusion_lon": 0.0, "bike_id": "df86349cebcb4d515c4fb9b3df34eb4c", "is_disabled": 0, "is_reserved": 0, "lat": 38.91776083333333, "name": "df86349cebcb4d515c4fb9b3df34eb4c", "rental_uris": {"ios": "https://dc.lft.to/lastmile_qr_scan", "android": "https://dc.lft.to/lastmile_qr_scan"}, "type": "electric_scooter", "fusion_lat": 0.0, "lon": -77.04756333333333}, {"fusion_lon": 0.0, "bike_id": "a4c84879f895cfb13b43890e63b0e402", "is_disabled": 0, "is_reserved": 0, "lat": 38.899626833333336, "name": "a4c84879f895cfb13b43890e63b0e402", "rental_uris": {"ios": "https://dc.lft.to/lastmile_qr_scan", "android": "https://dc.lft.to/lastmile_qr_scan"}, "type": "electric_scooter", "fusion_lat": 0.0, "lon": -77.04510216666667}, {"fusion_lon": 0.0, "bike_id": "c820783f05dc4498bf9fc1435da99f3a", "is_disabled": 0, "is_reserved": 0, "lat": 38.80439616666666, "name": "c820783f05dc4498bf9fc1435da99f3a", "rental_uris": {"ios": "https://dc.lft.to/lastmile_qr_scan", "android": "https://dc.lft.to/lastmile_qr_scan"}, "type": "electric_bike", "fusion_lat": 0.0, "lon": -77.06085316666666}, {"fusion_lon": 0.0, "bike_id": "fc921fc950351c51035fe3e5049f5c17", "is_disabled": 0, "is_reserved": 0, "lat": 38.94635433333333, "name": "fc921fc950351c51035fe3e5049f5c17", "rental_uris": {"ios": "https://dc.lft.to/lastmile_qr_scan", "android": "https://dc.lft.to/lastmile_qr_scan"}, "type": "electric_bike", "fusion_lat": 0.0, "lon": -76.99310766666666}, {"fusion_lon": 0.0, "bike_id": "f01de95be5f96c61840d967f536d24ff", "is_disabled": 0, "is_reserved": 0, "lat": 38.96488333333333, "name": "f01de95be5f96c61840d967f536d24ff", "rental_uris": {"ios": "https://dc.lft.to/lastmile_qr_scan", "android": "https://dc.lft.to/lastmile_qr_scan"}, "type": "electric_bike", "fusion_lat": 0.0, "lon": -77.02857866666666}, {"fusion_lon": 0.0, "bike_id": "3eb63f14e08e01d2b40b0a9779e276fb", "is_disabled": 0, "is_reserved": 0, "lat": 38.931121833333336, "name": "3eb63f14e08e01d2b40b0a9779e276fb", "rental_uris": {"ios": "https://dc.lft.to/lastmile_qr_scan", "android": "https://dc.lft.to/lastmile_qr_scan"}, "type": "electric_scooter", "fusion_lat": 0.0, "lon": -77.021234}, {"fusion_lon": 0.0, "bike_id": "844c334de708c2fb37c85d7845126db3", "is_disabled": 0, "is_reserved": 0, "lat": 38.923698, "name": "844c334de708c2fb37c85d7845126db3", "rental_uris": {"ios": "https://dc.lft.to/lastmile_qr_scan", "android": "https://dc.lft.to/lastmile_qr_scan"}, "type": "electric_scooter", "fusion_lat": 0.0, "lon": -77.0195725}, {"fusion_lon": 0.0, "bike_id": "8d3e2c36949e5fc4e16de4ae5836b48d", "is_disabled": 0, "is_reserved": 0, "lat": 38.90343033333333, "name": "8d3e2c36949e5fc4e16de4ae5836b48d", "rental_uris": {"ios": "https://dc.lft.to/lastmile_qr_scan", "android": "https://dc.lft.to/lastmile_qr_scan"}, "type": "electric_scooter", "fusion_lat": 0.0, "lon": -77.049369}, {"fusion_lon": 0.0, "bike_id": "c0ee5e41e02f0389d42f3bfbe31fbda1", "is_disabled": 0, "is_reserved": 0, "lat": 38.91921883333333, "name": "c0ee5e41e02f0389d42f3bfbe31fbda1", "rental_uris": {"ios": "https://dc.lft.to/lastmile_qr_scan", "android": "https://dc.lft.to/lastmile_qr_scan"}, "type": "electric_scooter", "fusion_lat": 0.0, "lon": -77.034197}, {"fusion_lon": 0.0, "bike_id": "13c342a43019f263602010de9c881d7c", "is_disabled": 0, "is_reserved": 0, "lat": 38.92336016666667, "name": "13c342a43019f263602010de9c881d7c", "rental_uris": {"ios": "https://dc.lft.to/lastmile_qr_scan", "android": "https://dc.lft.to/lastmile_qr_scan"}, "type": "electric_scooter", "fusion_lat": 0.0, "lon": -77.02136416666667}, {"fusion_lon": 0.0, "bike_id": "4bca24de8820ca4d28071e77af8fefd0", "is_disabled": 0, "is_reserved": 0, "lat": 38.905390833333335, "name": "4bca24de8820ca4d28071e77af8fefd0", "rental_uris": {"ios": "https://dc.lft.to/lastmile_qr_scan", "android": "https://dc.lft.to/lastmile_qr_scan"}, "type": "electric_scooter", "fusion_lat": 0.0, "lon": -77.05010333333334}, {"fusion_lon": 0.0, "bike_id": "24df810184fa950bbc14ad219f386645", "is_disabled": 0, "is_reserved": 0, "lat": 38.89485616666666, "name": "24df810184fa950bbc14ad219f386645", "rental_uris": {"ios": "https://dc.lft.to/lastmile_qr_scan", "android": "https://dc.lft.to/lastmile_qr_scan"}, "type": "electric_scooter", "fusion_lat": 0.0, "lon": -77.02173983333333}, {"fusion_lon": 0.0, "bike_id": "8aea29287039ce126c5b71d03aff1933", "is_disabled": 0, "is_reserved": 0, "lat": 38.87865516666667, "name": "8aea29287039ce126c5b71d03aff1933", "rental_uris": {"ios": "https://dc.lft.to/lastmile_qr_scan", "android": "https://dc.lft.to/lastmile_qr_scan"}, "type": "electric_scooter", "fusion_lat": 0.0, "lon": -77.001404}, {"fusion_lon": 0.0, "bike_id": "6646209a3a15c7395e9dab79888da3d6", "is_disabled": 0, "is_reserved": 0, "lat": 38.9144215, "name": "6646209a3a15c7395e9dab79888da3d6", "rental_uris": {"ios": "https://dc.lft.to/lastmile_qr_scan", "android": "https://dc.lft.to/lastmile_qr_scan"}, "type": "electric_scooter", "fusion_lat": 0.0, "lon": -77.02291}, {"fusion_lon": 0.0, "bike_id": "9b02fdcea4221495459eee92984e80dc", "is_disabled": 0, "is_reserved": 0, "lat": 38.9013325, "name": "9b02fdcea4221495459eee92984e80dc", "rental_uris": {"ios": "https://dc.lft.to/lastmile_qr_scan", "android": "https://dc.lft.to/lastmile_qr_scan"}, "type": "electric_scooter", "fusion_lat": 0.0, "lon": -76.98081866666666}, {"fusion_lon": 0.0, "bike_id": "52f25007df1f116da5919a6b867a8b5b", "is_disabled": 0, "is_reserved": 0, "lat": 38.9083325, "name": "52f25007df1f116da5919a6b867a8b5b", "rental_uris": {"ios": "https://dc.lft.to/lastmile_qr_scan", "android": "https://dc.lft.to/lastmile_qr_scan"}, "type": "electric_scooter", "fusion_lat": 0.0, "lon": -77.05501933333333}, {"fusion_lon": 0.0, "bike_id": "b396da9cbec846550035c3d4f7e5a93e", "is_disabled": 0, "is_reserved": 0, "lat": 38.905603166666666, "name": "b396da9cbec846550035c3d4f7e5a93e", "rental_uris": {"ios": "https://dc.lft.to/lastmile_qr_scan", "android": "https://dc.lft.to/lastmile_qr_scan"}, "type": "electric_scooter", "fusion_lat": 0.0, "lon": -77.03428583333333}, {"fusion_lon": 0.0, "bike_id": "3f9830d1e5990f262d0dc05937b0d1b6", "is_disabled": 0, "is_reserved": 0, "lat": 38.9232335, "name": "3f9830d1e5990f262d0dc05937b0d1b6", "rental_uris": {"ios": "https://dc.lft.to/lastmile_qr_scan", "android": "https://dc.lft.to/lastmile_qr_scan"}, "type": "electric_scooter", "fusion_lat": 0.0, "lon": -77.02122616666666}, {"fusion_lon": 0.0, "bike_id": "e0a3feb71f0f1c57a1255eab467197dd", "is_disabled": 0, "is_reserved": 0, "lat": 38.916399166666665, "name": "e0a3feb71f0f1c57a1255eab467197dd", "rental_uris": {"ios": "https://dc.lft.to/lastmile_qr_scan", "android": "https://dc.lft.to/lastmile_qr_scan"}, "type": "electric_scooter", "fusion_lat": 0.0, "lon": -77.0321175}, {"fusion_lon": 0.0, "bike_id": "e1ad34ef1a33a47f6ba7b091357c280a", "is_disabled": 0, "is_reserved": 0, "lat": 38.86086016666667, "name": "e1ad34ef1a33a47f6ba7b091357c280a", "rental_uris": {"ios": "https://dc.lft.to/lastmile_qr_scan", "android": "https://dc.lft.to/lastmile_qr_scan"}, "type": "electric_scooter", "fusion_lat": 0.0, "lon": -76.983754}, {"fusion_lon": 0.0, "bike_id": "e751fc448661987a1a5aa7609fa96c5b", "is_disabled": 0, "is_reserved": 0, "lat": 38.914828666666665, "name": "e751fc448661987a1a5aa7609fa96c5b", "rental_uris": {"ios": "https://dc.lft.to/lastmile_qr_scan", "android": "https://dc.lft.to/lastmile_qr_scan"}, "type": "electric_scooter", "fusion_lat": 0.0, "lon": -77.03661583333333}, {"fusion_lon": 0.0, "bike_id": "49af289bd3e9b057506ce69751d6c937", "is_disabled": 0, "is_reserved": 0, "lat": 38.924528, "name": "49af289bd3e9b057506ce69751d6c937", "rental_uris": {"ios": "https://dc.lft.to/lastmile_qr_scan", "android": "https://dc.lft.to/lastmile_qr_scan"}, "type": "electric_scooter", "fusion_lat": 0.0, "lon": -77.03284533333333}, {"fusion_lon": 0.0, "bike_id": "ab2f2cb8ff27340c9165ee30bfb3c143", "is_disabled": 0, "is_reserved": 0, "lat": 38.87788316666666, "name": "ab2f2cb8ff27340c9165ee30bfb3c143", "rental_uris": {"ios": "https://dc.lft.to/lastmile_qr_scan", "android": "https://dc.lft.to/lastmile_qr_scan"}, "type": "electric_scooter", "fusion_lat": 0.0, "lon": -77.00119966666666}, {"fusion_lon": 0.0, "bike_id": "a9b5a5e7bc5a982bdbc211a5e01a9903", "is_disabled": 0, "is_reserved": 0, "lat": 38.92419833333334, "name": "a9b5a5e7bc5a982bdbc211a5e01a9903", "rental_uris": {"ios": "https://dc.lft.to/lastmile_qr_scan", "android": "https://dc.lft.to/lastmile_qr_scan"}, "type": "electric_scooter", "fusion_lat": 0.0, "lon": -77.02009583333333}, {"fusion_lon": 0.0, "bike_id": "dc4943f73c8726e4993d725ec7872eeb", "is_disabled": 0, "is_reserved": 0, "lat": 38.8976445, "name": "dc4943f73c8726e4993d725ec7872eeb", "rental_uris": {"ios": "https://dc.lft.to/lastmile_qr_scan", "android": "https://dc.lft.to/lastmile_qr_scan"}, "type": "electric_scooter", "fusion_lat": 0.0, "lon": -77.027062}, {"fusion_lon": 0.0, "bike_id": "528724bfecd48ccae35e614c6b67948c", "is_disabled": 0, "is_reserved": 0, "lat": 38.911848166666665, "name": "528724bfecd48ccae35e614c6b67948c", "rental_uris": {"ios": "https://dc.lft.to/lastmile_qr_scan", "android": "https://dc.lft.to/lastmile_qr_scan"}, "type": "electric_scooter", "fusion_lat": 0.0, "lon": -77.04039033333333}, {"fusion_lon": 0.0, "bike_id": "ac35815e68446bd8b52c825faf492fce", "is_disabled": 0, "is_reserved": 0, "lat": 38.934029333333335, "name": "ac35815e68446bd8b52c825faf492fce", "rental_uris": {"ios": "https://dc.lft.to/lastmile_qr_scan", "android": "https://dc.lft.to/lastmile_qr_scan"}, "type": "electric_scooter", "fusion_lat": 0.0, "lon": -77.0455425}, {"fusion_lon": 0.0, "bike_id": "ac126d9bf7edc91233c9a61f700d6b86", "is_disabled": 0, "is_reserved": 0, "lat": 38.921571, "name": "ac126d9bf7edc91233c9a61f700d6b86", "rental_uris": {"ios": "https://dc.lft.to/lastmile_qr_scan", "android": "https://dc.lft.to/lastmile_qr_scan"}, "type": "electric_scooter", "fusion_lat": 0.0, "lon": -77.0435985}, {"fusion_lon": 0.0, "bike_id": "9c155a49694134c15338206d4162095e", "is_disabled": 0, "is_reserved": 0, "lat": 38.908887666666665, "name": "9c155a49694134c15338206d4162095e", "rental_uris": {"ios": "https://dc.lft.to/lastmile_qr_scan", "android": "https://dc.lft.to/lastmile_qr_scan"}, "type": "electric_bike", "fusion_lat": 0.0, "lon": -76.92487833333334}, {"fusion_lon": 0.0, "bike_id": "fe815af5f669d35824ce9193ed5fb19c", "is_disabled": 0, "is_reserved": 0, "lat": 38.92051133333333, "name": "fe815af5f669d35824ce9193ed5fb19c", "rental_uris": {"ios": "https://dc.lft.to/lastmile_qr_scan", "android": "https://dc.lft.to/lastmile_qr_scan"}, "type": "electric_scooter", "fusion_lat": 0.0, "lon": -77.0418425}, {"fusion_lon": 0.0, "bike_id": "3eec2b622c7f68c0b19c7544e0748fd9", "is_disabled": 0, "is_reserved": 0, "lat": 38.916995666666665, "name": "3eec2b622c7f68c0b19c7544e0748fd9", "rental_uris": {"ios": "https://dc.lft.to/lastmile_qr_scan", "android": "https://dc.lft.to/lastmile_qr_scan"}, "type": "electric_scooter", "fusion_lat": 0.0, "lon": -77.01040083333334}, {"fusion_lon": 0.0, "bike_id": "d335ef154e1f27667f87a7abbd18e190", "is_disabled": 0, "is_reserved": 0, "lat": 38.91820883333333, "name": "d335ef154e1f27667f87a7abbd18e190", "rental_uris": {"ios": "https://dc.lft.to/lastmile_qr_scan", "android": "https://dc.lft.to/lastmile_qr_scan"}, "type": "electric_scooter", "fusion_lat": 0.0, "lon": -77.02933383333334}, {"fusion_lon": 0.0, "bike_id": "973428be05a98da70837e40b26115c9a", "is_disabled": 0, "is_reserved": 0, "lat": 38.913524833333334, "name": "973428be05a98da70837e40b26115c9a", "rental_uris": {"ios": "https://dc.lft.to/lastmile_qr_scan", "android": "https://dc.lft.to/lastmile_qr_scan"}, "type": "electric_scooter", "fusion_lat": 0.0, "lon": -76.97139466666667}, {"fusion_lon": 0.0, "bike_id": "22815296ad65aa831f85627903292099", "is_disabled": 0, "is_reserved": 0, "lat": 38.869373333333336, "name": "22815296ad65aa831f85627903292099", "rental_uris": {"ios": "https://dc.lft.to/lastmile_qr_scan", "android": "https://dc.lft.to/lastmile_qr_scan"}, "type": "electric_scooter", "fusion_lat": 0.0, "lon": -76.9774305}, {"fusion_lon": 0.0, "bike_id": "6f17cabedd32fa38ecdd1e819caf4779", "is_disabled": 0, "is_reserved": 0, "lat": 38.90783283333333, "name": "6f17cabedd32fa38ecdd1e819caf4779", "rental_uris": {"ios": "https://dc.lft.to/lastmile_qr_scan", "android": "https://dc.lft.to/lastmile_qr_scan"}, "type": "electric_scooter", "fusion_lat": 0.0, "lon": -76.99857716666666}, {"fusion_lon": 0.0, "bike_id": "1d08c83745ce2d94da11a92f972c73fc", "is_disabled": 0, "is_reserved": 0, "lat": 38.906101, "name": "1d08c83745ce2d94da11a92f972c73fc", "rental_uris": {"ios": "https://dc.lft.to/lastmile_qr_scan", "android": "https://dc.lft.to/lastmile_qr_scan"}, "type": "electric_scooter", "fusion_lat": 0.0, "lon": -77.05647366666666}, {"fusion_lon": 0.0, "bike_id": "d39d5d8cf18c1e2547c84e9a199180f8", "is_disabled": 0, "is_reserved": 0, "lat": 38.895468666666666, "name": "d39d5d8cf18c1e2547c84e9a199180f8", "rental_uris": {"ios": "https://dc.lft.to/lastmile_qr_scan", "android": "https://dc.lft.to/lastmile_qr_scan"}, "type": "electric_scooter", "fusion_lat": 0.0, "lon": -76.98338983333333}, {"fusion_lon": 0.0, "bike_id": "ebd83706b1746cb5b0eafab8c0d53fa9", "is_disabled": 0, "is_reserved": 0, "lat": 38.92851533333334, "name": "ebd83706b1746cb5b0eafab8c0d53fa9", "rental_uris": {"ios": "https://dc.lft.to/lastmile_qr_scan", "android": "https://dc.lft.to/lastmile_qr_scan"}, "type": "electric_scooter", "fusion_lat": 0.0, "lon": -77.01413966666667}, {"fusion_lon": 0.0, "bike_id": "b8e5f26e6603f0ad419eb6f0b8c29ca2", "is_disabled": 0, "is_reserved": 0, "lat": 38.911197, "name": "b8e5f26e6603f0ad419eb6f0b8c29ca2", "rental_uris": {"ios": "https://dc.lft.to/lastmile_qr_scan", "android": "https://dc.lft.to/lastmile_qr_scan"}, "type": "electric_scooter", "fusion_lat": 0.0, "lon": -77.03270216666667}, {"fusion_lon": 0.0, "bike_id": "5f6af14b67422e915d8c9e471bf744d0", "is_disabled": 0, "is_reserved": 0, "lat": 38.951874, "name": "5f6af14b67422e915d8c9e471bf744d0", "rental_uris": {"ios": "https://dc.lft.to/lastmile_qr_scan", "android": "https://dc.lft.to/lastmile_qr_scan"}, "type": "electric_bike", "fusion_lat": 0.0, "lon": -76.93545066666667}, {"fusion_lon": 0.0, "bike_id": "03dbe084aab658d384cb283bb47159d8", "is_disabled": 0, "is_reserved": 0, "lat": 38.918170833333335, "name": "03dbe084aab658d384cb283bb47159d8", "rental_uris": {"ios": "https://dc.lft.to/lastmile_qr_scan", "android": "https://dc.lft.to/lastmile_qr_scan"}, "type": "electric_scooter", "fusion_lat": 0.0, "lon": -77.0400485}, {"fusion_lon": 0.0, "bike_id": "1addad4bc3d091f1d190680d031e3630", "is_disabled": 0, "is_reserved": 0, "lat": 38.92369133333333, "name": "1addad4bc3d091f1d190680d031e3630", "rental_uris": {"ios": "https://dc.lft.to/lastmile_qr_scan", "android": "https://dc.lft.to/lastmile_qr_scan"}, "type": "electric_scooter", "fusion_lat": 0.0, "lon": -77.08056883333333}, {"fusion_lon": 0.0, "bike_id": "e91d3bd3d3ff84a412ca2a5faffd6b67", "is_disabled": 0, "is_reserved": 0, "lat": 38.89223116666667, "name": "e91d3bd3d3ff84a412ca2a5faffd6b67", "rental_uris": {"ios": "https://dc.lft.to/lastmile_qr_scan", "android": "https://dc.lft.to/lastmile_qr_scan"}, "type": "electric_scooter", "fusion_lat": 0.0, "lon": -77.03988183333334}, {"fusion_lon": 0.0, "bike_id": "bf4cda788dc6c691b4f14016c37b2a3e", "is_disabled": 0, "is_reserved": 0, "lat": 38.92330333333334, "name": "bf4cda788dc6c691b4f14016c37b2a3e", "rental_uris": {"ios": "https://dc.lft.to/lastmile_qr_scan", "android": "https://dc.lft.to/lastmile_qr_scan"}, "type": "electric_scooter", "fusion_lat": 0.0, "lon": -77.03782816666667}, {"fusion_lon": 0.0, "bike_id": "74963ff82b3514db82cf2aba12398b28", "is_disabled": 0, "is_reserved": 0, "lat": 38.9558925, "name": "74963ff82b3514db82cf2aba12398b28", "rental_uris": {"ios": "https://dc.lft.to/lastmile_qr_scan", "android": "https://dc.lft.to/lastmile_qr_scan"}, "type": "electric_scooter", "fusion_lat": 0.0, "lon": -77.01786533333333}, {"fusion_lon": 0.0, "bike_id": "7df0af5339ee46084dca9c92a1d80c2e", "is_disabled": 0, "is_reserved": 0, "lat": 38.9027045, "name": "7df0af5339ee46084dca9c92a1d80c2e", "rental_uris": {"ios": "https://dc.lft.to/lastmile_qr_scan", "android": "https://dc.lft.to/lastmile_qr_scan"}, "type": "electric_scooter", "fusion_lat": 0.0, "lon": -77.03256533333334}, {"fusion_lon": 0.0, "bike_id": "25967c37fc6fa2fcea63d0b0501c02f0", "is_disabled": 0, "is_reserved": 0, "lat": 38.91695466666667, "name": "25967c37fc6fa2fcea63d0b0501c02f0", "rental_uris": {"ios": "https://dc.lft.to/lastmile_qr_scan", "android": "https://dc.lft.to/lastmile_qr_scan"}, "type": "electric_scooter", "fusion_lat": 0.0, "lon": -77.03776416666666}, {"fusion_lon": 0.0, "bike_id": "a9be6375cac10a304420e0923833e337", "is_disabled": 0, "is_reserved": 0, "lat": 38.90120533333333, "name": "a9be6375cac10a304420e0923833e337", "rental_uris": {"ios": "https://dc.lft.to/lastmile_qr_scan", "android": "https://dc.lft.to/lastmile_qr_scan"}, "type": "electric_scooter", "fusion_lat": 0.0, "lon": -76.998495}, {"fusion_lon": 0.0, "bike_id": "db83a67d99cf8347e63b54701fddb433", "is_disabled": 0, "is_reserved": 0, "lat": 38.904338, "name": "db83a67d99cf8347e63b54701fddb433", "rental_uris": {"ios": "https://dc.lft.to/lastmile_qr_scan", "android": "https://dc.lft.to/lastmile_qr_scan"}, "type": "electric_scooter", "fusion_lat": 0.0, "lon": -77.03464466666667}, {"fusion_lon": 0.0, "bike_id": "b7057b0b7dcc7217f27d5e69710bab42", "is_disabled": 0, "is_reserved": 0, "lat": 38.93143216666667, "name": "b7057b0b7dcc7217f27d5e69710bab42", "rental_uris": {"ios": "https://dc.lft.to/lastmile_qr_scan", "android": "https://dc.lft.to/lastmile_qr_scan"}, "type": "electric_scooter", "fusion_lat": 0.0, "lon": -77.02152616666666}, {"fusion_lon": 0.0, "bike_id": "94ea90d0c91aae011627938651d4b06a", "is_disabled": 0, "is_reserved": 0, "lat": 38.88619883333333, "name": "94ea90d0c91aae011627938651d4b06a", "rental_uris": {"ios": "https://dc.lft.to/lastmile_qr_scan", "android": "https://dc.lft.to/lastmile_qr_scan"}, "type": "electric_scooter", "fusion_lat": 0.0, "lon": -76.92635}, {"fusion_lon": 0.0, "bike_id": "748bbfd60fe459716eb209af52b78bd7", "is_disabled": 0, "is_reserved": 0, "lat": 38.909746166666665, "name": "748bbfd60fe459716eb209af52b78bd7", "rental_uris": {"ios": "https://dc.lft.to/lastmile_qr_scan", "android": "https://dc.lft.to/lastmile_qr_scan"}, "type": "electric_scooter", "fusion_lat": 0.0, "lon": -77.048728}, {"fusion_lon": 0.0, "bike_id": "f1d8ff85bae4b1baf96b80e2fc78a2c2", "is_disabled": 0, "is_reserved": 0, "lat": 38.914059, "name": "f1d8ff85bae4b1baf96b80e2fc78a2c2", "rental_uris": {"ios": "https://dc.lft.to/lastmile_qr_scan", "android": "https://dc.lft.to/lastmile_qr_scan"}, "type": "electric_scooter", "fusion_lat": 0.0, "lon": -77.009834}, {"fusion_lon": 0.0, "bike_id": "af80aaec0ea97beb3513af90308a64c7", "is_disabled": 0, "is_reserved": 0, "lat": 38.879244666666665, "name": "af80aaec0ea97beb3513af90308a64c7", "rental_uris": {"ios": "https://dc.lft.to/lastmile_qr_scan", "android": "https://dc.lft.to/lastmile_qr_scan"}, "type": "electric_scooter", "fusion_lat": 0.0, "lon": -77.02155666666667}, {"fusion_lon": 0.0, "bike_id": "812c58f459dda9cf34fcaedad9682e5e", "is_disabled": 0, "is_reserved": 0, "lat": 38.93250966666667, "name": "812c58f459dda9cf34fcaedad9682e5e", "rental_uris": {"ios": "https://dc.lft.to/lastmile_qr_scan", "android": "https://dc.lft.to/lastmile_qr_scan"}, "type": "electric_scooter", "fusion_lat": 0.0, "lon": -77.0388475}, {"fusion_lon": 0.0, "bike_id": "46dbe8208a376022f9f5dc6ec97f0b01", "is_disabled": 0, "is_reserved": 0, "lat": 38.915417166666664, "name": "46dbe8208a376022f9f5dc6ec97f0b01", "rental_uris": {"ios": "https://dc.lft.to/lastmile_qr_scan", "android": "https://dc.lft.to/lastmile_qr_scan"}, "type": "electric_scooter", "fusion_lat": 0.0, "lon": -77.04454916666667}, {"fusion_lon": 0.0, "bike_id": "453c10ab4c206ef306ed234b345290c6", "is_disabled": 0, "is_reserved": 0, "lat": 38.933568, "name": "453c10ab4c206ef306ed234b345290c6", "rental_uris": {"ios": "https://dc.lft.to/lastmile_qr_scan", "android": "https://dc.lft.to/lastmile_qr_scan"}, "type": "electric_scooter", "fusion_lat": 0.0, "lon": -77.027436}, {"fusion_lon": 0.0, "bike_id": "02242dd0d3766d92ccc6a61a8f6b7fda", "is_disabled": 0, "is_reserved": 0, "lat": 38.895100666666664, "name": "02242dd0d3766d92ccc6a61a8f6b7fda", "rental_uris": {"ios": "https://dc.lft.to/lastmile_qr_scan", "android": "https://dc.lft.to/lastmile_qr_scan"}, "type": "electric_scooter", "fusion_lat": 0.0, "lon": -76.94891716666666}, {"fusion_lon": 0.0, "bike_id": "a0e607a6afbb02fe5066002b2713811b", "is_disabled": 0, "is_reserved": 0, "lat": 38.919555833333334, "name": "a0e607a6afbb02fe5066002b2713811b", "rental_uris": {"ios": "https://dc.lft.to/lastmile_qr_scan", "android": "https://dc.lft.to/lastmile_qr_scan"}, "type": "electric_scooter", "fusion_lat": 0.0, "lon": -77.07871016666667}, {"fusion_lon": 0.0, "bike_id": "cf50ae06295135158d25f4f428be7cfd", "is_disabled": 0, "is_reserved": 0, "lat": 38.927105, "name": "cf50ae06295135158d25f4f428be7cfd", "rental_uris": {"ios": "https://dc.lft.to/lastmile_qr_scan", "android": "https://dc.lft.to/lastmile_qr_scan"}, "type": "electric_scooter", "fusion_lat": 0.0, "lon": -77.0600725}, {"fusion_lon": 0.0, "bike_id": "8b3b6a2302071fc7751f948a02ccc2cb", "is_disabled": 0, "is_reserved": 0, "lat": 39.02650383333334, "name": "8b3b6a2302071fc7751f948a02ccc2cb", "rental_uris": {"ios": "https://dc.lft.to/lastmile_qr_scan", "android": "https://dc.lft.to/lastmile_qr_scan"}, "type": "electric_bike", "fusion_lat": 0.0, "lon": -77.03685933333334}, {"fusion_lon": 0.0, "bike_id": "9288f7b40fbf85ae43fcceeb111f33b8", "is_disabled": 0, "is_reserved": 0, "lat": 38.942015, "name": "9288f7b40fbf85ae43fcceeb111f33b8", "rental_uris": {"ios": "https://dc.lft.to/lastmile_qr_scan", "android": "https://dc.lft.to/lastmile_qr_scan"}, "type": "electric_scooter", "fusion_lat": 0.0, "lon": -77.0133485}, {"fusion_lon": 0.0, "bike_id": "669be6adfbf5232c7c7be892a791215a", "is_disabled": 0, "is_reserved": 0, "lat": 38.9216865, "name": "669be6adfbf5232c7c7be892a791215a", "rental_uris": {"ios": "https://dc.lft.to/lastmile_qr_scan", "android": "https://dc.lft.to/lastmile_qr_scan"}, "type": "electric_scooter", "fusion_lat": 0.0, "lon": -77.031946}, {"fusion_lon": 0.0, "bike_id": "87090599564442fc3946ce65b1ea363a", "is_disabled": 0, "is_reserved": 0, "lat": 38.9055345, "name": "87090599564442fc3946ce65b1ea363a", "rental_uris": {"ios": "https://dc.lft.to/lastmile_qr_scan", "android": "https://dc.lft.to/lastmile_qr_scan"}, "type": "electric_scooter", "fusion_lat": 0.0, "lon": -77.005587}, {"fusion_lon": 0.0, "bike_id": "9adde5911506e31412b0f009b4793b73", "is_disabled": 0, "is_reserved": 0, "lat": 38.931146166666664, "name": "9adde5911506e31412b0f009b4793b73", "rental_uris": {"ios": "https://dc.lft.to/lastmile_qr_scan", "android": "https://dc.lft.to/lastmile_qr_scan"}, "type": "electric_scooter", "fusion_lat": 0.0, "lon": -77.02096516666667}, {"fusion_lon": 0.0, "bike_id": "c17e246939e3cf47324fe77c33f53278", "is_disabled": 0, "is_reserved": 0, "lat": 38.89906083333333, "name": "c17e246939e3cf47324fe77c33f53278", "rental_uris": {"ios": "https://dc.lft.to/lastmile_qr_scan", "android": "https://dc.lft.to/lastmile_qr_scan"}, "type": "electric_scooter", "fusion_lat": 0.0, "lon": -76.9339065}, {"fusion_lon": 0.0, "bike_id": "ccc46034f3f35ae8716deecbb1dd342c", "is_disabled": 0, "is_reserved": 0, "lat": 38.917011, "name": "ccc46034f3f35ae8716deecbb1dd342c", "rental_uris": {"ios": "https://dc.lft.to/lastmile_qr_scan", "android": "https://dc.lft.to/lastmile_qr_scan"}, "type": "electric_scooter", "fusion_lat": 0.0, "lon": -77.03117533333334}, {"fusion_lon": 0.0, "bike_id": "ffb1a7719282b062040595bc61710453", "is_disabled": 0, "is_reserved": 0, "lat": 38.91251483333333, "name": "ffb1a7719282b062040595bc61710453", "rental_uris": {"ios": "https://dc.lft.to/lastmile_qr_scan", "android": "https://dc.lft.to/lastmile_qr_scan"}, "type": "electric_scooter", "fusion_lat": 0.0, "lon": -77.04766666666667}, {"fusion_lon": 0.0, "bike_id": "3f49e6f4be92bb1052eff85c7e90a306", "is_disabled": 0, "is_reserved": 0, "lat": 38.919142666666666, "name": "3f49e6f4be92bb1052eff85c7e90a306", "rental_uris": {"ios": "https://dc.lft.to/lastmile_qr_scan", "android": "https://dc.lft.to/lastmile_qr_scan"}, "type": "electric_scooter", "fusion_lat": 0.0, "lon": -77.044715}, {"fusion_lon": 0.0, "bike_id": "6ede06404a88475a67f8b7acb66d350a", "is_disabled": 0, "is_reserved": 0, "lat": 38.9011535, "name": "6ede06404a88475a67f8b7acb66d350a", "rental_uris": {"ios": "https://dc.lft.to/lastmile_qr_scan", "android": "https://dc.lft.to/lastmile_qr_scan"}, "type": "electric_scooter", "fusion_lat": 0.0, "lon": -77.0272225}, {"fusion_lon": 0.0, "bike_id": "e41cb3a6cea5b711f3bad4d92f67b230", "is_disabled": 0, "is_reserved": 0, "lat": 38.91809383333333, "name": "e41cb3a6cea5b711f3bad4d92f67b230", "rental_uris": {"ios": "https://dc.lft.to/lastmile_qr_scan", "android": "https://dc.lft.to/lastmile_qr_scan"}, "type": "electric_scooter", "fusion_lat": 0.0, "lon": -77.01158816666667}, {"fusion_lon": 0.0, "bike_id": "1f689d2866b112e86a861e04f5892e65", "is_disabled": 0, "is_reserved": 0, "lat": 38.91928583333333, "name": "1f689d2866b112e86a861e04f5892e65", "rental_uris": {"ios": "https://dc.lft.to/lastmile_qr_scan", "android": "https://dc.lft.to/lastmile_qr_scan"}, "type": "electric_scooter", "fusion_lat": 0.0, "lon": -77.0179965}, {"fusion_lon": 0.0, "bike_id": "9daf0a899c2b5678b439cbe13852f818", "is_disabled": 0, "is_reserved": 0, "lat": 38.86202083333333, "name": "9daf0a899c2b5678b439cbe13852f818", "rental_uris": {"ios": "https://dc.lft.to/lastmile_qr_scan", "android": "https://dc.lft.to/lastmile_qr_scan"}, "type": "electric_scooter", "fusion_lat": 0.0, "lon": -76.994636}, {"fusion_lon": 0.0, "bike_id": "2b20be6784dc8cfd1fd20049fd7f3d70", "is_disabled": 0, "is_reserved": 0, "lat": 38.9240335, "name": "2b20be6784dc8cfd1fd20049fd7f3d70", "rental_uris": {"ios": "https://dc.lft.to/lastmile_qr_scan", "android": "https://dc.lft.to/lastmile_qr_scan"}, "type": "electric_scooter", "fusion_lat": 0.0, "lon": -77.03541283333334}, {"fusion_lon": 0.0, "bike_id": "2efa37b415a71e453766c6b5c4cb5b61", "is_disabled": 0, "is_reserved": 0, "lat": 38.92587266666666, "name": "2efa37b415a71e453766c6b5c4cb5b61", "rental_uris": {"ios": "https://dc.lft.to/lastmile_qr_scan", "android": "https://dc.lft.to/lastmile_qr_scan"}, "type": "electric_scooter", "fusion_lat": 0.0, "lon": -77.03736883333333}, {"fusion_lon": 0.0, "bike_id": "2bedff1c4b73d49dd7efd0ab2a0bef45", "is_disabled": 0, "is_reserved": 0, "lat": 38.906054166666664, "name": "2bedff1c4b73d49dd7efd0ab2a0bef45", "rental_uris": {"ios": "https://dc.lft.to/lastmile_qr_scan", "android": "https://dc.lft.to/lastmile_qr_scan"}, "type": "electric_scooter", "fusion_lat": 0.0, "lon": -77.02110983333333}, {"fusion_lon": 0.0, "bike_id": "7449ae2bdd7e742dabb22ba9a3f51062", "is_disabled": 0, "is_reserved": 0, "lat": 38.886070833333335, "name": "7449ae2bdd7e742dabb22ba9a3f51062", "rental_uris": {"ios": "https://dc.lft.to/lastmile_qr_scan", "android": "https://dc.lft.to/lastmile_qr_scan"}, "type": "electric_scooter", "fusion_lat": 0.0, "lon": -76.98549166666666}, {"fusion_lon": 0.0, "bike_id": "806de62486048b43dcc1ec9446186266", "is_disabled": 0, "is_reserved": 0, "lat": 38.9180745, "name": "806de62486048b43dcc1ec9446186266", "rental_uris": {"ios": "https://dc.lft.to/lastmile_qr_scan", "android": "https://dc.lft.to/lastmile_qr_scan"}, "type": "electric_scooter", "fusion_lat": 0.0, "lon": -77.0343785}, {"fusion_lon": 0.0, "bike_id": "14a2d7e3d32afbf269094e96978fb3a0", "is_disabled": 0, "is_reserved": 0, "lat": 38.86125583333333, "name": "14a2d7e3d32afbf269094e96978fb3a0", "rental_uris": {"ios": "https://dc.lft.to/lastmile_qr_scan", "android": "https://dc.lft.to/lastmile_qr_scan"}, "type": "electric_scooter", "fusion_lat": 0.0, "lon": -77.00323633333333}, {"fusion_lon": 0.0, "bike_id": "647ccc7fec28834a2efbc03cdf74421d", "is_disabled": 0, "is_reserved": 0, "lat": 38.8784065, "name": "647ccc7fec28834a2efbc03cdf74421d", "rental_uris": {"ios": "https://dc.lft.to/lastmile_qr_scan", "android": "https://dc.lft.to/lastmile_qr_scan"}, "type": "electric_scooter", "fusion_lat": 0.0, "lon": -77.00500766666667}, {"fusion_lon": 0.0, "bike_id": "21dadb39d8fd89434ccb2dd63902fd63", "is_disabled": 0, "is_reserved": 0, "lat": 38.915600166666664, "name": "21dadb39d8fd89434ccb2dd63902fd63", "rental_uris": {"ios": "https://dc.lft.to/lastmile_qr_scan", "android": "https://dc.lft.to/lastmile_qr_scan"}, "type": "electric_scooter", "fusion_lat": 0.0, "lon": -77.03165016666667}, {"fusion_lon": 0.0, "bike_id": "8325d89f4d711c2c7ebc99d4b2253df8", "is_disabled": 0, "is_reserved": 0, "lat": 38.91352166666667, "name": "8325d89f4d711c2c7ebc99d4b2253df8", "rental_uris": {"ios": "https://dc.lft.to/lastmile_qr_scan", "android": "https://dc.lft.to/lastmile_qr_scan"}, "type": "electric_scooter", "fusion_lat": 0.0, "lon": -77.03188333333334}, {"fusion_lon": 0.0, "bike_id": "ad17343d570481edbb200cb0c2edb7dc", "is_disabled": 0, "is_reserved": 0, "lat": 38.903744, "name": "ad17343d570481edbb200cb0c2edb7dc", "rental_uris": {"ios": "https://dc.lft.to/lastmile_qr_scan", "android": "https://dc.lft.to/lastmile_qr_scan"}, "type": "electric_scooter", "fusion_lat": 0.0, "lon": -77.01764016666667}, {"fusion_lon": 0.0, "bike_id": "28d2c29a2304a33e0509c9526d051b53", "is_disabled": 0, "is_reserved": 0, "lat": 38.91931783333333, "name": "28d2c29a2304a33e0509c9526d051b53", "rental_uris": {"ios": "https://dc.lft.to/lastmile_qr_scan", "android": "https://dc.lft.to/lastmile_qr_scan"}, "type": "electric_scooter", "fusion_lat": 0.0, "lon": -77.01796833333333}, {"fusion_lon": 0.0, "bike_id": "db9c0f57e5c09b1f7cf24874e5b3f2cf", "is_disabled": 0, "is_reserved": 0, "lat": 38.9194405, "name": "db9c0f57e5c09b1f7cf24874e5b3f2cf", "rental_uris": {"ios": "https://dc.lft.to/lastmile_qr_scan", "android": "https://dc.lft.to/lastmile_qr_scan"}, "type": "electric_scooter", "fusion_lat": 0.0, "lon": -77.0179615}, {"fusion_lon": 0.0, "bike_id": "ba8f361fe6ed80a538dd649b940e6dd8", "is_disabled": 0, "is_reserved": 0, "lat": 38.88714983333333, "name": "ba8f361fe6ed80a538dd649b940e6dd8", "rental_uris": {"ios": "https://dc.lft.to/lastmile_qr_scan", "android": "https://dc.lft.to/lastmile_qr_scan"}, "type": "electric_scooter", "fusion_lat": 0.0, "lon": -76.983839}, {"fusion_lon": 0.0, "bike_id": "66822caf05233c1cc5911bd56be37762", "is_disabled": 0, "is_reserved": 0, "lat": 38.92290966666667, "name": "66822caf05233c1cc5911bd56be37762", "rental_uris": {"ios": "https://dc.lft.to/lastmile_qr_scan", "android": "https://dc.lft.to/lastmile_qr_scan"}, "type": "electric_scooter", "fusion_lat": 0.0, "lon": -77.02245166666667}, {"fusion_lon": 0.0, "bike_id": "291e033081a355d3704cc26ef7747c9c", "is_disabled": 0, "is_reserved": 0, "lat": 38.917101333333335, "name": "291e033081a355d3704cc26ef7747c9c", "rental_uris": {"ios": "https://dc.lft.to/lastmile_qr_scan", "android": "https://dc.lft.to/lastmile_qr_scan"}, "type": "electric_scooter", "fusion_lat": 0.0, "lon": -77.03862683333334}, {"fusion_lon": 0.0, "bike_id": "e6acdebafe35fb22bf24363b31224927", "is_disabled": 0, "is_reserved": 0, "lat": 38.913796833333336, "name": "e6acdebafe35fb22bf24363b31224927", "rental_uris": {"ios": "https://dc.lft.to/lastmile_qr_scan", "android": "https://dc.lft.to/lastmile_qr_scan"}, "type": "electric_scooter", "fusion_lat": 0.0, "lon": -77.04483383333333}, {"fusion_lon": 0.0, "bike_id": "7f3385a0bae01cefd114d6e441e89129", "is_disabled": 0, "is_reserved": 0, "lat": 38.92471616666667, "name": "7f3385a0bae01cefd114d6e441e89129", "rental_uris": {"ios": "https://dc.lft.to/lastmile_qr_scan", "android": "https://dc.lft.to/lastmile_qr_scan"}, "type": "electric_scooter", "fusion_lat": 0.0, "lon": -77.02213566666667}, {"fusion_lon": 0.0, "bike_id": "70e5a7a03a1f97f10cc11476dd2c55e2", "is_disabled": 0, "is_reserved": 0, "lat": 38.924199333333334, "name": "70e5a7a03a1f97f10cc11476dd2c55e2", "rental_uris": {"ios": "https://dc.lft.to/lastmile_qr_scan", "android": "https://dc.lft.to/lastmile_qr_scan"}, "type": "electric_scooter", "fusion_lat": 0.0, "lon": -77.02039116666667}, {"fusion_lon": 0.0, "bike_id": "3634107aab2ad2c3de436fed272e5099", "is_disabled": 0, "is_reserved": 0, "lat": 38.92427766666667, "name": "3634107aab2ad2c3de436fed272e5099", "rental_uris": {"ios": "https://dc.lft.to/lastmile_qr_scan", "android": "https://dc.lft.to/lastmile_qr_scan"}, "type": "electric_scooter", "fusion_lat": 0.0, "lon": -77.040441}, {"fusion_lon": 0.0, "bike_id": "3131fa3f1a969766416bcead43761670", "is_disabled": 0, "is_reserved": 0, "lat": 38.910250833333336, "name": "3131fa3f1a969766416bcead43761670", "rental_uris": {"ios": "https://dc.lft.to/lastmile_qr_scan", "android": "https://dc.lft.to/lastmile_qr_scan"}, "type": "electric_scooter", "fusion_lat": 0.0, "lon": -77.02943966666666}, {"fusion_lon": 0.0, "bike_id": "00f264610fd2e0dae23bf142614ef3c5", "is_disabled": 0, "is_reserved": 0, "lat": 38.898961166666666, "name": "00f264610fd2e0dae23bf142614ef3c5", "rental_uris": {"ios": "https://dc.lft.to/lastmile_qr_scan", "android": "https://dc.lft.to/lastmile_qr_scan"}, "type": "electric_scooter", "fusion_lat": 0.0, "lon": -77.00367166666666}, {"fusion_lon": 0.0, "bike_id": "f18bf76ab64a5964655e7f3133503506", "is_disabled": 0, "is_reserved": 0, "lat": 38.92782566666666, "name": "f18bf76ab64a5964655e7f3133503506", "rental_uris": {"ios": "https://dc.lft.to/lastmile_qr_scan", "android": "https://dc.lft.to/lastmile_qr_scan"}, "type": "electric_scooter", "fusion_lat": 0.0, "lon": -77.0272495}, {"fusion_lon": 0.0, "bike_id": "6acb51f21d64fc14364da0b3fb54cc54", "is_disabled": 0, "is_reserved": 0, "lat": 38.9153575, "name": "6acb51f21d64fc14364da0b3fb54cc54", "rental_uris": {"ios": "https://dc.lft.to/lastmile_qr_scan", "android": "https://dc.lft.to/lastmile_qr_scan"}, "type": "electric_scooter", "fusion_lat": 0.0, "lon": -77.0445665}, {"fusion_lon": 0.0, "bike_id": "8604892efec4b6f9f7ba9326f6082470", "is_disabled": 0, "is_reserved": 0, "lat": 38.915643833333334, "name": "8604892efec4b6f9f7ba9326f6082470", "rental_uris": {"ios": "https://dc.lft.to/lastmile_qr_scan", "android": "https://dc.lft.to/lastmile_qr_scan"}, "type": "electric_scooter", "fusion_lat": 0.0, "lon": -77.021762}, {"fusion_lon": 0.0, "bike_id": "78f2bc9aa177d2982961467ffb31767b", "is_disabled": 0, "is_reserved": 0, "lat": 38.9131235, "name": "78f2bc9aa177d2982961467ffb31767b", "rental_uris": {"ios": "https://dc.lft.to/lastmile_qr_scan", "android": "https://dc.lft.to/lastmile_qr_scan"}, "type": "electric_scooter", "fusion_lat": 0.0, "lon": -77.03462183333333}, {"fusion_lon": 0.0, "bike_id": "132c8a919393299977c5b471a98feabe", "is_disabled": 0, "is_reserved": 0, "lat": 38.921212833333335, "name": "132c8a919393299977c5b471a98feabe", "rental_uris": {"ios": "https://dc.lft.to/lastmile_qr_scan", "android": "https://dc.lft.to/lastmile_qr_scan"}, "type": "electric_scooter", "fusion_lat": 0.0, "lon": -77.02136366666667}, {"fusion_lon": 0.0, "bike_id": "555024c4560fd08b13809ddc90c41693", "is_disabled": 0, "is_reserved": 0, "lat": 38.91766233333333, "name": "555024c4560fd08b13809ddc90c41693", "rental_uris": {"ios": "https://dc.lft.to/lastmile_qr_scan", "android": "https://dc.lft.to/lastmile_qr_scan"}, "type": "electric_scooter", "fusion_lat": 0.0, "lon": -77.03997416666667}, {"fusion_lon": 0.0, "bike_id": "19736b039a94f4050dbb7e0a437f6a04", "is_disabled": 0, "is_reserved": 0, "lat": 38.918828833333336, "name": "19736b039a94f4050dbb7e0a437f6a04", "rental_uris": {"ios": "https://dc.lft.to/lastmile_qr_scan", "android": "https://dc.lft.to/lastmile_qr_scan"}, "type": "electric_scooter", "fusion_lat": 0.0, "lon": -77.035039}, {"fusion_lon": 0.0, "bike_id": "977e43809f2648052f38eeb00c60afd0", "is_disabled": 0, "is_reserved": 0, "lat": 38.924700666666666, "name": "977e43809f2648052f38eeb00c60afd0", "rental_uris": {"ios": "https://dc.lft.to/lastmile_qr_scan", "android": "https://dc.lft.to/lastmile_qr_scan"}, "type": "electric_scooter", "fusion_lat": 0.0, "lon": -77.02248566666667}, {"fusion_lon": 0.0, "bike_id": "50a9cb0bd3323b77928dbc2a0cea4a82", "is_disabled": 0, "is_reserved": 0, "lat": 38.91707816666667, "name": "50a9cb0bd3323b77928dbc2a0cea4a82", "rental_uris": {"ios": "https://dc.lft.to/lastmile_qr_scan", "android": "https://dc.lft.to/lastmile_qr_scan"}, "type": "electric_scooter", "fusion_lat": 0.0, "lon": -77.02413333333334}, {"fusion_lon": 0.0, "bike_id": "3d6c1964838be99784b3ebc740c9ef5e", "is_disabled": 0, "is_reserved": 0, "lat": 38.894025, "name": "3d6c1964838be99784b3ebc740c9ef5e", "rental_uris": {"ios": "https://dc.lft.to/lastmile_qr_scan", "android": "https://dc.lft.to/lastmile_qr_scan"}, "type": "electric_scooter", "fusion_lat": 0.0, "lon": -76.97824433333334}, {"fusion_lon": 0.0, "bike_id": "1300bc853ebc27e07edad1574e47799f", "is_disabled": 0, "is_reserved": 0, "lat": 38.876758333333335, "name": "1300bc853ebc27e07edad1574e47799f", "rental_uris": {"ios": "https://dc.lft.to/lastmile_qr_scan", "android": "https://dc.lft.to/lastmile_qr_scan"}, "type": "electric_scooter", "fusion_lat": 0.0, "lon": -77.0059315}, {"fusion_lon": 0.0, "bike_id": "303e382c525edd6f050c665af6fe7c6e", "is_disabled": 0, "is_reserved": 0, "lat": 38.8965285, "name": "303e382c525edd6f050c665af6fe7c6e", "rental_uris": {"ios": "https://dc.lft.to/lastmile_qr_scan", "android": "https://dc.lft.to/lastmile_qr_scan"}, "type": "electric_scooter", "fusion_lat": 0.0, "lon": -77.02841833333333}, {"fusion_lon": 0.0, "bike_id": "fd626eeecb9a8c05d379f2ce44c4c9fe", "is_disabled": 0, "is_reserved": 0, "lat": 38.87686, "name": "fd626eeecb9a8c05d379f2ce44c4c9fe", "rental_uris": {"ios": "https://dc.lft.to/lastmile_qr_scan", "android": "https://dc.lft.to/lastmile_qr_scan"}, "type": "electric_scooter", "fusion_lat": 0.0, "lon": -77.00196066666666}, {"fusion_lon": 0.0, "bike_id": "83e0c9039fa4ee6f0c5c3de06f798168", "is_disabled": 0, "is_reserved": 0, "lat": 38.90590816666667, "name": "83e0c9039fa4ee6f0c5c3de06f798168", "rental_uris": {"ios": "https://dc.lft.to/lastmile_qr_scan", "android": "https://dc.lft.to/lastmile_qr_scan"}, "type": "electric_scooter", "fusion_lat": 0.0, "lon": -77.06612766666667}, {"fusion_lon": 0.0, "bike_id": "df891b07b5da833c5cb77932a9ba566c", "is_disabled": 0, "is_reserved": 0, "lat": 38.80977166666667, "name": "df891b07b5da833c5cb77932a9ba566c", "rental_uris": {"ios": "https://dc.lft.to/lastmile_qr_scan", "android": "https://dc.lft.to/lastmile_qr_scan"}, "type": "electric_bike", "fusion_lat": 0.0, "lon": -77.0766055}, {"fusion_lon": 0.0, "bike_id": "7656ec0ea35ed33e190db3f08aef0e1d", "is_disabled": 0, "is_reserved": 0, "lat": 38.899835333333336, "name": "7656ec0ea35ed33e190db3f08aef0e1d", "rental_uris": {"ios": "https://dc.lft.to/lastmile_qr_scan", "android": "https://dc.lft.to/lastmile_qr_scan"}, "type": "electric_scooter", "fusion_lat": 0.0, "lon": -77.02652733333333}, {"fusion_lon": 0.0, "bike_id": "fdfb7c5a46909b60be140e78582baa88", "is_disabled": 0, "is_reserved": 0, "lat": 38.92415166666667, "name": "fdfb7c5a46909b60be140e78582baa88", "rental_uris": {"ios": "https://dc.lft.to/lastmile_qr_scan", "android": "https://dc.lft.to/lastmile_qr_scan"}, "type": "electric_scooter", "fusion_lat": 0.0, "lon": -77.021452}, {"fusion_lon": 0.0, "bike_id": "10782718af3eb9403cdaa84d96890fa6", "is_disabled": 0, "is_reserved": 0, "lat": 38.93207183333333, "name": "10782718af3eb9403cdaa84d96890fa6", "rental_uris": {"ios": "https://dc.lft.to/lastmile_qr_scan", "android": "https://dc.lft.to/lastmile_qr_scan"}, "type": "electric_bike", "fusion_lat": 0.0, "lon": -76.9742425}, {"fusion_lon": 0.0, "bike_id": "6738107c78919cf7da1aa75456f7d069", "is_disabled": 0, "is_reserved": 0, "lat": 38.939658333333334, "name": "6738107c78919cf7da1aa75456f7d069", "rental_uris": {"ios": "https://dc.lft.to/lastmile_qr_scan", "android": "https://dc.lft.to/lastmile_qr_scan"}, "type": "electric_bike", "fusion_lat": 0.0, "lon": -76.99131433333334}, {"fusion_lon": 0.0, "bike_id": "9546613b60ebd5b2505c8ce5a66d56bd", "is_disabled": 0, "is_reserved": 0, "lat": 38.92643616666667, "name": "9546613b60ebd5b2505c8ce5a66d56bd", "rental_uris": {"ios": "https://dc.lft.to/lastmile_qr_scan", "android": "https://dc.lft.to/lastmile_qr_scan"}, "type": "electric_scooter", "fusion_lat": 0.0, "lon": -77.03844083333334}, {"fusion_lon": 0.0, "bike_id": "8f81ca9c919193cc2e780bea12f64e43", "is_disabled": 0, "is_reserved": 0, "lat": 38.89816183333333, "name": "8f81ca9c919193cc2e780bea12f64e43", "rental_uris": {"ios": "https://dc.lft.to/lastmile_qr_scan", "android": "https://dc.lft.to/lastmile_qr_scan"}, "type": "electric_scooter", "fusion_lat": 0.0, "lon": -77.01268383333333}, {"fusion_lon": 0.0, "bike_id": "0ac545077447def1bad7e4c435e017b0", "is_disabled": 0, "is_reserved": 0, "lat": 38.9199215, "name": "0ac545077447def1bad7e4c435e017b0", "rental_uris": {"ios": "https://dc.lft.to/lastmile_qr_scan", "android": "https://dc.lft.to/lastmile_qr_scan"}, "type": "electric_scooter", "fusion_lat": 0.0, "lon": -77.03245616666666}, {"fusion_lon": 0.0, "bike_id": "f88beb6ca2682f5423742577c843cea7", "is_disabled": 0, "is_reserved": 0, "lat": 38.903777, "name": "f88beb6ca2682f5423742577c843cea7", "rental_uris": {"ios": "https://dc.lft.to/lastmile_qr_scan", "android": "https://dc.lft.to/lastmile_qr_scan"}, "type": "electric_scooter", "fusion_lat": 0.0, "lon": -77.0600885}, {"fusion_lon": 0.0, "bike_id": "5ba38ffee91bdfecabea32758559dd96", "is_disabled": 0, "is_reserved": 0, "lat": 38.900585, "name": "5ba38ffee91bdfecabea32758559dd96", "rental_uris": {"ios": "https://dc.lft.to/lastmile_qr_scan", "android": "https://dc.lft.to/lastmile_qr_scan"}, "type": "electric_scooter", "fusion_lat": 0.0, "lon": -76.987097}, {"fusion_lon": 0.0, "bike_id": "eae10322eb2108cb61006f852a336d10", "is_disabled": 0, "is_reserved": 0, "lat": 38.856511166666664, "name": "eae10322eb2108cb61006f852a336d10", "rental_uris": {"ios": "https://dc.lft.to/lastmile_qr_scan", "android": "https://dc.lft.to/lastmile_qr_scan"}, "type": "electric_bike", "fusion_lat": 0.0, "lon": -77.085323}, {"fusion_lon": 0.0, "bike_id": "595bda270cd13b264dbebffa3932d81e", "is_disabled": 0, "is_reserved": 0, "lat": 38.871515333333335, "name": "595bda270cd13b264dbebffa3932d81e", "rental_uris": {"ios": "https://dc.lft.to/lastmile_qr_scan", "android": "https://dc.lft.to/lastmile_qr_scan"}, "type": "electric_scooter", "fusion_lat": 0.0, "lon": -77.00581233333334}, {"fusion_lon": 0.0, "bike_id": "667fced2e7a1d91ef7f67d16f5be5dde", "is_disabled": 0, "is_reserved": 0, "lat": 38.905778166666664, "name": "667fced2e7a1d91ef7f67d16f5be5dde", "rental_uris": {"ios": "https://dc.lft.to/lastmile_qr_scan", "android": "https://dc.lft.to/lastmile_qr_scan"}, "type": "electric_scooter", "fusion_lat": 0.0, "lon": -77.02203066666667}, {"fusion_lon": 0.0, "bike_id": "abfc0b7b6e694fc33a4e494211933cb6", "is_disabled": 0, "is_reserved": 0, "lat": 38.91262666666667, "name": "abfc0b7b6e694fc33a4e494211933cb6", "rental_uris": {"ios": "https://dc.lft.to/lastmile_qr_scan", "android": "https://dc.lft.to/lastmile_qr_scan"}, "type": "electric_scooter", "fusion_lat": 0.0, "lon": -77.03871533333333}, {"fusion_lon": 0.0, "bike_id": "f83747ac402ed2133c3d5f079ee3b0d7", "is_disabled": 0, "is_reserved": 0, "lat": 38.90560983333334, "name": "f83747ac402ed2133c3d5f079ee3b0d7", "rental_uris": {"ios": "https://dc.lft.to/lastmile_qr_scan", "android": "https://dc.lft.to/lastmile_qr_scan"}, "type": "electric_scooter", "fusion_lat": 0.0, "lon": -77.03440416666666}, {"fusion_lon": 0.0, "bike_id": "de4e2296f3b1c8adece76e9b89111b17", "is_disabled": 0, "is_reserved": 0, "lat": 38.9131465, "name": "de4e2296f3b1c8adece76e9b89111b17", "rental_uris": {"ios": "https://dc.lft.to/lastmile_qr_scan", "android": "https://dc.lft.to/lastmile_qr_scan"}, "type": "electric_scooter", "fusion_lat": 0.0, "lon": -77.0286}, {"fusion_lon": 0.0, "bike_id": "203a78efe676f40625c83b952864f6a0", "is_disabled": 0, "is_reserved": 0, "lat": 38.897507833333336, "name": "203a78efe676f40625c83b952864f6a0", "rental_uris": {"ios": "https://dc.lft.to/lastmile_qr_scan", "android": "https://dc.lft.to/lastmile_qr_scan"}, "type": "electric_scooter", "fusion_lat": 0.0, "lon": -77.02731666666666}, {"fusion_lon": 0.0, "bike_id": "82d37105e466f2d5f140bcf45b1f1dba", "is_disabled": 0, "is_reserved": 0, "lat": 38.89926916666667, "name": "82d37105e466f2d5f140bcf45b1f1dba", "rental_uris": {"ios": "https://dc.lft.to/lastmile_qr_scan", "android": "https://dc.lft.to/lastmile_qr_scan"}, "type": "electric_scooter", "fusion_lat": 0.0, "lon": -76.94578983333334}, {"fusion_lon": 0.0, "bike_id": "059a3436643430d0a5e6ab2750731434", "is_disabled": 0, "is_reserved": 0, "lat": 39.02621216666667, "name": "059a3436643430d0a5e6ab2750731434", "rental_uris": {"ios": "https://dc.lft.to/lastmile_qr_scan", "android": "https://dc.lft.to/lastmile_qr_scan"}, "type": "electric_bike", "fusion_lat": 0.0, "lon": -77.03880866666667}, {"fusion_lon": 0.0, "bike_id": "b39c19b16db320c7f12d3c0c78a0c934", "is_disabled": 0, "is_reserved": 0, "lat": 38.91710033333333, "name": "b39c19b16db320c7f12d3c0c78a0c934", "rental_uris": {"ios": "https://dc.lft.to/lastmile_qr_scan", "android": "https://dc.lft.to/lastmile_qr_scan"}, "type": "electric_scooter", "fusion_lat": 0.0, "lon": -77.03250016666667}, {"fusion_lon": 0.0, "bike_id": "47760319413e1727028ebfc1b7731f2f", "is_disabled": 0, "is_reserved": 0, "lat": 38.970440833333335, "name": "47760319413e1727028ebfc1b7731f2f", "rental_uris": {"ios": "https://dc.lft.to/lastmile_qr_scan", "android": "https://dc.lft.to/lastmile_qr_scan"}, "type": "electric_bike", "fusion_lat": 0.0, "lon": -76.9361925}, {"fusion_lon": 0.0, "bike_id": "a5f9b89f221d6ce62d57bd58a7b04440", "is_disabled": 0, "is_reserved": 0, "lat": 38.9248745, "name": "a5f9b89f221d6ce62d57bd58a7b04440", "rental_uris": {"ios": "https://dc.lft.to/lastmile_qr_scan", "android": "https://dc.lft.to/lastmile_qr_scan"}, "type": "electric_scooter", "fusion_lat": 0.0, "lon": -77.03182066666666}, {"fusion_lon": 0.0, "bike_id": "5e62310b801b6717ea20f1b448de0fa5", "is_disabled": 0, "is_reserved": 0, "lat": 38.857942, "name": "5e62310b801b6717ea20f1b448de0fa5", "rental_uris": {"ios": "https://dc.lft.to/lastmile_qr_scan", "android": "https://dc.lft.to/lastmile_qr_scan"}, "type": "electric_bike", "fusion_lat": 0.0, "lon": -76.98754366666667}, {"fusion_lon": 0.0, "bike_id": "0fd1ec7328e4873a8325ca9b8f9c215d", "is_disabled": 0, "is_reserved": 0, "lat": 38.906609333333336, "name": "0fd1ec7328e4873a8325ca9b8f9c215d", "rental_uris": {"ios": "https://dc.lft.to/lastmile_qr_scan", "android": "https://dc.lft.to/lastmile_qr_scan"}, "type": "electric_scooter", "fusion_lat": 0.0, "lon": -77.00911416666666}, {"fusion_lon": 0.0, "bike_id": "c245767cf48a07ce446273235addbfe8", "is_disabled": 0, "is_reserved": 0, "lat": 38.9044885, "name": "c245767cf48a07ce446273235addbfe8", "rental_uris": {"ios": "https://dc.lft.to/lastmile_qr_scan", "android": "https://dc.lft.to/lastmile_qr_scan"}, "type": "electric_scooter", "fusion_lat": 0.0, "lon": -76.98249733333333}, {"fusion_lon": 0.0, "bike_id": "c48a5460476d0b68f5aefe844e203300", "is_disabled": 0, "is_reserved": 0, "lat": 38.92553766666666, "name": "c48a5460476d0b68f5aefe844e203300", "rental_uris": {"ios": "https://dc.lft.to/lastmile_qr_scan", "android": "https://dc.lft.to/lastmile_qr_scan"}, "type": "electric_scooter", "fusion_lat": 0.0, "lon": -77.05303766666667}, {"fusion_lon": 0.0, "bike_id": "1a6ca8e8987725a368dd6b0a4fa2ed28", "is_disabled": 0, "is_reserved": 0, "lat": 38.98758983333333, "name": "1a6ca8e8987725a368dd6b0a4fa2ed28", "rental_uris": {"ios": "https://dc.lft.to/lastmile_qr_scan", "android": "https://dc.lft.to/lastmile_qr_scan"}, "type": "electric_bike", "fusion_lat": 0.0, "lon": -77.02656666666667}, {"fusion_lon": 0.0, "bike_id": "f8b1c594862e427c71b89833f1aa9ecc", "is_disabled": 0, "is_reserved": 0, "lat": 38.915502333333336, "name": "f8b1c594862e427c71b89833f1aa9ecc", "rental_uris": {"ios": "https://dc.lft.to/lastmile_qr_scan", "android": "https://dc.lft.to/lastmile_qr_scan"}, "type": "electric_scooter", "fusion_lat": 0.0, "lon": -77.0445325}, {"fusion_lon": 0.0, "bike_id": "a8e2c57f6e2d9793238592c9c9e28827", "is_disabled": 0, "is_reserved": 0, "lat": 38.9217955, "name": "a8e2c57f6e2d9793238592c9c9e28827", "rental_uris": {"ios": "https://dc.lft.to/lastmile_qr_scan", "android": "https://dc.lft.to/lastmile_qr_scan"}, "type": "electric_scooter", "fusion_lat": 0.0, "lon": -77.0401645}, {"fusion_lon": 0.0, "bike_id": "1c46f60029e93ae09a03ff469175d9c8", "is_disabled": 0, "is_reserved": 0, "lat": 38.914859, "name": "1c46f60029e93ae09a03ff469175d9c8", "rental_uris": {"ios": "https://dc.lft.to/lastmile_qr_scan", "android": "https://dc.lft.to/lastmile_qr_scan"}, "type": "electric_scooter", "fusion_lat": 0.0, "lon": -76.9807745}, {"fusion_lon": 0.0, "bike_id": "187f7075260f3904f9eaccac255c2b28", "is_disabled": 0, "is_reserved": 0, "lat": 38.932915333333334, "name": "187f7075260f3904f9eaccac255c2b28", "rental_uris": {"ios": "https://dc.lft.to/lastmile_qr_scan", "android": "https://dc.lft.to/lastmile_qr_scan"}, "type": "electric_scooter", "fusion_lat": 0.0, "lon": -77.02061416666666}, {"fusion_lon": 0.0, "bike_id": "bbe9d27c6f5f50d767b6207bd914e595", "is_disabled": 0, "is_reserved": 0, "lat": 38.90782566666667, "name": "bbe9d27c6f5f50d767b6207bd914e595", "rental_uris": {"ios": "https://dc.lft.to/lastmile_qr_scan", "android": "https://dc.lft.to/lastmile_qr_scan"}, "type": "electric_scooter", "fusion_lat": 0.0, "lon": -77.07251466666666}, {"fusion_lon": 0.0, "bike_id": "5a05a6c1c1e140441aa86cc6f8bb6d52", "is_disabled": 0, "is_reserved": 0, "lat": 38.922055666666665, "name": "5a05a6c1c1e140441aa86cc6f8bb6d52", "rental_uris": {"ios": "https://dc.lft.to/lastmile_qr_scan", "android": "https://dc.lft.to/lastmile_qr_scan"}, "type": "electric_scooter", "fusion_lat": 0.0, "lon": -77.0202925}, {"fusion_lon": 0.0, "bike_id": "c2d6ee5633338f68ef5499de5d7b9b3e", "is_disabled": 0, "is_reserved": 0, "lat": 38.922972666666666, "name": "c2d6ee5633338f68ef5499de5d7b9b3e", "rental_uris": {"ios": "https://dc.lft.to/lastmile_qr_scan", "android": "https://dc.lft.to/lastmile_qr_scan"}, "type": "electric_scooter", "fusion_lat": 0.0, "lon": -77.024203}, {"fusion_lon": 0.0, "bike_id": "321b9704dc7d5a330d921f46a6ce124d", "is_disabled": 0, "is_reserved": 0, "lat": 38.90353416666667, "name": "321b9704dc7d5a330d921f46a6ce124d", "rental_uris": {"ios": "https://dc.lft.to/lastmile_qr_scan", "android": "https://dc.lft.to/lastmile_qr_scan"}, "type": "electric_scooter", "fusion_lat": 0.0, "lon": -76.98615883333333}, {"fusion_lon": 0.0, "bike_id": "54dceef98cd480875e77f3f23d065dd5", "is_disabled": 0, "is_reserved": 0, "lat": 38.88712666666667, "name": "54dceef98cd480875e77f3f23d065dd5", "rental_uris": {"ios": "https://dc.lft.to/lastmile_qr_scan", "android": "https://dc.lft.to/lastmile_qr_scan"}, "type": "electric_scooter", "fusion_lat": 0.0, "lon": -76.9838365}, {"fusion_lon": 0.0, "bike_id": "bb3ad4e66dba130f18d072a6dc5a5b8c", "is_disabled": 0, "is_reserved": 0, "lat": 38.926416, "name": "bb3ad4e66dba130f18d072a6dc5a5b8c", "rental_uris": {"ios": "https://dc.lft.to/lastmile_qr_scan", "android": "https://dc.lft.to/lastmile_qr_scan"}, "type": "electric_scooter", "fusion_lat": 0.0, "lon": -77.036992}, {"fusion_lon": 0.0, "bike_id": "3155d9fbea1576a59ed538473cd7f130", "is_disabled": 0, "is_reserved": 0, "lat": 38.91603516666667, "name": "3155d9fbea1576a59ed538473cd7f130", "rental_uris": {"ios": "https://dc.lft.to/lastmile_qr_scan", "android": "https://dc.lft.to/lastmile_qr_scan"}, "type": "electric_scooter", "fusion_lat": 0.0, "lon": -77.03219066666666}, {"fusion_lon": 0.0, "bike_id": "a35361175b76a12d0ced8fcb74856513", "is_disabled": 0, "is_reserved": 0, "lat": 38.875455, "name": "a35361175b76a12d0ced8fcb74856513", "rental_uris": {"ios": "https://dc.lft.to/lastmile_qr_scan", "android": "https://dc.lft.to/lastmile_qr_scan"}, "type": "electric_scooter", "fusion_lat": 0.0, "lon": -77.00535983333333}, {"fusion_lon": 0.0, "bike_id": "6b379fbc000c8e67fb80f5a04fa1e36e", "is_disabled": 0, "is_reserved": 0, "lat": 38.92107816666667, "name": "6b379fbc000c8e67fb80f5a04fa1e36e", "rental_uris": {"ios": "https://dc.lft.to/lastmile_qr_scan", "android": "https://dc.lft.to/lastmile_qr_scan"}, "type": "electric_scooter", "fusion_lat": 0.0, "lon": -77.02053833333333}, {"fusion_lon": 0.0, "bike_id": "29d9574f6d3edcf744b60564c7ecd017", "is_disabled": 0, "is_reserved": 0, "lat": 38.90683333333333, "name": "29d9574f6d3edcf744b60564c7ecd017", "rental_uris": {"ios": "https://dc.lft.to/lastmile_qr_scan", "android": "https://dc.lft.to/lastmile_qr_scan"}, "type": "electric_scooter", "fusion_lat": 0.0, "lon": -77.010168}, {"fusion_lon": 0.0, "bike_id": "bee269c67d13f65221a54843390cd068", "is_disabled": 0, "is_reserved": 0, "lat": 38.881204, "name": "bee269c67d13f65221a54843390cd068", "rental_uris": {"ios": "https://dc.lft.to/lastmile_qr_scan", "android": "https://dc.lft.to/lastmile_qr_scan"}, "type": "electric_scooter", "fusion_lat": 0.0, "lon": -77.01508133333333}, {"fusion_lon": 0.0, "bike_id": "ac352fd5d76e328a90c27135d673e88d", "is_disabled": 0, "is_reserved": 0, "lat": 38.855937, "name": "ac352fd5d76e328a90c27135d673e88d", "rental_uris": {"ios": "https://dc.lft.to/lastmile_qr_scan", "android": "https://dc.lft.to/lastmile_qr_scan"}, "type": "electric_bike", "fusion_lat": 0.0, "lon": -76.9728055}, {"fusion_lon": 0.0, "bike_id": "ce35887a550c94f9da9d1ec21bd9e53f", "is_disabled": 0, "is_reserved": 0, "lat": 38.923696166666666, "name": "ce35887a550c94f9da9d1ec21bd9e53f", "rental_uris": {"ios": "https://dc.lft.to/lastmile_qr_scan", "android": "https://dc.lft.to/lastmile_qr_scan"}, "type": "electric_scooter", "fusion_lat": 0.0, "lon": -77.02125583333333}, {"fusion_lon": 0.0, "bike_id": "edabb7cec836767e530748d02ee2433b", "is_disabled": 0, "is_reserved": 0, "lat": 38.929064333333336, "name": "edabb7cec836767e530748d02ee2433b", "rental_uris": {"ios": "https://dc.lft.to/lastmile_qr_scan", "android": "https://dc.lft.to/lastmile_qr_scan"}, "type": "electric_scooter", "fusion_lat": 0.0, "lon": -77.02166116666666}, {"fusion_lon": 0.0, "bike_id": "5ab95d1c163e88fd4b6c1d1d5c765252", "is_disabled": 0, "is_reserved": 0, "lat": 38.9205665, "name": "5ab95d1c163e88fd4b6c1d1d5c765252", "rental_uris": {"ios": "https://dc.lft.to/lastmile_qr_scan", "android": "https://dc.lft.to/lastmile_qr_scan"}, "type": "electric_scooter", "fusion_lat": 0.0, "lon": -77.01718516666666}, {"fusion_lon": 0.0, "bike_id": "968497257d70adef306d9765937f15e5", "is_disabled": 0, "is_reserved": 0, "lat": 38.98505566666667, "name": "968497257d70adef306d9765937f15e5", "rental_uris": {"ios": "https://dc.lft.to/lastmile_qr_scan", "android": "https://dc.lft.to/lastmile_qr_scan"}, "type": "electric_bike", "fusion_lat": 0.0, "lon": -76.982093}, {"fusion_lon": 0.0, "bike_id": "6a1bd0fda71b523518f3b1d962e413aa", "is_disabled": 0, "is_reserved": 0, "lat": 38.877023666666666, "name": "6a1bd0fda71b523518f3b1d962e413aa", "rental_uris": {"ios": "https://dc.lft.to/lastmile_qr_scan", "android": "https://dc.lft.to/lastmile_qr_scan"}, "type": "electric_scooter", "fusion_lat": 0.0, "lon": -77.01764516666667}, {"fusion_lon": 0.0, "bike_id": "895d0e2cdbb02b6259e0ac374a7d0c1d", "is_disabled": 0, "is_reserved": 0, "lat": 38.902558666666664, "name": "895d0e2cdbb02b6259e0ac374a7d0c1d", "rental_uris": {"ios": "https://dc.lft.to/lastmile_qr_scan", "android": "https://dc.lft.to/lastmile_qr_scan"}, "type": "electric_scooter", "fusion_lat": 0.0, "lon": -77.017588}, {"fusion_lon": 0.0, "bike_id": "167438c60614f19346b635f1858d2f7d", "is_disabled": 0, "is_reserved": 0, "lat": 38.913847, "name": "167438c60614f19346b635f1858d2f7d", "rental_uris": {"ios": "https://dc.lft.to/lastmile_qr_scan", "android": "https://dc.lft.to/lastmile_qr_scan"}, "type": "electric_scooter", "fusion_lat": 0.0, "lon": -77.01707166666667}, {"fusion_lon": 0.0, "bike_id": "d533c701eef31048cf06f22c88c6788e", "is_disabled": 0, "is_reserved": 0, "lat": 38.918104666666665, "name": "d533c701eef31048cf06f22c88c6788e", "rental_uris": {"ios": "https://dc.lft.to/lastmile_qr_scan", "android": "https://dc.lft.to/lastmile_qr_scan"}, "type": "electric_scooter", "fusion_lat": 0.0, "lon": -77.03668883333333}, {"fusion_lon": 0.0, "bike_id": "2d9aa33437af90f93e61d6eb5b77ef78", "is_disabled": 0, "is_reserved": 0, "lat": 38.87728716666667, "name": "2d9aa33437af90f93e61d6eb5b77ef78", "rental_uris": {"ios": "https://dc.lft.to/lastmile_qr_scan", "android": "https://dc.lft.to/lastmile_qr_scan"}, "type": "electric_bike", "fusion_lat": 0.0, "lon": -77.11850666666666}, {"fusion_lon": 0.0, "bike_id": "bd0abcb0619cb786901f62ad59040e1f", "is_disabled": 0, "is_reserved": 0, "lat": 38.9313315, "name": "bd0abcb0619cb786901f62ad59040e1f", "rental_uris": {"ios": "https://dc.lft.to/lastmile_qr_scan", "android": "https://dc.lft.to/lastmile_qr_scan"}, "type": "electric_scooter", "fusion_lat": 0.0, "lon": -77.02343816666666}, {"fusion_lon": 0.0, "bike_id": "06208ab731af150bc858f0dd3a4dc9ba", "is_disabled": 0, "is_reserved": 0, "lat": 38.9318515, "name": "06208ab731af150bc858f0dd3a4dc9ba", "rental_uris": {"ios": "https://dc.lft.to/lastmile_qr_scan", "android": "https://dc.lft.to/lastmile_qr_scan"}, "type": "electric_scooter", "fusion_lat": 0.0, "lon": -77.03444083333333}, {"fusion_lon": 0.0, "bike_id": "8506dedffeed8e8b46c82eaf8db6cd56", "is_disabled": 0, "is_reserved": 0, "lat": 38.911547666666664, "name": "8506dedffeed8e8b46c82eaf8db6cd56", "rental_uris": {"ios": "https://dc.lft.to/lastmile_qr_scan", "android": "https://dc.lft.to/lastmile_qr_scan"}, "type": "electric_scooter", "fusion_lat": 0.0, "lon": -77.010705}, {"fusion_lon": 0.0, "bike_id": "4d90ccb742ee8665717fb9105cf2b5f6", "is_disabled": 0, "is_reserved": 0, "lat": 38.910092666666664, "name": "4d90ccb742ee8665717fb9105cf2b5f6", "rental_uris": {"ios": "https://dc.lft.to/lastmile_qr_scan", "android": "https://dc.lft.to/lastmile_qr_scan"}, "type": "electric_bike", "fusion_lat": 0.0, "lon": -76.98425083333333}, {"fusion_lon": 0.0, "bike_id": "40533289a4c626028ac75ee112962aaa", "is_disabled": 0, "is_reserved": 0, "lat": 38.91568066666667, "name": "40533289a4c626028ac75ee112962aaa", "rental_uris": {"ios": "https://dc.lft.to/lastmile_qr_scan", "android": "https://dc.lft.to/lastmile_qr_scan"}, "type": "electric_scooter", "fusion_lat": 0.0, "lon": -77.03268466666667}, {"fusion_lon": 0.0, "bike_id": "769e57cff7b2e0ff437e02ec783fdb65", "is_disabled": 0, "is_reserved": 0, "lat": 38.920592166666665, "name": "769e57cff7b2e0ff437e02ec783fdb65", "rental_uris": {"ios": "https://dc.lft.to/lastmile_qr_scan", "android": "https://dc.lft.to/lastmile_qr_scan"}, "type": "electric_scooter", "fusion_lat": 0.0, "lon": -77.017213}, {"fusion_lon": 0.0, "bike_id": "fc47ecb2efa29b172d401af8e3dbd155", "is_disabled": 0, "is_reserved": 0, "lat": 38.9232335, "name": "fc47ecb2efa29b172d401af8e3dbd155", "rental_uris": {"ios": "https://dc.lft.to/lastmile_qr_scan", "android": "https://dc.lft.to/lastmile_qr_scan"}, "type": "electric_scooter", "fusion_lat": 0.0, "lon": -77.03667383333334}, {"fusion_lon": 0.0, "bike_id": "e8b743112c02a88baf1f7f6acbb06651", "is_disabled": 0, "is_reserved": 0, "lat": 38.91351866666667, "name": "e8b743112c02a88baf1f7f6acbb06651", "rental_uris": {"ios": "https://dc.lft.to/lastmile_qr_scan", "android": "https://dc.lft.to/lastmile_qr_scan"}, "type": "electric_scooter", "fusion_lat": 0.0, "lon": -77.03195583333333}, {"fusion_lon": 0.0, "bike_id": "c1bccc47c36cd30f3c581980c6f5093f", "is_disabled": 0, "is_reserved": 0, "lat": 38.91680066666667, "name": "c1bccc47c36cd30f3c581980c6f5093f", "rental_uris": {"ios": "https://dc.lft.to/lastmile_qr_scan", "android": "https://dc.lft.to/lastmile_qr_scan"}, "type": "electric_scooter", "fusion_lat": 0.0, "lon": -77.0377065}, {"fusion_lon": 0.0, "bike_id": "ef6fd6ec6e657d5609acebdf081d5c46", "is_disabled": 0, "is_reserved": 0, "lat": 38.92493016666667, "name": "ef6fd6ec6e657d5609acebdf081d5c46", "rental_uris": {"ios": "https://dc.lft.to/lastmile_qr_scan", "android": "https://dc.lft.to/lastmile_qr_scan"}, "type": "electric_scooter", "fusion_lat": 0.0, "lon": -77.05768633333334}, {"fusion_lon": 0.0, "bike_id": "d7deccd2d36f280a34aa07dad10b3228", "is_disabled": 0, "is_reserved": 0, "lat": 38.90014983333333, "name": "d7deccd2d36f280a34aa07dad10b3228", "rental_uris": {"ios": "https://dc.lft.to/lastmile_qr_scan", "android": "https://dc.lft.to/lastmile_qr_scan"}, "type": "electric_scooter", "fusion_lat": 0.0, "lon": -76.99852466666667}, {"fusion_lon": 0.0, "bike_id": "7ee0bb060c9439930123fb91f3ebf852", "is_disabled": 0, "is_reserved": 0, "lat": 38.911088, "name": "7ee0bb060c9439930123fb91f3ebf852", "rental_uris": {"ios": "https://dc.lft.to/lastmile_qr_scan", "android": "https://dc.lft.to/lastmile_qr_scan"}, "type": "electric_scooter", "fusion_lat": 0.0, "lon": -77.038292}, {"fusion_lon": 0.0, "bike_id": "ce0bd51e5ce3d45ed2057fdec9ff243f", "is_disabled": 0, "is_reserved": 0, "lat": 38.915556333333335, "name": "ce0bd51e5ce3d45ed2057fdec9ff243f", "rental_uris": {"ios": "https://dc.lft.to/lastmile_qr_scan", "android": "https://dc.lft.to/lastmile_qr_scan"}, "type": "electric_scooter", "fusion_lat": 0.0, "lon": -77.03215616666667}, {"fusion_lon": 0.0, "bike_id": "f6ca235d57bac79e6d939ec891a15a22", "is_disabled": 0, "is_reserved": 0, "lat": 38.9003605, "name": "f6ca235d57bac79e6d939ec891a15a22", "rental_uris": {"ios": "https://dc.lft.to/lastmile_qr_scan", "android": "https://dc.lft.to/lastmile_qr_scan"}, "type": "electric_scooter", "fusion_lat": 0.0, "lon": -76.988342}, {"fusion_lon": 0.0, "bike_id": "e1095f248625ae744ab37675abec9ef3", "is_disabled": 0, "is_reserved": 0, "lat": 38.907939166666665, "name": "e1095f248625ae744ab37675abec9ef3", "rental_uris": {"ios": "https://dc.lft.to/lastmile_qr_scan", "android": "https://dc.lft.to/lastmile_qr_scan"}, "type": "electric_scooter", "fusion_lat": 0.0, "lon": -77.00962583333333}, {"fusion_lon": 0.0, "bike_id": "d1f6f6db6b09d9626102a5b2dad82bc7", "is_disabled": 0, "is_reserved": 0, "lat": 38.914038833333336, "name": "d1f6f6db6b09d9626102a5b2dad82bc7", "rental_uris": {"ios": "https://dc.lft.to/lastmile_qr_scan", "android": "https://dc.lft.to/lastmile_qr_scan"}, "type": "electric_scooter", "fusion_lat": 0.0, "lon": -77.03068416666666}, {"fusion_lon": 0.0, "bike_id": "29020e611272ef19ad4832be07b3b7fd", "is_disabled": 0, "is_reserved": 0, "lat": 38.919614833333334, "name": "29020e611272ef19ad4832be07b3b7fd", "rental_uris": {"ios": "https://dc.lft.to/lastmile_qr_scan", "android": "https://dc.lft.to/lastmile_qr_scan"}, "type": "electric_scooter", "fusion_lat": 0.0, "lon": -77.026009}, {"fusion_lon": 0.0, "bike_id": "bc4dfe955e5de3c2c67fbf6c642be30a", "is_disabled": 0, "is_reserved": 0, "lat": 38.922243333333334, "name": "bc4dfe955e5de3c2c67fbf6c642be30a", "rental_uris": {"ios": "https://dc.lft.to/lastmile_qr_scan", "android": "https://dc.lft.to/lastmile_qr_scan"}, "type": "electric_scooter", "fusion_lat": 0.0, "lon": -77.04306583333333}, {"fusion_lon": 0.0, "bike_id": "9aea3730ffe564b16b21bea4268f16ea", "is_disabled": 0, "is_reserved": 0, "lat": 38.91256, "name": "9aea3730ffe564b16b21bea4268f16ea", "rental_uris": {"ios": "https://dc.lft.to/lastmile_qr_scan", "android": "https://dc.lft.to/lastmile_qr_scan"}, "type": "electric_scooter", "fusion_lat": 0.0, "lon": -77.01459333333334}, {"fusion_lon": 0.0, "bike_id": "bab07c4d97c6e210dd5d25208fbd65a0", "is_disabled": 0, "is_reserved": 0, "lat": 38.905588, "name": "bab07c4d97c6e210dd5d25208fbd65a0", "rental_uris": {"ios": "https://dc.lft.to/lastmile_qr_scan", "android": "https://dc.lft.to/lastmile_qr_scan"}, "type": "electric_scooter", "fusion_lat": 0.0, "lon": -76.997928}, {"fusion_lon": 0.0, "bike_id": "fc8b6da7ce479475ca02b17184c741dd", "is_disabled": 0, "is_reserved": 0, "lat": 38.951792833333336, "name": "fc8b6da7ce479475ca02b17184c741dd", "rental_uris": {"ios": "https://dc.lft.to/lastmile_qr_scan", "android": "https://dc.lft.to/lastmile_qr_scan"}, "type": "electric_scooter", "fusion_lat": 0.0, "lon": -77.02608833333333}, {"fusion_lon": 0.0, "bike_id": "23924197eca215d7f634492b03bcc214", "is_disabled": 0, "is_reserved": 0, "lat": 38.91688333333333, "name": "23924197eca215d7f634492b03bcc214", "rental_uris": {"ios": "https://dc.lft.to/lastmile_qr_scan", "android": "https://dc.lft.to/lastmile_qr_scan"}, "type": "electric_scooter", "fusion_lat": 0.0, "lon": -77.01222533333333}, {"fusion_lon": 0.0, "bike_id": "2eb67695c24ce0b70dce069e32568f1e", "is_disabled": 0, "is_reserved": 0, "lat": 38.92813133333333, "name": "2eb67695c24ce0b70dce069e32568f1e", "rental_uris": {"ios": "https://dc.lft.to/lastmile_qr_scan", "android": "https://dc.lft.to/lastmile_qr_scan"}, "type": "electric_scooter", "fusion_lat": 0.0, "lon": -77.03638166666667}, {"fusion_lon": 0.0, "bike_id": "46b777497c898710b9334189af6c62f0", "is_disabled": 0, "is_reserved": 0, "lat": 38.900369, "name": "46b777497c898710b9334189af6c62f0", "rental_uris": {"ios": "https://dc.lft.to/lastmile_qr_scan", "android": "https://dc.lft.to/lastmile_qr_scan"}, "type": "electric_scooter", "fusion_lat": 0.0, "lon": -77.03956916666667}, {"fusion_lon": 0.0, "bike_id": "f1af65a22a5254d10798d9f11b53d519", "is_disabled": 0, "is_reserved": 0, "lat": 38.951516, "name": "f1af65a22a5254d10798d9f11b53d519", "rental_uris": {"ios": "https://dc.lft.to/lastmile_qr_scan", "android": "https://dc.lft.to/lastmile_qr_scan"}, "type": "electric_scooter", "fusion_lat": 0.0, "lon": -77.0186645}, {"fusion_lon": 0.0, "bike_id": "569f8450c0b47b97202d46949fc24878", "is_disabled": 0, "is_reserved": 0, "lat": 38.92601233333333, "name": "569f8450c0b47b97202d46949fc24878", "rental_uris": {"ios": "https://dc.lft.to/lastmile_qr_scan", "android": "https://dc.lft.to/lastmile_qr_scan"}, "type": "electric_scooter", "fusion_lat": 0.0, "lon": -77.057101}, {"fusion_lon": 0.0, "bike_id": "0f0ff616311e5499d0fe3ab6813359e0", "is_disabled": 0, "is_reserved": 0, "lat": 38.902190166666664, "name": "0f0ff616311e5499d0fe3ab6813359e0", "rental_uris": {"ios": "https://dc.lft.to/lastmile_qr_scan", "android": "https://dc.lft.to/lastmile_qr_scan"}, "type": "electric_scooter", "fusion_lat": 0.0, "lon": -77.05127883333333}, {"fusion_lon": 0.0, "bike_id": "cfbcda54fc74b823f0f57f39fe56de3d", "is_disabled": 0, "is_reserved": 0, "lat": 38.924737, "name": "cfbcda54fc74b823f0f57f39fe56de3d", "rental_uris": {"ios": "https://dc.lft.to/lastmile_qr_scan", "android": "https://dc.lft.to/lastmile_qr_scan"}, "type": "electric_scooter", "fusion_lat": 0.0, "lon": -77.02176966666667}, {"fusion_lon": 0.0, "bike_id": "96b1c9cd8fdb47404f0baafb845074d4", "is_disabled": 0, "is_reserved": 0, "lat": 38.900768166666666, "name": "96b1c9cd8fdb47404f0baafb845074d4", "rental_uris": {"ios": "https://dc.lft.to/lastmile_qr_scan", "android": "https://dc.lft.to/lastmile_qr_scan"}, "type": "electric_scooter", "fusion_lat": 0.0, "lon": -77.0473585}, {"fusion_lon": 0.0, "bike_id": "1e7f9fa59a5711163bbb89620e46d16a", "is_disabled": 0, "is_reserved": 0, "lat": 38.933422166666666, "name": "1e7f9fa59a5711163bbb89620e46d16a", "rental_uris": {"ios": "https://dc.lft.to/lastmile_qr_scan", "android": "https://dc.lft.to/lastmile_qr_scan"}, "type": "electric_scooter", "fusion_lat": 0.0, "lon": -77.02746183333333}, {"fusion_lon": 0.0, "bike_id": "62b514e9bc3d7c1a6aa590eb9e848154", "is_disabled": 0, "is_reserved": 0, "lat": 38.91272283333333, "name": "62b514e9bc3d7c1a6aa590eb9e848154", "rental_uris": {"ios": "https://dc.lft.to/lastmile_qr_scan", "android": "https://dc.lft.to/lastmile_qr_scan"}, "type": "electric_scooter", "fusion_lat": 0.0, "lon": -77.06798483333333}, {"fusion_lon": 0.0, "bike_id": "1fa8baf2f2f625ec68d6d5c31139ef17", "is_disabled": 0, "is_reserved": 0, "lat": 38.8847695, "name": "1fa8baf2f2f625ec68d6d5c31139ef17", "rental_uris": {"ios": "https://dc.lft.to/lastmile_qr_scan", "android": "https://dc.lft.to/lastmile_qr_scan"}, "type": "electric_scooter", "fusion_lat": 0.0, "lon": -77.03362766666666}, {"fusion_lon": 0.0, "bike_id": "17eeb610d4859cc53aef565c62aa7a7a", "is_disabled": 0, "is_reserved": 0, "lat": 38.912644, "name": "17eeb610d4859cc53aef565c62aa7a7a", "rental_uris": {"ios": "https://dc.lft.to/lastmile_qr_scan", "android": "https://dc.lft.to/lastmile_qr_scan"}, "type": "electric_scooter", "fusion_lat": 0.0, "lon": -77.04769966666667}, {"fusion_lon": 0.0, "bike_id": "a07a2164500b6dd8372c27862b8b13be", "is_disabled": 0, "is_reserved": 0, "lat": 38.87670116666666, "name": "a07a2164500b6dd8372c27862b8b13be", "rental_uris": {"ios": "https://dc.lft.to/lastmile_qr_scan", "android": "https://dc.lft.to/lastmile_qr_scan"}, "type": "electric_scooter", "fusion_lat": 0.0, "lon": -77.00349433333334}, {"fusion_lon": 0.0, "bike_id": "0833792b8d15c4f1d235e06188f851b5", "is_disabled": 0, "is_reserved": 0, "lat": 38.887713166666664, "name": "0833792b8d15c4f1d235e06188f851b5", "rental_uris": {"ios": "https://dc.lft.to/lastmile_qr_scan", "android": "https://dc.lft.to/lastmile_qr_scan"}, "type": "electric_scooter", "fusion_lat": 0.0, "lon": -76.9773485}, {"fusion_lon": 0.0, "bike_id": "aeacb114a8e7f1d509d68b4ca5946c92", "is_disabled": 0, "is_reserved": 0, "lat": 38.94702783333334, "name": "aeacb114a8e7f1d509d68b4ca5946c92", "rental_uris": {"ios": "https://dc.lft.to/lastmile_qr_scan", "android": "https://dc.lft.to/lastmile_qr_scan"}, "type": "electric_scooter", "fusion_lat": 0.0, "lon": -77.01938516666667}, {"fusion_lon": 0.0, "bike_id": "c2c75565f81144aba7bc76c126c579ab", "is_disabled": 0, "is_reserved": 0, "lat": 38.887719, "name": "c2c75565f81144aba7bc76c126c579ab", "rental_uris": {"ios": "https://dc.lft.to/lastmile_qr_scan", "android": "https://dc.lft.to/lastmile_qr_scan"}, "type": "electric_scooter", "fusion_lat": 0.0, "lon": -76.9773295}, {"fusion_lon": 0.0, "bike_id": "0b4cda57c7b5e652e06a11be3efca418", "is_disabled": 0, "is_reserved": 0, "lat": 38.899165833333335, "name": "0b4cda57c7b5e652e06a11be3efca418", "rental_uris": {"ios": "https://dc.lft.to/lastmile_qr_scan", "android": "https://dc.lft.to/lastmile_qr_scan"}, "type": "electric_scooter", "fusion_lat": 0.0, "lon": -76.93383483333334}, {"fusion_lon": 0.0, "bike_id": "df03c58fb0d071492edf2986a945365b", "is_disabled": 0, "is_reserved": 0, "lat": 38.9180445, "name": "df03c58fb0d071492edf2986a945365b", "rental_uris": {"ios": "https://dc.lft.to/lastmile_qr_scan", "android": "https://dc.lft.to/lastmile_qr_scan"}, "type": "electric_scooter", "fusion_lat": 0.0, "lon": -77.03663533333334}, {"fusion_lon": 0.0, "bike_id": "38206a18ded6264a684ecbc24daa210d", "is_disabled": 0, "is_reserved": 0, "lat": 38.901196, "name": "38206a18ded6264a684ecbc24daa210d", "rental_uris": {"ios": "https://dc.lft.to/lastmile_qr_scan", "android": "https://dc.lft.to/lastmile_qr_scan"}, "type": "electric_scooter", "fusion_lat": 0.0, "lon": -77.04364666666666}, {"fusion_lon": 0.0, "bike_id": "4e48ecfc7a556606a3fe058560baa74e", "is_disabled": 0, "is_reserved": 0, "lat": 38.90376, "name": "4e48ecfc7a556606a3fe058560baa74e", "rental_uris": {"ios": "https://dc.lft.to/lastmile_qr_scan", "android": "https://dc.lft.to/lastmile_qr_scan"}, "type": "electric_scooter", "fusion_lat": 0.0, "lon": -77.06118516666666}, {"fusion_lon": 0.0, "bike_id": "93bf12f386d4ccf978dddb94334df50a", "is_disabled": 0, "is_reserved": 0, "lat": 38.8717145, "name": "93bf12f386d4ccf978dddb94334df50a", "rental_uris": {"ios": "https://dc.lft.to/lastmile_qr_scan", "android": "https://dc.lft.to/lastmile_qr_scan"}, "type": "electric_scooter", "fusion_lat": 0.0, "lon": -77.00635083333333}, {"fusion_lon": 0.0, "bike_id": "b6f63bc3fbfac14c120e634ef7342d48", "is_disabled": 0, "is_reserved": 0, "lat": 38.854463333333335, "name": "b6f63bc3fbfac14c120e634ef7342d48", "rental_uris": {"ios": "https://dc.lft.to/lastmile_qr_scan", "android": "https://dc.lft.to/lastmile_qr_scan"}, "type": "electric_scooter", "fusion_lat": 0.0, "lon": -76.98610883333333}, {"fusion_lon": 0.0, "bike_id": "8be78ba29527e34252b1d65ace6d63aa", "is_disabled": 0, "is_reserved": 0, "lat": 38.9241635, "name": "8be78ba29527e34252b1d65ace6d63aa", "rental_uris": {"ios": "https://dc.lft.to/lastmile_qr_scan", "android": "https://dc.lft.to/lastmile_qr_scan"}, "type": "electric_scooter", "fusion_lat": 0.0, "lon": -77.020071}, {"fusion_lon": 0.0, "bike_id": "0838da15f0dff818611f860fffa23090", "is_disabled": 0, "is_reserved": 0, "lat": 38.932886333333336, "name": "0838da15f0dff818611f860fffa23090", "rental_uris": {"ios": "https://dc.lft.to/lastmile_qr_scan", "android": "https://dc.lft.to/lastmile_qr_scan"}, "type": "electric_scooter", "fusion_lat": 0.0, "lon": -76.9864705}, {"fusion_lon": 0.0, "bike_id": "4031455233eb4f7a5c9a5f618d8ab140", "is_disabled": 0, "is_reserved": 0, "lat": 38.974413166666665, "name": "4031455233eb4f7a5c9a5f618d8ab140", "rental_uris": {"ios": "https://dc.lft.to/lastmile_qr_scan", "android": "https://dc.lft.to/lastmile_qr_scan"}, "type": "electric_bike", "fusion_lat": 0.0, "lon": -77.09618983333333}, {"fusion_lon": 0.0, "bike_id": "dec7a4a8d601258c13203e00eb3c8317", "is_disabled": 0, "is_reserved": 0, "lat": 38.919231333333336, "name": "dec7a4a8d601258c13203e00eb3c8317", "rental_uris": {"ios": "https://dc.lft.to/lastmile_qr_scan", "android": "https://dc.lft.to/lastmile_qr_scan"}, "type": "electric_scooter", "fusion_lat": 0.0, "lon": -77.03419716666667}, {"fusion_lon": 0.0, "bike_id": "eddcda7200d6e1c8dc24d3d955d424b4", "is_disabled": 0, "is_reserved": 0, "lat": 38.911134833333335, "name": "eddcda7200d6e1c8dc24d3d955d424b4", "rental_uris": {"ios": "https://dc.lft.to/lastmile_qr_scan", "android": "https://dc.lft.to/lastmile_qr_scan"}, "type": "electric_scooter", "fusion_lat": 0.0, "lon": -77.01152783333333}, {"fusion_lon": 0.0, "bike_id": "40a28c36e2636e1087e47abba0da0926", "is_disabled": 0, "is_reserved": 0, "lat": 38.899752666666664, "name": "40a28c36e2636e1087e47abba0da0926", "rental_uris": {"ios": "https://dc.lft.to/lastmile_qr_scan", "android": "https://dc.lft.to/lastmile_qr_scan"}, "type": "electric_scooter", "fusion_lat": 0.0, "lon": -76.99494766666666}, {"fusion_lon": 0.0, "bike_id": "e9b79999727939b3c570557e0c611a75", "is_disabled": 0, "is_reserved": 0, "lat": 38.90752583333333, "name": "e9b79999727939b3c570557e0c611a75", "rental_uris": {"ios": "https://dc.lft.to/lastmile_qr_scan", "android": "https://dc.lft.to/lastmile_qr_scan"}, "type": "electric_bike", "fusion_lat": 0.0, "lon": -77.0029895}, {"fusion_lon": 0.0, "bike_id": "82d3300332c2389aeb891ba7100b9eae", "is_disabled": 0, "is_reserved": 0, "lat": 38.877594, "name": "82d3300332c2389aeb891ba7100b9eae", "rental_uris": {"ios": "https://dc.lft.to/lastmile_qr_scan", "android": "https://dc.lft.to/lastmile_qr_scan"}, "type": "electric_scooter", "fusion_lat": 0.0, "lon": -77.01872833333333}, {"fusion_lon": 0.0, "bike_id": "c6f1e086f79297e5abc154a8afc831a6", "is_disabled": 0, "is_reserved": 0, "lat": 38.9191005, "name": "c6f1e086f79297e5abc154a8afc831a6", "rental_uris": {"ios": "https://dc.lft.to/lastmile_qr_scan", "android": "https://dc.lft.to/lastmile_qr_scan"}, "type": "electric_scooter", "fusion_lat": 0.0, "lon": -77.04630533333334}, {"fusion_lon": 0.0, "bike_id": "afaae3845f0bdc4ac3da2aec68962bed", "is_disabled": 0, "is_reserved": 0, "lat": 38.88183166666666, "name": "afaae3845f0bdc4ac3da2aec68962bed", "rental_uris": {"ios": "https://dc.lft.to/lastmile_qr_scan", "android": "https://dc.lft.to/lastmile_qr_scan"}, "type": "electric_scooter", "fusion_lat": 0.0, "lon": -77.01743383333333},