{"data": {"bikes": [{"rental_uris": {"ios": "https://dc.lft.to/lastmile_qr_scan", "android": "https://dc.lft.to/lastmile_qr_scan"}, "lat": 38.9154685, "lon": -77.03321483333333, "fusion_lat": 0.0, "name": "47dab04c08a1da711e75a421955ca0f9", "is_disabled": 0, "is_reserved": 0, "bike_id": "47dab04c08a1da711e75a421955ca0f9", "fusion_lon": 0.0, "type": "electric_scooter"}, {"rental_uris": {"ios": "https://dc.lft.to/lastmile_qr_scan", "android": "https://dc.lft.to/lastmile_qr_scan"}, "lat": 38.92322816666667, "lon": -77.0460805, "fusion_lat": 0.0, "name": "8c52087cebd5e582f2c8dbf57f67147f", "is_disabled": 0, "is_reserved": 0, "bike_id": "8c52087cebd5e582f2c8dbf57f67147f", "fusion_lon": 0.0, "type": "electric_scooter"}, {"rental_uris": {"ios": "https://dc.lft.to/lastmile_qr_scan", "android": "https://dc.lft.to/lastmile_qr_scan"}, "lat": 38.936082999999996, "lon": -77.05892, "fusion_lat": 0.0, "name": "3667b100201b69757c5c3c34b9961275", "is_disabled": 0, "is_reserved": 0, "bike_id": "3667b100201b69757c5c3c34b9961275", "fusion_lon": 0.0, "type": "electric_scooter"}, {"rental_uris": {"ios": "https://dc.lft.to/lastmile_qr_scan", "android": "https://dc.lft.to/lastmile_qr_scan"}, "lat": 38.94631966666667, "lon": -77.0183835, "fusion_lat": 0.0, "name": "2557d99b244724381ea22f3d8abdaeac", "is_disabled": 0, "is_reserved": 0, "bike_id": "2557d99b244724381ea22f3d8abdaeac", "fusion_lon": 0.0, "type": "electric_scooter"}, {"rental_uris": {"ios": "https://dc.lft.to/lastmile_qr_scan", "android": "https://dc.lft.to/lastmile_qr_scan"}, "lat": 38.96551633333333, "lon": -77.0019785, "fusion_lat": 0.0, "name": "2882a9ac41b781c859dd53299059f743", "is_disabled": 0, "is_reserved": 0, "bike_id": "2882a9ac41b781c859dd53299059f743", "fusion_lon": 0.0, "type": "electric_scooter"}, {"rental_uris": {"ios": "https://dc.lft.to/lastmile_qr_scan", "android": "https://dc.lft.to/lastmile_qr_scan"}, "lat": 38.89187, "lon": -77.04325483333334, "fusion_lat": 0.0, "name": "7aa7b0d109776f273e69e338bd98d4fa", "is_disabled": 0, "is_reserved": 0, "bike_id": "7aa7b0d109776f273e69e338bd98d4fa", "fusion_lon": 0.0, "type": "electric_scooter"}, {"rental_uris": {"ios": "https://dc.lft.to/lastmile_qr_scan", "android": "https://dc.lft.to/lastmile_qr_scan"}, "lat": 38.917765333333335, "lon": -77.02307916666666, "fusion_lat": 0.0, "name": "e801f5f376c6ef0bf63f09aa1b140348", "is_disabled": 0, "is_reserved": 0, "bike_id": "e801f5f376c6ef0bf63f09aa1b140348", "fusion_lon": 0.0, "type": "electric_scooter"}, {"rental_uris": {"ios": "https://dc.lft.to/lastmile_qr_scan", "android": "https://dc.lft.to/lastmile_qr_scan"}, "lat": 38.92250283333333, "lon": -77.0352295, "fusion_lat": 0.0, "name": "ef77a63d1942daa0deb09c03dca1d7a9", "is_disabled": 0, "is_reserved": 0, "bike_id": "ef77a63d1942daa0deb09c03dca1d7a9", "fusion_lon": 0.0, "type": "electric_scooter"}, {"rental_uris": {"ios": "https://dc.lft.to/lastmile_qr_scan", "android": "https://dc.lft.to/lastmile_qr_scan"}, "lat": 38.91882666666667, "lon": -77.02489383333334, "fusion_lat": 0.0, "name": "ed3aefdf43abdd790e38749fb5e17b5d", "is_disabled": 0, "is_reserved": 0, "bike_id": "ed3aefdf43abdd790e38749fb5e17b5d", "fusion_lon": 0.0, "type": "electric_scooter"}, {"rental_uris": {"ios": "https://dc.lft.to/lastmile_qr_scan", "android": "https://dc.lft.to/lastmile_qr_scan"}, "lat": 38.92421083333333, "lon": -77.01943533333333, "fusion_lat": 0.0, "name": "73ff0045a40064a6fcae7b9d35cbb370", "is_disabled": 0, "is_reserved": 0, "bike_id": "73ff0045a40064a6fcae7b9d35cbb370", "fusion_lon": 0.0, "type": "electric_scooter"}, {"rental_uris": {"ios": "https://dc.lft.to/lastmile_qr_scan", "android": "https://dc.lft.to/lastmile_qr_scan"}, "lat": 38.91319716666667, "lon": -77.03180333333333, "fusion_lat": 0.0, "name": "b93d44dde05896cbfe55a120c4dd2fe4", "is_disabled": 0, "is_reserved": 0, "bike_id": "b93d44dde05896cbfe55a120c4dd2fe4", "fusion_lon": 0.0, "type": "electric_scooter"}, {"rental_uris": {"ios": "https://dc.lft.to/lastmile_qr_scan", "android": "https://dc.lft.to/lastmile_qr_scan"}, "lat": 38.892175, "lon": -77.04864683333334, "fusion_lat": 0.0, "name": "d5dfccf4cf25aaea63bbe6c13dedde7b", "is_disabled": 0, "is_reserved": 0, "bike_id": "d5dfccf4cf25aaea63bbe6c13dedde7b", "fusion_lon": 0.0, "type": "electric_scooter"}, {"rental_uris": {"ios": "https://dc.lft.to/lastmile_qr_scan", "android": "https://dc.lft.to/lastmile_qr_scan"}, "lat": 38.94111083333333, "lon": -77.025394, "fusion_lat": 0.0, "name": "e0a18d67d3dad8949c7d4ce4c7b96e41", "is_disabled": 0, "is_reserved": 0, "bike_id": "e0a18d67d3dad8949c7d4ce4c7b96e41", "fusion_lon": 0.0, "type": "electric_scooter"}, {"rental_uris": {"ios": "https://dc.lft.to/lastmile_qr_scan", "android": "https://dc.lft.to/lastmile_qr_scan"}, "lat": 38.905826833333336, "lon": -77.02962866666667, "fusion_lat": 0.0, "name": "9b29efa9c3cfa2b7a642979a161b9955", "is_disabled": 0, "is_reserved": 0, "bike_id": "9b29efa9c3cfa2b7a642979a161b9955", "fusion_lon": 0.0, "type": "electric_scooter"}, {"rental_uris": {"ios": "https://dc.lft.to/lastmile_qr_scan", "android": "https://dc.lft.to/lastmile_qr_scan"}, "lat": 38.902167, "lon": -77.04811466666666, "fusion_lat": 0.0, "name": "0936f92d3d9f8677aec20593f76d7f34", "is_disabled": 0, "is_reserved": 0, "bike_id": "0936f92d3d9f8677aec20593f76d7f34", "fusion_lon": 0.0, "type": "electric_scooter"}, {"rental_uris": {"ios": "https://dc.lft.to/lastmile_qr_scan", "android": "https://dc.lft.to/lastmile_qr_scan"}, "lat": 38.915986333333336, "lon": -77.00199533333333, "fusion_lat": 0.0, "name": "63a6acfcc9482eb1678c39bfef505abf", "is_disabled": 0, "is_reserved": 0, "bike_id": "63a6acfcc9482eb1678c39bfef505abf", "fusion_lon": 0.0, "type": "electric_scooter"}, {"rental_uris": {"ios": "https://dc.lft.to/lastmile_qr_scan", "android": "https://dc.lft.to/lastmile_qr_scan"}, "lat": 38.90755516666667, "lon": -77.03464433333333, "fusion_lat": 0.0, "name": "f1dca3ada89bf32dccd60f9b6dbf3830", "is_disabled": 0, "is_reserved": 0, "bike_id": "f1dca3ada89bf32dccd60f9b6dbf3830", "fusion_lon": 0.0, "type": "electric_scooter"}, {"rental_uris": {"ios": "https://dc.lft.to/lastmile_qr_scan", "android": "https://dc.lft.to/lastmile_qr_scan"}, "lat": 38.91561433333333, "lon": -77.0312305, "fusion_lat": 0.0, "name": "3c019154c07c2076a3dae3a06c244767", "is_disabled": 0, "is_reserved": 0, "bike_id": "3c019154c07c2076a3dae3a06c244767", "fusion_lon": 0.0, "type": "electric_scooter"}, {"rental_uris": {"ios": "https://dc.lft.to/lastmile_qr_scan", "android": "https://dc.lft.to/lastmile_qr_scan"}, "lat": 38.9013755, "lon": -77.04355533333333, "fusion_lat": 0.0, "name": "a7afa247784cedb33cd3b4b6e70e2144", "is_disabled": 0, "is_reserved": 0, "bike_id": "a7afa247784cedb33cd3b4b6e70e2144", "fusion_lon": 0.0, "type": "electric_scooter"}, {"rental_uris": {"ios": "https://dc.lft.to/lastmile_qr_scan", "android": "https://dc.lft.to/lastmile_qr_scan"}, "lat": 38.897348666666666, "lon": -77.0471915, "fusion_lat": 0.0, "name": "cdc138600874965b08546580ad5c54b2", "is_disabled": 0, "is_reserved": 0, "bike_id": "cdc138600874965b08546580ad5c54b2", "fusion_lon": 0.0, "type": "electric_scooter"}, {"rental_uris": {"ios": "https://dc.lft.to/lastmile_qr_scan", "android": "https://dc.lft.to/lastmile_qr_scan"}, "lat": 38.887217, "lon": -77.13311883333333, "fusion_lat": 0.0, "name": "963edd57173e5d7b3eccee5d24257edb", "is_disabled": 0, "is_reserved": 0, "bike_id": "963edd57173e5d7b3eccee5d24257edb", "fusion_lon": 0.0, "type": "electric_bike"}, {"rental_uris": {"ios": "https://dc.lft.to/lastmile_qr_scan", "android": "https://dc.lft.to/lastmile_qr_scan"}, "lat": 38.91261266666667, "lon": -77.04308966666666, "fusion_lat": 0.0, "name": "50b5c4c112d7fabaaea177e40193a966", "is_disabled": 0, "is_reserved": 0, "bike_id": "50b5c4c112d7fabaaea177e40193a966", "fusion_lon": 0.0, "type": "electric_scooter"}, {"rental_uris": {"ios": "https://dc.lft.to/lastmile_qr_scan", "android": "https://dc.lft.to/lastmile_qr_scan"}, "lat": 38.91411183333334, "lon": -77.02589116666667, "fusion_lat": 0.0, "name": "890936b2bd9307e17095479761e5bcd1", "is_disabled": 0, "is_reserved": 0, "bike_id": "890936b2bd9307e17095479761e5bcd1", "fusion_lon": 0.0, "type": "electric_scooter"}, {"rental_uris": {"ios": "https://dc.lft.to/lastmile_qr_scan", "android": "https://dc.lft.to/lastmile_qr_scan"}, "lat": 38.91115116666667, "lon": -77.03729616666666, "fusion_lat": 0.0, "name": "0aea08cd70d0e7cb30cfa9949b416e01", "is_disabled": 0, "is_reserved": 0, "bike_id": "0aea08cd70d0e7cb30cfa9949b416e01", "fusion_lon": 0.0, "type": "electric_scooter"}, {"rental_uris": {"ios": "https://dc.lft.to/lastmile_qr_scan", "android": "https://dc.lft.to/lastmile_qr_scan"}, "lat": 38.913376, "lon": -77.04219566666667, "fusion_lat": 0.0, "name": "b563c980063326cb721cddece2a88ce6", "is_disabled": 0, "is_reserved": 0, "bike_id": "b563c980063326cb721cddece2a88ce6", "fusion_lon": 0.0, "type": "electric_scooter"}, {"rental_uris": {"ios": "https://dc.lft.to/lastmile_qr_scan", "android": "https://dc.lft.to/lastmile_qr_scan"}, "lat": 38.89609566666667, "lon": -76.907352, "fusion_lat": 0.0, "name": "44ab9f54638789f0217648f04dea7d65", "is_disabled": 0, "is_reserved": 0, "bike_id": "44ab9f54638789f0217648f04dea7d65", "fusion_lon": 0.0, "type": "electric_bike"}, {"rental_uris": {"ios": "https://dc.lft.to/lastmile_qr_scan", "android": "https://dc.lft.to/lastmile_qr_scan"}, "lat": 38.928602833333336, "lon": -77.03360833333333, "fusion_lat": 0.0, "name": "603a2363f1c02a952c4da0ce525c4350", "is_disabled": 0, "is_reserved": 0, "bike_id": "603a2363f1c02a952c4da0ce525c4350", "fusion_lon": 0.0, "type": "electric_scooter"}, {"rental_uris": {"ios": "https://dc.lft.to/lastmile_qr_scan", "android": "https://dc.lft.to/lastmile_qr_scan"}, "lat": 38.88528133333333, "lon": -76.99823083333334, "fusion_lat": 0.0, "name": "73f747f89e4bc812fe4888fd52deab8c", "is_disabled": 0, "is_reserved": 0, "bike_id": "73f747f89e4bc812fe4888fd52deab8c", "fusion_lon": 0.0, "type": "electric_scooter"}, {"rental_uris": {"ios": "https://dc.lft.to/lastmile_qr_scan", "android": "https://dc.lft.to/lastmile_qr_scan"}, "lat": 38.91598, "lon": -77.02290083333334, "fusion_lat": 0.0, "name": "480f940ec62570ef6273532c18e5c3b2", "is_disabled": 0, "is_reserved": 0, "bike_id": "480f940ec62570ef6273532c18e5c3b2", "fusion_lon": 0.0, "type": "electric_scooter"}, {"rental_uris": {"ios": "https://dc.lft.to/lastmile_qr_scan", "android": "https://dc.lft.to/lastmile_qr_scan"}, "lat": 38.900679333333336, "lon": -77.0277825, "fusion_lat": 0.0, "name": "38a57826b8a84ff63d288c0eb736499f", "is_disabled": 0, "is_reserved": 0, "bike_id": "38a57826b8a84ff63d288c0eb736499f", "fusion_lon": 0.0, "type": "electric_scooter"}, {"rental_uris": {"ios": "https://dc.lft.to/lastmile_qr_scan", "android": "https://dc.lft.to/lastmile_qr_scan"}, "lat": 38.897338833333336, "lon": -77.02464316666666, "fusion_lat": 0.0, "name": "b314436992af15202dddca202b32b6b6", "is_disabled": 0, "is_reserved": 0, "bike_id": "b314436992af15202dddca202b32b6b6", "fusion_lon": 0.0, "type": "electric_scooter"}, {"rental_uris": {"ios": "https://dc.lft.to/lastmile_qr_scan", "android": "https://dc.lft.to/lastmile_qr_scan"}, "lat": 38.91549633333333, "lon": -77.00646733333333, "fusion_lat": 0.0, "name": "c45574def9df2f7cf70652ea9a3e99a5", "is_disabled": 0, "is_reserved": 0, "bike_id": "c45574def9df2f7cf70652ea9a3e99a5", "fusion_lon": 0.0, "type": "electric_scooter"}, {"rental_uris": {"ios": "https://dc.lft.to/lastmile_qr_scan", "android": "https://dc.lft.to/lastmile_qr_scan"}, "lat": 38.973794833333336, "lon": -77.06469216666666, "fusion_lat": 0.0, "name": "47135b3b3365683fd2f17dac89b19057", "is_disabled": 0, "is_reserved": 0, "bike_id": "47135b3b3365683fd2f17dac89b19057", "fusion_lon": 0.0, "type": "electric_bike"}, {"rental_uris": {"ios": "https://dc.lft.to/lastmile_qr_scan", "android": "https://dc.lft.to/lastmile_qr_scan"}, "lat": 38.8736515, "lon": -77.0007595, "fusion_lat": 0.0, "name": "f0dd55a78421de843f13e787aec32ec7", "is_disabled": 0, "is_reserved": 0, "bike_id": "f0dd55a78421de843f13e787aec32ec7", "fusion_lon": 0.0, "type": "electric_scooter"}, {"rental_uris": {"ios": "https://dc.lft.to/lastmile_qr_scan", "android": "https://dc.lft.to/lastmile_qr_scan"}, "lat": 38.917369, "lon": -77.031816, "fusion_lat": 0.0, "name": "3564db34b08ebfd5fdc3a67f387e7b9a", "is_disabled": 0, "is_reserved": 0, "bike_id": "3564db34b08ebfd5fdc3a67f387e7b9a", "fusion_lon": 0.0, "type": "electric_scooter"}, {"rental_uris": {"ios": "https://dc.lft.to/lastmile_qr_scan", "android": "https://dc.lft.to/lastmile_qr_scan"}, "lat": 38.92245783333333, "lon": -77.0296335, "fusion_lat": 0.0, "name": "f658457df0ee68a4dd60b4845f146034", "is_disabled": 0, "is_reserved": 0, "bike_id": "f658457df0ee68a4dd60b4845f146034", "fusion_lon": 0.0, "type": "electric_scooter"}, {"rental_uris": {"ios": "https://dc.lft.to/lastmile_qr_scan", "android": "https://dc.lft.to/lastmile_qr_scan"}, "lat": 38.895268333333334, "lon": -77.03347883333333, "fusion_lat": 0.0, "name": "90bab96540e53947e31933f46f0d4e91", "is_disabled": 0, "is_reserved": 0, "bike_id": "90bab96540e53947e31933f46f0d4e91", "fusion_lon": 0.0, "type": "electric_scooter"}, {"rental_uris": {"ios": "https://dc.lft.to/lastmile_qr_scan", "android": "https://dc.lft.to/lastmile_qr_scan"}, "lat": 38.884484666666665, "lon": -77.02468883333333, "fusion_lat": 0.0, "name": "5a33bbadfdb41417ba48c7d243f8ac97", "is_disabled": 0, "is_reserved": 0, "bike_id": "5a33bbadfdb41417ba48c7d243f8ac97", "fusion_lon": 0.0, "type": "electric_scooter"}, {"rental_uris": {"ios": "https://dc.lft.to/lastmile_qr_scan", "android": "https://dc.lft.to/lastmile_qr_scan"}, "lat": 38.95779866666667, "lon": -77.032179, "fusion_lat": 0.0, "name": "8a415f879de7bc6ed377a29b26c73d42", "is_disabled": 0, "is_reserved": 0, "bike_id": "8a415f879de7bc6ed377a29b26c73d42", "fusion_lon": 0.0, "type": "electric_scooter"}, {"rental_uris": {"ios": "https://dc.lft.to/lastmile_qr_scan", "android": "https://dc.lft.to/lastmile_qr_scan"}, "lat": 38.87241933333333, "lon": -76.9772255, "fusion_lat": 0.0, "name": "667583b588e6278a6375c71e7f804f7d", "is_disabled": 0, "is_reserved": 0, "bike_id": "667583b588e6278a6375c71e7f804f7d", "fusion_lon": 0.0, "type": "electric_scooter"}, {"rental_uris": {"ios": "https://dc.lft.to/lastmile_qr_scan", "android": "https://dc.lft.to/lastmile_qr_scan"}, "lat": 38.909531333333334, "lon": -77.02313183333334, "fusion_lat": 0.0, "name": "413d0a69903200d1a3d24b432262ccf2", "is_disabled": 0, "is_reserved": 0, "bike_id": "413d0a69903200d1a3d24b432262ccf2", "fusion_lon": 0.0, "type": "electric_scooter"}, {"rental_uris": {"ios": "https://dc.lft.to/lastmile_qr_scan", "android": "https://dc.lft.to/lastmile_qr_scan"}, "lat": 38.93293833333333, "lon": -77.0853715, "fusion_lat": 0.0, "name": "b5d0d7d9a0b0528699338def67cfcd99", "is_disabled": 0, "is_reserved": 0, "bike_id": "b5d0d7d9a0b0528699338def67cfcd99", "fusion_lon": 0.0, "type": "electric_scooter"}, {"rental_uris": {"ios": "https://dc.lft.to/lastmile_qr_scan", "android": "https://dc.lft.to/lastmile_qr_scan"}, "lat": 38.91011783333333, "lon": -77.0071095, "fusion_lat": 0.0, "name": "a112503e55f30208fff333039d5544df", "is_disabled": 0, "is_reserved": 0, "bike_id": "a112503e55f30208fff333039d5544df", "fusion_lon": 0.0, "type": "electric_scooter"}, {"rental_uris": {"ios": "https://dc.lft.to/lastmile_qr_scan", "android": "https://dc.lft.to/lastmile_qr_scan"}, "lat": 38.91414283333334, "lon": -77.0261355, "fusion_lat": 0.0, "name": "d8d66f0636738ef1023d385c5189b718", "is_disabled": 0, "is_reserved": 0, "bike_id": "d8d66f0636738ef1023d385c5189b718", "fusion_lon": 0.0, "type": "electric_scooter"}, {"rental_uris": {"ios": "https://dc.lft.to/lastmile_qr_scan", "android": "https://dc.lft.to/lastmile_qr_scan"}, "lat": 38.89829116666667, "lon": -77.017522, "fusion_lat": 0.0, "name": "02259ea69bfb6eebd075852db6cf4e6b", "is_disabled": 0, "is_reserved": 0, "bike_id": "02259ea69bfb6eebd075852db6cf4e6b", "fusion_lon": 0.0, "type": "electric_scooter"}, {"rental_uris": {"ios": "https://dc.lft.to/lastmile_qr_scan", "android": "https://dc.lft.to/lastmile_qr_scan"}, "lat": 38.89831316666667, "lon": -77.048302, "fusion_lat": 0.0, "name": "c7e9a6cee6210a563146411aef4635f3", "is_disabled": 0, "is_reserved": 0, "bike_id": "c7e9a6cee6210a563146411aef4635f3", "fusion_lon": 0.0, "type": "electric_scooter"}, {"rental_uris": {"ios": "https://dc.lft.to/lastmile_qr_scan", "android": "https://dc.lft.to/lastmile_qr_scan"}, "lat": 38.929878333333335, "lon": -77.02207416666667, "fusion_lat": 0.0, "name": "2fa03ea77d32854d056a8916faf36c64", "is_disabled": 0, "is_reserved": 0, "bike_id": "2fa03ea77d32854d056a8916faf36c64", "fusion_lon": 0.0, "type": "electric_scooter"}, {"rental_uris": {"ios": "https://dc.lft.to/lastmile_qr_scan", "android": "https://dc.lft.to/lastmile_qr_scan"}, "lat": 38.90926133333333, "lon": -77.04431916666667, "fusion_lat": 0.0, "name": "c8b308cc9595bf41394bd3c15a54a214", "is_disabled": 0, "is_reserved": 0, "bike_id": "c8b308cc9595bf41394bd3c15a54a214", "fusion_lon": 0.0, "type": "electric_scooter"}, {"rental_uris": {"ios": "https://dc.lft.to/lastmile_qr_scan", "android": "https://dc.lft.to/lastmile_qr_scan"}, "lat": 38.8717135, "lon": -77.00620116666667, "fusion_lat": 0.0, "name": "12662308ffd9d5269d45e27afd6db743", "is_disabled": 0, "is_reserved": 0, "bike_id": "12662308ffd9d5269d45e27afd6db743", "fusion_lon": 0.0, "type": "electric_scooter"}, {"rental_uris": {"ios": "https://dc.lft.to/lastmile_qr_scan", "android": "https://dc.lft.to/lastmile_qr_scan"}, "lat": 38.925715333333336, "lon": -77.02948383333333, "fusion_lat": 0.0, "name": "b63fb71afa13badc9782f3b2d985d301", "is_disabled": 0, "is_reserved": 0, "bike_id": "b63fb71afa13badc9782f3b2d985d301", "fusion_lon": 0.0, "type": "electric_scooter"}, {"rental_uris": {"ios": "https://dc.lft.to/lastmile_qr_scan", "android": "https://dc.lft.to/lastmile_qr_scan"}, "lat": 38.9195205, "lon": -77.01392166666666, "fusion_lat": 0.0, "name": "5dc99036c922ffeea4d6ce490efecac4", "is_disabled": 0, "is_reserved": 0, "bike_id": "5dc99036c922ffeea4d6ce490efecac4", "fusion_lon": 0.0, "type": "electric_scooter"}, {"rental_uris": {"ios": "https://dc.lft.to/lastmile_qr_scan", "android": "https://dc.lft.to/lastmile_qr_scan"}, "lat": 38.910345666666664, "lon": -77.021965, "fusion_lat": 0.0, "name": "14ca721752bb87bc2cc78edc259b98b8", "is_disabled": 0, "is_reserved": 0, "bike_id": "14ca721752bb87bc2cc78edc259b98b8", "fusion_lon": 0.0, "type": "electric_scooter"}, {"rental_uris": {"ios": "https://dc.lft.to/lastmile_qr_scan", "android": "https://dc.lft.to/lastmile_qr_scan"}, "lat": 38.875581333333336, "lon": -76.95868366666667, "fusion_lat": 0.0, "name": "e5bf5abc99bbb5469e2becbfbb5dfb1d", "is_disabled": 0, "is_reserved": 0, "bike_id": "e5bf5abc99bbb5469e2becbfbb5dfb1d", "fusion_lon": 0.0, "type": "electric_scooter"}, {"rental_uris": {"ios": "https://dc.lft.to/lastmile_qr_scan", "android": "https://dc.lft.to/lastmile_qr_scan"}, "lat": 38.9509065, "lon": -77.0808595, "fusion_lat": 0.0, "name": "b987721b77b7fa5b462b1ae06e696790", "is_disabled": 0, "is_reserved": 0, "bike_id": "b987721b77b7fa5b462b1ae06e696790", "fusion_lon": 0.0, "type": "electric_bike"}, {"rental_uris": {"ios": "https://dc.lft.to/lastmile_qr_scan", "android": "https://dc.lft.to/lastmile_qr_scan"}, "lat": 38.897189166666664, "lon": -76.9835905, "fusion_lat": 0.0, "name": "0ceaabfbac33070c9805d169f6b883e9", "is_disabled": 0, "is_reserved": 0, "bike_id": "0ceaabfbac33070c9805d169f6b883e9", "fusion_lon": 0.0, "type": "electric_scooter"}, {"rental_uris": {"ios": "https://dc.lft.to/lastmile_qr_scan", "android": "https://dc.lft.to/lastmile_qr_scan"}, "lat": 39.037004333333336, "lon": -77.02857216666666, "fusion_lat": 0.0, "name": "243cf29a17261eca11e87f339d0920da", "is_disabled": 0, "is_reserved": 0, "bike_id": "243cf29a17261eca11e87f339d0920da", "fusion_lon": 0.0, "type": "electric_bike"}, {"rental_uris": {"ios": "https://dc.lft.to/lastmile_qr_scan", "android": "https://dc.lft.to/lastmile_qr_scan"}, "lat": 38.91785566666667, "lon": -77.050746, "fusion_lat": 0.0, "name": "3be35ad99381f34327fb45c3e50633b9", "is_disabled": 0, "is_reserved": 0, "bike_id": "3be35ad99381f34327fb45c3e50633b9", "fusion_lon": 0.0, "type": "electric_scooter"}, {"rental_uris": {"ios": "https://dc.lft.to/lastmile_qr_scan", "android": "https://dc.lft.to/lastmile_qr_scan"}, "lat": 38.93910833333333, "lon": -77.0604975, "fusion_lat": 0.0, "name": "10211a03c8392cebfb6ab2bd83dda7d7", "is_disabled": 0, "is_reserved": 0, "bike_id": "10211a03c8392cebfb6ab2bd83dda7d7", "fusion_lon": 0.0, "type": "electric_scooter"}, {"rental_uris": {"ios": "https://dc.lft.to/lastmile_qr_scan", "android": "https://dc.lft.to/lastmile_qr_scan"}, "lat": 38.9158545, "lon": -77.02296766666667, "fusion_lat": 0.0, "name": "2142407b17fb4838d37db77a140d038a", "is_disabled": 0, "is_reserved": 0, "bike_id": "2142407b17fb4838d37db77a140d038a", "fusion_lon": 0.0, "type": "electric_scooter"}, {"rental_uris": {"ios": "https://dc.lft.to/lastmile_qr_scan", "android": "https://dc.lft.to/lastmile_qr_scan"}, "lat": 38.9376955, "lon": -77.01911166666666, "fusion_lat": 0.0, "name": "afb8852af66c021abfcdc497eb71b909", "is_disabled": 0, "is_reserved": 0, "bike_id": "afb8852af66c021abfcdc497eb71b909", "fusion_lon": 0.0, "type": "electric_bike"}, {"rental_uris": {"ios": "https://dc.lft.to/lastmile_qr_scan", "android": "https://dc.lft.to/lastmile_qr_scan"}, "lat": 38.91473833333333, "lon": -77.02573633333333, "fusion_lat": 0.0, "name": "e6f0ad5806cb0555d0a30b55424d3faa", "is_disabled": 0, "is_reserved": 0, "bike_id": "e6f0ad5806cb0555d0a30b55424d3faa", "fusion_lon": 0.0, "type": "electric_scooter"}, {"rental_uris": {"ios": "https://dc.lft.to/lastmile_qr_scan", "android": "https://dc.lft.to/lastmile_qr_scan"}, "lat": 38.9243635, "lon": -77.0194815, "fusion_lat": 0.0, "name": "e30d50d683ef6fef075581d04f29ee4f", "is_disabled": 0, "is_reserved": 0, "bike_id": "e30d50d683ef6fef075581d04f29ee4f", "fusion_lon": 0.0, "type": "electric_scooter"}, {"rental_uris": {"ios": "https://dc.lft.to/lastmile_qr_scan", "android": "https://dc.lft.to/lastmile_qr_scan"}, "lat": 38.8949085, "lon": -77.023009, "fusion_lat": 0.0, "name": "9fb09d18e2b6f01e320668c97f4f48b1", "is_disabled": 0, "is_reserved": 0, "bike_id": "9fb09d18e2b6f01e320668c97f4f48b1", "fusion_lon": 0.0, "type": "electric_scooter"}, {"rental_uris": {"ios": "https://dc.lft.to/lastmile_qr_scan", "android": "https://dc.lft.to/lastmile_qr_scan"}, "lat": 38.933443, "lon": -77.06202733333333, "fusion_lat": 0.0, "name": "5d8fd5a678c487273bea3b2d7a4e475e", "is_disabled": 0, "is_reserved": 0, "bike_id": "5d8fd5a678c487273bea3b2d7a4e475e", "fusion_lon": 0.0, "type": "electric_scooter"}, {"rental_uris": {"ios": "https://dc.lft.to/lastmile_qr_scan", "android": "https://dc.lft.to/lastmile_qr_scan"}, "lat": 38.85842183333333, "lon": -76.98725116666667, "fusion_lat": 0.0, "name": "3dffefe4ce523e77773156a7f9658ea4", "is_disabled": 0, "is_reserved": 0, "bike_id": "3dffefe4ce523e77773156a7f9658ea4", "fusion_lon": 0.0, "type": "electric_scooter"}, {"rental_uris": {"ios": "https://dc.lft.to/lastmile_qr_scan", "android": "https://dc.lft.to/lastmile_qr_scan"}, "lat": 38.92150816666667, "lon": -77.03864, "fusion_lat": 0.0, "name": "d198d7cb835e8a751a86b6fad0f66f0b", "is_disabled": 0, "is_reserved": 0, "bike_id": "d198d7cb835e8a751a86b6fad0f66f0b", "fusion_lon": 0.0, "type": "electric_scooter"}, {"rental_uris": {"ios": "https://dc.lft.to/lastmile_qr_scan", "android": "https://dc.lft.to/lastmile_qr_scan"}, "lat": 38.934202666666664, "lon": -77.0327895, "fusion_lat": 0.0, "name": "a8070f2bded371dfa3bf782b12a20508", "is_disabled": 0, "is_reserved": 0, "bike_id": "a8070f2bded371dfa3bf782b12a20508", "fusion_lon": 0.0, "type": "electric_scooter"}, {"rental_uris": {"ios": "https://dc.lft.to/lastmile_qr_scan", "android": "https://dc.lft.to/lastmile_qr_scan"}, "lat": 38.909841666666665, "lon": -77.033918, "fusion_lat": 0.0, "name": "57ed1a5a6f328be4ffbb2e19c59add8e", "is_disabled": 0, "is_reserved": 0, "bike_id": "57ed1a5a6f328be4ffbb2e19c59add8e", "fusion_lon": 0.0, "type": "electric_scooter"}, {"rental_uris": {"ios": "https://dc.lft.to/lastmile_qr_scan", "android": "https://dc.lft.to/lastmile_qr_scan"}, "lat": 38.9184875, "lon": -77.0319185, "fusion_lat": 0.0, "name": "8f4b022ff2df509b994ed36d5018a86d", "is_disabled": 0, "is_reserved": 0, "bike_id": "8f4b022ff2df509b994ed36d5018a86d", "fusion_lon": 0.0, "type": "electric_scooter"}, {"rental_uris": {"ios": "https://dc.lft.to/lastmile_qr_scan", "android": "https://dc.lft.to/lastmile_qr_scan"}, "lat": 38.91697883333333, "lon": -77.02305766666667, "fusion_lat": 0.0, "name": "9482ee8f7570a3450fa6ae200bc90980", "is_disabled": 0, "is_reserved": 0, "bike_id": "9482ee8f7570a3450fa6ae200bc90980", "fusion_lon": 0.0, "type": "electric_scooter"}, {"rental_uris": {"ios": "https://dc.lft.to/lastmile_qr_scan", "android": "https://dc.lft.to/lastmile_qr_scan"}, "lat": 38.905044, "lon": -77.04769666666667, "fusion_lat": 0.0, "name": "00d9626affabc800e471d3f6f8e35f00", "is_disabled": 0, "is_reserved": 0, "bike_id": "00d9626affabc800e471d3f6f8e35f00", "fusion_lon": 0.0, "type": "electric_scooter"}, {"rental_uris": {"ios": "https://dc.lft.to/lastmile_qr_scan", "android": "https://dc.lft.to/lastmile_qr_scan"}, "lat": 38.857640833333335, "lon": -76.992892, "fusion_lat": 0.0, "name": "b7731cb5c663b7c474efe789fe8c5fb3", "is_disabled": 0, "is_reserved": 0, "bike_id": "b7731cb5c663b7c474efe789fe8c5fb3", "fusion_lon": 0.0, "type": "electric_scooter"}, {"rental_uris": {"ios": "https://dc.lft.to/lastmile_qr_scan", "android": "https://dc.lft.to/lastmile_qr_scan"}, "lat": 38.93351633333333, "lon": -77.0735485, "fusion_lat": 0.0, "name": "4303117337f84de3c1068069a2256e8c", "is_disabled": 0, "is_reserved": 0, "bike_id": "4303117337f84de3c1068069a2256e8c", "fusion_lon": 0.0, "type": "electric_scooter"}, {"rental_uris": {"ios": "https://dc.lft.to/lastmile_qr_scan", "android": "https://dc.lft.to/lastmile_qr_scan"}, "lat": 38.86694266666667, "lon": -76.98712833333333, "fusion_lat": 0.0, "name": "3bf69e12aa5f6994a8b1711086fc8eb3", "is_disabled": 0, "is_reserved": 0, "bike_id": "3bf69e12aa5f6994a8b1711086fc8eb3", "fusion_lon": 0.0, "type": "electric_scooter"}, {"rental_uris": {"ios": "https://dc.lft.to/lastmile_qr_scan", "android": "https://dc.lft.to/lastmile_qr_scan"}, "lat": 38.896214, "lon": -76.998485, "fusion_lat": 0.0, "name": "72733fca7a4b25e637a765e3eeb0c7b3", "is_disabled": 0, "is_reserved": 0, "bike_id": "72733fca7a4b25e637a765e3eeb0c7b3", "fusion_lon": 0.0, "type": "electric_scooter"}, {"rental_uris": {"ios": "https://dc.lft.to/lastmile_qr_scan", "android": "https://dc.lft.to/lastmile_qr_scan"}, "lat": 38.905615833333336, "lon": -77.04304366666666, "fusion_lat": 0.0, "name": "a9066aed1234bd3d969c3b20a7bf72ef", "is_disabled": 0, "is_reserved": 0, "bike_id": "a9066aed1234bd3d969c3b20a7bf72ef", "fusion_lon": 0.0, "type": "electric_scooter"}, {"rental_uris": {"ios": "https://dc.lft.to/lastmile_qr_scan", "android": "https://dc.lft.to/lastmile_qr_scan"}, "lat": 38.9093745, "lon": -77.04421133333334, "fusion_lat": 0.0, "name": "018b68b41e5227becbcacd116dfb8f4f", "is_disabled": 0, "is_reserved": 0, "bike_id": "018b68b41e5227becbcacd116dfb8f4f", "fusion_lon": 0.0, "type": "electric_scooter"}, {"rental_uris": {"ios": "https://dc.lft.to/lastmile_qr_scan", "android": "https://dc.lft.to/lastmile_qr_scan"}, "lat": 38.9426775, "lon": -77.02497116666666, "fusion_lat": 0.0, "name": "aff5a9ffd04e1683f663ea35ebc54547", "is_disabled": 0, "is_reserved": 0, "bike_id": "aff5a9ffd04e1683f663ea35ebc54547", "fusion_lon": 0.0, "type": "electric_scooter"}, {"rental_uris": {"ios": "https://dc.lft.to/lastmile_qr_scan", "android": "https://dc.lft.to/lastmile_qr_scan"}, "lat": 38.9167775, "lon": -77.02406883333333, "fusion_lat": 0.0, "name": "75bfe6964597c2759536531a10f6ad22", "is_disabled": 0, "is_reserved": 0, "bike_id": "75bfe6964597c2759536531a10f6ad22", "fusion_lon": 0.0, "type": "electric_scooter"}, {"rental_uris": {"ios": "https://dc.lft.to/lastmile_qr_scan", "android": "https://dc.lft.to/lastmile_qr_scan"}, "lat": 38.9010855, "lon": -77.049822, "fusion_lat": 0.0, "name": "8fdd79126289bb46778b9d1aa7f1b1dc", "is_disabled": 0, "is_reserved": 0, "bike_id": "8fdd79126289bb46778b9d1aa7f1b1dc", "fusion_lon": 0.0, "type": "electric_scooter"}, {"rental_uris": {"ios": "https://dc.lft.to/lastmile_qr_scan", "android": "https://dc.lft.to/lastmile_qr_scan"}, "lat": 38.910067833333336, "lon": -76.998622, "fusion_lat": 0.0, "name": "5f98a0625a0dc016c61cf5582ea8ff80", "is_disabled": 0, "is_reserved": 0, "bike_id": "5f98a0625a0dc016c61cf5582ea8ff80", "fusion_lon": 0.0, "type": "electric_scooter"}, {"rental_uris": {"ios": "https://dc.lft.to/lastmile_qr_scan", "android": "https://dc.lft.to/lastmile_qr_scan"}, "lat": 38.91806533333333, "lon": -77.03163316666667, "fusion_lat": 0.0, "name": "c155ddf4fe907fef3f00dc671d7f2ba4", "is_disabled": 0, "is_reserved": 0, "bike_id": "c155ddf4fe907fef3f00dc671d7f2ba4", "fusion_lon": 0.0, "type": "electric_scooter"}, {"rental_uris": {"ios": "https://dc.lft.to/lastmile_qr_scan", "android": "https://dc.lft.to/lastmile_qr_scan"}, "lat": 38.90738866666667, "lon": -77.0756605, "fusion_lat": 0.0, "name": "761a5208083f7a60340ffca7e19f1b08", "is_disabled": 0, "is_reserved": 0, "bike_id": "761a5208083f7a60340ffca7e19f1b08", "fusion_lon": 0.0, "type": "electric_scooter"}, {"rental_uris": {"ios": "https://dc.lft.to/lastmile_qr_scan", "android": "https://dc.lft.to/lastmile_qr_scan"}, "lat": 38.91292216666667, "lon": -77.02385416666667, "fusion_lat": 0.0, "name": "652387f77f3a1d3b440577157b09fb3c", "is_disabled": 0, "is_reserved": 0, "bike_id": "652387f77f3a1d3b440577157b09fb3c", "fusion_lon": 0.0, "type": "electric_scooter"}, {"rental_uris": {"ios": "https://dc.lft.to/lastmile_qr_scan", "android": "https://dc.lft.to/lastmile_qr_scan"}, "lat": 38.897373, "lon": -77.030466, "fusion_lat": 0.0, "name": "721e58300a19144f14ec12528ca0bec0", "is_disabled": 0, "is_reserved": 0, "bike_id": "721e58300a19144f14ec12528ca0bec0", "fusion_lon": 0.0, "type": "electric_scooter"}, {"rental_uris": {"ios": "https://dc.lft.to/lastmile_qr_scan", "android": "https://dc.lft.to/lastmile_qr_scan"}, "lat": 38.845239166666666, "lon": -76.973922, "fusion_lat": 0.0, "name": "8f17f343ba3c56779bdcbaa3a58a63bf", "is_disabled": 0, "is_reserved": 0, "bike_id": "8f17f343ba3c56779bdcbaa3a58a63bf", "fusion_lon": 0.0, "type": "electric_bike"}, {"rental_uris": {"ios": "https://dc.lft.to/lastmile_qr_scan", "android": "https://dc.lft.to/lastmile_qr_scan"}, "lat": 38.8942685, "lon": -77.03160983333333, "fusion_lat": 0.0, "name": "982dcba94f382dd50def901ca821ec65", "is_disabled": 0, "is_reserved": 0, "bike_id": "982dcba94f382dd50def901ca821ec65", "fusion_lon": 0.0, "type": "electric_scooter"}, {"rental_uris": {"ios": "https://dc.lft.to/lastmile_qr_scan", "android": "https://dc.lft.to/lastmile_qr_scan"}, "lat": 38.93754066666666, "lon": -77.03241933333334, "fusion_lat": 0.0, "name": "a50fa7089553a5f299bc1411baf9a0eb", "is_disabled": 0, "is_reserved": 0, "bike_id": "a50fa7089553a5f299bc1411baf9a0eb", "fusion_lon": 0.0, "type": "electric_scooter"}, {"rental_uris": {"ios": "https://dc.lft.to/lastmile_qr_scan", "android": "https://dc.lft.to/lastmile_qr_scan"}, "lat": 38.909813, "lon": -77.03389183333333, "fusion_lat": 0.0, "name": "549bea821f41c16b2af85ec6b58dfae0", "is_disabled": 0, "is_reserved": 0, "bike_id": "549bea821f41c16b2af85ec6b58dfae0", "fusion_lon": 0.0, "type": "electric_scooter"}, {"rental_uris": {"ios": "https://dc.lft.to/lastmile_qr_scan", "android": "https://dc.lft.to/lastmile_qr_scan"}, "lat": 38.90043566666667, "lon": -76.998464, "fusion_lat": 0.0, "name": "b424a2d4da1f94a61c6e623cde9e367b", "is_disabled": 0, "is_reserved": 0, "bike_id": "b424a2d4da1f94a61c6e623cde9e367b", "fusion_lon": 0.0, "type": "electric_scooter"}, {"rental_uris": {"ios": "https://dc.lft.to/lastmile_qr_scan", "android": "https://dc.lft.to/lastmile_qr_scan"}, "lat": 38.8849255, "lon": -77.00725866666667, "fusion_lat": 0.0, "name": "9cab664e37e10b49e533d53df8237d92", "is_disabled": 0, "is_reserved": 0, "bike_id": "9cab664e37e10b49e533d53df8237d92", "fusion_lon": 0.0, "type": "electric_scooter"}, {"rental_uris": {"ios": "https://dc.lft.to/lastmile_qr_scan", "android": "https://dc.lft.to/lastmile_qr_scan"}, "lat": 38.923260666666664, "lon": -77.008853, "fusion_lat": 0.0, "name": "2566b6f5717a62dd8c642ebe33b52488", "is_disabled": 0, "is_reserved": 0, "bike_id": "2566b6f5717a62dd8c642ebe33b52488", "fusion_lon": 0.0, "type": "electric_scooter"}, {"rental_uris": {"ios": "https://dc.lft.to/lastmile_qr_scan", "android": "https://dc.lft.to/lastmile_qr_scan"}, "lat": 38.916557, "lon": -76.979161, "fusion_lat": 0.0, "name": "279b5c7d292210ad28b46ceef892d327", "is_disabled": 0, "is_reserved": 0, "bike_id": "279b5c7d292210ad28b46ceef892d327", "fusion_lon": 0.0, "type": "electric_scooter"}, {"rental_uris": {"ios": "https://dc.lft.to/lastmile_qr_scan", "android": "https://dc.lft.to/lastmile_qr_scan"}, "lat": 38.987668666666664, "lon": -77.14053816666667, "fusion_lat": 0.0, "name": "bdcab7a227b6a41e9352079623dfbdee", "is_disabled": 0, "is_reserved": 0, "bike_id": "bdcab7a227b6a41e9352079623dfbdee", "fusion_lon": 0.0, "type": "electric_bike"}, {"rental_uris": {"ios": "https://dc.lft.to/lastmile_qr_scan", "android": "https://dc.lft.to/lastmile_qr_scan"}, "lat": 38.918331333333334, "lon": -77.03215483333334, "fusion_lat": 0.0, "name": "1bfa3ddd53fe27b9196db9ad52405265", "is_disabled": 0, "is_reserved": 0, "bike_id": "1bfa3ddd53fe27b9196db9ad52405265", "fusion_lon": 0.0, "type": "electric_scooter"}, {"rental_uris": {"ios": "https://dc.lft.to/lastmile_qr_scan", "android": "https://dc.lft.to/lastmile_qr_scan"}, "lat": 38.92029866666667, "lon": -77.00302733333334, "fusion_lat": 0.0, "name": "ebb4ef1d10ae513319cdb3208b0503e0", "is_disabled": 0, "is_reserved": 0, "bike_id": "ebb4ef1d10ae513319cdb3208b0503e0", "fusion_lon": 0.0, "type": "electric_scooter"}, {"rental_uris": {"ios": "https://dc.lft.to/lastmile_qr_scan", "android": "https://dc.lft.to/lastmile_qr_scan"}, "lat": 38.9290145, "lon": -77.021608, "fusion_lat": 0.0, "name": "20c10d39289ff9d32654e3ac315e582c", "is_disabled": 0, "is_reserved": 0, "bike_id": "20c10d39289ff9d32654e3ac315e582c", "fusion_lon": 0.0, "type": "electric_scooter"}, {"rental_uris": {"ios": "https://dc.lft.to/lastmile_qr_scan", "android": "https://dc.lft.to/lastmile_qr_scan"}, "lat": 38.8922145, "lon": -77.01606083333333, "fusion_lat": 0.0, "name": "316eecd7258b27ee2ea58dbaa98fcb38", "is_disabled": 0, "is_reserved": 0, "bike_id": "316eecd7258b27ee2ea58dbaa98fcb38", "fusion_lon": 0.0, "type": "electric_scooter"}, {"rental_uris": {"ios": "https://dc.lft.to/lastmile_qr_scan", "android": "https://dc.lft.to/lastmile_qr_scan"}, "lat": 38.935306833333335, "lon": -77.02356333333333, "fusion_lat": 0.0, "name": "321094a0d53f3ecb273b02758c3b228c", "is_disabled": 0, "is_reserved": 0, "bike_id": "321094a0d53f3ecb273b02758c3b228c", "fusion_lon": 0.0, "type": "electric_scooter"}, {"rental_uris": {"ios": "https://dc.lft.to/lastmile_qr_scan", "android": "https://dc.lft.to/lastmile_qr_scan"}, "lat": 38.91920066666667, "lon": -77.02411483333333, "fusion_lat": 0.0, "name": "472f6fa6923193daaa4901235ac56d1b", "is_disabled": 0, "is_reserved": 0, "bike_id": "472f6fa6923193daaa4901235ac56d1b", "fusion_lon": 0.0, "type": "electric_scooter"}, {"rental_uris": {"ios": "https://dc.lft.to/lastmile_qr_scan", "android": "https://dc.lft.to/lastmile_qr_scan"}, "lat": 38.865030833333336, "lon": -76.990069, "fusion_lat": 0.0, "name": "8c9a0ef89dcd911cda1797c0a515627f", "is_disabled": 0, "is_reserved": 0, "bike_id": "8c9a0ef89dcd911cda1797c0a515627f", "fusion_lon": 0.0, "type": "electric_scooter"}, {"rental_uris": {"ios": "https://dc.lft.to/lastmile_qr_scan", "android": "https://dc.lft.to/lastmile_qr_scan"}, "lat": 38.92759866666667, "lon": -77.02779766666667, "fusion_lat": 0.0, "name": "7c9142c6634c7b982913182f504ad192", "is_disabled": 0, "is_reserved": 0, "bike_id": "7c9142c6634c7b982913182f504ad192", "fusion_lon": 0.0, "type": "electric_scooter"}, {"rental_uris": {"ios": "https://dc.lft.to/lastmile_qr_scan", "android": "https://dc.lft.to/lastmile_qr_scan"}, "lat": 38.919630833333336, "lon": -77.02388266666667, "fusion_lat": 0.0, "name": "6dd7126d649fd445bd18e690f9dedd6b", "is_disabled": 0, "is_reserved": 0, "bike_id": "6dd7126d649fd445bd18e690f9dedd6b", "fusion_lon": 0.0, "type": "electric_scooter"}, {"rental_uris": {"ios": "https://dc.lft.to/lastmile_qr_scan", "android": "https://dc.lft.to/lastmile_qr_scan"}, "lat": 38.905036, "lon": -77.04072966666666, "fusion_lat": 0.0, "name": "991a45375d6592254c504b6160b16dfe", "is_disabled": 0, "is_reserved": 0, "bike_id": "991a45375d6592254c504b6160b16dfe", "fusion_lon": 0.0, "type": "electric_scooter"}, {"rental_uris": {"ios": "https://dc.lft.to/lastmile_qr_scan", "android": "https://dc.lft.to/lastmile_qr_scan"}, "lat": 38.91705433333333, "lon": -77.095743, "fusion_lat": 0.0, "name": "2acb890f8d42e8334d3d8ae455b486c8", "is_disabled": 0, "is_reserved": 0, "bike_id": "2acb890f8d42e8334d3d8ae455b486c8", "fusion_lon": 0.0, "type": "electric_scooter"}, {"rental_uris": {"ios": "https://dc.lft.to/lastmile_qr_scan", "android": "https://dc.lft.to/lastmile_qr_scan"}, "lat": 38.88381783333333, "lon": -77.0176445, "fusion_lat": 0.0, "name": "cdb21f87fe0ee92a29ec9285c3092094", "is_disabled": 0, "is_reserved": 0, "bike_id": "cdb21f87fe0ee92a29ec9285c3092094", "fusion_lon": 0.0, "type": "electric_scooter"}, {"rental_uris": {"ios": "https://dc.lft.to/lastmile_qr_scan", "android": "https://dc.lft.to/lastmile_qr_scan"}, "lat": 38.929596333333336, "lon": -77.02337733333333, "fusion_lat": 0.0, "name": "c45b35445727784412a95c20464551f5", "is_disabled": 0, "is_reserved": 0, "bike_id": "c45b35445727784412a95c20464551f5", "fusion_lon": 0.0, "type": "electric_scooter"}, {"rental_uris": {"ios": "https://dc.lft.to/lastmile_qr_scan", "android": "https://dc.lft.to/lastmile_qr_scan"}, "lat": 38.90222, "lon": -77.05896016666667, "fusion_lat": 0.0, "name": "39b327412f72175aa304c5289f624d3f", "is_disabled": 0, "is_reserved": 0, "bike_id": "39b327412f72175aa304c5289f624d3f", "fusion_lon": 0.0, "type": "electric_scooter"}, {"rental_uris": {"ios": "https://dc.lft.to/lastmile_qr_scan", "android": "https://dc.lft.to/lastmile_qr_scan"}, "lat": 38.94345783333333, "lon": -77.03766366666666, "fusion_lat": 0.0, "name": "598feedd4eb39525da5271acd223d6b0", "is_disabled": 0, "is_reserved": 0, "bike_id": "598feedd4eb39525da5271acd223d6b0", "fusion_lon": 0.0, "type": "electric_scooter"}, {"rental_uris": {"ios": "https://dc.lft.to/lastmile_qr_scan", "android": "https://dc.lft.to/lastmile_qr_scan"}, "lat": 38.917372, "lon": -77.06844683333334, "fusion_lat": 0.0, "name": "5fc8be5bbe312cc678a56f1c63b905d8", "is_disabled": 0, "is_reserved": 0, "bike_id": "5fc8be5bbe312cc678a56f1c63b905d8", "fusion_lon": 0.0, "type": "electric_scooter"}, {"rental_uris": {"ios": "https://dc.lft.to/lastmile_qr_scan", "android": "https://dc.lft.to/lastmile_qr_scan"}, "lat": 38.86683333333333, "lon": -76.98575166666667, "fusion_lat": 0.0, "name": "7c5d1189c1ff05af67da30b8de2de950", "is_disabled": 0, "is_reserved": 0, "bike_id": "7c5d1189c1ff05af67da30b8de2de950", "fusion_lon": 0.0, "type": "electric_scooter"}, {"rental_uris": {"ios": "https://dc.lft.to/lastmile_qr_scan", "android": "https://dc.lft.to/lastmile_qr_scan"}, "lat": 38.91548066666667, "lon": -77.0444495, "fusion_lat": 0.0, "name": "89a98cd25c24f1ab8ccf1c45cf3b07c3", "is_disabled": 0, "is_reserved": 0, "bike_id": "89a98cd25c24f1ab8ccf1c45cf3b07c3", "fusion_lon": 0.0, "type": "electric_scooter"}, {"rental_uris": {"ios": "https://dc.lft.to/lastmile_qr_scan", "android": "https://dc.lft.to/lastmile_qr_scan"}, "lat": 38.91969566666667, "lon": -77.01209333333334, "fusion_lat": 0.0, "name": "d6c5d2a35f5625c95c650d1350f7d44c", "is_disabled": 0, "is_reserved": 0, "bike_id": "d6c5d2a35f5625c95c650d1350f7d44c", "fusion_lon": 0.0, "type": "electric_scooter"}, {"rental_uris": {"ios": "https://dc.lft.to/lastmile_qr_scan", "android": "https://dc.lft.to/lastmile_qr_scan"}, "lat": 38.9054935, "lon": -77.04145216666667, "fusion_lat": 0.0, "name": "47ae86c7c54a2ad5d2f32c962f998110", "is_disabled": 0, "is_reserved": 0, "bike_id": "47ae86c7c54a2ad5d2f32c962f998110", "fusion_lon": 0.0, "type": "electric_scooter"}, {"rental_uris": {"ios": "https://dc.lft.to/lastmile_qr_scan", "android": "https://dc.lft.to/lastmile_qr_scan"}, "lat": 38.888374666666664, "lon": -77.049022, "fusion_lat": 0.0, "name": "51f17b360aa30a375d3d667a6a5be61d", "is_disabled": 0, "is_reserved": 0, "bike_id": "51f17b360aa30a375d3d667a6a5be61d", "fusion_lon": 0.0, "type": "electric_scooter"}, {"rental_uris": {"ios": "https://dc.lft.to/lastmile_qr_scan", "android": "https://dc.lft.to/lastmile_qr_scan"}, "lat": 38.932222, "lon": -77.0387315, "fusion_lat": 0.0, "name": "4f7be29e17943e5597b761096c5b43e2", "is_disabled": 0, "is_reserved": 0, "bike_id": "4f7be29e17943e5597b761096c5b43e2", "fusion_lon": 0.0, "type": "electric_scooter"}, {"rental_uris": {"ios": "https://dc.lft.to/lastmile_qr_scan", "android": "https://dc.lft.to/lastmile_qr_scan"}, "lat": 38.933859, "lon": -77.05740083333333, "fusion_lat": 0.0, "name": "509065f73a6259cb5c25f83786bb9c90", "is_disabled": 0, "is_reserved": 0, "bike_id": "509065f73a6259cb5c25f83786bb9c90", "fusion_lon": 0.0, "type": "electric_scooter"}, {"rental_uris": {"ios": "https://dc.lft.to/lastmile_qr_scan", "android": "https://dc.lft.to/lastmile_qr_scan"}, "lat": 38.92215733333333, "lon": -77.20137633333333, "fusion_lat": 0.0, "name": "fb89fd55a392a5e42a7fcaf02788b32f", "is_disabled": 0, "is_reserved": 0, "bike_id": "fb89fd55a392a5e42a7fcaf02788b32f", "fusion_lon": 0.0, "type": "electric_bike"}, {"rental_uris": {"ios": "https://dc.lft.to/lastmile_qr_scan", "android": "https://dc.lft.to/lastmile_qr_scan"}, "lat": 38.8614435, "lon": -77.091427, "fusion_lat": 0.0, "name": "21574efcc6589c9a40a0dcf77b722ed0", "is_disabled": 0, "is_reserved": 0, "bike_id": "21574efcc6589c9a40a0dcf77b722ed0", "fusion_lon": 0.0, "type": "electric_bike"}, {"rental_uris": {"ios": "https://dc.lft.to/lastmile_qr_scan", "android": "https://dc.lft.to/lastmile_qr_scan"}, "lat": 38.9456145, "lon": -76.96690216666667, "fusion_lat": 0.0, "name": "895864fe0c6525ee2b6f117398c3162a", "is_disabled": 0, "is_reserved": 0, "bike_id": "895864fe0c6525ee2b6f117398c3162a", "fusion_lon": 0.0, "type": "electric_bike"}, {"rental_uris": {"ios": "https://dc.lft.to/lastmile_qr_scan", "android": "https://dc.lft.to/lastmile_qr_scan"}, "lat": 38.907993, "lon": -77.03059883333333, "fusion_lat": 0.0, "name": "b3693fe0d3b548be86ec8e65ac42c505", "is_disabled": 0, "is_reserved": 0, "bike_id": "b3693fe0d3b548be86ec8e65ac42c505", "fusion_lon": 0.0, "type": "electric_scooter"}, {"rental_uris": {"ios": "https://dc.lft.to/lastmile_qr_scan", "android": "https://dc.lft.to/lastmile_qr_scan"}, "lat": 38.89329866666667, "lon": -77.04678016666666, "fusion_lat": 0.0, "name": "d15bb61447275a86bd65d863a898dc0f", "is_disabled": 0, "is_reserved": 0, "bike_id": "d15bb61447275a86bd65d863a898dc0f", "fusion_lon": 0.0, "type": "electric_scooter"}, {"rental_uris": {"ios": "https://dc.lft.to/lastmile_qr_scan", "android": "https://dc.lft.to/lastmile_qr_scan"}, "lat": 38.90726316666667, "lon": -77.023742, "fusion_lat": 0.0, "name": "7fc868651f432031ce74cff42353ea07", "is_disabled": 0, "is_reserved": 0, "bike_id": "7fc868651f432031ce74cff42353ea07", "fusion_lon": 0.0, "type": "electric_scooter"}, {"rental_uris": {"ios": "https://dc.lft.to/lastmile_qr_scan", "android": "https://dc.lft.to/lastmile_qr_scan"}, "lat": 38.9027315, "lon": -77.05798683333333, "fusion_lat": 0.0, "name": "52a4b9735491163b39c26101e0c9d631", "is_disabled": 0, "is_reserved": 0, "bike_id": "52a4b9735491163b39c26101e0c9d631", "fusion_lon": 0.0, "type": "electric_scooter"}, {"rental_uris": {"ios": "https://dc.lft.to/lastmile_qr_scan", "android": "https://dc.lft.to/lastmile_qr_scan"}, "lat": 38.870622166666664, "lon": -76.97096283333333, "fusion_lat": 0.0, "name": "a846a27f8de529dd0b9b0090011d7056", "is_disabled": 0, "is_reserved": 0, "bike_id": "a846a27f8de529dd0b9b0090011d7056", "fusion_lon": 0.0, "type": "electric_scooter"}, {"rental_uris": {"ios": "https://dc.lft.to/lastmile_qr_scan", "android": "https://dc.lft.to/lastmile_qr_scan"}, "lat": 38.93471183333333, "lon": -77.02230333333333, "fusion_lat": 0.0, "name": "8bb15aef4e9b6b696823f12219b71a75", "is_disabled": 0, "is_reserved": 0, "bike_id": "8bb15aef4e9b6b696823f12219b71a75", "fusion_lon": 0.0, "type": "electric_scooter"}, {"rental_uris": {"ios": "https://dc.lft.to/lastmile_qr_scan", "android": "https://dc.lft.to/lastmile_qr_scan"}, "lat": 38.8986285, "lon": -76.94635633333333, "fusion_lat": 0.0, "name": "f20330ff2bcda18addb8b8c88b255298", "is_disabled": 0, "is_reserved": 0, "bike_id": "f20330ff2bcda18addb8b8c88b255298", "fusion_lon": 0.0, "type": "electric_scooter"}, {"rental_uris": {"ios": "https://dc.lft.to/lastmile_qr_scan", "android": "https://dc.lft.to/lastmile_qr_scan"}, "lat": 38.9174295, "lon": -77.04072083333334, "fusion_lat": 0.0, "name": "bb87c9fdf7e1bfe3769e02c090f6be11", "is_disabled": 0, "is_reserved": 0, "bike_id": "bb87c9fdf7e1bfe3769e02c090f6be11", "fusion_lon": 0.0, "type": "electric_scooter"}, {"rental_uris": {"ios": "https://dc.lft.to/lastmile_qr_scan", "android": "https://dc.lft.to/lastmile_qr_scan"}, "lat": 38.915671333333336, "lon": -77.0220535, "fusion_lat": 0.0, "name": "cd084559655cd16422f5df9456c82631", "is_disabled": 0, "is_reserved": 0, "bike_id": "cd084559655cd16422f5df9456c82631", "fusion_lon": 0.0, "type": "electric_scooter"}, {"rental_uris": {"ios": "https://dc.lft.to/lastmile_qr_scan", "android": "https://dc.lft.to/lastmile_qr_scan"}, "lat": 38.893343333333334, "lon": -77.02823983333333, "fusion_lat": 0.0, "name": "4194798d9c20dfcb068c7dd1206a87de", "is_disabled": 0, "is_reserved": 0, "bike_id": "4194798d9c20dfcb068c7dd1206a87de", "fusion_lon": 0.0, "type": "electric_scooter"}, {"rental_uris": {"ios": "https://dc.lft.to/lastmile_qr_scan", "android": "https://dc.lft.to/lastmile_qr_scan"}, "lat": 38.90691533333333, "lon": -76.95249933333334, "fusion_lat": 0.0, "name": "1008b1c2030dc1fb19d428bdf4d95a3d", "is_disabled": 0, "is_reserved": 0, "bike_id": "1008b1c2030dc1fb19d428bdf4d95a3d", "fusion_lon": 0.0, "type": "electric_bike"}, {"rental_uris": {"ios": "https://dc.lft.to/lastmile_qr_scan", "android": "https://dc.lft.to/lastmile_qr_scan"}, "lat": 38.90365033333333, "lon": -77.01745216666667, "fusion_lat": 0.0, "name": "2c92f801b1c7f7c5c43d720e1dcab0f8", "is_disabled": 0, "is_reserved": 0, "bike_id": "2c92f801b1c7f7c5c43d720e1dcab0f8", "fusion_lon": 0.0, "type": "electric_scooter"}, {"rental_uris": {"ios": "https://dc.lft.to/lastmile_qr_scan", "android": "https://dc.lft.to/lastmile_qr_scan"}, "lat": 38.909492166666666, "lon": -77.0238105, "fusion_lat": 0.0, "name": "7e20a87b10174963f4a11cc48810daa1", "is_disabled": 0, "is_reserved": 0, "bike_id": "7e20a87b10174963f4a11cc48810daa1", "fusion_lon": 0.0, "type": "electric_scooter"}, {"rental_uris": {"ios": "https://dc.lft.to/lastmile_qr_scan", "android": "https://dc.lft.to/lastmile_qr_scan"}, "lat": 39.05493883333333, "lon": -77.11785816666666, "fusion_lat": 0.0, "name": "e46b64dbeb3e7f0af8ae15a1073153d8", "is_disabled": 0, "is_reserved": 0, "bike_id": "e46b64dbeb3e7f0af8ae15a1073153d8", "fusion_lon": 0.0, "type": "electric_bike"}, {"rental_uris": {"ios": "https://dc.lft.to/lastmile_qr_scan", "android": "https://dc.lft.to/lastmile_qr_scan"}, "lat": 38.87176766666666, "lon": -77.006063, "fusion_lat": 0.0, "name": "3853b95f77c2911c96433f9676cfdab4", "is_disabled": 0, "is_reserved": 0, "bike_id": "3853b95f77c2911c96433f9676cfdab4", "fusion_lon": 0.0, "type": "electric_scooter"}, {"rental_uris": {"ios": "https://dc.lft.to/lastmile_qr_scan", "android": "https://dc.lft.to/lastmile_qr_scan"}, "lat": 38.876828, "lon": -77.0083205, "fusion_lat": 0.0, "name": "efe6ecc7a256a762d10804e1648b335c", "is_disabled": 0, "is_reserved": 0, "bike_id": "efe6ecc7a256a762d10804e1648b335c", "fusion_lon": 0.0, "type": "electric_scooter"}, {"rental_uris": {"ios": "https://dc.lft.to/lastmile_qr_scan", "android": "https://dc.lft.to/lastmile_qr_scan"}, "lat": 38.8991265, "lon": -76.93371416666666, "fusion_lat": 0.0, "name": "2be33cbbc3adb5e6e716c5f21c8d0f7e", "is_disabled": 0, "is_reserved": 0, "bike_id": "2be33cbbc3adb5e6e716c5f21c8d0f7e", "fusion_lon": 0.0, "type": "electric_scooter"}, {"rental_uris": {"ios": "https://dc.lft.to/lastmile_qr_scan", "android": "https://dc.lft.to/lastmile_qr_scan"}, "lat": 38.93192583333333, "lon": -77.02827683333334, "fusion_lat": 0.0, "name": "a25ba0d31a8a502376522ae5d8b9c280", "is_disabled": 0, "is_reserved": 0, "bike_id": "a25ba0d31a8a502376522ae5d8b9c280", "fusion_lon": 0.0, "type": "electric_scooter"}, {"rental_uris": {"ios": "https://dc.lft.to/lastmile_qr_scan", "android": "https://dc.lft.to/lastmile_qr_scan"}, "lat": 38.892233, "lon": -77.04367633333334, "fusion_lat": 0.0, "name": "77cd148e9f17dba0bbc013ea01f84cf1", "is_disabled": 0, "is_reserved": 0, "bike_id": "77cd148e9f17dba0bbc013ea01f84cf1", "fusion_lon": 0.0, "type": "electric_scooter"}, {"rental_uris": {"ios": "https://dc.lft.to/lastmile_qr_scan", "android": "https://dc.lft.to/lastmile_qr_scan"}, "lat": 38.91115966666667, "lon": -77.0447515, "fusion_lat": 0.0, "name": "ab96aa24d797e4a247ea3245a7a7c74c", "is_disabled": 0, "is_reserved": 0, "bike_id": "ab96aa24d797e4a247ea3245a7a7c74c", "fusion_lon": 0.0, "type": "electric_scooter"}, {"rental_uris": {"ios": "https://dc.lft.to/lastmile_qr_scan", "android": "https://dc.lft.to/lastmile_qr_scan"}, "lat": 38.88570466666667, "lon": -77.01541983333334, "fusion_lat": 0.0, "name": "a11c85320745f9212666ade11439d8b8", "is_disabled": 0, "is_reserved": 0, "bike_id": "a11c85320745f9212666ade11439d8b8", "fusion_lon": 0.0, "type": "electric_scooter"}, {"rental_uris": {"ios": "https://dc.lft.to/lastmile_qr_scan", "android": "https://dc.lft.to/lastmile_qr_scan"}, "lat": 38.90336716666667, "lon": -77.039755, "fusion_lat": 0.0, "name": "1eb5f66601c25748460d465c5850e5f0", "is_disabled": 0, "is_reserved": 0, "bike_id": "1eb5f66601c25748460d465c5850e5f0", "fusion_lon": 0.0, "type": "electric_scooter"}, {"rental_uris": {"ios": "https://dc.lft.to/lastmile_qr_scan", "android": "https://dc.lft.to/lastmile_qr_scan"}, "lat": 38.925960833333335, "lon": -77.02386616666666, "fusion_lat": 0.0, "name": "63d8f34186ed142516fc57cb839c7a9e", "is_disabled": 0, "is_reserved": 0, "bike_id": "63d8f34186ed142516fc57cb839c7a9e", "fusion_lon": 0.0, "type": "electric_scooter"}, {"rental_uris": {"ios": "https://dc.lft.to/lastmile_qr_scan", "android": "https://dc.lft.to/lastmile_qr_scan"}, "lat": 38.90643133333333, "lon": -77.0486725, "fusion_lat": 0.0, "name": "5c7ceb72762715d41cdd1520e682a80f", "is_disabled": 0, "is_reserved": 0, "bike_id": "5c7ceb72762715d41cdd1520e682a80f", "fusion_lon": 0.0, "type": "electric_scooter"}, {"rental_uris": {"ios": "https://dc.lft.to/lastmile_qr_scan", "android": "https://dc.lft.to/lastmile_qr_scan"}, "lat": 38.916897, "lon": -77.02655683333333, "fusion_lat": 0.0, "name": "5da33c6b5c5df37c60b4f55e55afe2e8", "is_disabled": 0, "is_reserved": 0, "bike_id": "5da33c6b5c5df37c60b4f55e55afe2e8", "fusion_lon": 0.0, "type": "electric_scooter"}, {"rental_uris": {"ios": "https://dc.lft.to/lastmile_qr_scan", "android": "https://dc.lft.to/lastmile_qr_scan"}, "lat": 38.9035495, "lon": -77.016052, "fusion_lat": 0.0, "name": "4cdfebb2a057063b57b920459274af35", "is_disabled": 0, "is_reserved": 0, "bike_id": "4cdfebb2a057063b57b920459274af35", "fusion_lon": 0.0, "type": "electric_scooter"}, {"rental_uris": {"ios": "https://dc.lft.to/lastmile_qr_scan", "android": "https://dc.lft.to/lastmile_qr_scan"}, "lat": 38.90616983333334, "lon": -77.04893683333333, "fusion_lat": 0.0, "name": "92e57e3a20558b8986173d040f17a419", "is_disabled": 0, "is_reserved": 0, "bike_id": "92e57e3a20558b8986173d040f17a419", "fusion_lon": 0.0, "type": "electric_scooter"}, {"rental_uris": {"ios": "https://dc.lft.to/lastmile_qr_scan", "android": "https://dc.lft.to/lastmile_qr_scan"}, "lat": 38.92623783333333, "lon": -77.0418725, "fusion_lat": 0.0, "name": "b2db7f5b89f10ae6cf8db411d1aae034", "is_disabled": 0, "is_reserved": 0, "bike_id": "b2db7f5b89f10ae6cf8db411d1aae034", "fusion_lon": 0.0, "type": "electric_scooter"}, {"rental_uris": {"ios": "https://dc.lft.to/lastmile_qr_scan", "android": "https://dc.lft.to/lastmile_qr_scan"}, "lat": 38.893102166666665, "lon": -76.93972016666666, "fusion_lat": 0.0, "name": "9552a2922c5c9b938566ba0e88b949cd", "is_disabled": 0, "is_reserved": 0, "bike_id": "9552a2922c5c9b938566ba0e88b949cd", "fusion_lon": 0.0, "type": "electric_scooter"}, {"rental_uris": {"ios": "https://dc.lft.to/lastmile_qr_scan", "android": "https://dc.lft.to/lastmile_qr_scan"}, "lat": 38.919111666666666, "lon": -77.0217315, "fusion_lat": 0.0, "name": "bb2b28bbfc3413a6be8a84e86e7cb29a", "is_disabled": 0, "is_reserved": 0, "bike_id": "bb2b28bbfc3413a6be8a84e86e7cb29a", "fusion_lon": 0.0, "type": "electric_scooter"}, {"rental_uris": {"ios": "https://dc.lft.to/lastmile_qr_scan", "android": "https://dc.lft.to/lastmile_qr_scan"}, "lat": 38.92200833333333, "lon": -77.033947, "fusion_lat": 0.0, "name": "7ca7098d7b23428e3f968a06b1762753", "is_disabled": 0, "is_reserved": 0, "bike_id": "7ca7098d7b23428e3f968a06b1762753", "fusion_lon": 0.0, "type": "electric_scooter"}, {"rental_uris": {"ios": "https://dc.lft.to/lastmile_qr_scan", "android": "https://dc.lft.to/lastmile_qr_scan"}, "lat": 38.90354166666667, "lon": -77.00741383333333, "fusion_lat": 0.0, "name": "82bd2316e0c44efae90b6adade835b04", "is_disabled": 0, "is_reserved": 0, "bike_id": "82bd2316e0c44efae90b6adade835b04", "fusion_lon": 0.0, "type": "electric_scooter"}, {"rental_uris": {"ios": "https://dc.lft.to/lastmile_qr_scan", "android": "https://dc.lft.to/lastmile_qr_scan"}, "lat": 38.916287833333335, "lon": -77.03042966666666, "fusion_lat": 0.0, "name": "b5b09b863e24a42f1fdbbf15a9663f34", "is_disabled": 0, "is_reserved": 0, "bike_id": "b5b09b863e24a42f1fdbbf15a9663f34", "fusion_lon": 0.0, "type": "electric_scooter"}, {"rental_uris": {"ios": "https://dc.lft.to/lastmile_qr_scan", "android": "https://dc.lft.to/lastmile_qr_scan"}, "lat": 38.902151333333336, "lon": -77.06053333333334, "fusion_lat": 0.0, "name": "5efd48617d110892b5b31e9df015aeec", "is_disabled": 0, "is_reserved": 0, "bike_id": "5efd48617d110892b5b31e9df015aeec", "fusion_lon": 0.0, "type": "electric_scooter"}, {"rental_uris": {"ios": "https://dc.lft.to/lastmile_qr_scan", "android": "https://dc.lft.to/lastmile_qr_scan"}, "lat": 38.8735815, "lon": -77.00071283333334, "fusion_lat": 0.0, "name": "1bfb615f2a2c4706aa5249e131c29230", "is_disabled": 0, "is_reserved": 0, "bike_id": "1bfb615f2a2c4706aa5249e131c29230", "fusion_lon": 0.0, "type": "electric_scooter"}, {"rental_uris": {"ios": "https://dc.lft.to/lastmile_qr_scan", "android": "https://dc.lft.to/lastmile_qr_scan"}, "lat": 38.8923415, "lon": -77.0334915, "fusion_lat": 0.0, "name": "58b4fb00925e13732d8de8f950d88910", "is_disabled": 0, "is_reserved": 0, "bike_id": "58b4fb00925e13732d8de8f950d88910", "fusion_lon": 0.0, "type": "electric_scooter"}, {"rental_uris": {"ios": "https://dc.lft.to/lastmile_qr_scan", "android": "https://dc.lft.to/lastmile_qr_scan"}, "lat": 38.9156595, "lon": -77.02199883333333, "fusion_lat": 0.0, "name": "ecf71782b6d1932fb4d777735daefaef", "is_disabled": 0, "is_reserved": 0, "bike_id": "ecf71782b6d1932fb4d777735daefaef", "fusion_lon": 0.0, "type": "electric_scooter"}, {"rental_uris": {"ios": "https://dc.lft.to/lastmile_qr_scan", "android": "https://dc.lft.to/lastmile_qr_scan"}, "lat": 38.90642866666666, "lon": -77.01627116666667, "fusion_lat": 0.0, "name": "58d0da79f52adaa799538e80fb0a4ad7", "is_disabled": 0, "is_reserved": 0, "bike_id": "58d0da79f52adaa799538e80fb0a4ad7", "fusion_lon": 0.0, "type": "electric_scooter"}, {"rental_uris": {"ios": "https://dc.lft.to/lastmile_qr_scan", "android": "https://dc.lft.to/lastmile_qr_scan"}, "lat": 38.919120166666666, "lon": -77.03178716666666, "fusion_lat": 0.0, "name": "0e129967abaf984fa1b055a32e01e525", "is_disabled": 0, "is_reserved": 0, "bike_id": "0e129967abaf984fa1b055a32e01e525", "fusion_lon": 0.0, "type": "electric_scooter"}, {"rental_uris": {"ios": "https://dc.lft.to/lastmile_qr_scan", "android": "https://dc.lft.to/lastmile_qr_scan"}, "lat": 38.91737083333334, "lon": -77.03185366666666, "fusion_lat": 0.0, "name": "6b6e922a0b948d859add5fef9f5d1f19", "is_disabled": 0, "is_reserved": 0, "bike_id": "6b6e922a0b948d859add5fef9f5d1f19", "fusion_lon": 0.0, "type": "electric_scooter"}, {"rental_uris": {"ios": "https://dc.lft.to/lastmile_qr_scan", "android": "https://dc.lft.to/lastmile_qr_scan"}, "lat": 38.90548716666667, "lon": -77.046562, "fusion_lat": 0.0, "name": "b6e249f9bfe5125fcb33ebe697bd8f66", "is_disabled": 0, "is_reserved": 0, "bike_id": "b6e249f9bfe5125fcb33ebe697bd8f66", "fusion_lon": 0.0, "type": "electric_scooter"}, {"rental_uris": {"ios": "https://dc.lft.to/lastmile_qr_scan", "android": "https://dc.lft.to/lastmile_qr_scan"}, "lat": 38.91139866666666, "lon": -77.02408166666666, "fusion_lat": 0.0, "name": "1a476fa629fe61b2ff83307a70f8141c", "is_disabled": 0, "is_reserved": 0, "bike_id": "1a476fa629fe61b2ff83307a70f8141c", "fusion_lon": 0.0, "type": "electric_scooter"}, {"rental_uris": {"ios": "https://dc.lft.to/lastmile_qr_scan", "android": "https://dc.lft.to/lastmile_qr_scan"}, "lat": 38.89134133333334, "lon": -76.95186783333334, "fusion_lat": 0.0, "name": "0eac986665cd9d54ce4e6bfb299d7e74", "is_disabled": 0, "is_reserved": 0, "bike_id": "0eac986665cd9d54ce4e6bfb299d7e74", "fusion_lon": 0.0, "type": "electric_scooter"}, {"rental_uris": {"ios": "https://dc.lft.to/lastmile_qr_scan", "android": "https://dc.lft.to/lastmile_qr_scan"}, "lat": 38.9036475, "lon": -77.0074035, "fusion_lat": 0.0, "name": "313b79f6e37675567c1528c54b7fe06d", "is_disabled": 0, "is_reserved": 0, "bike_id": "313b79f6e37675567c1528c54b7fe06d", "fusion_lon": 0.0, "type": "electric_scooter"}, {"rental_uris": {"ios": "https://dc.lft.to/lastmile_qr_scan", "android": "https://dc.lft.to/lastmile_qr_scan"}, "lat": 38.908844, "lon": -76.98233566666667, "fusion_lat": 0.0, "name": "9beb4ee622ebce45f969018f897fa622", "is_disabled": 0, "is_reserved": 0, "bike_id": "9beb4ee622ebce45f969018f897fa622", "fusion_lon": 0.0, "type": "electric_scooter"}, {"rental_uris": {"ios": "https://dc.lft.to/lastmile_qr_scan", "android": "https://dc.lft.to/lastmile_qr_scan"}, "lat": 38.92758216666667, "lon": -77.056384, "fusion_lat": 0.0, "name": "983bb139c221c0e00e926a84527bbfde", "is_disabled": 0, "is_reserved": 0, "bike_id": "983bb139c221c0e00e926a84527bbfde", "fusion_lon": 0.0, "type": "electric_scooter"}, {"rental_uris": {"ios": "https://dc.lft.to/lastmile_qr_scan", "android": "https://dc.lft.to/lastmile_qr_scan"}, "lat": 38.89723816666667, "lon": -77.04454166666666, "fusion_lat": 0.0, "name": "1342fa19d05cb3f2445000bcf92be0cd", "is_disabled": 0, "is_reserved": 0, "bike_id": "1342fa19d05cb3f2445000bcf92be0cd", "fusion_lon": 0.0, "type": "electric_scooter"}, {"rental_uris": {"ios": "https://dc.lft.to/lastmile_qr_scan", "android": "https://dc.lft.to/lastmile_qr_scan"}, "lat": 38.912287666666664, "lon": -77.01240283333334, "fusion_lat": 0.0, "name": "6631f3067f953739c93cc494ff9c2258", "is_disabled": 0, "is_reserved": 0, "bike_id": "6631f3067f953739c93cc494ff9c2258", "fusion_lon": 0.0, "type": "electric_scooter"}, {"rental_uris": {"ios": "https://dc.lft.to/lastmile_qr_scan", "android": "https://dc.lft.to/lastmile_qr_scan"}, "lat": 38.90034683333333, "lon": -76.9983785, "fusion_lat": 0.0, "name": "b2a88622c7b376ec43a76889a9251280", "is_disabled": 0, "is_reserved": 0, "bike_id": "b2a88622c7b376ec43a76889a9251280", "fusion_lon": 0.0, "type": "electric_scooter"}, {"rental_uris": {"ios": "https://dc.lft.to/lastmile_qr_scan", "android": "https://dc.lft.to/lastmile_qr_scan"}, "lat": 38.90547266666667, "lon": -77.0476655, "fusion_lat": 0.0, "name": "d4adf68572bb772c71d0a8e0103ac9af", "is_disabled": 0, "is_reserved": 0, "bike_id": "d4adf68572bb772c71d0a8e0103ac9af", "fusion_lon": 0.0, "type": "electric_scooter"}, {"rental_uris": {"ios": "https://dc.lft.to/lastmile_qr_scan", "android": "https://dc.lft.to/lastmile_qr_scan"}, "lat": 38.905842666666665, "lon": -77.03017716666666, "fusion_lat": 0.0, "name": "b48199bfbf29229c0eaa6435e9059c5a", "is_disabled": 0, "is_reserved": 0, "bike_id": "b48199bfbf29229c0eaa6435e9059c5a", "fusion_lon": 0.0, "type": "electric_scooter"}, {"rental_uris": {"ios": "https://dc.lft.to/lastmile_qr_scan", "android": "https://dc.lft.to/lastmile_qr_scan"}, "lat": 38.921568666666666, "lon": -77.0337995, "fusion_lat": 0.0, "name": "d61947c6a533a1d7578f758d2eafbc64", "is_disabled": 0, "is_reserved": 0, "bike_id": "d61947c6a533a1d7578f758d2eafbc64", "fusion_lon": 0.0, "type": "electric_scooter"}, {"rental_uris": {"ios": "https://dc.lft.to/lastmile_qr_scan", "android": "https://dc.lft.to/lastmile_qr_scan"}, "lat": 38.871718333333334, "lon": -77.00625516666666, "fusion_lat": 0.0, "name": "1e5a4ed976585d1cbe363fc3eca13313", "is_disabled": 0, "is_reserved": 0, "bike_id": "1e5a4ed976585d1cbe363fc3eca13313", "fusion_lon": 0.0, "type": "electric_scooter"}, {"rental_uris": {"ios": "https://dc.lft.to/lastmile_qr_scan", "android": "https://dc.lft.to/lastmile_qr_scan"}, "lat": 38.923131166666664, "lon": -77.04614666666667, "fusion_lat": 0.0, "name": "70f1ef8a5a0d6ab89ea808d853547b53", "is_disabled": 0, "is_reserved": 0, "bike_id": "70f1ef8a5a0d6ab89ea808d853547b53", "fusion_lon": 0.0, "type": "electric_scooter"}, {"rental_uris": {"ios": "https://dc.lft.to/lastmile_qr_scan", "android": "https://dc.lft.to/lastmile_qr_scan"}, "lat": 38.922456333333336, "lon": -77.0401135, "fusion_lat": 0.0, "name": "3ed65a11640f3e199002cee7e11d5a01", "is_disabled": 0, "is_reserved": 0, "bike_id": "3ed65a11640f3e199002cee7e11d5a01", "fusion_lon": 0.0, "type": "electric_scooter"}, {"rental_uris": {"ios": "https://dc.lft.to/lastmile_qr_scan", "android": "https://dc.lft.to/lastmile_qr_scan"}, "lat": 38.9139695, "lon": -77.02405383333334, "fusion_lat": 0.0, "name": "3c7b2511f129fd3a323655233d9a9ecc", "is_disabled": 0, "is_reserved": 0, "bike_id": "3c7b2511f129fd3a323655233d9a9ecc", "fusion_lon": 0.0, "type": "electric_scooter"}, {"rental_uris": {"ios": "https://dc.lft.to/lastmile_qr_scan", "android": "https://dc.lft.to/lastmile_qr_scan"}, "lat": 38.93990133333333, "lon": -77.0188755, "fusion_lat": 0.0, "name": "ecedb8267db61a52c76e4d5348a11a12", "is_disabled": 0, "is_reserved": 0, "bike_id": "ecedb8267db61a52c76e4d5348a11a12", "fusion_lon": 0.0, "type": "electric_scooter"}, {"rental_uris": {"ios": "https://dc.lft.to/lastmile_qr_scan", "android": "https://dc.lft.to/lastmile_qr_scan"}, "lat": 38.8765605, "lon": -77.01569483333333, "fusion_lat": 0.0, "name": "f5efa0f7c437924f5e6f800a06dc0556", "is_disabled": 0, "is_reserved": 0, "bike_id": "f5efa0f7c437924f5e6f800a06dc0556", "fusion_lon": 0.0, "type": "electric_scooter"}, {"rental_uris": {"ios": "https://dc.lft.to/lastmile_qr_scan", "android": "https://dc.lft.to/lastmile_qr_scan"}, "lat": 38.917466166666664, "lon": -77.04155383333334, "fusion_lat": 0.0, "name": "470f62001f282f29ed5be2bc22212d28", "is_disabled": 0, "is_reserved": 0, "bike_id": "470f62001f282f29ed5be2bc22212d28", "fusion_lon": 0.0, "type": "electric_scooter"}, {"rental_uris": {"ios": "https://dc.lft.to/lastmile_qr_scan", "android": "https://dc.lft.to/lastmile_qr_scan"}, "lat": 38.906497333333334, "lon": -77.042843, "fusion_lat": 0.0, "name": "e9b29d37f2a667d73e1c5eaa9fe3b9ac", "is_disabled": 0, "is_reserved": 0, "bike_id": "e9b29d37f2a667d73e1c5eaa9fe3b9ac", "fusion_lon": 0.0, "type": "electric_scooter"}, {"rental_uris": {"ios": "https://dc.lft.to/lastmile_qr_scan", "android": "https://dc.lft.to/lastmile_qr_scan"}, "lat": 38.900342333333334, "lon": -77.00065566666666, "fusion_lat": 0.0, "name": "7cc95be259e7bbb485740cf995db23a8", "is_disabled": 0, "is_reserved": 0, "bike_id": "7cc95be259e7bbb485740cf995db23a8", "fusion_lon": 0.0, "type": "electric_scooter"}, {"rental_uris": {"ios": "https://dc.lft.to/lastmile_qr_scan", "android": "https://dc.lft.to/lastmile_qr_scan"}, "lat": 38.93356133333333, "lon": -77.04119183333333, "fusion_lat": 0.0, "name": "e6651043e189b12abaa30a0b5187ca5a", "is_disabled": 0, "is_reserved": 0, "bike_id": "e6651043e189b12abaa30a0b5187ca5a", "fusion_lon": 0.0, "type": "electric_scooter"}, {"rental_uris": {"ios": "https://dc.lft.to/lastmile_qr_scan", "android": "https://dc.lft.to/lastmile_qr_scan"}, "lat": 38.89828833333333, "lon": -77.0074715, "fusion_lat": 0.0, "name": "181525f5cf6339acf490dee022047812", "is_disabled": 0, "is_reserved": 0, "bike_id": "181525f5cf6339acf490dee022047812", "fusion_lon": 0.0, "type": "electric_scooter"}, {"rental_uris": {"ios": "https://dc.lft.to/lastmile_qr_scan", "android": "https://dc.lft.to/lastmile_qr_scan"}, "lat": 38.92873616666667, "lon": -77.01832466666667, "fusion_lat": 0.0, "name": "e188ef1a489cba4fbf0afb22e875624c", "is_disabled": 0, "is_reserved": 0, "bike_id": "e188ef1a489cba4fbf0afb22e875624c", "fusion_lon": 0.0, "type": "electric_scooter"}, {"rental_uris": {"ios": "https://dc.lft.to/lastmile_qr_scan", "android": "https://dc.lft.to/lastmile_qr_scan"}, "lat": 38.91671633333333, "lon": -77.02393283333333, "fusion_lat": 0.0, "name": "ce984e4c63c0d8a68dbdcf55973599fc", "is_disabled": 0, "is_reserved": 0, "bike_id": "ce984e4c63c0d8a68dbdcf55973599fc", "fusion_lon": 0.0, "type": "electric_scooter"}, {"rental_uris": {"ios": "https://dc.lft.to/lastmile_qr_scan", "android": "https://dc.lft.to/lastmile_qr_scan"}, "lat": 38.8002095, "lon": -77.06329366666667, "fusion_lat": 0.0, "name": "5c20679d75fb6569561c16bf8570f58a", "is_disabled": 0, "is_reserved": 0, "bike_id": "5c20679d75fb6569561c16bf8570f58a", "fusion_lon": 0.0, "type": "electric_bike"}, {"rental_uris": {"ios": "https://dc.lft.to/lastmile_qr_scan", "android": "https://dc.lft.to/lastmile_qr_scan"}, "lat": 38.916087833333336, "lon": -77.03365466666666, "fusion_lat": 0.0, "name": "9a2d66e13f6de867b27b542417384855", "is_disabled": 0, "is_reserved": 0, "bike_id": "9a2d66e13f6de867b27b542417384855", "fusion_lon": 0.0, "type": "electric_scooter"}, {"rental_uris": {"ios": "https://dc.lft.to/lastmile_qr_scan", "android": "https://dc.lft.to/lastmile_qr_scan"}, "lat": 38.862466833333336, "lon": -76.99501766666667, "fusion_lat": 0.0, "name": "6fe0eb45f10807d4f7c0bb4d6215fac9", "is_disabled": 0, "is_reserved": 0, "bike_id": "6fe0eb45f10807d4f7c0bb4d6215fac9", "fusion_lon": 0.0, "type": "electric_scooter"}, {"rental_uris": {"ios": "https://dc.lft.to/lastmile_qr_scan", "android": "https://dc.lft.to/lastmile_qr_scan"}, "lat": 38.91352, "lon": -77.03853916666667, "fusion_lat": 0.0, "name": "ae6d7ba1c00560b932e0e26df839ccad", "is_disabled": 0, "is_reserved": 0, "bike_id": "ae6d7ba1c00560b932e0e26df839ccad", "fusion_lon": 0.0, "type": "electric_scooter"}, {"rental_uris": {"ios": "https://dc.lft.to/lastmile_qr_scan", "android": "https://dc.lft.to/lastmile_qr_scan"}, "lat": 38.917274666666664, "lon": -77.02351533333334, "fusion_lat": 0.0, "name": "3db5d5566b3efed2ff263ef5146063f1", "is_disabled": 0, "is_reserved": 0, "bike_id": "3db5d5566b3efed2ff263ef5146063f1", "fusion_lon": 0.0, "type": "electric_scooter"}, {"rental_uris": {"ios": "https://dc.lft.to/lastmile_qr_scan", "android": "https://dc.lft.to/lastmile_qr_scan"}, "lat": 38.934543, "lon": -77.0386575, "fusion_lat": 0.0, "name": "e9d070562e9a73f878b02d39985ee548", "is_disabled": 0, "is_reserved": 0, "bike_id": "e9d070562e9a73f878b02d39985ee548", "fusion_lon": 0.0, "type": "electric_scooter"}, {"rental_uris": {"ios": "https://dc.lft.to/lastmile_qr_scan", "android": "https://dc.lft.to/lastmile_qr_scan"}, "lat": 38.80752666666667, "lon": -77.094524, "fusion_lat": 0.0, "name": "f927f34cc8621e7ea556c535b004f131", "is_disabled": 0, "is_reserved": 0, "bike_id": "f927f34cc8621e7ea556c535b004f131", "fusion_lon": 0.0, "type": "electric_bike"}, {"rental_uris": {"ios": "https://dc.lft.to/lastmile_qr_scan", "android": "https://dc.lft.to/lastmile_qr_scan"}, "lat": 38.866808666666664, "lon": -76.98571466666667, "fusion_lat": 0.0, "name": "9bf0850e9082642ec78d960660e47c1d", "is_disabled": 0, "is_reserved": 0, "bike_id": "9bf0850e9082642ec78d960660e47c1d", "fusion_lon": 0.0, "type": "electric_scooter"}, {"rental_uris": {"ios": "https://dc.lft.to/lastmile_qr_scan", "android": "https://dc.lft.to/lastmile_qr_scan"}, "lat": 38.89813433333333, "lon": -77.02565116666666, "fusion_lat": 0.0, "name": "39576241956c8586a837bd2f1b716696", "is_disabled": 0, "is_reserved": 0, "bike_id": "39576241956c8586a837bd2f1b716696", "fusion_lon": 0.0, "type": "electric_scooter"}, {"rental_uris": {"ios": "https://dc.lft.to/lastmile_qr_scan", "android": "https://dc.lft.to/lastmile_qr_scan"}, "lat": 38.918202666666666, "lon": -77.02446316666666, "fusion_lat": 0.0, "name": "75c51d49d1da46fff0c551384a17f603", "is_disabled": 0, "is_reserved": 0, "bike_id": "75c51d49d1da46fff0c551384a17f603", "fusion_lon": 0.0, "type": "electric_scooter"}, {"rental_uris": {"ios": "https://dc.lft.to/lastmile_qr_scan", "android": "https://dc.lft.to/lastmile_qr_scan"}, "lat": 38.899130666666665, "lon": -76.93363566666666, "fusion_lat": 0.0, "name": "e487500e2f7a392a08cc4aef6b240220", "is_disabled": 0, "is_reserved": 0, "bike_id": "e487500e2f7a392a08cc4aef6b240220", "fusion_lon": 0.0, "type": "electric_scooter"}, {"rental_uris": {"ios": "https://dc.lft.to/lastmile_qr_scan", "android": "https://dc.lft.to/lastmile_qr_scan"}, "lat": 38.90957983333333, "lon": -77.034221, "fusion_lat": 0.0, "name": "163a231a3a3c802a646df0479d13548f", "is_disabled": 0, "is_reserved": 0, "bike_id": "163a231a3a3c802a646df0479d13548f", "fusion_lon": 0.0, "type": "electric_scooter"}, {"rental_uris": {"ios": "https://dc.lft.to/lastmile_qr_scan", "android": "https://dc.lft.to/lastmile_qr_scan"}, "lat": 38.92933466666667, "lon": -77.03762733333333, "fusion_lat": 0.0, "name": "c14c45265bfc6b42086682ba0cf22eec", "is_disabled": 0, "is_reserved": 0, "bike_id": "c14c45265bfc6b42086682ba0cf22eec", "fusion_lon": 0.0, "type": "electric_scooter"}, {"rental_uris": {"ios": "https://dc.lft.to/lastmile_qr_scan", "android": "https://dc.lft.to/lastmile_qr_scan"}, "lat": 38.885729, "lon": -77.01543716666667, "fusion_lat": 0.0, "name": "7e28755d2ea6ef144bd31d89a691843f", "is_disabled": 0, "is_reserved": 0, "bike_id": "7e28755d2ea6ef144bd31d89a691843f", "fusion_lon": 0.0, "type": "electric_scooter"}, {"rental_uris": {"ios": "https://dc.lft.to/lastmile_qr_scan", "android": "https://dc.lft.to/lastmile_qr_scan"}, "lat": 38.927166666666665, "lon": -77.05355416666667, "fusion_lat": 0.0, "name": "80d1f911fa48ccb3a007b935c35ef42e", "is_disabled": 0, "is_reserved": 0, "bike_id": "80d1f911fa48ccb3a007b935c35ef42e", "fusion_lon": 0.0, "type": "electric_scooter"}, {"rental_uris": {"ios": "https://dc.lft.to/lastmile_qr_scan", "android": "https://dc.lft.to/lastmile_qr_scan"}, "lat": 38.915624666666666, "lon": -77.02287166666666, "fusion_lat": 0.0, "name": "5bfd545f4fa3161d390688d3ae305eaf", "is_disabled": 0, "is_reserved": 0, "bike_id": "5bfd545f4fa3161d390688d3ae305eaf", "fusion_lon": 0.0, "type": "electric_scooter"}, {"rental_uris": {"ios": "https://dc.lft.to/lastmile_qr_scan", "android": "https://dc.lft.to/lastmile_qr_scan"}, "lat": 38.898349333333336, "lon": -77.0311615, "fusion_lat": 0.0, "name": "7583c4f35eafac8932d3ea2a2c9a1d74", "is_disabled": 0, "is_reserved": 0, "bike_id": "7583c4f35eafac8932d3ea2a2c9a1d74", "fusion_lon": 0.0, "type": "electric_scooter"}, {"rental_uris": {"ios": "https://dc.lft.to/lastmile_qr_scan", "android": "https://dc.lft.to/lastmile_qr_scan"}, "lat": 38.872947333333336, "lon": -77.13923516666667, "fusion_lat": 0.0, "name": "f568d92e32215b54ce5e2b9106eb445f", "is_disabled": 0, "is_reserved": 0, "bike_id": "f568d92e32215b54ce5e2b9106eb445f", "fusion_lon": 0.0, "type": "electric_bike"}, {"rental_uris": {"ios": "https://dc.lft.to/lastmile_qr_scan", "android": "https://dc.lft.to/lastmile_qr_scan"}, "lat": 38.893779333333335, "lon": -77.02272183333334, "fusion_lat": 0.0, "name": "bd3c17b22c95893db2df2d5cbb123620", "is_disabled": 0, "is_reserved": 0, "bike_id": "bd3c17b22c95893db2df2d5cbb123620", "fusion_lon": 0.0, "type": "electric_scooter"}, {"rental_uris": {"ios": "https://dc.lft.to/lastmile_qr_scan", "android": "https://dc.lft.to/lastmile_qr_scan"}, "lat": 38.89477733333333, "lon": -77.0216915, "fusion_lat": 0.0, "name": "cb410f1485cd0c8efe9528beef6af3ba", "is_disabled": 0, "is_reserved": 0, "bike_id": "cb410f1485cd0c8efe9528beef6af3ba", "fusion_lon": 0.0, "type": "electric_scooter"}, {"rental_uris": {"ios": "https://dc.lft.to/lastmile_qr_scan", "android": "https://dc.lft.to/lastmile_qr_scan"}, "lat": 38.87359883333333, "lon": -76.97025533333333, "fusion_lat": 0.0, "name": "2ac57d2c8ea1ca87c0e843d73342a07a", "is_disabled": 0, "is_reserved": 0, "bike_id": "2ac57d2c8ea1ca87c0e843d73342a07a", "fusion_lon": 0.0, "type": "electric_scooter"}, {"rental_uris": {"ios": "https://dc.lft.to/lastmile_qr_scan", "android": "https://dc.lft.to/lastmile_qr_scan"}, "lat": 38.92163266666667, "lon": -77.03834633333334, "fusion_lat": 0.0, "name": "1bd919dee3b29bd22d38ec7985f42a6f", "is_disabled": 0, "is_reserved": 0, "bike_id": "1bd919dee3b29bd22d38ec7985f42a6f", "fusion_lon": 0.0, "type": "electric_scooter"}, {"rental_uris": {"ios": "https://dc.lft.to/lastmile_qr_scan", "android": "https://dc.lft.to/lastmile_qr_scan"}, "lat": 38.921882833333335, "lon": -77.04344433333333, "fusion_lat": 0.0, "name": "d7ed8f87fd0f6ad9d1037a18ca8e519a", "is_disabled": 0, "is_reserved": 0, "bike_id": "d7ed8f87fd0f6ad9d1037a18ca8e519a", "fusion_lon": 0.0, "type": "electric_scooter"}, {"rental_uris": {"ios": "https://dc.lft.to/lastmile_qr_scan", "android": "https://dc.lft.to/lastmile_qr_scan"}, "lat": 38.91906383333333, "lon": -77.02545216666667, "fusion_lat": 0.0, "name": "bb6e6b2c960766a7a6a45412ba09bdd4", "is_disabled": 0, "is_reserved": 0, "bike_id": "bb6e6b2c960766a7a6a45412ba09bdd4", "fusion_lon": 0.0, "type": "electric_scooter"}, {"rental_uris": {"ios": "https://dc.lft.to/lastmile_qr_scan", "android": "https://dc.lft.to/lastmile_qr_scan"}, "lat": 38.91720683333333, "lon": -77.02848183333333, "fusion_lat": 0.0, "name": "c9a7b83de9870c393bb51cbd983c701a", "is_disabled": 0, "is_reserved": 0, "bike_id": "c9a7b83de9870c393bb51cbd983c701a", "fusion_lon": 0.0, "type": "electric_scooter"}, {"rental_uris": {"ios": "https://dc.lft.to/lastmile_qr_scan", "android": "https://dc.lft.to/lastmile_qr_scan"}, "lat": 38.92311566666667, "lon": -77.04105533333333, "fusion_lat": 0.0, "name": "030462afa176019850f623d6c9447a91", "is_disabled": 0, "is_reserved": 0, "bike_id": "030462afa176019850f623d6c9447a91", "fusion_lon": 0.0, "type": "electric_scooter"}, {"rental_uris": {"ios": "https://dc.lft.to/lastmile_qr_scan", "android": "https://dc.lft.to/lastmile_qr_scan"}, "lat": 38.92429666666666, "lon": -77.02019083333333, "fusion_lat": 0.0, "name": "8e1631a62bdca004ce670b56ebfc23d3", "is_disabled": 0, "is_reserved": 0, "bike_id": "8e1631a62bdca004ce670b56ebfc23d3", "fusion_lon": 0.0, "type": "electric_scooter"}, {"rental_uris": {"ios": "https://dc.lft.to/lastmile_qr_scan", "android": "https://dc.lft.to/lastmile_qr_scan"}, "lat": 38.91299933333333, "lon": -77.03860116666667, "fusion_lat": 0.0, "name": "62f0a746d12c6e5c2562b279e858588f", "is_disabled": 0, "is_reserved": 0, "bike_id": "62f0a746d12c6e5c2562b279e858588f", "fusion_lon": 0.0, "type": "electric_scooter"}, {"rental_uris": {"ios": "https://dc.lft.to/lastmile_qr_scan", "android": "https://dc.lft.to/lastmile_qr_scan"}, "lat": 38.842769, "lon": -76.98836816666666, "fusion_lat": 0.0, "name": "8ce1fb949453bda447f43c75d0cd2bdf", "is_disabled": 0, "is_reserved": 0, "bike_id": "8ce1fb949453bda447f43c75d0cd2bdf", "fusion_lon": 0.0, "type": "electric_bike"}, {"rental_uris": {"ios": "https://dc.lft.to/lastmile_qr_scan", "android": "https://dc.lft.to/lastmile_qr_scan"}, "lat": 38.90642316666667, "lon": -77.04870633333333, "fusion_lat": 0.0, "name": "53977325adc729dc29296619d088c533", "is_disabled": 0, "is_reserved": 0, "bike_id": "53977325adc729dc29296619d088c533", "fusion_lon": 0.0, "type": "electric_scooter"}, {"rental_uris": {"ios": "https://dc.lft.to/lastmile_qr_scan", "android": "https://dc.lft.to/lastmile_qr_scan"}, "lat": 38.896662166666665, "lon": -77.033564, "fusion_lat": 0.0, "name": "d469bd03ad0988c5f9e05d304f300dbe", "is_disabled": 0, "is_reserved": 0, "bike_id": "d469bd03ad0988c5f9e05d304f300dbe", "fusion_lon": 0.0, "type": "electric_scooter"}, {"rental_uris": {"ios": "https://dc.lft.to/lastmile_qr_scan", "android": "https://dc.lft.to/lastmile_qr_scan"}, "lat": 38.8923345, "lon": -77.03347766666667, "fusion_lat": 0.0, "name": "57b5cf406f83770f2fa14f742f9a2631", "is_disabled": 0, "is_reserved": 0, "bike_id": "57b5cf406f83770f2fa14f742f9a2631", "fusion_lon": 0.0, "type": "electric_scooter"}, {"rental_uris": {"ios": "https://dc.lft.to/lastmile_qr_scan", "android": "https://dc.lft.to/lastmile_qr_scan"}, "lat": 38.91707, "lon": -77.04124516666667, "fusion_lat": 0.0, "name": "45f4cfdf9501cc9ccfca0a024535766a", "is_disabled": 0, "is_reserved": 0, "bike_id": "45f4cfdf9501cc9ccfca0a024535766a", "fusion_lon": 0.0, "type": "electric_scooter"}, {"rental_uris": {"ios": "https://dc.lft.to/lastmile_qr_scan", "android": "https://dc.lft.to/lastmile_qr_scan"}, "lat": 38.89408933333333, "lon": -77.01085733333333, "fusion_lat": 0.0, "name": "0f00c00b95c3cace5cc5eceb73d6898c", "is_disabled": 0, "is_reserved": 0, "bike_id": "0f00c00b95c3cace5cc5eceb73d6898c", "fusion_lon": 0.0, "type": "electric_scooter"}, {"rental_uris": {"ios": "https://dc.lft.to/lastmile_qr_scan", "android": "https://dc.lft.to/lastmile_qr_scan"}, "lat": 38.90959633333333, "lon": -77.02175, "fusion_lat": 0.0, "name": "32e58a4f598927274f5b80fe88322334", "is_disabled": 0, "is_reserved": 0, "bike_id": "32e58a4f598927274f5b80fe88322334", "fusion_lon": 0.0, "type": "electric_scooter"}, {"rental_uris": {"ios": "https://dc.lft.to/lastmile_qr_scan", "android": "https://dc.lft.to/lastmile_qr_scan"}, "lat": 38.922468333333335, "lon": -77.01945266666667, "fusion_lat": 0.0, "name": "a6aa3b6f868088e9cff9b2290f92150a", "is_disabled": 0, "is_reserved": 0, "bike_id": "a6aa3b6f868088e9cff9b2290f92150a", "fusion_lon": 0.0, "type": "electric_scooter"}, {"rental_uris": {"ios": "https://dc.lft.to/lastmile_qr_scan", "android": "https://dc.lft.to/lastmile_qr_scan"}, "lat": 38.9063905, "lon": -77.04871616666667, "fusion_lat": 0.0, "name": "eaeaa1ba58195bc5927dc057d803be74", "is_disabled": 0, "is_reserved": 0, "bike_id": "eaeaa1ba58195bc5927dc057d803be74", "fusion_lon": 0.0, "type": "electric_scooter"}, {"rental_uris": {"ios": "https://dc.lft.to/lastmile_qr_scan", "android": "https://dc.lft.to/lastmile_qr_scan"}, "lat": 38.886236333333336, "lon": -77.0335315, "fusion_lat": 0.0, "name": "450c1b0faf580d9f4aac511469da9161", "is_disabled": 0, "is_reserved": 0, "bike_id": "450c1b0faf580d9f4aac511469da9161", "fusion_lon": 0.0, "type": "electric_scooter"}, {"rental_uris": {"ios": "https://dc.lft.to/lastmile_qr_scan", "android": "https://dc.lft.to/lastmile_qr_scan"}, "lat": 38.9252035, "lon": -77.07721283333333, "fusion_lat": 0.0, "name": "d72915455dce6743ee3387994594d5c4", "is_disabled": 0, "is_reserved": 0, "bike_id": "d72915455dce6743ee3387994594d5c4", "fusion_lon": 0.0, "type": "electric_scooter"}, {"rental_uris": {"ios": "https://dc.lft.to/lastmile_qr_scan", "android": "https://dc.lft.to/lastmile_qr_scan"}, "lat": 38.877072166666665, "lon": -77.00522766666667, "fusion_lat": 0.0, "name": "7616dc14694c2ff3f0186419752c2aa5", "is_disabled": 0, "is_reserved": 0, "bike_id": "7616dc14694c2ff3f0186419752c2aa5", "fusion_lon": 0.0, "type": "electric_scooter"}, {"rental_uris": {"ios": "https://dc.lft.to/lastmile_qr_scan", "android": "https://dc.lft.to/lastmile_qr_scan"}, "lat": 38.89474666666667, "lon": -76.94856783333333, "fusion_lat": 0.0, "name": "7270b5818a2728c1547e1cf7ef5f198e", "is_disabled": 0, "is_reserved": 0, "bike_id": "7270b5818a2728c1547e1cf7ef5f198e", "fusion_lon": 0.0, "type": "electric_scooter"}, {"rental_uris": {"ios": "https://dc.lft.to/lastmile_qr_scan", "android": "https://dc.lft.to/lastmile_qr_scan"}, "lat": 38.940232333333334, "lon": -76.9760265, "fusion_lat": 0.0, "name": "aa546e0e47c0bcf0076787f23f9b9064", "is_disabled": 0, "is_reserved": 0, "bike_id": "aa546e0e47c0bcf0076787f23f9b9064", "fusion_lon": 0.0, "type": "electric_scooter"}, {"rental_uris": {"ios": "https://dc.lft.to/lastmile_qr_scan", "android": "https://dc.lft.to/lastmile_qr_scan"}, "lat": 38.8970875, "lon": -77.04883333333333, "fusion_lat": 0.0, "name": "c92de488bd9bcc0bf4a367a5ce549691", "is_disabled": 0, "is_reserved": 0, "bike_id": "c92de488bd9bcc0bf4a367a5ce549691", "fusion_lon": 0.0, "type": "electric_scooter"}, {"rental_uris": {"ios": "https://dc.lft.to/lastmile_qr_scan", "android": "https://dc.lft.to/lastmile_qr_scan"}, "lat": 38.902528, "lon": -77.03949533333333, "fusion_lat": 0.0, "name": "d6507d05a79f06947452bd16bfe22b4e", "is_disabled": 0, "is_reserved": 0, "bike_id": "d6507d05a79f06947452bd16bfe22b4e", "fusion_lon": 0.0, "type": "electric_scooter"}, {"rental_uris": {"ios": "https://dc.lft.to/lastmile_qr_scan", "android": "https://dc.lft.to/lastmile_qr_scan"}, "lat": 38.89701616666667, "lon": -77.02720916666667, "fusion_lat": 0.0, "name": "d19e0f0f6ff40739e1715e2dc4092b25", "is_disabled": 0, "is_reserved": 0, "bike_id": "d19e0f0f6ff40739e1715e2dc4092b25", "fusion_lon": 0.0, "type": "electric_scooter"}, {"rental_uris": {"ios": "https://dc.lft.to/lastmile_qr_scan", "android": "https://dc.lft.to/lastmile_qr_scan"}, "lat": 38.8973025, "lon": -77.02221916666667, "fusion_lat": 0.0, "name": "3a5cfa5257df77ba831543cfc5e9ca52", "is_disabled": 0, "is_reserved": 0, "bike_id": "3a5cfa5257df77ba831543cfc5e9ca52", "fusion_lon": 0.0, "type": "electric_scooter"}, {"rental_uris": {"ios": "https://dc.lft.to/lastmile_qr_scan", "android": "https://dc.lft.to/lastmile_qr_scan"}, "lat": 38.902929666666665, "lon": -77.00568116666666, "fusion_lat": 0.0, "name": "82b503663467be9dec94eca77720b44b", "is_disabled": 0, "is_reserved": 0, "bike_id": "82b503663467be9dec94eca77720b44b", "fusion_lon": 0.0, "type": "electric_scooter"}, {"rental_uris": {"ios": "https://dc.lft.to/lastmile_qr_scan", "android": "https://dc.lft.to/lastmile_qr_scan"}, "lat": 38.89962533333333, "lon": -77.02179416666667, "fusion_lat": 0.0, "name": "c3998f017b7437d7e568f29ce13eed07", "is_disabled": 0, "is_reserved": 0, "bike_id": "c3998f017b7437d7e568f29ce13eed07", "fusion_lon": 0.0, "type": "electric_scooter"}, {"rental_uris": {"ios": "https://dc.lft.to/lastmile_qr_scan", "android": "https://dc.lft.to/lastmile_qr_scan"}, "lat": 38.915537, "lon": -77.01041566666666, "fusion_lat": 0.0, "name": "600275b37f1ce92ff1273ba505eea476", "is_disabled": 0, "is_reserved": 0, "bike_id": "600275b37f1ce92ff1273ba505eea476", "fusion_lon": 0.0, "type": "electric_scooter"}, {"rental_uris": {"ios": "https://dc.lft.to/lastmile_qr_scan", "android": "https://dc.lft.to/lastmile_qr_scan"}, "lat": 38.9105335, "lon": -77.021925, "fusion_lat": 0.0, "name": "508a7fea8d99b2041bd924b225c0d695", "is_disabled": 0, "is_reserved": 0, "bike_id": "508a7fea8d99b2041bd924b225c0d695", "fusion_lon": 0.0, "type": "electric_scooter"}, {"rental_uris": {"ios": "https://dc.lft.to/lastmile_qr_scan", "android": "https://dc.lft.to/lastmile_qr_scan"}, "lat": 38.91732733333333, "lon": -77.03180866666666, "fusion_lat": 0.0, "name": "3b42dee2ff92aa789f708bdab16f5b38", "is_disabled": 0, "is_reserved": 0, "bike_id": "3b42dee2ff92aa789f708bdab16f5b38", "fusion_lon": 0.0, "type": "electric_scooter"}, {"rental_uris": {"ios": "https://dc.lft.to/lastmile_qr_scan", "android": "https://dc.lft.to/lastmile_qr_scan"}, "lat": 38.91538383333334, "lon": -77.04458566666666, "fusion_lat": 0.0, "name": "626d9df1d0a0b31feada28ccc106056d", "is_disabled": 0, "is_reserved": 0, "bike_id": "626d9df1d0a0b31feada28ccc106056d", "fusion_lon": 0.0, "type": "electric_scooter"}, {"rental_uris": {"ios": "https://dc.lft.to/lastmile_qr_scan", "android": "https://dc.lft.to/lastmile_qr_scan"}, "lat": 38.914229, "lon": -77.03208183333334, "fusion_lat": 0.0, "name": "7779c263163fea29149f657195a6c744", "is_disabled": 0, "is_reserved": 0, "bike_id": "7779c263163fea29149f657195a6c744", "fusion_lon": 0.0, "type": "electric_scooter"}, {"rental_uris": {"ios": "https://dc.lft.to/lastmile_qr_scan", "android": "https://dc.lft.to/lastmile_qr_scan"}, "lat": 38.90932733333333, "lon": -77.04414183333333, "fusion_lat": 0.0, "name": "165978e8b1b92a305a89b2282b79dc19", "is_disabled": 0, "is_reserved": 0, "bike_id": "165978e8b1b92a305a89b2282b79dc19", "fusion_lon": 0.0, "type": "electric_scooter"}, {"rental_uris": {"ios": "https://dc.lft.to/lastmile_qr_scan", "android": "https://dc.lft.to/lastmile_qr_scan"}, "lat": 38.89428616666667, "lon": -77.03965216666667, "fusion_lat": 0.0, "name": "b5c10f6ddb26aae6bb89494af6c8e7ff", "is_disabled": 0, "is_reserved": 0, "bike_id": "b5c10f6ddb26aae6bb89494af6c8e7ff", "fusion_lon": 0.0, "type": "electric_scooter"}, {"rental_uris": {"ios": "https://dc.lft.to/lastmile_qr_scan", "android": "https://dc.lft.to/lastmile_qr_scan"}, "lat": 38.930866, "lon": -77.03120116666666, "fusion_lat": 0.0, "name": "506f623b43532872cbc6d4644d7332de", "is_disabled": 0, "is_reserved": 0, "bike_id": "506f623b43532872cbc6d4644d7332de", "fusion_lon": 0.0, "type": "electric_scooter"}, {"rental_uris": {"ios": "https://dc.lft.to/lastmile_qr_scan", "android": "https://dc.lft.to/lastmile_qr_scan"}, "lat": 38.94916933333333, "lon": -77.01851616666667, "fusion_lat": 0.0, "name": "71d47fbb37dee5cbea99b3c58633ce05", "is_disabled": 0, "is_reserved": 0, "bike_id": "71d47fbb37dee5cbea99b3c58633ce05", "fusion_lon": 0.0, "type": "electric_scooter"}, {"rental_uris": {"ios": "https://dc.lft.to/lastmile_qr_scan", "android": "https://dc.lft.to/lastmile_qr_scan"}, "lat": 38.906832, "lon": -77.06064, "fusion_lat": 0.0, "name": "5124c400c26b97eddd2bc6b1f6273b43", "is_disabled": 0, "is_reserved": 0, "bike_id": "5124c400c26b97eddd2bc6b1f6273b43", "fusion_lon": 0.0, "type": "electric_scooter"}, {"rental_uris": {"ios": "https://dc.lft.to/lastmile_qr_scan", "android": "https://dc.lft.to/lastmile_qr_scan"}, "lat": 38.912213, "lon": -77.03184716666667, "fusion_lat": 0.0, "name": "2e0fac0425109c3ba85b57bb8110f0f2", "is_disabled": 0, "is_reserved": 0, "bike_id": "2e0fac0425109c3ba85b57bb8110f0f2", "fusion_lon": 0.0, "type": "electric_scooter"}, {"rental_uris": {"ios": "https://dc.lft.to/lastmile_qr_scan", "android": "https://dc.lft.to/lastmile_qr_scan"}, "lat": 38.91736816666667, "lon": -77.02111733333334, "fusion_lat": 0.0, "name": "76a1ee8f53a7be48e007dab2e9ed5af4", "is_disabled": 0, "is_reserved": 0, "bike_id": "76a1ee8f53a7be48e007dab2e9ed5af4", "fusion_lon": 0.0, "type": "electric_scooter"}, {"rental_uris": {"ios": "https://dc.lft.to/lastmile_qr_scan", "android": "https://dc.lft.to/lastmile_qr_scan"}, "lat": 38.926935, "lon": -77.03552966666666, "fusion_lat": 0.0, "name": "8853f6ae8a498d14a1ee84344f3b61ea", "is_disabled": 0, "is_reserved": 0, "bike_id": "8853f6ae8a498d14a1ee84344f3b61ea", "fusion_lon": 0.0, "type": "electric_scooter"}, {"rental_uris": {"ios": "https://dc.lft.to/lastmile_qr_scan", "android": "https://dc.lft.to/lastmile_qr_scan"}, "lat": 38.856318, "lon": -77.11265716666666, "fusion_lat": 0.0, "name": "782eb4cc4228fb7ddf33737d70274dc2", "is_disabled": 0, "is_reserved": 0, "bike_id": "782eb4cc4228fb7ddf33737d70274dc2", "fusion_lon": 0.0, "type": "electric_bike"}, {"rental_uris": {"ios": "https://dc.lft.to/lastmile_qr_scan", "android": "https://dc.lft.to/lastmile_qr_scan"}, "lat": 38.95004316666667, "lon": -77.01844916666667, "fusion_lat": 0.0, "name": "70473e9d97d30c5a2ca31ea83e0529cc", "is_disabled": 0, "is_reserved": 0, "bike_id": "70473e9d97d30c5a2ca31ea83e0529cc", "fusion_lon": 0.0, "type": "electric_scooter"}, {"rental_uris": {"ios": "https://dc.lft.to/lastmile_qr_scan", "android": "https://dc.lft.to/lastmile_qr_scan"}, "lat": 38.89456916666666, "lon": -77.02164816666667, "fusion_lat": 0.0, "name": "536e4c39d44da78e606c0de3c3424f31", "is_disabled": 0, "is_reserved": 0, "bike_id": "536e4c39d44da78e606c0de3c3424f31", "fusion_lon": 0.0, "type": "electric_scooter"}, {"rental_uris": {"ios": "https://dc.lft.to/lastmile_qr_scan", "android": "https://dc.lft.to/lastmile_qr_scan"}, "lat": 38.90677516666667, "lon": -77.036455, "fusion_lat": 0.0, "name": "cc318d1f22702e18cb4c25f52a50773e", "is_disabled": 0, "is_reserved": 0, "bike_id": "cc318d1f22702e18cb4c25f52a50773e", "fusion_lon": 0.0, "type": "electric_scooter"}, {"rental_uris": {"ios": "https://dc.lft.to/lastmile_qr_scan", "android": "https://dc.lft.to/lastmile_qr_scan"}, "lat": 38.893564166666664, "lon": -77.02220683333333, "fusion_lat": 0.0, "name": "efc98dfc56157f5928442234875cbbdd", "is_disabled": 0, "is_reserved": 0, "bike_id": "efc98dfc56157f5928442234875cbbdd", "fusion_lon": 0.0, "type": "electric_scooter"}, {"rental_uris": {"ios": "https://dc.lft.to/lastmile_qr_scan", "android": "https://dc.lft.to/lastmile_qr_scan"}, "lat": 38.915994, "lon": -77.031311, "fusion_lat": 0.0, "name": "ea75cd806292232f7ce653bdbac41955", "is_disabled": 0, "is_reserved": 0, "bike_id": "ea75cd806292232f7ce653bdbac41955", "fusion_lon": 0.0, "type": "electric_scooter"}, {"rental_uris": {"ios": "https://dc.lft.to/lastmile_qr_scan", "android": "https://dc.lft.to/lastmile_qr_scan"}, "lat": 38.91688633333333, "lon": -77.0433215, "fusion_lat": 0.0, "name": "c112b70dc9efe85a6884ab122c649060", "is_disabled": 0, "is_reserved": 0, "bike_id": "c112b70dc9efe85a6884ab122c649060", "fusion_lon": 0.0, "type": "electric_scooter"}, {"rental_uris": {"ios": "https://dc.lft.to/lastmile_qr_scan", "android": "https://dc.lft.to/lastmile_qr_scan"}, "lat": 38.893659, "lon": -76.94703816666667, "fusion_lat": 0.0, "name": "a30b0b85e511328060954f0e93233581", "is_disabled": 0, "is_reserved": 0, "bike_id": "a30b0b85e511328060954f0e93233581", "fusion_lon": 0.0, "type": "electric_scooter"}, {"rental_uris": {"ios": "https://dc.lft.to/lastmile_qr_scan", "android": "https://dc.lft.to/lastmile_qr_scan"}, "lat": 38.8757455, "lon": -77.23406133333333, "fusion_lat": 0.0, "name": "0d02bb945e55af2e139270742c12ccbe", "is_disabled": 0, "is_reserved": 0, "bike_id": "0d02bb945e55af2e139270742c12ccbe", "fusion_lon": 0.0, "type": "electric_bike"}, {"rental_uris": {"ios": "https://dc.lft.to/lastmile_qr_scan", "android": "https://dc.lft.to/lastmile_qr_scan"}, "lat": 38.91548916666667, "lon": -77.04282133333334, "fusion_lat": 0.0, "name": "cd282e4c1ee64283bf14e6b949be936e", "is_disabled": 0, "is_reserved": 0, "bike_id": "cd282e4c1ee64283bf14e6b949be936e", "fusion_lon": 0.0, "type": "electric_scooter"}, {"rental_uris": {"ios": "https://dc.lft.to/lastmile_qr_scan", "android": "https://dc.lft.to/lastmile_qr_scan"}, "lat": 38.90757033333333, "lon": -77.03434616666667, "fusion_lat": 0.0, "name": "68fa62069c66cc4b3d40b52ed48f812e", "is_disabled": 0, "is_reserved": 0, "bike_id": "68fa62069c66cc4b3d40b52ed48f812e", "fusion_lon": 0.0, "type": "electric_scooter"}, {"rental_uris": {"ios": "https://dc.lft.to/lastmile_qr_scan", "android": "https://dc.lft.to/lastmile_qr_scan"}, "lat": 38.91338533333333, "lon": -77.031741, "fusion_lat": 0.0, "name": "0449124f24a50cc12c87ed4dab3ff200", "is_disabled": 0, "is_reserved": 0, "bike_id": "0449124f24a50cc12c87ed4dab3ff200", "fusion_lon": 0.0, "type": "electric_scooter"}, {"rental_uris": {"ios": "https://dc.lft.to/lastmile_qr_scan", "android": "https://dc.lft.to/lastmile_qr_scan"}, "lat": 38.9098385, "lon": -77.03369566666667, "fusion_lat": 0.0, "name": "12b16a009f1261ed28f2ced2520d9bce", "is_disabled": 0, "is_reserved": 0, "bike_id": "12b16a009f1261ed28f2ced2520d9bce", "fusion_lon": 0.0, "type": "electric_scooter"}, {"rental_uris": {"ios": "https://dc.lft.to/lastmile_qr_scan", "android": "https://dc.lft.to/lastmile_qr_scan"}, "lat": 38.948976, "lon": -77.02077833333334, "fusion_lat": 0.0, "name": "0b3229f9ab6f8c4ef336b356a103d930", "is_disabled": 0, "is_reserved": 0, "bike_id": "0b3229f9ab6f8c4ef336b356a103d930", "fusion_lon": 0.0, "type": "electric_scooter"}, {"rental_uris": {"ios": "https://dc.lft.to/lastmile_qr_scan", "android": "https://dc.lft.to/lastmile_qr_scan"}, "lat": 38.8998245, "lon": -77.02454633333333, "fusion_lat": 0.0, "name": "d4db94c1231591720f72753eb52d1ec2", "is_disabled": 0, "is_reserved": 0, "bike_id": "d4db94c1231591720f72753eb52d1ec2", "fusion_lon": 0.0, "type": "electric_scooter"}, {"rental_uris": {"ios": "https://dc.lft.to/lastmile_qr_scan", "android": "https://dc.lft.to/lastmile_qr_scan"}, "lat": 38.91290266666667, "lon": -77.02966633333334, "fusion_lat": 0.0, "name": "20b49875147c9f244f587fa2f8dab929", "is_disabled": 0, "is_reserved": 0, "bike_id": "20b49875147c9f244f587fa2f8dab929", "fusion_lon": 0.0, "type": "electric_scooter"}, {"rental_uris": {"ios": "https://dc.lft.to/lastmile_qr_scan", "android": "https://dc.lft.to/lastmile_qr_scan"}, "lat": 38.91816716666666, "lon": -77.02475733333333, "fusion_lat": 0.0, "name": "1f3dfc076a8d20dacd5da08dd8f48b9b", "is_disabled": 0, "is_reserved": 0, "bike_id": "1f3dfc076a8d20dacd5da08dd8f48b9b", "fusion_lon": 0.0, "type": "electric_scooter"}, {"rental_uris": {"ios": "https://dc.lft.to/lastmile_qr_scan", "android": "https://dc.lft.to/lastmile_qr_scan"}, "lat": 38.89847616666667, "lon": -76.99025933333333, "fusion_lat": 0.0, "name": "d770dd083148d2d357c245ac555446c4", "is_disabled": 0, "is_reserved": 0, "bike_id": "d770dd083148d2d357c245ac555446c4", "fusion_lon": 0.0, "type": "electric_scooter"}, {"rental_uris": {"ios": "https://dc.lft.to/lastmile_qr_scan", "android": "https://dc.lft.to/lastmile_qr_scan"}, "lat": 38.907503, "lon": -77.031941, "fusion_lat": 0.0, "name": "a97069e56df97c389e14e83d19ce0e57", "is_disabled": 0, "is_reserved": 0, "bike_id": "a97069e56df97c389e14e83d19ce0e57", "fusion_lon": 0.0, "type": "electric_scooter"}, {"rental_uris": {"ios": "https://dc.lft.to/lastmile_qr_scan", "android": "https://dc.lft.to/lastmile_qr_scan"}, "lat": 38.936327666666664, "lon": -77.06868566666667, "fusion_lat": 0.0, "name": "e40fcd88871c3f745ae798cc65047f53", "is_disabled": 0, "is_reserved": 0, "bike_id": "e40fcd88871c3f745ae798cc65047f53", "fusion_lon": 0.0, "type": "electric_scooter"}, {"rental_uris": {"ios": "https://dc.lft.to/lastmile_qr_scan", "android": "https://dc.lft.to/lastmile_qr_scan"}, "lat": 38.87880966666667, "lon": -77.09612533333333, "fusion_lat": 0.0, "name": "b402306e76936a1ddf4deea6930219ed", "is_disabled": 0, "is_reserved": 0, "bike_id": "b402306e76936a1ddf4deea6930219ed", "fusion_lon": 0.0, "type": "electric_bike"}, {"rental_uris": {"ios": "https://dc.lft.to/lastmile_qr_scan", "android": "https://dc.lft.to/lastmile_qr_scan"}, "lat": 38.94091233333333, "lon": -77.02495833333333, "fusion_lat": 0.0, "name": "febeab945eb6a975be9e61324b49cfe6", "is_disabled": 0, "is_reserved": 0, "bike_id": "febeab945eb6a975be9e61324b49cfe6", "fusion_lon": 0.0, "type": "electric_scooter"}, {"rental_uris": {"ios": "https://dc.lft.to/lastmile_qr_scan", "android": "https://dc.lft.to/lastmile_qr_scan"}, "lat": 38.92479466666666, "lon": -77.00895883333334, "fusion_lat": 0.0, "name": "0cdc10dfb2c33109523123393b2e4858", "is_disabled": 0, "is_reserved": 0, "bike_id": "0cdc10dfb2c33109523123393b2e4858", "fusion_lon": 0.0, "type": "electric_scooter"}, {"rental_uris": {"ios": "https://dc.lft.to/lastmile_qr_scan", "android": "https://dc.lft.to/lastmile_qr_scan"}, "lat": 38.874727, "lon": -77.010684, "fusion_lat": 0.0, "name": "2eeddf19f2c56a04014fb2782441286b", "is_disabled": 0, "is_reserved": 0, "bike_id": "2eeddf19f2c56a04014fb2782441286b", "fusion_lon": 0.0, "type": "electric_scooter"}, {"rental_uris": {"ios": "https://dc.lft.to/lastmile_qr_scan", "android": "https://dc.lft.to/lastmile_qr_scan"}, "lat": 38.91408666666667, "lon": -77.02248016666667, "fusion_lat": 0.0, "name": "81880b443ab06f1eba38660c8d0daba8", "is_disabled": 0, "is_reserved": 0, "bike_id": "81880b443ab06f1eba38660c8d0daba8", "fusion_lon": 0.0, "type": "electric_scooter"}, {"rental_uris": {"ios": "https://dc.lft.to/lastmile_qr_scan", "android": "https://dc.lft.to/lastmile_qr_scan"}, "lat": 38.901910666666666, "lon": -76.928908, "fusion_lat": 0.0, "name": "3b1340b69d6a47a56783a8996ebe5f00", "is_disabled": 0, "is_reserved": 0, "bike_id": "3b1340b69d6a47a56783a8996ebe5f00", "fusion_lon": 0.0, "type": "electric_scooter"}, {"rental_uris": {"ios": "https://dc.lft.to/lastmile_qr_scan", "android": "https://dc.lft.to/lastmile_qr_scan"}, "lat": 38.917365333333336, "lon": -77.0318755, "fusion_lat": 0.0, "name": "4d4b9557453dcbfd0a76ad42392d7828", "is_disabled": 0, "is_reserved": 0, "bike_id": "4d4b9557453dcbfd0a76ad42392d7828", "fusion_lon": 0.0, "type": "electric_scooter"}, {"rental_uris": {"ios": "https://dc.lft.to/lastmile_qr_scan", "android": "https://dc.lft.to/lastmile_qr_scan"}, "lat": 38.8983755, "lon": -77.02224083333333, "fusion_lat": 0.0, "name": "7bea2f073c3b99af48a78b9641dfeef7", "is_disabled": 0, "is_reserved": 0, "bike_id": "7bea2f073c3b99af48a78b9641dfeef7", "fusion_lon": 0.0, "type": "electric_scooter"}, {"rental_uris": {"ios": "https://dc.lft.to/lastmile_qr_scan", "android": "https://dc.lft.to/lastmile_qr_scan"}, "lat": 38.93120433333333, "lon": -77.03031566666667, "fusion_lat": 0.0, "name": "537521f1f1f1a6e2136a4a7fe5aa1a1e", "is_disabled": 0, "is_reserved": 0, "bike_id": "537521f1f1f1a6e2136a4a7fe5aa1a1e", "fusion_lon": 0.0, "type": "electric_scooter"}, {"rental_uris": {"ios": "https://dc.lft.to/lastmile_qr_scan", "android": "https://dc.lft.to/lastmile_qr_scan"}, "lat": 38.90028566666667, "lon": -77.00075316666667, "fusion_lat": 0.0, "name": "389d14d06ea69430f721f63b4423ca5a", "is_disabled": 0, "is_reserved": 0, "bike_id": "389d14d06ea69430f721f63b4423ca5a", "fusion_lon": 0.0, "type": "electric_scooter"}, {"rental_uris": {"ios": "https://dc.lft.to/lastmile_qr_scan", "android": "https://dc.lft.to/lastmile_qr_scan"}, "lat": 38.919205166666664, "lon": -77.00928716666667, "fusion_lat": 0.0, "name": "b866c3b6b44d55d32976caa2081b37a8", "is_disabled": 0, "is_reserved": 0, "bike_id": "b866c3b6b44d55d32976caa2081b37a8", "fusion_lon": 0.0, "type": "electric_scooter"}, {"rental_uris": {"ios": "https://dc.lft.to/lastmile_qr_scan", "android": "https://dc.lft.to/lastmile_qr_scan"}, "lat": 38.8747395, "lon": -76.999766, "fusion_lat": 0.0, "name": "cb8e616d1deadfd1df9cd6809500446d", "is_disabled": 0, "is_reserved": 0, "bike_id": "cb8e616d1deadfd1df9cd6809500446d", "fusion_lon": 0.0, "type": "electric_scooter"}, {"rental_uris": {"ios": "https://dc.lft.to/lastmile_qr_scan", "android": "https://dc.lft.to/lastmile_qr_scan"}, "lat": 38.90733066666667, "lon": -77.06890316666667, "fusion_lat": 0.0, "name": "3f5613a04f439cf9d1242ae04e9f56d1", "is_disabled": 0, "is_reserved": 0, "bike_id": "3f5613a04f439cf9d1242ae04e9f56d1", "fusion_lon": 0.0, "type": "electric_scooter"}, {"rental_uris": {"ios": "https://dc.lft.to/lastmile_qr_scan", "android": "https://dc.lft.to/lastmile_qr_scan"}, "lat": 38.924397666666664, "lon": -77.03357116666666, "fusion_lat": 0.0, "name": "6773bbdd0ca237e19b8d986d07d8ceb7", "is_disabled": 0, "is_reserved": 0, "bike_id": "6773bbdd0ca237e19b8d986d07d8ceb7", "fusion_lon": 0.0, "type": "electric_scooter"}, {"rental_uris": {"ios": "https://dc.lft.to/lastmile_qr_scan", "android": "https://dc.lft.to/lastmile_qr_scan"}, "lat": 38.8593195, "lon": -77.11826266666667, "fusion_lat": 0.0, "name": "2c564e5aff894e38e888eaaf5a7df2a1", "is_disabled": 0, "is_reserved": 0, "bike_id": "2c564e5aff894e38e888eaaf5a7df2a1", "fusion_lon": 0.0, "type": "electric_bike"}, {"rental_uris": {"ios": "https://dc.lft.to/lastmile_qr_scan", "android": "https://dc.lft.to/lastmile_qr_scan"}, "lat": 38.892886833333336, "lon": -76.97611066666667, "fusion_lat": 0.0, "name": "b82595d1b27c9efd269bac9bcb8d1017", "is_disabled": 0, "is_reserved": 0, "bike_id": "b82595d1b27c9efd269bac9bcb8d1017", "fusion_lon": 0.0, "type": "electric_bike"},