{"data": {"bikes": [{"is_reserved": 0, "type": "electric_scooter", "fusion_lat": 0.0, "is_disabled": 0, "rental_uris": {"ios": "https://dc.lft.to/lastmile_qr_scan", "android": "https://dc.lft.to/lastmile_qr_scan"}, "bike_id": "49d748c2c63ff3a617dd40e552de74f1", "lat": 38.8986445, "name": "49d748c2c63ff3a617dd40e552de74f1", "lon": -77.033729, "fusion_lon": 0.0}, {"is_reserved": 0, "type": "electric_scooter", "fusion_lat": 0.0, "is_disabled": 0, "rental_uris": {"ios": "https://dc.lft.to/lastmile_qr_scan", "android": "https://dc.lft.to/lastmile_qr_scan"}, "bike_id": "a4da3a55c9ee64cc896816c389217591", "lat": 38.91018066666667, "name": "a4da3a55c9ee64cc896816c389217591", "lon": -76.99388916666666, "fusion_lon": 0.0}, {"is_reserved": 0, "type": "electric_scooter", "fusion_lat": 0.0, "is_disabled": 0, "rental_uris": {"ios": "https://dc.lft.to/lastmile_qr_scan", "android": "https://dc.lft.to/lastmile_qr_scan"}, "bike_id": "58a15836087c4a57e9b643509a4b7e3e", "lat": 38.900836, "name": "58a15836087c4a57e9b643509a4b7e3e", "lon": -77.01761233333333, "fusion_lon": 0.0}, {"is_reserved": 0, "type": "electric_scooter", "fusion_lat": 0.0, "is_disabled": 0, "rental_uris": {"ios": "https://dc.lft.to/lastmile_qr_scan", "android": "https://dc.lft.to/lastmile_qr_scan"}, "bike_id": "f3916411a9a05583bcb495e8b0b811d3", "lat": 38.91437533333333, "name": "f3916411a9a05583bcb495e8b0b811d3", "lon": -77.04494333333334, "fusion_lon": 0.0}, {"is_reserved": 0, "type": "electric_scooter", "fusion_lat": 0.0, "is_disabled": 0, "rental_uris": {"ios": "https://dc.lft.to/lastmile_qr_scan", "android": "https://dc.lft.to/lastmile_qr_scan"}, "bike_id": "3014568f491ebd1e1e86fb55cd4ecdc2", "lat": 38.93645566666667, "name": "3014568f491ebd1e1e86fb55cd4ecdc2", "lon": -77.03640566666667, "fusion_lon": 0.0}, {"is_reserved": 0, "type": "electric_scooter", "fusion_lat": 0.0, "is_disabled": 0, "rental_uris": {"ios": "https://dc.lft.to/lastmile_qr_scan", "android": "https://dc.lft.to/lastmile_qr_scan"}, "bike_id": "903f6815bdba6a537fd36264c162b3e8", "lat": 38.92077833333333, "name": "903f6815bdba6a537fd36264c162b3e8", "lon": -77.023893, "fusion_lon": 0.0}, {"is_reserved": 0, "type": "electric_scooter", "fusion_lat": 0.0, "is_disabled": 0, "rental_uris": {"ios": "https://dc.lft.to/lastmile_qr_scan", "android": "https://dc.lft.to/lastmile_qr_scan"}, "bike_id": "d51a90ade2ad87e03d4d8cc6447bff71", "lat": 38.91811033333333, "name": "d51a90ade2ad87e03d4d8cc6447bff71", "lon": -77.03436666666667, "fusion_lon": 0.0}, {"is_reserved": 0, "type": "electric_scooter", "fusion_lat": 0.0, "is_disabled": 0, "rental_uris": {"ios": "https://dc.lft.to/lastmile_qr_scan", "android": "https://dc.lft.to/lastmile_qr_scan"}, "bike_id": "252f5ffaca1f237a03aa7a441a2284b8", "lat": 38.9222245, "name": "252f5ffaca1f237a03aa7a441a2284b8", "lon": -77.042422, "fusion_lon": 0.0}, {"is_reserved": 0, "type": "electric_scooter", "fusion_lat": 0.0, "is_disabled": 0, "rental_uris": {"ios": "https://dc.lft.to/lastmile_qr_scan", "android": "https://dc.lft.to/lastmile_qr_scan"}, "bike_id": "06fa90013981444791121924948163ae", "lat": 38.919267166666664, "name": "06fa90013981444791121924948163ae", "lon": -77.00973916666666, "fusion_lon": 0.0}, {"is_reserved": 0, "type": "electric_scooter", "fusion_lat": 0.0, "is_disabled": 0, "rental_uris": {"ios": "https://dc.lft.to/lastmile_qr_scan", "android": "https://dc.lft.to/lastmile_qr_scan"}, "bike_id": "b5657b2b087cb24d7468f45350661c4c", "lat": 38.897617833333335, "name": "b5657b2b087cb24d7468f45350661c4c", "lon": -77.01057366666667, "fusion_lon": 0.0}, {"is_reserved": 0, "type": "electric_scooter", "fusion_lat": 0.0, "is_disabled": 0, "rental_uris": {"ios": "https://dc.lft.to/lastmile_qr_scan", "android": "https://dc.lft.to/lastmile_qr_scan"}, "bike_id": "5b617f2cbbca15bab33615df0103b169", "lat": 38.904597, "name": "5b617f2cbbca15bab33615df0103b169", "lon": -77.018798, "fusion_lon": 0.0}, {"is_reserved": 0, "type": "electric_scooter", "fusion_lat": 0.0, "is_disabled": 0, "rental_uris": {"ios": "https://dc.lft.to/lastmile_qr_scan", "android": "https://dc.lft.to/lastmile_qr_scan"}, "bike_id": "3c875e3fa39b8158889139c9ac13d7ca", "lat": 38.9431775, "name": "3c875e3fa39b8158889139c9ac13d7ca", "lon": -77.01724883333333, "fusion_lon": 0.0}, {"is_reserved": 0, "type": "electric_scooter", "fusion_lat": 0.0, "is_disabled": 0, "rental_uris": {"ios": "https://dc.lft.to/lastmile_qr_scan", "android": "https://dc.lft.to/lastmile_qr_scan"}, "bike_id": "4f6f783f590bf48dae306013732cc8be", "lat": 38.92828683333333, "name": "4f6f783f590bf48dae306013732cc8be", "lon": -77.02255816666667, "fusion_lon": 0.0}, {"is_reserved": 0, "type": "electric_scooter", "fusion_lat": 0.0, "is_disabled": 0, "rental_uris": {"ios": "https://dc.lft.to/lastmile_qr_scan", "android": "https://dc.lft.to/lastmile_qr_scan"}, "bike_id": "4d7300a0514c189bfba3d887098c49f4", "lat": 38.880496, "name": "4d7300a0514c189bfba3d887098c49f4", "lon": -77.01754283333334, "fusion_lon": 0.0}, {"is_reserved": 0, "type": "electric_scooter", "fusion_lat": 0.0, "is_disabled": 0, "rental_uris": {"ios": "https://dc.lft.to/lastmile_qr_scan", "android": "https://dc.lft.to/lastmile_qr_scan"}, "bike_id": "790e94b06bf1d1e609def277e97da6b9", "lat": 38.88621883333333, "name": "790e94b06bf1d1e609def277e97da6b9", "lon": -76.9263265, "fusion_lon": 0.0}, {"is_reserved": 0, "type": "electric_scooter", "fusion_lat": 0.0, "is_disabled": 0, "rental_uris": {"ios": "https://dc.lft.to/lastmile_qr_scan", "android": "https://dc.lft.to/lastmile_qr_scan"}, "bike_id": "8611b3b3a419e44f48d328f78f90e84f", "lat": 38.9298635, "name": "8611b3b3a419e44f48d328f78f90e84f", "lon": -77.0550735, "fusion_lon": 0.0}, {"is_reserved": 0, "type": "electric_scooter", "fusion_lat": 0.0, "is_disabled": 0, "rental_uris": {"ios": "https://dc.lft.to/lastmile_qr_scan", "android": "https://dc.lft.to/lastmile_qr_scan"}, "bike_id": "47f6c171bdf2f95baf3c5c65c4d3f5af", "lat": 38.91817733333333, "name": "47f6c171bdf2f95baf3c5c65c4d3f5af", "lon": -77.024778, "fusion_lon": 0.0}, {"is_reserved": 0, "type": "electric_scooter", "fusion_lat": 0.0, "is_disabled": 0, "rental_uris": {"ios": "https://dc.lft.to/lastmile_qr_scan", "android": "https://dc.lft.to/lastmile_qr_scan"}, "bike_id": "3df6f0f593e53ca4ebab3b9bf07edb55", "lat": 38.919457666666666, "name": "3df6f0f593e53ca4ebab3b9bf07edb55", "lon": -76.99962483333333, "fusion_lon": 0.0}, {"is_reserved": 0, "type": "electric_bike", "fusion_lat": 0.0, "is_disabled": 0, "rental_uris": {"ios": "https://dc.lft.to/lastmile_qr_scan", "android": "https://dc.lft.to/lastmile_qr_scan"}, "bike_id": "0abd51035af0918bb68fa44e48231f08", "lat": 39.026489166666664, "name": "0abd51035af0918bb68fa44e48231f08", "lon": -77.03683566666666, "fusion_lon": 0.0}, {"is_reserved": 0, "type": "electric_scooter", "fusion_lat": 0.0, "is_disabled": 0, "rental_uris": {"ios": "https://dc.lft.to/lastmile_qr_scan", "android": "https://dc.lft.to/lastmile_qr_scan"}, "bike_id": "3f805d2a0c4db39e801208dd4e4daea7", "lat": 38.95590983333334, "name": "3f805d2a0c4db39e801208dd4e4daea7", "lon": -77.01785516666666, "fusion_lon": 0.0}, {"is_reserved": 0, "type": "electric_scooter", "fusion_lat": 0.0, "is_disabled": 0, "rental_uris": {"ios": "https://dc.lft.to/lastmile_qr_scan", "android": "https://dc.lft.to/lastmile_qr_scan"}, "bike_id": "61dd619532f5df549c028110ebc60075", "lat": 38.87376666666667, "name": "61dd619532f5df549c028110ebc60075", "lon": -77.00128883333333, "fusion_lon": 0.0}, {"is_reserved": 0, "type": "electric_scooter", "fusion_lat": 0.0, "is_disabled": 0, "rental_uris": {"ios": "https://dc.lft.to/lastmile_qr_scan", "android": "https://dc.lft.to/lastmile_qr_scan"}, "bike_id": "f18c34ebc8dd38f16cae892179dfea93", "lat": 38.90516083333333, "name": "f18c34ebc8dd38f16cae892179dfea93", "lon": -76.95198616666667, "fusion_lon": 0.0}, {"is_reserved": 0, "type": "electric_scooter", "fusion_lat": 0.0, "is_disabled": 0, "rental_uris": {"ios": "https://dc.lft.to/lastmile_qr_scan", "android": "https://dc.lft.to/lastmile_qr_scan"}, "bike_id": "6cbdaeef4c6577e873ccccc80e74d503", "lat": 38.927505, "name": "6cbdaeef4c6577e873ccccc80e74d503", "lon": -77.02309633333333, "fusion_lon": 0.0}, {"is_reserved": 0, "type": "electric_scooter", "fusion_lat": 0.0, "is_disabled": 0, "rental_uris": {"ios": "https://dc.lft.to/lastmile_qr_scan", "android": "https://dc.lft.to/lastmile_qr_scan"}, "bike_id": "f19c09af4a1901cd120d0ab35f831827", "lat": 38.9171495, "name": "f19c09af4a1901cd120d0ab35f831827", "lon": -77.0337145, "fusion_lon": 0.0}, {"is_reserved": 0, "type": "electric_scooter", "fusion_lat": 0.0, "is_disabled": 0, "rental_uris": {"ios": "https://dc.lft.to/lastmile_qr_scan", "android": "https://dc.lft.to/lastmile_qr_scan"}, "bike_id": "5ba2d9d8225ffd80fb58541e61618765", "lat": 38.917161666666665, "name": "5ba2d9d8225ffd80fb58541e61618765", "lon": -77.02945516666666, "fusion_lon": 0.0}, {"is_reserved": 0, "type": "electric_scooter", "fusion_lat": 0.0, "is_disabled": 0, "rental_uris": {"ios": "https://dc.lft.to/lastmile_qr_scan", "android": "https://dc.lft.to/lastmile_qr_scan"}, "bike_id": "f019f127000537c80948352d3c8e92e9", "lat": 38.9086445, "name": "f019f127000537c80948352d3c8e92e9", "lon": -77.0236465, "fusion_lon": 0.0}, {"is_reserved": 0, "type": "electric_scooter", "fusion_lat": 0.0, "is_disabled": 0, "rental_uris": {"ios": "https://dc.lft.to/lastmile_qr_scan", "android": "https://dc.lft.to/lastmile_qr_scan"}, "bike_id": "f22a3eb18d36966f2adb6cc1b13ae3ef", "lat": 38.92197766666666, "name": "f22a3eb18d36966f2adb6cc1b13ae3ef", "lon": -77.0204145, "fusion_lon": 0.0}, {"is_reserved": 0, "type": "electric_scooter", "fusion_lat": 0.0, "is_disabled": 0, "rental_uris": {"ios": "https://dc.lft.to/lastmile_qr_scan", "android": "https://dc.lft.to/lastmile_qr_scan"}, "bike_id": "26cf58414f6b4dfd0bb67197e3552f19", "lat": 38.89751016666666, "name": "26cf58414f6b4dfd0bb67197e3552f19", "lon": -76.996132, "fusion_lon": 0.0}, {"is_reserved": 0, "type": "electric_scooter", "fusion_lat": 0.0, "is_disabled": 0, "rental_uris": {"ios": "https://dc.lft.to/lastmile_qr_scan", "android": "https://dc.lft.to/lastmile_qr_scan"}, "bike_id": "006f4fe1750a02b948cfc7af25c3e641", "lat": 38.884447, "name": "006f4fe1750a02b948cfc7af25c3e641", "lon": -77.02335383333333, "fusion_lon": 0.0}, {"is_reserved": 0, "type": "electric_scooter", "fusion_lat": 0.0, "is_disabled": 0, "rental_uris": {"ios": "https://dc.lft.to/lastmile_qr_scan", "android": "https://dc.lft.to/lastmile_qr_scan"}, "bike_id": "3ba7ad92b8a4a38dda9b1a821b33a35a", "lat": 38.927639, "name": "3ba7ad92b8a4a38dda9b1a821b33a35a", "lon": -77.05270816666666, "fusion_lon": 0.0}, {"is_reserved": 0, "type": "electric_scooter", "fusion_lat": 0.0, "is_disabled": 0, "rental_uris": {"ios": "https://dc.lft.to/lastmile_qr_scan", "android": "https://dc.lft.to/lastmile_qr_scan"}, "bike_id": "0fe814e5f67cecd52b64046a930bbffa", "lat": 38.9055905, "name": "0fe814e5f67cecd52b64046a930bbffa", "lon": -77.0259445, "fusion_lon": 0.0}, {"is_reserved": 0, "type": "electric_scooter", "fusion_lat": 0.0, "is_disabled": 0, "rental_uris": {"ios": "https://dc.lft.to/lastmile_qr_scan", "android": "https://dc.lft.to/lastmile_qr_scan"}, "bike_id": "a3814410666cdd8e1add1137f72a13c7", "lat": 38.89468, "name": "a3814410666cdd8e1add1137f72a13c7", "lon": -77.02168483333334, "fusion_lon": 0.0}, {"is_reserved": 0, "type": "electric_scooter", "fusion_lat": 0.0, "is_disabled": 0, "rental_uris": {"ios": "https://dc.lft.to/lastmile_qr_scan", "android": "https://dc.lft.to/lastmile_qr_scan"}, "bike_id": "a46684e994977985d7b15d775f3ef133", "lat": 38.8985675, "name": "a46684e994977985d7b15d775f3ef133", "lon": -77.00734683333333, "fusion_lon": 0.0}, {"is_reserved": 0, "type": "electric_scooter", "fusion_lat": 0.0, "is_disabled": 0, "rental_uris": {"ios": "https://dc.lft.to/lastmile_qr_scan", "android": "https://dc.lft.to/lastmile_qr_scan"}, "bike_id": "46671ae8c8133a06099d099884bb0f3e", "lat": 38.901883833333336, "name": "46671ae8c8133a06099d099884bb0f3e", "lon": -76.988444, "fusion_lon": 0.0}, {"is_reserved": 0, "type": "electric_scooter", "fusion_lat": 0.0, "is_disabled": 0, "rental_uris": {"ios": "https://dc.lft.to/lastmile_qr_scan", "android": "https://dc.lft.to/lastmile_qr_scan"}, "bike_id": "be6d2d6955072158247ef3df4310dafa", "lat": 38.9313345, "name": "be6d2d6955072158247ef3df4310dafa", "lon": -77.02198783333333, "fusion_lon": 0.0}, {"is_reserved": 0, "type": "electric_scooter", "fusion_lat": 0.0, "is_disabled": 0, "rental_uris": {"ios": "https://dc.lft.to/lastmile_qr_scan", "android": "https://dc.lft.to/lastmile_qr_scan"}, "bike_id": "6f50d36a0e6e86b4e2f3a12b1b59c3aa", "lat": 38.922468, "name": "6f50d36a0e6e86b4e2f3a12b1b59c3aa", "lon": -77.03661783333334, "fusion_lon": 0.0}, {"is_reserved": 0, "type": "electric_bike", "fusion_lat": 0.0, "is_disabled": 0, "rental_uris": {"ios": "https://dc.lft.to/lastmile_qr_scan", "android": "https://dc.lft.to/lastmile_qr_scan"}, "bike_id": "613aae004cf3b951b59674c81dec0395", "lat": 39.010697, "name": "613aae004cf3b951b59674c81dec0395", "lon": -76.92238766666667, "fusion_lon": 0.0}, {"is_reserved": 0, "type": "electric_scooter", "fusion_lat": 0.0, "is_disabled": 0, "rental_uris": {"ios": "https://dc.lft.to/lastmile_qr_scan", "android": "https://dc.lft.to/lastmile_qr_scan"}, "bike_id": "3cd621a35910e348592ad19b44b0189c", "lat": 38.878421333333335, "name": "3cd621a35910e348592ad19b44b0189c", "lon": -76.9313155, "fusion_lon": 0.0}, {"is_reserved": 0, "type": "electric_scooter", "fusion_lat": 0.0, "is_disabled": 0, "rental_uris": {"ios": "https://dc.lft.to/lastmile_qr_scan", "android": "https://dc.lft.to/lastmile_qr_scan"}, "bike_id": "55772b9093693478dd3b1ec9a7191eda", "lat": 38.873743166666664, "name": "55772b9093693478dd3b1ec9a7191eda", "lon": -77.00192083333333, "fusion_lon": 0.0}, {"is_reserved": 0, "type": "electric_scooter", "fusion_lat": 0.0, "is_disabled": 0, "rental_uris": {"ios": "https://dc.lft.to/lastmile_qr_scan", "android": "https://dc.lft.to/lastmile_qr_scan"}, "bike_id": "ceaca754e15ca63ded4a93239423b9c7", "lat": 38.91871, "name": "ceaca754e15ca63ded4a93239423b9c7", "lon": -77.01528283333333, "fusion_lon": 0.0}, {"is_reserved": 0, "type": "electric_scooter", "fusion_lat": 0.0, "is_disabled": 0, "rental_uris": {"ios": "https://dc.lft.to/lastmile_qr_scan", "android": "https://dc.lft.to/lastmile_qr_scan"}, "bike_id": "61e27ad1e2bbc039e6f94ee8a7f26115", "lat": 38.8921095, "name": "61e27ad1e2bbc039e6f94ee8a7f26115", "lon": -76.92922816666666, "fusion_lon": 0.0}, {"is_reserved": 0, "type": "electric_scooter", "fusion_lat": 0.0, "is_disabled": 0, "rental_uris": {"ios": "https://dc.lft.to/lastmile_qr_scan", "android": "https://dc.lft.to/lastmile_qr_scan"}, "bike_id": "de7795f1ba676e02ea37989e61c13b85", "lat": 38.910416166666664, "name": "de7795f1ba676e02ea37989e61c13b85", "lon": -76.99071466666666, "fusion_lon": 0.0}, {"is_reserved": 0, "type": "electric_scooter", "fusion_lat": 0.0, "is_disabled": 0, "rental_uris": {"ios": "https://dc.lft.to/lastmile_qr_scan", "android": "https://dc.lft.to/lastmile_qr_scan"}, "bike_id": "2acffef9d7dfd0a92984356c2d973847", "lat": 38.893659166666666, "name": "2acffef9d7dfd0a92984356c2d973847", "lon": -77.01970616666667, "fusion_lon": 0.0}, {"is_reserved": 0, "type": "electric_scooter", "fusion_lat": 0.0, "is_disabled": 0, "rental_uris": {"ios": "https://dc.lft.to/lastmile_qr_scan", "android": "https://dc.lft.to/lastmile_qr_scan"}, "bike_id": "8eebceaa0443d097d14ba10df4f4d003", "lat": 38.889915, "name": "8eebceaa0443d097d14ba10df4f4d003", "lon": -76.9881245, "fusion_lon": 0.0}, {"is_reserved": 0, "type": "electric_scooter", "fusion_lat": 0.0, "is_disabled": 0, "rental_uris": {"ios": "https://dc.lft.to/lastmile_qr_scan", "android": "https://dc.lft.to/lastmile_qr_scan"}, "bike_id": "92b9a88c7af4e383854fcb054a8e3d1a", "lat": 38.921322333333336, "name": "92b9a88c7af4e383854fcb054a8e3d1a", "lon": -77.044236, "fusion_lon": 0.0}, {"is_reserved": 0, "type": "electric_bike", "fusion_lat": 0.0, "is_disabled": 0, "rental_uris": {"ios": "https://dc.lft.to/lastmile_qr_scan", "android": "https://dc.lft.to/lastmile_qr_scan"}, "bike_id": "727be4b615607e3c68c02f120988c294", "lat": 38.94842333333333, "name": "727be4b615607e3c68c02f120988c294", "lon": -77.05432916666666, "fusion_lon": 0.0}, {"is_reserved": 0, "type": "electric_scooter", "fusion_lat": 0.0, "is_disabled": 0, "rental_uris": {"ios": "https://dc.lft.to/lastmile_qr_scan", "android": "https://dc.lft.to/lastmile_qr_scan"}, "bike_id": "16598b038bc3f9b90ee6d9e16a6f7ec4", "lat": 38.92153616666667, "name": "16598b038bc3f9b90ee6d9e16a6f7ec4", "lon": -77.03473933333333, "fusion_lon": 0.0}, {"is_reserved": 0, "type": "electric_bike", "fusion_lat": 0.0, "is_disabled": 0, "rental_uris": {"ios": "https://dc.lft.to/lastmile_qr_scan", "android": "https://dc.lft.to/lastmile_qr_scan"}, "bike_id": "7bcb2fcecc11ea78e283ad6d88c89e8f", "lat": 38.93602716666667, "name": "7bcb2fcecc11ea78e283ad6d88c89e8f", "lon": -77.0211725, "fusion_lon": 0.0}, {"is_reserved": 0, "type": "electric_bike", "fusion_lat": 0.0, "is_disabled": 0, "rental_uris": {"ios": "https://dc.lft.to/lastmile_qr_scan", "android": "https://dc.lft.to/lastmile_qr_scan"}, "bike_id": "cbcd0cee83ec6e1d53c4244320fd6ab3", "lat": 38.886026333333334, "name": "cbcd0cee83ec6e1d53c4244320fd6ab3", "lon": -77.00086366666666, "fusion_lon": 0.0}, {"is_reserved": 0, "type": "electric_scooter", "fusion_lat": 0.0, "is_disabled": 0, "rental_uris": {"ios": "https://dc.lft.to/lastmile_qr_scan", "android": "https://dc.lft.to/lastmile_qr_scan"}, "bike_id": "fa1eba40df10347ead4748473a08e6f1", "lat": 38.90433216666667, "name": "fa1eba40df10347ead4748473a08e6f1", "lon": -77.05152433333333, "fusion_lon": 0.0}, {"is_reserved": 0, "type": "electric_bike", "fusion_lat": 0.0, "is_disabled": 0, "rental_uris": {"ios": "https://dc.lft.to/lastmile_qr_scan", "android": "https://dc.lft.to/lastmile_qr_scan"}, "bike_id": "b01848468cfb2e2a77517a8f20239e80", "lat": 38.926417, "name": "b01848468cfb2e2a77517a8f20239e80", "lon": -77.02837533333333, "fusion_lon": 0.0}, {"is_reserved": 0, "type": "electric_scooter", "fusion_lat": 0.0, "is_disabled": 0, "rental_uris": {"ios": "https://dc.lft.to/lastmile_qr_scan", "android": "https://dc.lft.to/lastmile_qr_scan"}, "bike_id": "14f01cb9ee04b47bfd9cf3150e773cc2", "lat": 38.92135433333333, "name": "14f01cb9ee04b47bfd9cf3150e773cc2", "lon": -77.0040245, "fusion_lon": 0.0}, {"is_reserved": 0, "type": "electric_bike", "fusion_lat": 0.0, "is_disabled": 0, "rental_uris": {"ios": "https://dc.lft.to/lastmile_qr_scan", "android": "https://dc.lft.to/lastmile_qr_scan"}, "bike_id": "969737e91c519ca66a94164b16ade774", "lat": 38.836064666666665, "name": "969737e91c519ca66a94164b16ade774", "lon": -77.00377466666667, "fusion_lon": 0.0}, {"is_reserved": 0, "type": "electric_scooter", "fusion_lat": 0.0, "is_disabled": 0, "rental_uris": {"ios": "https://dc.lft.to/lastmile_qr_scan", "android": "https://dc.lft.to/lastmile_qr_scan"}, "bike_id": "f7eb3f67c35b3f3506972ed6debf3dd4", "lat": 38.882399166666666, "name": "f7eb3f67c35b3f3506972ed6debf3dd4", "lon": -76.9908975, "fusion_lon": 0.0}, {"is_reserved": 0, "type": "electric_scooter", "fusion_lat": 0.0, "is_disabled": 0, "rental_uris": {"ios": "https://dc.lft.to/lastmile_qr_scan", "android": "https://dc.lft.to/lastmile_qr_scan"}, "bike_id": "4edc92edfb963c700b5bd5cf979062a6", "lat": 38.924166166666666, "name": "4edc92edfb963c700b5bd5cf979062a6", "lon": -77.02007283333333, "fusion_lon": 0.0}, {"is_reserved": 0, "type": "electric_scooter", "fusion_lat": 0.0, "is_disabled": 0, "rental_uris": {"ios": "https://dc.lft.to/lastmile_qr_scan", "android": "https://dc.lft.to/lastmile_qr_scan"}, "bike_id": "3754690ff840df5c82706cf1e9c7a4bc", "lat": 38.83382833333334, "name": "3754690ff840df5c82706cf1e9c7a4bc", "lon": -77.00299283333334, "fusion_lon": 0.0}, {"is_reserved": 0, "type": "electric_bike", "fusion_lat": 0.0, "is_disabled": 0, "rental_uris": {"ios": "https://dc.lft.to/lastmile_qr_scan", "android": "https://dc.lft.to/lastmile_qr_scan"}, "bike_id": "f05eaa4df1ab04cd2be6ff679eeacb86", "lat": 38.857871, "name": "f05eaa4df1ab04cd2be6ff679eeacb86", "lon": -76.98755583333333, "fusion_lon": 0.0}, {"is_reserved": 0, "type": "electric_scooter", "fusion_lat": 0.0, "is_disabled": 0, "rental_uris": {"ios": "https://dc.lft.to/lastmile_qr_scan", "android": "https://dc.lft.to/lastmile_qr_scan"}, "bike_id": "2ed3d23a4306de127214fb8efdfab2d5", "lat": 38.931338333333336, "name": "2ed3d23a4306de127214fb8efdfab2d5", "lon": -77.0217835, "fusion_lon": 0.0}, {"is_reserved": 0, "type": "electric_scooter", "fusion_lat": 0.0, "is_disabled": 0, "rental_uris": {"ios": "https://dc.lft.to/lastmile_qr_scan", "android": "https://dc.lft.to/lastmile_qr_scan"}, "bike_id": "043ff4cb460c08cc59562de1d188e4b4", "lat": 38.933172, "name": "043ff4cb460c08cc59562de1d188e4b4", "lon": -77.032489, "fusion_lon": 0.0}, {"is_reserved": 0, "type": "electric_scooter", "fusion_lat": 0.0, "is_disabled": 0, "rental_uris": {"ios": "https://dc.lft.to/lastmile_qr_scan", "android": "https://dc.lft.to/lastmile_qr_scan"}, "bike_id": "cd4688ad099afa475456a981863800d7", "lat": 38.9210775, "name": "cd4688ad099afa475456a981863800d7", "lon": -77.047066, "fusion_lon": 0.0}, {"is_reserved": 0, "type": "electric_scooter", "fusion_lat": 0.0, "is_disabled": 0, "rental_uris": {"ios": "https://dc.lft.to/lastmile_qr_scan", "android": "https://dc.lft.to/lastmile_qr_scan"}, "bike_id": "3a9d873d23cb327db9bbd015057059ac", "lat": 38.8786525, "name": "3a9d873d23cb327db9bbd015057059ac", "lon": -77.00702066666666, "fusion_lon": 0.0}, {"is_reserved": 0, "type": "electric_scooter", "fusion_lat": 0.0, "is_disabled": 0, "rental_uris": {"ios": "https://dc.lft.to/lastmile_qr_scan", "android": "https://dc.lft.to/lastmile_qr_scan"}, "bike_id": "664072e883e19f8f8776b4e679b69c8a", "lat": 38.895132833333335, "name": "664072e883e19f8f8776b4e679b69c8a", "lon": -77.02301616666666, "fusion_lon": 0.0}, {"is_reserved": 0, "type": "electric_scooter", "fusion_lat": 0.0, "is_disabled": 0, "rental_uris": {"ios": "https://dc.lft.to/lastmile_qr_scan", "android": "https://dc.lft.to/lastmile_qr_scan"}, "bike_id": "4e774af835577d921fb5a2422a004833", "lat": 38.90506516666667, "name": "4e774af835577d921fb5a2422a004833", "lon": -77.04788366666666, "fusion_lon": 0.0}, {"is_reserved": 0, "type": "electric_scooter", "fusion_lat": 0.0, "is_disabled": 0, "rental_uris": {"ios": "https://dc.lft.to/lastmile_qr_scan", "android": "https://dc.lft.to/lastmile_qr_scan"}, "bike_id": "4f8ef3d6816b458a6f34c37115cda81e", "lat": 38.90272616666667, "name": "4f8ef3d6816b458a6f34c37115cda81e", "lon": -77.05919816666666, "fusion_lon": 0.0}, {"is_reserved": 0, "type": "electric_bike", "fusion_lat": 0.0, "is_disabled": 0, "rental_uris": {"ios": "https://dc.lft.to/lastmile_qr_scan", "android": "https://dc.lft.to/lastmile_qr_scan"}, "bike_id": "af66e482dfec316ac2e1536ed3986847", "lat": 38.864943333333336, "name": "af66e482dfec316ac2e1536ed3986847", "lon": -76.96983933333334, "fusion_lon": 0.0}, {"is_reserved": 0, "type": "electric_scooter", "fusion_lat": 0.0, "is_disabled": 0, "rental_uris": {"ios": "https://dc.lft.to/lastmile_qr_scan", "android": "https://dc.lft.to/lastmile_qr_scan"}, "bike_id": "edfe4570d4c344afa2ad3ed86dcaf1a0", "lat": 38.899144166666666, "name": "edfe4570d4c344afa2ad3ed86dcaf1a0", "lon": -77.0320655, "fusion_lon": 0.0}, {"is_reserved": 0, "type": "electric_bike", "fusion_lat": 0.0, "is_disabled": 0, "rental_uris": {"ios": "https://dc.lft.to/lastmile_qr_scan", "android": "https://dc.lft.to/lastmile_qr_scan"}, "bike_id": "39efeaab8d4dab4d64e7d85c0b15a381", "lat": 38.9053365, "name": "39efeaab8d4dab4d64e7d85c0b15a381", "lon": -77.022153, "fusion_lon": 0.0}, {"is_reserved": 0, "type": "electric_scooter", "fusion_lat": 0.0, "is_disabled": 0, "rental_uris": {"ios": "https://dc.lft.to/lastmile_qr_scan", "android": "https://dc.lft.to/lastmile_qr_scan"}, "bike_id": "ef5eccf9a96552d94f4966f8af3fc911", "lat": 38.873778333333334, "name": "ef5eccf9a96552d94f4966f8af3fc911", "lon": -77.00130933333334, "fusion_lon": 0.0}, {"is_reserved": 0, "type": "electric_scooter", "fusion_lat": 0.0, "is_disabled": 0, "rental_uris": {"ios": "https://dc.lft.to/lastmile_qr_scan", "android": "https://dc.lft.to/lastmile_qr_scan"}, "bike_id": "b6e1e48ef193ded9eb07e1b2209f4182", "lat": 38.928683, "name": "b6e1e48ef193ded9eb07e1b2209f4182", "lon": -77.01412533333334, "fusion_lon": 0.0}, {"is_reserved": 0, "type": "electric_scooter", "fusion_lat": 0.0, "is_disabled": 0, "rental_uris": {"ios": "https://dc.lft.to/lastmile_qr_scan", "android": "https://dc.lft.to/lastmile_qr_scan"}, "bike_id": "0dcf0bbd1c164e98a1d3a393fe9b3156", "lat": 38.93256383333333, "name": "0dcf0bbd1c164e98a1d3a393fe9b3156", "lon": -77.032793, "fusion_lon": 0.0}, {"is_reserved": 0, "type": "electric_scooter", "fusion_lat": 0.0, "is_disabled": 0, "rental_uris": {"ios": "https://dc.lft.to/lastmile_qr_scan", "android": "https://dc.lft.to/lastmile_qr_scan"}, "bike_id": "fcc6e10dd6950ed3fd709084471787ab", "lat": 38.93081933333333, "name": "fcc6e10dd6950ed3fd709084471787ab", "lon": -77.02681433333333, "fusion_lon": 0.0}, {"is_reserved": 0, "type": "electric_scooter", "fusion_lat": 0.0, "is_disabled": 0, "rental_uris": {"ios": "https://dc.lft.to/lastmile_qr_scan", "android": "https://dc.lft.to/lastmile_qr_scan"}, "bike_id": "2fd106ba45e57c9ea0168ee835892123", "lat": 38.905781, "name": "2fd106ba45e57c9ea0168ee835892123", "lon": -77.00644266666667, "fusion_lon": 0.0}, {"is_reserved": 0, "type": "electric_bike", "fusion_lat": 0.0, "is_disabled": 0, "rental_uris": {"ios": "https://dc.lft.to/lastmile_qr_scan", "android": "https://dc.lft.to/lastmile_qr_scan"}, "bike_id": "2879d56c8d692bef494e470c620bec38", "lat": 38.805233666666666, "name": "2879d56c8d692bef494e470c620bec38", "lon": -77.04339016666667, "fusion_lon": 0.0}, {"is_reserved": 0, "type": "electric_scooter", "fusion_lat": 0.0, "is_disabled": 0, "rental_uris": {"ios": "https://dc.lft.to/lastmile_qr_scan", "android": "https://dc.lft.to/lastmile_qr_scan"}, "bike_id": "7c48e8ff3cdee232255855b6fe061da0", "lat": 38.88318833333334, "name": "7c48e8ff3cdee232255855b6fe061da0", "lon": -76.93150416666667, "fusion_lon": 0.0}, {"is_reserved": 0, "type": "electric_scooter", "fusion_lat": 0.0, "is_disabled": 0, "rental_uris": {"ios": "https://dc.lft.to/lastmile_qr_scan", "android": "https://dc.lft.to/lastmile_qr_scan"}, "bike_id": "ad3deb058308726ae06f92f1d645fb9d", "lat": 38.89846566666667, "name": "ad3deb058308726ae06f92f1d645fb9d", "lon": -77.0285965, "fusion_lon": 0.0}, {"is_reserved": 0, "type": "electric_bike", "fusion_lat": 0.0, "is_disabled": 0, "rental_uris": {"ios": "https://dc.lft.to/lastmile_qr_scan", "android": "https://dc.lft.to/lastmile_qr_scan"}, "bike_id": "2fd85ee75f4a863950d12daf45cfa4b0", "lat": 38.8306305, "name": "2fd85ee75f4a863950d12daf45cfa4b0", "lon": -77.00828366666667, "fusion_lon": 0.0}, {"is_reserved": 0, "type": "electric_scooter", "fusion_lat": 0.0, "is_disabled": 0, "rental_uris": {"ios": "https://dc.lft.to/lastmile_qr_scan", "android": "https://dc.lft.to/lastmile_qr_scan"}, "bike_id": "71abd78704256cd331951047c038e192", "lat": 38.9354385, "name": "71abd78704256cd331951047c038e192", "lon": -77.02348, "fusion_lon": 0.0}, {"is_reserved": 0, "type": "electric_scooter", "fusion_lat": 0.0, "is_disabled": 0, "rental_uris": {"ios": "https://dc.lft.to/lastmile_qr_scan", "android": "https://dc.lft.to/lastmile_qr_scan"}, "bike_id": "5793cff8bfb2e4c8019fa2677c7dc1cb", "lat": 38.932710666666665, "name": "5793cff8bfb2e4c8019fa2677c7dc1cb", "lon": -77.03082683333334, "fusion_lon": 0.0}, {"is_reserved": 0, "type": "electric_scooter", "fusion_lat": 0.0, "is_disabled": 0, "rental_uris": {"ios": "https://dc.lft.to/lastmile_qr_scan", "android": "https://dc.lft.to/lastmile_qr_scan"}, "bike_id": "e04d78daedc9597e5a7dc1c748c33fc7", "lat": 38.903554666666665, "name": "e04d78daedc9597e5a7dc1c748c33fc7", "lon": -77.01104533333333, "fusion_lon": 0.0}, {"is_reserved": 0, "type": "electric_bike", "fusion_lat": 0.0, "is_disabled": 0, "rental_uris": {"ios": "https://dc.lft.to/lastmile_qr_scan", "android": "https://dc.lft.to/lastmile_qr_scan"}, "bike_id": "8d487b5381015fc9c13f64bef5476a43", "lat": 38.8463005, "name": "8d487b5381015fc9c13f64bef5476a43", "lon": -77.06937083333334, "fusion_lon": 0.0}, {"is_reserved": 0, "type": "electric_scooter", "fusion_lat": 0.0, "is_disabled": 0, "rental_uris": {"ios": "https://dc.lft.to/lastmile_qr_scan", "android": "https://dc.lft.to/lastmile_qr_scan"}, "bike_id": "45b7a3975a74b0b3ccac7062e0565b98", "lat": 38.92084766666667, "name": "45b7a3975a74b0b3ccac7062e0565b98", "lon": -77.03649533333333, "fusion_lon": 0.0}, {"is_reserved": 0, "type": "electric_scooter", "fusion_lat": 0.0, "is_disabled": 0, "rental_uris": {"ios": "https://dc.lft.to/lastmile_qr_scan", "android": "https://dc.lft.to/lastmile_qr_scan"}, "bike_id": "f21ce240cd3663b23d21aadedbccdfea", "lat": 38.905263166666664, "name": "f21ce240cd3663b23d21aadedbccdfea", "lon": -77.06774183333333, "fusion_lon": 0.0}, {"is_reserved": 0, "type": "electric_scooter", "fusion_lat": 0.0, "is_disabled": 0, "rental_uris": {"ios": "https://dc.lft.to/lastmile_qr_scan", "android": "https://dc.lft.to/lastmile_qr_scan"}, "bike_id": "adbf2c612bc82fa8669ed9b1209a0f1c", "lat": 38.891973, "name": "adbf2c612bc82fa8669ed9b1209a0f1c", "lon": -77.02218783333333, "fusion_lon": 0.0}, {"is_reserved": 0, "type": "electric_scooter", "fusion_lat": 0.0, "is_disabled": 0, "rental_uris": {"ios": "https://dc.lft.to/lastmile_qr_scan", "android": "https://dc.lft.to/lastmile_qr_scan"}, "bike_id": "59799d737bd97c1acf57ec5e7c8241b7", "lat": 38.899716833333336, "name": "59799d737bd97c1acf57ec5e7c8241b7", "lon": -76.93762383333333, "fusion_lon": 0.0}, {"is_reserved": 0, "type": "electric_scooter", "fusion_lat": 0.0, "is_disabled": 0, "rental_uris": {"ios": "https://dc.lft.to/lastmile_qr_scan", "android": "https://dc.lft.to/lastmile_qr_scan"}, "bike_id": "973ced11161f9e1439da3478c39a1f9f", "lat": 38.8864495, "name": "973ced11161f9e1439da3478c39a1f9f", "lon": -77.01226383333334, "fusion_lon": 0.0}, {"is_reserved": 0, "type": "electric_scooter", "fusion_lat": 0.0, "is_disabled": 0, "rental_uris": {"ios": "https://dc.lft.to/lastmile_qr_scan", "android": "https://dc.lft.to/lastmile_qr_scan"}, "bike_id": "4d99ad055414ef2a854a5aec6c5b52f8", "lat": 38.89968283333333, "name": "4d99ad055414ef2a854a5aec6c5b52f8", "lon": -77.04717183333334, "fusion_lon": 0.0}, {"is_reserved": 0, "type": "electric_scooter", "fusion_lat": 0.0, "is_disabled": 0, "rental_uris": {"ios": "https://dc.lft.to/lastmile_qr_scan", "android": "https://dc.lft.to/lastmile_qr_scan"}, "bike_id": "38e139b578af6e454330929939a1ab6c", "lat": 38.91615983333333, "name": "38e139b578af6e454330929939a1ab6c", "lon": -77.03203566666667, "fusion_lon": 0.0}, {"is_reserved": 0, "type": "electric_scooter", "fusion_lat": 0.0, "is_disabled": 0, "rental_uris": {"ios": "https://dc.lft.to/lastmile_qr_scan", "android": "https://dc.lft.to/lastmile_qr_scan"}, "bike_id": "dede38169535ff69835dc106378ef877", "lat": 38.894889166666665, "name": "dede38169535ff69835dc106378ef877", "lon": -77.02177083333333, "fusion_lon": 0.0}, {"is_reserved": 0, "type": "electric_scooter", "fusion_lat": 0.0, "is_disabled": 0, "rental_uris": {"ios": "https://dc.lft.to/lastmile_qr_scan", "android": "https://dc.lft.to/lastmile_qr_scan"}, "bike_id": "aa7ab6c0414db589c2d7ccbf41b0caab", "lat": 38.95638616666667, "name": "aa7ab6c0414db589c2d7ccbf41b0caab", "lon": -77.03629433333333, "fusion_lon": 0.0}, {"is_reserved": 0, "type": "electric_scooter", "fusion_lat": 0.0, "is_disabled": 0, "rental_uris": {"ios": "https://dc.lft.to/lastmile_qr_scan", "android": "https://dc.lft.to/lastmile_qr_scan"}, "bike_id": "2b2625607f119da414639e6dc81f77df", "lat": 38.91030283333333, "name": "2b2625607f119da414639e6dc81f77df", "lon": -77.02815766666667, "fusion_lon": 0.0}, {"is_reserved": 0, "type": "electric_scooter", "fusion_lat": 0.0, "is_disabled": 0, "rental_uris": {"ios": "https://dc.lft.to/lastmile_qr_scan", "android": "https://dc.lft.to/lastmile_qr_scan"}, "bike_id": "e403ee7efdcf0c871bee4447747be342", "lat": 38.92728916666667, "name": "e403ee7efdcf0c871bee4447747be342", "lon": -77.02086566666667, "fusion_lon": 0.0}, {"is_reserved": 0, "type": "electric_scooter", "fusion_lat": 0.0, "is_disabled": 0, "rental_uris": {"ios": "https://dc.lft.to/lastmile_qr_scan", "android": "https://dc.lft.to/lastmile_qr_scan"}, "bike_id": "a7d095a489f73f582c5a645940af2ab7", "lat": 38.930002333333334, "name": "a7d095a489f73f582c5a645940af2ab7", "lon": -77.021685, "fusion_lon": 0.0}, {"is_reserved": 0, "type": "electric_scooter", "fusion_lat": 0.0, "is_disabled": 0, "rental_uris": {"ios": "https://dc.lft.to/lastmile_qr_scan", "android": "https://dc.lft.to/lastmile_qr_scan"}, "bike_id": "b635f078dd95b46131a129e0041b006f", "lat": 38.93714583333333, "name": "b635f078dd95b46131a129e0041b006f", "lon": -77.0363055, "fusion_lon": 0.0}, {"is_reserved": 0, "type": "electric_scooter", "fusion_lat": 0.0, "is_disabled": 0, "rental_uris": {"ios": "https://dc.lft.to/lastmile_qr_scan", "android": "https://dc.lft.to/lastmile_qr_scan"}, "bike_id": "545fb3169744359f76150950c93bbabe", "lat": 38.923554, "name": "545fb3169744359f76150950c93bbabe", "lon": -77.03450816666667, "fusion_lon": 0.0}, {"is_reserved": 0, "type": "electric_scooter", "fusion_lat": 0.0, "is_disabled": 0, "rental_uris": {"ios": "https://dc.lft.to/lastmile_qr_scan", "android": "https://dc.lft.to/lastmile_qr_scan"}, "bike_id": "b2683a87a2e45bb181595b617300cb9a", "lat": 38.9173845, "name": "b2683a87a2e45bb181595b617300cb9a", "lon": -77.02608016666667, "fusion_lon": 0.0}, {"is_reserved": 0, "type": "electric_scooter", "fusion_lat": 0.0, "is_disabled": 0, "rental_uris": {"ios": "https://dc.lft.to/lastmile_qr_scan", "android": "https://dc.lft.to/lastmile_qr_scan"}, "bike_id": "d9f517a8fc123e0b11c7e9f42f868a10", "lat": 38.928751, "name": "d9f517a8fc123e0b11c7e9f42f868a10", "lon": -77.034826, "fusion_lon": 0.0}, {"is_reserved": 0, "type": "electric_scooter", "fusion_lat": 0.0, "is_disabled": 0, "rental_uris": {"ios": "https://dc.lft.to/lastmile_qr_scan", "android": "https://dc.lft.to/lastmile_qr_scan"}, "bike_id": "989446ef4d8c18cc90153804bba49ced", "lat": 38.92119916666667, "name": "989446ef4d8c18cc90153804bba49ced", "lon": -77.01209166666666, "fusion_lon": 0.0}, {"is_reserved": 0, "type": "electric_scooter", "fusion_lat": 0.0, "is_disabled": 0, "rental_uris": {"ios": "https://dc.lft.to/lastmile_qr_scan", "android": "https://dc.lft.to/lastmile_qr_scan"}, "bike_id": "bdf8907cf3ed69f79e5c6c4921e9675b", "lat": 38.907867, "name": "bdf8907cf3ed69f79e5c6c4921e9675b", "lon": -77.01103133333334, "fusion_lon": 0.0}, {"is_reserved": 0, "type": "electric_scooter", "fusion_lat": 0.0, "is_disabled": 0, "rental_uris": {"ios": "https://dc.lft.to/lastmile_qr_scan", "android": "https://dc.lft.to/lastmile_qr_scan"}, "bike_id": "feecdaec01f3df914cc9d8f221f8740e", "lat": 38.922478, "name": "feecdaec01f3df914cc9d8f221f8740e", "lon": -77.03661533333333, "fusion_lon": 0.0}, {"is_reserved": 0, "type": "electric_scooter", "fusion_lat": 0.0, "is_disabled": 0, "rental_uris": {"ios": "https://dc.lft.to/lastmile_qr_scan", "android": "https://dc.lft.to/lastmile_qr_scan"}, "bike_id": "9220c547119452dc32cb9d4e827e5b3b", "lat": 38.880402833333335, "name": "9220c547119452dc32cb9d4e827e5b3b", "lon": -76.92723433333333, "fusion_lon": 0.0}, {"is_reserved": 0, "type": "electric_scooter", "fusion_lat": 0.0, "is_disabled": 0, "rental_uris": {"ios": "https://dc.lft.to/lastmile_qr_scan", "android": "https://dc.lft.to/lastmile_qr_scan"}, "bike_id": "3aca8aa1fc3b455f6fcdad16c02b94a6", "lat": 38.92465766666667, "name": "3aca8aa1fc3b455f6fcdad16c02b94a6", "lon": -77.0297865, "fusion_lon": 0.0}, {"is_reserved": 0, "type": "electric_scooter", "fusion_lat": 0.0, "is_disabled": 0, "rental_uris": {"ios": "https://dc.lft.to/lastmile_qr_scan", "android": "https://dc.lft.to/lastmile_qr_scan"}, "bike_id": "7942033bcd840420bbc875c726dd49ca", "lat": 38.92391933333333, "name": "7942033bcd840420bbc875c726dd49ca", "lon": -77.02608533333333, "fusion_lon": 0.0}, {"is_reserved": 0, "type": "electric_scooter", "fusion_lat": 0.0, "is_disabled": 0, "rental_uris": {"ios": "https://dc.lft.to/lastmile_qr_scan", "android": "https://dc.lft.to/lastmile_qr_scan"}, "bike_id": "54588da3a7105f8ae9584207f6e214f9", "lat": 38.94173466666667, "name": "54588da3a7105f8ae9584207f6e214f9", "lon": -77.02533716666667, "fusion_lon": 0.0}, {"is_reserved": 0, "type": "electric_scooter", "fusion_lat": 0.0, "is_disabled": 0, "rental_uris": {"ios": "https://dc.lft.to/lastmile_qr_scan", "android": "https://dc.lft.to/lastmile_qr_scan"}, "bike_id": "7875784dcd96ff677a4890a7e390b5ca", "lat": 38.9097225, "name": "7875784dcd96ff677a4890a7e390b5ca", "lon": -77.04837666666667, "fusion_lon": 0.0}, {"is_reserved": 0, "type": "electric_scooter", "fusion_lat": 0.0, "is_disabled": 0, "rental_uris": {"ios": "https://dc.lft.to/lastmile_qr_scan", "android": "https://dc.lft.to/lastmile_qr_scan"}, "bike_id": "84c86e227dd7886ca7c8a6c7b5c79639", "lat": 38.90688316666667, "name": "84c86e227dd7886ca7c8a6c7b5c79639", "lon": -77.0271545, "fusion_lon": 0.0}, {"is_reserved": 0, "type": "electric_scooter", "fusion_lat": 0.0, "is_disabled": 0, "rental_uris": {"ios": "https://dc.lft.to/lastmile_qr_scan", "android": "https://dc.lft.to/lastmile_qr_scan"}, "bike_id": "88887fc642ac2b9331f661c5720a2f72", "lat": 38.91997, "name": "88887fc642ac2b9331f661c5720a2f72", "lon": -77.0321635, "fusion_lon": 0.0}, {"is_reserved": 0, "type": "electric_scooter", "fusion_lat": 0.0, "is_disabled": 0, "rental_uris": {"ios": "https://dc.lft.to/lastmile_qr_scan", "android": "https://dc.lft.to/lastmile_qr_scan"}, "bike_id": "48c322251f6e6ca1ef7718a7b6534a12", "lat": 38.89914616666667, "name": "48c322251f6e6ca1ef7718a7b6534a12", "lon": -76.9339225, "fusion_lon": 0.0}, {"is_reserved": 0, "type": "electric_bike", "fusion_lat": 0.0, "is_disabled": 0, "rental_uris": {"ios": "https://dc.lft.to/lastmile_qr_scan", "android": "https://dc.lft.to/lastmile_qr_scan"}, "bike_id": "fbad03fc361c2b12cdb244eff29bc4dc", "lat": 38.82932183333333, "name": "fbad03fc361c2b12cdb244eff29bc4dc", "lon": -77.06880133333334, "fusion_lon": 0.0}, {"is_reserved": 0, "type": "electric_scooter", "fusion_lat": 0.0, "is_disabled": 0, "rental_uris": {"ios": "https://dc.lft.to/lastmile_qr_scan", "android": "https://dc.lft.to/lastmile_qr_scan"}, "bike_id": "2e66c55d6a07dd47a06968f86269bcc9", "lat": 38.914876166666666, "name": "2e66c55d6a07dd47a06968f86269bcc9", "lon": -77.0494305, "fusion_lon": 0.0}, {"is_reserved": 0, "type": "electric_scooter", "fusion_lat": 0.0, "is_disabled": 0, "rental_uris": {"ios": "https://dc.lft.to/lastmile_qr_scan", "android": "https://dc.lft.to/lastmile_qr_scan"}, "bike_id": "baa70e463b1e0e651895ef5f620c9135", "lat": 38.895357833333335, "name": "baa70e463b1e0e651895ef5f620c9135", "lon": -76.94890333333333, "fusion_lon": 0.0}, {"is_reserved": 0, "type": "electric_scooter", "fusion_lat": 0.0, "is_disabled": 0, "rental_uris": {"ios": "https://dc.lft.to/lastmile_qr_scan", "android": "https://dc.lft.to/lastmile_qr_scan"}, "bike_id": "337a35b63a1d057d3d95427d252dfe4c", "lat": 38.89973616666666, "name": "337a35b63a1d057d3d95427d252dfe4c", "lon": -77.026045, "fusion_lon": 0.0}, {"is_reserved": 0, "type": "electric_scooter", "fusion_lat": 0.0, "is_disabled": 0, "rental_uris": {"ios": "https://dc.lft.to/lastmile_qr_scan", "android": "https://dc.lft.to/lastmile_qr_scan"}, "bike_id": "5341e7442c5505f4c5cc54076760e5b1", "lat": 38.906175833333336, "name": "5341e7442c5505f4c5cc54076760e5b1", "lon": -77.04876083333333, "fusion_lon": 0.0}, {"is_reserved": 0, "type": "electric_scooter", "fusion_lat": 0.0, "is_disabled": 0, "rental_uris": {"ios": "https://dc.lft.to/lastmile_qr_scan", "android": "https://dc.lft.to/lastmile_qr_scan"}, "bike_id": "3c804d9ac8389a1331c869a5015b0986", "lat": 38.92485033333333, "name": "3c804d9ac8389a1331c869a5015b0986", "lon": -77.02714816666666, "fusion_lon": 0.0}, {"is_reserved": 0, "type": "electric_scooter", "fusion_lat": 0.0, "is_disabled": 0, "rental_uris": {"ios": "https://dc.lft.to/lastmile_qr_scan", "android": "https://dc.lft.to/lastmile_qr_scan"}, "bike_id": "c989bf71ea925c83443e97cf9b571569", "lat": 38.891714666666665, "name": "c989bf71ea925c83443e97cf9b571569", "lon": -77.01545283333333, "fusion_lon": 0.0}, {"is_reserved": 0, "type": "electric_scooter", "fusion_lat": 0.0, "is_disabled": 0, "rental_uris": {"ios": "https://dc.lft.to/lastmile_qr_scan", "android": "https://dc.lft.to/lastmile_qr_scan"}, "bike_id": "11d21593b674de85ee4b1acb6f10f988", "lat": 38.919335, "name": "11d21593b674de85ee4b1acb6f10f988", "lon": -77.044893, "fusion_lon": 0.0}, {"is_reserved": 0, "type": "electric_scooter", "fusion_lat": 0.0, "is_disabled": 0, "rental_uris": {"ios": "https://dc.lft.to/lastmile_qr_scan", "android": "https://dc.lft.to/lastmile_qr_scan"}, "bike_id": "58944f6587bf729da90570ece964faa6", "lat": 38.939516833333336, "name": "58944f6587bf729da90570ece964faa6", "lon": -77.07242966666666, "fusion_lon": 0.0}, {"is_reserved": 0, "type": "electric_scooter", "fusion_lat": 0.0, "is_disabled": 0, "rental_uris": {"ios": "https://dc.lft.to/lastmile_qr_scan", "android": "https://dc.lft.to/lastmile_qr_scan"}, "bike_id": "ade666334ab6b75a52c1f5c3d15eb5b1", "lat": 38.901504333333335, "name": "ade666334ab6b75a52c1f5c3d15eb5b1", "lon": -77.03083166666667, "fusion_lon": 0.0}, {"is_reserved": 0, "type": "electric_scooter", "fusion_lat": 0.0, "is_disabled": 0, "rental_uris": {"ios": "https://dc.lft.to/lastmile_qr_scan", "android": "https://dc.lft.to/lastmile_qr_scan"}, "bike_id": "ff2b2f52ff60b515a31f23b753e6f465", "lat": 38.92999183333333, "name": "ff2b2f52ff60b515a31f23b753e6f465", "lon": -77.03804116666667, "fusion_lon": 0.0}, {"is_reserved": 0, "type": "electric_scooter", "fusion_lat": 0.0, "is_disabled": 0, "rental_uris": {"ios": "https://dc.lft.to/lastmile_qr_scan", "android": "https://dc.lft.to/lastmile_qr_scan"}, "bike_id": "3fe6582b88b472033c3de7f2300d4ebf", "lat": 38.90509383333333, "name": "3fe6582b88b472033c3de7f2300d4ebf", "lon": -77.02812, "fusion_lon": 0.0}, {"is_reserved": 0, "type": "electric_scooter", "fusion_lat": 0.0, "is_disabled": 0, "rental_uris": {"ios": "https://dc.lft.to/lastmile_qr_scan", "android": "https://dc.lft.to/lastmile_qr_scan"}, "bike_id": "9d34aa30882d9682819a8fc95743d554", "lat": 38.940942666666665, "name": "9d34aa30882d9682819a8fc95743d554", "lon": -77.0271965, "fusion_lon": 0.0}, {"is_reserved": 0, "type": "electric_scooter", "fusion_lat": 0.0, "is_disabled": 0, "rental_uris": {"ios": "https://dc.lft.to/lastmile_qr_scan", "android": "https://dc.lft.to/lastmile_qr_scan"}, "bike_id": "87ba3afa40866ffc080dc788ad4023de", "lat": 38.8997215, "name": "87ba3afa40866ffc080dc788ad4023de", "lon": -76.92623116666667, "fusion_lon": 0.0}, {"is_reserved": 0, "type": "electric_scooter", "fusion_lat": 0.0, "is_disabled": 0, "rental_uris": {"ios": "https://dc.lft.to/lastmile_qr_scan", "android": "https://dc.lft.to/lastmile_qr_scan"}, "bike_id": "5ae07b25b84bf37be446d2021cd3a4e6", "lat": 38.91859633333333, "name": "5ae07b25b84bf37be446d2021cd3a4e6", "lon": -77.03204983333333, "fusion_lon": 0.0}, {"is_reserved": 0, "type": "electric_scooter", "fusion_lat": 0.0, "is_disabled": 0, "rental_uris": {"ios": "https://dc.lft.to/lastmile_qr_scan", "android": "https://dc.lft.to/lastmile_qr_scan"}, "bike_id": "545b9e987555bf1e8d2a852e6af35367", "lat": 38.89254833333333, "name": "545b9e987555bf1e8d2a852e6af35367", "lon": -77.03218366666667, "fusion_lon": 0.0}, {"is_reserved": 0, "type": "electric_bike", "fusion_lat": 0.0, "is_disabled": 0, "rental_uris": {"ios": "https://dc.lft.to/lastmile_qr_scan", "android": "https://dc.lft.to/lastmile_qr_scan"}, "bike_id": "deb34819b4b90cbf4f0254b8bbc59b5b", "lat": 39.025208666666664, "name": "deb34819b4b90cbf4f0254b8bbc59b5b", "lon": -77.0196695, "fusion_lon": 0.0}, {"is_reserved": 0, "type": "electric_scooter", "fusion_lat": 0.0, "is_disabled": 0, "rental_uris": {"ios": "https://dc.lft.to/lastmile_qr_scan", "android": "https://dc.lft.to/lastmile_qr_scan"}, "bike_id": "42edf74b9c4fb3fa4bd10d0e7398ecaa", "lat": 38.9300525, "name": "42edf74b9c4fb3fa4bd10d0e7398ecaa", "lon": -77.03285366666667, "fusion_lon": 0.0}, {"is_reserved": 0, "type": "electric_bike", "fusion_lat": 0.0, "is_disabled": 0, "rental_uris": {"ios": "https://dc.lft.to/lastmile_qr_scan", "android": "https://dc.lft.to/lastmile_qr_scan"}, "bike_id": "de6868e6a89159a48084dba91ee8fa68", "lat": 39.084770166666665, "name": "de6868e6a89159a48084dba91ee8fa68", "lon": -76.9506815, "fusion_lon": 0.0}, {"is_reserved": 0, "type": "electric_scooter", "fusion_lat": 0.0, "is_disabled": 0, "rental_uris": {"ios": "https://dc.lft.to/lastmile_qr_scan", "android": "https://dc.lft.to/lastmile_qr_scan"}, "bike_id": "23ea5c0e62c72a77618b4f8ce45222a6", "lat": 38.864980833333334, "name": "23ea5c0e62c72a77618b4f8ce45222a6", "lon": -76.977242, "fusion_lon": 0.0}, {"is_reserved": 0, "type": "electric_scooter", "fusion_lat": 0.0, "is_disabled": 0, "rental_uris": {"ios": "https://dc.lft.to/lastmile_qr_scan", "android": "https://dc.lft.to/lastmile_qr_scan"}, "bike_id": "ce6337ceab043611adec1cfb280b9d8f", "lat": 38.888852, "name": "ce6337ceab043611adec1cfb280b9d8f", "lon": -76.99031483333333, "fusion_lon": 0.0}, {"is_reserved": 0, "type": "electric_scooter", "fusion_lat": 0.0, "is_disabled": 0, "rental_uris": {"ios": "https://dc.lft.to/lastmile_qr_scan", "android": "https://dc.lft.to/lastmile_qr_scan"}, "bike_id": "f8601287fe4d791eef5e20b104732371", "lat": 38.95281283333333, "name": "f8601287fe4d791eef5e20b104732371", "lon": -77.0685955, "fusion_lon": 0.0}, {"is_reserved": 0, "type": "electric_scooter", "fusion_lat": 0.0, "is_disabled": 0, "rental_uris": {"ios": "https://dc.lft.to/lastmile_qr_scan", "android": "https://dc.lft.to/lastmile_qr_scan"}, "bike_id": "252e97dccea01e590cca0a6663fd2cc3", "lat": 38.942038833333335, "name": "252e97dccea01e590cca0a6663fd2cc3", "lon": -77.024594, "fusion_lon": 0.0}, {"is_reserved": 0, "type": "electric_scooter", "fusion_lat": 0.0, "is_disabled": 0, "rental_uris": {"ios": "https://dc.lft.to/lastmile_qr_scan", "android": "https://dc.lft.to/lastmile_qr_scan"}, "bike_id": "ebb351c2c90ca296c394dfc563daedc3", "lat": 38.896787333333336, "name": "ebb351c2c90ca296c394dfc563daedc3", "lon": -76.949144, "fusion_lon": 0.0}, {"is_reserved": 0, "type": "electric_scooter", "fusion_lat": 0.0, "is_disabled": 0, "rental_uris": {"ios": "https://dc.lft.to/lastmile_qr_scan", "android": "https://dc.lft.to/lastmile_qr_scan"}, "bike_id": "7e5cd88b273aa29df30a05d8df1a457a", "lat": 38.886151166666664, "name": "7e5cd88b273aa29df30a05d8df1a457a", "lon": -77.02207366666667, "fusion_lon": 0.0}, {"is_reserved": 0, "type": "electric_scooter", "fusion_lat": 0.0, "is_disabled": 0, "rental_uris": {"ios": "https://dc.lft.to/lastmile_qr_scan", "android": "https://dc.lft.to/lastmile_qr_scan"}, "bike_id": "fbac56d9369724fc97d6fdac6503d955", "lat": 38.90303266666667, "name": "fbac56d9369724fc97d6fdac6503d955", "lon": -76.998384, "fusion_lon": 0.0}, {"is_reserved": 0, "type": "electric_scooter", "fusion_lat": 0.0, "is_disabled": 0, "rental_uris": {"ios": "https://dc.lft.to/lastmile_qr_scan", "android": "https://dc.lft.to/lastmile_qr_scan"}, "bike_id": "f62c0e1cbfd77cd95cb4d3d0dc7a16da", "lat": 38.894763, "name": "f62c0e1cbfd77cd95cb4d3d0dc7a16da", "lon": -77.02179383333333, "fusion_lon": 0.0}, {"is_reserved": 0, "type": "electric_scooter", "fusion_lat": 0.0, "is_disabled": 0, "rental_uris": {"ios": "https://dc.lft.to/lastmile_qr_scan", "android": "https://dc.lft.to/lastmile_qr_scan"}, "bike_id": "f184a029bcaf85197056b63cd2ffa63b", "lat": 38.8730135, "name": "f184a029bcaf85197056b63cd2ffa63b", "lon": -77.00987566666667, "fusion_lon": 0.0}, {"is_reserved": 0, "type": "electric_scooter", "fusion_lat": 0.0, "is_disabled": 0, "rental_uris": {"ios": "https://dc.lft.to/lastmile_qr_scan", "android": "https://dc.lft.to/lastmile_qr_scan"}, "bike_id": "08e2a65d2f8513ad69a468d88b5f43cb", "lat": 38.898528166666665, "name": "08e2a65d2f8513ad69a468d88b5f43cb", "lon": -76.9950025, "fusion_lon": 0.0}, {"is_reserved": 0, "type": "electric_scooter", "fusion_lat": 0.0, "is_disabled": 0, "rental_uris": {"ios": "https://dc.lft.to/lastmile_qr_scan", "android": "https://dc.lft.to/lastmile_qr_scan"}, "bike_id": "428971dc00493a7e148fd14d90e7b72a", "lat": 38.92379183333333, "name": "428971dc00493a7e148fd14d90e7b72a", "lon": -77.02926933333333, "fusion_lon": 0.0}, {"is_reserved": 0, "type": "electric_scooter", "fusion_lat": 0.0, "is_disabled": 0, "rental_uris": {"ios": "https://dc.lft.to/lastmile_qr_scan", "android": "https://dc.lft.to/lastmile_qr_scan"}, "bike_id": "94aaf7508700692468c4a9a28690c210", "lat": 38.9057215, "name": "94aaf7508700692468c4a9a28690c210", "lon": -77.0276315, "fusion_lon": 0.0}, {"is_reserved": 0, "type": "electric_scooter", "fusion_lat": 0.0, "is_disabled": 0, "rental_uris": {"ios": "https://dc.lft.to/lastmile_qr_scan", "android": "https://dc.lft.to/lastmile_qr_scan"}, "bike_id": "559b2282404046a082ac2f1ceb6aa94b", "lat": 38.921419, "name": "559b2282404046a082ac2f1ceb6aa94b", "lon": -77.04584433333333, "fusion_lon": 0.0}, {"is_reserved": 0, "type": "electric_scooter", "fusion_lat": 0.0, "is_disabled": 0, "rental_uris": {"ios": "https://dc.lft.to/lastmile_qr_scan", "android": "https://dc.lft.to/lastmile_qr_scan"}, "bike_id": "1750ee100a4bff1c1cfbdff2b0daaad1", "lat": 38.95957083333333, "name": "1750ee100a4bff1c1cfbdff2b0daaad1", "lon": -77.03315666666667, "fusion_lon": 0.0}, {"is_reserved": 0, "type": "electric_scooter", "fusion_lat": 0.0, "is_disabled": 0, "rental_uris": {"ios": "https://dc.lft.to/lastmile_qr_scan", "android": "https://dc.lft.to/lastmile_qr_scan"}, "bike_id": "22515916a166a212d545849ba9841933", "lat": 38.912821666666666, "name": "22515916a166a212d545849ba9841933", "lon": -77.0466665, "fusion_lon": 0.0}, {"is_reserved": 0, "type": "electric_scooter", "fusion_lat": 0.0, "is_disabled": 0, "rental_uris": {"ios": "https://dc.lft.to/lastmile_qr_scan", "android": "https://dc.lft.to/lastmile_qr_scan"}, "bike_id": "766ef79dccf1e5652d24039c73875fbc", "lat": 38.892114166666666, "name": "766ef79dccf1e5652d24039c73875fbc", "lon": -76.96118283333334, "fusion_lon": 0.0}, {"is_reserved": 0, "type": "electric_scooter", "fusion_lat": 0.0, "is_disabled": 0, "rental_uris": {"ios": "https://dc.lft.to/lastmile_qr_scan", "android": "https://dc.lft.to/lastmile_qr_scan"}, "bike_id": "9d7b90162c9f8405c7bdc6b07a59fca5", "lat": 38.92167833333333, "name": "9d7b90162c9f8405c7bdc6b07a59fca5", "lon": -77.03380333333334, "fusion_lon": 0.0}, {"is_reserved": 0, "type": "electric_scooter", "fusion_lat": 0.0, "is_disabled": 0, "rental_uris": {"ios": "https://dc.lft.to/lastmile_qr_scan", "android": "https://dc.lft.to/lastmile_qr_scan"}, "bike_id": "e889059ae95720839d0190d1c6348719", "lat": 38.90289716666667, "name": "e889059ae95720839d0190d1c6348719", "lon": -77.03344016666667, "fusion_lon": 0.0}, {"is_reserved": 0, "type": "electric_scooter", "fusion_lat": 0.0, "is_disabled": 0, "rental_uris": {"ios": "https://dc.lft.to/lastmile_qr_scan", "android": "https://dc.lft.to/lastmile_qr_scan"}, "bike_id": "c14d3f36edadae0564ffa0fb92f1cc15", "lat": 38.9288575, "name": "c14d3f36edadae0564ffa0fb92f1cc15", "lon": -77.038717, "fusion_lon": 0.0}, {"is_reserved": 0, "type": "electric_bike", "fusion_lat": 0.0, "is_disabled": 0, "rental_uris": {"ios": "https://dc.lft.to/lastmile_qr_scan", "android": "https://dc.lft.to/lastmile_qr_scan"}, "bike_id": "c24a39847e3abf15119500f2ed43297b", "lat": 38.998327333333336, "name": "c24a39847e3abf15119500f2ed43297b", "lon": -76.9972945, "fusion_lon": 0.0}, {"is_reserved": 0, "type": "electric_scooter", "fusion_lat": 0.0, "is_disabled": 0, "rental_uris": {"ios": "https://dc.lft.to/lastmile_qr_scan", "android": "https://dc.lft.to/lastmile_qr_scan"}, "bike_id": "1f59dfa8220c6aa3ca50e8a4b18e5438", "lat": 38.91192433333333, "name": "1f59dfa8220c6aa3ca50e8a4b18e5438", "lon": -77.01767266666667, "fusion_lon": 0.0}, {"is_reserved": 0, "type": "electric_bike", "fusion_lat": 0.0, "is_disabled": 0, "rental_uris": {"ios": "https://dc.lft.to/lastmile_qr_scan", "android": "https://dc.lft.to/lastmile_qr_scan"}, "bike_id": "b586188b8ebc6de1ee2a7c37bd577eb4", "lat": 38.875722333333336, "name": "b586188b8ebc6de1ee2a7c37bd577eb4", "lon": -77.0470615, "fusion_lon": 0.0}, {"is_reserved": 0, "type": "electric_scooter", "fusion_lat": 0.0, "is_disabled": 0, "rental_uris": {"ios": "https://dc.lft.to/lastmile_qr_scan", "android": "https://dc.lft.to/lastmile_qr_scan"}, "bike_id": "fc7e3327d85ca646799201687f30406d", "lat": 38.88386066666666, "name": "fc7e3327d85ca646799201687f30406d", "lon": -77.04604683333334, "fusion_lon": 0.0}, {"is_reserved": 0, "type": "electric_bike", "fusion_lat": 0.0, "is_disabled": 0, "rental_uris": {"ios": "https://dc.lft.to/lastmile_qr_scan", "android": "https://dc.lft.to/lastmile_qr_scan"}, "bike_id": "35a40f4eed8ceccc02dba6a7cc814833", "lat": 38.86556133333333, "name": "35a40f4eed8ceccc02dba6a7cc814833", "lon": -76.94153133333333, "fusion_lon": 0.0}, {"is_reserved": 0, "type": "electric_bike", "fusion_lat": 0.0, "is_disabled": 0, "rental_uris": {"ios": "https://dc.lft.to/lastmile_qr_scan", "android": "https://dc.lft.to/lastmile_qr_scan"}, "bike_id": "7c3e68ab34187049b7b249815a335ae8", "lat": 38.85181166666667, "name": "7c3e68ab34187049b7b249815a335ae8", "lon": -76.99563533333334, "fusion_lon": 0.0}, {"is_reserved": 0, "type": "electric_bike", "fusion_lat": 0.0, "is_disabled": 0, "rental_uris": {"ios": "https://dc.lft.to/lastmile_qr_scan", "android": "https://dc.lft.to/lastmile_qr_scan"}, "bike_id": "9d71d6986b44ba3df00ffeec99b44afa", "lat": 38.8133595, "name": "9d71d6986b44ba3df00ffeec99b44afa", "lon": -77.05094583333333, "fusion_lon": 0.0}, {"is_reserved": 0, "type": "electric_scooter", "fusion_lat": 0.0, "is_disabled": 0, "rental_uris": {"ios": "https://dc.lft.to/lastmile_qr_scan", "android": "https://dc.lft.to/lastmile_qr_scan"}, "bike_id": "54cb996b92b0b4c30d84e37a17daa126", "lat": 38.931846166666666, "name": "54cb996b92b0b4c30d84e37a17daa126", "lon": -77.03151383333334, "fusion_lon": 0.0}, {"is_reserved": 0, "type": "electric_scooter", "fusion_lat": 0.0, "is_disabled": 0, "rental_uris": {"ios": "https://dc.lft.to/lastmile_qr_scan", "android": "https://dc.lft.to/lastmile_qr_scan"}, "bike_id": "c46a0a4d2b850c91e3df468077fe9e1f", "lat": 38.904563833333334, "name": "c46a0a4d2b850c91e3df468077fe9e1f", "lon": -76.9337325, "fusion_lon": 0.0}, {"is_reserved": 0, "type": "electric_scooter", "fusion_lat": 0.0, "is_disabled": 0, "rental_uris": {"ios": "https://dc.lft.to/lastmile_qr_scan", "android": "https://dc.lft.to/lastmile_qr_scan"}, "bike_id": "6f7f789cea448caf962d7959b15f3ecb", "lat": 38.897784333333334, "name": "6f7f789cea448caf962d7959b15f3ecb", "lon": -77.04791766666666, "fusion_lon": 0.0}, {"is_reserved": 0, "type": "electric_scooter", "fusion_lat": 0.0, "is_disabled": 0, "rental_uris": {"ios": "https://dc.lft.to/lastmile_qr_scan", "android": "https://dc.lft.to/lastmile_qr_scan"}, "bike_id": "7535f622ec0a0541ad0ae911b2399ce8", "lat": 38.91703833333333, "name": "7535f622ec0a0541ad0ae911b2399ce8", "lon": -77.02417916666667, "fusion_lon": 0.0}, {"is_reserved": 0, "type": "electric_scooter", "fusion_lat": 0.0, "is_disabled": 0, "rental_uris": {"ios": "https://dc.lft.to/lastmile_qr_scan", "android": "https://dc.lft.to/lastmile_qr_scan"}, "bike_id": "402466a62ddce4dcbabdafb397cde744", "lat": 38.912518666666664, "name": "402466a62ddce4dcbabdafb397cde744", "lon": -76.98672983333333, "fusion_lon": 0.0}, {"is_reserved": 0, "type": "electric_bike", "fusion_lat": 0.0, "is_disabled": 0, "rental_uris": {"ios": "https://dc.lft.to/lastmile_qr_scan", "android": "https://dc.lft.to/lastmile_qr_scan"}, "bike_id": "a38ee581df6a00f53c144110486ab05a", "lat": 38.80525333333333, "name": "a38ee581df6a00f53c144110486ab05a", "lon": -77.04334783333333, "fusion_lon": 0.0}, {"is_reserved": 0, "type": "electric_scooter", "fusion_lat": 0.0, "is_disabled": 0, "rental_uris": {"ios": "https://dc.lft.to/lastmile_qr_scan", "android": "https://dc.lft.to/lastmile_qr_scan"}, "bike_id": "1935b5730575e9455215585ec1db38ae", "lat": 38.9167325, "name": "1935b5730575e9455215585ec1db38ae", "lon": -77.02307816666666, "fusion_lon": 0.0}, {"is_reserved": 0, "type": "electric_scooter", "fusion_lat": 0.0, "is_disabled": 0, "rental_uris": {"ios": "https://dc.lft.to/lastmile_qr_scan", "android": "https://dc.lft.to/lastmile_qr_scan"}, "bike_id": "2d75f6ba157327e48dff02eedc49132f", "lat": 38.97506, "name": "2d75f6ba157327e48dff02eedc49132f", "lon": -77.016992, "fusion_lon": 0.0}, {"is_reserved": 0, "type": "electric_scooter", "fusion_lat": 0.0, "is_disabled": 0, "rental_uris": {"ios": "https://dc.lft.to/lastmile_qr_scan", "android": "https://dc.lft.to/lastmile_qr_scan"}, "bike_id": "5a40b0216dd71c80befd3f84bd092059", "lat": 38.921778333333336, "name": "5a40b0216dd71c80befd3f84bd092059", "lon": -77.0383555, "fusion_lon": 0.0}, {"is_reserved": 0, "type": "electric_scooter", "fusion_lat": 0.0, "is_disabled": 0, "rental_uris": {"ios": "https://dc.lft.to/lastmile_qr_scan", "android": "https://dc.lft.to/lastmile_qr_scan"}, "bike_id": "8675c3f6d3b5651d92d15f68e5d3f446", "lat": 38.90073566666667, "name": "8675c3f6d3b5651d92d15f68e5d3f446", "lon": -77.01819083333334, "fusion_lon": 0.0}, {"is_reserved": 0, "type": "electric_scooter", "fusion_lat": 0.0, "is_disabled": 0, "rental_uris": {"ios": "https://dc.lft.to/lastmile_qr_scan", "android": "https://dc.lft.to/lastmile_qr_scan"}, "bike_id": "ff4dffa9089a1bd066a115ea47eaa57e", "lat": 38.90960483333333, "name": "ff4dffa9089a1bd066a115ea47eaa57e", "lon": -77.02276716666667, "fusion_lon": 0.0}, {"is_reserved": 0, "type": "electric_scooter", "fusion_lat": 0.0, "is_disabled": 0, "rental_uris": {"ios": "https://dc.lft.to/lastmile_qr_scan", "android": "https://dc.lft.to/lastmile_qr_scan"}, "bike_id": "d1b64859dc32831a53ed54070d4a0745", "lat": 38.917299, "name": "d1b64859dc32831a53ed54070d4a0745", "lon": -77.04579983333333, "fusion_lon": 0.0}, {"is_reserved": 0, "type": "electric_scooter", "fusion_lat": 0.0, "is_disabled": 0, "rental_uris": {"ios": "https://dc.lft.to/lastmile_qr_scan", "android": "https://dc.lft.to/lastmile_qr_scan"}, "bike_id": "2e5090ed0c4268ca8b2f5975ea63aac3", "lat": 38.929494, "name": "2e5090ed0c4268ca8b2f5975ea63aac3", "lon": -77.0326915, "fusion_lon": 0.0}, {"is_reserved": 0, "type": "electric_scooter", "fusion_lat": 0.0, "is_disabled": 0, "rental_uris": {"ios": "https://dc.lft.to/lastmile_qr_scan", "android": "https://dc.lft.to/lastmile_qr_scan"}, "bike_id": "fd316d8b4ffb4fb5ae8810c2f4a57ba2", "lat": 38.91473966666667, "name": "fd316d8b4ffb4fb5ae8810c2f4a57ba2", "lon": -77.00206733333333, "fusion_lon": 0.0}, {"is_reserved": 0, "type": "electric_bike", "fusion_lat": 0.0, "is_disabled": 0, "rental_uris": {"ios": "https://dc.lft.to/lastmile_qr_scan", "android": "https://dc.lft.to/lastmile_qr_scan"}, "bike_id": "3392fbddec45abb1cb2ee38485f31617", "lat": 38.82209133333333, "name": "3392fbddec45abb1cb2ee38485f31617", "lon": -76.9770675, "fusion_lon": 0.0}, {"is_reserved": 0, "type": "electric_scooter", "fusion_lat": 0.0, "is_disabled": 0, "rental_uris": {"ios": "https://dc.lft.to/lastmile_qr_scan", "android": "https://dc.lft.to/lastmile_qr_scan"}, "bike_id": "963cd5459a37fdcdca21d4ff129d5bc8", "lat": 38.91698683333333, "name": "963cd5459a37fdcdca21d4ff129d5bc8", "lon": -77.05299233333334, "fusion_lon": 0.0}, {"is_reserved": 0, "type": "electric_scooter", "fusion_lat": 0.0, "is_disabled": 0, "rental_uris": {"ios": "https://dc.lft.to/lastmile_qr_scan", "android": "https://dc.lft.to/lastmile_qr_scan"}, "bike_id": "5706e9d7ef606f4d0391ba77a2c8c1d2", "lat": 38.9172445, "name": "5706e9d7ef606f4d0391ba77a2c8c1d2", "lon": -77.06834133333334, "fusion_lon": 0.0}, {"is_reserved": 0, "type": "electric_scooter", "fusion_lat": 0.0, "is_disabled": 0, "rental_uris": {"ios": "https://dc.lft.to/lastmile_qr_scan", "android": "https://dc.lft.to/lastmile_qr_scan"}, "bike_id": "a220286b590361059738cdb2f1b1afca", "lat": 38.89667766666667, "name": "a220286b590361059738cdb2f1b1afca", "lon": -77.04348033333333, "fusion_lon": 0.0}, {"is_reserved": 0, "type": "electric_scooter", "fusion_lat": 0.0, "is_disabled": 0, "rental_uris": {"ios": "https://dc.lft.to/lastmile_qr_scan", "android": "https://dc.lft.to/lastmile_qr_scan"}, "bike_id": "d49c6e5ed7bc3f88b0ee99713eaf053e", "lat": 38.883599833333335, "name": "d49c6e5ed7bc3f88b0ee99713eaf053e", "lon": -76.95767216666667, "fusion_lon": 0.0}, {"is_reserved": 0, "type": "electric_scooter", "fusion_lat": 0.0, "is_disabled": 0, "rental_uris": {"ios": "https://dc.lft.to/lastmile_qr_scan", "android": "https://dc.lft.to/lastmile_qr_scan"}, "bike_id": "55df9328c0a9ed19c01db3abf27cfd89", "lat": 38.89661383333333, "name": "55df9328c0a9ed19c01db3abf27cfd89", "lon": -77.05122516666667, "fusion_lon": 0.0}, {"is_reserved": 0, "type": "electric_scooter", "fusion_lat": 0.0, "is_disabled": 0, "rental_uris": {"ios": "https://dc.lft.to/lastmile_qr_scan", "android": "https://dc.lft.to/lastmile_qr_scan"}, "bike_id": "744a8a85bf89b92db971574199c3181a", "lat": 38.90287516666667, "name": "744a8a85bf89b92db971574199c3181a", "lon": -77.02275383333334, "fusion_lon": 0.0}, {"is_reserved": 0, "type": "electric_scooter", "fusion_lat": 0.0, "is_disabled": 0, "rental_uris": {"ios": "https://dc.lft.to/lastmile_qr_scan", "android": "https://dc.lft.to/lastmile_qr_scan"}, "bike_id": "4a4ab97d520e8126c6e23a45083474cf", "lat": 38.9118935, "name": "4a4ab97d520e8126c6e23a45083474cf", "lon": -77.06088033333333, "fusion_lon": 0.0}, {"is_reserved": 0, "type": "electric_scooter", "fusion_lat": 0.0, "is_disabled": 0, "rental_uris": {"ios": "https://dc.lft.to/lastmile_qr_scan", "android": "https://dc.lft.to/lastmile_qr_scan"}, "bike_id": "a557e75557354635c2f4f2c81d9b520e", "lat": 38.947229166666666, "name": "a557e75557354635c2f4f2c81d9b520e", "lon": -77.0680415, "fusion_lon": 0.0}, {"is_reserved": 0, "type": "electric_scooter", "fusion_lat": 0.0, "is_disabled": 0, "rental_uris": {"ios": "https://dc.lft.to/lastmile_qr_scan", "android": "https://dc.lft.to/lastmile_qr_scan"}, "bike_id": "7b9f3d14ef2fbc14fa1f5f1bac63cc5c", "lat": 38.89540266666667, "name": "7b9f3d14ef2fbc14fa1f5f1bac63cc5c", "lon": -76.98838783333333, "fusion_lon": 0.0}, {"is_reserved": 0, "type": "electric_bike", "fusion_lat": 0.0, "is_disabled": 0, "rental_uris": {"ios": "https://dc.lft.to/lastmile_qr_scan", "android": "https://dc.lft.to/lastmile_qr_scan"}, "bike_id": "0eda447ee96b2ff3203a90ef5fd02aa9", "lat": 38.9069725, "name": "0eda447ee96b2ff3203a90ef5fd02aa9", "lon": -76.95250983333334, "fusion_lon": 0.0}, {"is_reserved": 0, "type": "electric_scooter", "fusion_lat": 0.0, "is_disabled": 0, "rental_uris": {"ios": "https://dc.lft.to/lastmile_qr_scan", "android": "https://dc.lft.to/lastmile_qr_scan"}, "bike_id": "20a034a5547beabb85ca96db85f9ef2f", "lat": 38.8972225, "name": "20a034a5547beabb85ca96db85f9ef2f", "lon": -77.02536266666667, "fusion_lon": 0.0}, {"is_reserved": 0, "type": "electric_scooter", "fusion_lat": 0.0, "is_disabled": 0, "rental_uris": {"ios": "https://dc.lft.to/lastmile_qr_scan", "android": "https://dc.lft.to/lastmile_qr_scan"}, "bike_id": "355c0be77e8be52d0569ac79b85c66a7", "lat": 38.94265466666667, "name": "355c0be77e8be52d0569ac79b85c66a7", "lon": -76.984663, "fusion_lon": 0.0}, {"is_reserved": 0, "type": "electric_scooter", "fusion_lat": 0.0, "is_disabled": 0, "rental_uris": {"ios": "https://dc.lft.to/lastmile_qr_scan", "android": "https://dc.lft.to/lastmile_qr_scan"}, "bike_id": "0bca86d07ee0796bd74fb1ab68a49c74", "lat": 38.900668, "name": "0bca86d07ee0796bd74fb1ab68a49c74", "lon": -77.04982533333333, "fusion_lon": 0.0}, {"is_reserved": 0, "type": "electric_scooter", "fusion_lat": 0.0, "is_disabled": 0, "rental_uris": {"ios": "https://dc.lft.to/lastmile_qr_scan", "android": "https://dc.lft.to/lastmile_qr_scan"}, "bike_id": "49f01aeb8ee7debce75de098f200709b", "lat": 38.907202166666664, "name": "49f01aeb8ee7debce75de098f200709b", "lon": -77.025794, "fusion_lon": 0.0}, {"is_reserved": 0, "type": "electric_scooter", "fusion_lat": 0.0, "is_disabled": 0, "rental_uris": {"ios": "https://dc.lft.to/lastmile_qr_scan", "android": "https://dc.lft.to/lastmile_qr_scan"}, "bike_id": "0d37079f812128f7d4803a174c5b98cb", "lat": 38.96767833333333, "name": "0d37079f812128f7d4803a174c5b98cb", "lon": -77.03424366666667, "fusion_lon": 0.0}, {"is_reserved": 0, "type": "electric_scooter", "fusion_lat": 0.0, "is_disabled": 0, "rental_uris": {"ios": "https://dc.lft.to/lastmile_qr_scan", "android": "https://dc.lft.to/lastmile_qr_scan"}, "bike_id": "36bd960e3a5615df10cbba3dda66067d", "lat": 38.916995166666666, "name": "36bd960e3a5615df10cbba3dda66067d", "lon": -77.02718666666667, "fusion_lon": 0.0}, {"is_reserved": 0, "type": "electric_scooter", "fusion_lat": 0.0, "is_disabled": 0, "rental_uris": {"ios": "https://dc.lft.to/lastmile_qr_scan", "android": "https://dc.lft.to/lastmile_qr_scan"}, "bike_id": "cefc85d51440f0954231d7a7984d8830", "lat": 38.90416416666667, "name": "cefc85d51440f0954231d7a7984d8830", "lon": -76.97329583333334, "fusion_lon": 0.0}, {"is_reserved": 0, "type": "electric_scooter", "fusion_lat": 0.0, "is_disabled": 0, "rental_uris": {"ios": "https://dc.lft.to/lastmile_qr_scan", "android": "https://dc.lft.to/lastmile_qr_scan"}, "bike_id": "6c30bdb4039abb0a7328aeb479fb87e8", "lat": 38.927585666666666, "name": "6c30bdb4039abb0a7328aeb479fb87e8", "lon": -77.023733, "fusion_lon": 0.0}, {"is_reserved": 0, "type": "electric_scooter", "fusion_lat": 0.0, "is_disabled": 0, "rental_uris": {"ios": "https://dc.lft.to/lastmile_qr_scan", "android": "https://dc.lft.to/lastmile_qr_scan"}, "bike_id": "0988ef8ad2c3ae4f4acf467bf88dd728", "lat": 38.906862833333335, "name": "0988ef8ad2c3ae4f4acf467bf88dd728", "lon": -77.02721333333334, "fusion_lon": 0.0}, {"is_reserved": 0, "type": "electric_scooter", "fusion_lat": 0.0, "is_disabled": 0, "rental_uris": {"ios": "https://dc.lft.to/lastmile_qr_scan", "android": "https://dc.lft.to/lastmile_qr_scan"}, "bike_id": "409256e4e03b19acfbd2dc7bf814fba1", "lat": 38.93642633333333, "name": "409256e4e03b19acfbd2dc7bf814fba1", "lon": -77.02132916666666, "fusion_lon": 0.0}, {"is_reserved": 0, "type": "electric_scooter", "fusion_lat": 0.0, "is_disabled": 0, "rental_uris": {"ios": "https://dc.lft.to/lastmile_qr_scan", "android": "https://dc.lft.to/lastmile_qr_scan"}, "bike_id": "2cfaf7d01426a1fe823ac70b373d6310", "lat": 38.93972683333333, "name": "2cfaf7d01426a1fe823ac70b373d6310", "lon": -77.03253383333333, "fusion_lon": 0.0}, {"is_reserved": 0, "type": "electric_scooter", "fusion_lat": 0.0, "is_disabled": 0, "rental_uris": {"ios": "https://dc.lft.to/lastmile_qr_scan", "android": "https://dc.lft.to/lastmile_qr_scan"}, "bike_id": "61ae84e58d739b8a8cf9da53c761944c", "lat": 38.93985383333333, "name": "61ae84e58d739b8a8cf9da53c761944c", "lon": -77.01907583333333, "fusion_lon": 0.0}, {"is_reserved": 0, "type": "electric_scooter", "fusion_lat": 0.0, "is_disabled": 0, "rental_uris": {"ios": "https://dc.lft.to/lastmile_qr_scan", "android": "https://dc.lft.to/lastmile_qr_scan"}, "bike_id": "70ad64d3d72177ff5bdeda43e718ee15", "lat": 38.92617466666667, "name": "70ad64d3d72177ff5bdeda43e718ee15", "lon": -77.02159583333334, "fusion_lon": 0.0}, {"is_reserved": 0, "type": "electric_scooter", "fusion_lat": 0.0, "is_disabled": 0, "rental_uris": {"ios": "https://dc.lft.to/lastmile_qr_scan", "android": "https://dc.lft.to/lastmile_qr_scan"}, "bike_id": "1f9db793e61d451957afd12ea6f4c071", "lat": 38.898469166666665, "name": "1f9db793e61d451957afd12ea6f4c071", "lon": -77.021864, "fusion_lon": 0.0}, {"is_reserved": 0, "type": "electric_scooter", "fusion_lat": 0.0, "is_disabled": 0, "rental_uris": {"ios": "https://dc.lft.to/lastmile_qr_scan", "android": "https://dc.lft.to/lastmile_qr_scan"}, "bike_id": "c5bcedc40e3285c26010a83df5a0a2dc", "lat": 38.957428666666665, "name": "c5bcedc40e3285c26010a83df5a0a2dc", "lon": -77.02321383333333, "fusion_lon": 0.0}, {"is_reserved": 0, "type": "electric_bike", "fusion_lat": 0.0, "is_disabled": 0, "rental_uris": {"ios": "https://dc.lft.to/lastmile_qr_scan", "android": "https://dc.lft.to/lastmile_qr_scan"}, "bike_id": "12f4ae6b93e4f0e24e50079eb769c3f7", "lat": 38.9416615, "name": "12f4ae6b93e4f0e24e50079eb769c3f7", "lon": -76.99408483333333, "fusion_lon": 0.0}, {"is_reserved": 0, "type": "electric_scooter", "fusion_lat": 0.0, "is_disabled": 0, "rental_uris": {"ios": "https://dc.lft.to/lastmile_qr_scan", "android": "https://dc.lft.to/lastmile_qr_scan"}, "bike_id": "88a228cc0ff755b41c7fea5bcbb7d7b3", "lat": 38.900158166666664, "name": "88a228cc0ff755b41c7fea5bcbb7d7b3", "lon": -76.982356, "fusion_lon": 0.0}, {"is_reserved": 0, "type": "electric_scooter", "fusion_lat": 0.0, "is_disabled": 0, "rental_uris": {"ios": "https://dc.lft.to/lastmile_qr_scan", "android": "https://dc.lft.to/lastmile_qr_scan"}, "bike_id": "f804a8a6e0930470c859b19f89255cc8", "lat": 38.923468666666665, "name": "f804a8a6e0930470c859b19f89255cc8", "lon": -77.0349675, "fusion_lon": 0.0}, {"is_reserved": 0, "type": "electric_bike", "fusion_lat": 0.0, "is_disabled": 0, "rental_uris": {"ios": "https://dc.lft.to/lastmile_qr_scan", "android": "https://dc.lft.to/lastmile_qr_scan"}, "bike_id": "5d9f5a806c0b793224b326a0f50dce90", "lat": 38.952295166666666, "name": "5d9f5a806c0b793224b326a0f50dce90", "lon": -77.01189483333333, "fusion_lon": 0.0}, {"is_reserved": 0, "type": "electric_scooter", "fusion_lat": 0.0, "is_disabled": 0, "rental_uris": {"ios": "https://dc.lft.to/lastmile_qr_scan", "android": "https://dc.lft.to/lastmile_qr_scan"}, "bike_id": "4424370c5e1d4f8c106a44c17a9df9c1", "lat": 38.904275, "name": "4424370c5e1d4f8c106a44c17a9df9c1", "lon": -77.029569, "fusion_lon": 0.0}, {"is_reserved": 0, "type": "electric_scooter", "fusion_lat": 0.0, "is_disabled": 0, "rental_uris": {"ios": "https://dc.lft.to/lastmile_qr_scan", "android": "https://dc.lft.to/lastmile_qr_scan"}, "bike_id": "15a56dadf325dd2d9647994f969c339a", "lat": 38.915414, "name": "15a56dadf325dd2d9647994f969c339a", "lon": -77.07544266666666, "fusion_lon": 0.0}, {"is_reserved": 0, "type": "electric_scooter", "fusion_lat": 0.0, "is_disabled": 0, "rental_uris": {"ios": "https://dc.lft.to/lastmile_qr_scan", "android": "https://dc.lft.to/lastmile_qr_scan"}, "bike_id": "4b6aa200c206f57c56033d572f746522", "lat": 38.893671499999996, "name": "4b6aa200c206f57c56033d572f746522", "lon": -77.0447635, "fusion_lon": 0.0}, {"is_reserved": 0, "type": "electric_scooter", "fusion_lat": 0.0, "is_disabled": 0, "rental_uris": {"ios": "https://dc.lft.to/lastmile_qr_scan", "android": "https://dc.lft.to/lastmile_qr_scan"}, "bike_id": "09ba87ea511be95365abdc866e90c131", "lat": 38.912598333333335, "name": "09ba87ea511be95365abdc866e90c131", "lon": -77.0479225, "fusion_lon": 0.0}, {"is_reserved": 0, "type": "electric_scooter", "fusion_lat": 0.0, "is_disabled": 0, "rental_uris": {"ios": "https://dc.lft.to/lastmile_qr_scan", "android": "https://dc.lft.to/lastmile_qr_scan"}, "bike_id": "a74f9dedf971f4f34668049dfd852281", "lat": 38.8757215, "name": "a74f9dedf971f4f34668049dfd852281", "lon": -77.00600933333334, "fusion_lon": 0.0}, {"is_reserved": 0, "type": "electric_bike", "fusion_lat": 0.0, "is_disabled": 0, "rental_uris": {"ios": "https://dc.lft.to/lastmile_qr_scan", "android": "https://dc.lft.to/lastmile_qr_scan"}, "bike_id": "63747e2c188fc56943d8a5b0386e4829", "lat": 39.004477666666666, "name": "63747e2c188fc56943d8a5b0386e4829", "lon": -76.90115716666666, "fusion_lon": 0.0}, {"is_reserved": 0, "type": "electric_scooter", "fusion_lat": 0.0, "is_disabled": 0, "rental_uris": {"ios": "https://dc.lft.to/lastmile_qr_scan", "android": "https://dc.lft.to/lastmile_qr_scan"}, "bike_id": "5bfd83226ea8781c0d4facc1f408c85f", "lat": 38.8922655, "name": "5bfd83226ea8781c0d4facc1f408c85f", "lon": -77.0222045, "fusion_lon": 0.0}, {"is_reserved": 0, "type": "electric_scooter", "fusion_lat": 0.0, "is_disabled": 0, "rental_uris": {"ios": "https://dc.lft.to/lastmile_qr_scan", "android": "https://dc.lft.to/lastmile_qr_scan"}, "bike_id": "948d51a913fa6b485e3406f6a1411658", "lat": 38.93092733333334, "name": "948d51a913fa6b485e3406f6a1411658", "lon": -77.034427, "fusion_lon": 0.0}, {"is_reserved": 0, "type": "electric_scooter", "fusion_lat": 0.0, "is_disabled": 0, "rental_uris": {"ios": "https://dc.lft.to/lastmile_qr_scan", "android": "https://dc.lft.to/lastmile_qr_scan"}, "bike_id": "c3cfc11bbfc227be25dcf25cebdc4a7f", "lat": 38.91637983333333, "name": "c3cfc11bbfc227be25dcf25cebdc4a7f", "lon": -77.03203933333333, "fusion_lon": 0.0}, {"is_reserved": 0, "type": "electric_scooter", "fusion_lat": 0.0, "is_disabled": 0, "rental_uris": {"ios": "https://dc.lft.to/lastmile_qr_scan", "android": "https://dc.lft.to/lastmile_qr_scan"}, "bike_id": "5862c4dcc18df13c3dcfd1461a119754", "lat": 38.936868, "name": "5862c4dcc18df13c3dcfd1461a119754", "lon": -77.05627233333334, "fusion_lon": 0.0}, {"is_reserved": 0, "type": "electric_scooter", "fusion_lat": 0.0, "is_disabled": 0, "rental_uris": {"ios": "https://dc.lft.to/lastmile_qr_scan", "android": "https://dc.lft.to/lastmile_qr_scan"}, "bike_id": "7934be937561444a4b2f61e9ba67e96b", "lat": 38.916166, "name": "7934be937561444a4b2f61e9ba67e96b", "lon": -77.03197, "fusion_lon": 0.0}, {"is_reserved": 0, "type": "electric_scooter", "fusion_lat": 0.0, "is_disabled": 0, "rental_uris": {"ios": "https://dc.lft.to/lastmile_qr_scan", "android": "https://dc.lft.to/lastmile_qr_scan"}, "bike_id": "083f7e06dc0135d21138f42dfcaf0350", "lat": 38.9193105, "name": "083f7e06dc0135d21138f42dfcaf0350", "lon": -77.0317405, "fusion_lon": 0.0}, {"is_reserved": 0, "type": "electric_scooter", "fusion_lat": 0.0, "is_disabled": 0, "rental_uris": {"ios": "https://dc.lft.to/lastmile_qr_scan", "android": "https://dc.lft.to/lastmile_qr_scan"}, "bike_id": "9a57eeac24ceac5cff76246ed53df04d", "lat": 38.92156816666667, "name": "9a57eeac24ceac5cff76246ed53df04d", "lon": -77.03509116666666, "fusion_lon": 0.0}, {"is_reserved": 0, "type": "electric_scooter", "fusion_lat": 0.0, "is_disabled": 0, "rental_uris": {"ios": "https://dc.lft.to/lastmile_qr_scan", "android": "https://dc.lft.to/lastmile_qr_scan"}, "bike_id": "1bf5292fad675894aa9e103be2bb2f9b", "lat": 38.9076295, "name": "1bf5292fad675894aa9e103be2bb2f9b", "lon": -77.03074833333334, "fusion_lon": 0.0}, {"is_reserved": 0, "type": "electric_scooter", "fusion_lat": 0.0, "is_disabled": 0, "rental_uris": {"ios": "https://dc.lft.to/lastmile_qr_scan", "android": "https://dc.lft.to/lastmile_qr_scan"}, "bike_id": "fd2692082631ad1e7da7a178c1683d13", "lat": 38.904738333333334, "name": "fd2692082631ad1e7da7a178c1683d13", "lon": -77.035489, "fusion_lon": 0.0}, {"is_reserved": 0, "type": "electric_scooter", "fusion_lat": 0.0, "is_disabled": 0, "rental_uris": {"ios": "https://dc.lft.to/lastmile_qr_scan", "android": "https://dc.lft.to/lastmile_qr_scan"}, "bike_id": "778c9d8f32882ef75d43b26bd4607b2a", "lat": 38.90246483333333, "name": "778c9d8f32882ef75d43b26bd4607b2a", "lon": -77.02006416666667, "fusion_lon": 0.0}, {"is_reserved": 0, "type": "electric_scooter", "fusion_lat": 0.0, "is_disabled": 0, "rental_uris": {"ios": "https://dc.lft.to/lastmile_qr_scan", "android": "https://dc.lft.to/lastmile_qr_scan"}, "bike_id": "c925ec7464f005155ab0e232924c580c", "lat": 38.901188, "name": "c925ec7464f005155ab0e232924c580c", "lon": -77.03447183333333, "fusion_lon": 0.0}, {"is_reserved": 0, "type": "electric_scooter", "fusion_lat": 0.0, "is_disabled": 0, "rental_uris": {"ios": "https://dc.lft.to/lastmile_qr_scan", "android": "https://dc.lft.to/lastmile_qr_scan"}, "bike_id": "d5974d97b52c3ba2e70c0d277d68e0ff", "lat": 38.936107166666666, "name": "d5974d97b52c3ba2e70c0d277d68e0ff", "lon": -77.05587666666666, "fusion_lon": 0.0}, {"is_reserved": 0, "type": "electric_scooter", "fusion_lat": 0.0, "is_disabled": 0, "rental_uris": {"ios": "https://dc.lft.to/lastmile_qr_scan", "android": "https://dc.lft.to/lastmile_qr_scan"}, "bike_id": "162eac8be15eddace4d5c459ce3cc241", "lat": 38.8974235, "name": "162eac8be15eddace4d5c459ce3cc241", "lon": -77.02804216666667, "fusion_lon": 0.0}, {"is_reserved": 0, "type": "electric_bike", "fusion_lat": 0.0, "is_disabled": 0, "rental_uris": {"ios": "https://dc.lft.to/lastmile_qr_scan", "android": "https://dc.lft.to/lastmile_qr_scan"}, "bike_id": "f0fa9b6bda595e8284ce444e3fb01c38", "lat": 38.98285516666667, "name": "f0fa9b6bda595e8284ce444e3fb01c38", "lon": -76.976399, "fusion_lon": 0.0}, {"is_reserved": 0, "type": "electric_scooter", "fusion_lat": 0.0, "is_disabled": 0, "rental_uris": {"ios": "https://dc.lft.to/lastmile_qr_scan", "android": "https://dc.lft.to/lastmile_qr_scan"}, "bike_id": "b2d0d6996d1c2dcac627a6157ecfbdcd", "lat": 38.91827383333333, "name": "b2d0d6996d1c2dcac627a6157ecfbdcd", "lon": -77.02693966666666, "fusion_lon": 0.0}, {"is_reserved": 0, "type": "electric_bike", "fusion_lat": 0.0, "is_disabled": 0, "rental_uris": {"ios": "https://dc.lft.to/lastmile_qr_scan", "android": "https://dc.lft.to/lastmile_qr_scan"}, "bike_id": "8ddfdedd2713376d74f3b1ef1535ecce", "lat": 38.910418666666665, "name": "8ddfdedd2713376d74f3b1ef1535ecce", "lon": -77.05931083333333, "fusion_lon": 0.0}, {"is_reserved": 0, "type": "electric_bike", "fusion_lat": 0.0, "is_disabled": 0, "rental_uris": {"ios": "https://dc.lft.to/lastmile_qr_scan", "android": "https://dc.lft.to/lastmile_qr_scan"}, "bike_id": "96e5951f9d64e63633dbdaf4a34f2e13", "lat": 39.02299133333333, "name": "96e5951f9d64e63633dbdaf4a34f2e13", "lon": -77.02107016666666, "fusion_lon": 0.0}, {"is_reserved": 0, "type": "electric_bike", "fusion_lat": 0.0, "is_disabled": 0, "rental_uris": {"ios": "https://dc.lft.to/lastmile_qr_scan", "android": "https://dc.lft.to/lastmile_qr_scan"}, "bike_id": "cb353dc4de0fd897172aa53363a24dad", "lat": 38.974792666666666, "name": "cb353dc4de0fd897172aa53363a24dad", "lon": -76.986712, "fusion_lon": 0.0}, {"is_reserved": 0, "type": "electric_scooter", "fusion_lat": 0.0, "is_disabled": 0, "rental_uris": {"ios": "https://dc.lft.to/lastmile_qr_scan", "android": "https://dc.lft.to/lastmile_qr_scan"}, "bike_id": "576e1705aa02c9a4c45a9c08ee4c06ec", "lat": 38.91406716666667, "name": "576e1705aa02c9a4c45a9c08ee4c06ec", "lon": -77.045704, "fusion_lon": 0.0}, {"is_reserved": 0, "type": "electric_scooter", "fusion_lat": 0.0, "is_disabled": 0, "rental_uris": {"ios": "https://dc.lft.to/lastmile_qr_scan", "android": "https://dc.lft.to/lastmile_qr_scan"}, "bike_id": "3106edbb8f51b426f825312652a63c5e", "lat": 38.89213566666667, "name": "3106edbb8f51b426f825312652a63c5e", "lon": -76.99933633333333, "fusion_lon": 0.0}, {"is_reserved": 0, "type": "electric_bike", "fusion_lat": 0.0, "is_disabled": 0, "rental_uris": {"ios": "https://dc.lft.to/lastmile_qr_scan", "android": "https://dc.lft.to/lastmile_qr_scan"}, "bike_id": "58642b3ace92f1ab09a19c5931115481", "lat": 38.840907, "name": "58642b3ace92f1ab09a19c5931115481", "lon": -76.97032216666666, "fusion_lon": 0.0}, {"is_reserved": 0, "type": "electric_bike", "fusion_lat": 0.0, "is_disabled": 0, "rental_uris": {"ios": "https://dc.lft.to/lastmile_qr_scan", "android": "https://dc.lft.to/lastmile_qr_scan"}, "bike_id": "278ae1ee5ae7dfe361ae17671a2f10be", "lat": 38.894248833333336, "name": "278ae1ee5ae7dfe361ae17671a2f10be", "lon": -77.09442816666666, "fusion_lon": 0.0}, {"is_reserved": 0, "type": "electric_scooter", "fusion_lat": 0.0, "is_disabled": 0, "rental_uris": {"ios": "https://dc.lft.to/lastmile_qr_scan", "android": "https://dc.lft.to/lastmile_qr_scan"}, "bike_id": "fb77cd700d40365710c6494b7bf4f1e3", "lat": 38.89960883333333, "name": "fb77cd700d40365710c6494b7bf4f1e3", "lon": -77.0475285, "fusion_lon": 0.0}, {"is_reserved": 0, "type": "electric_bike", "fusion_lat": 0.0, "is_disabled": 0, "rental_uris": {"ios": "https://dc.lft.to/lastmile_qr_scan", "android": "https://dc.lft.to/lastmile_qr_scan"}, "bike_id": "c054455f347d737bdf36f5c1bf057ed3", "lat": 38.834941, "name": "c054455f347d737bdf36f5c1bf057ed3", "lon": -77.00435916666666, "fusion_lon": 0.0}, {"is_reserved": 0, "type": "electric_scooter", "fusion_lat": 0.0, "is_disabled": 0, "rental_uris": {"ios": "https://dc.lft.to/lastmile_qr_scan", "android": "https://dc.lft.to/lastmile_qr_scan"}, "bike_id": "67a2c6d51877e57859cf6472f2c23a90", "lat": 38.91699416666667, "name": "67a2c6d51877e57859cf6472f2c23a90", "lon": -77.03239016666667, "fusion_lon": 0.0}, {"is_reserved": 0, "type": "electric_scooter", "fusion_lat": 0.0, "is_disabled": 0, "rental_uris": {"ios": "https://dc.lft.to/lastmile_qr_scan", "android": "https://dc.lft.to/lastmile_qr_scan"}, "bike_id": "b8f7215034b121768c82f852616a16b3", "lat": 38.90793866666667, "name": "b8f7215034b121768c82f852616a16b3", "lon": -77.00195933333333, "fusion_lon": 0.0}, {"is_reserved": 0, "type": "electric_scooter", "fusion_lat": 0.0, "is_disabled": 0, "rental_uris": {"ios": "https://dc.lft.to/lastmile_qr_scan", "android": "https://dc.lft.to/lastmile_qr_scan"}, "bike_id": "2fed0dfbe91c15080d47a49d4d41aa3b", "lat": 38.89845033333334, "name": "2fed0dfbe91c15080d47a49d4d41aa3b", "lon": -77.01878883333333, "fusion_lon": 0.0}, {"is_reserved": 0, "type": "electric_scooter", "fusion_lat": 0.0, "is_disabled": 0, "rental_uris": {"ios": "https://dc.lft.to/lastmile_qr_scan", "android": "https://dc.lft.to/lastmile_qr_scan"}, "bike_id": "4806442a3d226b566261a9cd7358183c", "lat": 38.906618, "name": "4806442a3d226b566261a9cd7358183c", "lon": -77.01624816666667, "fusion_lon": 0.0}, {"is_reserved": 0, "type": "electric_bike", "fusion_lat": 0.0, "is_disabled": 0, "rental_uris": {"ios": "https://dc.lft.to/lastmile_qr_scan", "android": "https://dc.lft.to/lastmile_qr_scan"}, "bike_id": "0357cf735b7426340483c98dea58ac0e", "lat": 38.982494, "name": "0357cf735b7426340483c98dea58ac0e", "lon": -77.09568233333333, "fusion_lon": 0.0}, {"is_reserved": 0, "type": "electric_scooter", "fusion_lat": 0.0, "is_disabled": 0, "rental_uris": {"ios": "https://dc.lft.to/lastmile_qr_scan", "android": "https://dc.lft.to/lastmile_qr_scan"}, "bike_id": "fb79944e76ccf3ace5394a3b3dbb3349", "lat": 38.91261133333333, "name": "fb79944e76ccf3ace5394a3b3dbb3349", "lon": -77.00993166666666, "fusion_lon": 0.0}, {"is_reserved": 0, "type": "electric_scooter", "fusion_lat": 0.0, "is_disabled": 0, "rental_uris": {"ios": "https://dc.lft.to/lastmile_qr_scan", "android": "https://dc.lft.to/lastmile_qr_scan"}, "bike_id": "062dfddfd84e26856257a9f4df1a51fa", "lat": 38.900315166666665, "name": "062dfddfd84e26856257a9f4df1a51fa", "lon": -77.01993466666667, "fusion_lon": 0.0}, {"is_reserved": 0, "type": "electric_scooter", "fusion_lat": 0.0, "is_disabled": 0, "rental_uris": {"ios": "https://dc.lft.to/lastmile_qr_scan", "android": "https://dc.lft.to/lastmile_qr_scan"}, "bike_id": "b107ea576dbbe1d243e57920f23c7932", "lat": 38.95638833333334, "name": "b107ea576dbbe1d243e57920f23c7932", "lon": -77.03631433333334, "fusion_lon": 0.0}, {"is_reserved": 0, "type": "electric_scooter", "fusion_lat": 0.0, "is_disabled": 0, "rental_uris": {"ios": "https://dc.lft.to/lastmile_qr_scan", "android": "https://dc.lft.to/lastmile_qr_scan"}, "bike_id": "b04992ea453009b8c67f9e3e394bb20d", "lat": 38.930023166666665, "name": "b04992ea453009b8c67f9e3e394bb20d", "lon": -77.03794733333334, "fusion_lon": 0.0}, {"is_reserved": 0, "type": "electric_scooter", "fusion_lat": 0.0, "is_disabled": 0, "rental_uris": {"ios": "https://dc.lft.to/lastmile_qr_scan", "android": "https://dc.lft.to/lastmile_qr_scan"}, "bike_id": "6ef674a48119d5c39991d9a266914379", "lat": 38.89338566666667, "name": "6ef674a48119d5c39991d9a266914379", "lon": -76.928911, "fusion_lon": 0.0}, {"is_reserved": 0, "type": "electric_scooter", "fusion_lat": 0.0, "is_disabled": 0, "rental_uris": {"ios": "https://dc.lft.to/lastmile_qr_scan", "android": "https://dc.lft.to/lastmile_qr_scan"}, "bike_id": "3ff672f40f003e1b24bc423abe9a4b9a", "lat": 38.917263166666665, "name": "3ff672f40f003e1b24bc423abe9a4b9a", "lon": -77.03459416666666, "fusion_lon": 0.0}, {"is_reserved": 0, "type": "electric_scooter", "fusion_lat": 0.0, "is_disabled": 0, "rental_uris": {"ios": "https://dc.lft.to/lastmile_qr_scan", "android": "https://dc.lft.to/lastmile_qr_scan"}, "bike_id": "8302ac7f7db1d1619bde3f6afaa7e316", "lat": 38.899629833333336, "name": "8302ac7f7db1d1619bde3f6afaa7e316", "lon": -77.01510166666667, "fusion_lon": 0.0}, {"is_reserved": 0, "type": "electric_scooter", "fusion_lat": 0.0, "is_disabled": 0, "rental_uris": {"ios": "https://dc.lft.to/lastmile_qr_scan", "android": "https://dc.lft.to/lastmile_qr_scan"}, "bike_id": "ec8b6b3337384e539035c37da5e53dae", "lat": 38.937691, "name": "ec8b6b3337384e539035c37da5e53dae", "lon": -77.02662483333333, "fusion_lon": 0.0}, {"is_reserved": 0, "type": "electric_scooter", "fusion_lat": 0.0, "is_disabled": 0, "rental_uris": {"ios": "https://dc.lft.to/lastmile_qr_scan", "android": "https://dc.lft.to/lastmile_qr_scan"}, "bike_id": "aec7703474c94ddc2fcfde713a2e3509", "lat": 38.942792833333336, "name": "aec7703474c94ddc2fcfde713a2e3509", "lon": -77.08192866666667, "fusion_lon": 0.0}, {"is_reserved": 0, "type": "electric_scooter", "fusion_lat": 0.0, "is_disabled": 0, "rental_uris": {"ios": "https://dc.lft.to/lastmile_qr_scan", "android": "https://dc.lft.to/lastmile_qr_scan"}, "bike_id": "5c88376cd8feae9a8e5849f14f1ba51a", "lat": 38.923486833333335, "name": "5c88376cd8feae9a8e5849f14f1ba51a", "lon": -76.99867816666666, "fusion_lon": 0.0}, {"is_reserved": 0, "type": "electric_scooter", "fusion_lat": 0.0, "is_disabled": 0, "rental_uris": {"ios": "https://dc.lft.to/lastmile_qr_scan", "android": "https://dc.lft.to/lastmile_qr_scan"}, "bike_id": "65fea16ffbf249e790989518f88304ce", "lat": 38.94448633333333, "name": "65fea16ffbf249e790989518f88304ce", "lon": -77.02902983333334, "fusion_lon": 0.0}, {"is_reserved": 0, "type": "electric_scooter", "fusion_lat": 0.0, "is_disabled": 0, "rental_uris": {"ios": "https://dc.lft.to/lastmile_qr_scan", "android": "https://dc.lft.to/lastmile_qr_scan"}, "bike_id": "aa2da140753efc37494aa915d33867e2", "lat": 38.92212766666667, "name": "aa2da140753efc37494aa915d33867e2", "lon": -77.01873683333334, "fusion_lon": 0.0}, {"is_reserved": 0, "type": "electric_scooter", "fusion_lat": 0.0, "is_disabled": 0, "rental_uris": {"ios": "https://dc.lft.to/lastmile_qr_scan", "android": "https://dc.lft.to/lastmile_qr_scan"}, "bike_id": "3826ec6f962642fb774d58c8c6c45a48", "lat": 38.92265283333333, "name": "3826ec6f962642fb774d58c8c6c45a48", "lon": -77.036649, "fusion_lon": 0.0}, {"is_reserved": 0, "type": "electric_scooter", "fusion_lat": 0.0, "is_disabled": 0, "rental_uris": {"ios": "https://dc.lft.to/lastmile_qr_scan", "android": "https://dc.lft.to/lastmile_qr_scan"}, "bike_id": "be010e3bce08b5e8018d2a449d18213e", "lat": 38.93114766666667, "name": "be010e3bce08b5e8018d2a449d18213e", "lon": -77.03606833333333, "fusion_lon": 0.0}, {"is_reserved": 0, "type": "electric_scooter", "fusion_lat": 0.0, "is_disabled": 0, "rental_uris": {"ios": "https://dc.lft.to/lastmile_qr_scan", "android": "https://dc.lft.to/lastmile_qr_scan"}, "bike_id": "b09841ecc21fedb1bc60d8e969ebfca4", "lat": 38.874709333333335, "name": "b09841ecc21fedb1bc60d8e969ebfca4", "lon": -77.00521333333333, "fusion_lon": 0.0}, {"is_reserved": 0, "type": "electric_scooter", "fusion_lat": 0.0, "is_disabled": 0, "rental_uris": {"ios": "https://dc.lft.to/lastmile_qr_scan", "android": "https://dc.lft.to/lastmile_qr_scan"}, "bike_id": "33257154eb7499d3a078a28fddf40720", "lat": 38.8818985, "name": "33257154eb7499d3a078a28fddf40720", "lon": -77.00892783333333, "fusion_lon": 0.0}, {"is_reserved": 0, "type": "electric_scooter", "fusion_lat": 0.0, "is_disabled": 0, "rental_uris": {"ios": "https://dc.lft.to/lastmile_qr_scan", "android": "https://dc.lft.to/lastmile_qr_scan"}, "bike_id": "11942fef92847d3709d1e5b2ca082950", "lat": 38.8886045, "name": "11942fef92847d3709d1e5b2ca082950", "lon": -76.97903283333333, "fusion_lon": 0.0}, {"is_reserved": 0, "type": "electric_scooter", "fusion_lat": 0.0, "is_disabled": 0, "rental_uris": {"ios": "https://dc.lft.to/lastmile_qr_scan", "android": "https://dc.lft.to/lastmile_qr_scan"}, "bike_id": "aeb4a21cd32f7a2879615ae719d1e612", "lat": 38.876410166666666, "name": "aeb4a21cd32f7a2879615ae719d1e612", "lon": -76.9929275, "fusion_lon": 0.0}, {"is_reserved": 0, "type": "electric_scooter", "fusion_lat": 0.0, "is_disabled": 0, "rental_uris": {"ios": "https://dc.lft.to/lastmile_qr_scan", "android": "https://dc.lft.to/lastmile_qr_scan"}, "bike_id": "28870e9c1a36403e968874d5ede66d2b", "lat": 38.932122, "name": "28870e9c1a36403e968874d5ede66d2b", "lon": -77.03265133333333, "fusion_lon": 0.0}, {"is_reserved": 0, "type": "electric_scooter", "fusion_lat": 0.0, "is_disabled": 0, "rental_uris": {"ios": "https://dc.lft.to/lastmile_qr_scan", "android": "https://dc.lft.to/lastmile_qr_scan"}, "bike_id": "e9e8486b5c66fe90d3a91e829de89b4b", "lat": 38.915943166666665, "name": "e9e8486b5c66fe90d3a91e829de89b4b", "lon": -76.98282833333333, "fusion_lon": 0.0}, {"is_reserved": 0, "type": "electric_bike", "fusion_lat": 0.0, "is_disabled": 0, "rental_uris": {"ios": "https://dc.lft.to/lastmile_qr_scan", "android": "https://dc.lft.to/lastmile_qr_scan"}, "bike_id": "50cb77aaf5afab9e655a8e162f624622", "lat": 38.8316135, "name": "50cb77aaf5afab9e655a8e162f624622", "lon": -76.995882, "fusion_lon": 0.0}, {"is_reserved": 0, "type": "electric_scooter", "fusion_lat": 0.0, "is_disabled": 0, "rental_uris": {"ios": "https://dc.lft.to/lastmile_qr_scan", "android": "https://dc.lft.to/lastmile_qr_scan"}, "bike_id": "5c4539f7288ea03bebb04ba7d1659984", "lat": 38.874769666666666, "name": "5c4539f7288ea03bebb04ba7d1659984", "lon": -77.00490066666667, "fusion_lon": 0.0}, {"is_reserved": 0, "type": "electric_scooter", "fusion_lat": 0.0, "is_disabled": 0, "rental_uris": {"ios": "https://dc.lft.to/lastmile_qr_scan", "android": "https://dc.lft.to/lastmile_qr_scan"}, "bike_id": "fabec5d0b79cd00e87d6a92a0c51f896", "lat": 38.9181615, "name": "fabec5d0b79cd00e87d6a92a0c51f896", "lon": -77.02479633333333, "fusion_lon": 0.0}, {"is_reserved": 0, "type": "electric_scooter", "fusion_lat": 0.0, "is_disabled": 0, "rental_uris": {"ios": "https://dc.lft.to/lastmile_qr_scan", "android": "https://dc.lft.to/lastmile_qr_scan"}, "bike_id": "1e234e19ad02db4ed3ba99cde27b46b0", "lat": 38.935142666666664, "name": "1e234e19ad02db4ed3ba99cde27b46b0", "lon": -77.0568775, "fusion_lon": 0.0}, {"is_reserved": 0, "type": "electric_scooter", "fusion_lat": 0.0, "is_disabled": 0, "rental_uris": {"ios": "https://dc.lft.to/lastmile_qr_scan", "android": "https://dc.lft.to/lastmile_qr_scan"}, "bike_id": "f1c3fe3e88ebdb57a43992e47be3bdab", "lat": 38.907901833333334, "name": "f1c3fe3e88ebdb57a43992e47be3bdab", "lon": -77.02966016666667, "fusion_lon": 0.0}, {"is_reserved": 0, "type": "electric_scooter", "fusion_lat": 0.0, "is_disabled": 0, "rental_uris": {"ios": "https://dc.lft.to/lastmile_qr_scan", "android": "https://dc.lft.to/lastmile_qr_scan"}, "bike_id": "d203b99d463287e27a61bfc6c41d4c23", "lat": 38.9217265, "name": "d203b99d463287e27a61bfc6c41d4c23", "lon": -77.04011283333334, "fusion_lon": 0.0}, {"is_reserved": 0, "type": "electric_scooter", "fusion_lat": 0.0, "is_disabled": 0, "rental_uris": {"ios": "https://dc.lft.to/lastmile_qr_scan", "android": "https://dc.lft.to/lastmile_qr_scan"}, "bike_id": "ab27c1700606ba60099158c62af2f287", "lat": 38.91567233333333, "name": "ab27c1700606ba60099158c62af2f287", "lon": -77.0088145, "fusion_lon": 0.0}, {"is_reserved": 0, "type": "electric_scooter", "fusion_lat": 0.0, "is_disabled": 0, "rental_uris": {"ios": "https://dc.lft.to/lastmile_qr_scan", "android": "https://dc.lft.to/lastmile_qr_scan"}, "bike_id": "8a17ab2fe38db8e13f171da72fe2f1bb", "lat": 38.909142333333335, "name": "8a17ab2fe38db8e13f171da72fe2f1bb", "lon": -77.03517533333333, "fusion_lon": 0.0}, {"is_reserved": 0, "type": "electric_scooter", "fusion_lat": 0.0, "is_disabled": 0, "rental_uris": {"ios": "https://dc.lft.to/lastmile_qr_scan", "android": "https://dc.lft.to/lastmile_qr_scan"}, "bike_id": "f757e8de6416cf2e1d861ad1cb72c953", "lat": 38.9234275, "name": "f757e8de6416cf2e1d861ad1cb72c953", "lon": -77.0578455, "fusion_lon": 0.0}, {"is_reserved": 0, "type": "electric_scooter", "fusion_lat": 0.0, "is_disabled": 0, "rental_uris": {"ios": "https://dc.lft.to/lastmile_qr_scan", "android": "https://dc.lft.to/lastmile_qr_scan"}, "bike_id": "e0c496bfb94e43d7de5bee1c5c137580", "lat": 38.9193025, "name": "e0c496bfb94e43d7de5bee1c5c137580", "lon": -77.03174383333334, "fusion_lon": 0.0}, {"is_reserved": 0, "type": "electric_scooter", "fusion_lat": 0.0, "is_disabled": 0, "rental_uris": {"ios": "https://dc.lft.to/lastmile_qr_scan", "android": "https://dc.lft.to/lastmile_qr_scan"}, "bike_id": "66a190c590aa4fabede705333929f652", "lat": 38.9075805, "name": "66a190c590aa4fabede705333929f652", "lon": -77.04167166666667, "fusion_lon": 0.0}, {"is_reserved": 0, "type": "electric_scooter", "fusion_lat": 0.0, "is_disabled": 0, "rental_uris": {"ios": "https://dc.lft.to/lastmile_qr_scan", "android": "https://dc.lft.to/lastmile_qr_scan"}, "bike_id": "3dcaba18e3ef09914c80a7d4dc6f24e0", "lat": 38.89791183333333, "name": "3dcaba18e3ef09914c80a7d4dc6f24e0", "lon": -77.05012016666667, "fusion_lon": 0.0}, {"is_reserved": 0, "type": "electric_scooter", "fusion_lat": 0.0, "is_disabled": 0, "rental_uris": {"ios": "https://dc.lft.to/lastmile_qr_scan", "android": "https://dc.lft.to/lastmile_qr_scan"}, "bike_id": "ac9733f09e264ab88a5682c4c863a9b8", "lat": 38.9486465, "name": "ac9733f09e264ab88a5682c4c863a9b8", "lon": -77.07885133333333, "fusion_lon": 0.0}, {"is_reserved": 0, "type": "electric_scooter", "fusion_lat": 0.0, "is_disabled": 0, "rental_uris": {"ios": "https://dc.lft.to/lastmile_qr_scan", "android": "https://dc.lft.to/lastmile_qr_scan"}, "bike_id": "91b34d32528c2c23fb7fb56f277536ed", "lat": 38.916991, "name": "91b34d32528c2c23fb7fb56f277536ed", "lon": -77.03239433333333, "fusion_lon": 0.0}, {"is_reserved": 0, "type": "electric_scooter", "fusion_lat": 0.0, "is_disabled": 0, "rental_uris": {"ios": "https://dc.lft.to/lastmile_qr_scan", "android": "https://dc.lft.to/lastmile_qr_scan"}, "bike_id": "992739de9e706eba211a94ea33141322", "lat": 38.896971666666666, "name": "992739de9e706eba211a94ea33141322", "lon": -77.04350833333334, "fusion_lon": 0.0}, {"is_reserved": 0, "type": "electric_scooter", "fusion_lat": 0.0, "is_disabled": 0, "rental_uris": {"ios": "https://dc.lft.to/lastmile_qr_scan", "android": "https://dc.lft.to/lastmile_qr_scan"}, "bike_id": "7312ce963783935265d94d920d3a0110", "lat": 38.92722666666667, "name": "7312ce963783935265d94d920d3a0110", "lon": -77.0513985, "fusion_lon": 0.0}, {"is_reserved": 0, "type": "electric_scooter", "fusion_lat": 0.0, "is_disabled": 0, "rental_uris": {"ios": "https://dc.lft.to/lastmile_qr_scan", "android": "https://dc.lft.to/lastmile_qr_scan"}, "bike_id": "d6e27ce0407bc76f9fbbffddfb437626", "lat": 38.9229835, "name": "d6e27ce0407bc76f9fbbffddfb437626", "lon": -76.99774233333333, "fusion_lon": 0.0}, {"is_reserved": 0, "type": "electric_bike", "fusion_lat": 0.0, "is_disabled": 0, "rental_uris": {"ios": "https://dc.lft.to/lastmile_qr_scan", "android": "https://dc.lft.to/lastmile_qr_scan"}, "bike_id": "73fdc61c5ef69d52d374ef487623884d", "lat": 38.96900183333333, "name": "73fdc61c5ef69d52d374ef487623884d", "lon": -76.9556745, "fusion_lon": 0.0}, {"is_reserved": 0, "type": "electric_scooter", "fusion_lat": 0.0, "is_disabled": 0, "rental_uris": {"ios": "https://dc.lft.to/lastmile_qr_scan", "android": "https://dc.lft.to/lastmile_qr_scan"}, "bike_id": "4d0c5a096ac4f46c5652e43e34298490", "lat": 38.892574833333335, "name": "4d0c5a096ac4f46c5652e43e34298490", "lon": -77.03222116666667, "fusion_lon": 0.0}, {"is_reserved": 0, "type": "electric_scooter", "fusion_lat": 0.0, "is_disabled": 0, "rental_uris": {"ios": "https://dc.lft.to/lastmile_qr_scan", "android": "https://dc.lft.to/lastmile_qr_scan"}, "bike_id": "010371ac4c368d6001858e3009b1e0af", "lat": 38.898832666666664, "name": "010371ac4c368d6001858e3009b1e0af", "lon": -76.93176216666667, "fusion_lon": 0.0}, {"is_reserved": 0, "type": "electric_scooter", "fusion_lat": 0.0, "is_disabled": 0, "rental_uris": {"ios": "https://dc.lft.to/lastmile_qr_scan", "android": "https://dc.lft.to/lastmile_qr_scan"}, "bike_id": "8bf41386d07d9d938a82dca9769b879d", "lat": 38.8801465, "name": "8bf41386d07d9d938a82dca9769b879d", "lon": -76.99742566666667, "fusion_lon": 0.0}, {"is_reserved": 0, "type": "electric_scooter", "fusion_lat": 0.0, "is_disabled": 0, "rental_uris": {"ios": "https://dc.lft.to/lastmile_qr_scan", "android": "https://dc.lft.to/lastmile_qr_scan"}, "bike_id": "c04ea96d798b97926b75b84c2426f64b", "lat": 38.9133675, "name": "c04ea96d798b97926b75b84c2426f64b", "lon": -77.03042716666667, "fusion_lon": 0.0}, {"is_reserved": 0, "type": "electric_scooter", "fusion_lat": 0.0, "is_disabled": 0, "rental_uris": {"ios": "https://dc.lft.to/lastmile_qr_scan", "android": "https://dc.lft.to/lastmile_qr_scan"}, "bike_id": "7dfe86e7c676aeaeab3b9db286bef8b1", "lat": 38.915652, "name": "7dfe86e7c676aeaeab3b9db286bef8b1", "lon": -77.0367505, "fusion_lon": 0.0}, {"is_reserved": 0, "type": "electric_scooter", "fusion_lat": 0.0, "is_disabled": 0, "rental_uris": {"ios": "https://dc.lft.to/lastmile_qr_scan", "android": "https://dc.lft.to/lastmile_qr_scan"}, "bike_id": "4bc611a967373133acba6df3c16c3909", "lat": 38.9057045, "name": "4bc611a967373133acba6df3c16c3909", "lon": -77.0444505, "fusion_lon": 0.0}, {"is_reserved": 0, "type": "electric_scooter", "fusion_lat": 0.0, "is_disabled": 0, "rental_uris": {"ios": "https://dc.lft.to/lastmile_qr_scan", "android": "https://dc.lft.to/lastmile_qr_scan"}, "bike_id": "583f614f5c07aee26114ef7fb7e20219", "lat": 38.89225016666666, "name": "583f614f5c07aee26114ef7fb7e20219", "lon": -77.02216766666666, "fusion_lon": 0.0}, {"is_reserved": 0, "type": "electric_bike", "fusion_lat": 0.0, "is_disabled": 0, "rental_uris": {"ios": "https://dc.lft.to/lastmile_qr_scan", "android": "https://dc.lft.to/lastmile_qr_scan"}, "bike_id": "b283b615197e082a7e28c4209572ba3e", "lat": 38.964382666666666, "name": "b283b615197e082a7e28c4209572ba3e", "lon": -77.03187466666667, "fusion_lon": 0.0}, {"is_reserved": 0, "type": "electric_scooter", "fusion_lat": 0.0, "is_disabled": 0, "rental_uris": {"ios": "https://dc.lft.to/lastmile_qr_scan", "android": "https://dc.lft.to/lastmile_qr_scan"}, "bike_id": "ffab77329d76345576a70828d9d5c935", "lat": 38.91563033333333, "name": "ffab77329d76345576a70828d9d5c935", "lon": -77.03673966666666, "fusion_lon": 0.0}, {"is_reserved": 0, "type": "electric_bike", "fusion_lat": 0.0, "is_disabled": 0, "rental_uris": {"ios": "https://dc.lft.to/lastmile_qr_scan", "android": "https://dc.lft.to/lastmile_qr_scan"}, "bike_id": "3a976d4eedf77d3f9b382cab6a9354ed", "lat": 38.92535683333333, "name": "3a976d4eedf77d3f9b382cab6a9354ed", "lon": -77.07335883333333, "fusion_lon": 0.0}, {"is_reserved": 0, "type": "electric_scooter", "fusion_lat": 0.0, "is_disabled": 0, "rental_uris": {"ios": "https://dc.lft.to/lastmile_qr_scan", "android": "https://dc.lft.to/lastmile_qr_scan"}, "bike_id": "56fac0436ef2db2573125d3dce2fa561", "lat": 38.90269, "name": "56fac0436ef2db2573125d3dce2fa561", "lon": -77.01760733333333, "fusion_lon": 0.0}, {"is_reserved": 0, "type": "electric_scooter", "fusion_lat": 0.0, "is_disabled": 0, "rental_uris": {"ios": "https://dc.lft.to/lastmile_qr_scan", "android": "https://dc.lft.to/lastmile_qr_scan"}, "bike_id": "e37ac0f0cd315fb4c5e57a745f47173d", "lat": 38.936621, "name": "e37ac0f0cd315fb4c5e57a745f47173d", "lon": -77.06606483333333, "fusion_lon": 0.0}, {"is_reserved": 0, "type": "electric_scooter", "fusion_lat": 0.0, "is_disabled": 0, "rental_uris": {"ios": "https://dc.lft.to/lastmile_qr_scan", "android": "https://dc.lft.to/lastmile_qr_scan"}, "bike_id": "034c96c531c21de2771b2b03382df5ad", "lat": 38.89540316666667, "name": "034c96c531c21de2771b2b03382df5ad", "lon": -77.03351566666667, "fusion_lon": 0.0},