{"data": {"bikes": [{"is_disabled": 0, "is_reserved": 0, "fusion_lat": 0.0, "lat": 38.922533666666666, "fusion_lon": 0.0, "rental_uris": {"ios": "https://dc.lft.to/lastmile_qr_scan", "android": "https://dc.lft.to/lastmile_qr_scan"}, "lon": -77.03655816666667, "bike_id": "3be495e843a046c42d87c7878a116b63", "type": "electric_scooter", "name": "3be495e843a046c42d87c7878a116b63"}, {"is_disabled": 0, "is_reserved": 0, "fusion_lat": 0.0, "lat": 38.896362, "fusion_lon": 0.0, "rental_uris": {"ios": "https://dc.lft.to/lastmile_qr_scan", "android": "https://dc.lft.to/lastmile_qr_scan"}, "lon": -77.00755533333333, "bike_id": "d7a5ad2c6733c1146ccce0a86f5a8438", "type": "electric_scooter", "name": "d7a5ad2c6733c1146ccce0a86f5a8438"}, {"is_disabled": 0, "is_reserved": 0, "fusion_lat": 0.0, "lat": 38.8841625, "fusion_lon": 0.0, "rental_uris": {"ios": "https://dc.lft.to/lastmile_qr_scan", "android": "https://dc.lft.to/lastmile_qr_scan"}, "lon": -76.98356033333333, "bike_id": "74bbe7a66e24e304e1d0b217ac71b48f", "type": "electric_scooter", "name": "74bbe7a66e24e304e1d0b217ac71b48f"}, {"is_disabled": 0, "is_reserved": 0, "fusion_lat": 0.0, "lat": 38.892328, "fusion_lon": 0.0, "rental_uris": {"ios": "https://dc.lft.to/lastmile_qr_scan", "android": "https://dc.lft.to/lastmile_qr_scan"}, "lon": -77.0436165, "bike_id": "5a9d312af85330d1c94ebfff57003641", "type": "electric_scooter", "name": "5a9d312af85330d1c94ebfff57003641"}, {"is_disabled": 0, "is_reserved": 0, "fusion_lat": 0.0, "lat": 38.890331, "fusion_lon": 0.0, "rental_uris": {"ios": "https://dc.lft.to/lastmile_qr_scan", "android": "https://dc.lft.to/lastmile_qr_scan"}, "lon": -76.93753133333334, "bike_id": "8c590094a6795ee122b1e21d10463904", "type": "electric_scooter", "name": "8c590094a6795ee122b1e21d10463904"}, {"is_disabled": 0, "is_reserved": 0, "fusion_lat": 0.0, "lat": 38.924437166666664, "fusion_lon": 0.0, "rental_uris": {"ios": "https://dc.lft.to/lastmile_qr_scan", "android": "https://dc.lft.to/lastmile_qr_scan"}, "lon": -77.02021066666667, "bike_id": "95d903f720501ceda12585917c87005a", "type": "electric_scooter", "name": "95d903f720501ceda12585917c87005a"}, {"is_disabled": 0, "is_reserved": 0, "fusion_lat": 0.0, "lat": 38.898551, "fusion_lon": 0.0, "rental_uris": {"ios": "https://dc.lft.to/lastmile_qr_scan", "android": "https://dc.lft.to/lastmile_qr_scan"}, "lon": -77.04883816666667, "bike_id": "282bd466fb9de518cd8189a41f510ed2", "type": "electric_scooter", "name": "282bd466fb9de518cd8189a41f510ed2"}, {"is_disabled": 0, "is_reserved": 0, "fusion_lat": 0.0, "lat": 39.00532166666667, "fusion_lon": 0.0, "rental_uris": {"ios": "https://dc.lft.to/lastmile_qr_scan", "android": "https://dc.lft.to/lastmile_qr_scan"}, "lon": -77.10402683333334, "bike_id": "05f6c1933101f469e14feaf212efa0b5", "type": "electric_bike", "name": "05f6c1933101f469e14feaf212efa0b5"}, {"is_disabled": 0, "is_reserved": 0, "fusion_lat": 0.0, "lat": 38.8919945, "fusion_lon": 0.0, "rental_uris": {"ios": "https://dc.lft.to/lastmile_qr_scan", "android": "https://dc.lft.to/lastmile_qr_scan"}, "lon": -77.04397116666667, "bike_id": "542b41c4d889b6d672b5c9f9933806e0", "type": "electric_scooter", "name": "542b41c4d889b6d672b5c9f9933806e0"}, {"is_disabled": 0, "is_reserved": 0, "fusion_lat": 0.0, "lat": 38.90654883333333, "fusion_lon": 0.0, "rental_uris": {"ios": "https://dc.lft.to/lastmile_qr_scan", "android": "https://dc.lft.to/lastmile_qr_scan"}, "lon": -77.0099545, "bike_id": "778411dc30be315fcd9341c08f9ea5b7", "type": "electric_scooter", "name": "778411dc30be315fcd9341c08f9ea5b7"}, {"is_disabled": 0, "is_reserved": 0, "fusion_lat": 0.0, "lat": 38.90429066666667, "fusion_lon": 0.0, "rental_uris": {"ios": "https://dc.lft.to/lastmile_qr_scan", "android": "https://dc.lft.to/lastmile_qr_scan"}, "lon": -77.05480316666667, "bike_id": "46721d7a192637199a76d271f519c6f0", "type": "electric_scooter", "name": "46721d7a192637199a76d271f519c6f0"}, {"is_disabled": 0, "is_reserved": 0, "fusion_lat": 0.0, "lat": 38.97370316666667, "fusion_lon": 0.0, "rental_uris": {"ios": "https://dc.lft.to/lastmile_qr_scan", "android": "https://dc.lft.to/lastmile_qr_scan"}, "lon": -77.0187145, "bike_id": "f97f71c1e1374e72e90d049c083d17e4", "type": "electric_scooter", "name": "f97f71c1e1374e72e90d049c083d17e4"}, {"is_disabled": 0, "is_reserved": 0, "fusion_lat": 0.0, "lat": 38.88526683333333, "fusion_lon": 0.0, "rental_uris": {"ios": "https://dc.lft.to/lastmile_qr_scan", "android": "https://dc.lft.to/lastmile_qr_scan"}, "lon": -76.99620233333333, "bike_id": "964f981de208d875d8870a5777e00973", "type": "electric_scooter", "name": "964f981de208d875d8870a5777e00973"}, {"is_disabled": 0, "is_reserved": 0, "fusion_lat": 0.0, "lat": 38.87733866666667, "fusion_lon": 0.0, "rental_uris": {"ios": "https://dc.lft.to/lastmile_qr_scan", "android": "https://dc.lft.to/lastmile_qr_scan"}, "lon": -77.1487575, "bike_id": "00b451461d931824995379abad276d21", "type": "electric_bike", "name": "00b451461d931824995379abad276d21"}, {"is_disabled": 0, "is_reserved": 0, "fusion_lat": 0.0, "lat": 38.881034166666666, "fusion_lon": 0.0, "rental_uris": {"ios": "https://dc.lft.to/lastmile_qr_scan", "android": "https://dc.lft.to/lastmile_qr_scan"}, "lon": -77.01237116666667, "bike_id": "418f505ad4ce6b71141d27948cd675aa", "type": "electric_scooter", "name": "418f505ad4ce6b71141d27948cd675aa"}, {"is_disabled": 0, "is_reserved": 0, "fusion_lat": 0.0, "lat": 38.912673833333336, "fusion_lon": 0.0, "rental_uris": {"ios": "https://dc.lft.to/lastmile_qr_scan", "android": "https://dc.lft.to/lastmile_qr_scan"}, "lon": -77.03298883333333, "bike_id": "4ba5b917c504ba216593c7b3d8427440", "type": "electric_scooter", "name": "4ba5b917c504ba216593c7b3d8427440"}, {"is_disabled": 0, "is_reserved": 0, "fusion_lat": 0.0, "lat": 38.868878, "fusion_lon": 0.0, "rental_uris": {"ios": "https://dc.lft.to/lastmile_qr_scan", "android": "https://dc.lft.to/lastmile_qr_scan"}, "lon": -76.9900145, "bike_id": "71beb4fc531aaf1704653ecda1132eb5", "type": "electric_scooter", "name": "71beb4fc531aaf1704653ecda1132eb5"}, {"is_disabled": 0, "is_reserved": 0, "fusion_lat": 0.0, "lat": 38.895944666666665, "fusion_lon": 0.0, "rental_uris": {"ios": "https://dc.lft.to/lastmile_qr_scan", "android": "https://dc.lft.to/lastmile_qr_scan"}, "lon": -76.98327283333333, "bike_id": "fc3c6a861efd1a322991dcf490b8ef39", "type": "electric_scooter", "name": "fc3c6a861efd1a322991dcf490b8ef39"}, {"is_disabled": 0, "is_reserved": 0, "fusion_lat": 0.0, "lat": 38.92114816666667, "fusion_lon": 0.0, "rental_uris": {"ios": "https://dc.lft.to/lastmile_qr_scan", "android": "https://dc.lft.to/lastmile_qr_scan"}, "lon": -77.03174183333333, "bike_id": "b51ae76515ecba91c2eb537722ad1595", "type": "electric_scooter", "name": "b51ae76515ecba91c2eb537722ad1595"}, {"is_disabled": 0, "is_reserved": 0, "fusion_lat": 0.0, "lat": 38.915738, "fusion_lon": 0.0, "rental_uris": {"ios": "https://dc.lft.to/lastmile_qr_scan", "android": "https://dc.lft.to/lastmile_qr_scan"}, "lon": -77.05041683333333, "bike_id": "c4b110bc2d15cf52b4c6e9818193ae61", "type": "electric_scooter", "name": "c4b110bc2d15cf52b4c6e9818193ae61"}, {"is_disabled": 0, "is_reserved": 0, "fusion_lat": 0.0, "lat": 38.93119883333333, "fusion_lon": 0.0, "rental_uris": {"ios": "https://dc.lft.to/lastmile_qr_scan", "android": "https://dc.lft.to/lastmile_qr_scan"}, "lon": -77.020728, "bike_id": "84346ddb230f2f41ca65c736e72a9e3d", "type": "electric_scooter", "name": "84346ddb230f2f41ca65c736e72a9e3d"}, {"is_disabled": 0, "is_reserved": 0, "fusion_lat": 0.0, "lat": 38.882690833333335, "fusion_lon": 0.0, "rental_uris": {"ios": "https://dc.lft.to/lastmile_qr_scan", "android": "https://dc.lft.to/lastmile_qr_scan"}, "lon": -77.00070916666667, "bike_id": "59df198548038cd19d897e23d32bd415", "type": "electric_scooter", "name": "59df198548038cd19d897e23d32bd415"}, {"is_disabled": 0, "is_reserved": 0, "fusion_lat": 0.0, "lat": 38.9306295, "fusion_lon": 0.0, "rental_uris": {"ios": "https://dc.lft.to/lastmile_qr_scan", "android": "https://dc.lft.to/lastmile_qr_scan"}, "lon": -77.04032016666666, "bike_id": "4b5bbc37c8175d395c69c4286dafbfeb", "type": "electric_scooter", "name": "4b5bbc37c8175d395c69c4286dafbfeb"}, {"is_disabled": 0, "is_reserved": 0, "fusion_lat": 0.0, "lat": 38.923156166666665, "fusion_lon": 0.0, "rental_uris": {"ios": "https://dc.lft.to/lastmile_qr_scan", "android": "https://dc.lft.to/lastmile_qr_scan"}, "lon": -77.04182333333334, "bike_id": "3b02c9f0674feef6cbc0959d41128c9a", "type": "electric_scooter", "name": "3b02c9f0674feef6cbc0959d41128c9a"}, {"is_disabled": 0, "is_reserved": 0, "fusion_lat": 0.0, "lat": 38.925493833333334, "fusion_lon": 0.0, "rental_uris": {"ios": "https://dc.lft.to/lastmile_qr_scan", "android": "https://dc.lft.to/lastmile_qr_scan"}, "lon": -77.00325133333334, "bike_id": "43091ead9c70866b72563a4d76f70128", "type": "electric_scooter", "name": "43091ead9c70866b72563a4d76f70128"}, {"is_disabled": 0, "is_reserved": 0, "fusion_lat": 0.0, "lat": 38.874750166666665, "fusion_lon": 0.0, "rental_uris": {"ios": "https://dc.lft.to/lastmile_qr_scan", "android": "https://dc.lft.to/lastmile_qr_scan"}, "lon": -77.010715, "bike_id": "cdd8a5a2f641536b57771316cce4e591", "type": "electric_scooter", "name": "cdd8a5a2f641536b57771316cce4e591"}, {"is_disabled": 0, "is_reserved": 0, "fusion_lat": 0.0, "lat": 38.91627616666667, "fusion_lon": 0.0, "rental_uris": {"ios": "https://dc.lft.to/lastmile_qr_scan", "android": "https://dc.lft.to/lastmile_qr_scan"}, "lon": -77.00852316666666, "bike_id": "9bae48e4244f73d9e9be598ec69e887c", "type": "electric_scooter", "name": "9bae48e4244f73d9e9be598ec69e887c"}, {"is_disabled": 0, "is_reserved": 0, "fusion_lat": 0.0, "lat": 38.88735466666667, "fusion_lon": 0.0, "rental_uris": {"ios": "https://dc.lft.to/lastmile_qr_scan", "android": "https://dc.lft.to/lastmile_qr_scan"}, "lon": -77.02206666666666, "bike_id": "b283cba7fad3be97c61161e9b9600ba4", "type": "electric_scooter", "name": "b283cba7fad3be97c61161e9b9600ba4"}, {"is_disabled": 0, "is_reserved": 0, "fusion_lat": 0.0, "lat": 38.936618333333335, "fusion_lon": 0.0, "rental_uris": {"ios": "https://dc.lft.to/lastmile_qr_scan", "android": "https://dc.lft.to/lastmile_qr_scan"}, "lon": -77.06610866666666, "bike_id": "8bf16f4cdac5af0365ed73e9ab83b2a2", "type": "electric_scooter", "name": "8bf16f4cdac5af0365ed73e9ab83b2a2"}, {"is_disabled": 0, "is_reserved": 0, "fusion_lat": 0.0, "lat": 38.9028655, "fusion_lon": 0.0, "rental_uris": {"ios": "https://dc.lft.to/lastmile_qr_scan", "android": "https://dc.lft.to/lastmile_qr_scan"}, "lon": -76.99040466666666, "bike_id": "f1bf6e12a113ccdc869fa553184c3309", "type": "electric_scooter", "name": "f1bf6e12a113ccdc869fa553184c3309"}, {"is_disabled": 0, "is_reserved": 0, "fusion_lat": 0.0, "lat": 38.9065515, "fusion_lon": 0.0, "rental_uris": {"ios": "https://dc.lft.to/lastmile_qr_scan", "android": "https://dc.lft.to/lastmile_qr_scan"}, "lon": -77.04605716666667, "bike_id": "74195c18defa255caa2495b55031a6ef", "type": "electric_scooter", "name": "74195c18defa255caa2495b55031a6ef"}, {"is_disabled": 0, "is_reserved": 0, "fusion_lat": 0.0, "lat": 38.9195635, "fusion_lon": 0.0, "rental_uris": {"ios": "https://dc.lft.to/lastmile_qr_scan", "android": "https://dc.lft.to/lastmile_qr_scan"}, "lon": -77.07873733333334, "bike_id": "c32487e0a7e5d44d5c9aa9073eb06ad4", "type": "electric_scooter", "name": "c32487e0a7e5d44d5c9aa9073eb06ad4"}, {"is_disabled": 0, "is_reserved": 0, "fusion_lat": 0.0, "lat": 38.91366166666667, "fusion_lon": 0.0, "rental_uris": {"ios": "https://dc.lft.to/lastmile_qr_scan", "android": "https://dc.lft.to/lastmile_qr_scan"}, "lon": -77.02971583333333, "bike_id": "aebd1939ff53e5b5c7ad654302041480", "type": "electric_scooter", "name": "aebd1939ff53e5b5c7ad654302041480"}, {"is_disabled": 0, "is_reserved": 0, "fusion_lat": 0.0, "lat": 38.91775766666667, "fusion_lon": 0.0, "rental_uris": {"ios": "https://dc.lft.to/lastmile_qr_scan", "android": "https://dc.lft.to/lastmile_qr_scan"}, "lon": -77.04099266666667, "bike_id": "c1c64864c7b31c3813550debb075b6a8", "type": "electric_scooter", "name": "c1c64864c7b31c3813550debb075b6a8"}, {"is_disabled": 0, "is_reserved": 0, "fusion_lat": 0.0, "lat": 38.935871666666664, "fusion_lon": 0.0, "rental_uris": {"ios": "https://dc.lft.to/lastmile_qr_scan", "android": "https://dc.lft.to/lastmile_qr_scan"}, "lon": -77.02857166666666, "bike_id": "b7d7e7cfb9762d803ea4993ba99b83c0", "type": "electric_scooter", "name": "b7d7e7cfb9762d803ea4993ba99b83c0"}, {"is_disabled": 0, "is_reserved": 0, "fusion_lat": 0.0, "lat": 38.867095666666664, "fusion_lon": 0.0, "rental_uris": {"ios": "https://dc.lft.to/lastmile_qr_scan", "android": "https://dc.lft.to/lastmile_qr_scan"}, "lon": -76.98945116666667, "bike_id": "54f81ab78cc08d251fb7ba838eefcfed", "type": "electric_bike", "name": "54f81ab78cc08d251fb7ba838eefcfed"}, {"is_disabled": 0, "is_reserved": 0, "fusion_lat": 0.0, "lat": 38.879795333333334, "fusion_lon": 0.0, "rental_uris": {"ios": "https://dc.lft.to/lastmile_qr_scan", "android": "https://dc.lft.to/lastmile_qr_scan"}, "lon": -77.00573916666667, "bike_id": "818b2b43410b18ced3640c1a6aa7816f", "type": "electric_scooter", "name": "818b2b43410b18ced3640c1a6aa7816f"}, {"is_disabled": 0, "is_reserved": 0, "fusion_lat": 0.0, "lat": 38.956123833333336, "fusion_lon": 0.0, "rental_uris": {"ios": "https://dc.lft.to/lastmile_qr_scan", "android": "https://dc.lft.to/lastmile_qr_scan"}, "lon": -77.01017266666666, "bike_id": "493ca8479e908c64816c6ecf5261a63e", "type": "electric_bike", "name": "493ca8479e908c64816c6ecf5261a63e"}, {"is_disabled": 0, "is_reserved": 0, "fusion_lat": 0.0, "lat": 38.9052685, "fusion_lon": 0.0, "rental_uris": {"ios": "https://dc.lft.to/lastmile_qr_scan", "android": "https://dc.lft.to/lastmile_qr_scan"}, "lon": -77.0610885, "bike_id": "98dd6e0dfc88c14f2e28cad7ea753464", "type": "electric_scooter", "name": "98dd6e0dfc88c14f2e28cad7ea753464"}, {"is_disabled": 0, "is_reserved": 0, "fusion_lat": 0.0, "lat": 38.84858666666667, "fusion_lon": 0.0, "rental_uris": {"ios": "https://dc.lft.to/lastmile_qr_scan", "android": "https://dc.lft.to/lastmile_qr_scan"}, "lon": -77.06829983333333, "bike_id": "f94ef4be2559b1e5f527f0b9787df418", "type": "electric_bike", "name": "f94ef4be2559b1e5f527f0b9787df418"}, {"is_disabled": 0, "is_reserved": 0, "fusion_lat": 0.0, "lat": 38.8793785, "fusion_lon": 0.0, "rental_uris": {"ios": "https://dc.lft.to/lastmile_qr_scan", "android": "https://dc.lft.to/lastmile_qr_scan"}, "lon": -77.00770266666666, "bike_id": "1640611c62ae6edd7f9f19c2caafdcdf", "type": "electric_scooter", "name": "1640611c62ae6edd7f9f19c2caafdcdf"}, {"is_disabled": 0, "is_reserved": 0, "fusion_lat": 0.0, "lat": 38.89717183333333, "fusion_lon": 0.0, "rental_uris": {"ios": "https://dc.lft.to/lastmile_qr_scan", "android": "https://dc.lft.to/lastmile_qr_scan"}, "lon": -77.02788183333334, "bike_id": "ed5a3cd59cbc408e27faf889f2cab252", "type": "electric_scooter", "name": "ed5a3cd59cbc408e27faf889f2cab252"}, {"is_disabled": 0, "is_reserved": 0, "fusion_lat": 0.0, "lat": 38.928425, "fusion_lon": 0.0, "rental_uris": {"ios": "https://dc.lft.to/lastmile_qr_scan", "android": "https://dc.lft.to/lastmile_qr_scan"}, "lon": -77.0373595, "bike_id": "0b9000dce819e6f3b2e209adc4714857", "type": "electric_scooter", "name": "0b9000dce819e6f3b2e209adc4714857"}, {"is_disabled": 0, "is_reserved": 0, "fusion_lat": 0.0, "lat": 38.904114666666665, "fusion_lon": 0.0, "rental_uris": {"ios": "https://dc.lft.to/lastmile_qr_scan", "android": "https://dc.lft.to/lastmile_qr_scan"}, "lon": -77.06953033333333, "bike_id": "08684bf7d9164886be164bc121ef3045", "type": "electric_scooter", "name": "08684bf7d9164886be164bc121ef3045"}, {"is_disabled": 0, "is_reserved": 0, "fusion_lat": 0.0, "lat": 38.911299, "fusion_lon": 0.0, "rental_uris": {"ios": "https://dc.lft.to/lastmile_qr_scan", "android": "https://dc.lft.to/lastmile_qr_scan"}, "lon": -77.02206066666666, "bike_id": "8775234246b20c2bb3123022465def04", "type": "electric_scooter", "name": "8775234246b20c2bb3123022465def04"}, {"is_disabled": 0, "is_reserved": 0, "fusion_lat": 0.0, "lat": 38.91984633333333, "fusion_lon": 0.0, "rental_uris": {"ios": "https://dc.lft.to/lastmile_qr_scan", "android": "https://dc.lft.to/lastmile_qr_scan"}, "lon": -77.0476995, "bike_id": "455f5ba237bfc234ea77d10d9a4a6831", "type": "electric_scooter", "name": "455f5ba237bfc234ea77d10d9a4a6831"}, {"is_disabled": 0, "is_reserved": 0, "fusion_lat": 0.0, "lat": 38.90455566666667, "fusion_lon": 0.0, "rental_uris": {"ios": "https://dc.lft.to/lastmile_qr_scan", "android": "https://dc.lft.to/lastmile_qr_scan"}, "lon": -76.93277083333334, "bike_id": "7341521ea236563c7cdafdeb809fa17b", "type": "electric_scooter", "name": "7341521ea236563c7cdafdeb809fa17b"}, {"is_disabled": 0, "is_reserved": 0, "fusion_lat": 0.0, "lat": 38.921377666666665, "fusion_lon": 0.0, "rental_uris": {"ios": "https://dc.lft.to/lastmile_qr_scan", "android": "https://dc.lft.to/lastmile_qr_scan"}, "lon": -77.05165083333333, "bike_id": "69f3b7a5bbbc52de60e6b4b19b8ff38e", "type": "electric_scooter", "name": "69f3b7a5bbbc52de60e6b4b19b8ff38e"}, {"is_disabled": 0, "is_reserved": 0, "fusion_lat": 0.0, "lat": 38.9329345, "fusion_lon": 0.0, "rental_uris": {"ios": "https://dc.lft.to/lastmile_qr_scan", "android": "https://dc.lft.to/lastmile_qr_scan"}, "lon": -77.0231395, "bike_id": "f858b0115965b71c7ecbb372b844d099", "type": "electric_scooter", "name": "f858b0115965b71c7ecbb372b844d099"}, {"is_disabled": 0, "is_reserved": 0, "fusion_lat": 0.0, "lat": 38.96580866666667, "fusion_lon": 0.0, "rental_uris": {"ios": "https://dc.lft.to/lastmile_qr_scan", "android": "https://dc.lft.to/lastmile_qr_scan"}, "lon": -77.02761416666667, "bike_id": "928b3eb4fc610f5a2701480290594c71", "type": "electric_scooter", "name": "928b3eb4fc610f5a2701480290594c71"}, {"is_disabled": 0, "is_reserved": 0, "fusion_lat": 0.0, "lat": 38.8874565, "fusion_lon": 0.0, "rental_uris": {"ios": "https://dc.lft.to/lastmile_qr_scan", "android": "https://dc.lft.to/lastmile_qr_scan"}, "lon": -77.032215, "bike_id": "d1f4eeb4bfe49f52c354f5b5a2d537de", "type": "electric_scooter", "name": "d1f4eeb4bfe49f52c354f5b5a2d537de"}, {"is_disabled": 0, "is_reserved": 0, "fusion_lat": 0.0, "lat": 38.923837666666664, "fusion_lon": 0.0, "rental_uris": {"ios": "https://dc.lft.to/lastmile_qr_scan", "android": "https://dc.lft.to/lastmile_qr_scan"}, "lon": -77.04041766666667, "bike_id": "cdcb7b04c630773262e0c5621a34e9a2", "type": "electric_scooter", "name": "cdcb7b04c630773262e0c5621a34e9a2"}, {"is_disabled": 0, "is_reserved": 0, "fusion_lat": 0.0, "lat": 38.915804, "fusion_lon": 0.0, "rental_uris": {"ios": "https://dc.lft.to/lastmile_qr_scan", "android": "https://dc.lft.to/lastmile_qr_scan"}, "lon": -77.01882283333333, "bike_id": "7af809b9647cc6ec2b783479b6110b8f", "type": "electric_scooter", "name": "7af809b9647cc6ec2b783479b6110b8f"}, {"is_disabled": 0, "is_reserved": 0, "fusion_lat": 0.0, "lat": 38.9006565, "fusion_lon": 0.0, "rental_uris": {"ios": "https://dc.lft.to/lastmile_qr_scan", "android": "https://dc.lft.to/lastmile_qr_scan"}, "lon": -76.94984766666667, "bike_id": "493ae124d4c29280f8610e3c4a1fbda5", "type": "electric_scooter", "name": "493ae124d4c29280f8610e3c4a1fbda5"}, {"is_disabled": 0, "is_reserved": 0, "fusion_lat": 0.0, "lat": 38.930597166666665, "fusion_lon": 0.0, "rental_uris": {"ios": "https://dc.lft.to/lastmile_qr_scan", "android": "https://dc.lft.to/lastmile_qr_scan"}, "lon": -77.03944066666666, "bike_id": "796ddf315011e8d65cb54b62e1df8b9b", "type": "electric_scooter", "name": "796ddf315011e8d65cb54b62e1df8b9b"}, {"is_disabled": 0, "is_reserved": 0, "fusion_lat": 0.0, "lat": 38.900614833333336, "fusion_lon": 0.0, "rental_uris": {"ios": "https://dc.lft.to/lastmile_qr_scan", "android": "https://dc.lft.to/lastmile_qr_scan"}, "lon": -77.04568233333333, "bike_id": "aeca56a0a207afdaa29c80541eb4c68f", "type": "electric_scooter", "name": "aeca56a0a207afdaa29c80541eb4c68f"}, {"is_disabled": 0, "is_reserved": 0, "fusion_lat": 0.0, "lat": 38.879132, "fusion_lon": 0.0, "rental_uris": {"ios": "https://dc.lft.to/lastmile_qr_scan", "android": "https://dc.lft.to/lastmile_qr_scan"}, "lon": -77.00853516666666, "bike_id": "ea88ca6f930eb7a54a5c1f4517a1b672", "type": "electric_bike", "name": "ea88ca6f930eb7a54a5c1f4517a1b672"}, {"is_disabled": 0, "is_reserved": 0, "fusion_lat": 0.0, "lat": 38.925038, "fusion_lon": 0.0, "rental_uris": {"ios": "https://dc.lft.to/lastmile_qr_scan", "android": "https://dc.lft.to/lastmile_qr_scan"}, "lon": -77.0242815, "bike_id": "8e92756a976a228620d7347e295e99a7", "type": "electric_scooter", "name": "8e92756a976a228620d7347e295e99a7"}, {"is_disabled": 0, "is_reserved": 0, "fusion_lat": 0.0, "lat": 38.92697916666667, "fusion_lon": 0.0, "rental_uris": {"ios": "https://dc.lft.to/lastmile_qr_scan", "android": "https://dc.lft.to/lastmile_qr_scan"}, "lon": -76.99789283333334, "bike_id": "8b26fc49e3ca469e813042fb680a2b6d", "type": "electric_scooter", "name": "8b26fc49e3ca469e813042fb680a2b6d"}, {"is_disabled": 0, "is_reserved": 0, "fusion_lat": 0.0, "lat": 38.9344095, "fusion_lon": 0.0, "rental_uris": {"ios": "https://dc.lft.to/lastmile_qr_scan", "android": "https://dc.lft.to/lastmile_qr_scan"}, "lon": -77.02983966666666, "bike_id": "c94abd9a89356c5db7a74a5e4a9d3479", "type": "electric_scooter", "name": "c94abd9a89356c5db7a74a5e4a9d3479"}, {"is_disabled": 0, "is_reserved": 0, "fusion_lat": 0.0, "lat": 38.949262833333336, "fusion_lon": 0.0, "rental_uris": {"ios": "https://dc.lft.to/lastmile_qr_scan", "android": "https://dc.lft.to/lastmile_qr_scan"}, "lon": -77.0193815, "bike_id": "d13253f90e0d18d5bdce9ba589562c3c", "type": "electric_scooter", "name": "d13253f90e0d18d5bdce9ba589562c3c"}, {"is_disabled": 0, "is_reserved": 0, "fusion_lat": 0.0, "lat": 38.94833283333333, "fusion_lon": 0.0, "rental_uris": {"ios": "https://dc.lft.to/lastmile_qr_scan", "android": "https://dc.lft.to/lastmile_qr_scan"}, "lon": -76.98246316666666, "bike_id": "d1555dfa1e249985439784b81a7495be", "type": "electric_scooter", "name": "d1555dfa1e249985439784b81a7495be"}, {"is_disabled": 0, "is_reserved": 0, "fusion_lat": 0.0, "lat": 38.90076883333333, "fusion_lon": 0.0, "rental_uris": {"ios": "https://dc.lft.to/lastmile_qr_scan", "android": "https://dc.lft.to/lastmile_qr_scan"}, "lon": -77.018259, "bike_id": "257af98e8c261f99b04fe06140072eee", "type": "electric_scooter", "name": "257af98e8c261f99b04fe06140072eee"}, {"is_disabled": 0, "is_reserved": 0, "fusion_lat": 0.0, "lat": 38.900357166666666, "fusion_lon": 0.0, "rental_uris": {"ios": "https://dc.lft.to/lastmile_qr_scan", "android": "https://dc.lft.to/lastmile_qr_scan"}, "lon": -76.988417, "bike_id": "fd6d32120b78b653283f7dc8dc7f122c", "type": "electric_scooter", "name": "fd6d32120b78b653283f7dc8dc7f122c"}, {"is_disabled": 0, "is_reserved": 0, "fusion_lat": 0.0, "lat": 38.910498, "fusion_lon": 0.0, "rental_uris": {"ios": "https://dc.lft.to/lastmile_qr_scan", "android": "https://dc.lft.to/lastmile_qr_scan"}, "lon": -77.0448805, "bike_id": "ce4517b6274eb7c29fe51f02eba6c946", "type": "electric_scooter", "name": "ce4517b6274eb7c29fe51f02eba6c946"}, {"is_disabled": 0, "is_reserved": 0, "fusion_lat": 0.0, "lat": 38.90365033333333, "fusion_lon": 0.0, "rental_uris": {"ios": "https://dc.lft.to/lastmile_qr_scan", "android": "https://dc.lft.to/lastmile_qr_scan"}, "lon": -77.0277875, "bike_id": "5ef55d1c340db311b756dbe54f75f74a", "type": "electric_scooter", "name": "5ef55d1c340db311b756dbe54f75f74a"}, {"is_disabled": 0, "is_reserved": 0, "fusion_lat": 0.0, "lat": 38.908805666666666, "fusion_lon": 0.0, "rental_uris": {"ios": "https://dc.lft.to/lastmile_qr_scan", "android": "https://dc.lft.to/lastmile_qr_scan"}, "lon": -76.99820633333333, "bike_id": "8f11d9151130abbc6973240d2dccf82d", "type": "electric_scooter", "name": "8f11d9151130abbc6973240d2dccf82d"}, {"is_disabled": 0, "is_reserved": 0, "fusion_lat": 0.0, "lat": 38.905985333333334, "fusion_lon": 0.0, "rental_uris": {"ios": "https://dc.lft.to/lastmile_qr_scan", "android": "https://dc.lft.to/lastmile_qr_scan"}, "lon": -77.12893116666666, "bike_id": "045c537375f5e16ece22dc9ef03d4b96", "type": "electric_bike", "name": "045c537375f5e16ece22dc9ef03d4b96"}, {"is_disabled": 0, "is_reserved": 0, "fusion_lat": 0.0, "lat": 38.892170666666665, "fusion_lon": 0.0, "rental_uris": {"ios": "https://dc.lft.to/lastmile_qr_scan", "android": "https://dc.lft.to/lastmile_qr_scan"}, "lon": -77.02421116666666, "bike_id": "c517fd44091433804028b140a1abf4d5", "type": "electric_scooter", "name": "c517fd44091433804028b140a1abf4d5"}, {"is_disabled": 0, "is_reserved": 0, "fusion_lat": 0.0, "lat": 38.834080666666665, "fusion_lon": 0.0, "rental_uris": {"ios": "https://dc.lft.to/lastmile_qr_scan", "android": "https://dc.lft.to/lastmile_qr_scan"}, "lon": -77.0501405, "bike_id": "98153dd307daaf27b99fb05de8e8d664", "type": "electric_bike", "name": "98153dd307daaf27b99fb05de8e8d664"}, {"is_disabled": 0, "is_reserved": 0, "fusion_lat": 0.0, "lat": 38.9183545, "fusion_lon": 0.0, "rental_uris": {"ios": "https://dc.lft.to/lastmile_qr_scan", "android": "https://dc.lft.to/lastmile_qr_scan"}, "lon": -77.04176133333333, "bike_id": "4362d7311b5f8f628b608f78304bd3aa", "type": "electric_scooter", "name": "4362d7311b5f8f628b608f78304bd3aa"}, {"is_disabled": 0, "is_reserved": 0, "fusion_lat": 0.0, "lat": 38.924387, "fusion_lon": 0.0, "rental_uris": {"ios": "https://dc.lft.to/lastmile_qr_scan", "android": "https://dc.lft.to/lastmile_qr_scan"}, "lon": -77.03403016666667, "bike_id": "61648667c8633d9df30bc990ed5318b4", "type": "electric_scooter", "name": "61648667c8633d9df30bc990ed5318b4"}, {"is_disabled": 0, "is_reserved": 0, "fusion_lat": 0.0, "lat": 38.89607183333333, "fusion_lon": 0.0, "rental_uris": {"ios": "https://dc.lft.to/lastmile_qr_scan", "android": "https://dc.lft.to/lastmile_qr_scan"}, "lon": -77.04542333333333, "bike_id": "d006c9d71e1e86ae093eaec0b389a73b", "type": "electric_scooter", "name": "d006c9d71e1e86ae093eaec0b389a73b"}, {"is_disabled": 0, "is_reserved": 0, "fusion_lat": 0.0, "lat": 38.94977933333333, "fusion_lon": 0.0, "rental_uris": {"ios": "https://dc.lft.to/lastmile_qr_scan", "android": "https://dc.lft.to/lastmile_qr_scan"}, "lon": -77.08087016666667, "bike_id": "211ee1f6a5554766cce470c19b05491d", "type": "electric_scooter", "name": "211ee1f6a5554766cce470c19b05491d"}, {"is_disabled": 0, "is_reserved": 0, "fusion_lat": 0.0, "lat": 38.9054735, "fusion_lon": 0.0, "rental_uris": {"ios": "https://dc.lft.to/lastmile_qr_scan", "android": "https://dc.lft.to/lastmile_qr_scan"}, "lon": -77.006956, "bike_id": "1151e9fb607d2dfadd328c50041ba65f", "type": "electric_scooter", "name": "1151e9fb607d2dfadd328c50041ba65f"}, {"is_disabled": 0, "is_reserved": 0, "fusion_lat": 0.0, "lat": 38.897379, "fusion_lon": 0.0, "rental_uris": {"ios": "https://dc.lft.to/lastmile_qr_scan", "android": "https://dc.lft.to/lastmile_qr_scan"}, "lon": -77.02123566666667, "bike_id": "4b5af25a71e64b42bc7d1d3fda5623bf", "type": "electric_scooter", "name": "4b5af25a71e64b42bc7d1d3fda5623bf"}, {"is_disabled": 0, "is_reserved": 0, "fusion_lat": 0.0, "lat": 38.883392666666666, "fusion_lon": 0.0, "rental_uris": {"ios": "https://dc.lft.to/lastmile_qr_scan", "android": "https://dc.lft.to/lastmile_qr_scan"}, "lon": -76.99501466666666, "bike_id": "c21722cd59b08368759a950b532798fd", "type": "electric_scooter", "name": "c21722cd59b08368759a950b532798fd"}, {"is_disabled": 0, "is_reserved": 0, "fusion_lat": 0.0, "lat": 38.857169166666665, "fusion_lon": 0.0, "rental_uris": {"ios": "https://dc.lft.to/lastmile_qr_scan", "android": "https://dc.lft.to/lastmile_qr_scan"}, "lon": -76.98099266666667, "bike_id": "2cbd4715a8650ca7d600150b982a4aae", "type": "electric_scooter", "name": "2cbd4715a8650ca7d600150b982a4aae"}, {"is_disabled": 0, "is_reserved": 0, "fusion_lat": 0.0, "lat": 38.8967535, "fusion_lon": 0.0, "rental_uris": {"ios": "https://dc.lft.to/lastmile_qr_scan", "android": "https://dc.lft.to/lastmile_qr_scan"}, "lon": -77.05468533333334, "bike_id": "a189deecc76e4280186cf8223458d849", "type": "electric_scooter", "name": "a189deecc76e4280186cf8223458d849"}, {"is_disabled": 0, "is_reserved": 0, "fusion_lat": 0.0, "lat": 38.949199666666665, "fusion_lon": 0.0, "rental_uris": {"ios": "https://dc.lft.to/lastmile_qr_scan", "android": "https://dc.lft.to/lastmile_qr_scan"}, "lon": -77.02316383333333, "bike_id": "c64d4e6cc40c65e98d0c2eda85d4afd9", "type": "electric_scooter", "name": "c64d4e6cc40c65e98d0c2eda85d4afd9"}, {"is_disabled": 0, "is_reserved": 0, "fusion_lat": 0.0, "lat": 38.88469883333333, "fusion_lon": 0.0, "rental_uris": {"ios": "https://dc.lft.to/lastmile_qr_scan", "android": "https://dc.lft.to/lastmile_qr_scan"}, "lon": -77.02646133333333, "bike_id": "52efafb4b7d5f7f500969b7d209fad10", "type": "electric_scooter", "name": "52efafb4b7d5f7f500969b7d209fad10"}, {"is_disabled": 0, "is_reserved": 0, "fusion_lat": 0.0, "lat": 38.916094, "fusion_lon": 0.0, "rental_uris": {"ios": "https://dc.lft.to/lastmile_qr_scan", "android": "https://dc.lft.to/lastmile_qr_scan"}, "lon": -77.02129483333333, "bike_id": "4467c6d7d4e63140750a11e8b1b8eb67", "type": "electric_scooter", "name": "4467c6d7d4e63140750a11e8b1b8eb67"}, {"is_disabled": 0, "is_reserved": 0, "fusion_lat": 0.0, "lat": 38.8845825, "fusion_lon": 0.0, "rental_uris": {"ios": "https://dc.lft.to/lastmile_qr_scan", "android": "https://dc.lft.to/lastmile_qr_scan"}, "lon": -77.02933683333333, "bike_id": "24b7d1792bc9834223d018acd27c4750", "type": "electric_scooter", "name": "24b7d1792bc9834223d018acd27c4750"}, {"is_disabled": 0, "is_reserved": 0, "fusion_lat": 0.0, "lat": 38.906234166666664, "fusion_lon": 0.0, "rental_uris": {"ios": "https://dc.lft.to/lastmile_qr_scan", "android": "https://dc.lft.to/lastmile_qr_scan"}, "lon": -76.98664866666667, "bike_id": "2c84b47d73660c4b9cf337c26ec2d34b", "type": "electric_scooter", "name": "2c84b47d73660c4b9cf337c26ec2d34b"}, {"is_disabled": 0, "is_reserved": 0, "fusion_lat": 0.0, "lat": 38.92092783333333, "fusion_lon": 0.0, "rental_uris": {"ios": "https://dc.lft.to/lastmile_qr_scan", "android": "https://dc.lft.to/lastmile_qr_scan"}, "lon": -77.01755866666667, "bike_id": "7a8376d8ce0c15362d716501b933d7d4", "type": "electric_scooter", "name": "7a8376d8ce0c15362d716501b933d7d4"}, {"is_disabled": 0, "is_reserved": 0, "fusion_lat": 0.0, "lat": 38.87161966666667, "fusion_lon": 0.0, "rental_uris": {"ios": "https://dc.lft.to/lastmile_qr_scan", "android": "https://dc.lft.to/lastmile_qr_scan"}, "lon": -77.0135685, "bike_id": "0632adbe8f6c7d061db92d3206d3b100", "type": "electric_scooter", "name": "0632adbe8f6c7d061db92d3206d3b100"}, {"is_disabled": 0, "is_reserved": 0, "fusion_lat": 0.0, "lat": 38.89916266666667, "fusion_lon": 0.0, "rental_uris": {"ios": "https://dc.lft.to/lastmile_qr_scan", "android": "https://dc.lft.to/lastmile_qr_scan"}, "lon": -77.03225266666666, "bike_id": "fdb6760669658402ad616d42ade68945", "type": "electric_scooter", "name": "fdb6760669658402ad616d42ade68945"}, {"is_disabled": 0, "is_reserved": 0, "fusion_lat": 0.0, "lat": 38.90010816666667, "fusion_lon": 0.0, "rental_uris": {"ios": "https://dc.lft.to/lastmile_qr_scan", "android": "https://dc.lft.to/lastmile_qr_scan"}, "lon": -77.0069455, "bike_id": "0a99af2fd23c6e454d7722537dd4e47a", "type": "electric_scooter", "name": "0a99af2fd23c6e454d7722537dd4e47a"}, {"is_disabled": 0, "is_reserved": 0, "fusion_lat": 0.0, "lat": 38.948410833333334, "fusion_lon": 0.0, "rental_uris": {"ios": "https://dc.lft.to/lastmile_qr_scan", "android": "https://dc.lft.to/lastmile_qr_scan"}, "lon": -77.0798315, "bike_id": "0d17938d679111762ff134c8cb4c8ebd", "type": "electric_scooter", "name": "0d17938d679111762ff134c8cb4c8ebd"}, {"is_disabled": 0, "is_reserved": 0, "fusion_lat": 0.0, "lat": 38.9425665, "fusion_lon": 0.0, "rental_uris": {"ios": "https://dc.lft.to/lastmile_qr_scan", "android": "https://dc.lft.to/lastmile_qr_scan"}, "lon": -76.98459266666667, "bike_id": "18b7336e6d8ebb32b12a0cefef2301f3", "type": "electric_scooter", "name": "18b7336e6d8ebb32b12a0cefef2301f3"}, {"is_disabled": 0, "is_reserved": 0, "fusion_lat": 0.0, "lat": 38.8835855, "fusion_lon": 0.0, "rental_uris": {"ios": "https://dc.lft.to/lastmile_qr_scan", "android": "https://dc.lft.to/lastmile_qr_scan"}, "lon": -76.95769666666666, "bike_id": "10a925180342a33dab6f6e00272f711a", "type": "electric_scooter", "name": "10a925180342a33dab6f6e00272f711a"}, {"is_disabled": 0, "is_reserved": 0, "fusion_lat": 0.0, "lat": 38.91997166666667, "fusion_lon": 0.0, "rental_uris": {"ios": "https://dc.lft.to/lastmile_qr_scan", "android": "https://dc.lft.to/lastmile_qr_scan"}, "lon": -77.0474725, "bike_id": "55933c6597a2926a19b3c4cc70644c43", "type": "electric_scooter", "name": "55933c6597a2926a19b3c4cc70644c43"}, {"is_disabled": 0, "is_reserved": 0, "fusion_lat": 0.0, "lat": 38.892273833333334, "fusion_lon": 0.0, "rental_uris": {"ios": "https://dc.lft.to/lastmile_qr_scan", "android": "https://dc.lft.to/lastmile_qr_scan"}, "lon": -77.0500405, "bike_id": "79dbd84fb28e1d174aba4905b08ea88a", "type": "electric_scooter", "name": "79dbd84fb28e1d174aba4905b08ea88a"}, {"is_disabled": 0, "is_reserved": 0, "fusion_lat": 0.0, "lat": 38.917573, "fusion_lon": 0.0, "rental_uris": {"ios": "https://dc.lft.to/lastmile_qr_scan", "android": "https://dc.lft.to/lastmile_qr_scan"}, "lon": -77.03906966666666, "bike_id": "a6dde5df44551957831c883a6627b6f0", "type": "electric_scooter", "name": "a6dde5df44551957831c883a6627b6f0"}, {"is_disabled": 0, "is_reserved": 0, "fusion_lat": 0.0, "lat": 38.91981366666667, "fusion_lon": 0.0, "rental_uris": {"ios": "https://dc.lft.to/lastmile_qr_scan", "android": "https://dc.lft.to/lastmile_qr_scan"}, "lon": -77.04169883333333, "bike_id": "dafab99df3670d21cfdbc0196b1af325", "type": "electric_scooter", "name": "dafab99df3670d21cfdbc0196b1af325"}, {"is_disabled": 0, "is_reserved": 0, "fusion_lat": 0.0, "lat": 38.900063833333334, "fusion_lon": 0.0, "rental_uris": {"ios": "https://dc.lft.to/lastmile_qr_scan", "android": "https://dc.lft.to/lastmile_qr_scan"}, "lon": -77.00932766666666, "bike_id": "59049bd6775a5ac19c865201238dbe29", "type": "electric_scooter", "name": "59049bd6775a5ac19c865201238dbe29"}, {"is_disabled": 0, "is_reserved": 0, "fusion_lat": 0.0, "lat": 38.935222333333336, "fusion_lon": 0.0, "rental_uris": {"ios": "https://dc.lft.to/lastmile_qr_scan", "android": "https://dc.lft.to/lastmile_qr_scan"}, "lon": -77.032626, "bike_id": "d1a4a48b8e9e6bfd68420023d9d2972b", "type": "electric_scooter", "name": "d1a4a48b8e9e6bfd68420023d9d2972b"}, {"is_disabled": 0, "is_reserved": 0, "fusion_lat": 0.0, "lat": 38.903968, "fusion_lon": 0.0, "rental_uris": {"ios": "https://dc.lft.to/lastmile_qr_scan", "android": "https://dc.lft.to/lastmile_qr_scan"}, "lon": -76.99007583333334, "bike_id": "4aa36096780d9636a2d6eb0b9be61c57", "type": "electric_scooter", "name": "4aa36096780d9636a2d6eb0b9be61c57"}, {"is_disabled": 0, "is_reserved": 0, "fusion_lat": 0.0, "lat": 38.914971333333334, "fusion_lon": 0.0, "rental_uris": {"ios": "https://dc.lft.to/lastmile_qr_scan", "android": "https://dc.lft.to/lastmile_qr_scan"}, "lon": -76.983709, "bike_id": "1f0c2d1cad575ce901e12667f0399b36", "type": "electric_scooter", "name": "1f0c2d1cad575ce901e12667f0399b36"}, {"is_disabled": 0, "is_reserved": 0, "fusion_lat": 0.0, "lat": 38.90413233333334, "fusion_lon": 0.0, "rental_uris": {"ios": "https://dc.lft.to/lastmile_qr_scan", "android": "https://dc.lft.to/lastmile_qr_scan"}, "lon": -77.05332483333333, "bike_id": "001a3eb7583fc7d66988ba9eb7d235cd", "type": "electric_scooter", "name": "001a3eb7583fc7d66988ba9eb7d235cd"}, {"is_disabled": 0, "is_reserved": 0, "fusion_lat": 0.0, "lat": 38.8950435, "fusion_lon": 0.0, "rental_uris": {"ios": "https://dc.lft.to/lastmile_qr_scan", "android": "https://dc.lft.to/lastmile_qr_scan"}, "lon": -77.02199566666667, "bike_id": "dbcb889ff72b6290a97f3d6738840caf", "type": "electric_scooter", "name": "dbcb889ff72b6290a97f3d6738840caf"}, {"is_disabled": 0, "is_reserved": 0, "fusion_lat": 0.0, "lat": 38.924227, "fusion_lon": 0.0, "rental_uris": {"ios": "https://dc.lft.to/lastmile_qr_scan", "android": "https://dc.lft.to/lastmile_qr_scan"}, "lon": -77.0447575, "bike_id": "a4b0328a4b79ff174b6970e2e2144f77", "type": "electric_bike", "name": "a4b0328a4b79ff174b6970e2e2144f77"}, {"is_disabled": 0, "is_reserved": 0, "fusion_lat": 0.0, "lat": 38.928742166666666, "fusion_lon": 0.0, "rental_uris": {"ios": "https://dc.lft.to/lastmile_qr_scan", "android": "https://dc.lft.to/lastmile_qr_scan"}, "lon": -77.03995066666667, "bike_id": "2d74edabb3e9e860db9fc25518385d90", "type": "electric_scooter", "name": "2d74edabb3e9e860db9fc25518385d90"}, {"is_disabled": 0, "is_reserved": 0, "fusion_lat": 0.0, "lat": 38.891716333333335, "fusion_lon": 0.0, "rental_uris": {"ios": "https://dc.lft.to/lastmile_qr_scan", "android": "https://dc.lft.to/lastmile_qr_scan"}, "lon": -77.015535, "bike_id": "174ceb87d9c127fc29a53d8733129648", "type": "electric_scooter", "name": "174ceb87d9c127fc29a53d8733129648"}, {"is_disabled": 0, "is_reserved": 0, "fusion_lat": 0.0, "lat": 38.90677633333333, "fusion_lon": 0.0, "rental_uris": {"ios": "https://dc.lft.to/lastmile_qr_scan", "android": "https://dc.lft.to/lastmile_qr_scan"}, "lon": -76.979292, "bike_id": "168c6d9d74f8913bf56da300f2beac90", "type": "electric_scooter", "name": "168c6d9d74f8913bf56da300f2beac90"}, {"is_disabled": 0, "is_reserved": 0, "fusion_lat": 0.0, "lat": 38.891908, "fusion_lon": 0.0, "rental_uris": {"ios": "https://dc.lft.to/lastmile_qr_scan", "android": "https://dc.lft.to/lastmile_qr_scan"}, "lon": -77.02233666666666, "bike_id": "a51b31b4eb9a717cfcfb50caac10e6b8", "type": "electric_scooter", "name": "a51b31b4eb9a717cfcfb50caac10e6b8"}, {"is_disabled": 0, "is_reserved": 0, "fusion_lat": 0.0, "lat": 38.91960016666667, "fusion_lon": 0.0, "rental_uris": {"ios": "https://dc.lft.to/lastmile_qr_scan", "android": "https://dc.lft.to/lastmile_qr_scan"}, "lon": -77.023118, "bike_id": "b21aecd9a4d8360814fe4b29909a31e5", "type": "electric_scooter", "name": "b21aecd9a4d8360814fe4b29909a31e5"}, {"is_disabled": 0, "is_reserved": 0, "fusion_lat": 0.0, "lat": 38.95608216666667, "fusion_lon": 0.0, "rental_uris": {"ios": "https://dc.lft.to/lastmile_qr_scan", "android": "https://dc.lft.to/lastmile_qr_scan"}, "lon": -77.03301583333334, "bike_id": "c821265b39d8e28272f1dd7af30d4ac3", "type": "electric_scooter", "name": "c821265b39d8e28272f1dd7af30d4ac3"}, {"is_disabled": 0, "is_reserved": 0, "fusion_lat": 0.0, "lat": 38.89503583333333, "fusion_lon": 0.0, "rental_uris": {"ios": "https://dc.lft.to/lastmile_qr_scan", "android": "https://dc.lft.to/lastmile_qr_scan"}, "lon": -77.022899, "bike_id": "4d409947f5917b339e777993cdf01d5c", "type": "electric_scooter", "name": "4d409947f5917b339e777993cdf01d5c"}, {"is_disabled": 0, "is_reserved": 0, "fusion_lat": 0.0, "lat": 38.907892833333335, "fusion_lon": 0.0, "rental_uris": {"ios": "https://dc.lft.to/lastmile_qr_scan", "android": "https://dc.lft.to/lastmile_qr_scan"}, "lon": -76.99720333333333, "bike_id": "7721c9f7ca6d923326f5355453a4ca5e", "type": "electric_scooter", "name": "7721c9f7ca6d923326f5355453a4ca5e"}, {"is_disabled": 0, "is_reserved": 0, "fusion_lat": 0.0, "lat": 38.929695833333334, "fusion_lon": 0.0, "rental_uris": {"ios": "https://dc.lft.to/lastmile_qr_scan", "android": "https://dc.lft.to/lastmile_qr_scan"}, "lon": -77.02344433333333, "bike_id": "27f3f365b2add6c314079f7e32182b12", "type": "electric_scooter", "name": "27f3f365b2add6c314079f7e32182b12"}, {"is_disabled": 0, "is_reserved": 0, "fusion_lat": 0.0, "lat": 38.93682866666666, "fusion_lon": 0.0, "rental_uris": {"ios": "https://dc.lft.to/lastmile_qr_scan", "android": "https://dc.lft.to/lastmile_qr_scan"}, "lon": -77.036256, "bike_id": "565ce834037535671fd1712bfa9258bc", "type": "electric_scooter", "name": "565ce834037535671fd1712bfa9258bc"}, {"is_disabled": 0, "is_reserved": 0, "fusion_lat": 0.0, "lat": 38.91287633333334, "fusion_lon": 0.0, "rental_uris": {"ios": "https://dc.lft.to/lastmile_qr_scan", "android": "https://dc.lft.to/lastmile_qr_scan"}, "lon": -77.045244, "bike_id": "1cec3ce071bc0d6641ad96bc80ccd248", "type": "electric_scooter", "name": "1cec3ce071bc0d6641ad96bc80ccd248"}, {"is_disabled": 0, "is_reserved": 0, "fusion_lat": 0.0, "lat": 38.93662483333333, "fusion_lon": 0.0, "rental_uris": {"ios": "https://dc.lft.to/lastmile_qr_scan", "android": "https://dc.lft.to/lastmile_qr_scan"}, "lon": -77.066165, "bike_id": "62bc4d75d102d91704d696165726ebc5", "type": "electric_scooter", "name": "62bc4d75d102d91704d696165726ebc5"}, {"is_disabled": 0, "is_reserved": 0, "fusion_lat": 0.0, "lat": 38.93611083333333, "fusion_lon": 0.0, "rental_uris": {"ios": "https://dc.lft.to/lastmile_qr_scan", "android": "https://dc.lft.to/lastmile_qr_scan"}, "lon": -76.94999633333333, "bike_id": "f992073f515194e9d79ac4670169b9a9", "type": "electric_bike", "name": "f992073f515194e9d79ac4670169b9a9"}, {"is_disabled": 0, "is_reserved": 0, "fusion_lat": 0.0, "lat": 38.91679883333333, "fusion_lon": 0.0, "rental_uris": {"ios": "https://dc.lft.to/lastmile_qr_scan", "android": "https://dc.lft.to/lastmile_qr_scan"}, "lon": -77.03638483333333, "bike_id": "0c093fef0a08af852c4d5e8590bef20d", "type": "electric_scooter", "name": "0c093fef0a08af852c4d5e8590bef20d"}, {"is_disabled": 0, "is_reserved": 0, "fusion_lat": 0.0, "lat": 38.9052415, "fusion_lon": 0.0, "rental_uris": {"ios": "https://dc.lft.to/lastmile_qr_scan", "android": "https://dc.lft.to/lastmile_qr_scan"}, "lon": -77.06200916666667, "bike_id": "efc0e0484aa97d02ef398322d2f5a7da", "type": "electric_scooter", "name": "efc0e0484aa97d02ef398322d2f5a7da"}, {"is_disabled": 0, "is_reserved": 0, "fusion_lat": 0.0, "lat": 38.8974605, "fusion_lon": 0.0, "rental_uris": {"ios": "https://dc.lft.to/lastmile_qr_scan", "android": "https://dc.lft.to/lastmile_qr_scan"}, "lon": -77.05490816666666, "bike_id": "3c9c1170a1165667e26a41f5dc5a6d52", "type": "electric_scooter", "name": "3c9c1170a1165667e26a41f5dc5a6d52"}, {"is_disabled": 0, "is_reserved": 0, "fusion_lat": 0.0, "lat": 38.85932583333334, "fusion_lon": 0.0, "rental_uris": {"ios": "https://dc.lft.to/lastmile_qr_scan", "android": "https://dc.lft.to/lastmile_qr_scan"}, "lon": -76.98679666666666, "bike_id": "456816f9b5f36fec12773d8a49e8d145", "type": "electric_scooter", "name": "456816f9b5f36fec12773d8a49e8d145"}, {"is_disabled": 0, "is_reserved": 0, "fusion_lat": 0.0, "lat": 38.896830666666666, "fusion_lon": 0.0, "rental_uris": {"ios": "https://dc.lft.to/lastmile_qr_scan", "android": "https://dc.lft.to/lastmile_qr_scan"}, "lon": -76.93907233333333, "bike_id": "02b9573c98ed1625263e93e762421c91", "type": "electric_scooter", "name": "02b9573c98ed1625263e93e762421c91"}, {"is_disabled": 0, "is_reserved": 0, "fusion_lat": 0.0, "lat": 38.91330983333334, "fusion_lon": 0.0, "rental_uris": {"ios": "https://dc.lft.to/lastmile_qr_scan", "android": "https://dc.lft.to/lastmile_qr_scan"}, "lon": -77.04583766666667, "bike_id": "e1a42c2fa8d6085985eabc17fb82c68b", "type": "electric_scooter", "name": "e1a42c2fa8d6085985eabc17fb82c68b"}, {"is_disabled": 0, "is_reserved": 0, "fusion_lat": 0.0, "lat": 38.930442166666666, "fusion_lon": 0.0, "rental_uris": {"ios": "https://dc.lft.to/lastmile_qr_scan", "android": "https://dc.lft.to/lastmile_qr_scan"}, "lon": -77.03610866666666, "bike_id": "7de3cb4d9d5579708db18fe0e791f418", "type": "electric_scooter", "name": "7de3cb4d9d5579708db18fe0e791f418"}, {"is_disabled": 0, "is_reserved": 0, "fusion_lat": 0.0, "lat": 38.91804916666667, "fusion_lon": 0.0, "rental_uris": {"ios": "https://dc.lft.to/lastmile_qr_scan", "android": "https://dc.lft.to/lastmile_qr_scan"}, "lon": -77.03434016666667, "bike_id": "ae39e61ffc297ae301d9e3daf131a731", "type": "electric_scooter", "name": "ae39e61ffc297ae301d9e3daf131a731"}, {"is_disabled": 0, "is_reserved": 0, "fusion_lat": 0.0, "lat": 38.910856833333334, "fusion_lon": 0.0, "rental_uris": {"ios": "https://dc.lft.to/lastmile_qr_scan", "android": "https://dc.lft.to/lastmile_qr_scan"}, "lon": -77.06549666666666, "bike_id": "c752b3f96d27613e375121b34d635416", "type": "electric_scooter", "name": "c752b3f96d27613e375121b34d635416"}, {"is_disabled": 0, "is_reserved": 0, "fusion_lat": 0.0, "lat": 38.91807683333333, "fusion_lon": 0.0, "rental_uris": {"ios": "https://dc.lft.to/lastmile_qr_scan", "android": "https://dc.lft.to/lastmile_qr_scan"}, "lon": -77.03718433333333, "bike_id": "34a0fd88b06f3189402743e07fa10b54", "type": "electric_scooter", "name": "34a0fd88b06f3189402743e07fa10b54"}, {"is_disabled": 0, "is_reserved": 0, "fusion_lat": 0.0, "lat": 38.953295833333335, "fusion_lon": 0.0, "rental_uris": {"ios": "https://dc.lft.to/lastmile_qr_scan", "android": "https://dc.lft.to/lastmile_qr_scan"}, "lon": -76.98257133333334, "bike_id": "655a14df74876e9809bf799307f1c5db", "type": "electric_bike", "name": "655a14df74876e9809bf799307f1c5db"}, {"is_disabled": 0, "is_reserved": 0, "fusion_lat": 0.0, "lat": 38.8792515, "fusion_lon": 0.0, "rental_uris": {"ios": "https://dc.lft.to/lastmile_qr_scan", "android": "https://dc.lft.to/lastmile_qr_scan"}, "lon": -77.02369666666667, "bike_id": "36b528c0363b851d4be18113702a25df", "type": "electric_scooter", "name": "36b528c0363b851d4be18113702a25df"}, {"is_disabled": 0, "is_reserved": 0, "fusion_lat": 0.0, "lat": 38.9027445, "fusion_lon": 0.0, "rental_uris": {"ios": "https://dc.lft.to/lastmile_qr_scan", "android": "https://dc.lft.to/lastmile_qr_scan"}, "lon": -77.059068, "bike_id": "e3e849868a890e64b21e8abd6a11507f", "type": "electric_scooter", "name": "e3e849868a890e64b21e8abd6a11507f"}, {"is_disabled": 0, "is_reserved": 0, "fusion_lat": 0.0, "lat": 38.93861016666666, "fusion_lon": 0.0, "rental_uris": {"ios": "https://dc.lft.to/lastmile_qr_scan", "android": "https://dc.lft.to/lastmile_qr_scan"}, "lon": -77.03043933333333, "bike_id": "2caf18cca92ccbd1a61beedaac1ea0e3", "type": "electric_scooter", "name": "2caf18cca92ccbd1a61beedaac1ea0e3"}, {"is_disabled": 0, "is_reserved": 0, "fusion_lat": 0.0, "lat": 38.882795333333334, "fusion_lon": 0.0, "rental_uris": {"ios": "https://dc.lft.to/lastmile_qr_scan", "android": "https://dc.lft.to/lastmile_qr_scan"}, "lon": -76.93236316666666, "bike_id": "da0f5d8aa4f239848bdcfbde5aad33bb", "type": "electric_bike", "name": "da0f5d8aa4f239848bdcfbde5aad33bb"}, {"is_disabled": 0, "is_reserved": 0, "fusion_lat": 0.0, "lat": 38.948215, "fusion_lon": 0.0, "rental_uris": {"ios": "https://dc.lft.to/lastmile_qr_scan", "android": "https://dc.lft.to/lastmile_qr_scan"}, "lon": -77.02542816666667, "bike_id": "8b74e9dc7975c01c5e56af09b4711d23", "type": "electric_scooter", "name": "8b74e9dc7975c01c5e56af09b4711d23"}, {"is_disabled": 0, "is_reserved": 0, "fusion_lat": 0.0, "lat": 38.90684016666667, "fusion_lon": 0.0, "rental_uris": {"ios": "https://dc.lft.to/lastmile_qr_scan", "android": "https://dc.lft.to/lastmile_qr_scan"}, "lon": -77.05329016666667, "bike_id": "fb91c72b9a2f47fa6ffd30c909c5c00e", "type": "electric_scooter", "name": "fb91c72b9a2f47fa6ffd30c909c5c00e"}, {"is_disabled": 0, "is_reserved": 0, "fusion_lat": 0.0, "lat": 38.92239216666667, "fusion_lon": 0.0, "rental_uris": {"ios": "https://dc.lft.to/lastmile_qr_scan", "android": "https://dc.lft.to/lastmile_qr_scan"}, "lon": -77.04481933333334, "bike_id": "614b7ae14e985b7e078af3bd0e90eee8", "type": "electric_scooter", "name": "614b7ae14e985b7e078af3bd0e90eee8"}, {"is_disabled": 0, "is_reserved": 0, "fusion_lat": 0.0, "lat": 38.846906, "fusion_lon": 0.0, "rental_uris": {"ios": "https://dc.lft.to/lastmile_qr_scan", "android": "https://dc.lft.to/lastmile_qr_scan"}, "lon": -76.9962605, "bike_id": "f2470b729d761a84ba9f31fddee87a30", "type": "electric_bike", "name": "f2470b729d761a84ba9f31fddee87a30"}, {"is_disabled": 0, "is_reserved": 0, "fusion_lat": 0.0, "lat": 38.9027205, "fusion_lon": 0.0, "rental_uris": {"ios": "https://dc.lft.to/lastmile_qr_scan", "android": "https://dc.lft.to/lastmile_qr_scan"}, "lon": -77.0175615, "bike_id": "bb1dd91af6c6a34d93a001d663478a0b", "type": "electric_scooter", "name": "bb1dd91af6c6a34d93a001d663478a0b"}, {"is_disabled": 0, "is_reserved": 0, "fusion_lat": 0.0, "lat": 38.92468083333333, "fusion_lon": 0.0, "rental_uris": {"ios": "https://dc.lft.to/lastmile_qr_scan", "android": "https://dc.lft.to/lastmile_qr_scan"}, "lon": -77.0353645, "bike_id": "3a48fc26fe4d5e08c6af873d8e57faa2", "type": "electric_scooter", "name": "3a48fc26fe4d5e08c6af873d8e57faa2"}, {"is_disabled": 0, "is_reserved": 0, "fusion_lat": 0.0, "lat": 38.90878133333333, "fusion_lon": 0.0, "rental_uris": {"ios": "https://dc.lft.to/lastmile_qr_scan", "android": "https://dc.lft.to/lastmile_qr_scan"}, "lon": -77.0021145, "bike_id": "d36ff85e40835cf5a26314f378acf0ad", "type": "electric_scooter", "name": "d36ff85e40835cf5a26314f378acf0ad"}, {"is_disabled": 0, "is_reserved": 0, "fusion_lat": 0.0, "lat": 38.92670416666667, "fusion_lon": 0.0, "rental_uris": {"ios": "https://dc.lft.to/lastmile_qr_scan", "android": "https://dc.lft.to/lastmile_qr_scan"}, "lon": -77.02281133333334, "bike_id": "06e8de36fd8dcc02fb14d8d046f89267", "type": "electric_scooter", "name": "06e8de36fd8dcc02fb14d8d046f89267"}, {"is_disabled": 0, "is_reserved": 0, "fusion_lat": 0.0, "lat": 38.89190933333333, "fusion_lon": 0.0, "rental_uris": {"ios": "https://dc.lft.to/lastmile_qr_scan", "android": "https://dc.lft.to/lastmile_qr_scan"}, "lon": -77.022314, "bike_id": "a18305f461b199f7f7114712e48e6786", "type": "electric_scooter", "name": "a18305f461b199f7f7114712e48e6786"}, {"is_disabled": 0, "is_reserved": 0, "fusion_lat": 0.0, "lat": 38.884319166666664, "fusion_lon": 0.0, "rental_uris": {"ios": "https://dc.lft.to/lastmile_qr_scan", "android": "https://dc.lft.to/lastmile_qr_scan"}, "lon": -77.02994216666667, "bike_id": "0d40a12506806ba9843997174476c8e4", "type": "electric_scooter", "name": "0d40a12506806ba9843997174476c8e4"}, {"is_disabled": 0, "is_reserved": 0, "fusion_lat": 0.0, "lat": 38.91907583333333, "fusion_lon": 0.0, "rental_uris": {"ios": "https://dc.lft.to/lastmile_qr_scan", "android": "https://dc.lft.to/lastmile_qr_scan"}, "lon": -77.02522683333333, "bike_id": "2f834cd9df5e3ead0550ab472b684736", "type": "electric_scooter", "name": "2f834cd9df5e3ead0550ab472b684736"}, {"is_disabled": 0, "is_reserved": 0, "fusion_lat": 0.0, "lat": 38.915633166666666, "fusion_lon": 0.0, "rental_uris": {"ios": "https://dc.lft.to/lastmile_qr_scan", "android": "https://dc.lft.to/lastmile_qr_scan"}, "lon": -77.02164733333333, "bike_id": "d65a41a75adfba61e308ad34bbef2912", "type": "electric_scooter", "name": "d65a41a75adfba61e308ad34bbef2912"}, {"is_disabled": 0, "is_reserved": 0, "fusion_lat": 0.0, "lat": 38.922927, "fusion_lon": 0.0, "rental_uris": {"ios": "https://dc.lft.to/lastmile_qr_scan", "android": "https://dc.lft.to/lastmile_qr_scan"}, "lon": -77.04143116666667, "bike_id": "9f7d36ac245c9f8e8e78338bc3bd20c8", "type": "electric_scooter", "name": "9f7d36ac245c9f8e8e78338bc3bd20c8"}, {"is_disabled": 0, "is_reserved": 0, "fusion_lat": 0.0, "lat": 38.929054, "fusion_lon": 0.0, "rental_uris": {"ios": "https://dc.lft.to/lastmile_qr_scan", "android": "https://dc.lft.to/lastmile_qr_scan"}, "lon": -77.0598715, "bike_id": "e47202d01e03ac4da2b2fdb74ee35cac", "type": "electric_scooter", "name": "e47202d01e03ac4da2b2fdb74ee35cac"}, {"is_disabled": 0, "is_reserved": 0, "fusion_lat": 0.0, "lat": 38.909183, "fusion_lon": 0.0, "rental_uris": {"ios": "https://dc.lft.to/lastmile_qr_scan", "android": "https://dc.lft.to/lastmile_qr_scan"}, "lon": -77.02323633333333, "bike_id": "c4d144a8f53df368e71ccca793ed9b8f", "type": "electric_scooter", "name": "c4d144a8f53df368e71ccca793ed9b8f"}, {"is_disabled": 0, "is_reserved": 0, "fusion_lat": 0.0, "lat": 38.917571, "fusion_lon": 0.0, "rental_uris": {"ios": "https://dc.lft.to/lastmile_qr_scan", "android": "https://dc.lft.to/lastmile_qr_scan"}, "lon": -77.0240735, "bike_id": "e7f941d47e3ea23c5671706898d7d897", "type": "electric_scooter", "name": "e7f941d47e3ea23c5671706898d7d897"}, {"is_disabled": 0, "is_reserved": 0, "fusion_lat": 0.0, "lat": 38.918159333333335, "fusion_lon": 0.0, "rental_uris": {"ios": "https://dc.lft.to/lastmile_qr_scan", "android": "https://dc.lft.to/lastmile_qr_scan"}, "lon": -77.03212016666667, "bike_id": "a19d573e7033d333f8cc86fa28d401fd", "type": "electric_scooter", "name": "a19d573e7033d333f8cc86fa28d401fd"}, {"is_disabled": 0, "is_reserved": 0, "fusion_lat": 0.0, "lat": 38.9194885, "fusion_lon": 0.0, "rental_uris": {"ios": "https://dc.lft.to/lastmile_qr_scan", "android": "https://dc.lft.to/lastmile_qr_scan"}, "lon": -77.01386116666667, "bike_id": "1cdc1f64d839f8e497b2fe67a66b8be8", "type": "electric_scooter", "name": "1cdc1f64d839f8e497b2fe67a66b8be8"}, {"is_disabled": 0, "is_reserved": 0, "fusion_lat": 0.0, "lat": 38.9247965, "fusion_lon": 0.0, "rental_uris": {"ios": "https://dc.lft.to/lastmile_qr_scan", "android": "https://dc.lft.to/lastmile_qr_scan"}, "lon": -77.02793533333333, "bike_id": "834bfff653025eef47e9ba91a78d99fb", "type": "electric_scooter", "name": "834bfff653025eef47e9ba91a78d99fb"}, {"is_disabled": 0, "is_reserved": 0, "fusion_lat": 0.0, "lat": 38.885230166666666, "fusion_lon": 0.0, "rental_uris": {"ios": "https://dc.lft.to/lastmile_qr_scan", "android": "https://dc.lft.to/lastmile_qr_scan"}, "lon": -76.99804333333333, "bike_id": "8d70b0d67052be8ebf6a7a71e3a349c7", "type": "electric_scooter", "name": "8d70b0d67052be8ebf6a7a71e3a349c7"}, {"is_disabled": 0, "is_reserved": 0, "fusion_lat": 0.0, "lat": 38.911849833333335, "fusion_lon": 0.0, "rental_uris": {"ios": "https://dc.lft.to/lastmile_qr_scan", "android": "https://dc.lft.to/lastmile_qr_scan"}, "lon": -77.02987716666667, "bike_id": "24c886b6afdc0b80734fd4354b4bd52b", "type": "electric_scooter", "name": "24c886b6afdc0b80734fd4354b4bd52b"}, {"is_disabled": 0, "is_reserved": 0, "fusion_lat": 0.0, "lat": 38.9180665, "fusion_lon": 0.0, "rental_uris": {"ios": "https://dc.lft.to/lastmile_qr_scan", "android": "https://dc.lft.to/lastmile_qr_scan"}, "lon": -77.011002, "bike_id": "f0f480dcd398b2dfdfe73fc8c00db602", "type": "electric_scooter", "name": "f0f480dcd398b2dfdfe73fc8c00db602"}, {"is_disabled": 0, "is_reserved": 0, "fusion_lat": 0.0, "lat": 38.89361066666667, "fusion_lon": 0.0, "rental_uris": {"ios": "https://dc.lft.to/lastmile_qr_scan", "android": "https://dc.lft.to/lastmile_qr_scan"}, "lon": -76.94110266666667, "bike_id": "4142b7cb6396357d37696840e136076f", "type": "electric_scooter", "name": "4142b7cb6396357d37696840e136076f"}, {"is_disabled": 0, "is_reserved": 0, "fusion_lat": 0.0, "lat": 38.9998715, "fusion_lon": 0.0, "rental_uris": {"ios": "https://dc.lft.to/lastmile_qr_scan", "android": "https://dc.lft.to/lastmile_qr_scan"}, "lon": -76.92490633333334, "bike_id": "caa630e9c73ef45b4741753466ba7511", "type": "electric_bike", "name": "caa630e9c73ef45b4741753466ba7511"}, {"is_disabled": 0, "is_reserved": 0, "fusion_lat": 0.0, "lat": 38.924127666666664, "fusion_lon": 0.0, "rental_uris": {"ios": "https://dc.lft.to/lastmile_qr_scan", "android": "https://dc.lft.to/lastmile_qr_scan"}, "lon": -77.02708916666667, "bike_id": "7916f399f0c285592322bd5879714678", "type": "electric_scooter", "name": "7916f399f0c285592322bd5879714678"}, {"is_disabled": 0, "is_reserved": 0, "fusion_lat": 0.0, "lat": 38.9531335, "fusion_lon": 0.0, "rental_uris": {"ios": "https://dc.lft.to/lastmile_qr_scan", "android": "https://dc.lft.to/lastmile_qr_scan"}, "lon": -76.99460766666667, "bike_id": "f6ae5385eecf6ae00f4e608a2f11ae25", "type": "electric_scooter", "name": "f6ae5385eecf6ae00f4e608a2f11ae25"}, {"is_disabled": 0, "is_reserved": 0, "fusion_lat": 0.0, "lat": 38.8074085, "fusion_lon": 0.0, "rental_uris": {"ios": "https://dc.lft.to/lastmile_qr_scan", "android": "https://dc.lft.to/lastmile_qr_scan"}, "lon": -77.09685616666667, "bike_id": "dd66b5b196e4945f1df3e8b76228bef3", "type": "electric_bike", "name": "dd66b5b196e4945f1df3e8b76228bef3"}, {"is_disabled": 0, "is_reserved": 0, "fusion_lat": 0.0, "lat": 38.871707, "fusion_lon": 0.0, "rental_uris": {"ios": "https://dc.lft.to/lastmile_qr_scan", "android": "https://dc.lft.to/lastmile_qr_scan"}, "lon": -77.23394333333333, "bike_id": "b91f2153d78a9524a3bb8e092951b1a3", "type": "electric_bike", "name": "b91f2153d78a9524a3bb8e092951b1a3"}, {"is_disabled": 0, "is_reserved": 0, "fusion_lat": 0.0, "lat": 38.927453166666666, "fusion_lon": 0.0, "rental_uris": {"ios": "https://dc.lft.to/lastmile_qr_scan", "android": "https://dc.lft.to/lastmile_qr_scan"}, "lon": -77.03304683333333, "bike_id": "3ed50cca2948f5ca97d813cd4108ea35", "type": "electric_scooter", "name": "3ed50cca2948f5ca97d813cd4108ea35"}, {"is_disabled": 0, "is_reserved": 0, "fusion_lat": 0.0, "lat": 38.899693, "fusion_lon": 0.0, "rental_uris": {"ios": "https://dc.lft.to/lastmile_qr_scan", "android": "https://dc.lft.to/lastmile_qr_scan"}, "lon": -77.00943733333334, "bike_id": "f4708254673b4f377da6ececf218fd66", "type": "electric_scooter", "name": "f4708254673b4f377da6ececf218fd66"}, {"is_disabled": 0, "is_reserved": 0, "fusion_lat": 0.0, "lat": 38.921260833333335, "fusion_lon": 0.0, "rental_uris": {"ios": "https://dc.lft.to/lastmile_qr_scan", "android": "https://dc.lft.to/lastmile_qr_scan"}, "lon": -77.0019035, "bike_id": "0a3c02cd27c4f6bc9a9b5b4f9fd18d5d", "type": "electric_bike", "name": "0a3c02cd27c4f6bc9a9b5b4f9fd18d5d"}, {"is_disabled": 0, "is_reserved": 0, "fusion_lat": 0.0, "lat": 38.936979, "fusion_lon": 0.0, "rental_uris": {"ios": "https://dc.lft.to/lastmile_qr_scan", "android": "https://dc.lft.to/lastmile_qr_scan"}, "lon": -77.05603566666667, "bike_id": "1feff589d3f5bd721c2da178dcee3546", "type": "electric_scooter", "name": "1feff589d3f5bd721c2da178dcee3546"}, {"is_disabled": 0, "is_reserved": 0, "fusion_lat": 0.0, "lat": 38.93114583333333, "fusion_lon": 0.0, "rental_uris": {"ios": "https://dc.lft.to/lastmile_qr_scan", "android": "https://dc.lft.to/lastmile_qr_scan"}, "lon": -77.02348983333333, "bike_id": "84cd340029cb76263bebfbf82d93fc8a", "type": "electric_scooter", "name": "84cd340029cb76263bebfbf82d93fc8a"}, {"is_disabled": 0, "is_reserved": 0, "fusion_lat": 0.0, "lat": 38.8849805, "fusion_lon": 0.0, "rental_uris": {"ios": "https://dc.lft.to/lastmile_qr_scan", "android": "https://dc.lft.to/lastmile_qr_scan"}, "lon": -76.9965515, "bike_id": "2119e6be30fe95be3145c2b4570de419", "type": "electric_scooter", "name": "2119e6be30fe95be3145c2b4570de419"}, {"is_disabled": 0, "is_reserved": 0, "fusion_lat": 0.0, "lat": 38.8668285, "fusion_lon": 0.0, "rental_uris": {"ios": "https://dc.lft.to/lastmile_qr_scan", "android": "https://dc.lft.to/lastmile_qr_scan"}, "lon": -77.01048633333333, "bike_id": "856d67e64c03041857e1c8f442563202", "type": "electric_scooter", "name": "856d67e64c03041857e1c8f442563202"}, {"is_disabled": 0, "is_reserved": 0, "fusion_lat": 0.0, "lat": 38.90417566666667, "fusion_lon": 0.0, "rental_uris": {"ios": "https://dc.lft.to/lastmile_qr_scan", "android": "https://dc.lft.to/lastmile_qr_scan"}, "lon": -77.04360366666667, "bike_id": "b2c310f8ae094a85244d52fdd48e8a17", "type": "electric_scooter", "name": "b2c310f8ae094a85244d52fdd48e8a17"}, {"is_disabled": 0, "is_reserved": 0, "fusion_lat": 0.0, "lat": 38.9047105, "fusion_lon": 0.0, "rental_uris": {"ios": "https://dc.lft.to/lastmile_qr_scan", "android": "https://dc.lft.to/lastmile_qr_scan"}, "lon": -76.95055733333334, "bike_id": "6b90e2f767268b54a0bdcd82c5d331ff", "type": "electric_scooter", "name": "6b90e2f767268b54a0bdcd82c5d331ff"}, {"is_disabled": 0, "is_reserved": 0, "fusion_lat": 0.0, "lat": 38.91684, "fusion_lon": 0.0, "rental_uris": {"ios": "https://dc.lft.to/lastmile_qr_scan", "android": "https://dc.lft.to/lastmile_qr_scan"}, "lon": -77.02712766666667, "bike_id": "3a11e24a361365ec338ea881f2781822", "type": "electric_scooter", "name": "3a11e24a361365ec338ea881f2781822"}, {"is_disabled": 0, "is_reserved": 0, "fusion_lat": 0.0, "lat": 38.908617666666665, "fusion_lon": 0.0, "rental_uris": {"ios": "https://dc.lft.to/lastmile_qr_scan", "android": "https://dc.lft.to/lastmile_qr_scan"}, "lon": -77.04484883333333, "bike_id": "c71f45a55395dad72b99ffe0bdced012", "type": "electric_scooter", "name": "c71f45a55395dad72b99ffe0bdced012"}, {"is_disabled": 0, "is_reserved": 0, "fusion_lat": 0.0, "lat": 38.8848745, "fusion_lon": 0.0, "rental_uris": {"ios": "https://dc.lft.to/lastmile_qr_scan", "android": "https://dc.lft.to/lastmile_qr_scan"}, "lon": -77.034744, "bike_id": "3b5f3c76ddf28b191f471ef19206e4e1", "type": "electric_scooter", "name": "3b5f3c76ddf28b191f471ef19206e4e1"}, {"is_disabled": 0, "is_reserved": 0, "fusion_lat": 0.0, "lat": 38.930808166666665, "fusion_lon": 0.0, "rental_uris": {"ios": "https://dc.lft.to/lastmile_qr_scan", "android": "https://dc.lft.to/lastmile_qr_scan"}, "lon": -77.02808616666667, "bike_id": "1698144e35f34b2406fbd939ca02298e", "type": "electric_scooter", "name": "1698144e35f34b2406fbd939ca02298e"}, {"is_disabled": 0, "is_reserved": 0, "fusion_lat": 0.0, "lat": 38.901274, "fusion_lon": 0.0, "rental_uris": {"ios": "https://dc.lft.to/lastmile_qr_scan", "android": "https://dc.lft.to/lastmile_qr_scan"}, "lon": -77.00284, "bike_id": "276ffc65e8b4e1f65b5adacfae4374b4", "type": "electric_scooter", "name": "276ffc65e8b4e1f65b5adacfae4374b4"}, {"is_disabled": 0, "is_reserved": 0, "fusion_lat": 0.0, "lat": 38.892272, "fusion_lon": 0.0, "rental_uris": {"ios": "https://dc.lft.to/lastmile_qr_scan", "android": "https://dc.lft.to/lastmile_qr_scan"}, "lon": -77.02790216666666, "bike_id": "fc02a44dcfefaee9f142bf03cf7cfbe3", "type": "electric_scooter", "name": "fc02a44dcfefaee9f142bf03cf7cfbe3"}, {"is_disabled": 0, "is_reserved": 0, "fusion_lat": 0.0, "lat": 38.855169833333335, "fusion_lon": 0.0, "rental_uris": {"ios": "https://dc.lft.to/lastmile_qr_scan", "android": "https://dc.lft.to/lastmile_qr_scan"}, "lon": -76.9916705, "bike_id": "949aaf04227c41132d5a171716142fb7", "type": "electric_scooter", "name": "949aaf04227c41132d5a171716142fb7"}, {"is_disabled": 0, "is_reserved": 0, "fusion_lat": 0.0, "lat": 38.898356166666666, "fusion_lon": 0.0, "rental_uris": {"ios": "https://dc.lft.to/lastmile_qr_scan", "android": "https://dc.lft.to/lastmile_qr_scan"}, "lon": -77.02943783333333, "bike_id": "237410725ba9c532760e5c1c135f4f0d", "type": "electric_scooter", "name": "237410725ba9c532760e5c1c135f4f0d"}, {"is_disabled": 0, "is_reserved": 0, "fusion_lat": 0.0, "lat": 38.904846166666665, "fusion_lon": 0.0, "rental_uris": {"ios": "https://dc.lft.to/lastmile_qr_scan", "android": "https://dc.lft.to/lastmile_qr_scan"}, "lon": -77.0487605, "bike_id": "c211582f9f49ac88b7e6ec9254e92bdb", "type": "electric_scooter", "name": "c211582f9f49ac88b7e6ec9254e92bdb"}, {"is_disabled": 0, "is_reserved": 0, "fusion_lat": 0.0, "lat": 38.8924755, "fusion_lon": 0.0, "rental_uris": {"ios": "https://dc.lft.to/lastmile_qr_scan", "android": "https://dc.lft.to/lastmile_qr_scan"}, "lon": -77.04658716666667, "bike_id": "5422ca2d0e08554acf8c62c49be11be4", "type": "electric_scooter", "name": "5422ca2d0e08554acf8c62c49be11be4"}, {"is_disabled": 0, "is_reserved": 0, "fusion_lat": 0.0, "lat": 38.93363033333333, "fusion_lon": 0.0, "rental_uris": {"ios": "https://dc.lft.to/lastmile_qr_scan", "android": "https://dc.lft.to/lastmile_qr_scan"}, "lon": -77.02406483333333, "bike_id": "00b35b0feb830d59a0a2d21b21407bad", "type": "electric_scooter", "name": "00b35b0feb830d59a0a2d21b21407bad"}, {"is_disabled": 0, "is_reserved": 0, "fusion_lat": 0.0, "lat": 38.931013166666666, "fusion_lon": 0.0, "rental_uris": {"ios": "https://dc.lft.to/lastmile_qr_scan", "android": "https://dc.lft.to/lastmile_qr_scan"}, "lon": -77.024778, "bike_id": "bf634040aa1f059699a4da995feb3ad5", "type": "electric_scooter", "name": "bf634040aa1f059699a4da995feb3ad5"}, {"is_disabled": 0, "is_reserved": 0, "fusion_lat": 0.0, "lat": 38.929862666666665, "fusion_lon": 0.0, "rental_uris": {"ios": "https://dc.lft.to/lastmile_qr_scan", "android": "https://dc.lft.to/lastmile_qr_scan"}, "lon": -77.03475483333334, "bike_id": "bedaeb1b5a2e17ef3d42769c6c6815dc", "type": "electric_scooter", "name": "bedaeb1b5a2e17ef3d42769c6c6815dc"}, {"is_disabled": 0, "is_reserved": 0, "fusion_lat": 0.0, "lat": 38.91756983333333, "fusion_lon": 0.0, "rental_uris": {"ios": "https://dc.lft.to/lastmile_qr_scan", "android": "https://dc.lft.to/lastmile_qr_scan"}, "lon": -77.0240815, "bike_id": "ed265801ce62a278c0fe7ef07b42bc81", "type": "electric_scooter", "name": "ed265801ce62a278c0fe7ef07b42bc81"}, {"is_disabled": 0, "is_reserved": 0, "fusion_lat": 0.0, "lat": 38.913825, "fusion_lon": 0.0, "rental_uris": {"ios": "https://dc.lft.to/lastmile_qr_scan", "android": "https://dc.lft.to/lastmile_qr_scan"}, "lon": -77.04601916666667, "bike_id": "a9795f06266b5fa41f8077cfb944b8f0", "type": "electric_scooter", "name": "a9795f06266b5fa41f8077cfb944b8f0"}, {"is_disabled": 0, "is_reserved": 0, "fusion_lat": 0.0, "lat": 38.92140633333333, "fusion_lon": 0.0, "rental_uris": {"ios": "https://dc.lft.to/lastmile_qr_scan", "android": "https://dc.lft.to/lastmile_qr_scan"}, "lon": -77.018179, "bike_id": "220bb0069a8f65c5b74c93a2b61ff2ac", "type": "electric_scooter", "name": "220bb0069a8f65c5b74c93a2b61ff2ac"}, {"is_disabled": 0, "is_reserved": 0, "fusion_lat": 0.0, "lat": 38.95920666666667, "fusion_lon": 0.0, "rental_uris": {"ios": "https://dc.lft.to/lastmile_qr_scan", "android": "https://dc.lft.to/lastmile_qr_scan"}, "lon": -76.9252925, "bike_id": "178f044e7740b4e505022aed89e6072e", "type": "electric_bike", "name": "178f044e7740b4e505022aed89e6072e"}, {"is_disabled": 0, "is_reserved": 0, "fusion_lat": 0.0, "lat": 38.92724166666667, "fusion_lon": 0.0, "rental_uris": {"ios": "https://dc.lft.to/lastmile_qr_scan", "android": "https://dc.lft.to/lastmile_qr_scan"}, "lon": -77.051391, "bike_id": "b6c0e3c9be6545fd5aef64b5d6dfcf9a", "type": "electric_scooter", "name": "b6c0e3c9be6545fd5aef64b5d6dfcf9a"}, {"is_disabled": 0, "is_reserved": 0, "fusion_lat": 0.0, "lat": 38.9105345, "fusion_lon": 0.0, "rental_uris": {"ios": "https://dc.lft.to/lastmile_qr_scan", "android": "https://dc.lft.to/lastmile_qr_scan"}, "lon": -77.05286566666666, "bike_id": "01a4ff5a3139c195b778801eea39fd46", "type": "electric_bike", "name": "01a4ff5a3139c195b778801eea39fd46"}, {"is_disabled": 0, "is_reserved": 0, "fusion_lat": 0.0, "lat": 38.92735483333333, "fusion_lon": 0.0, "rental_uris": {"ios": "https://dc.lft.to/lastmile_qr_scan", "android": "https://dc.lft.to/lastmile_qr_scan"}, "lon": -77.02302833333333, "bike_id": "2b66e1a9ad3fd300240fa03d58a6beb9", "type": "electric_scooter", "name": "2b66e1a9ad3fd300240fa03d58a6beb9"}, {"is_disabled": 0, "is_reserved": 0, "fusion_lat": 0.0, "lat": 38.89273033333333, "fusion_lon": 0.0, "rental_uris": {"ios": "https://dc.lft.to/lastmile_qr_scan", "android": "https://dc.lft.to/lastmile_qr_scan"}, "lon": -77.04657183333333, "bike_id": "9ecbf531f4144dcef44f1df4ed15dd0b", "type": "electric_scooter", "name": "9ecbf531f4144dcef44f1df4ed15dd0b"}, {"is_disabled": 0, "is_reserved": 0, "fusion_lat": 0.0, "lat": 38.855129166666664, "fusion_lon": 0.0, "rental_uris": {"ios": "https://dc.lft.to/lastmile_qr_scan", "android": "https://dc.lft.to/lastmile_qr_scan"}, "lon": -77.1015885, "bike_id": "9fe4e2ae999870e7aebf86ffd96f3c5a", "type": "electric_bike", "name": "9fe4e2ae999870e7aebf86ffd96f3c5a"}, {"is_disabled": 0, "is_reserved": 0, "fusion_lat": 0.0, "lat": 38.878593, "fusion_lon": 0.0, "rental_uris": {"ios": "https://dc.lft.to/lastmile_qr_scan", "android": "https://dc.lft.to/lastmile_qr_scan"}, "lon": -77.018776, "bike_id": "b0175e04414a8f38f31f1d5a236fe523", "type": "electric_scooter", "name": "b0175e04414a8f38f31f1d5a236fe523"}, {"is_disabled": 0, "is_reserved": 0, "fusion_lat": 0.0, "lat": 38.863709, "fusion_lon": 0.0, "rental_uris": {"ios": "https://dc.lft.to/lastmile_qr_scan", "android": "https://dc.lft.to/lastmile_qr_scan"}, "lon": -77.0136735, "bike_id": "0a640a36600635a584415fcbb3e4c871", "type": "electric_scooter", "name": "0a640a36600635a584415fcbb3e4c871"}, {"is_disabled": 0, "is_reserved": 0, "fusion_lat": 0.0, "lat": 38.87989816666666, "fusion_lon": 0.0, "rental_uris": {"ios": "https://dc.lft.to/lastmile_qr_scan", "android": "https://dc.lft.to/lastmile_qr_scan"}, "lon": -77.02415366666666, "bike_id": "62ac9be670a8f60d144295ea3b1e6df1", "type": "electric_scooter", "name": "62ac9be670a8f60d144295ea3b1e6df1"}, {"is_disabled": 0, "is_reserved": 0, "fusion_lat": 0.0, "lat": 38.91804966666667, "fusion_lon": 0.0, "rental_uris": {"ios": "https://dc.lft.to/lastmile_qr_scan", "android": "https://dc.lft.to/lastmile_qr_scan"}, "lon": -77.02496183333334, "bike_id": "1c91bbd017d35e2ef0bd990106070b9e", "type": "electric_scooter", "name": "1c91bbd017d35e2ef0bd990106070b9e"}, {"is_disabled": 0, "is_reserved": 0, "fusion_lat": 0.0, "lat": 38.931159666666666, "fusion_lon": 0.0, "rental_uris": {"ios": "https://dc.lft.to/lastmile_qr_scan", "android": "https://dc.lft.to/lastmile_qr_scan"}, "lon": -77.0234845, "bike_id": "4a03a24470d9ebe823f16cd044cf005b", "type": "electric_scooter", "name": "4a03a24470d9ebe823f16cd044cf005b"}, {"is_disabled": 0, "is_reserved": 0, "fusion_lat": 0.0, "lat": 38.90505066666667, "fusion_lon": 0.0, "rental_uris": {"ios": "https://dc.lft.to/lastmile_qr_scan", "android": "https://dc.lft.to/lastmile_qr_scan"}, "lon": -76.95207016666667, "bike_id": "c050190b8bcd89f9afdba477026eafdd", "type": "electric_scooter", "name": "c050190b8bcd89f9afdba477026eafdd"}, {"is_disabled": 0, "is_reserved": 0, "fusion_lat": 0.0, "lat": 38.896041, "fusion_lon": 0.0, "rental_uris": {"ios": "https://dc.lft.to/lastmile_qr_scan", "android": "https://dc.lft.to/lastmile_qr_scan"}, "lon": -77.04506816666667, "bike_id": "3198587a3e82a42f76d9f26aa3ab99f8", "type": "electric_scooter", "name": "3198587a3e82a42f76d9f26aa3ab99f8"}, {"is_disabled": 0, "is_reserved": 0, "fusion_lat": 0.0, "lat": 38.89300133333333, "fusion_lon": 0.0, "rental_uris": {"ios": "https://dc.lft.to/lastmile_qr_scan", "android": "https://dc.lft.to/lastmile_qr_scan"}, "lon": -77.03939533333333, "bike_id": "e4e7aafd4658c509f0b8e2fc130f4ba0", "type": "electric_scooter", "name": "e4e7aafd4658c509f0b8e2fc130f4ba0"}, {"is_disabled": 0, "is_reserved": 0, "fusion_lat": 0.0, "lat": 38.91210866666667, "fusion_lon": 0.0, "rental_uris": {"ios": "https://dc.lft.to/lastmile_qr_scan", "android": "https://dc.lft.to/lastmile_qr_scan"}, "lon": -77.07592883333334, "bike_id": "35a1b0e0988496d9543357ff485dddbf", "type": "electric_scooter", "name": "35a1b0e0988496d9543357ff485dddbf"}, {"is_disabled": 0, "is_reserved": 0, "fusion_lat": 0.0, "lat": 38.88542616666667, "fusion_lon": 0.0, "rental_uris": {"ios": "https://dc.lft.to/lastmile_qr_scan", "android": "https://dc.lft.to/lastmile_qr_scan"}, "lon": -76.95977083333334, "bike_id": "bd92384ff95c3d8ee64ac15cd0c3dfc9", "type": "electric_scooter", "name": "bd92384ff95c3d8ee64ac15cd0c3dfc9"}, {"is_disabled": 0, "is_reserved": 0, "fusion_lat": 0.0, "lat": 38.90957366666667, "fusion_lon": 0.0, "rental_uris": {"ios": "https://dc.lft.to/lastmile_qr_scan", "android": "https://dc.lft.to/lastmile_qr_scan"}, "lon": -77.032462, "bike_id": "119325b66caf0e2de4fa84866a38da15", "type": "electric_scooter", "name": "119325b66caf0e2de4fa84866a38da15"}, {"is_disabled": 0, "is_reserved": 0, "fusion_lat": 0.0, "lat": 38.8464715, "fusion_lon": 0.0, "rental_uris": {"ios": "https://dc.lft.to/lastmile_qr_scan", "android": "https://dc.lft.to/lastmile_qr_scan"}, "lon": -77.00370083333334, "bike_id": "fa192b9b897e9b1e052f0e6201df9f52", "type": "electric_scooter", "name": "fa192b9b897e9b1e052f0e6201df9f52"}, {"is_disabled": 0, "is_reserved": 0, "fusion_lat": 0.0, "lat": 38.913113833333334, "fusion_lon": 0.0, "rental_uris": {"ios": "https://dc.lft.to/lastmile_qr_scan", "android": "https://dc.lft.to/lastmile_qr_scan"}, "lon": -77.0143725, "bike_id": "0a564a52af50db20ef5392fb93f93c33", "type": "electric_scooter", "name": "0a564a52af50db20ef5392fb93f93c33"}, {"is_disabled": 0, "is_reserved": 0, "fusion_lat": 0.0, "lat": 38.88712233333333, "fusion_lon": 0.0, "rental_uris": {"ios": "https://dc.lft.to/lastmile_qr_scan", "android": "https://dc.lft.to/lastmile_qr_scan"}, "lon": -76.98343716666666, "bike_id": "573387bc301e90f3183a54ad953fbaaa", "type": "electric_scooter", "name": "573387bc301e90f3183a54ad953fbaaa"}, {"is_disabled": 0, "is_reserved": 0, "fusion_lat": 0.0, "lat": 38.90033066666667, "fusion_lon": 0.0, "rental_uris": {"ios": "https://dc.lft.to/lastmile_qr_scan", "android": "https://dc.lft.to/lastmile_qr_scan"}, "lon": -77.01780016666666, "bike_id": "bf403a93979bd14153a0bc361b23db90", "type": "electric_scooter", "name": "bf403a93979bd14153a0bc361b23db90"}, {"is_disabled": 0, "is_reserved": 0, "fusion_lat": 0.0, "lat": 38.917787, "fusion_lon": 0.0, "rental_uris": {"ios": "https://dc.lft.to/lastmile_qr_scan", "android": "https://dc.lft.to/lastmile_qr_scan"}, "lon": -77.0269965, "bike_id": "026c49dca420510153bba03243391783", "type": "electric_scooter", "name": "026c49dca420510153bba03243391783"}, {"is_disabled": 0, "is_reserved": 0, "fusion_lat": 0.0, "lat": 38.880248333333334, "fusion_lon": 0.0, "rental_uris": {"ios": "https://dc.lft.to/lastmile_qr_scan", "android": "https://dc.lft.to/lastmile_qr_scan"}, "lon": -76.94327133333333, "bike_id": "03124958d245a7741d10964f8f47a044", "type": "electric_scooter", "name": "03124958d245a7741d10964f8f47a044"}, {"is_disabled": 0, "is_reserved": 0, "fusion_lat": 0.0, "lat": 38.870841, "fusion_lon": 0.0, "rental_uris": {"ios": "https://dc.lft.to/lastmile_qr_scan", "android": "https://dc.lft.to/lastmile_qr_scan"}, "lon": -77.13331883333333, "bike_id": "e75284a539c8e2a940a7fc81a79e3ff4", "type": "electric_bike", "name": "e75284a539c8e2a940a7fc81a79e3ff4"}, {"is_disabled": 0, "is_reserved": 0, "fusion_lat": 0.0, "lat": 38.8315505, "fusion_lon": 0.0, "rental_uris": {"ios": "https://dc.lft.to/lastmile_qr_scan", "android": "https://dc.lft.to/lastmile_qr_scan"}, "lon": -76.99574466666667, "bike_id": "0bddafd7629846397bc9df53b159b6ec", "type": "electric_bike", "name": "0bddafd7629846397bc9df53b159b6ec"}, {"is_disabled": 0, "is_reserved": 0, "fusion_lat": 0.0, "lat": 38.893924166666665, "fusion_lon": 0.0, "rental_uris": {"ios": "https://dc.lft.to/lastmile_qr_scan", "android": "https://dc.lft.to/lastmile_qr_scan"}, "lon": -77.04659533333333, "bike_id": "5c116acdb07e15402ca15f500189a5d7", "type": "electric_scooter", "name": "5c116acdb07e15402ca15f500189a5d7"}, {"is_disabled": 0, "is_reserved": 0, "fusion_lat": 0.0, "lat": 38.92102783333333, "fusion_lon": 0.0, "rental_uris": {"ios": "https://dc.lft.to/lastmile_qr_scan", "android": "https://dc.lft.to/lastmile_qr_scan"}, "lon": -77.0416715, "bike_id": "b854f5a4c13d39c3b34000b3a7534286", "type": "electric_scooter", "name": "b854f5a4c13d39c3b34000b3a7534286"}, {"is_disabled": 0, "is_reserved": 0, "fusion_lat": 0.0, "lat": 38.916129, "fusion_lon": 0.0, "rental_uris": {"ios": "https://dc.lft.to/lastmile_qr_scan", "android": "https://dc.lft.to/lastmile_qr_scan"}, "lon": -77.02125533333333, "bike_id": "76ceedc481b82abe8ef00be935cd3328", "type": "electric_scooter", "name": "76ceedc481b82abe8ef00be935cd3328"}, {"is_disabled": 0, "is_reserved": 0, "fusion_lat": 0.0, "lat": 38.87631783333333, "fusion_lon": 0.0, "rental_uris": {"ios": "https://dc.lft.to/lastmile_qr_scan", "android": "https://dc.lft.to/lastmile_qr_scan"}, "lon": -77.00959283333333, "bike_id": "fa8b86877abad041ca97e3bca129a650", "type": "electric_scooter", "name": "fa8b86877abad041ca97e3bca129a650"}, {"is_disabled": 0, "is_reserved": 0, "fusion_lat": 0.0, "lat": 38.9105425, "fusion_lon": 0.0, "rental_uris": {"ios": "https://dc.lft.to/lastmile_qr_scan", "android": "https://dc.lft.to/lastmile_qr_scan"}, "lon": -77.023016, "bike_id": "dc3ed9b02ef73603f157e97caed1ff28", "type": "electric_scooter", "name": "dc3ed9b02ef73603f157e97caed1ff28"}, {"is_disabled": 0, "is_reserved": 0, "fusion_lat": 0.0, "lat": 38.897392333333336, "fusion_lon": 0.0, "rental_uris": {"ios": "https://dc.lft.to/lastmile_qr_scan", "android": "https://dc.lft.to/lastmile_qr_scan"}, "lon": -77.02718533333334, "bike_id": "6fe8d6e7a26d8ddfc292e99a283b5c84", "type": "electric_scooter", "name": "6fe8d6e7a26d8ddfc292e99a283b5c84"}, {"is_disabled": 0, "is_reserved": 0, "fusion_lat": 0.0, "lat": 38.923168833333335, "fusion_lon": 0.0, "rental_uris": {"ios": "https://dc.lft.to/lastmile_qr_scan", "android": "https://dc.lft.to/lastmile_qr_scan"}, "lon": -77.02804766666667, "bike_id": "ee4e2d6505483e05de682916c649e521", "type": "electric_scooter", "name": "ee4e2d6505483e05de682916c649e521"}, {"is_disabled": 0, "is_reserved": 0, "fusion_lat": 0.0, "lat": 38.88735116666667, "fusion_lon": 0.0, "rental_uris": {"ios": "https://dc.lft.to/lastmile_qr_scan", "android": "https://dc.lft.to/lastmile_qr_scan"}, "lon": -77.02206416666667, "bike_id": "5d9277a92f725e3c144e4a16e52fc4c1", "type": "electric_scooter", "name": "5d9277a92f725e3c144e4a16e52fc4c1"}, {"is_disabled": 0, "is_reserved": 0, "fusion_lat": 0.0, "lat": 38.91813783333333, "fusion_lon": 0.0, "rental_uris": {"ios": "https://dc.lft.to/lastmile_qr_scan", "android": "https://dc.lft.to/lastmile_qr_scan"}, "lon": -77.03997566666666, "bike_id": "5fd2f71bc94814440b48cce7de5cfd06", "type": "electric_scooter", "name": "5fd2f71bc94814440b48cce7de5cfd06"}, {"is_disabled": 0, "is_reserved": 0, "fusion_lat": 0.0, "lat": 38.89253566666667, "fusion_lon": 0.0, "rental_uris": {"ios": "https://dc.lft.to/lastmile_qr_scan", "android": "https://dc.lft.to/lastmile_qr_scan"}, "lon": -77.04660766666667, "bike_id": "3107b99fd52679b11103c4ad9226a2ce", "type": "electric_scooter", "name": "3107b99fd52679b11103c4ad9226a2ce"}, {"is_disabled": 0, "is_reserved": 0, "fusion_lat": 0.0, "lat": 38.85784966666667, "fusion_lon": 0.0, "rental_uris": {"ios": "https://dc.lft.to/lastmile_qr_scan", "android": "https://dc.lft.to/lastmile_qr_scan"}, "lon": -76.98759166666666, "bike_id": "10b971c0cc0b1c6205a0f8ffb7dfba9a", "type": "electric_bike", "name": "10b971c0cc0b1c6205a0f8ffb7dfba9a"}, {"is_disabled": 0, "is_reserved": 0, "fusion_lat": 0.0, "lat": 38.91924433333333, "fusion_lon": 0.0, "rental_uris": {"ios": "https://dc.lft.to/lastmile_qr_scan", "android": "https://dc.lft.to/lastmile_qr_scan"}, "lon": -77.03099966666667, "bike_id": "3a811615952b5ef3316a995b77883c4a", "type": "electric_scooter", "name": "3a811615952b5ef3316a995b77883c4a"}, {"is_disabled": 0, "is_reserved": 0, "fusion_lat": 0.0, "lat": 38.924095333333334, "fusion_lon": 0.0, "rental_uris": {"ios": "https://dc.lft.to/lastmile_qr_scan", "android": "https://dc.lft.to/lastmile_qr_scan"}, "lon": -77.02708083333333, "bike_id": "96d39650f09da9b12f2518162b0335cb", "type": "electric_scooter", "name": "96d39650f09da9b12f2518162b0335cb"}, {"is_disabled": 0, "is_reserved": 0, "fusion_lat": 0.0, "lat": 38.92194383333333, "fusion_lon": 0.0, "rental_uris": {"ios": "https://dc.lft.to/lastmile_qr_scan", "android": "https://dc.lft.to/lastmile_qr_scan"}, "lon": -77.03787016666666, "bike_id": "cd6eda520b39923fd516f26df3e83ddf", "type": "electric_scooter", "name": "cd6eda520b39923fd516f26df3e83ddf"}, {"is_disabled": 0, "is_reserved": 0, "fusion_lat": 0.0, "lat": 38.93862583333333, "fusion_lon": 0.0, "rental_uris": {"ios": "https://dc.lft.to/lastmile_qr_scan", "android": "https://dc.lft.to/lastmile_qr_scan"}, "lon": -77.02625316666666, "bike_id": "258a15c841579c4b8838636316d8cc1c", "type": "electric_bike", "name": "258a15c841579c4b8838636316d8cc1c"}, {"is_disabled": 0, "is_reserved": 0, "fusion_lat": 0.0, "lat": 38.92569316666667, "fusion_lon": 0.0, "rental_uris": {"ios": "https://dc.lft.to/lastmile_qr_scan", "android": "https://dc.lft.to/lastmile_qr_scan"}, "lon": -77.03138316666667, "bike_id": "f50e8507fccb787921004919c3f36a78", "type": "electric_scooter", "name": "f50e8507fccb787921004919c3f36a78"}, {"is_disabled": 0, "is_reserved": 0, "fusion_lat": 0.0, "lat": 38.897674333333335, "fusion_lon": 0.0, "rental_uris": {"ios": "https://dc.lft.to/lastmile_qr_scan", "android": "https://dc.lft.to/lastmile_qr_scan"}, "lon": -76.97682716666667, "bike_id": "32b7ac230bba84be197b5a9e294be6f4", "type": "electric_scooter", "name": "32b7ac230bba84be197b5a9e294be6f4"}, {"is_disabled": 0, "is_reserved": 0, "fusion_lat": 0.0, "lat": 38.9205025, "fusion_lon": 0.0, "rental_uris": {"ios": "https://dc.lft.to/lastmile_qr_scan", "android": "https://dc.lft.to/lastmile_qr_scan"}, "lon": -77.03336, "bike_id": "d1b351105f3582cd1118b2bc2e832396", "type": "electric_scooter", "name": "d1b351105f3582cd1118b2bc2e832396"}, {"is_disabled": 0, "is_reserved": 0, "fusion_lat": 0.0, "lat": 38.891745666666665, "fusion_lon": 0.0, "rental_uris": {"ios": "https://dc.lft.to/lastmile_qr_scan", "android": "https://dc.lft.to/lastmile_qr_scan"}, "lon": -77.01560116666667, "bike_id": "605ff58539fa04edb74212721e6898ee", "type": "electric_scooter", "name": "605ff58539fa04edb74212721e6898ee"}, {"is_disabled": 0, "is_reserved": 0, "fusion_lat": 0.0, "lat": 38.9188405, "fusion_lon": 0.0, "rental_uris": {"ios": "https://dc.lft.to/lastmile_qr_scan", "android": "https://dc.lft.to/lastmile_qr_scan"}, "lon": -77.03200716666667, "bike_id": "b01383159aa90e487ad6348972fe42d8", "type": "electric_scooter", "name": "b01383159aa90e487ad6348972fe42d8"}, {"is_disabled": 0, "is_reserved": 0, "fusion_lat": 0.0, "lat": 38.907685666666666, "fusion_lon": 0.0, "rental_uris": {"ios": "https://dc.lft.to/lastmile_qr_scan", "android": "https://dc.lft.to/lastmile_qr_scan"}, "lon": -76.99920283333333, "bike_id": "372f075ba26086083fcd0b939a695e95", "type": "electric_scooter", "name": "372f075ba26086083fcd0b939a695e95"}, {"is_disabled": 0, "is_reserved": 0, "fusion_lat": 0.0, "lat": 38.895484333333336, "fusion_lon": 0.0, "rental_uris": {"ios": "https://dc.lft.to/lastmile_qr_scan", "android": "https://dc.lft.to/lastmile_qr_scan"}, "lon": -77.01587316666667, "bike_id": "bdc8644524f21da2ecb7d5dbcaf62465", "type": "electric_scooter", "name": "bdc8644524f21da2ecb7d5dbcaf62465"}, {"is_disabled": 0, "is_reserved": 0, "fusion_lat": 0.0, "lat": 38.89169916666667, "fusion_lon": 0.0, "rental_uris": {"ios": "https://dc.lft.to/lastmile_qr_scan", "android": "https://dc.lft.to/lastmile_qr_scan"}, "lon": -77.015527, "bike_id": "e370dbae538a4bd030652c7f6acb1cff", "type": "electric_scooter", "name": "e370dbae538a4bd030652c7f6acb1cff"}, {"is_disabled": 0, "is_reserved": 0, "fusion_lat": 0.0, "lat": 38.882167333333335, "fusion_lon": 0.0, "rental_uris": {"ios": "https://dc.lft.to/lastmile_qr_scan", "android": "https://dc.lft.to/lastmile_qr_scan"}, "lon": -76.99736183333333, "bike_id": "53ae08b8f1bcd27432d8363dbf73909b", "type": "electric_scooter", "name": "53ae08b8f1bcd27432d8363dbf73909b"}, {"is_disabled": 0, "is_reserved": 0, "fusion_lat": 0.0, "lat": 38.89735566666667, "fusion_lon": 0.0, "rental_uris": {"ios": "https://dc.lft.to/lastmile_qr_scan", "android": "https://dc.lft.to/lastmile_qr_scan"}, "lon": -77.02720866666667, "bike_id": "1a3105c7146e8f433f3991438bcc9420", "type": "electric_scooter", "name": "1a3105c7146e8f433f3991438bcc9420"}, {"is_disabled": 0, "is_reserved": 0, "fusion_lat": 0.0, "lat": 38.9010325, "fusion_lon": 0.0, "rental_uris": {"ios": "https://dc.lft.to/lastmile_qr_scan", "android": "https://dc.lft.to/lastmile_qr_scan"}, "lon": -77.038058, "bike_id": "2e3a65b450722fd71f32b57ede6f4842", "type": "electric_scooter", "name": "2e3a65b450722fd71f32b57ede6f4842"}, {"is_disabled": 0, "is_reserved": 0, "fusion_lat": 0.0, "lat": 38.9217525, "fusion_lon": 0.0, "rental_uris": {"ios": "https://dc.lft.to/lastmile_qr_scan", "android": "https://dc.lft.to/lastmile_qr_scan"}, "lon": -77.04231066666667, "bike_id": "3715489049f83e56b1e44680dbf5dc6b", "type": "electric_scooter", "name": "3715489049f83e56b1e44680dbf5dc6b"}, {"is_disabled": 0, "is_reserved": 0, "fusion_lat": 0.0, "lat": 38.85637333333333, "fusion_lon": 0.0, "rental_uris": {"ios": "https://dc.lft.to/lastmile_qr_scan", "android": "https://dc.lft.to/lastmile_qr_scan"}, "lon": -77.068335, "bike_id": "aff6f7a828ca04e0ed4bfdc0731412d4", "type": "electric_bike", "name": "aff6f7a828ca04e0ed4bfdc0731412d4"}, {"is_disabled": 0, "is_reserved": 0, "fusion_lat": 0.0, "lat": 38.86559183333333, "fusion_lon": 0.0, "rental_uris": {"ios": "https://dc.lft.to/lastmile_qr_scan", "android": "https://dc.lft.to/lastmile_qr_scan"}, "lon": -76.974758, "bike_id": "cab18e4dfb5530a1ad08cd9b38d0de77", "type": "electric_bike", "name": "cab18e4dfb5530a1ad08cd9b38d0de77"}, {"is_disabled": 0, "is_reserved": 0, "fusion_lat": 0.0, "lat": 38.824321833333336, "fusion_lon": 0.0, "rental_uris": {"ios": "https://dc.lft.to/lastmile_qr_scan", "android": "https://dc.lft.to/lastmile_qr_scan"}, "lon": -77.12042633333333, "bike_id": "f11338dbb66c81afe8f6260fc761f400", "type": "electric_bike", "name": "f11338dbb66c81afe8f6260fc761f400"}, {"is_disabled": 0, "is_reserved": 0, "fusion_lat": 0.0, "lat": 38.94287533333333, "fusion_lon": 0.0, "rental_uris": {"ios": "https://dc.lft.to/lastmile_qr_scan", "android": "https://dc.lft.to/lastmile_qr_scan"}, "lon": -77.02169666666667, "bike_id": "33b151939c3e2f400e03df525bdb8165", "type": "electric_scooter", "name": "33b151939c3e2f400e03df525bdb8165"}, {"is_disabled": 0, "is_reserved": 0, "fusion_lat": 0.0, "lat": 38.917155666666666, "fusion_lon": 0.0, "rental_uris": {"ios": "https://dc.lft.to/lastmile_qr_scan", "android": "https://dc.lft.to/lastmile_qr_scan"}, "lon": -77.02295, "bike_id": "9851774d2f06251e78f5a7f9e07334c8", "type": "electric_scooter", "name": "9851774d2f06251e78f5a7f9e07334c8"}, {"is_disabled": 0, "is_reserved": 0, "fusion_lat": 0.0, "lat": 38.920632833333336, "fusion_lon": 0.0, "rental_uris": {"ios": "https://dc.lft.to/lastmile_qr_scan", "android": "https://dc.lft.to/lastmile_qr_scan"}, "lon": -77.04381183333334, "bike_id": "ec6a5d9b35dfc5b4fe0cd7ed609d6225", "type": "electric_scooter", "name": "ec6a5d9b35dfc5b4fe0cd7ed609d6225"}, {"is_disabled": 0, "is_reserved": 0, "fusion_lat": 0.0, "lat": 38.921673, "fusion_lon": 0.0, "rental_uris": {"ios": "https://dc.lft.to/lastmile_qr_scan", "android": "https://dc.lft.to/lastmile_qr_scan"}, "lon": -77.04224516666666, "bike_id": "d97a41388fb240346dbac70d84726205", "type": "electric_scooter", "name": "d97a41388fb240346dbac70d84726205"}, {"is_disabled": 0, "is_reserved": 0, "fusion_lat": 0.0, "lat": 38.8966505, "fusion_lon": 0.0, "rental_uris": {"ios": "https://dc.lft.to/lastmile_qr_scan", "android": "https://dc.lft.to/lastmile_qr_scan"}, "lon": -76.949082, "bike_id": "de57a5c539ead3229b2a6b765757f928", "type": "electric_scooter", "name": "de57a5c539ead3229b2a6b765757f928"}, {"is_disabled": 0, "is_reserved": 0, "fusion_lat": 0.0, "lat": 38.941749333333334, "fusion_lon": 0.0, "rental_uris": {"ios": "https://dc.lft.to/lastmile_qr_scan", "android": "https://dc.lft.to/lastmile_qr_scan"}, "lon": -77.01532016666667, "bike_id": "53152cecd9968fe7b73cbf1c9b3840d4", "type": "electric_scooter", "name": "53152cecd9968fe7b73cbf1c9b3840d4"}, {"is_disabled": 0, "is_reserved": 0, "fusion_lat": 0.0, "lat": 38.934533333333334, "fusion_lon": 0.0, "rental_uris": {"ios": "https://dc.lft.to/lastmile_qr_scan", "android": "https://dc.lft.to/lastmile_qr_scan"}, "lon": -77.03500766666667, "bike_id": "96143f83c80c32f788c01bfb6252cbd2", "type": "electric_scooter", "name": "96143f83c80c32f788c01bfb6252cbd2"}, {"is_disabled": 0, "is_reserved": 0, "fusion_lat": 0.0, "lat": 38.82923016666667, "fusion_lon": 0.0, "rental_uris": {"ios": "https://dc.lft.to/lastmile_qr_scan", "android": "https://dc.lft.to/lastmile_qr_scan"}, "lon": -77.0688055, "bike_id": "817d0d160004de057c94c28e4f12ff09", "type": "electric_bike", "name": "817d0d160004de057c94c28e4f12ff09"}, {"is_disabled": 0, "is_reserved": 0, "fusion_lat": 0.0, "lat": 38.92868033333333, "fusion_lon": 0.0, "rental_uris": {"ios": "https://dc.lft.to/lastmile_qr_scan", "android": "https://dc.lft.to/lastmile_qr_scan"}, "lon": -77.05657366666667, "bike_id": "c2842286bf306fc88f780ffa2f2b44ce", "type": "electric_scooter", "name": "c2842286bf306fc88f780ffa2f2b44ce"}, {"is_disabled": 0, "is_reserved": 0, "fusion_lat": 0.0, "lat": 38.92352533333333, "fusion_lon": 0.0, "rental_uris": {"ios": "https://dc.lft.to/lastmile_qr_scan", "android": "https://dc.lft.to/lastmile_qr_scan"}, "lon": -77.04320466666667, "bike_id": "20fd3203ead6a5ae41fb4b6c45370fab", "type": "electric_scooter", "name": "20fd3203ead6a5ae41fb4b6c45370fab"}, {"is_disabled": 0, "is_reserved": 0, "fusion_lat": 0.0, "lat": 38.895037, "fusion_lon": 0.0, "rental_uris": {"ios": "https://dc.lft.to/lastmile_qr_scan", "android": "https://dc.lft.to/lastmile_qr_scan"}, "lon": -77.02214416666666, "bike_id": "8f7b4926e1dee164f95afa4b72c6ce82", "type": "electric_scooter", "name": "8f7b4926e1dee164f95afa4b72c6ce82"}, {"is_disabled": 0, "is_reserved": 0, "fusion_lat": 0.0, "lat": 38.8803705, "fusion_lon": 0.0, "rental_uris": {"ios": "https://dc.lft.to/lastmile_qr_scan", "android": "https://dc.lft.to/lastmile_qr_scan"}, "lon": -76.9272255, "bike_id": "3e428e273dd9df5d611a5dcc58a561f2", "type": "electric_scooter", "name": "3e428e273dd9df5d611a5dcc58a561f2"}, {"is_disabled": 0, "is_reserved": 0, "fusion_lat": 0.0, "lat": 38.922618666666665, "fusion_lon": 0.0, "rental_uris": {"ios": "https://dc.lft.to/lastmile_qr_scan", "android": "https://dc.lft.to/lastmile_qr_scan"}, "lon": -77.07274333333334, "bike_id": "dca58c1071c34887074c150354826982", "type": "electric_scooter", "name": "dca58c1071c34887074c150354826982"}, {"is_disabled": 0, "is_reserved": 0, "fusion_lat": 0.0, "lat": 38.899150166666665, "fusion_lon": 0.0, "rental_uris": {"ios": "https://dc.lft.to/lastmile_qr_scan", "android": "https://dc.lft.to/lastmile_qr_scan"}, "lon": -76.93382366666667, "bike_id": "d47bb875f7c6ef2e8350c75910ab85b2", "type": "electric_scooter", "name": "d47bb875f7c6ef2e8350c75910ab85b2"}, {"is_disabled": 0, "is_reserved": 0, "fusion_lat": 0.0, "lat": 38.915133, "fusion_lon": 0.0, "rental_uris": {"ios": "https://dc.lft.to/lastmile_qr_scan", "android": "https://dc.lft.to/lastmile_qr_scan"}, "lon": -77.02595733333334, "bike_id": "4be8a8e3c1fe8511e953499fe7eb942f", "type": "electric_scooter", "name": "4be8a8e3c1fe8511e953499fe7eb942f"}, {"is_disabled": 0, "is_reserved": 0, "fusion_lat": 0.0, "lat": 38.9275645, "fusion_lon": 0.0, "rental_uris": {"ios": "https://dc.lft.to/lastmile_qr_scan", "android": "https://dc.lft.to/lastmile_qr_scan"}, "lon": -77.02949583333333, "bike_id": "05b5c4caaf845714b4191cb8f65fb34b", "type": "electric_scooter", "name": "05b5c4caaf845714b4191cb8f65fb34b"}, {"is_disabled": 0, "is_reserved": 0, "fusion_lat": 0.0, "lat": 38.910601, "fusion_lon": 0.0, "rental_uris": {"ios": "https://dc.lft.to/lastmile_qr_scan", "android": "https://dc.lft.to/lastmile_qr_scan"}, "lon": -77.041, "bike_id": "aa44c83682bd2b5dbb4209eef009d4ef", "type": "electric_scooter", "name": "aa44c83682bd2b5dbb4209eef009d4ef"}, {"is_disabled": 0, "is_reserved": 0, "fusion_lat": 0.0, "lat": 38.8922665, "fusion_lon": 0.0, "rental_uris": {"ios": "https://dc.lft.to/lastmile_qr_scan", "android": "https://dc.lft.to/lastmile_qr_scan"}, "lon": -77.031744, "bike_id": "b41205e708f68eb5d7bc446bd078951c", "type": "electric_scooter", "name": "b41205e708f68eb5d7bc446bd078951c"}, {"is_disabled": 0, "is_reserved": 0, "fusion_lat": 0.0, "lat": 38.937348, "fusion_lon": 0.0, "rental_uris": {"ios": "https://dc.lft.to/lastmile_qr_scan", "android": "https://dc.lft.to/lastmile_qr_scan"}, "lon": -77.03587416666667, "bike_id": "85f3a52df07a913fc8cc0e6a52af52f2", "type": "electric_scooter", "name": "85f3a52df07a913fc8cc0e6a52af52f2"}, {"is_disabled": 0, "is_reserved": 0, "fusion_lat": 0.0, "lat": 38.9370065, "fusion_lon": 0.0, "rental_uris": {"ios": "https://dc.lft.to/lastmile_qr_scan", "android": "https://dc.lft.to/lastmile_qr_scan"}, "lon": -77.05680933333333, "bike_id": "b43701a33fdbb3b45dae0975cb9bb3f4", "type": "electric_scooter", "name": "b43701a33fdbb3b45dae0975cb9bb3f4"}, {"is_disabled": 0, "is_reserved": 0, "fusion_lat": 0.0, "lat": 38.915207, "fusion_lon": 0.0, "rental_uris": {"ios": "https://dc.lft.to/lastmile_qr_scan", "android": "https://dc.lft.to/lastmile_qr_scan"}, "lon": -77.04158916666667, "bike_id": "1816f950c876825ebd5c0824d23f0f11", "type": "electric_scooter", "name": "1816f950c876825ebd5c0824d23f0f11"}, {"is_disabled": 0, "is_reserved": 0, "fusion_lat": 0.0, "lat": 38.89508216666667, "fusion_lon": 0.0, "rental_uris": {"ios": "https://dc.lft.to/lastmile_qr_scan", "android": "https://dc.lft.to/lastmile_qr_scan"}, "lon": -77.04164466666667, "bike_id": "c2618d0e1c1cf297144733fab43519a8", "type": "electric_scooter", "name": "c2618d0e1c1cf297144733fab43519a8"}, {"is_disabled": 0, "is_reserved": 0, "fusion_lat": 0.0, "lat": 38.949780833333335, "fusion_lon": 0.0, "rental_uris": {"ios": "https://dc.lft.to/lastmile_qr_scan", "android": "https://dc.lft.to/lastmile_qr_scan"}, "lon": -77.02449083333333, "bike_id": "ad2c3775ecab1a5597d4ce828aedd6fb", "type": "electric_scooter", "name": "ad2c3775ecab1a5597d4ce828aedd6fb"}, {"is_disabled": 0, "is_reserved": 0, "fusion_lat": 0.0, "lat": 38.89418666666667, "fusion_lon": 0.0, "rental_uris": {"ios": "https://dc.lft.to/lastmile_qr_scan", "android": "https://dc.lft.to/lastmile_qr_scan"}, "lon": -77.02134816666667, "bike_id": "b1668ef88315ab70cac579800d6c5eb0", "type": "electric_scooter", "name": "b1668ef88315ab70cac579800d6c5eb0"}, {"is_disabled": 0, "is_reserved": 0, "fusion_lat": 0.0, "lat": 38.941877, "fusion_lon": 0.0, "rental_uris": {"ios": "https://dc.lft.to/lastmile_qr_scan", "android": "https://dc.lft.to/lastmile_qr_scan"}, "lon": -77.02317, "bike_id": "159a01b391ce7b15d521e69a1083a1c1", "type": "electric_bike", "name": "159a01b391ce7b15d521e69a1083a1c1"}, {"is_disabled": 0, "is_reserved": 0, "fusion_lat": 0.0, "lat": 38.933734, "fusion_lon": 0.0, "rental_uris": {"ios": "https://dc.lft.to/lastmile_qr_scan", "android": "https://dc.lft.to/lastmile_qr_scan"}, "lon": -77.02730633333333, "bike_id": "9e42a6b155a28886cb3558aa38937d33", "type": "electric_scooter", "name": "9e42a6b155a28886cb3558aa38937d33"}, {"is_disabled": 0, "is_reserved": 0, "fusion_lat": 0.0, "lat": 38.93524033333333, "fusion_lon": 0.0, "rental_uris": {"ios": "https://dc.lft.to/lastmile_qr_scan", "android": "https://dc.lft.to/lastmile_qr_scan"}, "lon": -77.03817733333334, "bike_id": "1e2e5eade2b065d63e7bfaf0347a8165", "type": "electric_scooter", "name": "1e2e5eade2b065d63e7bfaf0347a8165"}, {"is_disabled": 0, "is_reserved": 0, "fusion_lat": 0.0, "lat": 38.961725, "fusion_lon": 0.0, "rental_uris": {"ios": "https://dc.lft.to/lastmile_qr_scan", "android": "https://dc.lft.to/lastmile_qr_scan"}, "lon": -77.03230483333333, "bike_id": "f7a65ac3c481539bc2f884f1ad8214b9", "type": "electric_scooter", "name": "f7a65ac3c481539bc2f884f1ad8214b9"}, {"is_disabled": 0, "is_reserved": 0, "fusion_lat": 0.0, "lat": 38.886552, "fusion_lon": 0.0, "rental_uris": {"ios": "https://dc.lft.to/lastmile_qr_scan", "android": "https://dc.lft.to/lastmile_qr_scan"}, "lon": -77.03388383333333, "bike_id": "859ff3db654c39c134604c412e091aba", "type": "electric_scooter", "name": "859ff3db654c39c134604c412e091aba"}, {"is_disabled": 0, "is_reserved": 0, "fusion_lat": 0.0, "lat": 38.94363083333333, "fusion_lon": 0.0, "rental_uris": {"ios": "https://dc.lft.to/lastmile_qr_scan", "android": "https://dc.lft.to/lastmile_qr_scan"}, "lon": -77.06115516666667, "bike_id": "8eb1958d7ff1e687cd611c8d7253a3b9", "type": "electric_scooter", "name": "8eb1958d7ff1e687cd611c8d7253a3b9"}, {"is_disabled": 0, "is_reserved": 0, "fusion_lat": 0.0, "lat": 38.931706166666665, "fusion_lon": 0.0, "rental_uris": {"ios": "https://dc.lft.to/lastmile_qr_scan", "android": "https://dc.lft.to/lastmile_qr_scan"}, "lon": -77.0282025, "bike_id": "fb3cc4f2b2466e08470ae7f0ffd5ceee", "type": "electric_scooter", "name": "fb3cc4f2b2466e08470ae7f0ffd5ceee"}, {"is_disabled": 0, "is_reserved": 0, "fusion_lat": 0.0, "lat": 38.82755816666667, "fusion_lon": 0.0, "rental_uris": {"ios": "https://dc.lft.to/lastmile_qr_scan", "android": "https://dc.lft.to/lastmile_qr_scan"}, "lon": -77.05033416666667, "bike_id": "6ec65d3e795567a932f349c7d246427a", "type": "electric_bike", "name": "6ec65d3e795567a932f349c7d246427a"}, {"is_disabled": 0, "is_reserved": 0, "fusion_lat": 0.0, "lat": 38.931004333333334, "fusion_lon": 0.0, "rental_uris": {"ios": "https://dc.lft.to/lastmile_qr_scan", "android": "https://dc.lft.to/lastmile_qr_scan"}, "lon": -77.02483416666666, "bike_id": "1120a9ff873e97e75cc49d5aa855d8a2", "type": "electric_scooter", "name": "1120a9ff873e97e75cc49d5aa855d8a2"}, {"is_disabled": 0, "is_reserved": 0, "fusion_lat": 0.0, "lat": 38.918575833333335, "fusion_lon": 0.0, "rental_uris": {"ios": "https://dc.lft.to/lastmile_qr_scan", "android": "https://dc.lft.to/lastmile_qr_scan"}, "lon": -77.04038133333333, "bike_id": "5f47575b56fabc3a60c2cfa273e33d4f", "type": "electric_scooter", "name": "5f47575b56fabc3a60c2cfa273e33d4f"}, {"is_disabled": 0, "is_reserved": 0, "fusion_lat": 0.0, "lat": 38.915471833333335, "fusion_lon": 0.0, "rental_uris": {"ios": "https://dc.lft.to/lastmile_qr_scan", "android": "https://dc.lft.to/lastmile_qr_scan"}, "lon": -77.0464085, "bike_id": "ba28d47e4cea853ec4dcd2dea7997400", "type": "electric_scooter", "name": "ba28d47e4cea853ec4dcd2dea7997400"}, {"is_disabled": 0, "is_reserved": 0, "fusion_lat": 0.0, "lat": 38.917012166666666, "fusion_lon": 0.0, "rental_uris": {"ios": "https://dc.lft.to/lastmile_qr_scan", "android": "https://dc.lft.to/lastmile_qr_scan"}, "lon": -77.01181866666667, "bike_id": "ccf65de8b9e5ff4cb5a4ccfbfb6b52cc", "type": "electric_scooter", "name": "ccf65de8b9e5ff4cb5a4ccfbfb6b52cc"}, {"is_disabled": 0, "is_reserved": 0, "fusion_lat": 0.0, "lat": 38.892219833333336, "fusion_lon": 0.0, "rental_uris": {"ios": "https://dc.lft.to/lastmile_qr_scan", "android": "https://dc.lft.to/lastmile_qr_scan"}, "lon": -77.043692, "bike_id": "6a649ee950ce7356a9af9d2971ca6c79", "type": "electric_scooter", "name": "6a649ee950ce7356a9af9d2971ca6c79"}, {"is_disabled": 0, "is_reserved": 0, "fusion_lat": 0.0, "lat": 38.86261783333333, "fusion_lon": 0.0, "rental_uris": {"ios": "https://dc.lft.to/lastmile_qr_scan", "android": "https://dc.lft.to/lastmile_qr_scan"}, "lon": -76.9835475, "bike_id": "40fd263505bdcef808eb6229346377b9", "type": "electric_bike", "name": "40fd263505bdcef808eb6229346377b9"}, {"is_disabled": 0, "is_reserved": 0, "fusion_lat": 0.0, "lat": 38.8919905, "fusion_lon": 0.0, "rental_uris": {"ios": "https://dc.lft.to/lastmile_qr_scan", "android": "https://dc.lft.to/lastmile_qr_scan"}, "lon": -77.04387433333333, "bike_id": "767df64182caf3bccf8d86699bde5f4a", "type": "electric_scooter", "name": "767df64182caf3bccf8d86699bde5f4a"}, {"is_disabled": 0, "is_reserved": 0, "fusion_lat": 0.0, "lat": 38.906997, "fusion_lon": 0.0, "rental_uris": {"ios": "https://dc.lft.to/lastmile_qr_scan", "android": "https://dc.lft.to/lastmile_qr_scan"}, "lon": -76.98695583333334, "bike_id": "8591f0edea9c732472d1c21c57e6ecc2", "type": "electric_scooter", "name": "8591f0edea9c732472d1c21c57e6ecc2"}, {"is_disabled": 0, "is_reserved": 0, "fusion_lat": 0.0, "lat": 38.91120383333333, "fusion_lon": 0.0, "rental_uris": {"ios": "https://dc.lft.to/lastmile_qr_scan", "android": "https://dc.lft.to/lastmile_qr_scan"}, "lon": -76.997474, "bike_id": "00c14db5bde588412a83b92c0a0ebc63", "type": "electric_scooter", "name": "00c14db5bde588412a83b92c0a0ebc63"}, {"is_disabled": 0, "is_reserved": 0, "fusion_lat": 0.0, "lat": 38.92968316666666, "fusion_lon": 0.0, "rental_uris": {"ios": "https://dc.lft.to/lastmile_qr_scan", "android": "https://dc.lft.to/lastmile_qr_scan"}, "lon": -77.03284033333334, "bike_id": "562f3176cb6169d6edb3cbbf21db744a", "type": "electric_scooter", "name": "562f3176cb6169d6edb3cbbf21db744a"}, {"is_disabled": 0, "is_reserved": 0, "fusion_lat": 0.0, "lat": 38.967766833333336, "fusion_lon": 0.0, "rental_uris": {"ios": "https://dc.lft.to/lastmile_qr_scan", "android": "https://dc.lft.to/lastmile_qr_scan"}, "lon": -76.9965305, "bike_id": "efaadacb088901a609dcceed7259c7ea", "type": "electric_bike", "name": "efaadacb088901a609dcceed7259c7ea"}, {"is_disabled": 0, "is_reserved": 0, "fusion_lat": 0.0, "lat": 38.89222016666667, "fusion_lon": 0.0, "rental_uris": {"ios": "https://dc.lft.to/lastmile_qr_scan", "android": "https://dc.lft.to/lastmile_qr_scan"}, "lon": -77.04687533333333, "bike_id": "3666e629f9d1ee249291cc742447d89c", "type": "electric_scooter", "name": "3666e629f9d1ee249291cc742447d89c"},