{"data": {"bikes": [{"is_disabled": 0, "is_reserved": 0, "fusion_lat": 0.0, "lat": 38.8578975, "fusion_lon": 0.0, "rental_uris": {"ios": "https://dc.lft.to/lastmile_qr_scan", "android": "https://dc.lft.to/lastmile_qr_scan"}, "lon": -76.98747533333334, "bike_id": "5ab9d15367dcde3c5d39f8ed0828b0eb", "type": "electric_bike", "name": "5ab9d15367dcde3c5d39f8ed0828b0eb"}, {"is_disabled": 0, "is_reserved": 0, "fusion_lat": 0.0, "lat": 38.892551833333336, "fusion_lon": 0.0, "rental_uris": {"ios": "https://dc.lft.to/lastmile_qr_scan", "android": "https://dc.lft.to/lastmile_qr_scan"}, "lon": -77.04657833333333, "bike_id": "5ea1f972fb4f6d268792a304b0aa990f", "type": "electric_scooter", "name": "5ea1f972fb4f6d268792a304b0aa990f"}, {"is_disabled": 0, "is_reserved": 0, "fusion_lat": 0.0, "lat": 38.92316433333333, "fusion_lon": 0.0, "rental_uris": {"ios": "https://dc.lft.to/lastmile_qr_scan", "android": "https://dc.lft.to/lastmile_qr_scan"}, "lon": -77.0280735, "bike_id": "e64c37d8178db718340d876c93a0e648", "type": "electric_scooter", "name": "e64c37d8178db718340d876c93a0e648"}, {"is_disabled": 0, "is_reserved": 0, "fusion_lat": 0.0, "lat": 38.897312, "fusion_lon": 0.0, "rental_uris": {"ios": "https://dc.lft.to/lastmile_qr_scan", "android": "https://dc.lft.to/lastmile_qr_scan"}, "lon": -77.0272645, "bike_id": "ecaa78735b2b022464207ee7113c79d2", "type": "electric_scooter", "name": "ecaa78735b2b022464207ee7113c79d2"}, {"is_disabled": 0, "is_reserved": 0, "fusion_lat": 0.0, "lat": 38.92412366666667, "fusion_lon": 0.0, "rental_uris": {"ios": "https://dc.lft.to/lastmile_qr_scan", "android": "https://dc.lft.to/lastmile_qr_scan"}, "lon": -77.026999, "bike_id": "73b7a82538c13e7083e8c68e3b76b5f5", "type": "electric_scooter", "name": "73b7a82538c13e7083e8c68e3b76b5f5"}, {"is_disabled": 0, "is_reserved": 0, "fusion_lat": 0.0, "lat": 38.858396, "fusion_lon": 0.0, "rental_uris": {"ios": "https://dc.lft.to/lastmile_qr_scan", "android": "https://dc.lft.to/lastmile_qr_scan"}, "lon": -76.9881705, "bike_id": "dc696cca8bb760da31c6a2992e0201e6", "type": "electric_scooter", "name": "dc696cca8bb760da31c6a2992e0201e6"}, {"is_disabled": 0, "is_reserved": 0, "fusion_lat": 0.0, "lat": 38.909551666666665, "fusion_lon": 0.0, "rental_uris": {"ios": "https://dc.lft.to/lastmile_qr_scan", "android": "https://dc.lft.to/lastmile_qr_scan"}, "lon": -77.03244066666667, "bike_id": "40eb9edf8887246c2e4778e924ce8684", "type": "electric_scooter", "name": "40eb9edf8887246c2e4778e924ce8684"}, {"is_disabled": 0, "is_reserved": 0, "fusion_lat": 0.0, "lat": 38.90045833333333, "fusion_lon": 0.0, "rental_uris": {"ios": "https://dc.lft.to/lastmile_qr_scan", "android": "https://dc.lft.to/lastmile_qr_scan"}, "lon": -77.01737066666666, "bike_id": "7c0690193d7f564884f7f3b488d7f7a9", "type": "electric_scooter", "name": "7c0690193d7f564884f7f3b488d7f7a9"}, {"is_disabled": 0, "is_reserved": 0, "fusion_lat": 0.0, "lat": 38.846509833333336, "fusion_lon": 0.0, "rental_uris": {"ios": "https://dc.lft.to/lastmile_qr_scan", "android": "https://dc.lft.to/lastmile_qr_scan"}, "lon": -77.003653, "bike_id": "a26819cafbe02dbfeada2f684de74792", "type": "electric_scooter", "name": "a26819cafbe02dbfeada2f684de74792"}, {"is_disabled": 0, "is_reserved": 0, "fusion_lat": 0.0, "lat": 38.917752166666666, "fusion_lon": 0.0, "rental_uris": {"ios": "https://dc.lft.to/lastmile_qr_scan", "android": "https://dc.lft.to/lastmile_qr_scan"}, "lon": -77.02699683333333, "bike_id": "6adeabf45b5c0c1dfb783c523611c569", "type": "electric_scooter", "name": "6adeabf45b5c0c1dfb783c523611c569"}, {"is_disabled": 0, "is_reserved": 0, "fusion_lat": 0.0, "lat": 38.88711883333333, "fusion_lon": 0.0, "rental_uris": {"ios": "https://dc.lft.to/lastmile_qr_scan", "android": "https://dc.lft.to/lastmile_qr_scan"}, "lon": -76.98343833333334, "bike_id": "70001525251226805538c2be5da48d6b", "type": "electric_scooter", "name": "70001525251226805538c2be5da48d6b"}, {"is_disabled": 0, "is_reserved": 0, "fusion_lat": 0.0, "lat": 38.9077405, "fusion_lon": 0.0, "rental_uris": {"ios": "https://dc.lft.to/lastmile_qr_scan", "android": "https://dc.lft.to/lastmile_qr_scan"}, "lon": -77.02385016666666, "bike_id": "45f3f17e88a2619277c8f2470b592d84", "type": "electric_scooter", "name": "45f3f17e88a2619277c8f2470b592d84"}, {"is_disabled": 0, "is_reserved": 0, "fusion_lat": 0.0, "lat": 38.90044616666667, "fusion_lon": 0.0, "rental_uris": {"ios": "https://dc.lft.to/lastmile_qr_scan", "android": "https://dc.lft.to/lastmile_qr_scan"}, "lon": -77.0178405, "bike_id": "4ac36d23d6337006d3894556a000bf8b", "type": "electric_scooter", "name": "4ac36d23d6337006d3894556a000bf8b"}, {"is_disabled": 0, "is_reserved": 0, "fusion_lat": 0.0, "lat": 38.87087, "fusion_lon": 0.0, "rental_uris": {"ios": "https://dc.lft.to/lastmile_qr_scan", "android": "https://dc.lft.to/lastmile_qr_scan"}, "lon": -77.13333066666667, "bike_id": "2769aac55773dc865bc393b873bb05f4", "type": "electric_bike", "name": "2769aac55773dc865bc393b873bb05f4"}, {"is_disabled": 0, "is_reserved": 0, "fusion_lat": 0.0, "lat": 38.8802555, "fusion_lon": 0.0, "rental_uris": {"ios": "https://dc.lft.to/lastmile_qr_scan", "android": "https://dc.lft.to/lastmile_qr_scan"}, "lon": -76.943239, "bike_id": "ba6db0283f88bf8455b61135fb70921e", "type": "electric_scooter", "name": "ba6db0283f88bf8455b61135fb70921e"}, {"is_disabled": 0, "is_reserved": 0, "fusion_lat": 0.0, "lat": 38.904984666666664, "fusion_lon": 0.0, "rental_uris": {"ios": "https://dc.lft.to/lastmile_qr_scan", "android": "https://dc.lft.to/lastmile_qr_scan"}, "lon": -77.02189416666667, "bike_id": "f8f9df1e3d1f10f5b051f5fe757121e4", "type": "electric_scooter", "name": "f8f9df1e3d1f10f5b051f5fe757121e4"}, {"is_disabled": 0, "is_reserved": 0, "fusion_lat": 0.0, "lat": 38.91682816666667, "fusion_lon": 0.0, "rental_uris": {"ios": "https://dc.lft.to/lastmile_qr_scan", "android": "https://dc.lft.to/lastmile_qr_scan"}, "lon": -77.029729, "bike_id": "b6b1c2c323d7845d5b2d56798a3d3c97", "type": "electric_scooter", "name": "b6b1c2c323d7845d5b2d56798a3d3c97"}, {"is_disabled": 0, "is_reserved": 0, "fusion_lat": 0.0, "lat": 38.9122985, "fusion_lon": 0.0, "rental_uris": {"ios": "https://dc.lft.to/lastmile_qr_scan", "android": "https://dc.lft.to/lastmile_qr_scan"}, "lon": -77.00658033333333, "bike_id": "331c72a4764be3bc0142e8fa8f5ae03a", "type": "electric_scooter", "name": "331c72a4764be3bc0142e8fa8f5ae03a"}, {"is_disabled": 0, "is_reserved": 0, "fusion_lat": 0.0, "lat": 38.9136035, "fusion_lon": 0.0, "rental_uris": {"ios": "https://dc.lft.to/lastmile_qr_scan", "android": "https://dc.lft.to/lastmile_qr_scan"}, "lon": -77.04661616666667, "bike_id": "6922fe524df40c3041a0009467547811", "type": "electric_scooter", "name": "6922fe524df40c3041a0009467547811"}, {"is_disabled": 0, "is_reserved": 0, "fusion_lat": 0.0, "lat": 38.905382833333334, "fusion_lon": 0.0, "rental_uris": {"ios": "https://dc.lft.to/lastmile_qr_scan", "android": "https://dc.lft.to/lastmile_qr_scan"}, "lon": -77.04183516666667, "bike_id": "1fc6e46080b838c82800e2f06b3ee246", "type": "electric_scooter", "name": "1fc6e46080b838c82800e2f06b3ee246"}, {"is_disabled": 0, "is_reserved": 0, "fusion_lat": 0.0, "lat": 38.900636666666664, "fusion_lon": 0.0, "rental_uris": {"ios": "https://dc.lft.to/lastmile_qr_scan", "android": "https://dc.lft.to/lastmile_qr_scan"}, "lon": -76.98693383333334, "bike_id": "739056e671f12b82d46b6c5b4fbe3e01", "type": "electric_scooter", "name": "739056e671f12b82d46b6c5b4fbe3e01"}, {"is_disabled": 0, "is_reserved": 0, "fusion_lat": 0.0, "lat": 38.8991555, "fusion_lon": 0.0, "rental_uris": {"ios": "https://dc.lft.to/lastmile_qr_scan", "android": "https://dc.lft.to/lastmile_qr_scan"}, "lon": -77.03226766666667, "bike_id": "a7ec64cfa0076616198782c7cedac0d2", "type": "electric_scooter", "name": "a7ec64cfa0076616198782c7cedac0d2"}, {"is_disabled": 0, "is_reserved": 0, "fusion_lat": 0.0, "lat": 38.86190833333333, "fusion_lon": 0.0, "rental_uris": {"ios": "https://dc.lft.to/lastmile_qr_scan", "android": "https://dc.lft.to/lastmile_qr_scan"}, "lon": -77.08817833333333, "bike_id": "66c441967c2adefd75a62b646ca2a189", "type": "electric_bike", "name": "66c441967c2adefd75a62b646ca2a189"}, {"is_disabled": 0, "is_reserved": 0, "fusion_lat": 0.0, "lat": 38.929742833333336, "fusion_lon": 0.0, "rental_uris": {"ios": "https://dc.lft.to/lastmile_qr_scan", "android": "https://dc.lft.to/lastmile_qr_scan"}, "lon": -77.02820066666666, "bike_id": "f7162447cc482ce2358ecd3e615776ca", "type": "electric_scooter", "name": "f7162447cc482ce2358ecd3e615776ca"}, {"is_disabled": 0, "is_reserved": 0, "fusion_lat": 0.0, "lat": 38.88658983333333, "fusion_lon": 0.0, "rental_uris": {"ios": "https://dc.lft.to/lastmile_qr_scan", "android": "https://dc.lft.to/lastmile_qr_scan"}, "lon": -77.16230233333333, "bike_id": "202c4fb28cfec99d4fbc5c2fcafd777d", "type": "electric_bike", "name": "202c4fb28cfec99d4fbc5c2fcafd777d"}, {"is_disabled": 0, "is_reserved": 0, "fusion_lat": 0.0, "lat": 38.90657683333333, "fusion_lon": 0.0, "rental_uris": {"ios": "https://dc.lft.to/lastmile_qr_scan", "android": "https://dc.lft.to/lastmile_qr_scan"}, "lon": -77.05322733333334, "bike_id": "a3a25dd7a4da6343f5a1dd2e4204a6cd", "type": "electric_scooter", "name": "a3a25dd7a4da6343f5a1dd2e4204a6cd"}, {"is_disabled": 0, "is_reserved": 0, "fusion_lat": 0.0, "lat": 38.902510666666664, "fusion_lon": 0.0, "rental_uris": {"ios": "https://dc.lft.to/lastmile_qr_scan", "android": "https://dc.lft.to/lastmile_qr_scan"}, "lon": -77.02644233333334, "bike_id": "74cbb5a73d28acab71cbb4bbac35c7ec", "type": "electric_scooter", "name": "74cbb5a73d28acab71cbb4bbac35c7ec"}, {"is_disabled": 0, "is_reserved": 0, "fusion_lat": 0.0, "lat": 38.92519083333333, "fusion_lon": 0.0, "rental_uris": {"ios": "https://dc.lft.to/lastmile_qr_scan", "android": "https://dc.lft.to/lastmile_qr_scan"}, "lon": -77.0212795, "bike_id": "2ce376bf9efefe60192378f6a1685bff", "type": "electric_scooter", "name": "2ce376bf9efefe60192378f6a1685bff"}, {"is_disabled": 0, "is_reserved": 0, "fusion_lat": 0.0, "lat": 38.967650166666665, "fusion_lon": 0.0, "rental_uris": {"ios": "https://dc.lft.to/lastmile_qr_scan", "android": "https://dc.lft.to/lastmile_qr_scan"}, "lon": -77.03354933333334, "bike_id": "06b12f51a909e08b70b67293eeada20e", "type": "electric_scooter", "name": "06b12f51a909e08b70b67293eeada20e"}, {"is_disabled": 0, "is_reserved": 0, "fusion_lat": 0.0, "lat": 38.921587, "fusion_lon": 0.0, "rental_uris": {"ios": "https://dc.lft.to/lastmile_qr_scan", "android": "https://dc.lft.to/lastmile_qr_scan"}, "lon": -77.03389866666667, "bike_id": "ca06a55c0b3935dccb350b65acfa7e2d", "type": "electric_scooter", "name": "ca06a55c0b3935dccb350b65acfa7e2d"}, {"is_disabled": 0, "is_reserved": 0, "fusion_lat": 0.0, "lat": 38.9277775, "fusion_lon": 0.0, "rental_uris": {"ios": "https://dc.lft.to/lastmile_qr_scan", "android": "https://dc.lft.to/lastmile_qr_scan"}, "lon": -77.05260116666666, "bike_id": "e7293d0177663779fd93c56e153f4fa7", "type": "electric_scooter", "name": "e7293d0177663779fd93c56e153f4fa7"}, {"is_disabled": 0, "is_reserved": 0, "fusion_lat": 0.0, "lat": 38.94277066666667, "fusion_lon": 0.0, "rental_uris": {"ios": "https://dc.lft.to/lastmile_qr_scan", "android": "https://dc.lft.to/lastmile_qr_scan"}, "lon": -77.0770945, "bike_id": "2affb1d0af87177c3427da194e5254a7", "type": "electric_scooter", "name": "2affb1d0af87177c3427da194e5254a7"}, {"is_disabled": 0, "is_reserved": 0, "fusion_lat": 0.0, "lat": 38.916595, "fusion_lon": 0.0, "rental_uris": {"ios": "https://dc.lft.to/lastmile_qr_scan", "android": "https://dc.lft.to/lastmile_qr_scan"}, "lon": -77.03180133333333, "bike_id": "e950458bcf129fa9e1b7178f2e76e25d", "type": "electric_scooter", "name": "e950458bcf129fa9e1b7178f2e76e25d"}, {"is_disabled": 0, "is_reserved": 0, "fusion_lat": 0.0, "lat": 38.941018, "fusion_lon": 0.0, "rental_uris": {"ios": "https://dc.lft.to/lastmile_qr_scan", "android": "https://dc.lft.to/lastmile_qr_scan"}, "lon": -76.95626266666666, "bike_id": "a61ac82e4eec47e9079818922326ec3b", "type": "electric_bike", "name": "a61ac82e4eec47e9079818922326ec3b"}, {"is_disabled": 0, "is_reserved": 0, "fusion_lat": 0.0, "lat": 38.93537516666667, "fusion_lon": 0.0, "rental_uris": {"ios": "https://dc.lft.to/lastmile_qr_scan", "android": "https://dc.lft.to/lastmile_qr_scan"}, "lon": -77.03472383333333, "bike_id": "09d3cd5eeeeebd926f0c8d465dc02f1f", "type": "electric_scooter", "name": "09d3cd5eeeeebd926f0c8d465dc02f1f"}, {"is_disabled": 0, "is_reserved": 0, "fusion_lat": 0.0, "lat": 38.9077465, "fusion_lon": 0.0, "rental_uris": {"ios": "https://dc.lft.to/lastmile_qr_scan", "android": "https://dc.lft.to/lastmile_qr_scan"}, "lon": -77.03545966666667, "bike_id": "f11385ceb16d64f715f6eb3127becac5", "type": "electric_scooter", "name": "f11385ceb16d64f715f6eb3127becac5"}, {"is_disabled": 0, "is_reserved": 0, "fusion_lat": 0.0, "lat": 38.93063216666667, "fusion_lon": 0.0, "rental_uris": {"ios": "https://dc.lft.to/lastmile_qr_scan", "android": "https://dc.lft.to/lastmile_qr_scan"}, "lon": -76.973293, "bike_id": "7e3485a94f74707bb6bd87a948a5588a", "type": "electric_scooter", "name": "7e3485a94f74707bb6bd87a948a5588a"}, {"is_disabled": 0, "is_reserved": 0, "fusion_lat": 0.0, "lat": 38.95640016666667, "fusion_lon": 0.0, "rental_uris": {"ios": "https://dc.lft.to/lastmile_qr_scan", "android": "https://dc.lft.to/lastmile_qr_scan"}, "lon": -77.03629383333333, "bike_id": "863bf2dfe84dbe1185b00fb72c6c5bcd", "type": "electric_scooter", "name": "863bf2dfe84dbe1185b00fb72c6c5bcd"}, {"is_disabled": 0, "is_reserved": 0, "fusion_lat": 0.0, "lat": 38.9164875, "fusion_lon": 0.0, "rental_uris": {"ios": "https://dc.lft.to/lastmile_qr_scan", "android": "https://dc.lft.to/lastmile_qr_scan"}, "lon": -77.021805, "bike_id": "88698e55a4cef8fa5f6d9871c0194d87", "type": "electric_scooter", "name": "88698e55a4cef8fa5f6d9871c0194d87"}, {"is_disabled": 0, "is_reserved": 0, "fusion_lat": 0.0, "lat": 38.9319285, "fusion_lon": 0.0, "rental_uris": {"ios": "https://dc.lft.to/lastmile_qr_scan", "android": "https://dc.lft.to/lastmile_qr_scan"}, "lon": -77.0186495, "bike_id": "10608bddb9a9ee11f016c4e7d2c338ba", "type": "electric_scooter", "name": "10608bddb9a9ee11f016c4e7d2c338ba"}, {"is_disabled": 0, "is_reserved": 0, "fusion_lat": 0.0, "lat": 38.89084533333333, "fusion_lon": 0.0, "rental_uris": {"ios": "https://dc.lft.to/lastmile_qr_scan", "android": "https://dc.lft.to/lastmile_qr_scan"}, "lon": -76.95474833333333, "bike_id": "cc51cb71fbf6d95038a1d08e45ef0f61", "type": "electric_bike", "name": "cc51cb71fbf6d95038a1d08e45ef0f61"}, {"is_disabled": 0, "is_reserved": 0, "fusion_lat": 0.0, "lat": 38.93540383333333, "fusion_lon": 0.0, "rental_uris": {"ios": "https://dc.lft.to/lastmile_qr_scan", "android": "https://dc.lft.to/lastmile_qr_scan"}, "lon": -76.98357133333333, "bike_id": "6afa490aea656e3d5253e9b24f0d7c81", "type": "electric_bike", "name": "6afa490aea656e3d5253e9b24f0d7c81"}, {"is_disabled": 0, "is_reserved": 0, "fusion_lat": 0.0, "lat": 38.925528166666666, "fusion_lon": 0.0, "rental_uris": {"ios": "https://dc.lft.to/lastmile_qr_scan", "android": "https://dc.lft.to/lastmile_qr_scan"}, "lon": -77.02709533333334, "bike_id": "744c0a67d8dd8fc74b60c9b6997daaa4", "type": "electric_scooter", "name": "744c0a67d8dd8fc74b60c9b6997daaa4"}, {"is_disabled": 0, "is_reserved": 0, "fusion_lat": 0.0, "lat": 38.915681166666666, "fusion_lon": 0.0, "rental_uris": {"ios": "https://dc.lft.to/lastmile_qr_scan", "android": "https://dc.lft.to/lastmile_qr_scan"}, "lon": -77.02159783333333, "bike_id": "40033b714b695fc265facdf4389fb9db", "type": "electric_scooter", "name": "40033b714b695fc265facdf4389fb9db"}, {"is_disabled": 0, "is_reserved": 0, "fusion_lat": 0.0, "lat": 38.919866166666665, "fusion_lon": 0.0, "rental_uris": {"ios": "https://dc.lft.to/lastmile_qr_scan", "android": "https://dc.lft.to/lastmile_qr_scan"}, "lon": -77.0332285, "bike_id": "1ff2f205b3855e91f330bad5b7e0ffac", "type": "electric_scooter", "name": "1ff2f205b3855e91f330bad5b7e0ffac"}, {"is_disabled": 0, "is_reserved": 0, "fusion_lat": 0.0, "lat": 38.877340333333336, "fusion_lon": 0.0, "rental_uris": {"ios": "https://dc.lft.to/lastmile_qr_scan", "android": "https://dc.lft.to/lastmile_qr_scan"}, "lon": -77.11843316666666, "bike_id": "2a6dd49db7fb437552da0edcfdbba9d6", "type": "electric_bike", "name": "2a6dd49db7fb437552da0edcfdbba9d6"}, {"is_disabled": 0, "is_reserved": 0, "fusion_lat": 0.0, "lat": 38.884116166666665, "fusion_lon": 0.0, "rental_uris": {"ios": "https://dc.lft.to/lastmile_qr_scan", "android": "https://dc.lft.to/lastmile_qr_scan"}, "lon": -77.029914, "bike_id": "2397b5dd1b488fa5b4432aa0920f440e", "type": "electric_scooter", "name": "2397b5dd1b488fa5b4432aa0920f440e"}, {"is_disabled": 0, "is_reserved": 0, "fusion_lat": 0.0, "lat": 38.90950183333333, "fusion_lon": 0.0, "rental_uris": {"ios": "https://dc.lft.to/lastmile_qr_scan", "android": "https://dc.lft.to/lastmile_qr_scan"}, "lon": -77.0318045, "bike_id": "754b1d7574f32598454526f03b1a7a82", "type": "electric_scooter", "name": "754b1d7574f32598454526f03b1a7a82"}, {"is_disabled": 0, "is_reserved": 0, "fusion_lat": 0.0, "lat": 38.926678333333335, "fusion_lon": 0.0, "rental_uris": {"ios": "https://dc.lft.to/lastmile_qr_scan", "android": "https://dc.lft.to/lastmile_qr_scan"}, "lon": -77.02274683333333, "bike_id": "5e7f0f2ddf03ecbd9adbfc8b46d2955d", "type": "electric_scooter", "name": "5e7f0f2ddf03ecbd9adbfc8b46d2955d"}, {"is_disabled": 0, "is_reserved": 0, "fusion_lat": 0.0, "lat": 38.929075, "fusion_lon": 0.0, "rental_uris": {"ios": "https://dc.lft.to/lastmile_qr_scan", "android": "https://dc.lft.to/lastmile_qr_scan"}, "lon": -77.05984766666667, "bike_id": "4bc66e67afebce65c2a91f0ccebf231c", "type": "electric_scooter", "name": "4bc66e67afebce65c2a91f0ccebf231c"}, {"is_disabled": 0, "is_reserved": 0, "fusion_lat": 0.0, "lat": 38.903976666666665, "fusion_lon": 0.0, "rental_uris": {"ios": "https://dc.lft.to/lastmile_qr_scan", "android": "https://dc.lft.to/lastmile_qr_scan"}, "lon": -77.06297633333334, "bike_id": "4e61373d6f86cd886c4aaacfc6349cce", "type": "electric_scooter", "name": "4e61373d6f86cd886c4aaacfc6349cce"}, {"is_disabled": 0, "is_reserved": 0, "fusion_lat": 0.0, "lat": 38.9195395, "fusion_lon": 0.0, "rental_uris": {"ios": "https://dc.lft.to/lastmile_qr_scan", "android": "https://dc.lft.to/lastmile_qr_scan"}, "lon": -77.02310616666666, "bike_id": "e4ae80a6f1964c6baf71c32b585fa47f", "type": "electric_scooter", "name": "e4ae80a6f1964c6baf71c32b585fa47f"}, {"is_disabled": 0, "is_reserved": 0, "fusion_lat": 0.0, "lat": 38.9287885, "fusion_lon": 0.0, "rental_uris": {"ios": "https://dc.lft.to/lastmile_qr_scan", "android": "https://dc.lft.to/lastmile_qr_scan"}, "lon": -77.03994283333333, "bike_id": "58fd1d2b7fd647380eb61909c939dffc", "type": "electric_scooter", "name": "58fd1d2b7fd647380eb61909c939dffc"}, {"is_disabled": 0, "is_reserved": 0, "fusion_lat": 0.0, "lat": 38.91495666666667, "fusion_lon": 0.0, "rental_uris": {"ios": "https://dc.lft.to/lastmile_qr_scan", "android": "https://dc.lft.to/lastmile_qr_scan"}, "lon": -76.98358366666666, "bike_id": "3bdb607e515ad3371fcc3b64c1c8efe5", "type": "electric_scooter", "name": "3bdb607e515ad3371fcc3b64c1c8efe5"}, {"is_disabled": 0, "is_reserved": 0, "fusion_lat": 0.0, "lat": 38.9065365, "fusion_lon": 0.0, "rental_uris": {"ios": "https://dc.lft.to/lastmile_qr_scan", "android": "https://dc.lft.to/lastmile_qr_scan"}, "lon": -76.97939716666667, "bike_id": "f06c440bc6ffb7aedee1130d03916dc0", "type": "electric_scooter", "name": "f06c440bc6ffb7aedee1130d03916dc0"}, {"is_disabled": 0, "is_reserved": 0, "fusion_lat": 0.0, "lat": 38.914152666666666, "fusion_lon": 0.0, "rental_uris": {"ios": "https://dc.lft.to/lastmile_qr_scan", "android": "https://dc.lft.to/lastmile_qr_scan"}, "lon": -77.02958066666666, "bike_id": "34646e7577e07d6f2be38ff8660d369b", "type": "electric_scooter", "name": "34646e7577e07d6f2be38ff8660d369b"}, {"is_disabled": 0, "is_reserved": 0, "fusion_lat": 0.0, "lat": 38.90376233333333, "fusion_lon": 0.0, "rental_uris": {"ios": "https://dc.lft.to/lastmile_qr_scan", "android": "https://dc.lft.to/lastmile_qr_scan"}, "lon": -77.04822466666667, "bike_id": "f1e516e6318eaa0f1bcece1531c5be03", "type": "electric_scooter", "name": "f1e516e6318eaa0f1bcece1531c5be03"}, {"is_disabled": 0, "is_reserved": 0, "fusion_lat": 0.0, "lat": 38.89411033333333, "fusion_lon": 0.0, "rental_uris": {"ios": "https://dc.lft.to/lastmile_qr_scan", "android": "https://dc.lft.to/lastmile_qr_scan"}, "lon": -77.02425333333333, "bike_id": "785abe81bf220f1b22de4c01abe8a139", "type": "electric_scooter", "name": "785abe81bf220f1b22de4c01abe8a139"}, {"is_disabled": 0, "is_reserved": 0, "fusion_lat": 0.0, "lat": 38.90514, "fusion_lon": 0.0, "rental_uris": {"ios": "https://dc.lft.to/lastmile_qr_scan", "android": "https://dc.lft.to/lastmile_qr_scan"}, "lon": -77.00898816666667, "bike_id": "3d041de13240f3a858d7d1e001e68b16", "type": "electric_scooter", "name": "3d041de13240f3a858d7d1e001e68b16"}, {"is_disabled": 0, "is_reserved": 0, "fusion_lat": 0.0, "lat": 38.904254, "fusion_lon": 0.0, "rental_uris": {"ios": "https://dc.lft.to/lastmile_qr_scan", "android": "https://dc.lft.to/lastmile_qr_scan"}, "lon": -77.0612525, "bike_id": "9aa8a8218a6902108b167e987373cc90", "type": "electric_scooter", "name": "9aa8a8218a6902108b167e987373cc90"}, {"is_disabled": 0, "is_reserved": 0, "fusion_lat": 0.0, "lat": 38.94450483333333, "fusion_lon": 0.0, "rental_uris": {"ios": "https://dc.lft.to/lastmile_qr_scan", "android": "https://dc.lft.to/lastmile_qr_scan"}, "lon": -77.03279333333333, "bike_id": "4bbc5375a62381d59152912dab2fd8cd", "type": "electric_scooter", "name": "4bbc5375a62381d59152912dab2fd8cd"}, {"is_disabled": 0, "is_reserved": 0, "fusion_lat": 0.0, "lat": 38.9170945, "fusion_lon": 0.0, "rental_uris": {"ios": "https://dc.lft.to/lastmile_qr_scan", "android": "https://dc.lft.to/lastmile_qr_scan"}, "lon": -77.03771533333334, "bike_id": "36443a06f4c64cc29f77fb2430514db5", "type": "electric_scooter", "name": "36443a06f4c64cc29f77fb2430514db5"}, {"is_disabled": 0, "is_reserved": 0, "fusion_lat": 0.0, "lat": 38.915941333333336, "fusion_lon": 0.0, "rental_uris": {"ios": "https://dc.lft.to/lastmile_qr_scan", "android": "https://dc.lft.to/lastmile_qr_scan"}, "lon": -77.03216783333333, "bike_id": "3b5b138df1fb6e2c7ba735951d5ba4b9", "type": "electric_scooter", "name": "3b5b138df1fb6e2c7ba735951d5ba4b9"}, {"is_disabled": 0, "is_reserved": 0, "fusion_lat": 0.0, "lat": 38.95617433333334, "fusion_lon": 0.0, "rental_uris": {"ios": "https://dc.lft.to/lastmile_qr_scan", "android": "https://dc.lft.to/lastmile_qr_scan"}, "lon": -77.033098, "bike_id": "172d3a9b45ce1909d913f67e7a822035", "type": "electric_scooter", "name": "172d3a9b45ce1909d913f67e7a822035"}, {"is_disabled": 0, "is_reserved": 0, "fusion_lat": 0.0, "lat": 38.895058166666665, "fusion_lon": 0.0, "rental_uris": {"ios": "https://dc.lft.to/lastmile_qr_scan", "android": "https://dc.lft.to/lastmile_qr_scan"}, "lon": -77.0220425, "bike_id": "e773b325c0f92c7afeaf98f4ee87c5b5", "type": "electric_scooter", "name": "e773b325c0f92c7afeaf98f4ee87c5b5"}, {"is_disabled": 0, "is_reserved": 0, "fusion_lat": 0.0, "lat": 38.930725333333335, "fusion_lon": 0.0, "rental_uris": {"ios": "https://dc.lft.to/lastmile_qr_scan", "android": "https://dc.lft.to/lastmile_qr_scan"}, "lon": -77.02358483333333, "bike_id": "9a743b86f7652f12fc1deca53671cc51", "type": "electric_scooter", "name": "9a743b86f7652f12fc1deca53671cc51"}, {"is_disabled": 0, "is_reserved": 0, "fusion_lat": 0.0, "lat": 38.949216666666665, "fusion_lon": 0.0, "rental_uris": {"ios": "https://dc.lft.to/lastmile_qr_scan", "android": "https://dc.lft.to/lastmile_qr_scan"}, "lon": -77.02315633333333, "bike_id": "4fec63efeba795596c921a2bf738556a", "type": "electric_scooter", "name": "4fec63efeba795596c921a2bf738556a"}, {"is_disabled": 0, "is_reserved": 0, "fusion_lat": 0.0, "lat": 38.884939833333334, "fusion_lon": 0.0, "rental_uris": {"ios": "https://dc.lft.to/lastmile_qr_scan", "android": "https://dc.lft.to/lastmile_qr_scan"}, "lon": -77.02652416666666, "bike_id": "52fc1ead9120886d528bc383a56e65cc", "type": "electric_scooter", "name": "52fc1ead9120886d528bc383a56e65cc"}, {"is_disabled": 0, "is_reserved": 0, "fusion_lat": 0.0, "lat": 38.918375166666664, "fusion_lon": 0.0, "rental_uris": {"ios": "https://dc.lft.to/lastmile_qr_scan", "android": "https://dc.lft.to/lastmile_qr_scan"}, "lon": -77.0416375, "bike_id": "b262fdd56389203e5626fa0bc6b02194", "type": "electric_scooter", "name": "b262fdd56389203e5626fa0bc6b02194"}, {"is_disabled": 0, "is_reserved": 0, "fusion_lat": 0.0, "lat": 38.92015283333333, "fusion_lon": 0.0, "rental_uris": {"ios": "https://dc.lft.to/lastmile_qr_scan", "android": "https://dc.lft.to/lastmile_qr_scan"}, "lon": -77.021883, "bike_id": "4b1c05b4a51c05e10b126937669a82a5", "type": "electric_scooter", "name": "4b1c05b4a51c05e10b126937669a82a5"}, {"is_disabled": 0, "is_reserved": 0, "fusion_lat": 0.0, "lat": 38.88343533333333, "fusion_lon": 0.0, "rental_uris": {"ios": "https://dc.lft.to/lastmile_qr_scan", "android": "https://dc.lft.to/lastmile_qr_scan"}, "lon": -76.9950665, "bike_id": "c1287ef0207aa918cb14b5cbce3ef8a9", "type": "electric_scooter", "name": "c1287ef0207aa918cb14b5cbce3ef8a9"}, {"is_disabled": 0, "is_reserved": 0, "fusion_lat": 0.0, "lat": 38.89754533333333, "fusion_lon": 0.0, "rental_uris": {"ios": "https://dc.lft.to/lastmile_qr_scan", "android": "https://dc.lft.to/lastmile_qr_scan"}, "lon": -77.04541283333333, "bike_id": "4625635de4a030853224b3149da09447", "type": "electric_scooter", "name": "4625635de4a030853224b3149da09447"}, {"is_disabled": 0, "is_reserved": 0, "fusion_lat": 0.0, "lat": 38.897464666666664, "fusion_lon": 0.0, "rental_uris": {"ios": "https://dc.lft.to/lastmile_qr_scan", "android": "https://dc.lft.to/lastmile_qr_scan"}, "lon": -77.02132566666667, "bike_id": "42463a2fc7dd0ec5cfa9e4a28a489809", "type": "electric_scooter", "name": "42463a2fc7dd0ec5cfa9e4a28a489809"}, {"is_disabled": 0, "is_reserved": 0, "fusion_lat": 0.0, "lat": 38.9497775, "fusion_lon": 0.0, "rental_uris": {"ios": "https://dc.lft.to/lastmile_qr_scan", "android": "https://dc.lft.to/lastmile_qr_scan"}, "lon": -77.080861, "bike_id": "60f4f436389a70a771f7dbaef1d5ba4b", "type": "electric_scooter", "name": "60f4f436389a70a771f7dbaef1d5ba4b"}, {"is_disabled": 0, "is_reserved": 0, "fusion_lat": 0.0, "lat": 38.857178166666664, "fusion_lon": 0.0, "rental_uris": {"ios": "https://dc.lft.to/lastmile_qr_scan", "android": "https://dc.lft.to/lastmile_qr_scan"}, "lon": -76.980997, "bike_id": "31e576ce62c8f0f6fef4ec1d11395305", "type": "electric_scooter", "name": "31e576ce62c8f0f6fef4ec1d11395305"}, {"is_disabled": 0, "is_reserved": 0, "fusion_lat": 0.0, "lat": 38.89870066666667, "fusion_lon": 0.0, "rental_uris": {"ios": "https://dc.lft.to/lastmile_qr_scan", "android": "https://dc.lft.to/lastmile_qr_scan"}, "lon": -76.94664783333333, "bike_id": "f10a3a2b7a5654418b7be16db23d0199", "type": "electric_scooter", "name": "f10a3a2b7a5654418b7be16db23d0199"}, {"is_disabled": 0, "is_reserved": 0, "fusion_lat": 0.0, "lat": 38.8961425, "fusion_lon": 0.0, "rental_uris": {"ios": "https://dc.lft.to/lastmile_qr_scan", "android": "https://dc.lft.to/lastmile_qr_scan"}, "lon": -77.0060555, "bike_id": "4d5a1bc789dfc355c0e55a76ef90caaa", "type": "electric_scooter", "name": "4d5a1bc789dfc355c0e55a76ef90caaa"}, {"is_disabled": 0, "is_reserved": 0, "fusion_lat": 0.0, "lat": 38.896748, "fusion_lon": 0.0, "rental_uris": {"ios": "https://dc.lft.to/lastmile_qr_scan", "android": "https://dc.lft.to/lastmile_qr_scan"}, "lon": -77.0546435, "bike_id": "e549a7830b2638482325b67eeb94bd44", "type": "electric_scooter", "name": "e549a7830b2638482325b67eeb94bd44"}, {"is_disabled": 0, "is_reserved": 0, "fusion_lat": 0.0, "lat": 38.92811016666667, "fusion_lon": 0.0, "rental_uris": {"ios": "https://dc.lft.to/lastmile_qr_scan", "android": "https://dc.lft.to/lastmile_qr_scan"}, "lon": -77.02298416666666, "bike_id": "990c6eff6edb3d93fb8fcacdd23a08bc", "type": "electric_scooter", "name": "990c6eff6edb3d93fb8fcacdd23a08bc"}, {"is_disabled": 0, "is_reserved": 0, "fusion_lat": 0.0, "lat": 38.8341365, "fusion_lon": 0.0, "rental_uris": {"ios": "https://dc.lft.to/lastmile_qr_scan", "android": "https://dc.lft.to/lastmile_qr_scan"}, "lon": -77.05012666666667, "bike_id": "b5d731f0cf75de9290c8d7985b15c566", "type": "electric_bike", "name": "b5d731f0cf75de9290c8d7985b15c566"}, {"is_disabled": 0, "is_reserved": 0, "fusion_lat": 0.0, "lat": 38.9204015, "fusion_lon": 0.0, "rental_uris": {"ios": "https://dc.lft.to/lastmile_qr_scan", "android": "https://dc.lft.to/lastmile_qr_scan"}, "lon": -77.02600133333334, "bike_id": "5e1958e1ad098a03431fb50dac569bb1", "type": "electric_scooter", "name": "5e1958e1ad098a03431fb50dac569bb1"}, {"is_disabled": 0, "is_reserved": 0, "fusion_lat": 0.0, "lat": 39.010674333333334, "fusion_lon": 0.0, "rental_uris": {"ios": "https://dc.lft.to/lastmile_qr_scan", "android": "https://dc.lft.to/lastmile_qr_scan"}, "lon": -76.92242683333333, "bike_id": "c84f30a5d9b3841deebfde44bd78a92f", "type": "electric_bike", "name": "c84f30a5d9b3841deebfde44bd78a92f"}, {"is_disabled": 0, "is_reserved": 0, "fusion_lat": 0.0, "lat": 38.88299633333333, "fusion_lon": 0.0, "rental_uris": {"ios": "https://dc.lft.to/lastmile_qr_scan", "android": "https://dc.lft.to/lastmile_qr_scan"}, "lon": -77.025703, "bike_id": "7a77c519f115d5c7727983018d68a3a4", "type": "electric_scooter", "name": "7a77c519f115d5c7727983018d68a3a4"}, {"is_disabled": 0, "is_reserved": 0, "fusion_lat": 0.0, "lat": 38.90261816666667, "fusion_lon": 0.0, "rental_uris": {"ios": "https://dc.lft.to/lastmile_qr_scan", "android": "https://dc.lft.to/lastmile_qr_scan"}, "lon": -77.02639016666667, "bike_id": "871260192a4457176336ef11c018d1a5", "type": "electric_scooter", "name": "871260192a4457176336ef11c018d1a5"}, {"is_disabled": 0, "is_reserved": 0, "fusion_lat": 0.0, "lat": 38.87846416666667, "fusion_lon": 0.0, "rental_uris": {"ios": "https://dc.lft.to/lastmile_qr_scan", "android": "https://dc.lft.to/lastmile_qr_scan"}, "lon": -76.931384, "bike_id": "631e2a208d6d03a1676fa02bdd8c463f", "type": "electric_scooter", "name": "631e2a208d6d03a1676fa02bdd8c463f"}, {"is_disabled": 0, "is_reserved": 0, "fusion_lat": 0.0, "lat": 38.936382333333334, "fusion_lon": 0.0, "rental_uris": {"ios": "https://dc.lft.to/lastmile_qr_scan", "android": "https://dc.lft.to/lastmile_qr_scan"}, "lon": -77.03267116666666, "bike_id": "3a5ef508df2279f3019b92ee42b0aad7", "type": "electric_scooter", "name": "3a5ef508df2279f3019b92ee42b0aad7"}, {"is_disabled": 0, "is_reserved": 0, "fusion_lat": 0.0, "lat": 38.916829, "fusion_lon": 0.0, "rental_uris": {"ios": "https://dc.lft.to/lastmile_qr_scan", "android": "https://dc.lft.to/lastmile_qr_scan"}, "lon": -77.029734, "bike_id": "2915bc658e611ab26b9962ed87f3d852", "type": "electric_scooter", "name": "2915bc658e611ab26b9962ed87f3d852"}, {"is_disabled": 0, "is_reserved": 0, "fusion_lat": 0.0, "lat": 38.878949666666664, "fusion_lon": 0.0, "rental_uris": {"ios": "https://dc.lft.to/lastmile_qr_scan", "android": "https://dc.lft.to/lastmile_qr_scan"}, "lon": -76.93531116666666, "bike_id": "0bc43f62ae53a5cfaf1d7cc9ad80eb3f", "type": "electric_scooter", "name": "0bc43f62ae53a5cfaf1d7cc9ad80eb3f"}, {"is_disabled": 0, "is_reserved": 0, "fusion_lat": 0.0, "lat": 38.9147065, "fusion_lon": 0.0, "rental_uris": {"ios": "https://dc.lft.to/lastmile_qr_scan", "android": "https://dc.lft.to/lastmile_qr_scan"}, "lon": -77.032038, "bike_id": "9fc74e6a14f5e12fe7be913abd1f7022", "type": "electric_scooter", "name": "9fc74e6a14f5e12fe7be913abd1f7022"}, {"is_disabled": 0, "is_reserved": 0, "fusion_lat": 0.0, "lat": 38.89506183333334, "fusion_lon": 0.0, "rental_uris": {"ios": "https://dc.lft.to/lastmile_qr_scan", "android": "https://dc.lft.to/lastmile_qr_scan"}, "lon": -77.02288466666667, "bike_id": "76f0c70ae75ac8c6ff376c1ec9bc31ed", "type": "electric_scooter", "name": "76f0c70ae75ac8c6ff376c1ec9bc31ed"}, {"is_disabled": 0, "is_reserved": 0, "fusion_lat": 0.0, "lat": 38.9213985, "fusion_lon": 0.0, "rental_uris": {"ios": "https://dc.lft.to/lastmile_qr_scan", "android": "https://dc.lft.to/lastmile_qr_scan"}, "lon": -77.01794216666667, "bike_id": "20fb501ab85317212ba7a0fbec8949cf", "type": "electric_scooter", "name": "20fb501ab85317212ba7a0fbec8949cf"}, {"is_disabled": 0, "is_reserved": 0, "fusion_lat": 0.0, "lat": 38.86494883333334, "fusion_lon": 0.0, "rental_uris": {"ios": "https://dc.lft.to/lastmile_qr_scan", "android": "https://dc.lft.to/lastmile_qr_scan"}, "lon": -76.96982983333334, "bike_id": "f4ae4f7276714373fd3e53f0b6a52508", "type": "electric_bike", "name": "f4ae4f7276714373fd3e53f0b6a52508"}, {"is_disabled": 0, "is_reserved": 0, "fusion_lat": 0.0, "lat": 38.919642, "fusion_lon": 0.0, "rental_uris": {"ios": "https://dc.lft.to/lastmile_qr_scan", "android": "https://dc.lft.to/lastmile_qr_scan"}, "lon": -77.0190165, "bike_id": "4fb41169b44d6220ff272daeba5f2d85", "type": "electric_scooter", "name": "4fb41169b44d6220ff272daeba5f2d85"}, {"is_disabled": 0, "is_reserved": 0, "fusion_lat": 0.0, "lat": 38.89603616666667, "fusion_lon": 0.0, "rental_uris": {"ios": "https://dc.lft.to/lastmile_qr_scan", "android": "https://dc.lft.to/lastmile_qr_scan"}, "lon": -77.02657566666667, "bike_id": "4415f9dda600605220abb11a66d954e4", "type": "electric_scooter", "name": "4415f9dda600605220abb11a66d954e4"}, {"is_disabled": 0, "is_reserved": 0, "fusion_lat": 0.0, "lat": 38.922228, "fusion_lon": 0.0, "rental_uris": {"ios": "https://dc.lft.to/lastmile_qr_scan", "android": "https://dc.lft.to/lastmile_qr_scan"}, "lon": -77.038818, "bike_id": "90dfb5a76ba7f086d39662f363ff5c2c", "type": "electric_scooter", "name": "90dfb5a76ba7f086d39662f363ff5c2c"}, {"is_disabled": 0, "is_reserved": 0, "fusion_lat": 0.0, "lat": 38.914378166666665, "fusion_lon": 0.0, "rental_uris": {"ios": "https://dc.lft.to/lastmile_qr_scan", "android": "https://dc.lft.to/lastmile_qr_scan"}, "lon": -76.98446533333333, "bike_id": "722ac252fdef838a5797defb87b6160b", "type": "electric_scooter", "name": "722ac252fdef838a5797defb87b6160b"}, {"is_disabled": 0, "is_reserved": 0, "fusion_lat": 0.0, "lat": 38.91792516666667, "fusion_lon": 0.0, "rental_uris": {"ios": "https://dc.lft.to/lastmile_qr_scan", "android": "https://dc.lft.to/lastmile_qr_scan"}, "lon": -77.04666183333333, "bike_id": "faecae395f05bb78f4ce9cacda0d94d4", "type": "electric_scooter", "name": "faecae395f05bb78f4ce9cacda0d94d4"}, {"is_disabled": 0, "is_reserved": 0, "fusion_lat": 0.0, "lat": 38.92087733333334, "fusion_lon": 0.0, "rental_uris": {"ios": "https://dc.lft.to/lastmile_qr_scan", "android": "https://dc.lft.to/lastmile_qr_scan"}, "lon": -77.02396583333334, "bike_id": "c6ad849c9e1a6941f869c153720243bc", "type": "electric_scooter", "name": "c6ad849c9e1a6941f869c153720243bc"}, {"is_disabled": 0, "is_reserved": 0, "fusion_lat": 0.0, "lat": 38.9049055, "fusion_lon": 0.0, "rental_uris": {"ios": "https://dc.lft.to/lastmile_qr_scan", "android": "https://dc.lft.to/lastmile_qr_scan"}, "lon": -77.00898333333333, "bike_id": "b25659ce36747e1111321b94e0df062a", "type": "electric_scooter", "name": "b25659ce36747e1111321b94e0df062a"}, {"is_disabled": 0, "is_reserved": 0, "fusion_lat": 0.0, "lat": 38.923759833333335, "fusion_lon": 0.0, "rental_uris": {"ios": "https://dc.lft.to/lastmile_qr_scan", "android": "https://dc.lft.to/lastmile_qr_scan"}, "lon": -77.0191405, "bike_id": "c4b154e823563bb6a2963124c65d4abe", "type": "electric_scooter", "name": "c4b154e823563bb6a2963124c65d4abe"}, {"is_disabled": 0, "is_reserved": 0, "fusion_lat": 0.0, "lat": 38.900039666666665, "fusion_lon": 0.0, "rental_uris": {"ios": "https://dc.lft.to/lastmile_qr_scan", "android": "https://dc.lft.to/lastmile_qr_scan"}, "lon": -76.99756966666666, "bike_id": "e1199a8714f38ce41bd4477e5415a6be", "type": "electric_bike", "name": "e1199a8714f38ce41bd4477e5415a6be"}, {"is_disabled": 0, "is_reserved": 0, "fusion_lat": 0.0, "lat": 38.83041583333333, "fusion_lon": 0.0, "rental_uris": {"ios": "https://dc.lft.to/lastmile_qr_scan", "android": "https://dc.lft.to/lastmile_qr_scan"}, "lon": -77.008188, "bike_id": "e2f32d6b6ce55502ad941fd7f3bc7527", "type": "electric_bike", "name": "e2f32d6b6ce55502ad941fd7f3bc7527"}, {"is_disabled": 0, "is_reserved": 0, "fusion_lat": 0.0, "lat": 38.89281833333333, "fusion_lon": 0.0, "rental_uris": {"ios": "https://dc.lft.to/lastmile_qr_scan", "android": "https://dc.lft.to/lastmile_qr_scan"}, "lon": -77.05034483333333, "bike_id": "d2775be57f286dd15f38acb0df3caa6a", "type": "electric_scooter", "name": "d2775be57f286dd15f38acb0df3caa6a"}, {"is_disabled": 0, "is_reserved": 0, "fusion_lat": 0.0, "lat": 38.8837065, "fusion_lon": 0.0, "rental_uris": {"ios": "https://dc.lft.to/lastmile_qr_scan", "android": "https://dc.lft.to/lastmile_qr_scan"}, "lon": -76.99517233333333, "bike_id": "d0c51105e67fc3ef036454ed3ff02423", "type": "electric_scooter", "name": "d0c51105e67fc3ef036454ed3ff02423"}, {"is_disabled": 0, "is_reserved": 0, "fusion_lat": 0.0, "lat": 38.909182, "fusion_lon": 0.0, "rental_uris": {"ios": "https://dc.lft.to/lastmile_qr_scan", "android": "https://dc.lft.to/lastmile_qr_scan"}, "lon": -77.03385566666667, "bike_id": "d8caa142ac1aade47fb3e3fa4cf758d7", "type": "electric_scooter", "name": "d8caa142ac1aade47fb3e3fa4cf758d7"}, {"is_disabled": 0, "is_reserved": 0, "fusion_lat": 0.0, "lat": 38.8922955, "fusion_lon": 0.0, "rental_uris": {"ios": "https://dc.lft.to/lastmile_qr_scan", "android": "https://dc.lft.to/lastmile_qr_scan"}, "lon": -77.02812716666666, "bike_id": "397c4fed1dac82808c9be863c862636f", "type": "electric_scooter", "name": "397c4fed1dac82808c9be863c862636f"}, {"is_disabled": 0, "is_reserved": 0, "fusion_lat": 0.0, "lat": 38.88989266666667, "fusion_lon": 0.0, "rental_uris": {"ios": "https://dc.lft.to/lastmile_qr_scan", "android": "https://dc.lft.to/lastmile_qr_scan"}, "lon": -77.003379, "bike_id": "594136777d6161402cdd5b93482b8246", "type": "electric_scooter", "name": "594136777d6161402cdd5b93482b8246"}, {"is_disabled": 0, "is_reserved": 0, "fusion_lat": 0.0, "lat": 38.899765, "fusion_lon": 0.0, "rental_uris": {"ios": "https://dc.lft.to/lastmile_qr_scan", "android": "https://dc.lft.to/lastmile_qr_scan"}, "lon": -76.9375475, "bike_id": "ce3ce9a39094d6200e8a0a871de04ea7", "type": "electric_scooter", "name": "ce3ce9a39094d6200e8a0a871de04ea7"}, {"is_disabled": 0, "is_reserved": 0, "fusion_lat": 0.0, "lat": 38.892252166666665, "fusion_lon": 0.0, "rental_uris": {"ios": "https://dc.lft.to/lastmile_qr_scan", "android": "https://dc.lft.to/lastmile_qr_scan"}, "lon": -77.0223295, "bike_id": "ad674d0d073d27e9d8595bc8a0a08c98", "type": "electric_scooter", "name": "ad674d0d073d27e9d8595bc8a0a08c98"}, {"is_disabled": 0, "is_reserved": 0, "fusion_lat": 0.0, "lat": 38.920519, "fusion_lon": 0.0, "rental_uris": {"ios": "https://dc.lft.to/lastmile_qr_scan", "android": "https://dc.lft.to/lastmile_qr_scan"}, "lon": -77.04201766666667, "bike_id": "31b47a5a7a83b45d4b0811eed5203717", "type": "electric_scooter", "name": "31b47a5a7a83b45d4b0811eed5203717"}, {"is_disabled": 0, "is_reserved": 0, "fusion_lat": 0.0, "lat": 38.92468866666667, "fusion_lon": 0.0, "rental_uris": {"ios": "https://dc.lft.to/lastmile_qr_scan", "android": "https://dc.lft.to/lastmile_qr_scan"}, "lon": -77.035418, "bike_id": "1504047ddcfaae4a818c566f5f621abb", "type": "electric_scooter", "name": "1504047ddcfaae4a818c566f5f621abb"}, {"is_disabled": 0, "is_reserved": 0, "fusion_lat": 0.0, "lat": 38.90282933333334, "fusion_lon": 0.0, "rental_uris": {"ios": "https://dc.lft.to/lastmile_qr_scan", "android": "https://dc.lft.to/lastmile_qr_scan"}, "lon": -77.05902416666666, "bike_id": "bf8100c78689f7ce1e4eb8db5556aa1b", "type": "electric_scooter", "name": "bf8100c78689f7ce1e4eb8db5556aa1b"}, {"is_disabled": 0, "is_reserved": 0, "fusion_lat": 0.0, "lat": 38.908656, "fusion_lon": 0.0, "rental_uris": {"ios": "https://dc.lft.to/lastmile_qr_scan", "android": "https://dc.lft.to/lastmile_qr_scan"}, "lon": -77.00171766666666, "bike_id": "b38413d2b8afdb1d5e09ef34e95214b9", "type": "electric_scooter", "name": "b38413d2b8afdb1d5e09ef34e95214b9"}, {"is_disabled": 0, "is_reserved": 0, "fusion_lat": 0.0, "lat": 38.93861966666667, "fusion_lon": 0.0, "rental_uris": {"ios": "https://dc.lft.to/lastmile_qr_scan", "android": "https://dc.lft.to/lastmile_qr_scan"}, "lon": -77.030441, "bike_id": "9487f6b441fa8065f0b1877e3064e9f4", "type": "electric_scooter", "name": "9487f6b441fa8065f0b1877e3064e9f4"}, {"is_disabled": 0, "is_reserved": 0, "fusion_lat": 0.0, "lat": 38.882737, "fusion_lon": 0.0, "rental_uris": {"ios": "https://dc.lft.to/lastmile_qr_scan", "android": "https://dc.lft.to/lastmile_qr_scan"}, "lon": -76.93232933333333, "bike_id": "7fef3fe04e3b9ad3ddf089c5421eba8e", "type": "electric_bike", "name": "7fef3fe04e3b9ad3ddf089c5421eba8e"}, {"is_disabled": 0, "is_reserved": 0, "fusion_lat": 0.0, "lat": 38.9224415, "fusion_lon": 0.0, "rental_uris": {"ios": "https://dc.lft.to/lastmile_qr_scan", "android": "https://dc.lft.to/lastmile_qr_scan"}, "lon": -77.04481483333333, "bike_id": "5a9d7d09deeab8c73d18cb23ebf63d5d", "type": "electric_scooter", "name": "5a9d7d09deeab8c73d18cb23ebf63d5d"}, {"is_disabled": 0, "is_reserved": 0, "fusion_lat": 0.0, "lat": 38.9068675, "fusion_lon": 0.0, "rental_uris": {"ios": "https://dc.lft.to/lastmile_qr_scan", "android": "https://dc.lft.to/lastmile_qr_scan"}, "lon": -77.05322333333334, "bike_id": "dde4c0477ad6c42a3742584f54544c79", "type": "electric_scooter", "name": "dde4c0477ad6c42a3742584f54544c79"}, {"is_disabled": 0, "is_reserved": 0, "fusion_lat": 0.0, "lat": 38.912671333333336, "fusion_lon": 0.0, "rental_uris": {"ios": "https://dc.lft.to/lastmile_qr_scan", "android": "https://dc.lft.to/lastmile_qr_scan"}, "lon": -77.01534666666667, "bike_id": "ffa4952cdc4014e6fa4078faef72298f", "type": "electric_scooter", "name": "ffa4952cdc4014e6fa4078faef72298f"}, {"is_disabled": 0, "is_reserved": 0, "fusion_lat": 0.0, "lat": 38.86725283333333, "fusion_lon": 0.0, "rental_uris": {"ios": "https://dc.lft.to/lastmile_qr_scan", "android": "https://dc.lft.to/lastmile_qr_scan"}, "lon": -77.01372883333333, "bike_id": "24fef02d17e9f29c6a99205ef72383f9", "type": "electric_scooter", "name": "24fef02d17e9f29c6a99205ef72383f9"}, {"is_disabled": 0, "is_reserved": 0, "fusion_lat": 0.0, "lat": 38.847049166666665, "fusion_lon": 0.0, "rental_uris": {"ios": "https://dc.lft.to/lastmile_qr_scan", "android": "https://dc.lft.to/lastmile_qr_scan"}, "lon": -76.9961195, "bike_id": "4af1cc91bcdba09f3eb16b7abcffd09e", "type": "electric_bike", "name": "4af1cc91bcdba09f3eb16b7abcffd09e"}, {"is_disabled": 0, "is_reserved": 0, "fusion_lat": 0.0, "lat": 38.884175666666664, "fusion_lon": 0.0, "rental_uris": {"ios": "https://dc.lft.to/lastmile_qr_scan", "android": "https://dc.lft.to/lastmile_qr_scan"}, "lon": -77.02912433333333, "bike_id": "c012e8915ca7f21374e07af7ffbe8c6e", "type": "electric_scooter", "name": "c012e8915ca7f21374e07af7ffbe8c6e"}, {"is_disabled": 0, "is_reserved": 0, "fusion_lat": 0.0, "lat": 38.87714883333334, "fusion_lon": 0.0, "rental_uris": {"ios": "https://dc.lft.to/lastmile_qr_scan", "android": "https://dc.lft.to/lastmile_qr_scan"}, "lon": -77.0175875, "bike_id": "18f8f07a1d7ea27732a814bdc4373845", "type": "electric_scooter", "name": "18f8f07a1d7ea27732a814bdc4373845"}, {"is_disabled": 0, "is_reserved": 0, "fusion_lat": 0.0, "lat": 38.92092316666667, "fusion_lon": 0.0, "rental_uris": {"ios": "https://dc.lft.to/lastmile_qr_scan", "android": "https://dc.lft.to/lastmile_qr_scan"}, "lon": -77.01760533333334, "bike_id": "dd98ce64acdbff1cbb975c2a73e08bfd", "type": "electric_scooter", "name": "dd98ce64acdbff1cbb975c2a73e08bfd"}, {"is_disabled": 0, "is_reserved": 0, "fusion_lat": 0.0, "lat": 38.9161315, "fusion_lon": 0.0, "rental_uris": {"ios": "https://dc.lft.to/lastmile_qr_scan", "android": "https://dc.lft.to/lastmile_qr_scan"}, "lon": -77.02130533333333, "bike_id": "62b2bcf2ca94411d6147283699dc8f5a", "type": "electric_scooter", "name": "62b2bcf2ca94411d6147283699dc8f5a"}, {"is_disabled": 0, "is_reserved": 0, "fusion_lat": 0.0, "lat": 38.89914983333333, "fusion_lon": 0.0, "rental_uris": {"ios": "https://dc.lft.to/lastmile_qr_scan", "android": "https://dc.lft.to/lastmile_qr_scan"}, "lon": -77.0322955, "bike_id": "1e6e39949ba0f056e82d0bd830b8c617", "type": "electric_scooter", "name": "1e6e39949ba0f056e82d0bd830b8c617"}, {"is_disabled": 0, "is_reserved": 0, "fusion_lat": 0.0, "lat": 38.91779966666667, "fusion_lon": 0.0, "rental_uris": {"ios": "https://dc.lft.to/lastmile_qr_scan", "android": "https://dc.lft.to/lastmile_qr_scan"}, "lon": -77.03212833333333, "bike_id": "13d47825f287999cdad5d3f5ea800d4d", "type": "electric_scooter", "name": "13d47825f287999cdad5d3f5ea800d4d"}, {"is_disabled": 0, "is_reserved": 0, "fusion_lat": 0.0, "lat": 38.905579, "fusion_lon": 0.0, "rental_uris": {"ios": "https://dc.lft.to/lastmile_qr_scan", "android": "https://dc.lft.to/lastmile_qr_scan"}, "lon": -77.00803933333333, "bike_id": "65eb9923004afa92df6689c361aec364", "type": "electric_scooter", "name": "65eb9923004afa92df6689c361aec364"}, {"is_disabled": 0, "is_reserved": 0, "fusion_lat": 0.0, "lat": 38.893348, "fusion_lon": 0.0, "rental_uris": {"ios": "https://dc.lft.to/lastmile_qr_scan", "android": "https://dc.lft.to/lastmile_qr_scan"}, "lon": -76.92888983333333, "bike_id": "beb1bf75d4e2a38634dfdc575af669a4", "type": "electric_scooter", "name": "beb1bf75d4e2a38634dfdc575af669a4"}, {"is_disabled": 0, "is_reserved": 0, "fusion_lat": 0.0, "lat": 38.87633983333333, "fusion_lon": 0.0, "rental_uris": {"ios": "https://dc.lft.to/lastmile_qr_scan", "android": "https://dc.lft.to/lastmile_qr_scan"}, "lon": -77.009558, "bike_id": "aec45e0bf29a7bde40bee8a2b8bcdfd5", "type": "electric_scooter", "name": "aec45e0bf29a7bde40bee8a2b8bcdfd5"}, {"is_disabled": 0, "is_reserved": 0, "fusion_lat": 0.0, "lat": 38.91052, "fusion_lon": 0.0, "rental_uris": {"ios": "https://dc.lft.to/lastmile_qr_scan", "android": "https://dc.lft.to/lastmile_qr_scan"}, "lon": -77.0230335, "bike_id": "c96386c494f8762de96950e97fea3d59", "type": "electric_scooter", "name": "c96386c494f8762de96950e97fea3d59"}, {"is_disabled": 0, "is_reserved": 0, "fusion_lat": 0.0, "lat": 38.89391766666667, "fusion_lon": 0.0, "rental_uris": {"ios": "https://dc.lft.to/lastmile_qr_scan", "android": "https://dc.lft.to/lastmile_qr_scan"}, "lon": -77.04656516666667, "bike_id": "ea4216671c07d1811125dec81b379f78", "type": "electric_scooter", "name": "ea4216671c07d1811125dec81b379f78"}, {"is_disabled": 0, "is_reserved": 0, "fusion_lat": 0.0, "lat": 38.9210885, "fusion_lon": 0.0, "rental_uris": {"ios": "https://dc.lft.to/lastmile_qr_scan", "android": "https://dc.lft.to/lastmile_qr_scan"}, "lon": -77.04170216666667, "bike_id": "1fb1fe6d42dd2fc4bd7cbda588ed4290", "type": "electric_scooter", "name": "1fb1fe6d42dd2fc4bd7cbda588ed4290"}, {"is_disabled": 0, "is_reserved": 0, "fusion_lat": 0.0, "lat": 38.931934166666665, "fusion_lon": 0.0, "rental_uris": {"ios": "https://dc.lft.to/lastmile_qr_scan", "android": "https://dc.lft.to/lastmile_qr_scan"}, "lon": -77.03441166666667, "bike_id": "2064d27f01ca0a4c1df0fc809c727708", "type": "electric_scooter", "name": "2064d27f01ca0a4c1df0fc809c727708"}, {"is_disabled": 0, "is_reserved": 0, "fusion_lat": 0.0, "lat": 38.85511416666667, "fusion_lon": 0.0, "rental_uris": {"ios": "https://dc.lft.to/lastmile_qr_scan", "android": "https://dc.lft.to/lastmile_qr_scan"}, "lon": -76.9917255, "bike_id": "ab17f1ace9ce373fc7232cc1fbb0580b", "type": "electric_scooter", "name": "ab17f1ace9ce373fc7232cc1fbb0580b"}, {"is_disabled": 0, "is_reserved": 0, "fusion_lat": 0.0, "lat": 38.88487716666667, "fusion_lon": 0.0, "rental_uris": {"ios": "https://dc.lft.to/lastmile_qr_scan", "android": "https://dc.lft.to/lastmile_qr_scan"}, "lon": -77.03475533333334, "bike_id": "d59109a06c9ab91916c5a23b591a60c5", "type": "electric_scooter", "name": "d59109a06c9ab91916c5a23b591a60c5"}, {"is_disabled": 0, "is_reserved": 0, "fusion_lat": 0.0, "lat": 38.911022833333334, "fusion_lon": 0.0, "rental_uris": {"ios": "https://dc.lft.to/lastmile_qr_scan", "android": "https://dc.lft.to/lastmile_qr_scan"}, "lon": -77.03189766666667, "bike_id": "ff384819feced9b0977a9edc3f1e2fe6", "type": "electric_scooter", "name": "ff384819feced9b0977a9edc3f1e2fe6"}, {"is_disabled": 0, "is_reserved": 0, "fusion_lat": 0.0, "lat": 38.892311166666666, "fusion_lon": 0.0, "rental_uris": {"ios": "https://dc.lft.to/lastmile_qr_scan", "android": "https://dc.lft.to/lastmile_qr_scan"}, "lon": -77.03121366666667, "bike_id": "6038b4a63bd0be7c6e7627bfb9c71c59", "type": "electric_scooter", "name": "6038b4a63bd0be7c6e7627bfb9c71c59"}, {"is_disabled": 0, "is_reserved": 0, "fusion_lat": 0.0, "lat": 38.90472483333333, "fusion_lon": 0.0, "rental_uris": {"ios": "https://dc.lft.to/lastmile_qr_scan", "android": "https://dc.lft.to/lastmile_qr_scan"}, "lon": -76.950621, "bike_id": "037cd3707aea4cb17e6a95fb518c54c3", "type": "electric_scooter", "name": "037cd3707aea4cb17e6a95fb518c54c3"}, {"is_disabled": 0, "is_reserved": 0, "fusion_lat": 0.0, "lat": 38.930817833333336, "fusion_lon": 0.0, "rental_uris": {"ios": "https://dc.lft.to/lastmile_qr_scan", "android": "https://dc.lft.to/lastmile_qr_scan"}, "lon": -77.028077, "bike_id": "1b05315273e953567d424df72632ae71", "type": "electric_scooter", "name": "1b05315273e953567d424df72632ae71"}, {"is_disabled": 0, "is_reserved": 0, "fusion_lat": 0.0, "lat": 38.90133766666667, "fusion_lon": 0.0, "rental_uris": {"ios": "https://dc.lft.to/lastmile_qr_scan", "android": "https://dc.lft.to/lastmile_qr_scan"}, "lon": -77.002792, "bike_id": "625b362b7ad273cffb2ebd623acf5007", "type": "electric_scooter", "name": "625b362b7ad273cffb2ebd623acf5007"}, {"is_disabled": 0, "is_reserved": 0, "fusion_lat": 0.0, "lat": 38.924343, "fusion_lon": 0.0, "rental_uris": {"ios": "https://dc.lft.to/lastmile_qr_scan", "android": "https://dc.lft.to/lastmile_qr_scan"}, "lon": -77.02978266666666, "bike_id": "b21183ded36feba496a38297c6a0b450", "type": "electric_scooter", "name": "b21183ded36feba496a38297c6a0b450"}, {"is_disabled": 0, "is_reserved": 0, "fusion_lat": 0.0, "lat": 38.90478616666667, "fusion_lon": 0.0, "rental_uris": {"ios": "https://dc.lft.to/lastmile_qr_scan", "android": "https://dc.lft.to/lastmile_qr_scan"}, "lon": -77.04855216666667, "bike_id": "3478dbbe2645d1da3d19713285a00eea", "type": "electric_scooter", "name": "3478dbbe2645d1da3d19713285a00eea"}, {"is_disabled": 0, "is_reserved": 0, "fusion_lat": 0.0, "lat": 38.9256085, "fusion_lon": 0.0, "rental_uris": {"ios": "https://dc.lft.to/lastmile_qr_scan", "android": "https://dc.lft.to/lastmile_qr_scan"}, "lon": -77.038159, "bike_id": "8b884ba7ac56bc9222d4dc6d33065f15", "type": "electric_scooter", "name": "8b884ba7ac56bc9222d4dc6d33065f15"}, {"is_disabled": 0, "is_reserved": 0, "fusion_lat": 0.0, "lat": 38.905086833333336, "fusion_lon": 0.0, "rental_uris": {"ios": "https://dc.lft.to/lastmile_qr_scan", "android": "https://dc.lft.to/lastmile_qr_scan"}, "lon": -77.06010566666667, "bike_id": "475cb45a147a203dd74f4d35ead62733", "type": "electric_scooter", "name": "475cb45a147a203dd74f4d35ead62733"}, {"is_disabled": 0, "is_reserved": 0, "fusion_lat": 0.0, "lat": 38.95653633333333, "fusion_lon": 0.0, "rental_uris": {"ios": "https://dc.lft.to/lastmile_qr_scan", "android": "https://dc.lft.to/lastmile_qr_scan"}, "lon": -77.0196485, "bike_id": "e8248b5f538f9849f50a8f11fde3a5dd", "type": "electric_scooter", "name": "e8248b5f538f9849f50a8f11fde3a5dd"}, {"is_disabled": 0, "is_reserved": 0, "fusion_lat": 0.0, "lat": 38.960216, "fusion_lon": 0.0, "rental_uris": {"ios": "https://dc.lft.to/lastmile_qr_scan", "android": "https://dc.lft.to/lastmile_qr_scan"}, "lon": -77.0281675, "bike_id": "1840cb502c7e1b553af65f368af7bb58", "type": "electric_scooter", "name": "1840cb502c7e1b553af65f368af7bb58"}, {"is_disabled": 0, "is_reserved": 0, "fusion_lat": 0.0, "lat": 38.9409035, "fusion_lon": 0.0, "rental_uris": {"ios": "https://dc.lft.to/lastmile_qr_scan", "android": "https://dc.lft.to/lastmile_qr_scan"}, "lon": -77.02323916666667, "bike_id": "2c07b891337546201eefdaa6930a3383", "type": "electric_scooter", "name": "2c07b891337546201eefdaa6930a3383"}, {"is_disabled": 0, "is_reserved": 0, "fusion_lat": 0.0, "lat": 38.8812055, "fusion_lon": 0.0, "rental_uris": {"ios": "https://dc.lft.to/lastmile_qr_scan", "android": "https://dc.lft.to/lastmile_qr_scan"}, "lon": -76.99285166666667, "bike_id": "c0c0c457bd38bd9f6e1da551dd171b64", "type": "electric_scooter", "name": "c0c0c457bd38bd9f6e1da551dd171b64"}, {"is_disabled": 0, "is_reserved": 0, "fusion_lat": 0.0, "lat": 38.90976966666667, "fusion_lon": 0.0, "rental_uris": {"ios": "https://dc.lft.to/lastmile_qr_scan", "android": "https://dc.lft.to/lastmile_qr_scan"}, "lon": -77.0479625, "bike_id": "7a74c7d7cd7377f862498d6f39544e66", "type": "electric_scooter", "name": "7a74c7d7cd7377f862498d6f39544e66"}, {"is_disabled": 0, "is_reserved": 0, "fusion_lat": 0.0, "lat": 38.900426, "fusion_lon": 0.0, "rental_uris": {"ios": "https://dc.lft.to/lastmile_qr_scan", "android": "https://dc.lft.to/lastmile_qr_scan"}, "lon": -76.99152116666667, "bike_id": "a2e0733c65ecd560d3f868414400a2fd", "type": "electric_scooter", "name": "a2e0733c65ecd560d3f868414400a2fd"}, {"is_disabled": 0, "is_reserved": 0, "fusion_lat": 0.0, "lat": 38.9027105, "fusion_lon": 0.0, "rental_uris": {"ios": "https://dc.lft.to/lastmile_qr_scan", "android": "https://dc.lft.to/lastmile_qr_scan"}, "lon": -77.05203033333333, "bike_id": "d53513a173f37bbf7f78efb1f0921429", "type": "electric_scooter", "name": "d53513a173f37bbf7f78efb1f0921429"}, {"is_disabled": 0, "is_reserved": 0, "fusion_lat": 0.0, "lat": 38.910297666666665, "fusion_lon": 0.0, "rental_uris": {"ios": "https://dc.lft.to/lastmile_qr_scan", "android": "https://dc.lft.to/lastmile_qr_scan"}, "lon": -77.009688, "bike_id": "eae7ae91631960669c4fbf8c9e1cf2d3", "type": "electric_scooter", "name": "eae7ae91631960669c4fbf8c9e1cf2d3"}, {"is_disabled": 0, "is_reserved": 0, "fusion_lat": 0.0, "lat": 38.92861666666667, "fusion_lon": 0.0, "rental_uris": {"ios": "https://dc.lft.to/lastmile_qr_scan", "android": "https://dc.lft.to/lastmile_qr_scan"}, "lon": -77.01381066666667, "bike_id": "b7d1399e02559038ef6d5ccbace31b7a", "type": "electric_scooter", "name": "b7d1399e02559038ef6d5ccbace31b7a"}, {"is_disabled": 0, "is_reserved": 0, "fusion_lat": 0.0, "lat": 38.93615666666667, "fusion_lon": 0.0, "rental_uris": {"ios": "https://dc.lft.to/lastmile_qr_scan", "android": "https://dc.lft.to/lastmile_qr_scan"}, "lon": -76.94998216666667, "bike_id": "eb05874ed27d99ab8fadb976950d854c", "type": "electric_bike", "name": "eb05874ed27d99ab8fadb976950d854c"}, {"is_disabled": 0, "is_reserved": 0, "fusion_lat": 0.0, "lat": 38.953330333333334, "fusion_lon": 0.0, "rental_uris": {"ios": "https://dc.lft.to/lastmile_qr_scan", "android": "https://dc.lft.to/lastmile_qr_scan"}, "lon": -76.9825015, "bike_id": "4ac97d55efe1477d6e4866cc5faafcf9", "type": "electric_bike", "name": "4ac97d55efe1477d6e4866cc5faafcf9"}, {"is_disabled": 0, "is_reserved": 0, "fusion_lat": 0.0, "lat": 38.897466, "fusion_lon": 0.0, "rental_uris": {"ios": "https://dc.lft.to/lastmile_qr_scan", "android": "https://dc.lft.to/lastmile_qr_scan"}, "lon": -77.054822, "bike_id": "7084972a534c32346ce5b908aa37aceb", "type": "electric_scooter", "name": "7084972a534c32346ce5b908aa37aceb"}, {"is_disabled": 0, "is_reserved": 0, "fusion_lat": 0.0, "lat": 38.87496, "fusion_lon": 0.0, "rental_uris": {"ios": "https://dc.lft.to/lastmile_qr_scan", "android": "https://dc.lft.to/lastmile_qr_scan"}, "lon": -77.00176783333333, "bike_id": "2715a24136013a9a3e87a0aba3bee3a0", "type": "electric_scooter", "name": "2715a24136013a9a3e87a0aba3bee3a0"}, {"is_disabled": 0, "is_reserved": 0, "fusion_lat": 0.0, "lat": 38.918179333333335, "fusion_lon": 0.0, "rental_uris": {"ios": "https://dc.lft.to/lastmile_qr_scan", "android": "https://dc.lft.to/lastmile_qr_scan"}, "lon": -77.02712983333333, "bike_id": "20720c7fa66d87d89fb4c44d5075bf3b", "type": "electric_scooter", "name": "20720c7fa66d87d89fb4c44d5075bf3b"}, {"is_disabled": 0, "is_reserved": 0, "fusion_lat": 0.0, "lat": 38.896856166666666, "fusion_lon": 0.0, "rental_uris": {"ios": "https://dc.lft.to/lastmile_qr_scan", "android": "https://dc.lft.to/lastmile_qr_scan"}, "lon": -76.939067, "bike_id": "e35f6f848a42b7338b057d30d8feb2f9", "type": "electric_scooter", "name": "e35f6f848a42b7338b057d30d8feb2f9"}, {"is_disabled": 0, "is_reserved": 0, "fusion_lat": 0.0, "lat": 38.905269833333335, "fusion_lon": 0.0, "rental_uris": {"ios": "https://dc.lft.to/lastmile_qr_scan", "android": "https://dc.lft.to/lastmile_qr_scan"}, "lon": -77.062035, "bike_id": "dce82976f914d5af84b6facf29905f04", "type": "electric_scooter", "name": "dce82976f914d5af84b6facf29905f04"}, {"is_disabled": 0, "is_reserved": 0, "fusion_lat": 0.0, "lat": 38.914541666666665, "fusion_lon": 0.0, "rental_uris": {"ios": "https://dc.lft.to/lastmile_qr_scan", "android": "https://dc.lft.to/lastmile_qr_scan"}, "lon": -77.00897083333334, "bike_id": "8a0fcb45530ae65abfef342aeab9eb81", "type": "electric_scooter", "name": "8a0fcb45530ae65abfef342aeab9eb81"}, {"is_disabled": 0, "is_reserved": 0, "fusion_lat": 0.0, "lat": 38.86236816666667, "fusion_lon": 0.0, "rental_uris": {"ios": "https://dc.lft.to/lastmile_qr_scan", "android": "https://dc.lft.to/lastmile_qr_scan"}, "lon": -76.995169, "bike_id": "c1840e965d5929a2a9369f6fc703220b", "type": "electric_scooter", "name": "c1840e965d5929a2a9369f6fc703220b"}, {"is_disabled": 0, "is_reserved": 0, "fusion_lat": 0.0, "lat": 38.88763816666667, "fusion_lon": 0.0, "rental_uris": {"ios": "https://dc.lft.to/lastmile_qr_scan", "android": "https://dc.lft.to/lastmile_qr_scan"}, "lon": -77.014645, "bike_id": "8fa0ae4f7ff636ac667e3380b9399960", "type": "electric_scooter", "name": "8fa0ae4f7ff636ac667e3380b9399960"}, {"is_disabled": 0, "is_reserved": 0, "fusion_lat": 0.0, "lat": 38.91082733333333, "fusion_lon": 0.0, "rental_uris": {"ios": "https://dc.lft.to/lastmile_qr_scan", "android": "https://dc.lft.to/lastmile_qr_scan"}, "lon": -77.06544883333333, "bike_id": "cbe1f63ac51b154d72f4d79c114a6544", "type": "electric_scooter", "name": "cbe1f63ac51b154d72f4d79c114a6544"}, {"is_disabled": 0, "is_reserved": 0, "fusion_lat": 0.0, "lat": 38.918077333333336, "fusion_lon": 0.0, "rental_uris": {"ios": "https://dc.lft.to/lastmile_qr_scan", "android": "https://dc.lft.to/lastmile_qr_scan"}, "lon": -77.03439866666666, "bike_id": "70ced8a1c89c669138bb909225f7f972", "type": "electric_scooter", "name": "70ced8a1c89c669138bb909225f7f972"}, {"is_disabled": 0, "is_reserved": 0, "fusion_lat": 0.0, "lat": 38.91969733333333, "fusion_lon": 0.0, "rental_uris": {"ios": "https://dc.lft.to/lastmile_qr_scan", "android": "https://dc.lft.to/lastmile_qr_scan"}, "lon": -77.041427, "bike_id": "9d92b6fcbbb2f902f5cfa5f543fb23bd", "type": "electric_scooter", "name": "9d92b6fcbbb2f902f5cfa5f543fb23bd"}, {"is_disabled": 0, "is_reserved": 0, "fusion_lat": 0.0, "lat": 38.914065666666666, "fusion_lon": 0.0, "rental_uris": {"ios": "https://dc.lft.to/lastmile_qr_scan", "android": "https://dc.lft.to/lastmile_qr_scan"}, "lon": -77.03219216666666, "bike_id": "b928c9b7a060dfebe9f988f78a516622", "type": "electric_scooter", "name": "b928c9b7a060dfebe9f988f78a516622"}, {"is_disabled": 0, "is_reserved": 0, "fusion_lat": 0.0, "lat": 38.922334666666664, "fusion_lon": 0.0, "rental_uris": {"ios": "https://dc.lft.to/lastmile_qr_scan", "android": "https://dc.lft.to/lastmile_qr_scan"}, "lon": -77.0389265, "bike_id": "040e837ddd519065f9ec49c224d82675", "type": "electric_scooter", "name": "040e837ddd519065f9ec49c224d82675"}, {"is_disabled": 0, "is_reserved": 0, "fusion_lat": 0.0, "lat": 38.909635333333334, "fusion_lon": 0.0, "rental_uris": {"ios": "https://dc.lft.to/lastmile_qr_scan", "android": "https://dc.lft.to/lastmile_qr_scan"}, "lon": -77.023079, "bike_id": "11435f7170368093c0991f2d9c7b50ef", "type": "electric_scooter", "name": "11435f7170368093c0991f2d9c7b50ef"}, {"is_disabled": 0, "is_reserved": 0, "fusion_lat": 0.0, "lat": 38.931213166666666, "fusion_lon": 0.0, "rental_uris": {"ios": "https://dc.lft.to/lastmile_qr_scan", "android": "https://dc.lft.to/lastmile_qr_scan"}, "lon": -77.020662, "bike_id": "bf0e86052084d024e3b7ac8e278ef416", "type": "electric_scooter", "name": "bf0e86052084d024e3b7ac8e278ef416"}, {"is_disabled": 0, "is_reserved": 0, "fusion_lat": 0.0, "lat": 38.8826325, "fusion_lon": 0.0, "rental_uris": {"ios": "https://dc.lft.to/lastmile_qr_scan", "android": "https://dc.lft.to/lastmile_qr_scan"}, "lon": -77.00070033333333, "bike_id": "cb4807a886e1febb835cfd6423e78c0a", "type": "electric_scooter", "name": "cb4807a886e1febb835cfd6423e78c0a"}, {"is_disabled": 0, "is_reserved": 0, "fusion_lat": 0.0, "lat": 38.874804, "fusion_lon": 0.0, "rental_uris": {"ios": "https://dc.lft.to/lastmile_qr_scan", "android": "https://dc.lft.to/lastmile_qr_scan"}, "lon": -77.01070516666667, "bike_id": "c62ca82df831454f4b01c3d24a5deaef", "type": "electric_scooter", "name": "c62ca82df831454f4b01c3d24a5deaef"}, {"is_disabled": 0, "is_reserved": 0, "fusion_lat": 0.0, "lat": 38.92319633333334, "fusion_lon": 0.0, "rental_uris": {"ios": "https://dc.lft.to/lastmile_qr_scan", "android": "https://dc.lft.to/lastmile_qr_scan"}, "lon": -77.04186983333334, "bike_id": "56d50c166bdb2c521b45c3b20b8cb492", "type": "electric_scooter", "name": "56d50c166bdb2c521b45c3b20b8cb492"}, {"is_disabled": 0, "is_reserved": 0, "fusion_lat": 0.0, "lat": 38.930685833333335, "fusion_lon": 0.0, "rental_uris": {"ios": "https://dc.lft.to/lastmile_qr_scan", "android": "https://dc.lft.to/lastmile_qr_scan"}, "lon": -77.04032433333333, "bike_id": "241f18636319b16656b1d61e868366b4", "type": "electric_scooter", "name": "241f18636319b16656b1d61e868366b4"}, {"is_disabled": 0, "is_reserved": 0, "fusion_lat": 0.0, "lat": 38.93660166666667, "fusion_lon": 0.0, "rental_uris": {"ios": "https://dc.lft.to/lastmile_qr_scan", "android": "https://dc.lft.to/lastmile_qr_scan"}, "lon": -77.06616983333333, "bike_id": "652fc3e9df6317eb02d6fddcf752dd12", "type": "electric_scooter", "name": "652fc3e9df6317eb02d6fddcf752dd12"}, {"is_disabled": 0, "is_reserved": 0, "fusion_lat": 0.0, "lat": 38.916316, "fusion_lon": 0.0, "rental_uris": {"ios": "https://dc.lft.to/lastmile_qr_scan", "android": "https://dc.lft.to/lastmile_qr_scan"}, "lon": -77.008482, "bike_id": "4d185ba7a7fda2680870428d168feb32", "type": "electric_scooter", "name": "4d185ba7a7fda2680870428d168feb32"}, {"is_disabled": 0, "is_reserved": 0, "fusion_lat": 0.0, "lat": 38.92551733333333, "fusion_lon": 0.0, "rental_uris": {"ios": "https://dc.lft.to/lastmile_qr_scan", "android": "https://dc.lft.to/lastmile_qr_scan"}, "lon": -77.003225, "bike_id": "affa10b924cddbe942e5d06360d3cf0e", "type": "electric_scooter", "name": "affa10b924cddbe942e5d06360d3cf0e"}, {"is_disabled": 0, "is_reserved": 0, "fusion_lat": 0.0, "lat": 38.93524416666666, "fusion_lon": 0.0, "rental_uris": {"ios": "https://dc.lft.to/lastmile_qr_scan", "android": "https://dc.lft.to/lastmile_qr_scan"}, "lon": -77.028545, "bike_id": "c33808c0b638834ffb362ebac805b7f2", "type": "electric_scooter", "name": "c33808c0b638834ffb362ebac805b7f2"}, {"is_disabled": 0, "is_reserved": 0, "fusion_lat": 0.0, "lat": 38.91912116666666, "fusion_lon": 0.0, "rental_uris": {"ios": "https://dc.lft.to/lastmile_qr_scan", "android": "https://dc.lft.to/lastmile_qr_scan"}, "lon": -77.04474183333333, "bike_id": "31b9b610066f95eede07bccacaebe7c6", "type": "electric_scooter", "name": "31b9b610066f95eede07bccacaebe7c6"}, {"is_disabled": 0, "is_reserved": 0, "fusion_lat": 0.0, "lat": 38.900379, "fusion_lon": 0.0, "rental_uris": {"ios": "https://dc.lft.to/lastmile_qr_scan", "android": "https://dc.lft.to/lastmile_qr_scan"}, "lon": -77.00364633333334, "bike_id": "2f50d0df15613e7ce5686d6991cf93ad", "type": "electric_scooter", "name": "2f50d0df15613e7ce5686d6991cf93ad"}, {"is_disabled": 0, "is_reserved": 0, "fusion_lat": 0.0, "lat": 38.919278, "fusion_lon": 0.0, "rental_uris": {"ios": "https://dc.lft.to/lastmile_qr_scan", "android": "https://dc.lft.to/lastmile_qr_scan"}, "lon": -77.02321783333333, "bike_id": "6c38e524a0cbd280cb524d3c441b3de1", "type": "electric_scooter", "name": "6c38e524a0cbd280cb524d3c441b3de1"}, {"is_disabled": 0, "is_reserved": 0, "fusion_lat": 0.0, "lat": 38.82762616666667, "fusion_lon": 0.0, "rental_uris": {"ios": "https://dc.lft.to/lastmile_qr_scan", "android": "https://dc.lft.to/lastmile_qr_scan"}, "lon": -77.05028366666667, "bike_id": "a8061f088a83917fa0dd118f8926f68c", "type": "electric_bike", "name": "a8061f088a83917fa0dd118f8926f68c"}, {"is_disabled": 0, "is_reserved": 0, "fusion_lat": 0.0, "lat": 38.862617166666666, "fusion_lon": 0.0, "rental_uris": {"ios": "https://dc.lft.to/lastmile_qr_scan", "android": "https://dc.lft.to/lastmile_qr_scan"}, "lon": -76.98351016666666, "bike_id": "45a1987d9b79f8d86b72cfb31e546174", "type": "electric_bike", "name": "45a1987d9b79f8d86b72cfb31e546174"}, {"is_disabled": 0, "is_reserved": 0, "fusion_lat": 0.0, "lat": 38.920932, "fusion_lon": 0.0, "rental_uris": {"ios": "https://dc.lft.to/lastmile_qr_scan", "android": "https://dc.lft.to/lastmile_qr_scan"}, "lon": -77.023168, "bike_id": "6a784dedaab8f2c291bdee5f7851c078", "type": "electric_scooter", "name": "6a784dedaab8f2c291bdee5f7851c078"}, {"is_disabled": 0, "is_reserved": 0, "fusion_lat": 0.0, "lat": 38.91640233333333, "fusion_lon": 0.0, "rental_uris": {"ios": "https://dc.lft.to/lastmile_qr_scan", "android": "https://dc.lft.to/lastmile_qr_scan"}, "lon": -77.04127216666667, "bike_id": "b8d448cce4a2aaf650a30c3e6e506af5", "type": "electric_scooter", "name": "b8d448cce4a2aaf650a30c3e6e506af5"}, {"is_disabled": 0, "is_reserved": 0, "fusion_lat": 0.0, "lat": 38.91554216666667, "fusion_lon": 0.0, "rental_uris": {"ios": "https://dc.lft.to/lastmile_qr_scan", "android": "https://dc.lft.to/lastmile_qr_scan"}, "lon": -77.04641766666667, "bike_id": "8b9f815a5ad71566f5d50e83ebf4a663", "type": "electric_scooter", "name": "8b9f815a5ad71566f5d50e83ebf4a663"}, {"is_disabled": 0, "is_reserved": 0, "fusion_lat": 0.0, "lat": 38.892252, "fusion_lon": 0.0, "rental_uris": {"ios": "https://dc.lft.to/lastmile_qr_scan", "android": "https://dc.lft.to/lastmile_qr_scan"}, "lon": -77.0436735, "bike_id": "3e47af0024b1cd53ed9b74e852ab010c", "type": "electric_scooter", "name": "3e47af0024b1cd53ed9b74e852ab010c"}, {"is_disabled": 0, "is_reserved": 0, "fusion_lat": 0.0, "lat": 38.917063, "fusion_lon": 0.0, "rental_uris": {"ios": "https://dc.lft.to/lastmile_qr_scan", "android": "https://dc.lft.to/lastmile_qr_scan"}, "lon": -77.01180216666667, "bike_id": "485754a617ac5bf08b079fee0629604a", "type": "electric_scooter", "name": "485754a617ac5bf08b079fee0629604a"}, {"is_disabled": 0, "is_reserved": 0, "fusion_lat": 0.0, "lat": 38.9140535, "fusion_lon": 0.0, "rental_uris": {"ios": "https://dc.lft.to/lastmile_qr_scan", "android": "https://dc.lft.to/lastmile_qr_scan"}, "lon": -77.03224533333334, "bike_id": "91c182bd20091bb5d22bb24bd2c62e4a", "type": "electric_scooter", "name": "91c182bd20091bb5d22bb24bd2c62e4a"}, {"is_disabled": 0, "is_reserved": 0, "fusion_lat": 0.0, "lat": 38.906839, "fusion_lon": 0.0, "rental_uris": {"ios": "https://dc.lft.to/lastmile_qr_scan", "android": "https://dc.lft.to/lastmile_qr_scan"}, "lon": -77.02496866666667, "bike_id": "71ac233701bbdc78affb8fa5bea156d0", "type": "electric_scooter", "name": "71ac233701bbdc78affb8fa5bea156d0"}, {"is_disabled": 0, "is_reserved": 0, "fusion_lat": 0.0, "lat": 38.911144, "fusion_lon": 0.0, "rental_uris": {"ios": "https://dc.lft.to/lastmile_qr_scan", "android": "https://dc.lft.to/lastmile_qr_scan"}, "lon": -77.01157583333334, "bike_id": "2a5d6754fa46b88a91c468983effa662", "type": "electric_scooter", "name": "2a5d6754fa46b88a91c468983effa662"}, {"is_disabled": 0, "is_reserved": 0, "fusion_lat": 0.0, "lat": 38.92341233333333, "fusion_lon": 0.0, "rental_uris": {"ios": "https://dc.lft.to/lastmile_qr_scan", "android": "https://dc.lft.to/lastmile_qr_scan"}, "lon": -77.01909466666666, "bike_id": "3dc27197ad6bc3f811fa72d3c590704b", "type": "electric_scooter", "name": "3dc27197ad6bc3f811fa72d3c590704b"}, {"is_disabled": 0, "is_reserved": 0, "fusion_lat": 0.0, "lat": 38.90725966666667, "fusion_lon": 0.0, "rental_uris": {"ios": "https://dc.lft.to/lastmile_qr_scan", "android": "https://dc.lft.to/lastmile_qr_scan"}, "lon": -77.0716465, "bike_id": "dacc3adc2c580f98e0c861998c10eb1c", "type": "electric_scooter", "name": "dacc3adc2c580f98e0c861998c10eb1c"}, {"is_disabled": 0, "is_reserved": 0, "fusion_lat": 0.0, "lat": 38.89722016666666, "fusion_lon": 0.0, "rental_uris": {"ios": "https://dc.lft.to/lastmile_qr_scan", "android": "https://dc.lft.to/lastmile_qr_scan"}, "lon": -77.02600116666666, "bike_id": "4ae159b39fa1ce47745d92c17faa628c", "type": "electric_scooter", "name": "4ae159b39fa1ce47745d92c17faa628c"}, {"is_disabled": 0, "is_reserved": 0, "fusion_lat": 0.0, "lat": 38.931742666666665, "fusion_lon": 0.0, "rental_uris": {"ios": "https://dc.lft.to/lastmile_qr_scan", "android": "https://dc.lft.to/lastmile_qr_scan"}, "lon": -77.028164, "bike_id": "64da5dbcbb59f8da55fedd3f3027fc16", "type": "electric_scooter", "name": "64da5dbcbb59f8da55fedd3f3027fc16"}, {"is_disabled": 0, "is_reserved": 0, "fusion_lat": 0.0, "lat": 38.89607183333333, "fusion_lon": 0.0, "rental_uris": {"ios": "https://dc.lft.to/lastmile_qr_scan", "android": "https://dc.lft.to/lastmile_qr_scan"}, "lon": -76.99804416666667, "bike_id": "e987a93772a32f4930beb3795c5283e7", "type": "electric_scooter", "name": "e987a93772a32f4930beb3795c5283e7"}, {"is_disabled": 0, "is_reserved": 0, "fusion_lat": 0.0, "lat": 38.920147, "fusion_lon": 0.0, "rental_uris": {"ios": "https://dc.lft.to/lastmile_qr_scan", "android": "https://dc.lft.to/lastmile_qr_scan"}, "lon": -77.02192266666667, "bike_id": "c8d5a800c2bfec628d56973f4560c6ec", "type": "electric_scooter", "name": "c8d5a800c2bfec628d56973f4560c6ec"}, {"is_disabled": 0, "is_reserved": 0, "fusion_lat": 0.0, "lat": 38.945014, "fusion_lon": 0.0, "rental_uris": {"ios": "https://dc.lft.to/lastmile_qr_scan", "android": "https://dc.lft.to/lastmile_qr_scan"}, "lon": -77.034319, "bike_id": "7160079d04d53da364375b410d999e5c", "type": "electric_scooter", "name": "7160079d04d53da364375b410d999e5c"}, {"is_disabled": 0, "is_reserved": 0, "fusion_lat": 0.0, "lat": 38.902493166666666, "fusion_lon": 0.0, "rental_uris": {"ios": "https://dc.lft.to/lastmile_qr_scan", "android": "https://dc.lft.to/lastmile_qr_scan"}, "lon": -76.977075, "bike_id": "4acfb6cc1883c9181f3af43cd303dd07", "type": "electric_scooter", "name": "4acfb6cc1883c9181f3af43cd303dd07"}, {"is_disabled": 0, "is_reserved": 0, "fusion_lat": 0.0, "lat": 38.909487666666664, "fusion_lon": 0.0, "rental_uris": {"ios": "https://dc.lft.to/lastmile_qr_scan", "android": "https://dc.lft.to/lastmile_qr_scan"}, "lon": -77.0318215, "bike_id": "e6ef5b02a673d81fa9f2609d073069af", "type": "electric_scooter", "name": "e6ef5b02a673d81fa9f2609d073069af"}, {"is_disabled": 0, "is_reserved": 0, "fusion_lat": 0.0, "lat": 38.918548, "fusion_lon": 0.0, "rental_uris": {"ios": "https://dc.lft.to/lastmile_qr_scan", "android": "https://dc.lft.to/lastmile_qr_scan"}, "lon": -76.960884, "bike_id": "de9a4be85b64084aa8122b8a39f32fee", "type": "electric_scooter", "name": "de9a4be85b64084aa8122b8a39f32fee"}, {"is_disabled": 0, "is_reserved": 0, "fusion_lat": 0.0, "lat": 38.909728333333334, "fusion_lon": 0.0, "rental_uris": {"ios": "https://dc.lft.to/lastmile_qr_scan", "android": "https://dc.lft.to/lastmile_qr_scan"}, "lon": -77.04828883333333, "bike_id": "081efd6c7913ca8e59dc8d9c39eb66c4", "type": "electric_scooter", "name": "081efd6c7913ca8e59dc8d9c39eb66c4"}, {"is_disabled": 0, "is_reserved": 0, "fusion_lat": 0.0, "lat": 38.8900585, "fusion_lon": 0.0, "rental_uris": {"ios": "https://dc.lft.to/lastmile_qr_scan", "android": "https://dc.lft.to/lastmile_qr_scan"}, "lon": -76.93748633333334, "bike_id": "f058cb0750db03600267eaf2d1634abf", "type": "electric_scooter", "name": "f058cb0750db03600267eaf2d1634abf"}, {"is_disabled": 0, "is_reserved": 0, "fusion_lat": 0.0, "lat": 38.91831, "fusion_lon": 0.0, "rental_uris": {"ios": "https://dc.lft.to/lastmile_qr_scan", "android": "https://dc.lft.to/lastmile_qr_scan"}, "lon": -77.024197, "bike_id": "5e6400e83e988023a4acbb336d2435a7", "type": "electric_scooter", "name": "5e6400e83e988023a4acbb336d2435a7"}, {"is_disabled": 0, "is_reserved": 0, "fusion_lat": 0.0, "lat": 38.8941415, "fusion_lon": 0.0, "rental_uris": {"ios": "https://dc.lft.to/lastmile_qr_scan", "android": "https://dc.lft.to/lastmile_qr_scan"}, "lon": -77.03384833333334, "bike_id": "e5d2cee5ae86f2dc2576dbc8a265f7c9", "type": "electric_scooter", "name": "e5d2cee5ae86f2dc2576dbc8a265f7c9"}, {"is_disabled": 0, "is_reserved": 0, "fusion_lat": 0.0, "lat": 38.90270566666667, "fusion_lon": 0.0, "rental_uris": {"ios": "https://dc.lft.to/lastmile_qr_scan", "android": "https://dc.lft.to/lastmile_qr_scan"}, "lon": -77.05199433333334, "bike_id": "a3fa185bf5063bdb13d0c4d3a0f0fcbe", "type": "electric_scooter", "name": "a3fa185bf5063bdb13d0c4d3a0f0fcbe"}, {"is_disabled": 0, "is_reserved": 0, "fusion_lat": 0.0, "lat": 38.93287683333333, "fusion_lon": 0.0, "rental_uris": {"ios": "https://dc.lft.to/lastmile_qr_scan", "android": "https://dc.lft.to/lastmile_qr_scan"}, "lon": -77.035465, "bike_id": "87528dad4aed45d8c8941370a620a24f", "type": "electric_scooter", "name": "87528dad4aed45d8c8941370a620a24f"}, {"is_disabled": 0, "is_reserved": 0, "fusion_lat": 0.0, "lat": 38.89672216666666, "fusion_lon": 0.0, "rental_uris": {"ios": "https://dc.lft.to/lastmile_qr_scan", "android": "https://dc.lft.to/lastmile_qr_scan"}, "lon": -77.05096983333334, "bike_id": "b01f23c99a8e055cee10c0a829e05699", "type": "electric_scooter", "name": "b01f23c99a8e055cee10c0a829e05699"}, {"is_disabled": 0, "is_reserved": 0, "fusion_lat": 0.0, "lat": 38.897349166666665, "fusion_lon": 0.0, "rental_uris": {"ios": "https://dc.lft.to/lastmile_qr_scan", "android": "https://dc.lft.to/lastmile_qr_scan"}, "lon": -77.027067, "bike_id": "2a0f8333fce02f7afc712424d06b8467", "type": "electric_scooter", "name": "2a0f8333fce02f7afc712424d06b8467"}, {"is_disabled": 0, "is_reserved": 0, "fusion_lat": 0.0, "lat": 38.898599, "fusion_lon": 0.0, "rental_uris": {"ios": "https://dc.lft.to/lastmile_qr_scan", "android": "https://dc.lft.to/lastmile_qr_scan"}, "lon": -76.9464485, "bike_id": "e091d3a54b8d718e39f7376f55ee583a", "type": "electric_scooter", "name": "e091d3a54b8d718e39f7376f55ee583a"}, {"is_disabled": 0, "is_reserved": 0, "fusion_lat": 0.0, "lat": 38.90735816666667, "fusion_lon": 0.0, "rental_uris": {"ios": "https://dc.lft.to/lastmile_qr_scan", "android": "https://dc.lft.to/lastmile_qr_scan"}, "lon": -77.00048716666667, "bike_id": "e659c67cc2c95453d0216efa20f75507", "type": "electric_scooter", "name": "e659c67cc2c95453d0216efa20f75507"}, {"is_disabled": 0, "is_reserved": 0, "fusion_lat": 0.0, "lat": 38.911976833333334, "fusion_lon": 0.0, "rental_uris": {"ios": "https://dc.lft.to/lastmile_qr_scan", "android": "https://dc.lft.to/lastmile_qr_scan"}, "lon": -77.00215833333333, "bike_id": "444047e467ad5922b78af65a9d5a1544", "type": "electric_scooter", "name": "444047e467ad5922b78af65a9d5a1544"}, {"is_disabled": 0, "is_reserved": 0, "fusion_lat": 0.0, "lat": 38.938743333333335, "fusion_lon": 0.0, "rental_uris": {"ios": "https://dc.lft.to/lastmile_qr_scan", "android": "https://dc.lft.to/lastmile_qr_scan"}, "lon": -77.0304215, "bike_id": "dfbe918669c28a2df3d2fd6f262f5147", "type": "electric_scooter", "name": "dfbe918669c28a2df3d2fd6f262f5147"}, {"is_disabled": 0, "is_reserved": 0, "fusion_lat": 0.0, "lat": 38.905365, "fusion_lon": 0.0, "rental_uris": {"ios": "https://dc.lft.to/lastmile_qr_scan", "android": "https://dc.lft.to/lastmile_qr_scan"}, "lon": -77.017009, "bike_id": "b4141186621b2cd1c201815a5ea0ae99", "type": "electric_scooter", "name": "b4141186621b2cd1c201815a5ea0ae99"}, {"is_disabled": 0, "is_reserved": 0, "fusion_lat": 0.0, "lat": 38.919905, "fusion_lon": 0.0, "rental_uris": {"ios": "https://dc.lft.to/lastmile_qr_scan", "android": "https://dc.lft.to/lastmile_qr_scan"}, "lon": -77.03250616666666, "bike_id": "bb225dffe983588e5618e69a4f96718d", "type": "electric_scooter", "name": "bb225dffe983588e5618e69a4f96718d"}, {"is_disabled": 0, "is_reserved": 0, "fusion_lat": 0.0, "lat": 38.91991866666667, "fusion_lon": 0.0, "rental_uris": {"ios": "https://dc.lft.to/lastmile_qr_scan", "android": "https://dc.lft.to/lastmile_qr_scan"}, "lon": -77.03248733333334, "bike_id": "6769b5241b5490c369f572f8ba67ed77", "type": "electric_scooter", "name": "6769b5241b5490c369f572f8ba67ed77"}, {"is_disabled": 0, "is_reserved": 0, "fusion_lat": 0.0, "lat": 38.8707215, "fusion_lon": 0.0, "rental_uris": {"ios": "https://dc.lft.to/lastmile_qr_scan", "android": "https://dc.lft.to/lastmile_qr_scan"}, "lon": -76.979374, "bike_id": "cc4059b1c51101db8d63de0a4757987e", "type": "electric_scooter", "name": "cc4059b1c51101db8d63de0a4757987e"}, {"is_disabled": 0, "is_reserved": 0, "fusion_lat": 0.0, "lat": 38.923157833333335, "fusion_lon": 0.0, "rental_uris": {"ios": "https://dc.lft.to/lastmile_qr_scan", "android": "https://dc.lft.to/lastmile_qr_scan"}, "lon": -77.04181483333333, "bike_id": "4b85a9a0f1360fd6af78275e92c795dd", "type": "electric_scooter", "name": "4b85a9a0f1360fd6af78275e92c795dd"}, {"is_disabled": 0, "is_reserved": 0, "fusion_lat": 0.0, "lat": 38.893013, "fusion_lon": 0.0, "rental_uris": {"ios": "https://dc.lft.to/lastmile_qr_scan", "android": "https://dc.lft.to/lastmile_qr_scan"}, "lon": -76.999604, "bike_id": "5703b275471e782665669d8e21b84b5a", "type": "electric_scooter", "name": "5703b275471e782665669d8e21b84b5a"}, {"is_disabled": 0, "is_reserved": 0, "fusion_lat": 0.0, "lat": 38.898359166666665, "fusion_lon": 0.0, "rental_uris": {"ios": "https://dc.lft.to/lastmile_qr_scan", "android": "https://dc.lft.to/lastmile_qr_scan"}, "lon": -76.94632966666667, "bike_id": "f42d992e856fadef304a2363eb5d34e0", "type": "electric_scooter", "name": "f42d992e856fadef304a2363eb5d34e0"}, {"is_disabled": 0, "is_reserved": 0, "fusion_lat": 0.0, "lat": 38.902328, "fusion_lon": 0.0, "rental_uris": {"ios": "https://dc.lft.to/lastmile_qr_scan", "android": "https://dc.lft.to/lastmile_qr_scan"}, "lon": -77.03472466666666, "bike_id": "299b87eff0a669f7cf37872778803a3e", "type": "electric_scooter", "name": "299b87eff0a669f7cf37872778803a3e"}, {"is_disabled": 0, "is_reserved": 0, "fusion_lat": 0.0, "lat": 39.026245333333335, "fusion_lon": 0.0, "rental_uris": {"ios": "https://dc.lft.to/lastmile_qr_scan", "android": "https://dc.lft.to/lastmile_qr_scan"}, "lon": -77.03881833333334, "bike_id": "d2077dbcb782796e4d4f7cdbdec524e9", "type": "electric_bike", "name": "d2077dbcb782796e4d4f7cdbdec524e9"}, {"is_disabled": 0, "is_reserved": 0, "fusion_lat": 0.0, "lat": 38.91686, "fusion_lon": 0.0, "rental_uris": {"ios": "https://dc.lft.to/lastmile_qr_scan", "android": "https://dc.lft.to/lastmile_qr_scan"}, "lon": -77.03763383333333, "bike_id": "4031cd07f20dab796a49e8e5792c08fc", "type": "electric_scooter", "name": "4031cd07f20dab796a49e8e5792c08fc"}, {"is_disabled": 0, "is_reserved": 0, "fusion_lat": 0.0, "lat": 38.85798483333333, "fusion_lon": 0.0, "rental_uris": {"ios": "https://dc.lft.to/lastmile_qr_scan", "android": "https://dc.lft.to/lastmile_qr_scan"}, "lon": -76.98747033333333, "bike_id": "e88fe8128ce769a76c79755ff9bf4c7d", "type": "electric_bike", "name": "e88fe8128ce769a76c79755ff9bf4c7d"}, {"is_disabled": 0, "is_reserved": 0, "fusion_lat": 0.0, "lat": 38.91913433333333, "fusion_lon": 0.0, "rental_uris": {"ios": "https://dc.lft.to/lastmile_qr_scan", "android": "https://dc.lft.to/lastmile_qr_scan"}, "lon": -77.04465466666667, "bike_id": "a0893eb81328c4d58019b1056e908681", "type": "electric_scooter", "name": "a0893eb81328c4d58019b1056e908681"}, {"is_disabled": 0, "is_reserved": 0, "fusion_lat": 0.0, "lat": 38.92233133333333, "fusion_lon": 0.0, "rental_uris": {"ios": "https://dc.lft.to/lastmile_qr_scan", "android": "https://dc.lft.to/lastmile_qr_scan"}, "lon": -77.018244, "bike_id": "679a250cf656a3a15b9e3f505739f3b2", "type": "electric_scooter", "name": "679a250cf656a3a15b9e3f505739f3b2"}, {"is_disabled": 0, "is_reserved": 0, "fusion_lat": 0.0, "lat": 38.904713666666666, "fusion_lon": 0.0, "rental_uris": {"ios": "https://dc.lft.to/lastmile_qr_scan", "android": "https://dc.lft.to/lastmile_qr_scan"}, "lon": -76.9842515, "bike_id": "7805303de59c876f1befc6fbf7d1d5ce", "type": "electric_bike", "name": "7805303de59c876f1befc6fbf7d1d5ce"}, {"is_disabled": 0, "is_reserved": 0, "fusion_lat": 0.0, "lat": 38.89970666666667, "fusion_lon": 0.0, "rental_uris": {"ios": "https://dc.lft.to/lastmile_qr_scan", "android": "https://dc.lft.to/lastmile_qr_scan"}, "lon": -77.01609833333333, "bike_id": "ef3ac43a673100a67f56f0eecd1fb05b", "type": "electric_scooter", "name": "ef3ac43a673100a67f56f0eecd1fb05b"}, {"is_disabled": 0, "is_reserved": 0, "fusion_lat": 0.0, "lat": 38.91710166666667, "fusion_lon": 0.0, "rental_uris": {"ios": "https://dc.lft.to/lastmile_qr_scan", "android": "https://dc.lft.to/lastmile_qr_scan"}, "lon": -77.024156, "bike_id": "ddffd395b76630fd99cc067e4fc3f1a7", "type": "electric_scooter", "name": "ddffd395b76630fd99cc067e4fc3f1a7"}, {"is_disabled": 0, "is_reserved": 0, "fusion_lat": 0.0, "lat": 38.87797033333333, "fusion_lon": 0.0, "rental_uris": {"ios": "https://dc.lft.to/lastmile_qr_scan", "android": "https://dc.lft.to/lastmile_qr_scan"}, "lon": -77.0012585, "bike_id": "25b807c3afe9c27853bd85e9de582153", "type": "electric_scooter", "name": "25b807c3afe9c27853bd85e9de582153"}, {"is_disabled": 0, "is_reserved": 0, "fusion_lat": 0.0, "lat": 38.902124666666666, "fusion_lon": 0.0, "rental_uris": {"ios": "https://dc.lft.to/lastmile_qr_scan", "android": "https://dc.lft.to/lastmile_qr_scan"}, "lon": -77.02064666666666, "bike_id": "ec9a8f20281baa2f5489c4e99b06ee22", "type": "electric_bike", "name": "ec9a8f20281baa2f5489c4e99b06ee22"}, {"is_disabled": 0, "is_reserved": 0, "fusion_lat": 0.0, "lat": 38.906931166666666, "fusion_lon": 0.0, "rental_uris": {"ios": "https://dc.lft.to/lastmile_qr_scan", "android": "https://dc.lft.to/lastmile_qr_scan"}, "lon": -77.063317, "bike_id": "ff3d251a0b3ed24f53911e3729a260a9", "type": "electric_scooter", "name": "ff3d251a0b3ed24f53911e3729a260a9"}, {"is_disabled": 0, "is_reserved": 0, "fusion_lat": 0.0, "lat": 38.97831216666667, "fusion_lon": 0.0, "rental_uris": {"ios": "https://dc.lft.to/lastmile_qr_scan", "android": "https://dc.lft.to/lastmile_qr_scan"}, "lon": -76.9289015, "bike_id": "fa9baa5492e4876f33623d903dac2843", "type": "electric_bike", "name": "fa9baa5492e4876f33623d903dac2843"}, {"is_disabled": 0, "is_reserved": 0, "fusion_lat": 0.0, "lat": 38.927911333333334, "fusion_lon": 0.0, "rental_uris": {"ios": "https://dc.lft.to/lastmile_qr_scan", "android": "https://dc.lft.to/lastmile_qr_scan"}, "lon": -77.05584766666666, "bike_id": "8a95487fcd86c05b36892356d8623ad1", "type": "electric_scooter", "name": "8a95487fcd86c05b36892356d8623ad1"}, {"is_disabled": 0, "is_reserved": 0, "fusion_lat": 0.0, "lat": 38.8920045, "fusion_lon": 0.0, "rental_uris": {"ios": "https://dc.lft.to/lastmile_qr_scan", "android": "https://dc.lft.to/lastmile_qr_scan"}, "lon": -77.002976, "bike_id": "71b0ab21f525658ada370bec8a3d541a", "type": "electric_scooter", "name": "71b0ab21f525658ada370bec8a3d541a"}, {"is_disabled": 0, "is_reserved": 0, "fusion_lat": 0.0, "lat": 38.9622215, "fusion_lon": 0.0, "rental_uris": {"ios": "https://dc.lft.to/lastmile_qr_scan", "android": "https://dc.lft.to/lastmile_qr_scan"}, "lon": -77.02626316666667, "bike_id": "c7e787c39666ada760311d575b03fd9b", "type": "electric_bike", "name": "c7e787c39666ada760311d575b03fd9b"}, {"is_disabled": 0, "is_reserved": 0, "fusion_lat": 0.0, "lat": 38.91988966666667, "fusion_lon": 0.0, "rental_uris": {"ios": "https://dc.lft.to/lastmile_qr_scan", "android": "https://dc.lft.to/lastmile_qr_scan"}, "lon": -77.03251883333333, "bike_id": "4cef698309f2316ac424b9f03aefb70c", "type": "electric_scooter", "name": "4cef698309f2316ac424b9f03aefb70c"}, {"is_disabled": 0, "is_reserved": 0, "fusion_lat": 0.0, "lat": 38.924476, "fusion_lon": 0.0, "rental_uris": {"ios": "https://dc.lft.to/lastmile_qr_scan", "android": "https://dc.lft.to/lastmile_qr_scan"}, "lon": -77.020413, "bike_id": "997c180b16e978fd734035702692424e", "type": "electric_scooter", "name": "997c180b16e978fd734035702692424e"}, {"is_disabled": 0, "is_reserved": 0, "fusion_lat": 0.0, "lat": 38.923527666666665, "fusion_lon": 0.0, "rental_uris": {"ios": "https://dc.lft.to/lastmile_qr_scan", "android": "https://dc.lft.to/lastmile_qr_scan"}, "lon": -77.00196083333333, "bike_id": "dfdbe9b9fda02305bee02648f4147f1f", "type": "electric_scooter", "name": "dfdbe9b9fda02305bee02648f4147f1f"}, {"is_disabled": 0, "is_reserved": 0, "fusion_lat": 0.0, "lat": 38.923381166666665, "fusion_lon": 0.0, "rental_uris": {"ios": "https://dc.lft.to/lastmile_qr_scan", "android": "https://dc.lft.to/lastmile_qr_scan"}, "lon": -77.03521583333334, "bike_id": "de38d23bcb9514561d003b14b972fbac", "type": "electric_scooter", "name": "de38d23bcb9514561d003b14b972fbac"}, {"is_disabled": 0, "is_reserved": 0, "fusion_lat": 0.0, "lat": 38.9054005, "fusion_lon": 0.0, "rental_uris": {"ios": "https://dc.lft.to/lastmile_qr_scan", "android": "https://dc.lft.to/lastmile_qr_scan"}, "lon": -77.00533766666666, "bike_id": "1f5eb6da19c591bc43487acca3f8b3e1", "type": "electric_scooter", "name": "1f5eb6da19c591bc43487acca3f8b3e1"}, {"is_disabled": 0, "is_reserved": 0, "fusion_lat": 0.0, "lat": 38.933560166666666, "fusion_lon": 0.0, "rental_uris": {"ios": "https://dc.lft.to/lastmile_qr_scan", "android": "https://dc.lft.to/lastmile_qr_scan"}, "lon": -77.02564233333334, "bike_id": "1fe810226e74e7f753c0f983863f4694", "type": "electric_scooter", "name": "1fe810226e74e7f753c0f983863f4694"}, {"is_disabled": 0, "is_reserved": 0, "fusion_lat": 0.0, "lat": 38.80729066666667, "fusion_lon": 0.0, "rental_uris": {"ios": "https://dc.lft.to/lastmile_qr_scan", "android": "https://dc.lft.to/lastmile_qr_scan"}, "lon": -76.9926245, "bike_id": "d05a519c44d3b57572673eb60f0de400", "type": "electric_bike", "name": "d05a519c44d3b57572673eb60f0de400"}, {"is_disabled": 0, "is_reserved": 0, "fusion_lat": 0.0, "lat": 38.881387, "fusion_lon": 0.0, "rental_uris": {"ios": "https://dc.lft.to/lastmile_qr_scan", "android": "https://dc.lft.to/lastmile_qr_scan"}, "lon": -76.99617733333334, "bike_id": "f075f64ad9c3321d381d17b43197cacd", "type": "electric_scooter", "name": "f075f64ad9c3321d381d17b43197cacd"}, {"is_disabled": 0, "is_reserved": 0, "fusion_lat": 0.0, "lat": 38.91018566666666, "fusion_lon": 0.0, "rental_uris": {"ios": "https://dc.lft.to/lastmile_qr_scan", "android": "https://dc.lft.to/lastmile_qr_scan"}, "lon": -77.03191183333334, "bike_id": "5f36ebd5c4d3372acc5cae51f27bd5ab", "type": "electric_scooter", "name": "5f36ebd5c4d3372acc5cae51f27bd5ab"}, {"is_disabled": 0, "is_reserved": 0, "fusion_lat": 0.0, "lat": 38.928755333333335, "fusion_lon": 0.0, "rental_uris": {"ios": "https://dc.lft.to/lastmile_qr_scan", "android": "https://dc.lft.to/lastmile_qr_scan"}, "lon": -77.0382515, "bike_id": "38abe4308f7a6d2dc9541772526e400c", "type": "electric_scooter", "name": "38abe4308f7a6d2dc9541772526e400c"}, {"is_disabled": 0, "is_reserved": 0, "fusion_lat": 0.0, "lat": 38.91928133333333, "fusion_lon": 0.0, "rental_uris": {"ios": "https://dc.lft.to/lastmile_qr_scan", "android": "https://dc.lft.to/lastmile_qr_scan"}, "lon": -77.041489, "bike_id": "b2d1da92c237199604fd29c898410002", "type": "electric_scooter", "name": "b2d1da92c237199604fd29c898410002"}, {"is_disabled": 0, "is_reserved": 0, "fusion_lat": 0.0, "lat": 38.88399116666667, "fusion_lon": 0.0, "rental_uris": {"ios": "https://dc.lft.to/lastmile_qr_scan", "android": "https://dc.lft.to/lastmile_qr_scan"}, "lon": -76.93036266666667, "bike_id": "18e73e4ff0df94d50ea401671a390b53", "type": "electric_scooter", "name": "18e73e4ff0df94d50ea401671a390b53"}, {"is_disabled": 0, "is_reserved": 0, "fusion_lat": 0.0, "lat": 38.8845095, "fusion_lon": 0.0, "rental_uris": {"ios": "https://dc.lft.to/lastmile_qr_scan", "android": "https://dc.lft.to/lastmile_qr_scan"}, "lon": -77.008985, "bike_id": "f6fc77e49310b407d1dc22c4728d489e", "type": "electric_scooter", "name": "f6fc77e49310b407d1dc22c4728d489e"}, {"is_disabled": 0, "is_reserved": 0, "fusion_lat": 0.0, "lat": 38.917313166666666, "fusion_lon": 0.0, "rental_uris": {"ios": "https://dc.lft.to/lastmile_qr_scan", "android": "https://dc.lft.to/lastmile_qr_scan"}, "lon": -77.032084, "bike_id": "76844fc87f3dab30e1490cadcf3f9b5e", "type": "electric_scooter", "name": "76844fc87f3dab30e1490cadcf3f9b5e"}, {"is_disabled": 0, "is_reserved": 0, "fusion_lat": 0.0, "lat": 38.8837245, "fusion_lon": 0.0, "rental_uris": {"ios": "https://dc.lft.to/lastmile_qr_scan", "android": "https://dc.lft.to/lastmile_qr_scan"}, "lon": -76.92375233333334, "bike_id": "a27b53acf6040627688564f88098767f", "type": "electric_bike", "name": "a27b53acf6040627688564f88098767f"}, {"is_disabled": 0, "is_reserved": 0, "fusion_lat": 0.0, "lat": 38.9570725, "fusion_lon": 0.0, "rental_uris": {"ios": "https://dc.lft.to/lastmile_qr_scan", "android": "https://dc.lft.to/lastmile_qr_scan"}, "lon": -77.35971833333333, "bike_id": "a330aaaef9076cf0e9e30aa4a53f8fb5", "type": "electric_bike", "name": "a330aaaef9076cf0e9e30aa4a53f8fb5"}, {"is_disabled": 0, "is_reserved": 0, "fusion_lat": 0.0, "lat": 38.89255083333333, "fusion_lon": 0.0, "rental_uris": {"ios": "https://dc.lft.to/lastmile_qr_scan", "android": "https://dc.lft.to/lastmile_qr_scan"}, "lon": -77.050304, "bike_id": "f903fa17c97230a11a86e2806d5dfbcb", "type": "electric_scooter", "name": "f903fa17c97230a11a86e2806d5dfbcb"}, {"is_disabled": 0, "is_reserved": 0, "fusion_lat": 0.0, "lat": 39.0843445, "fusion_lon": 0.0, "rental_uris": {"ios": "https://dc.lft.to/lastmile_qr_scan", "android": "https://dc.lft.to/lastmile_qr_scan"}, "lon": -76.95139916666666, "bike_id": "c2d7c02896845c82546f60845a30828f", "type": "electric_bike", "name": "c2d7c02896845c82546f60845a30828f"}, {"is_disabled": 0, "is_reserved": 0, "fusion_lat": 0.0, "lat": 38.921851833333335, "fusion_lon": 0.0, "rental_uris": {"ios": "https://dc.lft.to/lastmile_qr_scan", "android": "https://dc.lft.to/lastmile_qr_scan"}, "lon": -77.0209375, "bike_id": "bdf48bcaf543752341cf85b85d4505d9", "type": "electric_scooter", "name": "bdf48bcaf543752341cf85b85d4505d9"}, {"is_disabled": 0, "is_reserved": 0, "fusion_lat": 0.0, "lat": 38.85900616666667, "fusion_lon": 0.0, "rental_uris": {"ios": "https://dc.lft.to/lastmile_qr_scan", "android": "https://dc.lft.to/lastmile_qr_scan"}, "lon": -77.09553983333333, "bike_id": "a9c574702d56750c331502616e9ca143", "type": "electric_bike", "name": "a9c574702d56750c331502616e9ca143"}, {"is_disabled": 0, "is_reserved": 0, "fusion_lat": 0.0, "lat": 38.9083955, "fusion_lon": 0.0, "rental_uris": {"ios": "https://dc.lft.to/lastmile_qr_scan", "android": "https://dc.lft.to/lastmile_qr_scan"}, "lon": -77.0006315, "bike_id": "71c62a024246501d4792d7cfa431b1ba", "type": "electric_scooter", "name": "71c62a024246501d4792d7cfa431b1ba"}, {"is_disabled": 0, "is_reserved": 0, "fusion_lat": 0.0, "lat": 38.895664, "fusion_lon": 0.0, "rental_uris": {"ios": "https://dc.lft.to/lastmile_qr_scan", "android": "https://dc.lft.to/lastmile_qr_scan"}, "lon": -77.1273455, "bike_id": "28766098d52501a2ca87e26c1d234050", "type": "electric_bike", "name": "28766098d52501a2ca87e26c1d234050"}, {"is_disabled": 0, "is_reserved": 0, "fusion_lat": 0.0, "lat": 38.910682333333334, "fusion_lon": 0.0, "rental_uris": {"ios": "https://dc.lft.to/lastmile_qr_scan", "android": "https://dc.lft.to/lastmile_qr_scan"}, "lon": -77.037368, "bike_id": "cf9340dc0d712a6f480ef0243b10a1a3", "type": "electric_scooter", "name": "cf9340dc0d712a6f480ef0243b10a1a3"}, {"is_disabled": 0, "is_reserved": 0, "fusion_lat": 0.0, "lat": 38.90323433333333, "fusion_lon": 0.0, "rental_uris": {"ios": "https://dc.lft.to/lastmile_qr_scan", "android": "https://dc.lft.to/lastmile_qr_scan"}, "lon": -76.975412, "bike_id": "c07b43074257771e4ed0ef52be589c97", "type": "electric_scooter", "name": "c07b43074257771e4ed0ef52be589c97"}, {"is_disabled": 0, "is_reserved": 0, "fusion_lat": 0.0, "lat": 38.91717366666666, "fusion_lon": 0.0, "rental_uris": {"ios": "https://dc.lft.to/lastmile_qr_scan", "android": "https://dc.lft.to/lastmile_qr_scan"}, "lon": -77.04172233333334, "bike_id": "80097e6a8e34f300fed8e626286b4ccb", "type": "electric_scooter", "name": "80097e6a8e34f300fed8e626286b4ccb"}, {"is_disabled": 0, "is_reserved": 0, "fusion_lat": 0.0, "lat": 38.9098095, "fusion_lon": 0.0, "rental_uris": {"ios": "https://dc.lft.to/lastmile_qr_scan", "android": "https://dc.lft.to/lastmile_qr_scan"}, "lon": -77.03330333333334, "bike_id": "5859ae3803cd9bd0caed44cfff1e8101", "type": "electric_scooter", "name": "5859ae3803cd9bd0caed44cfff1e8101"}, {"is_disabled": 0, "is_reserved": 0, "fusion_lat": 0.0, "lat": 38.916843, "fusion_lon": 0.0, "rental_uris": {"ios": "https://dc.lft.to/lastmile_qr_scan", "android": "https://dc.lft.to/lastmile_qr_scan"}, "lon": -77.02805216666667, "bike_id": "17fac43b4c409de90cd826e700bd9408", "type": "electric_scooter", "name": "17fac43b4c409de90cd826e700bd9408"}, {"is_disabled": 0, "is_reserved": 0, "fusion_lat": 0.0, "lat": 38.90160316666667, "fusion_lon": 0.0, "rental_uris": {"ios": "https://dc.lft.to/lastmile_qr_scan", "android": "https://dc.lft.to/lastmile_qr_scan"}, "lon": -77.03228416666667, "bike_id": "389988ceacc85367887d35fe9f820e08", "type": "electric_scooter", "name": "389988ceacc85367887d35fe9f820e08"}, {"is_disabled": 0, "is_reserved": 0, "fusion_lat": 0.0, "lat": 38.87173633333333, "fusion_lon": 0.0, "rental_uris": {"ios": "https://dc.lft.to/lastmile_qr_scan", "android": "https://dc.lft.to/lastmile_qr_scan"}, "lon": -77.00621183333334, "bike_id": "c0cd49df1c211d9c8524823133d0224a", "type": "electric_scooter", "name": "c0cd49df1c211d9c8524823133d0224a"}, {"is_disabled": 0, "is_reserved": 0, "fusion_lat": 0.0, "lat": 38.97156283333333, "fusion_lon": 0.0, "rental_uris": {"ios": "https://dc.lft.to/lastmile_qr_scan", "android": "https://dc.lft.to/lastmile_qr_scan"}, "lon": -76.98362433333334, "bike_id": "fc0f7c5c2efcd8b496cdb8664542a552", "type": "electric_bike", "name": "fc0f7c5c2efcd8b496cdb8664542a552"}, {"is_disabled": 0, "is_reserved": 0, "fusion_lat": 0.0, "lat": 38.926573833333336, "fusion_lon": 0.0, "rental_uris": {"ios": "https://dc.lft.to/lastmile_qr_scan", "android": "https://dc.lft.to/lastmile_qr_scan"}, "lon": -77.090208, "bike_id": "598c7b4c6e1f514d9595c79c4361a652", "type": "electric_bike", "name": "598c7b4c6e1f514d9595c79c4361a652"}, {"is_disabled": 0, "is_reserved": 0, "fusion_lat": 0.0, "lat": 38.911556, "fusion_lon": 0.0, "rental_uris": {"ios": "https://dc.lft.to/lastmile_qr_scan", "android": "https://dc.lft.to/lastmile_qr_scan"}, "lon": -77.01086, "bike_id": "8b2ca98dcebc70d58078daad732dfb05", "type": "electric_scooter", "name": "8b2ca98dcebc70d58078daad732dfb05"}, {"is_disabled": 0, "is_reserved": 0, "fusion_lat": 0.0, "lat": 38.89710266666667, "fusion_lon": 0.0, "rental_uris": {"ios": "https://dc.lft.to/lastmile_qr_scan", "android": "https://dc.lft.to/lastmile_qr_scan"}, "lon": -76.93915733333333, "bike_id": "b17c43f8032e303525f578ae1d832ece", "type": "electric_scooter", "name": "b17c43f8032e303525f578ae1d832ece"}, {"is_disabled": 0, "is_reserved": 0, "fusion_lat": 0.0, "lat": 38.890207833333335, "fusion_lon": 0.0, "rental_uris": {"ios": "https://dc.lft.to/lastmile_qr_scan", "android": "https://dc.lft.to/lastmile_qr_scan"}, "lon": -76.93734166666667, "bike_id": "3091868af2c18720e52ea22228218d11", "type": "electric_scooter", "name": "3091868af2c18720e52ea22228218d11"}, {"is_disabled": 0, "is_reserved": 0, "fusion_lat": 0.0, "lat": 38.93936733333334, "fusion_lon": 0.0, "rental_uris": {"ios": "https://dc.lft.to/lastmile_qr_scan", "android": "https://dc.lft.to/lastmile_qr_scan"}, "lon": -77.02585833333333, "bike_id": "4fe86fb7c3b62fded3576374bba26fae", "type": "electric_scooter", "name": "4fe86fb7c3b62fded3576374bba26fae"}, {"is_disabled": 0, "is_reserved": 0, "fusion_lat": 0.0, "lat": 38.894891, "fusion_lon": 0.0, "rental_uris": {"ios": "https://dc.lft.to/lastmile_qr_scan", "android": "https://dc.lft.to/lastmile_qr_scan"}, "lon": -77.00989816666667, "bike_id": "505fc535855584ffe94ff98a5f30f1e1", "type": "electric_scooter", "name": "505fc535855584ffe94ff98a5f30f1e1"}, {"is_disabled": 0, "is_reserved": 0, "fusion_lat": 0.0, "lat": 38.910214, "fusion_lon": 0.0, "rental_uris": {"ios": "https://dc.lft.to/lastmile_qr_scan", "android": "https://dc.lft.to/lastmile_qr_scan"}, "lon": -77.04884733333333, "bike_id": "84edd8535580c637e5bf767cb66019b4", "type": "electric_scooter", "name": "84edd8535580c637e5bf767cb66019b4"}, {"is_disabled": 0, "is_reserved": 0, "fusion_lat": 0.0, "lat": 38.89036883333333, "fusion_lon": 0.0, "rental_uris": {"ios": "https://dc.lft.to/lastmile_qr_scan", "android": "https://dc.lft.to/lastmile_qr_scan"}, "lon": -76.93749683333333, "bike_id": "2b7a8e7f695a7cb63b8037ffa05b345a", "type": "electric_scooter", "name": "2b7a8e7f695a7cb63b8037ffa05b345a"}, {"is_disabled": 0, "is_reserved": 0, "fusion_lat": 0.0, "lat": 38.92436, "fusion_lon": 0.0, "rental_uris": {"ios": "https://dc.lft.to/lastmile_qr_scan", "android": "https://dc.lft.to/lastmile_qr_scan"}, "lon": -77.02023116666666, "bike_id": "72d774485298b3e327bb6ef37b8af56d", "type": "electric_scooter", "name": "72d774485298b3e327bb6ef37b8af56d"}, {"is_disabled": 0, "is_reserved": 0, "fusion_lat": 0.0, "lat": 38.896387, "fusion_lon": 0.0, "rental_uris": {"ios": "https://dc.lft.to/lastmile_qr_scan", "android": "https://dc.lft.to/lastmile_qr_scan"}, "lon": -77.0075275, "bike_id": "4f6f1ae7c510bcc2a4e6c3d96f6c5693", "type": "electric_scooter", "name": "4f6f1ae7c510bcc2a4e6c3d96f6c5693"}, {"is_disabled": 0, "is_reserved": 0, "fusion_lat": 0.0, "lat": 38.8841795, "fusion_lon": 0.0, "rental_uris": {"ios": "https://dc.lft.to/lastmile_qr_scan", "android": "https://dc.lft.to/lastmile_qr_scan"}, "lon": -76.9835215, "bike_id": "5ea8de820c251ae43a5a5cca5b9c03d9", "type": "electric_scooter", "name": "5ea8de820c251ae43a5a5cca5b9c03d9"}, {"is_disabled": 0, "is_reserved": 0, "fusion_lat": 0.0, "lat": 38.8923565, "fusion_lon": 0.0, "rental_uris": {"ios": "https://dc.lft.to/lastmile_qr_scan", "android": "https://dc.lft.to/lastmile_qr_scan"}, "lon": -77.04361383333334, "bike_id": "c45ba987a70f8138a758d0647aeb1f57", "type": "electric_scooter", "name": "c45ba987a70f8138a758d0647aeb1f57"}, {"is_disabled": 0, "is_reserved": 0, "fusion_lat": 0.0, "lat": 38.87916633333333, "fusion_lon": 0.0, "rental_uris": {"ios": "https://dc.lft.to/lastmile_qr_scan", "android": "https://dc.lft.to/lastmile_qr_scan"}, "lon": -76.995076, "bike_id": "68035ce42a39b71e34a823e8631335dc", "type": "electric_scooter", "name": "68035ce42a39b71e34a823e8631335dc"}, {"is_disabled": 0, "is_reserved": 0, "fusion_lat": 0.0, "lat": 38.963578, "fusion_lon": 0.0, "rental_uris": {"ios": "https://dc.lft.to/lastmile_qr_scan", "android": "https://dc.lft.to/lastmile_qr_scan"}, "lon": -77.03441766666667, "bike_id": "86d256801cca17793eb0f8c66f7f3f88", "type": "electric_scooter", "name": "86d256801cca17793eb0f8c66f7f3f88"}, {"is_disabled": 0, "is_reserved": 0, "fusion_lat": 0.0, "lat": 38.90532016666667, "fusion_lon": 0.0, "rental_uris": {"ios": "https://dc.lft.to/lastmile_qr_scan", "android": "https://dc.lft.to/lastmile_qr_scan"}, "lon": -77.05932983333334, "bike_id": "5623fd65e6fb9dabd4dc9267a3fac22d", "type": "electric_scooter", "name": "5623fd65e6fb9dabd4dc9267a3fac22d"}, {"is_disabled": 0, "is_reserved": 0, "fusion_lat": 0.0, "lat": 38.842705, "fusion_lon": 0.0, "rental_uris": {"ios": "https://dc.lft.to/lastmile_qr_scan", "android": "https://dc.lft.to/lastmile_qr_scan"}, "lon": -76.98838383333333, "bike_id": "c67c8347523ee233f493c2821f9fd41e", "type": "electric_scooter", "name": "c67c8347523ee233f493c2821f9fd41e"}, {"is_disabled": 0, "is_reserved": 0, "fusion_lat": 0.0, "lat": 38.907658, "fusion_lon": 0.0, "rental_uris": {"ios": "https://dc.lft.to/lastmile_qr_scan", "android": "https://dc.lft.to/lastmile_qr_scan"}, "lon": -77.02388966666666, "bike_id": "c6139101d513016e63c2406ab9ad62fe", "type": "electric_scooter", "name": "c6139101d513016e63c2406ab9ad62fe"},