{"data": {"bikes": [{"lon": -77.051357, "bike_id": "a9d5e4a26f5daf0c9ddce79b46a329e0", "lat": 38.92332916666667, "fusion_lon": 0.0, "fusion_lat": 0.0, "type": "electric_scooter", "name": "a9d5e4a26f5daf0c9ddce79b46a329e0", "is_disabled": 0, "rental_uris": {"ios": "https://dc.lft.to/lastmile_qr_scan", "android": "https://dc.lft.to/lastmile_qr_scan"}, "is_reserved": 0}, {"lon": -77.0232555, "bike_id": "f605aacf0ae93dd0bfe3b89895eff8b1", "lat": 38.92225366666667, "fusion_lon": 0.0, "fusion_lat": 0.0, "type": "electric_scooter", "name": "f605aacf0ae93dd0bfe3b89895eff8b1", "is_disabled": 0, "rental_uris": {"ios": "https://dc.lft.to/lastmile_qr_scan", "android": "https://dc.lft.to/lastmile_qr_scan"}, "is_reserved": 0}, {"lon": -77.02635333333333, "bike_id": "b41ab790035ecdf68b366ebf92075abe", "lat": 38.89717316666667, "fusion_lon": 0.0, "fusion_lat": 0.0, "type": "electric_scooter", "name": "b41ab790035ecdf68b366ebf92075abe", "is_disabled": 0, "rental_uris": {"ios": "https://dc.lft.to/lastmile_qr_scan", "android": "https://dc.lft.to/lastmile_qr_scan"}, "is_reserved": 0}, {"lon": -76.99002883333333, "bike_id": "12d9e17d4bd4e0a356153c403cd4eecd", "lat": 38.865042, "fusion_lon": 0.0, "fusion_lat": 0.0, "type": "electric_scooter", "name": "12d9e17d4bd4e0a356153c403cd4eecd", "is_disabled": 0, "rental_uris": {"ios": "https://dc.lft.to/lastmile_qr_scan", "android": "https://dc.lft.to/lastmile_qr_scan"}, "is_reserved": 0}, {"lon": -77.0137035, "bike_id": "d5d450dbb6fd4c3b2abb4569d6f73fb8", "lat": 38.883082, "fusion_lon": 0.0, "fusion_lat": 0.0, "type": "electric_scooter", "name": "d5d450dbb6fd4c3b2abb4569d6f73fb8", "is_disabled": 0, "rental_uris": {"ios": "https://dc.lft.to/lastmile_qr_scan", "android": "https://dc.lft.to/lastmile_qr_scan"}, "is_reserved": 0}, {"lon": -77.05579883333333, "bike_id": "46275ede8419c60c3101517d93aa20ff", "lat": 38.915957166666665, "fusion_lon": 0.0, "fusion_lat": 0.0, "type": "electric_scooter", "name": "46275ede8419c60c3101517d93aa20ff", "is_disabled": 0, "rental_uris": {"ios": "https://dc.lft.to/lastmile_qr_scan", "android": "https://dc.lft.to/lastmile_qr_scan"}, "is_reserved": 0}, {"lon": -77.033403, "bike_id": "1d51b5b80a9298181bfde142d7ebb19b", "lat": 38.93637866666667, "fusion_lon": 0.0, "fusion_lat": 0.0, "type": "electric_scooter", "name": "1d51b5b80a9298181bfde142d7ebb19b", "is_disabled": 0, "rental_uris": {"ios": "https://dc.lft.to/lastmile_qr_scan", "android": "https://dc.lft.to/lastmile_qr_scan"}, "is_reserved": 0}, {"lon": -76.98715116666666, "bike_id": "be8ee1c9300f9fada6dac7b3a5942fe9", "lat": 38.865329833333334, "fusion_lon": 0.0, "fusion_lat": 0.0, "type": "electric_scooter", "name": "be8ee1c9300f9fada6dac7b3a5942fe9", "is_disabled": 0, "rental_uris": {"ios": "https://dc.lft.to/lastmile_qr_scan", "android": "https://dc.lft.to/lastmile_qr_scan"}, "is_reserved": 0}, {"lon": -77.020931, "bike_id": "2395119d57f918a572b6146bdf498dd8", "lat": 38.9574415, "fusion_lon": 0.0, "fusion_lat": 0.0, "type": "electric_scooter", "name": "2395119d57f918a572b6146bdf498dd8", "is_disabled": 0, "rental_uris": {"ios": "https://dc.lft.to/lastmile_qr_scan", "android": "https://dc.lft.to/lastmile_qr_scan"}, "is_reserved": 0}, {"lon": -76.98726983333333, "bike_id": "e1c7f5d2f49c740dfe5eff5055c72b1f", "lat": 38.867050666666664, "fusion_lon": 0.0, "fusion_lat": 0.0, "type": "electric_scooter", "name": "e1c7f5d2f49c740dfe5eff5055c72b1f", "is_disabled": 0, "rental_uris": {"ios": "https://dc.lft.to/lastmile_qr_scan", "android": "https://dc.lft.to/lastmile_qr_scan"}, "is_reserved": 0}, {"lon": -76.99334466666667, "bike_id": "0f33e5af46598ae910c185469a682850", "lat": 38.87142383333333, "fusion_lon": 0.0, "fusion_lat": 0.0, "type": "electric_scooter", "name": "0f33e5af46598ae910c185469a682850", "is_disabled": 0, "rental_uris": {"ios": "https://dc.lft.to/lastmile_qr_scan", "android": "https://dc.lft.to/lastmile_qr_scan"}, "is_reserved": 0}, {"lon": -77.03319466666666, "bike_id": "f0f44eaff51e2696be38cab6adc64060", "lat": 38.9036855, "fusion_lon": 0.0, "fusion_lat": 0.0, "type": "electric_scooter", "name": "f0f44eaff51e2696be38cab6adc64060", "is_disabled": 0, "rental_uris": {"ios": "https://dc.lft.to/lastmile_qr_scan", "android": "https://dc.lft.to/lastmile_qr_scan"}, "is_reserved": 0}, {"lon": -77.04121233333333, "bike_id": "222d51259c804af3860858a912751c62", "lat": 38.908714333333336, "fusion_lon": 0.0, "fusion_lat": 0.0, "type": "electric_scooter", "name": "222d51259c804af3860858a912751c62", "is_disabled": 0, "rental_uris": {"ios": "https://dc.lft.to/lastmile_qr_scan", "android": "https://dc.lft.to/lastmile_qr_scan"}, "is_reserved": 0}, {"lon": -76.98802483333333, "bike_id": "06ef0d2c462e3c588b5d9dab73a28be6", "lat": 38.867268333333335, "fusion_lon": 0.0, "fusion_lat": 0.0, "type": "electric_scooter", "name": "06ef0d2c462e3c588b5d9dab73a28be6", "is_disabled": 0, "rental_uris": {"ios": "https://dc.lft.to/lastmile_qr_scan", "android": "https://dc.lft.to/lastmile_qr_scan"}, "is_reserved": 0}, {"lon": -77.046853, "bike_id": "4694fbeb53ed01d2ac8b0e11fcd30aac", "lat": 38.89218916666667, "fusion_lon": 0.0, "fusion_lat": 0.0, "type": "electric_scooter", "name": "4694fbeb53ed01d2ac8b0e11fcd30aac", "is_disabled": 0, "rental_uris": {"ios": "https://dc.lft.to/lastmile_qr_scan", "android": "https://dc.lft.to/lastmile_qr_scan"}, "is_reserved": 0}, {"lon": -76.997499, "bike_id": "640b037d06e217c7c60293c248bfa471", "lat": 38.90124133333333, "fusion_lon": 0.0, "fusion_lat": 0.0, "type": "electric_scooter", "name": "640b037d06e217c7c60293c248bfa471", "is_disabled": 0, "rental_uris": {"ios": "https://dc.lft.to/lastmile_qr_scan", "android": "https://dc.lft.to/lastmile_qr_scan"}, "is_reserved": 0}, {"lon": -77.07128533333334, "bike_id": "7d6c4f2a3f455a5ad65e8b2bb6f83883", "lat": 38.91967066666667, "fusion_lon": 0.0, "fusion_lat": 0.0, "type": "electric_scooter", "name": "7d6c4f2a3f455a5ad65e8b2bb6f83883", "is_disabled": 0, "rental_uris": {"ios": "https://dc.lft.to/lastmile_qr_scan", "android": "https://dc.lft.to/lastmile_qr_scan"}, "is_reserved": 0}, {"lon": -77.03745483333333, "bike_id": "c99efc08a8874a4fac53600d4df704ce", "lat": 38.9220945, "fusion_lon": 0.0, "fusion_lat": 0.0, "type": "electric_scooter", "name": "c99efc08a8874a4fac53600d4df704ce", "is_disabled": 0, "rental_uris": {"ios": "https://dc.lft.to/lastmile_qr_scan", "android": "https://dc.lft.to/lastmile_qr_scan"}, "is_reserved": 0}, {"lon": -77.03350416666666, "bike_id": "7af0eb995c347ca0d4a8d85d3743b09c", "lat": 38.9234415, "fusion_lon": 0.0, "fusion_lat": 0.0, "type": "electric_scooter", "name": "7af0eb995c347ca0d4a8d85d3743b09c", "is_disabled": 0, "rental_uris": {"ios": "https://dc.lft.to/lastmile_qr_scan", "android": "https://dc.lft.to/lastmile_qr_scan"}, "is_reserved": 0}, {"lon": -77.0552705, "bike_id": "ab76b255cadf9f2f7df76bf5a78c8155", "lat": 38.897261, "fusion_lon": 0.0, "fusion_lat": 0.0, "type": "electric_scooter", "name": "ab76b255cadf9f2f7df76bf5a78c8155", "is_disabled": 0, "rental_uris": {"ios": "https://dc.lft.to/lastmile_qr_scan", "android": "https://dc.lft.to/lastmile_qr_scan"}, "is_reserved": 0}, {"lon": -77.0310675, "bike_id": "99c716fc558d4ae00302494fed8fcda5", "lat": 38.91564866666667, "fusion_lon": 0.0, "fusion_lat": 0.0, "type": "electric_scooter", "name": "99c716fc558d4ae00302494fed8fcda5", "is_disabled": 0, "rental_uris": {"ios": "https://dc.lft.to/lastmile_qr_scan", "android": "https://dc.lft.to/lastmile_qr_scan"}, "is_reserved": 0}, {"lon": -77.05231616666667, "bike_id": "ea749537e6c648d70455dc037987e19f", "lat": 38.92459733333333, "fusion_lon": 0.0, "fusion_lat": 0.0, "type": "electric_scooter", "name": "ea749537e6c648d70455dc037987e19f", "is_disabled": 0, "rental_uris": {"ios": "https://dc.lft.to/lastmile_qr_scan", "android": "https://dc.lft.to/lastmile_qr_scan"}, "is_reserved": 0}, {"lon": -76.97676716666666, "bike_id": "99a86a208a4c3062b31ecc2e7ac2ccbc", "lat": 38.952426333333335, "fusion_lon": 0.0, "fusion_lat": 0.0, "type": "electric_bike", "name": "99a86a208a4c3062b31ecc2e7ac2ccbc", "is_disabled": 0, "rental_uris": {"ios": "https://dc.lft.to/lastmile_qr_scan", "android": "https://dc.lft.to/lastmile_qr_scan"}, "is_reserved": 0}, {"lon": -76.99461833333334, "bike_id": "e12fed53fd5b990c47ec1fc22287ba91", "lat": 38.940687, "fusion_lon": 0.0, "fusion_lat": 0.0, "type": "electric_scooter", "name": "e12fed53fd5b990c47ec1fc22287ba91", "is_disabled": 0, "rental_uris": {"ios": "https://dc.lft.to/lastmile_qr_scan", "android": "https://dc.lft.to/lastmile_qr_scan"}, "is_reserved": 0}, {"lon": -76.98146183333333, "bike_id": "3ae5b3cc4786fd5e3ab40ff8c397e803", "lat": 38.903167, "fusion_lon": 0.0, "fusion_lat": 0.0, "type": "electric_scooter", "name": "3ae5b3cc4786fd5e3ab40ff8c397e803", "is_disabled": 0, "rental_uris": {"ios": "https://dc.lft.to/lastmile_qr_scan", "android": "https://dc.lft.to/lastmile_qr_scan"}, "is_reserved": 0}, {"lon": -77.02308516666666, "bike_id": "b8f9ae839de358cd793991c248efbcc5", "lat": 38.91839616666667, "fusion_lon": 0.0, "fusion_lat": 0.0, "type": "electric_scooter", "name": "b8f9ae839de358cd793991c248efbcc5", "is_disabled": 0, "rental_uris": {"ios": "https://dc.lft.to/lastmile_qr_scan", "android": "https://dc.lft.to/lastmile_qr_scan"}, "is_reserved": 0}, {"lon": -77.03862933333333, "bike_id": "8805e0f035fd4f25d4e1dad8fb38f14e", "lat": 38.90671433333333, "fusion_lon": 0.0, "fusion_lat": 0.0, "type": "electric_scooter", "name": "8805e0f035fd4f25d4e1dad8fb38f14e", "is_disabled": 0, "rental_uris": {"ios": "https://dc.lft.to/lastmile_qr_scan", "android": "https://dc.lft.to/lastmile_qr_scan"}, "is_reserved": 0}, {"lon": -77.079599, "bike_id": "5739b0d2376856a9d77ff852e24df0c6", "lat": 38.930898166666665, "fusion_lon": 0.0, "fusion_lat": 0.0, "type": "electric_scooter", "name": "5739b0d2376856a9d77ff852e24df0c6", "is_disabled": 0, "rental_uris": {"ios": "https://dc.lft.to/lastmile_qr_scan", "android": "https://dc.lft.to/lastmile_qr_scan"}, "is_reserved": 0}, {"lon": -77.02449633333333, "bike_id": "22a562084cf4ff2316731c750ddf0c97", "lat": 38.92493, "fusion_lon": 0.0, "fusion_lat": 0.0, "type": "electric_scooter", "name": "22a562084cf4ff2316731c750ddf0c97", "is_disabled": 0, "rental_uris": {"ios": "https://dc.lft.to/lastmile_qr_scan", "android": "https://dc.lft.to/lastmile_qr_scan"}, "is_reserved": 0}, {"lon": -76.98873016666667, "bike_id": "150e412cc1b94cf79c341342858c8b7c", "lat": 38.891666666666666, "fusion_lon": 0.0, "fusion_lat": 0.0, "type": "electric_scooter", "name": "150e412cc1b94cf79c341342858c8b7c", "is_disabled": 0, "rental_uris": {"ios": "https://dc.lft.to/lastmile_qr_scan", "android": "https://dc.lft.to/lastmile_qr_scan"}, "is_reserved": 0}, {"lon": -77.04593433333334, "bike_id": "7f7107f366124166eb32fd24e46620c7", "lat": 38.916282333333335, "fusion_lon": 0.0, "fusion_lat": 0.0, "type": "electric_scooter", "name": "7f7107f366124166eb32fd24e46620c7", "is_disabled": 0, "rental_uris": {"ios": "https://dc.lft.to/lastmile_qr_scan", "android": "https://dc.lft.to/lastmile_qr_scan"}, "is_reserved": 0}, {"lon": -77.0216495, "bike_id": "34676712d34172a57cde7a2b9ff9456c", "lat": 38.926118, "fusion_lon": 0.0, "fusion_lat": 0.0, "type": "electric_scooter", "name": "34676712d34172a57cde7a2b9ff9456c", "is_disabled": 0, "rental_uris": {"ios": "https://dc.lft.to/lastmile_qr_scan", "android": "https://dc.lft.to/lastmile_qr_scan"}, "is_reserved": 0}, {"lon": -77.18566116666666, "bike_id": "4c9ff0bae3abf12b40fe77de21a9f7f8", "lat": 39.09976183333333, "fusion_lon": 0.0, "fusion_lat": 0.0, "type": "electric_bike", "name": "4c9ff0bae3abf12b40fe77de21a9f7f8", "is_disabled": 0, "rental_uris": {"ios": "https://dc.lft.to/lastmile_qr_scan", "android": "https://dc.lft.to/lastmile_qr_scan"}, "is_reserved": 0}, {"lon": -76.977277, "bike_id": "6405e35d92b954220fab9e2517a5a71c", "lat": 38.864858166666664, "fusion_lon": 0.0, "fusion_lat": 0.0, "type": "electric_bike", "name": "6405e35d92b954220fab9e2517a5a71c", "is_disabled": 0, "rental_uris": {"ios": "https://dc.lft.to/lastmile_qr_scan", "android": "https://dc.lft.to/lastmile_qr_scan"}, "is_reserved": 0}, {"lon": -77.00722383333333, "bike_id": "19cda8c11f8c56112171203f7bcba1c4", "lat": 38.94598833333333, "fusion_lon": 0.0, "fusion_lat": 0.0, "type": "electric_bike", "name": "19cda8c11f8c56112171203f7bcba1c4", "is_disabled": 0, "rental_uris": {"ios": "https://dc.lft.to/lastmile_qr_scan", "android": "https://dc.lft.to/lastmile_qr_scan"}, "is_reserved": 0}, {"lon": -77.03907916666667, "bike_id": "55e1ce671fa4ab28c32b40a1e204ec72", "lat": 38.9183065, "fusion_lon": 0.0, "fusion_lat": 0.0, "type": "electric_scooter", "name": "55e1ce671fa4ab28c32b40a1e204ec72", "is_disabled": 0, "rental_uris": {"ios": "https://dc.lft.to/lastmile_qr_scan", "android": "https://dc.lft.to/lastmile_qr_scan"}, "is_reserved": 0}, {"lon": -77.006582, "bike_id": "503f0bf2e5ca6e38af73dd56d17eb381", "lat": 38.94462433333333, "fusion_lon": 0.0, "fusion_lat": 0.0, "type": "electric_scooter", "name": "503f0bf2e5ca6e38af73dd56d17eb381", "is_disabled": 0, "rental_uris": {"ios": "https://dc.lft.to/lastmile_qr_scan", "android": "https://dc.lft.to/lastmile_qr_scan"}, "is_reserved": 0}, {"lon": -76.96265283333334, "bike_id": "831c412a5a01f527cce05f2a91be64d9", "lat": 38.882430166666666, "fusion_lon": 0.0, "fusion_lat": 0.0, "type": "electric_bike", "name": "831c412a5a01f527cce05f2a91be64d9", "is_disabled": 0, "rental_uris": {"ios": "https://dc.lft.to/lastmile_qr_scan", "android": "https://dc.lft.to/lastmile_qr_scan"}, "is_reserved": 0}, {"lon": -77.0343875, "bike_id": "fcdf3cee92e887cabf816587c3cd513a", "lat": 38.91005466666667, "fusion_lon": 0.0, "fusion_lat": 0.0, "type": "electric_scooter", "name": "fcdf3cee92e887cabf816587c3cd513a", "is_disabled": 0, "rental_uris": {"ios": "https://dc.lft.to/lastmile_qr_scan", "android": "https://dc.lft.to/lastmile_qr_scan"}, "is_reserved": 0}, {"lon": -76.98355583333333, "bike_id": "5a0d33f1f3d031fdacd988077691b2b5", "lat": 38.89202016666667, "fusion_lon": 0.0, "fusion_lat": 0.0, "type": "electric_bike", "name": "5a0d33f1f3d031fdacd988077691b2b5", "is_disabled": 0, "rental_uris": {"ios": "https://dc.lft.to/lastmile_qr_scan", "android": "https://dc.lft.to/lastmile_qr_scan"}, "is_reserved": 0}, {"lon": -77.03181016666667, "bike_id": "1091bbdbbfeb2041f0599d4279e41bac", "lat": 38.93596633333333, "fusion_lon": 0.0, "fusion_lat": 0.0, "type": "electric_scooter", "name": "1091bbdbbfeb2041f0599d4279e41bac", "is_disabled": 0, "rental_uris": {"ios": "https://dc.lft.to/lastmile_qr_scan", "android": "https://dc.lft.to/lastmile_qr_scan"}, "is_reserved": 0}, {"lon": -77.02166916666667, "bike_id": "e556523a9162593cfe71a708c05fe4cc", "lat": 38.92998733333334, "fusion_lon": 0.0, "fusion_lat": 0.0, "type": "electric_scooter", "name": "e556523a9162593cfe71a708c05fe4cc", "is_disabled": 0, "rental_uris": {"ios": "https://dc.lft.to/lastmile_qr_scan", "android": "https://dc.lft.to/lastmile_qr_scan"}, "is_reserved": 0}, {"lon": -77.02611466666667, "bike_id": "e411cda66e94f262988915c35ec05f08", "lat": 38.934858166666665, "fusion_lon": 0.0, "fusion_lat": 0.0, "type": "electric_scooter", "name": "e411cda66e94f262988915c35ec05f08", "is_disabled": 0, "rental_uris": {"ios": "https://dc.lft.to/lastmile_qr_scan", "android": "https://dc.lft.to/lastmile_qr_scan"}, "is_reserved": 0}, {"lon": -77.0343895, "bike_id": "80688f7cf595f60e66d43a8243c00485", "lat": 38.9053115, "fusion_lon": 0.0, "fusion_lat": 0.0, "type": "electric_scooter", "name": "80688f7cf595f60e66d43a8243c00485", "is_disabled": 0, "rental_uris": {"ios": "https://dc.lft.to/lastmile_qr_scan", "android": "https://dc.lft.to/lastmile_qr_scan"}, "is_reserved": 0}, {"lon": -77.0326985, "bike_id": "21a0bf9bc16d9852bffb7cab61314e5c", "lat": 38.931982833333336, "fusion_lon": 0.0, "fusion_lat": 0.0, "type": "electric_scooter", "name": "21a0bf9bc16d9852bffb7cab61314e5c", "is_disabled": 0, "rental_uris": {"ios": "https://dc.lft.to/lastmile_qr_scan", "android": "https://dc.lft.to/lastmile_qr_scan"}, "is_reserved": 0}, {"lon": -77.03586666666666, "bike_id": "488f2ddd73d779f236869d67b4cb918c", "lat": 38.910400333333335, "fusion_lon": 0.0, "fusion_lat": 0.0, "type": "electric_scooter", "name": "488f2ddd73d779f236869d67b4cb918c", "is_disabled": 0, "rental_uris": {"ios": "https://dc.lft.to/lastmile_qr_scan", "android": "https://dc.lft.to/lastmile_qr_scan"}, "is_reserved": 0}, {"lon": -77.03195683333334, "bike_id": "b72febe7da22c19f3c0719b2e52b2218", "lat": 38.917297166666664, "fusion_lon": 0.0, "fusion_lat": 0.0, "type": "electric_scooter", "name": "b72febe7da22c19f3c0719b2e52b2218", "is_disabled": 0, "rental_uris": {"ios": "https://dc.lft.to/lastmile_qr_scan", "android": "https://dc.lft.to/lastmile_qr_scan"}, "is_reserved": 0}, {"lon": -77.04182483333334, "bike_id": "eb568a53ec349a38d0c13c9b0df3f408", "lat": 38.90550366666667, "fusion_lon": 0.0, "fusion_lat": 0.0, "type": "electric_scooter", "name": "eb568a53ec349a38d0c13c9b0df3f408", "is_disabled": 0, "rental_uris": {"ios": "https://dc.lft.to/lastmile_qr_scan", "android": "https://dc.lft.to/lastmile_qr_scan"}, "is_reserved": 0}, {"lon": -77.03266333333333, "bike_id": "162025ff27974af08af47356f8cb2db9", "lat": 38.937710333333335, "fusion_lon": 0.0, "fusion_lat": 0.0, "type": "electric_scooter", "name": "162025ff27974af08af47356f8cb2db9", "is_disabled": 0, "rental_uris": {"ios": "https://dc.lft.to/lastmile_qr_scan", "android": "https://dc.lft.to/lastmile_qr_scan"}, "is_reserved": 0}, {"lon": -77.04230233333334, "bike_id": "ecc10e60a78b9bf88562537a51c6c0cb", "lat": 38.91323333333333, "fusion_lon": 0.0, "fusion_lat": 0.0, "type": "electric_scooter", "name": "ecc10e60a78b9bf88562537a51c6c0cb", "is_disabled": 0, "rental_uris": {"ios": "https://dc.lft.to/lastmile_qr_scan", "android": "https://dc.lft.to/lastmile_qr_scan"}, "is_reserved": 0}, {"lon": -77.03552466666666, "bike_id": "89bd415eb797cce087410b231a7dc7a5", "lat": 38.92494116666667, "fusion_lon": 0.0, "fusion_lat": 0.0, "type": "electric_scooter", "name": "89bd415eb797cce087410b231a7dc7a5", "is_disabled": 0, "rental_uris": {"ios": "https://dc.lft.to/lastmile_qr_scan", "android": "https://dc.lft.to/lastmile_qr_scan"}, "is_reserved": 0}, {"lon": -77.03148266666666, "bike_id": "eade1671d19865502df8666e242f1610", "lat": 38.9324265, "fusion_lon": 0.0, "fusion_lat": 0.0, "type": "electric_scooter", "name": "eade1671d19865502df8666e242f1610", "is_disabled": 0, "rental_uris": {"ios": "https://dc.lft.to/lastmile_qr_scan", "android": "https://dc.lft.to/lastmile_qr_scan"}, "is_reserved": 0}, {"lon": -77.04465533333334, "bike_id": "5d9db91db9d15f6c06251a9fddb1bfc6", "lat": 38.908723, "fusion_lon": 0.0, "fusion_lat": 0.0, "type": "electric_scooter", "name": "5d9db91db9d15f6c06251a9fddb1bfc6", "is_disabled": 0, "rental_uris": {"ios": "https://dc.lft.to/lastmile_qr_scan", "android": "https://dc.lft.to/lastmile_qr_scan"}, "is_reserved": 0}, {"lon": -76.99292316666667, "bike_id": "a7f6a498469d98931de55eeb08587895", "lat": 38.898836833333334, "fusion_lon": 0.0, "fusion_lat": 0.0, "type": "electric_scooter", "name": "a7f6a498469d98931de55eeb08587895", "is_disabled": 0, "rental_uris": {"ios": "https://dc.lft.to/lastmile_qr_scan", "android": "https://dc.lft.to/lastmile_qr_scan"}, "is_reserved": 0}, {"lon": -77.027574, "bike_id": "a6bc090a5062ec8136f31ac68292f9cf", "lat": 38.91705433333333, "fusion_lon": 0.0, "fusion_lat": 0.0, "type": "electric_scooter", "name": "a6bc090a5062ec8136f31ac68292f9cf", "is_disabled": 0, "rental_uris": {"ios": "https://dc.lft.to/lastmile_qr_scan", "android": "https://dc.lft.to/lastmile_qr_scan"}, "is_reserved": 0}, {"lon": -77.00390816666666, "bike_id": "fc56ba7574453058d902975351f8ac74", "lat": 38.835981, "fusion_lon": 0.0, "fusion_lat": 0.0, "type": "electric_bike", "name": "fc56ba7574453058d902975351f8ac74", "is_disabled": 0, "rental_uris": {"ios": "https://dc.lft.to/lastmile_qr_scan", "android": "https://dc.lft.to/lastmile_qr_scan"}, "is_reserved": 0}, {"lon": -77.04420166666667, "bike_id": "d4072680faad3684a656fae1dd7c3928", "lat": 38.9112655, "fusion_lon": 0.0, "fusion_lat": 0.0, "type": "electric_scooter", "name": "d4072680faad3684a656fae1dd7c3928", "is_disabled": 0, "rental_uris": {"ios": "https://dc.lft.to/lastmile_qr_scan", "android": "https://dc.lft.to/lastmile_qr_scan"}, "is_reserved": 0}, {"lon": -77.1170945, "bike_id": "89193714988b8ae07c037d67e47daf2b", "lat": 38.867442833333335, "fusion_lon": 0.0, "fusion_lat": 0.0, "type": "electric_bike", "name": "89193714988b8ae07c037d67e47daf2b", "is_disabled": 0, "rental_uris": {"ios": "https://dc.lft.to/lastmile_qr_scan", "android": "https://dc.lft.to/lastmile_qr_scan"}, "is_reserved": 0}, {"lon": -77.02976233333334, "bike_id": "6bc8ddb5f26458d272fd9ec96cf859ab", "lat": 38.9171675, "fusion_lon": 0.0, "fusion_lat": 0.0, "type": "electric_scooter", "name": "6bc8ddb5f26458d272fd9ec96cf859ab", "is_disabled": 0, "rental_uris": {"ios": "https://dc.lft.to/lastmile_qr_scan", "android": "https://dc.lft.to/lastmile_qr_scan"}, "is_reserved": 0}, {"lon": -77.006054, "bike_id": "ee984ff0ecd5df2a6f33c933866c015a", "lat": 38.892046666666666, "fusion_lon": 0.0, "fusion_lat": 0.0, "type": "electric_scooter", "name": "ee984ff0ecd5df2a6f33c933866c015a", "is_disabled": 0, "rental_uris": {"ios": "https://dc.lft.to/lastmile_qr_scan", "android": "https://dc.lft.to/lastmile_qr_scan"}, "is_reserved": 0}, {"lon": -76.95756416666667, "bike_id": "8e82da7c25bb0a9d259379554fe86be8", "lat": 38.88422933333333, "fusion_lon": 0.0, "fusion_lat": 0.0, "type": "electric_scooter", "name": "8e82da7c25bb0a9d259379554fe86be8", "is_disabled": 0, "rental_uris": {"ios": "https://dc.lft.to/lastmile_qr_scan", "android": "https://dc.lft.to/lastmile_qr_scan"}, "is_reserved": 0}, {"lon": -77.02589883333333, "bike_id": "69e9a00a9fa3a6fcd46eb988d1e37b0c", "lat": 38.942083833333335, "fusion_lon": 0.0, "fusion_lat": 0.0, "type": "electric_bike", "name": "69e9a00a9fa3a6fcd46eb988d1e37b0c", "is_disabled": 0, "rental_uris": {"ios": "https://dc.lft.to/lastmile_qr_scan", "android": "https://dc.lft.to/lastmile_qr_scan"}, "is_reserved": 0}, {"lon": -77.0004865, "bike_id": "46f431c0f8fba08cd5a933e329e046bd", "lat": 38.923963, "fusion_lon": 0.0, "fusion_lat": 0.0, "type": "electric_scooter", "name": "46f431c0f8fba08cd5a933e329e046bd", "is_disabled": 0, "rental_uris": {"ios": "https://dc.lft.to/lastmile_qr_scan", "android": "https://dc.lft.to/lastmile_qr_scan"}, "is_reserved": 0}, {"lon": -77.03164383333333, "bike_id": "83e4c7a070d4d54e955ae9cd6dee3547", "lat": 38.897691, "fusion_lon": 0.0, "fusion_lat": 0.0, "type": "electric_scooter", "name": "83e4c7a070d4d54e955ae9cd6dee3547", "is_disabled": 0, "rental_uris": {"ios": "https://dc.lft.to/lastmile_qr_scan", "android": "https://dc.lft.to/lastmile_qr_scan"}, "is_reserved": 0}, {"lon": -77.02360383333334, "bike_id": "29db025ac01c480d45c9fc71bad0ce35", "lat": 38.9222365, "fusion_lon": 0.0, "fusion_lat": 0.0, "type": "electric_scooter", "name": "29db025ac01c480d45c9fc71bad0ce35", "is_disabled": 0, "rental_uris": {"ios": "https://dc.lft.to/lastmile_qr_scan", "android": "https://dc.lft.to/lastmile_qr_scan"}, "is_reserved": 0}, {"lon": -77.04503166666667, "bike_id": "5142b7f1c90af0a2a12f6beee33c74e1", "lat": 38.914159833333336, "fusion_lon": 0.0, "fusion_lat": 0.0, "type": "electric_scooter", "name": "5142b7f1c90af0a2a12f6beee33c74e1", "is_disabled": 0, "rental_uris": {"ios": "https://dc.lft.to/lastmile_qr_scan", "android": "https://dc.lft.to/lastmile_qr_scan"}, "is_reserved": 0}, {"lon": -76.9406955, "bike_id": "bb690c13fdbbcb980fb73fc5e871cd33", "lat": 38.89318766666667, "fusion_lon": 0.0, "fusion_lat": 0.0, "type": "electric_scooter", "name": "bb690c13fdbbcb980fb73fc5e871cd33", "is_disabled": 0, "rental_uris": {"ios": "https://dc.lft.to/lastmile_qr_scan", "android": "https://dc.lft.to/lastmile_qr_scan"}, "is_reserved": 0}, {"lon": -77.012088, "bike_id": "e42a1c8f76cb1083371700c09bbb4b9f", "lat": 38.82405816666667, "fusion_lon": 0.0, "fusion_lat": 0.0, "type": "electric_bike", "name": "e42a1c8f76cb1083371700c09bbb4b9f", "is_disabled": 0, "rental_uris": {"ios": "https://dc.lft.to/lastmile_qr_scan", "android": "https://dc.lft.to/lastmile_qr_scan"}, "is_reserved": 0}, {"lon": -77.0304455, "bike_id": "11fc85d90bc2a76bc5d929b8a9519a95", "lat": 38.884339833333335, "fusion_lon": 0.0, "fusion_lat": 0.0, "type": "electric_scooter", "name": "11fc85d90bc2a76bc5d929b8a9519a95", "is_disabled": 0, "rental_uris": {"ios": "https://dc.lft.to/lastmile_qr_scan", "android": "https://dc.lft.to/lastmile_qr_scan"}, "is_reserved": 0}, {"lon": -76.98390266666667, "bike_id": "cd06db4a4effdb80071962b1d3f42623", "lat": 38.89882933333333, "fusion_lon": 0.0, "fusion_lat": 0.0, "type": "electric_bike", "name": "cd06db4a4effdb80071962b1d3f42623", "is_disabled": 0, "rental_uris": {"ios": "https://dc.lft.to/lastmile_qr_scan", "android": "https://dc.lft.to/lastmile_qr_scan"}, "is_reserved": 0}, {"lon": -77.042041, "bike_id": "28404972246509f9d374136df005b1e3", "lat": 38.899744166666665, "fusion_lon": 0.0, "fusion_lat": 0.0, "type": "electric_scooter", "name": "28404972246509f9d374136df005b1e3", "is_disabled": 0, "rental_uris": {"ios": "https://dc.lft.to/lastmile_qr_scan", "android": "https://dc.lft.to/lastmile_qr_scan"}, "is_reserved": 0}, {"lon": -77.0405155, "bike_id": "a8f2def31525aaed8788ce39fe9dfb82", "lat": 38.928805833333335, "fusion_lon": 0.0, "fusion_lat": 0.0, "type": "electric_scooter", "name": "a8f2def31525aaed8788ce39fe9dfb82", "is_disabled": 0, "rental_uris": {"ios": "https://dc.lft.to/lastmile_qr_scan", "android": "https://dc.lft.to/lastmile_qr_scan"}, "is_reserved": 0}, {"lon": -77.02329883333333, "bike_id": "b0178551cf023429122a7e67770510f7", "lat": 38.89475983333333, "fusion_lon": 0.0, "fusion_lat": 0.0, "type": "electric_scooter", "name": "b0178551cf023429122a7e67770510f7", "is_disabled": 0, "rental_uris": {"ios": "https://dc.lft.to/lastmile_qr_scan", "android": "https://dc.lft.to/lastmile_qr_scan"}, "is_reserved": 0}, {"lon": -76.99055483333333, "bike_id": "3ee9b4116f9b51a3b577c26d35451fdc", "lat": 38.86378033333333, "fusion_lon": 0.0, "fusion_lat": 0.0, "type": "electric_scooter", "name": "3ee9b4116f9b51a3b577c26d35451fdc", "is_disabled": 0, "rental_uris": {"ios": "https://dc.lft.to/lastmile_qr_scan", "android": "https://dc.lft.to/lastmile_qr_scan"}, "is_reserved": 0}, {"lon": -76.99934933333333, "bike_id": "c9389331af4598bcee9459db8ad63e5b", "lat": 38.84312116666667, "fusion_lon": 0.0, "fusion_lat": 0.0, "type": "electric_scooter", "name": "c9389331af4598bcee9459db8ad63e5b", "is_disabled": 0, "rental_uris": {"ios": "https://dc.lft.to/lastmile_qr_scan", "android": "https://dc.lft.to/lastmile_qr_scan"}, "is_reserved": 0}, {"lon": -77.03115766666667, "bike_id": "078ac61c6d09b2eb03b9756c1fe30377", "lat": 38.912598, "fusion_lon": 0.0, "fusion_lat": 0.0, "type": "electric_scooter", "name": "078ac61c6d09b2eb03b9756c1fe30377", "is_disabled": 0, "rental_uris": {"ios": "https://dc.lft.to/lastmile_qr_scan", "android": "https://dc.lft.to/lastmile_qr_scan"}, "is_reserved": 0}, {"lon": -76.99070966666666, "bike_id": "cf5fab7ee97d5ae2b26781698295144a", "lat": 38.9274505, "fusion_lon": 0.0, "fusion_lat": 0.0, "type": "electric_scooter", "name": "cf5fab7ee97d5ae2b26781698295144a", "is_disabled": 0, "rental_uris": {"ios": "https://dc.lft.to/lastmile_qr_scan", "android": "https://dc.lft.to/lastmile_qr_scan"}, "is_reserved": 0}, {"lon": -76.969145, "bike_id": "ca4e5efbea8313f6011a4bb122396171", "lat": 38.84607783333333, "fusion_lon": 0.0, "fusion_lat": 0.0, "type": "electric_bike", "name": "ca4e5efbea8313f6011a4bb122396171", "is_disabled": 0, "rental_uris": {"ios": "https://dc.lft.to/lastmile_qr_scan", "android": "https://dc.lft.to/lastmile_qr_scan"}, "is_reserved": 0}, {"lon": -77.03170266666666, "bike_id": "34cd74a9f9748efef358e63208696ebe", "lat": 38.91303766666667, "fusion_lon": 0.0, "fusion_lat": 0.0, "type": "electric_scooter", "name": "34cd74a9f9748efef358e63208696ebe", "is_disabled": 0, "rental_uris": {"ios": "https://dc.lft.to/lastmile_qr_scan", "android": "https://dc.lft.to/lastmile_qr_scan"}, "is_reserved": 0}, {"lon": -77.0629655, "bike_id": "c9956bf4304cf5e084c2bf04bba2f5ce", "lat": 38.90606416666667, "fusion_lon": 0.0, "fusion_lat": 0.0, "type": "electric_scooter", "name": "c9956bf4304cf5e084c2bf04bba2f5ce", "is_disabled": 0, "rental_uris": {"ios": "https://dc.lft.to/lastmile_qr_scan", "android": "https://dc.lft.to/lastmile_qr_scan"}, "is_reserved": 0}, {"lon": -77.03354716666666, "bike_id": "28fa5b689dbbe54b968f274df4a73d01", "lat": 38.928707, "fusion_lon": 0.0, "fusion_lat": 0.0, "type": "electric_scooter", "name": "28fa5b689dbbe54b968f274df4a73d01", "is_disabled": 0, "rental_uris": {"ios": "https://dc.lft.to/lastmile_qr_scan", "android": "https://dc.lft.to/lastmile_qr_scan"}, "is_reserved": 0}, {"lon": -77.03207883333333, "bike_id": "4a6801676b32b24e847522396754aad7", "lat": 38.89231383333333, "fusion_lon": 0.0, "fusion_lat": 0.0, "type": "electric_scooter", "name": "4a6801676b32b24e847522396754aad7", "is_disabled": 0, "rental_uris": {"ios": "https://dc.lft.to/lastmile_qr_scan", "android": "https://dc.lft.to/lastmile_qr_scan"}, "is_reserved": 0}, {"lon": -77.11595416666667, "bike_id": "412bb7c979ef96b99ac1e0e37c486667", "lat": 39.074955, "fusion_lon": 0.0, "fusion_lat": 0.0, "type": "electric_bike", "name": "412bb7c979ef96b99ac1e0e37c486667", "is_disabled": 0, "rental_uris": {"ios": "https://dc.lft.to/lastmile_qr_scan", "android": "https://dc.lft.to/lastmile_qr_scan"}, "is_reserved": 0}, {"lon": -77.029827, "bike_id": "4e6b4ef17184d6c809cc7e5b83ef82fd", "lat": 38.91632633333333, "fusion_lon": 0.0, "fusion_lat": 0.0, "type": "electric_scooter", "name": "4e6b4ef17184d6c809cc7e5b83ef82fd", "is_disabled": 0, "rental_uris": {"ios": "https://dc.lft.to/lastmile_qr_scan", "android": "https://dc.lft.to/lastmile_qr_scan"}, "is_reserved": 0}, {"lon": -77.0381245, "bike_id": "77a56c348f3d3f4f6761143acaf2e0de", "lat": 38.911788333333334, "fusion_lon": 0.0, "fusion_lat": 0.0, "type": "electric_scooter", "name": "77a56c348f3d3f4f6761143acaf2e0de", "is_disabled": 0, "rental_uris": {"ios": "https://dc.lft.to/lastmile_qr_scan", "android": "https://dc.lft.to/lastmile_qr_scan"}, "is_reserved": 0}, {"lon": -77.04330583333333, "bike_id": "c8fce4d773a518fe245d1ab3dc6fde17", "lat": 38.9072565, "fusion_lon": 0.0, "fusion_lat": 0.0, "type": "electric_scooter", "name": "c8fce4d773a518fe245d1ab3dc6fde17", "is_disabled": 0, "rental_uris": {"ios": "https://dc.lft.to/lastmile_qr_scan", "android": "https://dc.lft.to/lastmile_qr_scan"}, "is_reserved": 0}, {"lon": -76.9889465, "bike_id": "4328519068f9207690f3b6c0815b88ae", "lat": 38.913417, "fusion_lon": 0.0, "fusion_lat": 0.0, "type": "electric_scooter", "name": "4328519068f9207690f3b6c0815b88ae", "is_disabled": 0, "rental_uris": {"ios": "https://dc.lft.to/lastmile_qr_scan", "android": "https://dc.lft.to/lastmile_qr_scan"}, "is_reserved": 0}, {"lon": -77.0054135, "bike_id": "1b8897702228bdf44e3cb0d3311fd358", "lat": 38.9003735, "fusion_lon": 0.0, "fusion_lat": 0.0, "type": "electric_scooter", "name": "1b8897702228bdf44e3cb0d3311fd358", "is_disabled": 0, "rental_uris": {"ios": "https://dc.lft.to/lastmile_qr_scan", "android": "https://dc.lft.to/lastmile_qr_scan"}, "is_reserved": 0}, {"lon": -77.031947, "bike_id": "c9f6a0399b4f73ab6f538de4c15d59db", "lat": 38.907856333333335, "fusion_lon": 0.0, "fusion_lat": 0.0, "type": "electric_scooter", "name": "c9f6a0399b4f73ab6f538de4c15d59db", "is_disabled": 0, "rental_uris": {"ios": "https://dc.lft.to/lastmile_qr_scan", "android": "https://dc.lft.to/lastmile_qr_scan"}, "is_reserved": 0}, {"lon": -77.008437, "bike_id": "16fba5c8bfd31b3913791749e1f7daf5", "lat": 38.916241666666664, "fusion_lon": 0.0, "fusion_lat": 0.0, "type": "electric_scooter", "name": "16fba5c8bfd31b3913791749e1f7daf5", "is_disabled": 0, "rental_uris": {"ios": "https://dc.lft.to/lastmile_qr_scan", "android": "https://dc.lft.to/lastmile_qr_scan"}, "is_reserved": 0}, {"lon": -77.021788, "bike_id": "a44e5fde3322a637e29a061f4ce2723e", "lat": 38.89891633333333, "fusion_lon": 0.0, "fusion_lat": 0.0, "type": "electric_scooter", "name": "a44e5fde3322a637e29a061f4ce2723e", "is_disabled": 0, "rental_uris": {"ios": "https://dc.lft.to/lastmile_qr_scan", "android": "https://dc.lft.to/lastmile_qr_scan"}, "is_reserved": 0}, {"lon": -77.03445416666666, "bike_id": "926c5c0ed4ae942b953472499392e1ed", "lat": 38.909759666666666, "fusion_lon": 0.0, "fusion_lat": 0.0, "type": "electric_scooter", "name": "926c5c0ed4ae942b953472499392e1ed", "is_disabled": 0, "rental_uris": {"ios": "https://dc.lft.to/lastmile_qr_scan", "android": "https://dc.lft.to/lastmile_qr_scan"}, "is_reserved": 0}, {"lon": -77.03841033333333, "bike_id": "7bd85332f2bf5fe534bbff13e9cea5cf", "lat": 38.90670183333334, "fusion_lon": 0.0, "fusion_lat": 0.0, "type": "electric_scooter", "name": "7bd85332f2bf5fe534bbff13e9cea5cf", "is_disabled": 0, "rental_uris": {"ios": "https://dc.lft.to/lastmile_qr_scan", "android": "https://dc.lft.to/lastmile_qr_scan"}, "is_reserved": 0}, {"lon": -77.0425945, "bike_id": "1c3892f8fb7be26efba75b8c88caf161", "lat": 38.90023683333333, "fusion_lon": 0.0, "fusion_lat": 0.0, "type": "electric_scooter", "name": "1c3892f8fb7be26efba75b8c88caf161", "is_disabled": 0, "rental_uris": {"ios": "https://dc.lft.to/lastmile_qr_scan", "android": "https://dc.lft.to/lastmile_qr_scan"}, "is_reserved": 0}, {"lon": -77.03452733333333, "bike_id": "83e96e53d8816f2daf581e14fc41367e", "lat": 38.914886333333335, "fusion_lon": 0.0, "fusion_lat": 0.0, "type": "electric_scooter", "name": "83e96e53d8816f2daf581e14fc41367e", "is_disabled": 0, "rental_uris": {"ios": "https://dc.lft.to/lastmile_qr_scan", "android": "https://dc.lft.to/lastmile_qr_scan"}, "is_reserved": 0}, {"lon": -77.03667333333334, "bike_id": "a193ff3bb94821e22cc21edf3cc46089", "lat": 38.936069833333335, "fusion_lon": 0.0, "fusion_lat": 0.0, "type": "electric_scooter", "name": "a193ff3bb94821e22cc21edf3cc46089", "is_disabled": 0, "rental_uris": {"ios": "https://dc.lft.to/lastmile_qr_scan", "android": "https://dc.lft.to/lastmile_qr_scan"}, "is_reserved": 0}, {"lon": -77.00212833333333, "bike_id": "ab059fdc919d75d5648dd098b0bb31cf", "lat": 38.900384, "fusion_lon": 0.0, "fusion_lat": 0.0, "type": "electric_scooter", "name": "ab059fdc919d75d5648dd098b0bb31cf", "is_disabled": 0, "rental_uris": {"ios": "https://dc.lft.to/lastmile_qr_scan", "android": "https://dc.lft.to/lastmile_qr_scan"}, "is_reserved": 0}, {"lon": -76.93754883333334, "bike_id": "30c0c6347dc5f26a619d7d43c64c6126", "lat": 38.890427833333334, "fusion_lon": 0.0, "fusion_lat": 0.0, "type": "electric_scooter", "name": "30c0c6347dc5f26a619d7d43c64c6126", "is_disabled": 0, "rental_uris": {"ios": "https://dc.lft.to/lastmile_qr_scan", "android": "https://dc.lft.to/lastmile_qr_scan"}, "is_reserved": 0}, {"lon": -77.02178783333333, "bike_id": "58809bfb4e4c701057c1d4c47538a3c0", "lat": 38.91565883333333, "fusion_lon": 0.0, "fusion_lat": 0.0, "type": "electric_scooter", "name": "58809bfb4e4c701057c1d4c47538a3c0", "is_disabled": 0, "rental_uris": {"ios": "https://dc.lft.to/lastmile_qr_scan", "android": "https://dc.lft.to/lastmile_qr_scan"}, "is_reserved": 0}, {"lon": -76.99277616666667, "bike_id": "2bcb0341d3c6a53b3d75cc7060698b8a", "lat": 38.897624, "fusion_lon": 0.0, "fusion_lat": 0.0, "type": "electric_scooter", "name": "2bcb0341d3c6a53b3d75cc7060698b8a", "is_disabled": 0, "rental_uris": {"ios": "https://dc.lft.to/lastmile_qr_scan", "android": "https://dc.lft.to/lastmile_qr_scan"}, "is_reserved": 0}, {"lon": -77.0172105, "bike_id": "be51c8cc3bb0b443a6b199ed03cad1ea", "lat": 38.909699833333335, "fusion_lon": 0.0, "fusion_lat": 0.0, "type": "electric_scooter", "name": "be51c8cc3bb0b443a6b199ed03cad1ea", "is_disabled": 0, "rental_uris": {"ios": "https://dc.lft.to/lastmile_qr_scan", "android": "https://dc.lft.to/lastmile_qr_scan"}, "is_reserved": 0}, {"lon": -77.0883195, "bike_id": "1515a79670d8b99d10732b5b724963ad", "lat": 38.90977866666667, "fusion_lon": 0.0, "fusion_lat": 0.0, "type": "electric_scooter", "name": "1515a79670d8b99d10732b5b724963ad", "is_disabled": 0, "rental_uris": {"ios": "https://dc.lft.to/lastmile_qr_scan", "android": "https://dc.lft.to/lastmile_qr_scan"}, "is_reserved": 0}, {"lon": -76.93735483333333, "bike_id": "c5503dbf6b0fcebf602c60388f30dc5b", "lat": 38.89012816666666, "fusion_lon": 0.0, "fusion_lat": 0.0, "type": "electric_scooter", "name": "c5503dbf6b0fcebf602c60388f30dc5b", "is_disabled": 0, "rental_uris": {"ios": "https://dc.lft.to/lastmile_qr_scan", "android": "https://dc.lft.to/lastmile_qr_scan"}, "is_reserved": 0}, {"lon": -77.0014045, "bike_id": "28616a7ee90506d35b2d34f7ab3a0e6b", "lat": 38.89472216666667, "fusion_lon": 0.0, "fusion_lat": 0.0, "type": "electric_scooter", "name": "28616a7ee90506d35b2d34f7ab3a0e6b", "is_disabled": 0, "rental_uris": {"ios": "https://dc.lft.to/lastmile_qr_scan", "android": "https://dc.lft.to/lastmile_qr_scan"}, "is_reserved": 0}, {"lon": -77.03455516666666, "bike_id": "7062b451b9b112566b3c5f4c42e1fb3b", "lat": 38.9206915, "fusion_lon": 0.0, "fusion_lat": 0.0, "type": "electric_scooter", "name": "7062b451b9b112566b3c5f4c42e1fb3b", "is_disabled": 0, "rental_uris": {"ios": "https://dc.lft.to/lastmile_qr_scan", "android": "https://dc.lft.to/lastmile_qr_scan"}, "is_reserved": 0}, {"lon": -76.9410875, "bike_id": "9f54ef529f874f86e76a922203427bba", "lat": 38.88638016666667, "fusion_lon": 0.0, "fusion_lat": 0.0, "type": "electric_scooter", "name": "9f54ef529f874f86e76a922203427bba", "is_disabled": 0, "rental_uris": {"ios": "https://dc.lft.to/lastmile_qr_scan", "android": "https://dc.lft.to/lastmile_qr_scan"}, "is_reserved": 0}, {"lon": -77.04653816666666, "bike_id": "0b55d2fc28056dc0833a89c71517966f", "lat": 38.90956116666667, "fusion_lon": 0.0, "fusion_lat": 0.0, "type": "electric_scooter", "name": "0b55d2fc28056dc0833a89c71517966f", "is_disabled": 0, "rental_uris": {"ios": "https://dc.lft.to/lastmile_qr_scan", "android": "https://dc.lft.to/lastmile_qr_scan"}, "is_reserved": 0}, {"lon": -77.06029466666666, "bike_id": "cd7598ba142d1a49aa276dd6c8966a67", "lat": 38.90496566666667, "fusion_lon": 0.0, "fusion_lat": 0.0, "type": "electric_scooter", "name": "cd7598ba142d1a49aa276dd6c8966a67", "is_disabled": 0, "rental_uris": {"ios": "https://dc.lft.to/lastmile_qr_scan", "android": "https://dc.lft.to/lastmile_qr_scan"}, "is_reserved": 0}, {"lon": -77.06009666666667, "bike_id": "7ab29b0c9546822e2a804017aa420bd5", "lat": 38.90115216666667, "fusion_lon": 0.0, "fusion_lat": 0.0, "type": "electric_scooter", "name": "7ab29b0c9546822e2a804017aa420bd5", "is_disabled": 0, "rental_uris": {"ios": "https://dc.lft.to/lastmile_qr_scan", "android": "https://dc.lft.to/lastmile_qr_scan"}, "is_reserved": 0}, {"lon": -76.96529183333334, "bike_id": "06f6b084706e7d57443d0f4fd888f135", "lat": 38.876275, "fusion_lon": 0.0, "fusion_lat": 0.0, "type": "electric_scooter", "name": "06f6b084706e7d57443d0f4fd888f135", "is_disabled": 0, "rental_uris": {"ios": "https://dc.lft.to/lastmile_qr_scan", "android": "https://dc.lft.to/lastmile_qr_scan"}, "is_reserved": 0}, {"lon": -77.03265066666667, "bike_id": "f770b20f408893f2aedaf24f19a9ef5a", "lat": 38.93772933333333, "fusion_lon": 0.0, "fusion_lat": 0.0, "type": "electric_scooter", "name": "f770b20f408893f2aedaf24f19a9ef5a", "is_disabled": 0, "rental_uris": {"ios": "https://dc.lft.to/lastmile_qr_scan", "android": "https://dc.lft.to/lastmile_qr_scan"}, "is_reserved": 0}, {"lon": -77.05714966666666, "bike_id": "421e5f8654439181ec3e1ace31d76a12", "lat": 38.90544116666667, "fusion_lon": 0.0, "fusion_lat": 0.0, "type": "electric_scooter", "name": "421e5f8654439181ec3e1ace31d76a12", "is_disabled": 0, "rental_uris": {"ios": "https://dc.lft.to/lastmile_qr_scan", "android": "https://dc.lft.to/lastmile_qr_scan"}, "is_reserved": 0}, {"lon": -77.02534883333334, "bike_id": "b5e9c7e91d39cb0efd7b6a0035a26d93", "lat": 38.92082533333333, "fusion_lon": 0.0, "fusion_lat": 0.0, "type": "electric_scooter", "name": "b5e9c7e91d39cb0efd7b6a0035a26d93", "is_disabled": 0, "rental_uris": {"ios": "https://dc.lft.to/lastmile_qr_scan", "android": "https://dc.lft.to/lastmile_qr_scan"}, "is_reserved": 0}, {"lon": -77.04498216666667, "bike_id": "4093e84e8f2eb495d2d96773bd6b0f1c", "lat": 38.913562, "fusion_lon": 0.0, "fusion_lat": 0.0, "type": "electric_scooter", "name": "4093e84e8f2eb495d2d96773bd6b0f1c", "is_disabled": 0, "rental_uris": {"ios": "https://dc.lft.to/lastmile_qr_scan", "android": "https://dc.lft.to/lastmile_qr_scan"}, "is_reserved": 0}, {"lon": -77.050067, "bike_id": "ac467727a09789262d177e01c829544a", "lat": 38.915624333333334, "fusion_lon": 0.0, "fusion_lat": 0.0, "type": "electric_scooter", "name": "ac467727a09789262d177e01c829544a", "is_disabled": 0, "rental_uris": {"ios": "https://dc.lft.to/lastmile_qr_scan", "android": "https://dc.lft.to/lastmile_qr_scan"}, "is_reserved": 0}, {"lon": -76.9826525, "bike_id": "930843bd5b73f4a82035adfebec0d491", "lat": 38.90852733333333, "fusion_lon": 0.0, "fusion_lat": 0.0, "type": "electric_scooter", "name": "930843bd5b73f4a82035adfebec0d491", "is_disabled": 0, "rental_uris": {"ios": "https://dc.lft.to/lastmile_qr_scan", "android": "https://dc.lft.to/lastmile_qr_scan"}, "is_reserved": 0}, {"lon": -77.00458133333333, "bike_id": "6d010d4b896bb8d59a9ffe214580833d", "lat": 38.914369666666666, "fusion_lon": 0.0, "fusion_lat": 0.0, "type": "electric_scooter", "name": "6d010d4b896bb8d59a9ffe214580833d", "is_disabled": 0, "rental_uris": {"ios": "https://dc.lft.to/lastmile_qr_scan", "android": "https://dc.lft.to/lastmile_qr_scan"}, "is_reserved": 0}, {"lon": -76.98721933333333, "bike_id": "992a5b9634b911ecb0e939c5244a03ba", "lat": 38.866239666666665, "fusion_lon": 0.0, "fusion_lat": 0.0, "type": "electric_scooter", "name": "992a5b9634b911ecb0e939c5244a03ba", "is_disabled": 0, "rental_uris": {"ios": "https://dc.lft.to/lastmile_qr_scan", "android": "https://dc.lft.to/lastmile_qr_scan"}, "is_reserved": 0}, {"lon": -77.026982, "bike_id": "762c7cbdd58dd78faf714d230ae99ca6", "lat": 38.911675833333334, "fusion_lon": 0.0, "fusion_lat": 0.0, "type": "electric_scooter", "name": "762c7cbdd58dd78faf714d230ae99ca6", "is_disabled": 0, "rental_uris": {"ios": "https://dc.lft.to/lastmile_qr_scan", "android": "https://dc.lft.to/lastmile_qr_scan"}, "is_reserved": 0}, {"lon": -77.03400716666667, "bike_id": "91cbc4b9510ba7868b613d72ab837017", "lat": 38.930651, "fusion_lon": 0.0, "fusion_lat": 0.0, "type": "electric_scooter", "name": "91cbc4b9510ba7868b613d72ab837017", "is_disabled": 0, "rental_uris": {"ios": "https://dc.lft.to/lastmile_qr_scan", "android": "https://dc.lft.to/lastmile_qr_scan"}, "is_reserved": 0}, {"lon": -77.01971533333334, "bike_id": "64408a47f28c1c7b39fedeed6b4a842c", "lat": 38.92201016666667, "fusion_lon": 0.0, "fusion_lat": 0.0, "type": "electric_scooter", "name": "64408a47f28c1c7b39fedeed6b4a842c", "is_disabled": 0, "rental_uris": {"ios": "https://dc.lft.to/lastmile_qr_scan", "android": "https://dc.lft.to/lastmile_qr_scan"}, "is_reserved": 0}, {"lon": -77.03662033333333, "bike_id": "3b81e11bf118a3401064d267bac24a66", "lat": 38.93906833333333, "fusion_lon": 0.0, "fusion_lat": 0.0, "type": "electric_bike", "name": "3b81e11bf118a3401064d267bac24a66", "is_disabled": 0, "rental_uris": {"ios": "https://dc.lft.to/lastmile_qr_scan", "android": "https://dc.lft.to/lastmile_qr_scan"}, "is_reserved": 0}, {"lon": -77.01952966666667, "bike_id": "e7e5a26f72fa235a965296ed948ac12a", "lat": 38.92243466666667, "fusion_lon": 0.0, "fusion_lat": 0.0, "type": "electric_scooter", "name": "e7e5a26f72fa235a965296ed948ac12a", "is_disabled": 0, "rental_uris": {"ios": "https://dc.lft.to/lastmile_qr_scan", "android": "https://dc.lft.to/lastmile_qr_scan"}, "is_reserved": 0}, {"lon": -76.98192516666667, "bike_id": "75351baf0f763962647ce012605f402f", "lat": 38.89947316666667, "fusion_lon": 0.0, "fusion_lat": 0.0, "type": "electric_scooter", "name": "75351baf0f763962647ce012605f402f", "is_disabled": 0, "rental_uris": {"ios": "https://dc.lft.to/lastmile_qr_scan", "android": "https://dc.lft.to/lastmile_qr_scan"}, "is_reserved": 0}, {"lon": -76.95189633333334, "bike_id": "c76edfd9da5d9daa24b87e67bc0de7f4", "lat": 38.90737933333333, "fusion_lon": 0.0, "fusion_lat": 0.0, "type": "electric_scooter", "name": "c76edfd9da5d9daa24b87e67bc0de7f4", "is_disabled": 0, "rental_uris": {"ios": "https://dc.lft.to/lastmile_qr_scan", "android": "https://dc.lft.to/lastmile_qr_scan"}, "is_reserved": 0}, {"lon": -77.01787883333333, "bike_id": "42b11d9fd40e61f78effbe7c44fed63f", "lat": 38.877059333333335, "fusion_lon": 0.0, "fusion_lat": 0.0, "type": "electric_scooter", "name": "42b11d9fd40e61f78effbe7c44fed63f", "is_disabled": 0, "rental_uris": {"ios": "https://dc.lft.to/lastmile_qr_scan", "android": "https://dc.lft.to/lastmile_qr_scan"}, "is_reserved": 0}, {"lon": -77.04048316666666, "bike_id": "13e3a52dcb6d65dfff8c01f6b1b86f17", "lat": 38.92309316666667, "fusion_lon": 0.0, "fusion_lat": 0.0, "type": "electric_scooter", "name": "13e3a52dcb6d65dfff8c01f6b1b86f17", "is_disabled": 0, "rental_uris": {"ios": "https://dc.lft.to/lastmile_qr_scan", "android": "https://dc.lft.to/lastmile_qr_scan"}, "is_reserved": 0}, {"lon": -77.043392, "bike_id": "41baf6f62cb8bddd13ce39034b6dca93", "lat": 38.91106083333333, "fusion_lon": 0.0, "fusion_lat": 0.0, "type": "electric_scooter", "name": "41baf6f62cb8bddd13ce39034b6dca93", "is_disabled": 0, "rental_uris": {"ios": "https://dc.lft.to/lastmile_qr_scan", "android": "https://dc.lft.to/lastmile_qr_scan"}, "is_reserved": 0}, {"lon": -77.00528583333333, "bike_id": "509c014c127cb26082e0071b2fd69d7d", "lat": 38.87542366666667, "fusion_lon": 0.0, "fusion_lat": 0.0, "type": "electric_scooter", "name": "509c014c127cb26082e0071b2fd69d7d", "is_disabled": 0, "rental_uris": {"ios": "https://dc.lft.to/lastmile_qr_scan", "android": "https://dc.lft.to/lastmile_qr_scan"}, "is_reserved": 0}, {"lon": -77.10842566666666, "bike_id": "4e16e79901ca2274a1b86df82f1daef4", "lat": 38.8119735, "fusion_lon": 0.0, "fusion_lat": 0.0, "type": "electric_bike", "name": "4e16e79901ca2274a1b86df82f1daef4", "is_disabled": 0, "rental_uris": {"ios": "https://dc.lft.to/lastmile_qr_scan", "android": "https://dc.lft.to/lastmile_qr_scan"}, "is_reserved": 0}, {"lon": -76.99005716666667, "bike_id": "deab48a762c9cff48c495bf624e1a722", "lat": 38.865062, "fusion_lon": 0.0, "fusion_lat": 0.0, "type": "electric_scooter", "name": "deab48a762c9cff48c495bf624e1a722", "is_disabled": 0, "rental_uris": {"ios": "https://dc.lft.to/lastmile_qr_scan", "android": "https://dc.lft.to/lastmile_qr_scan"}, "is_reserved": 0}, {"lon": -76.98087166666667, "bike_id": "f1d54abfaabdfaf67a57173b8e5ffde4", "lat": 38.907045333333336, "fusion_lon": 0.0, "fusion_lat": 0.0, "type": "electric_scooter", "name": "f1d54abfaabdfaf67a57173b8e5ffde4", "is_disabled": 0, "rental_uris": {"ios": "https://dc.lft.to/lastmile_qr_scan", "android": "https://dc.lft.to/lastmile_qr_scan"}, "is_reserved": 0}, {"lon": -77.0277465, "bike_id": "68f50b59ed3f989b997937f4262eaf5d", "lat": 38.9300625, "fusion_lon": 0.0, "fusion_lat": 0.0, "type": "electric_scooter", "name": "68f50b59ed3f989b997937f4262eaf5d", "is_disabled": 0, "rental_uris": {"ios": "https://dc.lft.to/lastmile_qr_scan", "android": "https://dc.lft.to/lastmile_qr_scan"}, "is_reserved": 0}, {"lon": -77.00334416666666, "bike_id": "c390353f18be3d4c245c18622de4ae4c", "lat": 38.89724116666667, "fusion_lon": 0.0, "fusion_lat": 0.0, "type": "electric_scooter", "name": "c390353f18be3d4c245c18622de4ae4c", "is_disabled": 0, "rental_uris": {"ios": "https://dc.lft.to/lastmile_qr_scan", "android": "https://dc.lft.to/lastmile_qr_scan"}, "is_reserved": 0}, {"lon": -77.025318, "bike_id": "1e5c76fcfda1e9ef513441e8955f02d7", "lat": 38.90715983333333, "fusion_lon": 0.0, "fusion_lat": 0.0, "type": "electric_scooter", "name": "1e5c76fcfda1e9ef513441e8955f02d7", "is_disabled": 0, "rental_uris": {"ios": "https://dc.lft.to/lastmile_qr_scan", "android": "https://dc.lft.to/lastmile_qr_scan"}, "is_reserved": 0}, {"lon": -77.02788033333333, "bike_id": "97d9879d0d14a99b4634d695435fbec2", "lat": 38.89391416666667, "fusion_lon": 0.0, "fusion_lat": 0.0, "type": "electric_scooter", "name": "97d9879d0d14a99b4634d695435fbec2", "is_disabled": 0, "rental_uris": {"ios": "https://dc.lft.to/lastmile_qr_scan", "android": "https://dc.lft.to/lastmile_qr_scan"}, "is_reserved": 0}, {"lon": -77.018266, "bike_id": "d48b1d150098efe3153f7cdc82758418", "lat": 38.9006755, "fusion_lon": 0.0, "fusion_lat": 0.0, "type": "electric_scooter", "name": "d48b1d150098efe3153f7cdc82758418", "is_disabled": 0, "rental_uris": {"ios": "https://dc.lft.to/lastmile_qr_scan", "android": "https://dc.lft.to/lastmile_qr_scan"}, "is_reserved": 0}, {"lon": -76.99593633333333, "bike_id": "24a4286a635311575f769bd07ffac272", "lat": 38.88430866666667, "fusion_lon": 0.0, "fusion_lat": 0.0, "type": "electric_scooter", "name": "24a4286a635311575f769bd07ffac272", "is_disabled": 0, "rental_uris": {"ios": "https://dc.lft.to/lastmile_qr_scan", "android": "https://dc.lft.to/lastmile_qr_scan"}, "is_reserved": 0}, {"lon": -77.051454, "bike_id": "5e351b7fd24a8c44d13992ddab5e4fa9", "lat": 38.898627833333336, "fusion_lon": 0.0, "fusion_lat": 0.0, "type": "electric_scooter", "name": "5e351b7fd24a8c44d13992ddab5e4fa9", "is_disabled": 0, "rental_uris": {"ios": "https://dc.lft.to/lastmile_qr_scan", "android": "https://dc.lft.to/lastmile_qr_scan"}, "is_reserved": 0}, {"lon": -77.04983966666667, "bike_id": "fa0f7dc64304e656eb77ec2d89df56aa", "lat": 39.06288333333333, "fusion_lon": 0.0, "fusion_lat": 0.0, "type": "electric_bike", "name": "fa0f7dc64304e656eb77ec2d89df56aa", "is_disabled": 0, "rental_uris": {"ios": "https://dc.lft.to/lastmile_qr_scan", "android": "https://dc.lft.to/lastmile_qr_scan"}, "is_reserved": 0}, {"lon": -76.9787275, "bike_id": "992072ea4c16dec92c1fe4a4e167fea3", "lat": 38.88300433333333, "fusion_lon": 0.0, "fusion_lat": 0.0, "type": "electric_scooter", "name": "992072ea4c16dec92c1fe4a4e167fea3", "is_disabled": 0, "rental_uris": {"ios": "https://dc.lft.to/lastmile_qr_scan", "android": "https://dc.lft.to/lastmile_qr_scan"}, "is_reserved": 0}, {"lon": -76.99372533333333, "bike_id": "e290c768fc46cbcf27f134084ec584df", "lat": 38.94023283333333, "fusion_lon": 0.0, "fusion_lat": 0.0, "type": "electric_scooter", "name": "e290c768fc46cbcf27f134084ec584df", "is_disabled": 0, "rental_uris": {"ios": "https://dc.lft.to/lastmile_qr_scan", "android": "https://dc.lft.to/lastmile_qr_scan"}, "is_reserved": 0}, {"lon": -77.0296025, "bike_id": "736b9c00886f683891c8f331136571f5", "lat": 38.912723, "fusion_lon": 0.0, "fusion_lat": 0.0, "type": "electric_scooter", "name": "736b9c00886f683891c8f331136571f5", "is_disabled": 0, "rental_uris": {"ios": "https://dc.lft.to/lastmile_qr_scan", "android": "https://dc.lft.to/lastmile_qr_scan"}, "is_reserved": 0}, {"lon": -77.034565, "bike_id": "0487b66f39c9599ba8d82e47ac84ebab", "lat": 38.919018, "fusion_lon": 0.0, "fusion_lat": 0.0, "type": "electric_bike", "name": "0487b66f39c9599ba8d82e47ac84ebab", "is_disabled": 0, "rental_uris": {"ios": "https://dc.lft.to/lastmile_qr_scan", "android": "https://dc.lft.to/lastmile_qr_scan"}, "is_reserved": 0}, {"lon": -77.0382055, "bike_id": "875112bc11a51b74fa79822c9d3de2f5", "lat": 38.909695166666666, "fusion_lon": 0.0, "fusion_lat": 0.0, "type": "electric_scooter", "name": "875112bc11a51b74fa79822c9d3de2f5", "is_disabled": 0, "rental_uris": {"ios": "https://dc.lft.to/lastmile_qr_scan", "android": "https://dc.lft.to/lastmile_qr_scan"}, "is_reserved": 0}, {"lon": -77.03870183333333, "bike_id": "3ba67727d777fb5ab880b59255cd5d74", "lat": 38.92015683333333, "fusion_lon": 0.0, "fusion_lat": 0.0, "type": "electric_scooter", "name": "3ba67727d777fb5ab880b59255cd5d74", "is_disabled": 0, "rental_uris": {"ios": "https://dc.lft.to/lastmile_qr_scan", "android": "https://dc.lft.to/lastmile_qr_scan"}, "is_reserved": 0}, {"lon": -76.99012766666667, "bike_id": "aa5100f67837ae53f65952004d9ffc74", "lat": 38.945991666666664, "fusion_lon": 0.0, "fusion_lat": 0.0, "type": "electric_scooter", "name": "aa5100f67837ae53f65952004d9ffc74", "is_disabled": 0, "rental_uris": {"ios": "https://dc.lft.to/lastmile_qr_scan", "android": "https://dc.lft.to/lastmile_qr_scan"}, "is_reserved": 0}, {"lon": -77.0491345, "bike_id": "dbd97e2b02148df4db5d1289a4868d90", "lat": 38.90855366666667, "fusion_lon": 0.0, "fusion_lat": 0.0, "type": "electric_scooter", "name": "dbd97e2b02148df4db5d1289a4868d90", "is_disabled": 0, "rental_uris": {"ios": "https://dc.lft.to/lastmile_qr_scan", "android": "https://dc.lft.to/lastmile_qr_scan"}, "is_reserved": 0}, {"lon": -77.02696983333334, "bike_id": "f82b3a3057fa7962b75079651be8dd93", "lat": 38.908432833333336, "fusion_lon": 0.0, "fusion_lat": 0.0, "type": "electric_scooter", "name": "f82b3a3057fa7962b75079651be8dd93", "is_disabled": 0, "rental_uris": {"ios": "https://dc.lft.to/lastmile_qr_scan", "android": "https://dc.lft.to/lastmile_qr_scan"}, "is_reserved": 0}, {"lon": -76.98847016666667, "bike_id": "cafa8deffb670c55c4c894f5876a60d3", "lat": 38.84275433333333, "fusion_lon": 0.0, "fusion_lat": 0.0, "type": "electric_bike", "name": "cafa8deffb670c55c4c894f5876a60d3", "is_disabled": 0, "rental_uris": {"ios": "https://dc.lft.to/lastmile_qr_scan", "android": "https://dc.lft.to/lastmile_qr_scan"}, "is_reserved": 0}, {"lon": -77.05042166666667, "bike_id": "ca609ebe9e8764fc6027f60f6b6ce479", "lat": 38.92355333333333, "fusion_lon": 0.0, "fusion_lat": 0.0, "type": "electric_scooter", "name": "ca609ebe9e8764fc6027f60f6b6ce479", "is_disabled": 0, "rental_uris": {"ios": "https://dc.lft.to/lastmile_qr_scan", "android": "https://dc.lft.to/lastmile_qr_scan"}, "is_reserved": 0}, {"lon": -77.07597866666667, "bike_id": "7d207ae70126068f81490c4a4d132a93", "lat": 38.9121705, "fusion_lon": 0.0, "fusion_lat": 0.0, "type": "electric_scooter", "name": "7d207ae70126068f81490c4a4d132a93", "is_disabled": 0, "rental_uris": {"ios": "https://dc.lft.to/lastmile_qr_scan", "android": "https://dc.lft.to/lastmile_qr_scan"}, "is_reserved": 0}, {"lon": -77.02812983333334, "bike_id": "0a91222ebafc53a1da908f4eaa3f92e6", "lat": 38.91421283333333, "fusion_lon": 0.0, "fusion_lat": 0.0, "type": "electric_scooter", "name": "0a91222ebafc53a1da908f4eaa3f92e6", "is_disabled": 0, "rental_uris": {"ios": "https://dc.lft.to/lastmile_qr_scan", "android": "https://dc.lft.to/lastmile_qr_scan"}, "is_reserved": 0}, {"lon": -77.041609, "bike_id": "cb6a43ae8ce7b576a257c5b7d6f50aa1", "lat": 38.91248316666667, "fusion_lon": 0.0, "fusion_lat": 0.0, "type": "electric_scooter", "name": "cb6a43ae8ce7b576a257c5b7d6f50aa1", "is_disabled": 0, "rental_uris": {"ios": "https://dc.lft.to/lastmile_qr_scan", "android": "https://dc.lft.to/lastmile_qr_scan"}, "is_reserved": 0}, {"lon": -77.0411225, "bike_id": "e96f28ced7f4c5ffe215e019f9e89d98", "lat": 38.917287, "fusion_lon": 0.0, "fusion_lat": 0.0, "type": "electric_scooter", "name": "e96f28ced7f4c5ffe215e019f9e89d98", "is_disabled": 0, "rental_uris": {"ios": "https://dc.lft.to/lastmile_qr_scan", "android": "https://dc.lft.to/lastmile_qr_scan"}, "is_reserved": 0}, {"lon": -77.03217883333333, "bike_id": "a385aebbd5c4756ce7a1c860a1bed864", "lat": 38.89225716666667, "fusion_lon": 0.0, "fusion_lat": 0.0, "type": "electric_scooter", "name": "a385aebbd5c4756ce7a1c860a1bed864", "is_disabled": 0, "rental_uris": {"ios": "https://dc.lft.to/lastmile_qr_scan", "android": "https://dc.lft.to/lastmile_qr_scan"}, "is_reserved": 0}, {"lon": -76.99462266666667, "bike_id": "7ac05c53b7867f440544a038ef3fce46", "lat": 38.90367766666667, "fusion_lon": 0.0, "fusion_lat": 0.0, "type": "electric_scooter", "name": "7ac05c53b7867f440544a038ef3fce46", "is_disabled": 0, "rental_uris": {"ios": "https://dc.lft.to/lastmile_qr_scan", "android": "https://dc.lft.to/lastmile_qr_scan"}, "is_reserved": 0}, {"lon": -77.02306533333334, "bike_id": "31322f4dafd9771c9a874a132e7b8427", "lat": 38.942035833333335, "fusion_lon": 0.0, "fusion_lat": 0.0, "type": "electric_scooter", "name": "31322f4dafd9771c9a874a132e7b8427", "is_disabled": 0, "rental_uris": {"ios": "https://dc.lft.to/lastmile_qr_scan", "android": "https://dc.lft.to/lastmile_qr_scan"}, "is_reserved": 0}, {"lon": -76.97243916666666, "bike_id": "0cd0d59211918cf6d2655a13583086a0", "lat": 38.90337183333333, "fusion_lon": 0.0, "fusion_lat": 0.0, "type": "electric_scooter", "name": "0cd0d59211918cf6d2655a13583086a0", "is_disabled": 0, "rental_uris": {"ios": "https://dc.lft.to/lastmile_qr_scan", "android": "https://dc.lft.to/lastmile_qr_scan"}, "is_reserved": 0}, {"lon": -77.07238916666667, "bike_id": "0558bef058d89dc869f68f3430afffd1", "lat": 38.89880483333334, "fusion_lon": 0.0, "fusion_lat": 0.0, "type": "electric_scooter", "name": "0558bef058d89dc869f68f3430afffd1", "is_disabled": 0, "rental_uris": {"ios": "https://dc.lft.to/lastmile_qr_scan", "android": "https://dc.lft.to/lastmile_qr_scan"}, "is_reserved": 0}, {"lon": -77.04820966666666, "bike_id": "1d90de1d35150ad3e4e637ea813bf5f6", "lat": 38.897126, "fusion_lon": 0.0, "fusion_lat": 0.0, "type": "electric_scooter", "name": "1d90de1d35150ad3e4e637ea813bf5f6", "is_disabled": 0, "rental_uris": {"ios": "https://dc.lft.to/lastmile_qr_scan", "android": "https://dc.lft.to/lastmile_qr_scan"}, "is_reserved": 0}, {"lon": -77.02030816666667, "bike_id": "81cfa07d89b24a52820a32a7725ca265", "lat": 38.924145, "fusion_lon": 0.0, "fusion_lat": 0.0, "type": "electric_scooter", "name": "81cfa07d89b24a52820a32a7725ca265", "is_disabled": 0, "rental_uris": {"ios": "https://dc.lft.to/lastmile_qr_scan", "android": "https://dc.lft.to/lastmile_qr_scan"}, "is_reserved": 0}, {"lon": -77.046638, "bike_id": "68ddf5b14fe7c7ba7bc06bd038815daa", "lat": 38.8981825, "fusion_lon": 0.0, "fusion_lat": 0.0, "type": "electric_scooter", "name": "68ddf5b14fe7c7ba7bc06bd038815daa", "is_disabled": 0, "rental_uris": {"ios": "https://dc.lft.to/lastmile_qr_scan", "android": "https://dc.lft.to/lastmile_qr_scan"}, "is_reserved": 0}, {"lon": -77.05248316666666, "bike_id": "95f4b829e9980797232d03fcb39c7103", "lat": 38.89995066666667, "fusion_lon": 0.0, "fusion_lat": 0.0, "type": "electric_scooter", "name": "95f4b829e9980797232d03fcb39c7103", "is_disabled": 0, "rental_uris": {"ios": "https://dc.lft.to/lastmile_qr_scan", "android": "https://dc.lft.to/lastmile_qr_scan"}, "is_reserved": 0}, {"lon": -77.03392033333333, "bike_id": "88e7c4919ace44ee16e25a71f9c668b3", "lat": 38.90981216666667, "fusion_lon": 0.0, "fusion_lat": 0.0, "type": "electric_scooter", "name": "88e7c4919ace44ee16e25a71f9c668b3", "is_disabled": 0, "rental_uris": {"ios": "https://dc.lft.to/lastmile_qr_scan", "android": "https://dc.lft.to/lastmile_qr_scan"}, "is_reserved": 0}, {"lon": -77.02728183333333, "bike_id": "e812221be1dba2426987d3a1163dfa92", "lat": 38.914182, "fusion_lon": 0.0, "fusion_lat": 0.0, "type": "electric_scooter", "name": "e812221be1dba2426987d3a1163dfa92", "is_disabled": 0, "rental_uris": {"ios": "https://dc.lft.to/lastmile_qr_scan", "android": "https://dc.lft.to/lastmile_qr_scan"}, "is_reserved": 0}, {"lon": -76.95580416666667, "bike_id": "b7a2e1dbb9781c26df67d71d4e0fc3de", "lat": 38.88763816666667, "fusion_lon": 0.0, "fusion_lat": 0.0, "type": "electric_scooter", "name": "b7a2e1dbb9781c26df67d71d4e0fc3de", "is_disabled": 0, "rental_uris": {"ios": "https://dc.lft.to/lastmile_qr_scan", "android": "https://dc.lft.to/lastmile_qr_scan"}, "is_reserved": 0}, {"lon": -77.06346883333333, "bike_id": "97b8f60256221a9fe923b813241aa77d", "lat": 38.905952, "fusion_lon": 0.0, "fusion_lat": 0.0, "type": "electric_scooter", "name": "97b8f60256221a9fe923b813241aa77d", "is_disabled": 0, "rental_uris": {"ios": "https://dc.lft.to/lastmile_qr_scan", "android": "https://dc.lft.to/lastmile_qr_scan"}, "is_reserved": 0}, {"lon": -76.9891955, "bike_id": "d2a860083214c1e1b49eda543864cc67", "lat": 38.85807283333333, "fusion_lon": 0.0, "fusion_lat": 0.0, "type": "electric_scooter", "name": "d2a860083214c1e1b49eda543864cc67", "is_disabled": 0, "rental_uris": {"ios": "https://dc.lft.to/lastmile_qr_scan", "android": "https://dc.lft.to/lastmile_qr_scan"}, "is_reserved": 0}, {"lon": -77.02230683333333, "bike_id": "8bf94728ed6cff75687cfeec1fb69816", "lat": 38.9260295, "fusion_lon": 0.0, "fusion_lat": 0.0, "type": "electric_scooter", "name": "8bf94728ed6cff75687cfeec1fb69816", "is_disabled": 0, "rental_uris": {"ios": "https://dc.lft.to/lastmile_qr_scan", "android": "https://dc.lft.to/lastmile_qr_scan"}, "is_reserved": 0}, {"lon": -77.028512, "bike_id": "8b12831c7b7fdecbf6c6ea9915d5d1c0", "lat": 38.925689166666665, "fusion_lon": 0.0, "fusion_lat": 0.0, "type": "electric_scooter", "name": "8b12831c7b7fdecbf6c6ea9915d5d1c0", "is_disabled": 0, "rental_uris": {"ios": "https://dc.lft.to/lastmile_qr_scan", "android": "https://dc.lft.to/lastmile_qr_scan"}, "is_reserved": 0}, {"lon": -77.0439245, "bike_id": "38aab8acfbd9064210d5eb5de7876e98", "lat": 39.0471205, "fusion_lon": 0.0, "fusion_lat": 0.0, "type": "electric_bike", "name": "38aab8acfbd9064210d5eb5de7876e98", "is_disabled": 0, "rental_uris": {"ios": "https://dc.lft.to/lastmile_qr_scan", "android": "https://dc.lft.to/lastmile_qr_scan"}, "is_reserved": 0}, {"lon": -77.032364, "bike_id": "6969d7896f7879bd125405083b368787", "lat": 38.930190333333336, "fusion_lon": 0.0, "fusion_lat": 0.0, "type": "electric_scooter", "name": "6969d7896f7879bd125405083b368787", "is_disabled": 0, "rental_uris": {"ios": "https://dc.lft.to/lastmile_qr_scan", "android": "https://dc.lft.to/lastmile_qr_scan"}, "is_reserved": 0}, {"lon": -77.02243616666667, "bike_id": "c79b3f9fec0a7cfb4a2c3dba0fd41cc3", "lat": 38.96207, "fusion_lon": 0.0, "fusion_lat": 0.0, "type": "electric_bike", "name": "c79b3f9fec0a7cfb4a2c3dba0fd41cc3", "is_disabled": 0, "rental_uris": {"ios": "https://dc.lft.to/lastmile_qr_scan", "android": "https://dc.lft.to/lastmile_qr_scan"}, "is_reserved": 0}, {"lon": -77.0218575, "bike_id": "0ec70b08898c0ca2ed5f1a3f4cfb8ecf", "lat": 38.89352983333333, "fusion_lon": 0.0, "fusion_lat": 0.0, "type": "electric_scooter", "name": "0ec70b08898c0ca2ed5f1a3f4cfb8ecf", "is_disabled": 0, "rental_uris": {"ios": "https://dc.lft.to/lastmile_qr_scan", "android": "https://dc.lft.to/lastmile_qr_scan"}, "is_reserved": 0}, {"lon": -76.97335866666667, "bike_id": "bc3147824cfb58011e651e2df5f14c37", "lat": 38.865121333333335, "fusion_lon": 0.0, "fusion_lat": 0.0, "type": "electric_bike", "name": "bc3147824cfb58011e651e2df5f14c37", "is_disabled": 0, "rental_uris": {"ios": "https://dc.lft.to/lastmile_qr_scan", "android": "https://dc.lft.to/lastmile_qr_scan"}, "is_reserved": 0}, {"lon": -77.039074, "bike_id": "18e9f48ab3635dc25792f42d12572a1b", "lat": 38.91836633333333, "fusion_lon": 0.0, "fusion_lat": 0.0, "type": "electric_scooter", "name": "18e9f48ab3635dc25792f42d12572a1b", "is_disabled": 0, "rental_uris": {"ios": "https://dc.lft.to/lastmile_qr_scan", "android": "https://dc.lft.to/lastmile_qr_scan"}, "is_reserved": 0}, {"lon": -76.98090566666667, "bike_id": "43696fa680b2f3584b781803bfcd5662", "lat": 38.884199833333334, "fusion_lon": 0.0, "fusion_lat": 0.0, "type": "electric_scooter", "name": "43696fa680b2f3584b781803bfcd5662", "is_disabled": 0, "rental_uris": {"ios": "https://dc.lft.to/lastmile_qr_scan", "android": "https://dc.lft.to/lastmile_qr_scan"}, "is_reserved": 0}, {"lon": -76.98558916666667, "bike_id": "cf711288bd5369ad2eb5fb88ddf2280c", "lat": 38.90914433333333, "fusion_lon": 0.0, "fusion_lat": 0.0, "type": "electric_scooter", "name": "cf711288bd5369ad2eb5fb88ddf2280c", "is_disabled": 0, "rental_uris": {"ios": "https://dc.lft.to/lastmile_qr_scan", "android": "https://dc.lft.to/lastmile_qr_scan"}, "is_reserved": 0}, {"lon": -77.03637816666667, "bike_id": "c9c50c1e0d660ad4a4025713db54c4be", "lat": 38.91224066666667, "fusion_lon": 0.0, "fusion_lat": 0.0, "type": "electric_scooter", "name": "c9c50c1e0d660ad4a4025713db54c4be", "is_disabled": 0, "rental_uris": {"ios": "https://dc.lft.to/lastmile_qr_scan", "android": "https://dc.lft.to/lastmile_qr_scan"}, "is_reserved": 0}, {"lon": -77.03212433333333, "bike_id": "41bc59f06ba7da6bb539556f5a1d0cde", "lat": 38.89213516666667, "fusion_lon": 0.0, "fusion_lat": 0.0, "type": "electric_scooter", "name": "41bc59f06ba7da6bb539556f5a1d0cde", "is_disabled": 0, "rental_uris": {"ios": "https://dc.lft.to/lastmile_qr_scan", "android": "https://dc.lft.to/lastmile_qr_scan"}, "is_reserved": 0}, {"lon": -77.031955, "bike_id": "2c6f5c0019c5d93c46e7b4672716a4f8", "lat": 38.92867, "fusion_lon": 0.0, "fusion_lat": 0.0, "type": "electric_scooter", "name": "2c6f5c0019c5d93c46e7b4672716a4f8", "is_disabled": 0, "rental_uris": {"ios": "https://dc.lft.to/lastmile_qr_scan", "android": "https://dc.lft.to/lastmile_qr_scan"}, "is_reserved": 0}, {"lon": -77.058639, "bike_id": "8a94afd36efb45f73d10d10f2dad4d65", "lat": 38.93600883333333, "fusion_lon": 0.0, "fusion_lat": 0.0, "type": "electric_scooter", "name": "8a94afd36efb45f73d10d10f2dad4d65", "is_disabled": 0, "rental_uris": {"ios": "https://dc.lft.to/lastmile_qr_scan", "android": "https://dc.lft.to/lastmile_qr_scan"}, "is_reserved": 0}, {"lon": -76.98259216666666, "bike_id": "05da4ebbb55972039566e96c1784eafd", "lat": 38.908550166666664, "fusion_lon": 0.0, "fusion_lat": 0.0, "type": "electric_scooter", "name": "05da4ebbb55972039566e96c1784eafd", "is_disabled": 0, "rental_uris": {"ios": "https://dc.lft.to/lastmile_qr_scan", "android": "https://dc.lft.to/lastmile_qr_scan"}, "is_reserved": 0}, {"lon": -77.036597, "bike_id": "d8cf1b8032def8369e1035cc489dc1ee", "lat": 38.94170883333334, "fusion_lon": 0.0, "fusion_lat": 0.0, "type": "electric_scooter", "name": "d8cf1b8032def8369e1035cc489dc1ee", "is_disabled": 0, "rental_uris": {"ios": "https://dc.lft.to/lastmile_qr_scan", "android": "https://dc.lft.to/lastmile_qr_scan"}, "is_reserved": 0}, {"lon": -77.01180566666666, "bike_id": "e7780b317dafd3ab999d896377fbca1b", "lat": 38.87226966666667, "fusion_lon": 0.0, "fusion_lat": 0.0, "type": "electric_bike", "name": "e7780b317dafd3ab999d896377fbca1b", "is_disabled": 0, "rental_uris": {"ios": "https://dc.lft.to/lastmile_qr_scan", "android": "https://dc.lft.to/lastmile_qr_scan"}, "is_reserved": 0}, {"lon": -76.98901783333334, "bike_id": "3492a3f016b13d7067627a00494a92b0", "lat": 38.91342266666667, "fusion_lon": 0.0, "fusion_lat": 0.0, "type": "electric_scooter", "name": "3492a3f016b13d7067627a00494a92b0", "is_disabled": 0, "rental_uris": {"ios": "https://dc.lft.to/lastmile_qr_scan", "android": "https://dc.lft.to/lastmile_qr_scan"}, "is_reserved": 0}, {"lon": -77.100939, "bike_id": "0373a96fafe3a5f2421b9b7603c190d2", "lat": 38.959538, "fusion_lon": 0.0, "fusion_lat": 0.0, "type": "electric_bike", "name": "0373a96fafe3a5f2421b9b7603c190d2", "is_disabled": 0, "rental_uris": {"ios": "https://dc.lft.to/lastmile_qr_scan", "android": "https://dc.lft.to/lastmile_qr_scan"}, "is_reserved": 0}, {"lon": -76.98702233333333, "bike_id": "a7b0ffb480ca6886fae74f8196f7071e", "lat": 38.907058, "fusion_lon": 0.0, "fusion_lat": 0.0, "type": "electric_scooter", "name": "a7b0ffb480ca6886fae74f8196f7071e", "is_disabled": 0, "rental_uris": {"ios": "https://dc.lft.to/lastmile_qr_scan", "android": "https://dc.lft.to/lastmile_qr_scan"}, "is_reserved": 0}, {"lon": -76.99483983333333, "bike_id": "e48d1714e4419536ca8386bf81c513c5", "lat": 38.9157045, "fusion_lon": 0.0, "fusion_lat": 0.0, "type": "electric_scooter", "name": "e48d1714e4419536ca8386bf81c513c5", "is_disabled": 0, "rental_uris": {"ios": "https://dc.lft.to/lastmile_qr_scan", "android": "https://dc.lft.to/lastmile_qr_scan"}, "is_reserved": 0}, {"lon": -76.93373516666666, "bike_id": "b0447abb054845b56b3f44b2994554bc", "lat": 38.899082666666665, "fusion_lon": 0.0, "fusion_lat": 0.0, "type": "electric_scooter", "name": "b0447abb054845b56b3f44b2994554bc", "is_disabled": 0, "rental_uris": {"ios": "https://dc.lft.to/lastmile_qr_scan", "android": "https://dc.lft.to/lastmile_qr_scan"}, "is_reserved": 0}, {"lon": -77.02629816666666, "bike_id": "9a92ca7b67bcd842da021277c348945b", "lat": 38.962126833333336, "fusion_lon": 0.0, "fusion_lat": 0.0, "type": "electric_bike", "name": "9a92ca7b67bcd842da021277c348945b", "is_disabled": 0, "rental_uris": {"ios": "https://dc.lft.to/lastmile_qr_scan", "android": "https://dc.lft.to/lastmile_qr_scan"}, "is_reserved": 0}, {"lon": -77.03214833333334, "bike_id": "54781725f63cca10d3b15283a2d31986", "lat": 38.91818166666667, "fusion_lon": 0.0, "fusion_lat": 0.0, "type": "electric_scooter", "name": "54781725f63cca10d3b15283a2d31986", "is_disabled": 0, "rental_uris": {"ios": "https://dc.lft.to/lastmile_qr_scan", "android": "https://dc.lft.to/lastmile_qr_scan"}, "is_reserved": 0}, {"lon": -76.94293516666667, "bike_id": "5abe478b7db15fef1329daeb58cb80d5", "lat": 38.93865816666667, "fusion_lon": 0.0, "fusion_lat": 0.0, "type": "electric_bike", "name": "5abe478b7db15fef1329daeb58cb80d5", "is_disabled": 0, "rental_uris": {"ios": "https://dc.lft.to/lastmile_qr_scan", "android": "https://dc.lft.to/lastmile_qr_scan"}, "is_reserved": 0}, {"lon": -76.98194783333334, "bike_id": "cb7734ff9d38f6d9cb3840844bbf9273", "lat": 38.925980333333335, "fusion_lon": 0.0, "fusion_lat": 0.0, "type": "electric_scooter", "name": "cb7734ff9d38f6d9cb3840844bbf9273", "is_disabled": 0, "rental_uris": {"ios": "https://dc.lft.to/lastmile_qr_scan", "android": "https://dc.lft.to/lastmile_qr_scan"}, "is_reserved": 0}, {"lon": -77.0353525, "bike_id": "5e1485e85d2a8ee96b368154356efdff", "lat": 38.926315833333334, "fusion_lon": 0.0, "fusion_lat": 0.0, "type": "electric_scooter", "name": "5e1485e85d2a8ee96b368154356efdff", "is_disabled": 0, "rental_uris": {"ios": "https://dc.lft.to/lastmile_qr_scan", "android": "https://dc.lft.to/lastmile_qr_scan"}, "is_reserved": 0}, {"lon": -77.0020615, "bike_id": "6686b9ad0829aa883e118c722d51cf7e", "lat": 38.900283, "fusion_lon": 0.0, "fusion_lat": 0.0, "type": "electric_scooter", "name": "6686b9ad0829aa883e118c722d51cf7e", "is_disabled": 0, "rental_uris": {"ios": "https://dc.lft.to/lastmile_qr_scan", "android": "https://dc.lft.to/lastmile_qr_scan"}, "is_reserved": 0}, {"lon": -76.95473666666666, "bike_id": "af9019449bddcd3934edb7f8da3fb6c8", "lat": 38.884618, "fusion_lon": 0.0, "fusion_lat": 0.0, "type": "electric_scooter", "name": "af9019449bddcd3934edb7f8da3fb6c8", "is_disabled": 0, "rental_uris": {"ios": "https://dc.lft.to/lastmile_qr_scan", "android": "https://dc.lft.to/lastmile_qr_scan"}, "is_reserved": 0}, {"lon": -76.991879, "bike_id": "cf54d8c5ece2e8247a5167b69d0d00fc", "lat": 38.88973566666667, "fusion_lon": 0.0, "fusion_lat": 0.0, "type": "electric_scooter", "name": "cf54d8c5ece2e8247a5167b69d0d00fc", "is_disabled": 0, "rental_uris": {"ios": "https://dc.lft.to/lastmile_qr_scan", "android": "https://dc.lft.to/lastmile_qr_scan"}, "is_reserved": 0}, {"lon": -77.02295883333333, "bike_id": "bd0f966471fce0f0fd6d0363c343e266", "lat": 38.890558, "fusion_lon": 0.0, "fusion_lat": 0.0, "type": "electric_scooter", "name": "bd0f966471fce0f0fd6d0363c343e266", "is_disabled": 0, "rental_uris": {"ios": "https://dc.lft.to/lastmile_qr_scan", "android": "https://dc.lft.to/lastmile_qr_scan"}, "is_reserved": 0}, {"lon": -76.98885866666667, "bike_id": "ffd10af3876f21bbedb79fa8363be8df", "lat": 38.866557666666665, "fusion_lon": 0.0, "fusion_lat": 0.0, "type": "electric_scooter", "name": "ffd10af3876f21bbedb79fa8363be8df", "is_disabled": 0, "rental_uris": {"ios": "https://dc.lft.to/lastmile_qr_scan", "android": "https://dc.lft.to/lastmile_qr_scan"}, "is_reserved": 0}, {"lon": -77.06254683333333, "bike_id": "04e2201b89cbfd2452128cb877b420b1", "lat": 38.94415683333333, "fusion_lon": 0.0, "fusion_lat": 0.0, "type": "electric_scooter", "name": "04e2201b89cbfd2452128cb877b420b1", "is_disabled": 0, "rental_uris": {"ios": "https://dc.lft.to/lastmile_qr_scan", "android": "https://dc.lft.to/lastmile_qr_scan"}, "is_reserved": 0}, {"lon": -77.04161916666666, "bike_id": "4203020a56a1f3fbfb2ab5898075a6c8", "lat": 38.9124695, "fusion_lon": 0.0, "fusion_lat": 0.0, "type": "electric_scooter", "name": "4203020a56a1f3fbfb2ab5898075a6c8", "is_disabled": 0, "rental_uris": {"ios": "https://dc.lft.to/lastmile_qr_scan", "android": "https://dc.lft.to/lastmile_qr_scan"}, "is_reserved": 0}, {"lon": -77.04176583333333, "bike_id": "d3efc5ba56435ca777334bdeb2715c82", "lat": 38.923125666666664, "fusion_lon": 0.0, "fusion_lat": 0.0, "type": "electric_scooter", "name": "d3efc5ba56435ca777334bdeb2715c82", "is_disabled": 0, "rental_uris": {"ios": "https://dc.lft.to/lastmile_qr_scan", "android": "https://dc.lft.to/lastmile_qr_scan"}, "is_reserved": 0}, {"lon": -77.041552, "bike_id": "1e95906dafbb68fd1b623583ca049651", "lat": 38.923303, "fusion_lon": 0.0, "fusion_lat": 0.0, "type": "electric_scooter", "name": "1e95906dafbb68fd1b623583ca049651", "is_disabled": 0, "rental_uris": {"ios": "https://dc.lft.to/lastmile_qr_scan", "android": "https://dc.lft.to/lastmile_qr_scan"}, "is_reserved": 0}, {"lon": -76.93739883333333, "bike_id": "4cdb8fe8afbdb69a28352129818a3b9f", "lat": 38.89011133333333, "fusion_lon": 0.0, "fusion_lat": 0.0, "type": "electric_scooter", "name": "4cdb8fe8afbdb69a28352129818a3b9f", "is_disabled": 0, "rental_uris": {"ios": "https://dc.lft.to/lastmile_qr_scan", "android": "https://dc.lft.to/lastmile_qr_scan"}, "is_reserved": 0}, {"lon": -77.0538465, "bike_id": "cb2f009972289334aaeb841c8c940731", "lat": 38.90391016666667, "fusion_lon": 0.0, "fusion_lat": 0.0, "type": "electric_scooter", "name": "cb2f009972289334aaeb841c8c940731", "is_disabled": 0, "rental_uris": {"ios": "https://dc.lft.to/lastmile_qr_scan", "android": "https://dc.lft.to/lastmile_qr_scan"}, "is_reserved": 0}, {"lon": -77.02168316666666, "bike_id": "d77619ec1f0d173b818249d2e5fcd8e5", "lat": 38.897543, "fusion_lon": 0.0, "fusion_lat": 0.0, "type": "electric_scooter", "name": "d77619ec1f0d173b818249d2e5fcd8e5", "is_disabled": 0, "rental_uris": {"ios": "https://dc.lft.to/lastmile_qr_scan", "android": "https://dc.lft.to/lastmile_qr_scan"}, "is_reserved": 0}, {"lon": -77.03444616666667, "bike_id": "1d437a15525aa9dda4512ceba339bec4", "lat": 38.909778333333335, "fusion_lon": 0.0, "fusion_lat": 0.0, "type": "electric_scooter", "name": "1d437a15525aa9dda4512ceba339bec4", "is_disabled": 0, "rental_uris": {"ios": "https://dc.lft.to/lastmile_qr_scan", "android": "https://dc.lft.to/lastmile_qr_scan"}, "is_reserved": 0}, {"lon": -76.990007, "bike_id": "1d129c92b19765d9bab34b116f1bd873", "lat": 38.86503616666667, "fusion_lon": 0.0, "fusion_lat": 0.0, "type": "electric_scooter", "name": "1d129c92b19765d9bab34b116f1bd873", "is_disabled": 0, "rental_uris": {"ios": "https://dc.lft.to/lastmile_qr_scan", "android": "https://dc.lft.to/lastmile_qr_scan"}, "is_reserved": 0}, {"lon": -77.05691216666666, "bike_id": "a235818ec75cb414e9c7edea1314319a", "lat": 38.905117833333335, "fusion_lon": 0.0, "fusion_lat": 0.0, "type": "electric_bike", "name": "a235818ec75cb414e9c7edea1314319a", "is_disabled": 0, "rental_uris": {"ios": "https://dc.lft.to/lastmile_qr_scan", "android": "https://dc.lft.to/lastmile_qr_scan"}, "is_reserved": 0}, {"lon": -77.02715766666667, "bike_id": "b21abc65b09a15c0dfb34324ab1684a3", "lat": 38.897823833333334, "fusion_lon": 0.0, "fusion_lat": 0.0, "type": "electric_scooter", "name": "b21abc65b09a15c0dfb34324ab1684a3", "is_disabled": 0, "rental_uris": {"ios": "https://dc.lft.to/lastmile_qr_scan", "android": "https://dc.lft.to/lastmile_qr_scan"}, "is_reserved": 0}, {"lon": -76.98937083333334, "bike_id": "09ff65f4078a4425669e60b7e0ca6f16", "lat": 38.90186116666667, "fusion_lon": 0.0, "fusion_lat": 0.0, "type": "electric_scooter", "name": "09ff65f4078a4425669e60b7e0ca6f16", "is_disabled": 0, "rental_uris": {"ios": "https://dc.lft.to/lastmile_qr_scan", "android": "https://dc.lft.to/lastmile_qr_scan"}, "is_reserved": 0}, {"lon": -77.04107233333333, "bike_id": "a2ddbc61bee77cf858287eab5110e658", "lat": 38.923094, "fusion_lon": 0.0, "fusion_lat": 0.0, "type": "electric_scooter", "name": "a2ddbc61bee77cf858287eab5110e658", "is_disabled": 0, "rental_uris": {"ios": "https://dc.lft.to/lastmile_qr_scan", "android": "https://dc.lft.to/lastmile_qr_scan"}, "is_reserved": 0}, {"lon": -77.03212916666666, "bike_id": "721a30b86aa0f2df5073b8a716a5b5bf", "lat": 38.89229066666667, "fusion_lon": 0.0, "fusion_lat": 0.0, "type": "electric_scooter", "name": "721a30b86aa0f2df5073b8a716a5b5bf", "is_disabled": 0, "rental_uris": {"ios": "https://dc.lft.to/lastmile_qr_scan", "android": "https://dc.lft.to/lastmile_qr_scan"}, "is_reserved": 0}, {"lon": -76.95747066666667, "bike_id": "c008b978f41bb7bde0c2be4ffcc50354", "lat": 38.88428316666667, "fusion_lon": 0.0, "fusion_lat": 0.0, "type": "electric_scooter", "name": "c008b978f41bb7bde0c2be4ffcc50354", "is_disabled": 0, "rental_uris": {"ios": "https://dc.lft.to/lastmile_qr_scan", "android": "https://dc.lft.to/lastmile_qr_scan"}, "is_reserved": 0}, {"lon": -77.05025566666667, "bike_id": "a7eff47076bc0fda349c8cc825c36ce9", "lat": 38.901546333333336, "fusion_lon": 0.0, "fusion_lat": 0.0, "type": "electric_scooter", "name": "a7eff47076bc0fda349c8cc825c36ce9", "is_disabled": 0, "rental_uris": {"ios": "https://dc.lft.to/lastmile_qr_scan", "android": "https://dc.lft.to/lastmile_qr_scan"}, "is_reserved": 0}, {"lon": -77.03053266666667, "bike_id": "31706e5fbd2647521ef309f1aa2552aa", "lat": 38.88420166666667, "fusion_lon": 0.0, "fusion_lat": 0.0, "type": "electric_scooter", "name": "31706e5fbd2647521ef309f1aa2552aa", "is_disabled": 0, "rental_uris": {"ios": "https://dc.lft.to/lastmile_qr_scan", "android": "https://dc.lft.to/lastmile_qr_scan"}, "is_reserved": 0}, {"lon": -77.0304235, "bike_id": "cf36fb00999f61f4f126586f4b93bc99", "lat": 38.8783885, "fusion_lon": 0.0, "fusion_lat": 0.0, "type": "electric_scooter", "name": "cf36fb00999f61f4f126586f4b93bc99", "is_disabled": 0, "rental_uris": {"ios": "https://dc.lft.to/lastmile_qr_scan", "android": "https://dc.lft.to/lastmile_qr_scan"}, "is_reserved": 0}, {"lon": -77.02818783333333, "bike_id": "6352d3accb872e50c198c844bae31885", "lat": 38.895156666666665, "fusion_lon": 0.0, "fusion_lat": 0.0, "type": "electric_scooter", "name": "6352d3accb872e50c198c844bae31885", "is_disabled": 0, "rental_uris": {"ios": "https://dc.lft.to/lastmile_qr_scan", "android": "https://dc.lft.to/lastmile_qr_scan"}, "is_reserved": 0}, {"lon": -76.99890516666666, "bike_id": "7a4697ea37b8c63cd5d52f5b9e11fdf8", "lat": 38.9095025, "fusion_lon": 0.0, "fusion_lat": 0.0, "type": "electric_scooter", "name": "7a4697ea37b8c63cd5d52f5b9e11fdf8", "is_disabled": 0, "rental_uris": {"ios": "https://dc.lft.to/lastmile_qr_scan", "android": "https://dc.lft.to/lastmile_qr_scan"}, "is_reserved": 0}, {"lon": -77.02239166666666, "bike_id": "ab7a7981ec431661c182dd354d666620", "lat": 38.962018666666665, "fusion_lon": 0.0, "fusion_lat": 0.0, "type": "electric_scooter", "name": "ab7a7981ec431661c182dd354d666620", "is_disabled": 0, "rental_uris": {"ios": "https://dc.lft.to/lastmile_qr_scan", "android": "https://dc.lft.to/lastmile_qr_scan"}, "is_reserved": 0}, {"lon": -77.06012883333334, "bike_id": "28905280de0d3fbdd90509a045d094ee", "lat": 38.90115866666667, "fusion_lon": 0.0, "fusion_lat": 0.0, "type": "electric_scooter", "name": "28905280de0d3fbdd90509a045d094ee", "is_disabled": 0, "rental_uris": {"ios": "https://dc.lft.to/lastmile_qr_scan", "android": "https://dc.lft.to/lastmile_qr_scan"}, "is_reserved": 0}, {"lon": -77.02199283333333, "bike_id": "66fc7608e2cb076d8e8d2f4c2812654f", "lat": 38.9011975, "fusion_lon": 0.0, "fusion_lat": 0.0, "type": "electric_scooter", "name": "66fc7608e2cb076d8e8d2f4c2812654f", "is_disabled": 0, "rental_uris": {"ios": "https://dc.lft.to/lastmile_qr_scan", "android": "https://dc.lft.to/lastmile_qr_scan"}, "is_reserved": 0}, {"lon": -77.04878316666667, "bike_id": "804baf2e0d08c5172b8badc754e7ac6c", "lat": 38.892285, "fusion_lon": 0.0, "fusion_lat": 0.0, "type": "electric_scooter", "name": "804baf2e0d08c5172b8badc754e7ac6c", "is_disabled": 0, "rental_uris": {"ios": "https://dc.lft.to/lastmile_qr_scan", "android": "https://dc.lft.to/lastmile_qr_scan"}, "is_reserved": 0}, {"lon": -77.02535966666666, "bike_id": "f4e305fee7c0fc15744bd0b19d475b76", "lat": 38.90575716666667, "fusion_lon": 0.0, "fusion_lat": 0.0, "type": "electric_scooter", "name": "f4e305fee7c0fc15744bd0b19d475b76", "is_disabled": 0, "rental_uris": {"ios": "https://dc.lft.to/lastmile_qr_scan", "android": "https://dc.lft.to/lastmile_qr_scan"}, "is_reserved": 0}, {"lon": -77.02937466666667, "bike_id": "17029bbba1478b6ef0f621b8399cf0e5", "lat": 38.91689233333334, "fusion_lon": 0.0, "fusion_lat": 0.0, "type": "electric_scooter", "name": "17029bbba1478b6ef0f621b8399cf0e5", "is_disabled": 0, "rental_uris": {"ios": "https://dc.lft.to/lastmile_qr_scan", "android": "https://dc.lft.to/lastmile_qr_scan"}, "is_reserved": 0}, {"lon": -77.0240835, "bike_id": "2d510fa50c8a87b04162661973387db1", "lat": 38.91981716666667, "fusion_lon": 0.0, "fusion_lat": 0.0, "type": "electric_scooter", "name": "2d510fa50c8a87b04162661973387db1", "is_disabled": 0, "rental_uris": {"ios": "https://dc.lft.to/lastmile_qr_scan", "android": "https://dc.lft.to/lastmile_qr_scan"}, "is_reserved": 0}, {"lon": -77.033897, "bike_id": "5a20aa76f82b040819f9a8385dd2cb95", "lat": 38.90973316666667, "fusion_lon": 0.0, "fusion_lat": 0.0, "type": "electric_scooter", "name": "5a20aa76f82b040819f9a8385dd2cb95", "is_disabled": 0, "rental_uris": {"ios": "https://dc.lft.to/lastmile_qr_scan", "android": "https://dc.lft.to/lastmile_qr_scan"}, "is_reserved": 0}, {"lon": -77.05276133333334, "bike_id": "af38f0b06da91925c809286218d95394", "lat": 38.927681666666665, "fusion_lon": 0.0, "fusion_lat": 0.0, "type": "electric_scooter", "name": "af38f0b06da91925c809286218d95394", "is_disabled": 0, "rental_uris": {"ios": "https://dc.lft.to/lastmile_qr_scan", "android": "https://dc.lft.to/lastmile_qr_scan"}, "is_reserved": 0}, {"lon": -77.01735116666667, "bike_id": "62bc254a6ed473b815519421e60c083f", "lat": 38.902466833333335, "fusion_lon": 0.0, "fusion_lat": 0.0, "type": "electric_scooter", "name": "62bc254a6ed473b815519421e60c083f", "is_disabled": 0, "rental_uris": {"ios": "https://dc.lft.to/lastmile_qr_scan", "android": "https://dc.lft.to/lastmile_qr_scan"}, "is_reserved": 0}, {"lon": -77.02121333333334, "bike_id": "a7704e8448f193f9ebbc2a417dcf1f35", "lat": 38.909639166666665, "fusion_lon": 0.0, "fusion_lat": 0.0, "type": "electric_scooter", "name": "a7704e8448f193f9ebbc2a417dcf1f35", "is_disabled": 0, "rental_uris": {"ios": "https://dc.lft.to/lastmile_qr_scan", "android": "https://dc.lft.to/lastmile_qr_scan"}, "is_reserved": 0}, {"lon": -77.0218455, "bike_id": "b037901fe99a7472260db2fdbe988e98", "lat": 38.919900166666665, "fusion_lon": 0.0, "fusion_lat": 0.0, "type": "electric_scooter", "name": "b037901fe99a7472260db2fdbe988e98", "is_disabled": 0, "rental_uris": {"ios": "https://dc.lft.to/lastmile_qr_scan", "android": "https://dc.lft.to/lastmile_qr_scan"}, "is_reserved": 0}, {"lon": -77.03855866666666, "bike_id": "a2597382af19fc6293acde3476d56b41", "lat": 38.90667666666667, "fusion_lon": 0.0, "fusion_lat": 0.0, "type": "electric_scooter", "name": "a2597382af19fc6293acde3476d56b41", "is_disabled": 0, "rental_uris": {"ios": "https://dc.lft.to/lastmile_qr_scan", "android": "https://dc.lft.to/lastmile_qr_scan"}, "is_reserved": 0}, {"lon": -77.02760733333334, "bike_id": "afb959e7093f395e7e45c4ea54fb6294", "lat": 38.94401766666667, "fusion_lon": 0.0, "fusion_lat": 0.0, "type": "electric_scooter", "name": "afb959e7093f395e7e45c4ea54fb6294", "is_disabled": 0, "rental_uris": {"ios": "https://dc.lft.to/lastmile_qr_scan", "android": "https://dc.lft.to/lastmile_qr_scan"}, "is_reserved": 0}, {"lon": -77.0587155, "bike_id": "789ea9fc7db16f47cd1825822376ebdf", "lat": 38.93602966666667, "fusion_lon": 0.0, "fusion_lat": 0.0, "type": "electric_scooter", "name": "789ea9fc7db16f47cd1825822376ebdf", "is_disabled": 0, "rental_uris": {"ios": "https://dc.lft.to/lastmile_qr_scan", "android": "https://dc.lft.to/lastmile_qr_scan"}, "is_reserved": 0}, {"lon": -76.975377, "bike_id": "456ff0b49875f3e510bd7e194daecb13", "lat": 38.903267666666665, "fusion_lon": 0.0, "fusion_lat": 0.0, "type": "electric_bike", "name": "456ff0b49875f3e510bd7e194daecb13", "is_disabled": 0, "rental_uris": {"ios": "https://dc.lft.to/lastmile_qr_scan", "android": "https://dc.lft.to/lastmile_qr_scan"}, "is_reserved": 0}, {"lon": -77.02149433333334, "bike_id": "96a37a98abf818026a8cc991b0758118", "lat": 38.9008845, "fusion_lon": 0.0, "fusion_lat": 0.0, "type": "electric_scooter", "name": "96a37a98abf818026a8cc991b0758118", "is_disabled": 0, "rental_uris": {"ios": "https://dc.lft.to/lastmile_qr_scan", "android": "https://dc.lft.to/lastmile_qr_scan"}, "is_reserved": 0}, {"lon": -77.0246385, "bike_id": "61b904b79e0cfd738d0b3016436ef5c8", "lat": 38.90091966666667, "fusion_lon": 0.0, "fusion_lat": 0.0, "type": "electric_scooter", "name": "61b904b79e0cfd738d0b3016436ef5c8", "is_disabled": 0, "rental_uris": {"ios": "https://dc.lft.to/lastmile_qr_scan", "android": "https://dc.lft.to/lastmile_qr_scan"}, "is_reserved": 0}, {"lon": -77.0457035, "bike_id": "74565baddf81a44d0a1c2e2e5106c69e", "lat": 38.916175, "fusion_lon": 0.0, "fusion_lat": 0.0, "type": "electric_scooter", "name": "74565baddf81a44d0a1c2e2e5106c69e", "is_disabled": 0, "rental_uris": {"ios": "https://dc.lft.to/lastmile_qr_scan", "android": "https://dc.lft.to/lastmile_qr_scan"}, "is_reserved": 0}, {"lon": -77.03076166666666, "bike_id": "76509207c41c84dfac055db3f6626882", "lat": 38.902547, "fusion_lon": 0.0, "fusion_lat": 0.0, "type": "electric_scooter", "name": "76509207c41c84dfac055db3f6626882", "is_disabled": 0, "rental_uris": {"ios": "https://dc.lft.to/lastmile_qr_scan", "android": "https://dc.lft.to/lastmile_qr_scan"}, "is_reserved": 0}, {"lon": -77.03413216666667, "bike_id": "6b9d348893e96893895a3e003456d361", "lat": 38.923166, "fusion_lon": 0.0, "fusion_lat": 0.0, "type": "electric_scooter", "name": "6b9d348893e96893895a3e003456d361", "is_disabled": 0, "rental_uris": {"ios": "https://dc.lft.to/lastmile_qr_scan", "android": "https://dc.lft.to/lastmile_qr_scan"}, "is_reserved": 0}, {"lon": -76.99356733333333, "bike_id": "b6323bcfcd751cb06a83205092b95279", "lat": 38.84500933333333, "fusion_lon": 0.0, "fusion_lat": 0.0, "type": "electric_bike", "name": "b6323bcfcd751cb06a83205092b95279", "is_disabled": 0, "rental_uris": {"ios": "https://dc.lft.to/lastmile_qr_scan", "android": "https://dc.lft.to/lastmile_qr_scan"}, "is_reserved": 0}, {"lon": -77.02650183333333, "bike_id": "3aca5a0ec147d8c95843431dc08961f4", "lat": 38.938659333333334, "fusion_lon": 0.0, "fusion_lat": 0.0, "type": "electric_scooter", "name": "3aca5a0ec147d8c95843431dc08961f4", "is_disabled": 0, "rental_uris": {"ios": "https://dc.lft.to/lastmile_qr_scan", "android": "https://dc.lft.to/lastmile_qr_scan"}, "is_reserved": 0}, {"lon": -77.03116716666666, "bike_id": "8d0ee70baecf1fcd7faf040ee48b27f8", "lat": 38.9156175, "fusion_lon": 0.0, "fusion_lat": 0.0, "type": "electric_scooter", "name": "8d0ee70baecf1fcd7faf040ee48b27f8", "is_disabled": 0, "rental_uris": {"ios": "https://dc.lft.to/lastmile_qr_scan", "android": "https://dc.lft.to/lastmile_qr_scan"}, "is_reserved": 0}, {"lon": -77.026928, "bike_id": "ff4f278e989c81cba05da76c7c79c01f", "lat": 38.909592, "fusion_lon": 0.0, "fusion_lat": 0.0, "type": "electric_bike", "name": "ff4f278e989c81cba05da76c7c79c01f", "is_disabled": 0, "rental_uris": {"ios": "https://dc.lft.to/lastmile_qr_scan", "android": "https://dc.lft.to/lastmile_qr_scan"}, "is_reserved": 0}, {"lon": -77.01057266666666, "bike_id": "6d34b38056b7d4eea99a2e4c8d8b5267", "lat": 38.87867116666666, "fusion_lon": 0.0, "fusion_lat": 0.0, "type": "electric_scooter", "name": "6d34b38056b7d4eea99a2e4c8d8b5267", "is_disabled": 0, "rental_uris": {"ios": "https://dc.lft.to/lastmile_qr_scan", "android": "https://dc.lft.to/lastmile_qr_scan"}, "is_reserved": 0}, {"lon": -77.022865, "bike_id": "2d9f1ea8d88d7b7d9915bc9f469720ed", "lat": 38.9121445, "fusion_lon": 0.0, "fusion_lat": 0.0, "type": "electric_scooter", "name": "2d9f1ea8d88d7b7d9915bc9f469720ed", "is_disabled": 0, "rental_uris": {"ios": "https://dc.lft.to/lastmile_qr_scan", "android": "https://dc.lft.to/lastmile_qr_scan"}, "is_reserved": 0}, {"lon": -77.05131083333333, "bike_id": "1b7172df2e3b47c35a0d5e0cd4b3a992", "lat": 38.9059245, "fusion_lon": 0.0, "fusion_lat": 0.0, "type": "electric_scooter", "name": "1b7172df2e3b47c35a0d5e0cd4b3a992", "is_disabled": 0, "rental_uris": {"ios": "https://dc.lft.to/lastmile_qr_scan", "android": "https://dc.lft.to/lastmile_qr_scan"}, "is_reserved": 0}, {"lon": -76.97302383333333, "bike_id": "4a5d0ccdd723c0e65f7dd6676e67980e", "lat": 38.916396166666665, "fusion_lon": 0.0, "fusion_lat": 0.0, "type": "electric_scooter", "name": "4a5d0ccdd723c0e65f7dd6676e67980e", "is_disabled": 0, "rental_uris": {"ios": "https://dc.lft.to/lastmile_qr_scan", "android": "https://dc.lft.to/lastmile_qr_scan"}, "is_reserved": 0}, {"lon": -76.9996315, "bike_id": "66a76af4cdc31af5696b045521c44163", "lat": 38.90849033333333, "fusion_lon": 0.0, "fusion_lat": 0.0, "type": "electric_scooter", "name": "66a76af4cdc31af5696b045521c44163", "is_disabled": 0, "rental_uris": {"ios": "https://dc.lft.to/lastmile_qr_scan", "android": "https://dc.lft.to/lastmile_qr_scan"}, "is_reserved": 0}, {"lon": -76.99882783333334, "bike_id": "612acc8dac6de2afba62ce3e25545a70", "lat": 38.92054, "fusion_lon": 0.0, "fusion_lat": 0.0, "type": "electric_scooter", "name": "612acc8dac6de2afba62ce3e25545a70", "is_disabled": 0, "rental_uris": {"ios": "https://dc.lft.to/lastmile_qr_scan", "android": "https://dc.lft.to/lastmile_qr_scan"}, "is_reserved": 0}, {"lon": -76.933709, "bike_id": "defc434e536e9ed80f8fde1bfeb98b4b", "lat": 38.899125166666664, "fusion_lon": 0.0, "fusion_lat": 0.0, "type": "electric_scooter", "name": "defc434e536e9ed80f8fde1bfeb98b4b", "is_disabled": 0, "rental_uris": {"ios": "https://dc.lft.to/lastmile_qr_scan", "android": "https://dc.lft.to/lastmile_qr_scan"}, "is_reserved": 0}, {"lon": -77.02877366666667, "bike_id": "aae6083ba5666a7c79227eb35e636b99", "lat": 38.932616333333335, "fusion_lon": 0.0, "fusion_lat": 0.0, "type": "electric_scooter", "name": "aae6083ba5666a7c79227eb35e636b99", "is_disabled": 0, "rental_uris": {"ios": "https://dc.lft.to/lastmile_qr_scan", "android": "https://dc.lft.to/lastmile_qr_scan"}, "is_reserved": 0}, {"lon": -76.9836485, "bike_id": "edbd4f8dd39fe9204fee4be3c156c9f1", "lat": 38.861118166666664, "fusion_lon": 0.0, "fusion_lat": 0.0, "type": "electric_scooter", "name": "edbd4f8dd39fe9204fee4be3c156c9f1", "is_disabled": 0, "rental_uris": {"ios": "https://dc.lft.to/lastmile_qr_scan", "android": "https://dc.lft.to/lastmile_qr_scan"}, "is_reserved": 0}, {"lon": -77.0338715, "bike_id": "e461ed145e8b29a2916ab9123f30d625", "lat": 38.920558166666666, "fusion_lon": 0.0, "fusion_lat": 0.0, "type": "electric_scooter", "name": "e461ed145e8b29a2916ab9123f30d625", "is_disabled": 0, "rental_uris": {"ios": "https://dc.lft.to/lastmile_qr_scan", "android": "https://dc.lft.to/lastmile_qr_scan"}, "is_reserved": 0}, {"lon": -77.03765316666667, "bike_id": "c54f936304dd179a48a8e64c9011acce", "lat": 38.907741, "fusion_lon": 0.0, "fusion_lat": 0.0, "type": "electric_scooter", "name": "c54f936304dd179a48a8e64c9011acce", "is_disabled": 0, "rental_uris": {"ios": "https://dc.lft.to/lastmile_qr_scan", "android": "https://dc.lft.to/lastmile_qr_scan"}, "is_reserved": 0}, {"lon": -76.931862, "bike_id": "6e57805a2e3889abb0ec23570974d190", "lat": 38.8988005, "fusion_lon": 0.0, "fusion_lat": 0.0, "type": "electric_scooter", "name": "6e57805a2e3889abb0ec23570974d190", "is_disabled": 0, "rental_uris": {"ios": "https://dc.lft.to/lastmile_qr_scan", "android": "https://dc.lft.to/lastmile_qr_scan"}, "is_reserved": 0}, {"lon": -77.02381833333334, "bike_id": "cdd48be2d97ec1460ed54643e3ca7486", "lat": 38.900281166666666, "fusion_lon": 0.0, "fusion_lat": 0.0, "type": "electric_scooter", "name": "cdd48be2d97ec1460ed54643e3ca7486", "is_disabled": 0, "rental_uris": {"ios": "https://dc.lft.to/lastmile_qr_scan", "android": "https://dc.lft.to/lastmile_qr_scan"}, "is_reserved": 0}, {"lon": -77.053024, "bike_id": "d977bf54cc07e5980a9bec6cb46c5c9d", "lat": 38.92549616666667, "fusion_lon": 0.0, "fusion_lat": 0.0, "type": "electric_scooter", "name": "d977bf54cc07e5980a9bec6cb46c5c9d", "is_disabled": 0, "rental_uris": {"ios": "https://dc.lft.to/lastmile_qr_scan", "android": "https://dc.lft.to/lastmile_qr_scan"}, "is_reserved": 0}, {"lon": -77.0440785, "bike_id": "264b84da9d4b16fdb595c75258aa286c", "lat": 38.929512333333335, "fusion_lon": 0.0, "fusion_lat": 0.0, "type": "electric_scooter", "name": "264b84da9d4b16fdb595c75258aa286c", "is_disabled": 0, "rental_uris": {"ios": "https://dc.lft.to/lastmile_qr_scan", "android": "https://dc.lft.to/lastmile_qr_scan"}, "is_reserved": 0}, {"lon": -77.0445355, "bike_id": "823f899954a9d7dda49e7660517b9006", "lat": 38.919311, "fusion_lon": 0.0, "fusion_lat": 0.0, "type": "electric_scooter", "name": "823f899954a9d7dda49e7660517b9006", "is_disabled": 0, "rental_uris": {"ios": "https://dc.lft.to/lastmile_qr_scan", "android": "https://dc.lft.to/lastmile_qr_scan"}, "is_reserved": 0}, {"lon": -76.99576283333333, "bike_id": "70b286d64d268e7439f288a128ddeef7", "lat": 38.851819166666665, "fusion_lon": 0.0, "fusion_lat": 0.0, "type": "electric_bike", "name": "70b286d64d268e7439f288a128ddeef7", "is_disabled": 0, "rental_uris": {"ios": "https://dc.lft.to/lastmile_qr_scan", "android": "https://dc.lft.to/lastmile_qr_scan"}, "is_reserved": 0}, {"lon": -76.99616916666666, "bike_id": "6bfec6f8b9b2c3c622a42b197ccbe1d6", "lat": 38.8831135, "fusion_lon": 0.0, "fusion_lat": 0.0, "type": "electric_scooter", "name": "6bfec6f8b9b2c3c622a42b197ccbe1d6", "is_disabled": 0, "rental_uris": {"ios": "https://dc.lft.to/lastmile_qr_scan", "android": "https://dc.lft.to/lastmile_qr_scan"}, "is_reserved": 0}, {"lon": -77.03349366666667, "bike_id": "31e13ed98bff3c132c1b6344df218fb3", "lat": 38.947135833333334, "fusion_lon": 0.0, "fusion_lat": 0.0, "type": "electric_scooter", "name": "31e13ed98bff3c132c1b6344df218fb3", "is_disabled": 0, "rental_uris": {"ios": "https://dc.lft.to/lastmile_qr_scan", "android": "https://dc.lft.to/lastmile_qr_scan"}, "is_reserved": 0}, {"lon": -77.0157755, "bike_id": "c54912f8ba55a507932d62da8669bf44", "lat": 38.89467666666667, "fusion_lon": 0.0, "fusion_lat": 0.0, "type": "electric_scooter", "name": "c54912f8ba55a507932d62da8669bf44", "is_disabled": 0, "rental_uris": {"ios": "https://dc.lft.to/lastmile_qr_scan", "android": "https://dc.lft.to/lastmile_qr_scan"}, "is_reserved": 0}, {"lon": -77.032132, "bike_id": "e5ad4f9df01956aab4b80ae49b8885e5", "lat": 38.892161, "fusion_lon": 0.0, "fusion_lat": 0.0, "type": "electric_scooter", "name": "e5ad4f9df01956aab4b80ae49b8885e5", "is_disabled": 0, "rental_uris": {"ios": "https://dc.lft.to/lastmile_qr_scan", "android": "https://dc.lft.to/lastmile_qr_scan"}, "is_reserved": 0}, {"lon": -77.03197583333333, "bike_id": "4dcd9943e59d4411b1eb32c2b46d166b", "lat": 38.91417, "fusion_lon": 0.0, "fusion_lat": 0.0, "type": "electric_scooter", "name": "4dcd9943e59d4411b1eb32c2b46d166b", "is_disabled": 0, "rental_uris": {"ios": "https://dc.lft.to/lastmile_qr_scan", "android": "https://dc.lft.to/lastmile_qr_scan"}, "is_reserved": 0}, {"lon": -77.0388515, "bike_id": "2934d0d003cf86d914d34e66db4ae6df", "lat": 38.91103833333333, "fusion_lon": 0.0, "fusion_lat": 0.0, "type": "electric_scooter", "name": "2934d0d003cf86d914d34e66db4ae6df", "is_disabled": 0, "rental_uris": {"ios": "https://dc.lft.to/lastmile_qr_scan", "android": "https://dc.lft.to/lastmile_qr_scan"}, "is_reserved": 0}, {"lon": -77.04820016666666, "bike_id": "1c1705cf5a0d1a794661912115c1b6f6", "lat": 38.905075, "fusion_lon": 0.0, "fusion_lat": 0.0, "type": "electric_scooter", "name": "1c1705cf5a0d1a794661912115c1b6f6", "is_disabled": 0, "rental_uris": {"ios": "https://dc.lft.to/lastmile_qr_scan", "android": "https://dc.lft.to/lastmile_qr_scan"}, "is_reserved": 0}, {"lon": -77.03826833333333, "bike_id": "49bf72bebfaacfbe42779e4b1a1767f8", "lat": 38.93092733333334, "fusion_lon": 0.0, "fusion_lat": 0.0, "type": "electric_scooter", "name": "49bf72bebfaacfbe42779e4b1a1767f8", "is_disabled": 0, "rental_uris": {"ios": "https://dc.lft.to/lastmile_qr_scan", "android": "https://dc.lft.to/lastmile_qr_scan"}, "is_reserved": 0}, {"lon": -76.99772016666667, "bike_id": "d309163fddf3470e82e35a3f3d1fefad", "lat": 38.92283466666667, "fusion_lon": 0.0, "fusion_lat": 0.0, "type": "electric_scooter", "name": "d309163fddf3470e82e35a3f3d1fefad", "is_disabled": 0, "rental_uris": {"ios": "https://dc.lft.to/lastmile_qr_scan", "android": "https://dc.lft.to/lastmile_qr_scan"}, "is_reserved": 0}, {"lon": -76.963622, "bike_id": "ec0e9201d84099546f10c65a3a07e635", "lat": 38.9349995, "fusion_lon": 0.0, "fusion_lat": 0.0, "type": "electric_scooter", "name": "ec0e9201d84099546f10c65a3a07e635", "is_disabled": 0, "rental_uris": {"ios": "https://dc.lft.to/lastmile_qr_scan", "android": "https://dc.lft.to/lastmile_qr_scan"}, "is_reserved": 0}, {"lon": -77.02962, "bike_id": "889c63b241639aec057dddd1ee1d67e3", "lat": 38.90494783333333, "fusion_lon": 0.0, "fusion_lat": 0.0, "type": "electric_scooter", "name": "889c63b241639aec057dddd1ee1d67e3", "is_disabled": 0, "rental_uris": {"ios": "https://dc.lft.to/lastmile_qr_scan", "android": "https://dc.lft.to/lastmile_qr_scan"}, "is_reserved": 0}, {"lon": -77.00067116666666, "bike_id": "694773daf91eaa0420a9ee3102449f8f", "lat": 38.924296, "fusion_lon": 0.0, "fusion_lat": 0.0, "type": "electric_scooter", "name": "694773daf91eaa0420a9ee3102449f8f", "is_disabled": 0, "rental_uris": {"ios": "https://dc.lft.to/lastmile_qr_scan", "android": "https://dc.lft.to/lastmile_qr_scan"}, "is_reserved": 0}, {"lon": -77.0092765, "bike_id": "c1d9383cfe175edbb148aabb21ad6f35", "lat": 38.82782066666667, "fusion_lon": 0.0, "fusion_lat": 0.0, "type": "electric_bike", "name": "c1d9383cfe175edbb148aabb21ad6f35", "is_disabled": 0, "rental_uris": {"ios": "https://dc.lft.to/lastmile_qr_scan", "android": "https://dc.lft.to/lastmile_qr_scan"}, "is_reserved": 0}, {"lon": -77.04230366666667, "bike_id": "308595efc9e591dbb254bb25f582c8b0", "lat": 38.900088833333335, "fusion_lon": 0.0, "fusion_lat": 0.0, "type": "electric_scooter", "name": "308595efc9e591dbb254bb25f582c8b0", "is_disabled": 0, "rental_uris": {"ios": "https://dc.lft.to/lastmile_qr_scan", "android": "https://dc.lft.to/lastmile_qr_scan"}, "is_reserved": 0}, {"lon": -77.0212155, "bike_id": "0eb3b736d14bd50931cab6859622f4bd", "lat": 38.93694633333333, "fusion_lon": 0.0, "fusion_lat": 0.0, "type": "electric_scooter", "name": "0eb3b736d14bd50931cab6859622f4bd", "is_disabled": 0, "rental_uris": {"ios": "https://dc.lft.to/lastmile_qr_scan", "android": "https://dc.lft.to/lastmile_qr_scan"}, "is_reserved": 0}, {"lon": -76.983046, "bike_id": "0d49c46b1f160a2b72352842f69dbcc9", "lat": 38.901089166666665, "fusion_lon": 0.0, "fusion_lat": 0.0, "type": "electric_scooter", "name": "0d49c46b1f160a2b72352842f69dbcc9", "is_disabled": 0, "rental_uris": {"ios": "https://dc.lft.to/lastmile_qr_scan", "android": "https://dc.lft.to/lastmile_qr_scan"}, "is_reserved": 0}, {"lon": -77.0100525, "bike_id": "95075350fcb6b8b2d09a43f4d76a5dd9", "lat": 38.919234333333335, "fusion_lon": 0.0, "fusion_lat": 0.0, "type": "electric_scooter", "name": "95075350fcb6b8b2d09a43f4d76a5dd9", "is_disabled": 0, "rental_uris": {"ios": "https://dc.lft.to/lastmile_qr_scan", "android": "https://dc.lft.to/lastmile_qr_scan"}, "is_reserved": 0}, {"lon": -77.04792366666666, "bike_id": "e1148f9bef6d2a20138c91b263f3506f", "lat": 38.90965216666667, "fusion_lon": 0.0, "fusion_lat": 0.0, "type": "electric_scooter", "name": "e1148f9bef6d2a20138c91b263f3506f", "is_disabled": 0, "rental_uris": {"ios": "https://dc.lft.to/lastmile_qr_scan", "android": "https://dc.lft.to/lastmile_qr_scan"}, "is_reserved": 0}, {"lon": -77.02505383333333, "bike_id": "4b4fc6cbb42417f0c30364d2cb8d3954", "lat": 38.930914666666666, "fusion_lon": 0.0, "fusion_lat": 0.0, "type": "electric_scooter", "name": "4b4fc6cbb42417f0c30364d2cb8d3954", "is_disabled": 0, "rental_uris": {"ios": "https://dc.lft.to/lastmile_qr_scan", "android": "https://dc.lft.to/lastmile_qr_scan"}, "is_reserved": 0},