{"data": {"bikes": [{"is_reserved": 0, "type": "electric_scooter", "bike_id": "7ec30b0e24c3ea5f21d7b61c030cca83", "lat": 38.91035566666667, "lon": -77.00974133333334, "rental_uris": {"android": "https://dc.lft.to/lastmile_qr_scan", "ios": "https://dc.lft.to/lastmile_qr_scan"}, "is_disabled": 0, "fusion_lat": 0.0, "name": "7ec30b0e24c3ea5f21d7b61c030cca83", "fusion_lon": 0.0}, {"is_reserved": 0, "type": "electric_scooter", "bike_id": "727cb6aded901bc40875cc1bdf45a192", "lat": 38.916927, "lon": -77.0359335, "rental_uris": {"android": "https://dc.lft.to/lastmile_qr_scan", "ios": "https://dc.lft.to/lastmile_qr_scan"}, "is_disabled": 0, "fusion_lat": 0.0, "name": "727cb6aded901bc40875cc1bdf45a192", "fusion_lon": 0.0}, {"is_reserved": 0, "type": "electric_scooter", "bike_id": "66d4920f3ab234f8806bf953a15749d6", "lat": 38.922033, "lon": -77.04238116666667, "rental_uris": {"android": "https://dc.lft.to/lastmile_qr_scan", "ios": "https://dc.lft.to/lastmile_qr_scan"}, "is_disabled": 0, "fusion_lat": 0.0, "name": "66d4920f3ab234f8806bf953a15749d6", "fusion_lon": 0.0}, {"is_reserved": 0, "type": "electric_scooter", "bike_id": "265a1cb36e1ffcfe63d4dc7aef093fe2", "lat": 38.897539, "lon": -77.0337175, "rental_uris": {"android": "https://dc.lft.to/lastmile_qr_scan", "ios": "https://dc.lft.to/lastmile_qr_scan"}, "is_disabled": 0, "fusion_lat": 0.0, "name": "265a1cb36e1ffcfe63d4dc7aef093fe2", "fusion_lon": 0.0}, {"is_reserved": 0, "type": "electric_scooter", "bike_id": "a4bc018981f41e7d9cd83933e57e9389", "lat": 38.9515155, "lon": -77.01866, "rental_uris": {"android": "https://dc.lft.to/lastmile_qr_scan", "ios": "https://dc.lft.to/lastmile_qr_scan"}, "is_disabled": 0, "fusion_lat": 0.0, "name": "a4bc018981f41e7d9cd83933e57e9389", "fusion_lon": 0.0}, {"is_reserved": 0, "type": "electric_scooter", "bike_id": "6b46c587f3001efe624bb9000e83a5af", "lat": 38.91814, "lon": -77.03306516666666, "rental_uris": {"android": "https://dc.lft.to/lastmile_qr_scan", "ios": "https://dc.lft.to/lastmile_qr_scan"}, "is_disabled": 0, "fusion_lat": 0.0, "name": "6b46c587f3001efe624bb9000e83a5af", "fusion_lon": 0.0}, {"is_reserved": 0, "type": "electric_scooter", "bike_id": "1adf8aaa347e499a2fefde9643c6f425", "lat": 38.92948166666667, "lon": -77.004052, "rental_uris": {"android": "https://dc.lft.to/lastmile_qr_scan", "ios": "https://dc.lft.to/lastmile_qr_scan"}, "is_disabled": 0, "fusion_lat": 0.0, "name": "1adf8aaa347e499a2fefde9643c6f425", "fusion_lon": 0.0}, {"is_reserved": 0, "type": "electric_scooter", "bike_id": "67366226563a2d8d2a2d348876dd37a1", "lat": 38.90954333333333, "lon": -77.06435916666666, "rental_uris": {"android": "https://dc.lft.to/lastmile_qr_scan", "ios": "https://dc.lft.to/lastmile_qr_scan"}, "is_disabled": 0, "fusion_lat": 0.0, "name": "67366226563a2d8d2a2d348876dd37a1", "fusion_lon": 0.0}, {"is_reserved": 0, "type": "electric_scooter", "bike_id": "1a1ea373f6ca69a5ddda43c9b8364f84", "lat": 38.884069833333335, "lon": -77.03061033333333, "rental_uris": {"android": "https://dc.lft.to/lastmile_qr_scan", "ios": "https://dc.lft.to/lastmile_qr_scan"}, "is_disabled": 0, "fusion_lat": 0.0, "name": "1a1ea373f6ca69a5ddda43c9b8364f84", "fusion_lon": 0.0}, {"is_reserved": 0, "type": "electric_scooter", "bike_id": "75dca683a4baf74cd1b03803fddabb12", "lat": 38.934202, "lon": -77.032879, "rental_uris": {"android": "https://dc.lft.to/lastmile_qr_scan", "ios": "https://dc.lft.to/lastmile_qr_scan"}, "is_disabled": 0, "fusion_lat": 0.0, "name": "75dca683a4baf74cd1b03803fddabb12", "fusion_lon": 0.0}, {"is_reserved": 0, "type": "electric_scooter", "bike_id": "92a36cf6c1d4a2012b289e1056e6c3da", "lat": 38.923209166666666, "lon": -77.0290695, "rental_uris": {"android": "https://dc.lft.to/lastmile_qr_scan", "ios": "https://dc.lft.to/lastmile_qr_scan"}, "is_disabled": 0, "fusion_lat": 0.0, "name": "92a36cf6c1d4a2012b289e1056e6c3da", "fusion_lon": 0.0}, {"is_reserved": 0, "type": "electric_scooter", "bike_id": "cb157fef483d659d2ef59dc582a76b9f", "lat": 38.90455083333333, "lon": -77.05868233333334, "rental_uris": {"android": "https://dc.lft.to/lastmile_qr_scan", "ios": "https://dc.lft.to/lastmile_qr_scan"}, "is_disabled": 0, "fusion_lat": 0.0, "name": "cb157fef483d659d2ef59dc582a76b9f", "fusion_lon": 0.0}, {"is_reserved": 0, "type": "electric_scooter", "bike_id": "13ef6ed213100a0e2c0356039d899694", "lat": 38.940193666666666, "lon": -77.027544, "rental_uris": {"android": "https://dc.lft.to/lastmile_qr_scan", "ios": "https://dc.lft.to/lastmile_qr_scan"}, "is_disabled": 0, "fusion_lat": 0.0, "name": "13ef6ed213100a0e2c0356039d899694", "fusion_lon": 0.0}, {"is_reserved": 0, "type": "electric_scooter", "bike_id": "01caeb90fa13a73bba9b7df494cdff2e", "lat": 38.920560333333334, "lon": -76.99881633333334, "rental_uris": {"android": "https://dc.lft.to/lastmile_qr_scan", "ios": "https://dc.lft.to/lastmile_qr_scan"}, "is_disabled": 0, "fusion_lat": 0.0, "name": "01caeb90fa13a73bba9b7df494cdff2e", "fusion_lon": 0.0}, {"is_reserved": 0, "type": "electric_scooter", "bike_id": "47fa454d60baa9dde9620cf7e411b616", "lat": 38.916507, "lon": -77.02181516666667, "rental_uris": {"android": "https://dc.lft.to/lastmile_qr_scan", "ios": "https://dc.lft.to/lastmile_qr_scan"}, "is_disabled": 0, "fusion_lat": 0.0, "name": "47fa454d60baa9dde9620cf7e411b616", "fusion_lon": 0.0}, {"is_reserved": 0, "type": "electric_scooter", "bike_id": "5d4cbc6e1a3f69058e5b8e4fb273a465", "lat": 38.898878333333336, "lon": -76.93176966666667, "rental_uris": {"android": "https://dc.lft.to/lastmile_qr_scan", "ios": "https://dc.lft.to/lastmile_qr_scan"}, "is_disabled": 0, "fusion_lat": 0.0, "name": "5d4cbc6e1a3f69058e5b8e4fb273a465", "fusion_lon": 0.0}, {"is_reserved": 0, "type": "electric_scooter", "bike_id": "1ebaa4f5c8c684c483d246b980b96f96", "lat": 38.927430333333334, "lon": -77.03276633333333, "rental_uris": {"android": "https://dc.lft.to/lastmile_qr_scan", "ios": "https://dc.lft.to/lastmile_qr_scan"}, "is_disabled": 0, "fusion_lat": 0.0, "name": "1ebaa4f5c8c684c483d246b980b96f96", "fusion_lon": 0.0}, {"is_reserved": 0, "type": "electric_bike", "bike_id": "40867c373f3a75a9a60433f486e43c52", "lat": 38.887583166666666, "lon": -77.08924316666666, "rental_uris": {"android": "https://dc.lft.to/lastmile_qr_scan", "ios": "https://dc.lft.to/lastmile_qr_scan"}, "is_disabled": 0, "fusion_lat": 0.0, "name": "40867c373f3a75a9a60433f486e43c52", "fusion_lon": 0.0}, {"is_reserved": 0, "type": "electric_scooter", "bike_id": "fbb38532e6dfabee3f2b1b9f693911ca", "lat": 38.91643116666667, "lon": -77.0210075, "rental_uris": {"android": "https://dc.lft.to/lastmile_qr_scan", "ios": "https://dc.lft.to/lastmile_qr_scan"}, "is_disabled": 0, "fusion_lat": 0.0, "name": "fbb38532e6dfabee3f2b1b9f693911ca", "fusion_lon": 0.0}, {"is_reserved": 0, "type": "electric_scooter", "bike_id": "f88a3d0d2464016e0b8353f7fd29660f", "lat": 38.9064595, "lon": -77.05135566666667, "rental_uris": {"android": "https://dc.lft.to/lastmile_qr_scan", "ios": "https://dc.lft.to/lastmile_qr_scan"}, "is_disabled": 0, "fusion_lat": 0.0, "name": "f88a3d0d2464016e0b8353f7fd29660f", "fusion_lon": 0.0}, {"is_reserved": 0, "type": "electric_scooter", "bike_id": "f6b2948778c47e1707c0c0729e301f15", "lat": 38.926074666666665, "lon": -77.057056, "rental_uris": {"android": "https://dc.lft.to/lastmile_qr_scan", "ios": "https://dc.lft.to/lastmile_qr_scan"}, "is_disabled": 0, "fusion_lat": 0.0, "name": "f6b2948778c47e1707c0c0729e301f15", "fusion_lon": 0.0}, {"is_reserved": 0, "type": "electric_scooter", "bike_id": "9ee9a8f40504d43a46f68e0f32410ff3", "lat": 38.922247166666665, "lon": -77.04330283333333, "rental_uris": {"android": "https://dc.lft.to/lastmile_qr_scan", "ios": "https://dc.lft.to/lastmile_qr_scan"}, "is_disabled": 0, "fusion_lat": 0.0, "name": "9ee9a8f40504d43a46f68e0f32410ff3", "fusion_lon": 0.0}, {"is_reserved": 0, "type": "electric_scooter", "bike_id": "d2e4340adda2e30eeac1102a979be8a2", "lat": 38.926054666666666, "lon": -77.021575, "rental_uris": {"android": "https://dc.lft.to/lastmile_qr_scan", "ios": "https://dc.lft.to/lastmile_qr_scan"}, "is_disabled": 0, "fusion_lat": 0.0, "name": "d2e4340adda2e30eeac1102a979be8a2", "fusion_lon": 0.0}, {"is_reserved": 0, "type": "electric_scooter", "bike_id": "6eda8104b6be1173664586e3075b9045", "lat": 38.91214983333333, "lon": -77.03841816666667, "rental_uris": {"android": "https://dc.lft.to/lastmile_qr_scan", "ios": "https://dc.lft.to/lastmile_qr_scan"}, "is_disabled": 0, "fusion_lat": 0.0, "name": "6eda8104b6be1173664586e3075b9045", "fusion_lon": 0.0}, {"is_reserved": 0, "type": "electric_scooter", "bike_id": "763efbc3fb40bef2a90f3da2c4416fd2", "lat": 38.910456, "lon": -77.0276015, "rental_uris": {"android": "https://dc.lft.to/lastmile_qr_scan", "ios": "https://dc.lft.to/lastmile_qr_scan"}, "is_disabled": 0, "fusion_lat": 0.0, "name": "763efbc3fb40bef2a90f3da2c4416fd2", "fusion_lon": 0.0}, {"is_reserved": 0, "type": "electric_scooter", "bike_id": "8382893ab9e30c5128dcc6409e1d82a9", "lat": 38.88611683333333, "lon": -76.996563, "rental_uris": {"android": "https://dc.lft.to/lastmile_qr_scan", "ios": "https://dc.lft.to/lastmile_qr_scan"}, "is_disabled": 0, "fusion_lat": 0.0, "name": "8382893ab9e30c5128dcc6409e1d82a9", "fusion_lon": 0.0}, {"is_reserved": 0, "type": "electric_scooter", "bike_id": "7475451f00d50f54c8fd4aba45de5bab", "lat": 38.91814383333333, "lon": -77.04002983333334, "rental_uris": {"android": "https://dc.lft.to/lastmile_qr_scan", "ios": "https://dc.lft.to/lastmile_qr_scan"}, "is_disabled": 0, "fusion_lat": 0.0, "name": "7475451f00d50f54c8fd4aba45de5bab", "fusion_lon": 0.0}, {"is_reserved": 0, "type": "electric_bike", "bike_id": "00465a48491d6b461995b864ec062f22", "lat": 38.955534, "lon": -76.96903483333334, "rental_uris": {"android": "https://dc.lft.to/lastmile_qr_scan", "ios": "https://dc.lft.to/lastmile_qr_scan"}, "is_disabled": 0, "fusion_lat": 0.0, "name": "00465a48491d6b461995b864ec062f22", "fusion_lon": 0.0}, {"is_reserved": 0, "type": "electric_scooter", "bike_id": "555e1ab0cf188e05b36da5f69da879e5", "lat": 38.9369615, "lon": -77.02714433333334, "rental_uris": {"android": "https://dc.lft.to/lastmile_qr_scan", "ios": "https://dc.lft.to/lastmile_qr_scan"}, "is_disabled": 0, "fusion_lat": 0.0, "name": "555e1ab0cf188e05b36da5f69da879e5", "fusion_lon": 0.0}, {"is_reserved": 0, "type": "electric_scooter", "bike_id": "1071d6e4447335aa2f7d637c7d192c21", "lat": 38.92484066666667, "lon": -77.02651766666666, "rental_uris": {"android": "https://dc.lft.to/lastmile_qr_scan", "ios": "https://dc.lft.to/lastmile_qr_scan"}, "is_disabled": 0, "fusion_lat": 0.0, "name": "1071d6e4447335aa2f7d637c7d192c21", "fusion_lon": 0.0}, {"is_reserved": 0, "type": "electric_scooter", "bike_id": "29046a9467cf95038cbe11aa8cd67317", "lat": 38.90037266666667, "lon": -77.02409933333334, "rental_uris": {"android": "https://dc.lft.to/lastmile_qr_scan", "ios": "https://dc.lft.to/lastmile_qr_scan"}, "is_disabled": 0, "fusion_lat": 0.0, "name": "29046a9467cf95038cbe11aa8cd67317", "fusion_lon": 0.0}, {"is_reserved": 0, "type": "electric_scooter", "bike_id": "9e5ffad8531b8aea59b070286b9f9668", "lat": 38.898524333333334, "lon": -76.92751366666667, "rental_uris": {"android": "https://dc.lft.to/lastmile_qr_scan", "ios": "https://dc.lft.to/lastmile_qr_scan"}, "is_disabled": 0, "fusion_lat": 0.0, "name": "9e5ffad8531b8aea59b070286b9f9668", "fusion_lon": 0.0}, {"is_reserved": 0, "type": "electric_scooter", "bike_id": "e16869ef9c3ef757e8b864765762610c", "lat": 38.94440183333333, "lon": -77.02913466666666, "rental_uris": {"android": "https://dc.lft.to/lastmile_qr_scan", "ios": "https://dc.lft.to/lastmile_qr_scan"}, "is_disabled": 0, "fusion_lat": 0.0, "name": "e16869ef9c3ef757e8b864765762610c", "fusion_lon": 0.0}, {"is_reserved": 0, "type": "electric_scooter", "bike_id": "8e28bebc819c06e0bcf380eed0fc0116", "lat": 38.9121665, "lon": -77.02715383333333, "rental_uris": {"android": "https://dc.lft.to/lastmile_qr_scan", "ios": "https://dc.lft.to/lastmile_qr_scan"}, "is_disabled": 0, "fusion_lat": 0.0, "name": "8e28bebc819c06e0bcf380eed0fc0116", "fusion_lon": 0.0}, {"is_reserved": 0, "type": "electric_scooter", "bike_id": "7dd1bb28ca6398173e28be0a91ca0b91", "lat": 38.906709, "lon": -76.980261, "rental_uris": {"android": "https://dc.lft.to/lastmile_qr_scan", "ios": "https://dc.lft.to/lastmile_qr_scan"}, "is_disabled": 0, "fusion_lat": 0.0, "name": "7dd1bb28ca6398173e28be0a91ca0b91", "fusion_lon": 0.0}, {"is_reserved": 0, "type": "electric_scooter", "bike_id": "999b17fb36c3cf14130525f65dbe9617", "lat": 38.8716255, "lon": -77.01352866666667, "rental_uris": {"android": "https://dc.lft.to/lastmile_qr_scan", "ios": "https://dc.lft.to/lastmile_qr_scan"}, "is_disabled": 0, "fusion_lat": 0.0, "name": "999b17fb36c3cf14130525f65dbe9617", "fusion_lon": 0.0}, {"is_reserved": 0, "type": "electric_scooter", "bike_id": "88f1c0a976c7554f618498d2474574ee", "lat": 38.93295483333333, "lon": -77.02473616666667, "rental_uris": {"android": "https://dc.lft.to/lastmile_qr_scan", "ios": "https://dc.lft.to/lastmile_qr_scan"}, "is_disabled": 0, "fusion_lat": 0.0, "name": "88f1c0a976c7554f618498d2474574ee", "fusion_lon": 0.0}, {"is_reserved": 0, "type": "electric_scooter", "bike_id": "1bc494b61794b574755129fc9ad27b43", "lat": 38.9300615, "lon": -77.01822316666667, "rental_uris": {"android": "https://dc.lft.to/lastmile_qr_scan", "ios": "https://dc.lft.to/lastmile_qr_scan"}, "is_disabled": 0, "fusion_lat": 0.0, "name": "1bc494b61794b574755129fc9ad27b43", "fusion_lon": 0.0}, {"is_reserved": 0, "type": "electric_scooter", "bike_id": "9deb01b07806fa3efb5efc4fc7a8d095", "lat": 38.908481333333334, "lon": -77.02591916666667, "rental_uris": {"android": "https://dc.lft.to/lastmile_qr_scan", "ios": "https://dc.lft.to/lastmile_qr_scan"}, "is_disabled": 0, "fusion_lat": 0.0, "name": "9deb01b07806fa3efb5efc4fc7a8d095", "fusion_lon": 0.0}, {"is_reserved": 0, "type": "electric_scooter", "bike_id": "03a9f3534a451ce5745b29ac8ee7d7bf", "lat": 38.90011466666667, "lon": -76.9302755, "rental_uris": {"android": "https://dc.lft.to/lastmile_qr_scan", "ios": "https://dc.lft.to/lastmile_qr_scan"}, "is_disabled": 0, "fusion_lat": 0.0, "name": "03a9f3534a451ce5745b29ac8ee7d7bf", "fusion_lon": 0.0}, {"is_reserved": 0, "type": "electric_scooter", "bike_id": "c751b78857507e920a78c62a5ce004d1", "lat": 38.920298333333335, "lon": -77.04205233333333, "rental_uris": {"android": "https://dc.lft.to/lastmile_qr_scan", "ios": "https://dc.lft.to/lastmile_qr_scan"}, "is_disabled": 0, "fusion_lat": 0.0, "name": "c751b78857507e920a78c62a5ce004d1", "fusion_lon": 0.0}, {"is_reserved": 0, "type": "electric_scooter", "bike_id": "70fa96f7e49f0b844e127627627b17c7", "lat": 38.896180666666666, "lon": -76.9768375, "rental_uris": {"android": "https://dc.lft.to/lastmile_qr_scan", "ios": "https://dc.lft.to/lastmile_qr_scan"}, "is_disabled": 0, "fusion_lat": 0.0, "name": "70fa96f7e49f0b844e127627627b17c7", "fusion_lon": 0.0}, {"is_reserved": 0, "type": "electric_scooter", "bike_id": "c8e969674b95a5a4ca52a71409e83ab8", "lat": 38.920639333333334, "lon": -77.02369283333333, "rental_uris": {"android": "https://dc.lft.to/lastmile_qr_scan", "ios": "https://dc.lft.to/lastmile_qr_scan"}, "is_disabled": 0, "fusion_lat": 0.0, "name": "c8e969674b95a5a4ca52a71409e83ab8", "fusion_lon": 0.0}, {"is_reserved": 0, "type": "electric_scooter", "bike_id": "e40bfe1c3069ec1ff6ae3a8e949de4d2", "lat": 38.88393633333333, "lon": -76.930453, "rental_uris": {"android": "https://dc.lft.to/lastmile_qr_scan", "ios": "https://dc.lft.to/lastmile_qr_scan"}, "is_disabled": 0, "fusion_lat": 0.0, "name": "e40bfe1c3069ec1ff6ae3a8e949de4d2", "fusion_lon": 0.0}, {"is_reserved": 0, "type": "electric_scooter", "bike_id": "ceee71e4e9781d91986fb02da63775da", "lat": 38.89650316666667, "lon": -76.99027983333333, "rental_uris": {"android": "https://dc.lft.to/lastmile_qr_scan", "ios": "https://dc.lft.to/lastmile_qr_scan"}, "is_disabled": 0, "fusion_lat": 0.0, "name": "ceee71e4e9781d91986fb02da63775da", "fusion_lon": 0.0}, {"is_reserved": 0, "type": "electric_scooter", "bike_id": "eb3ef0eda48d658aff157a0bd3374fc1", "lat": 38.879234, "lon": -77.02153083333333, "rental_uris": {"android": "https://dc.lft.to/lastmile_qr_scan", "ios": "https://dc.lft.to/lastmile_qr_scan"}, "is_disabled": 0, "fusion_lat": 0.0, "name": "eb3ef0eda48d658aff157a0bd3374fc1", "fusion_lon": 0.0}, {"is_reserved": 0, "type": "electric_scooter", "bike_id": "59b7077ea626b67bfa45b7dbf78bc0d6", "lat": 38.899516166666665, "lon": -77.02014783333334, "rental_uris": {"android": "https://dc.lft.to/lastmile_qr_scan", "ios": "https://dc.lft.to/lastmile_qr_scan"}, "is_disabled": 0, "fusion_lat": 0.0, "name": "59b7077ea626b67bfa45b7dbf78bc0d6", "fusion_lon": 0.0}, {"is_reserved": 0, "type": "electric_scooter", "bike_id": "1376d1db5e2bb412c813f0b1ff24073b", "lat": 38.92316233333333, "lon": -77.029732, "rental_uris": {"android": "https://dc.lft.to/lastmile_qr_scan", "ios": "https://dc.lft.to/lastmile_qr_scan"}, "is_disabled": 0, "fusion_lat": 0.0, "name": "1376d1db5e2bb412c813f0b1ff24073b", "fusion_lon": 0.0}, {"is_reserved": 0, "type": "electric_scooter", "bike_id": "d7d4d2f5cdca3c4e3dd6658900665d71", "lat": 38.91742516666667, "lon": -77.00923433333334, "rental_uris": {"android": "https://dc.lft.to/lastmile_qr_scan", "ios": "https://dc.lft.to/lastmile_qr_scan"}, "is_disabled": 0, "fusion_lat": 0.0, "name": "d7d4d2f5cdca3c4e3dd6658900665d71", "fusion_lon": 0.0}, {"is_reserved": 0, "type": "electric_scooter", "bike_id": "48bd49ed351e60c62183450a1ad329c7", "lat": 38.89267733333333, "lon": -76.92995433333333, "rental_uris": {"android": "https://dc.lft.to/lastmile_qr_scan", "ios": "https://dc.lft.to/lastmile_qr_scan"}, "is_disabled": 0, "fusion_lat": 0.0, "name": "48bd49ed351e60c62183450a1ad329c7", "fusion_lon": 0.0}, {"is_reserved": 0, "type": "electric_scooter", "bike_id": "843c11c5d796dc77c464907e62c7222d", "lat": 38.90187383333333, "lon": -77.0337875, "rental_uris": {"android": "https://dc.lft.to/lastmile_qr_scan", "ios": "https://dc.lft.to/lastmile_qr_scan"}, "is_disabled": 0, "fusion_lat": 0.0, "name": "843c11c5d796dc77c464907e62c7222d", "fusion_lon": 0.0}, {"is_reserved": 0, "type": "electric_bike", "bike_id": "a0ae4e7201227dbcbc8c6fc805f3ce57", "lat": 38.917079, "lon": -77.05718433333334, "rental_uris": {"android": "https://dc.lft.to/lastmile_qr_scan", "ios": "https://dc.lft.to/lastmile_qr_scan"}, "is_disabled": 0, "fusion_lat": 0.0, "name": "a0ae4e7201227dbcbc8c6fc805f3ce57", "fusion_lon": 0.0}, {"is_reserved": 0, "type": "electric_scooter", "bike_id": "2527f0e4ed863d16583a13175537920a", "lat": 38.922807, "lon": -77.02124066666667, "rental_uris": {"android": "https://dc.lft.to/lastmile_qr_scan", "ios": "https://dc.lft.to/lastmile_qr_scan"}, "is_disabled": 0, "fusion_lat": 0.0, "name": "2527f0e4ed863d16583a13175537920a", "fusion_lon": 0.0}, {"is_reserved": 0, "type": "electric_scooter", "bike_id": "52e5143ff77298359547e6c4a36d7c96", "lat": 38.92558016666667, "lon": -77.03224166666666, "rental_uris": {"android": "https://dc.lft.to/lastmile_qr_scan", "ios": "https://dc.lft.to/lastmile_qr_scan"}, "is_disabled": 0, "fusion_lat": 0.0, "name": "52e5143ff77298359547e6c4a36d7c96", "fusion_lon": 0.0}, {"is_reserved": 0, "type": "electric_scooter", "bike_id": "81f6220d8b35f29d3d715be079d0ff9c", "lat": 38.91495, "lon": -77.019928, "rental_uris": {"android": "https://dc.lft.to/lastmile_qr_scan", "ios": "https://dc.lft.to/lastmile_qr_scan"}, "is_disabled": 0, "fusion_lat": 0.0, "name": "81f6220d8b35f29d3d715be079d0ff9c", "fusion_lon": 0.0}, {"is_reserved": 0, "type": "electric_scooter", "bike_id": "0a4cfdc4828ef914c0d99af4b397d2d5", "lat": 38.911938166666665, "lon": -77.0054375, "rental_uris": {"android": "https://dc.lft.to/lastmile_qr_scan", "ios": "https://dc.lft.to/lastmile_qr_scan"}, "is_disabled": 0, "fusion_lat": 0.0, "name": "0a4cfdc4828ef914c0d99af4b397d2d5", "fusion_lon": 0.0}, {"is_reserved": 0, "type": "electric_scooter", "bike_id": "3dda52c7cd6e4808d18614c72e7c1d15", "lat": 38.92326766666667, "lon": -77.02963516666667, "rental_uris": {"android": "https://dc.lft.to/lastmile_qr_scan", "ios": "https://dc.lft.to/lastmile_qr_scan"}, "is_disabled": 0, "fusion_lat": 0.0, "name": "3dda52c7cd6e4808d18614c72e7c1d15", "fusion_lon": 0.0}, {"is_reserved": 0, "type": "electric_scooter", "bike_id": "1193bb6215f3d8a815cc86cb0b6798d4", "lat": 38.913988833333335, "lon": -77.03181183333334, "rental_uris": {"android": "https://dc.lft.to/lastmile_qr_scan", "ios": "https://dc.lft.to/lastmile_qr_scan"}, "is_disabled": 0, "fusion_lat": 0.0, "name": "1193bb6215f3d8a815cc86cb0b6798d4", "fusion_lon": 0.0}, {"is_reserved": 0, "type": "electric_scooter", "bike_id": "983945195b865f6e3fc9c98b215a3f0d", "lat": 38.92446666666667, "lon": -77.02166433333333, "rental_uris": {"android": "https://dc.lft.to/lastmile_qr_scan", "ios": "https://dc.lft.to/lastmile_qr_scan"}, "is_disabled": 0, "fusion_lat": 0.0, "name": "983945195b865f6e3fc9c98b215a3f0d", "fusion_lon": 0.0}, {"is_reserved": 0, "type": "electric_scooter", "bike_id": "0f16d5b977530c70e84889e6547ac007", "lat": 38.939553333333336, "lon": -77.02758, "rental_uris": {"android": "https://dc.lft.to/lastmile_qr_scan", "ios": "https://dc.lft.to/lastmile_qr_scan"}, "is_disabled": 0, "fusion_lat": 0.0, "name": "0f16d5b977530c70e84889e6547ac007", "fusion_lon": 0.0}, {"is_reserved": 0, "type": "electric_scooter", "bike_id": "fb8de65503c6a2f65a14bd9803d9c5eb", "lat": 38.89274483333333, "lon": -76.99258766666667, "rental_uris": {"android": "https://dc.lft.to/lastmile_qr_scan", "ios": "https://dc.lft.to/lastmile_qr_scan"}, "is_disabled": 0, "fusion_lat": 0.0, "name": "fb8de65503c6a2f65a14bd9803d9c5eb", "fusion_lon": 0.0}, {"is_reserved": 0, "type": "electric_scooter", "bike_id": "a5f696ac583bafe94940f99e15a6e92f", "lat": 38.9079085, "lon": -77.04252316666667, "rental_uris": {"android": "https://dc.lft.to/lastmile_qr_scan", "ios": "https://dc.lft.to/lastmile_qr_scan"}, "is_disabled": 0, "fusion_lat": 0.0, "name": "a5f696ac583bafe94940f99e15a6e92f", "fusion_lon": 0.0}, {"is_reserved": 0, "type": "electric_scooter", "bike_id": "7ac6cf394d0cbef305f93441d3844d9f", "lat": 38.87585266666667, "lon": -77.01994716666667, "rental_uris": {"android": "https://dc.lft.to/lastmile_qr_scan", "ios": "https://dc.lft.to/lastmile_qr_scan"}, "is_disabled": 0, "fusion_lat": 0.0, "name": "7ac6cf394d0cbef305f93441d3844d9f", "fusion_lon": 0.0}, {"is_reserved": 0, "type": "electric_scooter", "bike_id": "d087ac0e6442ecf209f32721b72ad9ac", "lat": 38.92423266666667, "lon": -77.01973483333333, "rental_uris": {"android": "https://dc.lft.to/lastmile_qr_scan", "ios": "https://dc.lft.to/lastmile_qr_scan"}, "is_disabled": 0, "fusion_lat": 0.0, "name": "d087ac0e6442ecf209f32721b72ad9ac", "fusion_lon": 0.0}, {"is_reserved": 0, "type": "electric_scooter", "bike_id": "2034dc31ca1f83fe92e370ce0ed5ee7d", "lat": 38.919684833333335, "lon": -77.02223533333333, "rental_uris": {"android": "https://dc.lft.to/lastmile_qr_scan", "ios": "https://dc.lft.to/lastmile_qr_scan"}, "is_disabled": 0, "fusion_lat": 0.0, "name": "2034dc31ca1f83fe92e370ce0ed5ee7d", "fusion_lon": 0.0}, {"is_reserved": 0, "type": "electric_scooter", "bike_id": "c71e2c845fbd97c7f32cea751d41ff92", "lat": 38.9200105, "lon": -77.07139833333333, "rental_uris": {"android": "https://dc.lft.to/lastmile_qr_scan", "ios": "https://dc.lft.to/lastmile_qr_scan"}, "is_disabled": 0, "fusion_lat": 0.0, "name": "c71e2c845fbd97c7f32cea751d41ff92", "fusion_lon": 0.0}, {"is_reserved": 0, "type": "electric_scooter", "bike_id": "5c6e138b72b94be299043eea037de942", "lat": 38.89957033333334, "lon": -77.04760233333333, "rental_uris": {"android": "https://dc.lft.to/lastmile_qr_scan", "ios": "https://dc.lft.to/lastmile_qr_scan"}, "is_disabled": 0, "fusion_lat": 0.0, "name": "5c6e138b72b94be299043eea037de942", "fusion_lon": 0.0}, {"is_reserved": 0, "type": "electric_scooter", "bike_id": "123dad71fac37bfc93b584a3b50bc0b9", "lat": 38.892284833333335, "lon": -77.04356883333334, "rental_uris": {"android": "https://dc.lft.to/lastmile_qr_scan", "ios": "https://dc.lft.to/lastmile_qr_scan"}, "is_disabled": 0, "fusion_lat": 0.0, "name": "123dad71fac37bfc93b584a3b50bc0b9", "fusion_lon": 0.0}, {"is_reserved": 0, "type": "electric_scooter", "bike_id": "0d0036bbe0d377358b49d9f4d9390e77", "lat": 38.9275265, "lon": -77.0330785, "rental_uris": {"android": "https://dc.lft.to/lastmile_qr_scan", "ios": "https://dc.lft.to/lastmile_qr_scan"}, "is_disabled": 0, "fusion_lat": 0.0, "name": "0d0036bbe0d377358b49d9f4d9390e77", "fusion_lon": 0.0}, {"is_reserved": 0, "type": "electric_scooter", "bike_id": "45ba3e2ee47707d363fa834c0f589299", "lat": 38.905593833333334, "lon": -77.00584816666667, "rental_uris": {"android": "https://dc.lft.to/lastmile_qr_scan", "ios": "https://dc.lft.to/lastmile_qr_scan"}, "is_disabled": 0, "fusion_lat": 0.0, "name": "45ba3e2ee47707d363fa834c0f589299", "fusion_lon": 0.0}, {"is_reserved": 0, "type": "electric_scooter", "bike_id": "5a99d9088784db49b31ea69762fdd688", "lat": 38.91838116666667, "lon": -77.014716, "rental_uris": {"android": "https://dc.lft.to/lastmile_qr_scan", "ios": "https://dc.lft.to/lastmile_qr_scan"}, "is_disabled": 0, "fusion_lat": 0.0, "name": "5a99d9088784db49b31ea69762fdd688", "fusion_lon": 0.0}, {"is_reserved": 0, "type": "electric_scooter", "bike_id": "1969fb8920c6a60928bc0004ffce4b0a", "lat": 38.91002483333333, "lon": -77.028089, "rental_uris": {"android": "https://dc.lft.to/lastmile_qr_scan", "ios": "https://dc.lft.to/lastmile_qr_scan"}, "is_disabled": 0, "fusion_lat": 0.0, "name": "1969fb8920c6a60928bc0004ffce4b0a", "fusion_lon": 0.0}, {"is_reserved": 0, "type": "electric_scooter", "bike_id": "b3ca2e3ee5c92247a61d2b13ad372d95", "lat": 38.89943983333333, "lon": -76.97706, "rental_uris": {"android": "https://dc.lft.to/lastmile_qr_scan", "ios": "https://dc.lft.to/lastmile_qr_scan"}, "is_disabled": 0, "fusion_lat": 0.0, "name": "b3ca2e3ee5c92247a61d2b13ad372d95", "fusion_lon": 0.0}, {"is_reserved": 0, "type": "electric_scooter", "bike_id": "f7ce33d7f9baf00fb7a05ce5c2d22b2e", "lat": 38.914127666666666, "lon": -77.04153483333333, "rental_uris": {"android": "https://dc.lft.to/lastmile_qr_scan", "ios": "https://dc.lft.to/lastmile_qr_scan"}, "is_disabled": 0, "fusion_lat": 0.0, "name": "f7ce33d7f9baf00fb7a05ce5c2d22b2e", "fusion_lon": 0.0}, {"is_reserved": 0, "type": "electric_scooter", "bike_id": "f8e190ef1c49f490a73a18bc3dde6b39", "lat": 38.863812, "lon": -76.99062416666666, "rental_uris": {"android": "https://dc.lft.to/lastmile_qr_scan", "ios": "https://dc.lft.to/lastmile_qr_scan"}, "is_disabled": 0, "fusion_lat": 0.0, "name": "f8e190ef1c49f490a73a18bc3dde6b39", "fusion_lon": 0.0}, {"is_reserved": 0, "type": "electric_bike", "bike_id": "7009f14427263de44ec4db80502dbe15", "lat": 39.00036583333333, "lon": -77.04743083333334, "rental_uris": {"android": "https://dc.lft.to/lastmile_qr_scan", "ios": "https://dc.lft.to/lastmile_qr_scan"}, "is_disabled": 0, "fusion_lat": 0.0, "name": "7009f14427263de44ec4db80502dbe15", "fusion_lon": 0.0}, {"is_reserved": 0, "type": "electric_scooter", "bike_id": "e6f3d9f3ab4bbe85e734b3b0ac2925b8", "lat": 38.9057655, "lon": -77.00560583333333, "rental_uris": {"android": "https://dc.lft.to/lastmile_qr_scan", "ios": "https://dc.lft.to/lastmile_qr_scan"}, "is_disabled": 0, "fusion_lat": 0.0, "name": "e6f3d9f3ab4bbe85e734b3b0ac2925b8", "fusion_lon": 0.0}, {"is_reserved": 0, "type": "electric_scooter", "bike_id": "3b8a0743896e365fc3780be02ea00afd", "lat": 38.911546, "lon": -77.02291033333333, "rental_uris": {"android": "https://dc.lft.to/lastmile_qr_scan", "ios": "https://dc.lft.to/lastmile_qr_scan"}, "is_disabled": 0, "fusion_lat": 0.0, "name": "3b8a0743896e365fc3780be02ea00afd", "fusion_lon": 0.0}, {"is_reserved": 0, "type": "electric_scooter", "bike_id": "d137677d966e01dfd4622ff439ad7e31", "lat": 38.916946, "lon": -77.03180133333333, "rental_uris": {"android": "https://dc.lft.to/lastmile_qr_scan", "ios": "https://dc.lft.to/lastmile_qr_scan"}, "is_disabled": 0, "fusion_lat": 0.0, "name": "d137677d966e01dfd4622ff439ad7e31", "fusion_lon": 0.0}, {"is_reserved": 0, "type": "electric_scooter", "bike_id": "0b22e08f5e8101fd62bad20794b1ef3c", "lat": 38.91062183333333, "lon": -77.04106883333333, "rental_uris": {"android": "https://dc.lft.to/lastmile_qr_scan", "ios": "https://dc.lft.to/lastmile_qr_scan"}, "is_disabled": 0, "fusion_lat": 0.0, "name": "0b22e08f5e8101fd62bad20794b1ef3c", "fusion_lon": 0.0}, {"is_reserved": 0, "type": "electric_scooter", "bike_id": "cf1343743f808a3f66881d49557ef8af", "lat": 38.87659133333333, "lon": -76.99324116666666, "rental_uris": {"android": "https://dc.lft.to/lastmile_qr_scan", "ios": "https://dc.lft.to/lastmile_qr_scan"}, "is_disabled": 0, "fusion_lat": 0.0, "name": "cf1343743f808a3f66881d49557ef8af", "fusion_lon": 0.0}, {"is_reserved": 0, "type": "electric_scooter", "bike_id": "bc5fbd267263786decfbc452eb124361", "lat": 38.919387, "lon": -77.02511483333333, "rental_uris": {"android": "https://dc.lft.to/lastmile_qr_scan", "ios": "https://dc.lft.to/lastmile_qr_scan"}, "is_disabled": 0, "fusion_lat": 0.0, "name": "bc5fbd267263786decfbc452eb124361", "fusion_lon": 0.0}, {"is_reserved": 0, "type": "electric_scooter", "bike_id": "c8f6a291e06d7b4eb9047a3053b61154", "lat": 38.899810333333335, "lon": -77.0448355, "rental_uris": {"android": "https://dc.lft.to/lastmile_qr_scan", "ios": "https://dc.lft.to/lastmile_qr_scan"}, "is_disabled": 0, "fusion_lat": 0.0, "name": "c8f6a291e06d7b4eb9047a3053b61154", "fusion_lon": 0.0}, {"is_reserved": 0, "type": "electric_scooter", "bike_id": "6347b6e689bb914b1facb1f095e02805", "lat": 38.92414133333333, "lon": -77.0297935, "rental_uris": {"android": "https://dc.lft.to/lastmile_qr_scan", "ios": "https://dc.lft.to/lastmile_qr_scan"}, "is_disabled": 0, "fusion_lat": 0.0, "name": "6347b6e689bb914b1facb1f095e02805", "fusion_lon": 0.0}, {"is_reserved": 0, "type": "electric_scooter", "bike_id": "80c3745761309247de40d266c5e49650", "lat": 38.9208735, "lon": -77.03566883333333, "rental_uris": {"android": "https://dc.lft.to/lastmile_qr_scan", "ios": "https://dc.lft.to/lastmile_qr_scan"}, "is_disabled": 0, "fusion_lat": 0.0, "name": "80c3745761309247de40d266c5e49650", "fusion_lon": 0.0}, {"is_reserved": 0, "type": "electric_scooter", "bike_id": "ec095f9d20e856fdd1adc80e4781797c", "lat": 38.9041395, "lon": -76.97328816666666, "rental_uris": {"android": "https://dc.lft.to/lastmile_qr_scan", "ios": "https://dc.lft.to/lastmile_qr_scan"}, "is_disabled": 0, "fusion_lat": 0.0, "name": "ec095f9d20e856fdd1adc80e4781797c", "fusion_lon": 0.0}, {"is_reserved": 0, "type": "electric_scooter", "bike_id": "f9c531f31a8c3ebfdc3cd36a7854ba30", "lat": 38.915885, "lon": -77.04513733333333, "rental_uris": {"android": "https://dc.lft.to/lastmile_qr_scan", "ios": "https://dc.lft.to/lastmile_qr_scan"}, "is_disabled": 0, "fusion_lat": 0.0, "name": "f9c531f31a8c3ebfdc3cd36a7854ba30", "fusion_lon": 0.0}, {"is_reserved": 0, "type": "electric_scooter", "bike_id": "6baba71278c5176e50b64749b235b63a", "lat": 38.92977033333333, "lon": -77.03188583333333, "rental_uris": {"android": "https://dc.lft.to/lastmile_qr_scan", "ios": "https://dc.lft.to/lastmile_qr_scan"}, "is_disabled": 0, "fusion_lat": 0.0, "name": "6baba71278c5176e50b64749b235b63a", "fusion_lon": 0.0}, {"is_reserved": 0, "type": "electric_scooter", "bike_id": "39aa38cfe45698dd694eab6de4d76eb9", "lat": 38.91615783333334, "lon": -77.02297216666666, "rental_uris": {"android": "https://dc.lft.to/lastmile_qr_scan", "ios": "https://dc.lft.to/lastmile_qr_scan"}, "is_disabled": 0, "fusion_lat": 0.0, "name": "39aa38cfe45698dd694eab6de4d76eb9", "fusion_lon": 0.0}, {"is_reserved": 0, "type": "electric_scooter", "bike_id": "deffc2dc662367f0acbc7725632e75fd", "lat": 38.91955433333333, "lon": -76.991979, "rental_uris": {"android": "https://dc.lft.to/lastmile_qr_scan", "ios": "https://dc.lft.to/lastmile_qr_scan"}, "is_disabled": 0, "fusion_lat": 0.0, "name": "deffc2dc662367f0acbc7725632e75fd", "fusion_lon": 0.0}, {"is_reserved": 0, "type": "electric_scooter", "bike_id": "32d51878860f40d29300941cb24e2b51", "lat": 38.9154335, "lon": -77.01217966666667, "rental_uris": {"android": "https://dc.lft.to/lastmile_qr_scan", "ios": "https://dc.lft.to/lastmile_qr_scan"}, "is_disabled": 0, "fusion_lat": 0.0, "name": "32d51878860f40d29300941cb24e2b51", "fusion_lon": 0.0}, {"is_reserved": 0, "type": "electric_scooter", "bike_id": "ee2bf91e7d27984101a3fdc328862761", "lat": 38.896212, "lon": -77.0260485, "rental_uris": {"android": "https://dc.lft.to/lastmile_qr_scan", "ios": "https://dc.lft.to/lastmile_qr_scan"}, "is_disabled": 0, "fusion_lat": 0.0, "name": "ee2bf91e7d27984101a3fdc328862761", "fusion_lon": 0.0}, {"is_reserved": 0, "type": "electric_bike", "bike_id": "310d483ee0f1103fe636b5df1ad5628b", "lat": 38.840545666666664, "lon": -77.0559885, "rental_uris": {"android": "https://dc.lft.to/lastmile_qr_scan", "ios": "https://dc.lft.to/lastmile_qr_scan"}, "is_disabled": 0, "fusion_lat": 0.0, "name": "310d483ee0f1103fe636b5df1ad5628b", "fusion_lon": 0.0}, {"is_reserved": 0, "type": "electric_scooter", "bike_id": "e3d8bdfe5ebe9c0c4d37460cdf34d55f", "lat": 38.92003966666667, "lon": -77.041643, "rental_uris": {"android": "https://dc.lft.to/lastmile_qr_scan", "ios": "https://dc.lft.to/lastmile_qr_scan"}, "is_disabled": 0, "fusion_lat": 0.0, "name": "e3d8bdfe5ebe9c0c4d37460cdf34d55f", "fusion_lon": 0.0}, {"is_reserved": 0, "type": "electric_scooter", "bike_id": "79fc93049ef915edf255a66141b4b569", "lat": 38.932648666666665, "lon": -77.02064266666666, "rental_uris": {"android": "https://dc.lft.to/lastmile_qr_scan", "ios": "https://dc.lft.to/lastmile_qr_scan"}, "is_disabled": 0, "fusion_lat": 0.0, "name": "79fc93049ef915edf255a66141b4b569", "fusion_lon": 0.0}, {"is_reserved": 0, "type": "electric_scooter", "bike_id": "9c913b7ba86d1a097e2699f5543a41c4", "lat": 38.92634816666666, "lon": -77.04246716666667, "rental_uris": {"android": "https://dc.lft.to/lastmile_qr_scan", "ios": "https://dc.lft.to/lastmile_qr_scan"}, "is_disabled": 0, "fusion_lat": 0.0, "name": "9c913b7ba86d1a097e2699f5543a41c4", "fusion_lon": 0.0}, {"is_reserved": 0, "type": "electric_scooter", "bike_id": "dd015d8e8d249f259b7b6a9ccc563a4d", "lat": 38.9201065, "lon": -77.04193016666666, "rental_uris": {"android": "https://dc.lft.to/lastmile_qr_scan", "ios": "https://dc.lft.to/lastmile_qr_scan"}, "is_disabled": 0, "fusion_lat": 0.0, "name": "dd015d8e8d249f259b7b6a9ccc563a4d", "fusion_lon": 0.0}, {"is_reserved": 0, "type": "electric_scooter", "bike_id": "061ff9866d6dc2efd6ffe5292931542b", "lat": 38.924091, "lon": -77.04267933333334, "rental_uris": {"android": "https://dc.lft.to/lastmile_qr_scan", "ios": "https://dc.lft.to/lastmile_qr_scan"}, "is_disabled": 0, "fusion_lat": 0.0, "name": "061ff9866d6dc2efd6ffe5292931542b", "fusion_lon": 0.0}, {"is_reserved": 0, "type": "electric_scooter", "bike_id": "e1576843bb47935bb785c531ee558b55", "lat": 38.975185833333335, "lon": -77.01744666666667, "rental_uris": {"android": "https://dc.lft.to/lastmile_qr_scan", "ios": "https://dc.lft.to/lastmile_qr_scan"}, "is_disabled": 0, "fusion_lat": 0.0, "name": "e1576843bb47935bb785c531ee558b55", "fusion_lon": 0.0}, {"is_reserved": 0, "type": "electric_scooter", "bike_id": "4a9b27d6db289f3adb098c43556883a4", "lat": 38.88359166666667, "lon": -77.02583683333333, "rental_uris": {"android": "https://dc.lft.to/lastmile_qr_scan", "ios": "https://dc.lft.to/lastmile_qr_scan"}, "is_disabled": 0, "fusion_lat": 0.0, "name": "4a9b27d6db289f3adb098c43556883a4", "fusion_lon": 0.0}, {"is_reserved": 0, "type": "electric_scooter", "bike_id": "2472a39bdb4d5e06ddaf13416b74df49", "lat": 38.916455, "lon": -77.02955883333334, "rental_uris": {"android": "https://dc.lft.to/lastmile_qr_scan", "ios": "https://dc.lft.to/lastmile_qr_scan"}, "is_disabled": 0, "fusion_lat": 0.0, "name": "2472a39bdb4d5e06ddaf13416b74df49", "fusion_lon": 0.0}, {"is_reserved": 0, "type": "electric_scooter", "bike_id": "c69e4f17f5d287068012b4ac75b384df", "lat": 38.8989065, "lon": -77.00735633333333, "rental_uris": {"android": "https://dc.lft.to/lastmile_qr_scan", "ios": "https://dc.lft.to/lastmile_qr_scan"}, "is_disabled": 0, "fusion_lat": 0.0, "name": "c69e4f17f5d287068012b4ac75b384df", "fusion_lon": 0.0}, {"is_reserved": 0, "type": "electric_scooter", "bike_id": "a5fee1da2ccc6031156f9940b264f1ba", "lat": 38.89460966666667, "lon": -77.02631516666666, "rental_uris": {"android": "https://dc.lft.to/lastmile_qr_scan", "ios": "https://dc.lft.to/lastmile_qr_scan"}, "is_disabled": 0, "fusion_lat": 0.0, "name": "a5fee1da2ccc6031156f9940b264f1ba", "fusion_lon": 0.0}, {"is_reserved": 0, "type": "electric_scooter", "bike_id": "4eed2eb71e2552f709cc28e3c746fcfc", "lat": 38.9432725, "lon": -77.01258016666667, "rental_uris": {"android": "https://dc.lft.to/lastmile_qr_scan", "ios": "https://dc.lft.to/lastmile_qr_scan"}, "is_disabled": 0, "fusion_lat": 0.0, "name": "4eed2eb71e2552f709cc28e3c746fcfc", "fusion_lon": 0.0}, {"is_reserved": 0, "type": "electric_scooter", "bike_id": "7893d9fb1f3e20d1235706eaddf9578f", "lat": 38.89226566666667, "lon": -77.04486233333333, "rental_uris": {"android": "https://dc.lft.to/lastmile_qr_scan", "ios": "https://dc.lft.to/lastmile_qr_scan"}, "is_disabled": 0, "fusion_lat": 0.0, "name": "7893d9fb1f3e20d1235706eaddf9578f", "fusion_lon": 0.0}, {"is_reserved": 0, "type": "electric_scooter", "bike_id": "059fa950aa60af188deca9b4329e9fe3", "lat": 38.9090405, "lon": -76.99621233333333, "rental_uris": {"android": "https://dc.lft.to/lastmile_qr_scan", "ios": "https://dc.lft.to/lastmile_qr_scan"}, "is_disabled": 0, "fusion_lat": 0.0, "name": "059fa950aa60af188deca9b4329e9fe3", "fusion_lon": 0.0}, {"is_reserved": 0, "type": "electric_scooter", "bike_id": "0edbefcd15f688cb8e190e00ce4b8c5e", "lat": 38.90618216666667, "lon": -77.02975533333333, "rental_uris": {"android": "https://dc.lft.to/lastmile_qr_scan", "ios": "https://dc.lft.to/lastmile_qr_scan"}, "is_disabled": 0, "fusion_lat": 0.0, "name": "0edbefcd15f688cb8e190e00ce4b8c5e", "fusion_lon": 0.0}, {"is_reserved": 0, "type": "electric_scooter", "bike_id": "1374a087d6a43646ee52d0d4f4cdafc4", "lat": 38.92341616666667, "lon": -77.052334, "rental_uris": {"android": "https://dc.lft.to/lastmile_qr_scan", "ios": "https://dc.lft.to/lastmile_qr_scan"}, "is_disabled": 0, "fusion_lat": 0.0, "name": "1374a087d6a43646ee52d0d4f4cdafc4", "fusion_lon": 0.0}, {"is_reserved": 0, "type": "electric_scooter", "bike_id": "b850950f067846e41164f8b00ca7d0ed", "lat": 38.902158666666665, "lon": -77.03644783333333, "rental_uris": {"android": "https://dc.lft.to/lastmile_qr_scan", "ios": "https://dc.lft.to/lastmile_qr_scan"}, "is_disabled": 0, "fusion_lat": 0.0, "name": "b850950f067846e41164f8b00ca7d0ed", "fusion_lon": 0.0}, {"is_reserved": 0, "type": "electric_scooter", "bike_id": "19beb4fd12e79700dc3394374b777fa0", "lat": 38.927569166666665, "lon": -77.02430366666667, "rental_uris": {"android": "https://dc.lft.to/lastmile_qr_scan", "ios": "https://dc.lft.to/lastmile_qr_scan"}, "is_disabled": 0, "fusion_lat": 0.0, "name": "19beb4fd12e79700dc3394374b777fa0", "fusion_lon": 0.0}, {"is_reserved": 0, "type": "electric_scooter", "bike_id": "a2fac396a907004d48c3ebb1191f4a87", "lat": 38.92208633333333, "lon": -77.03782866666667, "rental_uris": {"android": "https://dc.lft.to/lastmile_qr_scan", "ios": "https://dc.lft.to/lastmile_qr_scan"}, "is_disabled": 0, "fusion_lat": 0.0, "name": "a2fac396a907004d48c3ebb1191f4a87", "fusion_lon": 0.0}, {"is_reserved": 0, "type": "electric_scooter", "bike_id": "e05097332a45cae414415003481ed2c7", "lat": 38.90653316666667, "lon": -77.07557116666666, "rental_uris": {"android": "https://dc.lft.to/lastmile_qr_scan", "ios": "https://dc.lft.to/lastmile_qr_scan"}, "is_disabled": 0, "fusion_lat": 0.0, "name": "e05097332a45cae414415003481ed2c7", "fusion_lon": 0.0}, {"is_reserved": 0, "type": "electric_scooter", "bike_id": "dce4287b437e4cbe7e2dacd6400bc67b", "lat": 38.951891, "lon": -77.02609933333333, "rental_uris": {"android": "https://dc.lft.to/lastmile_qr_scan", "ios": "https://dc.lft.to/lastmile_qr_scan"}, "is_disabled": 0, "fusion_lat": 0.0, "name": "dce4287b437e4cbe7e2dacd6400bc67b", "fusion_lon": 0.0}, {"is_reserved": 0, "type": "electric_scooter", "bike_id": "5da51203c8a281a5507cfe2be98e41e0", "lat": 38.89234483333333, "lon": -77.017659, "rental_uris": {"android": "https://dc.lft.to/lastmile_qr_scan", "ios": "https://dc.lft.to/lastmile_qr_scan"}, "is_disabled": 0, "fusion_lat": 0.0, "name": "5da51203c8a281a5507cfe2be98e41e0", "fusion_lon": 0.0}, {"is_reserved": 0, "type": "electric_scooter", "bike_id": "0ad9035feca1ef09b3de4c10e01bb90e", "lat": 38.899787333333336, "lon": -77.02317866666667, "rental_uris": {"android": "https://dc.lft.to/lastmile_qr_scan", "ios": "https://dc.lft.to/lastmile_qr_scan"}, "is_disabled": 0, "fusion_lat": 0.0, "name": "0ad9035feca1ef09b3de4c10e01bb90e", "fusion_lon": 0.0}, {"is_reserved": 0, "type": "electric_scooter", "bike_id": "a6df28d57f7368434905920964a1ce2a", "lat": 38.89527866666667, "lon": -76.9920345, "rental_uris": {"android": "https://dc.lft.to/lastmile_qr_scan", "ios": "https://dc.lft.to/lastmile_qr_scan"}, "is_disabled": 0, "fusion_lat": 0.0, "name": "a6df28d57f7368434905920964a1ce2a", "fusion_lon": 0.0}, {"is_reserved": 0, "type": "electric_scooter", "bike_id": "8d97c27ea23ae9f7081c72c831a7d82d", "lat": 38.93699933333333, "lon": -77.05596566666667, "rental_uris": {"android": "https://dc.lft.to/lastmile_qr_scan", "ios": "https://dc.lft.to/lastmile_qr_scan"}, "is_disabled": 0, "fusion_lat": 0.0, "name": "8d97c27ea23ae9f7081c72c831a7d82d", "fusion_lon": 0.0}, {"is_reserved": 0, "type": "electric_scooter", "bike_id": "07ebbb76ebb5893d5b4a89f2be8b6fc1", "lat": 38.905809166666664, "lon": -76.98430416666666, "rental_uris": {"android": "https://dc.lft.to/lastmile_qr_scan", "ios": "https://dc.lft.to/lastmile_qr_scan"}, "is_disabled": 0, "fusion_lat": 0.0, "name": "07ebbb76ebb5893d5b4a89f2be8b6fc1", "fusion_lon": 0.0}, {"is_reserved": 0, "type": "electric_scooter", "bike_id": "d99c0210ed14795b9fd75d742d3200cf", "lat": 38.9003295, "lon": -77.02600216666667, "rental_uris": {"android": "https://dc.lft.to/lastmile_qr_scan", "ios": "https://dc.lft.to/lastmile_qr_scan"}, "is_disabled": 0, "fusion_lat": 0.0, "name": "d99c0210ed14795b9fd75d742d3200cf", "fusion_lon": 0.0}, {"is_reserved": 0, "type": "electric_scooter", "bike_id": "916b3acf5970a5c3bfa5a69b99e21aaa", "lat": 38.88744066666667, "lon": -76.983564, "rental_uris": {"android": "https://dc.lft.to/lastmile_qr_scan", "ios": "https://dc.lft.to/lastmile_qr_scan"}, "is_disabled": 0, "fusion_lat": 0.0, "name": "916b3acf5970a5c3bfa5a69b99e21aaa", "fusion_lon": 0.0}, {"is_reserved": 0, "type": "electric_scooter", "bike_id": "2b79fd258d1ae25f8925e59d492f81f5", "lat": 38.9236925, "lon": -77.04312533333334, "rental_uris": {"android": "https://dc.lft.to/lastmile_qr_scan", "ios": "https://dc.lft.to/lastmile_qr_scan"}, "is_disabled": 0, "fusion_lat": 0.0, "name": "2b79fd258d1ae25f8925e59d492f81f5", "fusion_lon": 0.0}, {"is_reserved": 0, "type": "electric_scooter", "bike_id": "ec3c46f6fddf80b9327f0616cfe16ae7", "lat": 38.916759, "lon": -77.034504, "rental_uris": {"android": "https://dc.lft.to/lastmile_qr_scan", "ios": "https://dc.lft.to/lastmile_qr_scan"}, "is_disabled": 0, "fusion_lat": 0.0, "name": "ec3c46f6fddf80b9327f0616cfe16ae7", "fusion_lon": 0.0}, {"is_reserved": 0, "type": "electric_scooter", "bike_id": "639e05100f0e59d749283a9d7d12d529", "lat": 38.89827833333333, "lon": -77.02188166666667, "rental_uris": {"android": "https://dc.lft.to/lastmile_qr_scan", "ios": "https://dc.lft.to/lastmile_qr_scan"}, "is_disabled": 0, "fusion_lat": 0.0, "name": "639e05100f0e59d749283a9d7d12d529", "fusion_lon": 0.0}, {"is_reserved": 0, "type": "electric_scooter", "bike_id": "74880bfb065914d989d245555ee7d9c2", "lat": 38.905514333333336, "lon": -77.0325085, "rental_uris": {"android": "https://dc.lft.to/lastmile_qr_scan", "ios": "https://dc.lft.to/lastmile_qr_scan"}, "is_disabled": 0, "fusion_lat": 0.0, "name": "74880bfb065914d989d245555ee7d9c2", "fusion_lon": 0.0}, {"is_reserved": 0, "type": "electric_scooter", "bike_id": "aa796c75336d95c701ccaf9afffc1d52", "lat": 38.87665916666667, "lon": -77.00810533333333, "rental_uris": {"android": "https://dc.lft.to/lastmile_qr_scan", "ios": "https://dc.lft.to/lastmile_qr_scan"}, "is_disabled": 0, "fusion_lat": 0.0, "name": "aa796c75336d95c701ccaf9afffc1d52", "fusion_lon": 0.0}, {"is_reserved": 0, "type": "electric_scooter", "bike_id": "7141b06af64b1689ad8e98c02e61e01a", "lat": 38.892287833333334, "lon": -77.024254, "rental_uris": {"android": "https://dc.lft.to/lastmile_qr_scan", "ios": "https://dc.lft.to/lastmile_qr_scan"}, "is_disabled": 0, "fusion_lat": 0.0, "name": "7141b06af64b1689ad8e98c02e61e01a", "fusion_lon": 0.0}, {"is_reserved": 0, "type": "electric_scooter", "bike_id": "de676a091066291cc8c8f3f9b4f5026b", "lat": 38.91633566666667, "lon": -77.0224195, "rental_uris": {"android": "https://dc.lft.to/lastmile_qr_scan", "ios": "https://dc.lft.to/lastmile_qr_scan"}, "is_disabled": 0, "fusion_lat": 0.0, "name": "de676a091066291cc8c8f3f9b4f5026b", "fusion_lon": 0.0}, {"is_reserved": 0, "type": "electric_scooter", "bike_id": "dd8aa710d810cc55c6ead9a750cca6a6", "lat": 38.957474166666664, "lon": -77.0210325, "rental_uris": {"android": "https://dc.lft.to/lastmile_qr_scan", "ios": "https://dc.lft.to/lastmile_qr_scan"}, "is_disabled": 0, "fusion_lat": 0.0, "name": "dd8aa710d810cc55c6ead9a750cca6a6", "fusion_lon": 0.0}, {"is_reserved": 0, "type": "electric_scooter", "bike_id": "74d2d25390b4bd320614122cabd099bc", "lat": 38.895956, "lon": -76.92982466666666, "rental_uris": {"android": "https://dc.lft.to/lastmile_qr_scan", "ios": "https://dc.lft.to/lastmile_qr_scan"}, "is_disabled": 0, "fusion_lat": 0.0, "name": "74d2d25390b4bd320614122cabd099bc", "fusion_lon": 0.0}, {"is_reserved": 0, "type": "electric_scooter", "bike_id": "b8c501900aa4ab5e36d53e5186526838", "lat": 38.9021985, "lon": -77.03248666666667, "rental_uris": {"android": "https://dc.lft.to/lastmile_qr_scan", "ios": "https://dc.lft.to/lastmile_qr_scan"}, "is_disabled": 0, "fusion_lat": 0.0, "name": "b8c501900aa4ab5e36d53e5186526838", "fusion_lon": 0.0}, {"is_reserved": 0, "type": "electric_scooter", "bike_id": "cf058fc48ddfc31724e05c88e82ddae8", "lat": 38.97003616666667, "lon": -77.009102, "rental_uris": {"android": "https://dc.lft.to/lastmile_qr_scan", "ios": "https://dc.lft.to/lastmile_qr_scan"}, "is_disabled": 0, "fusion_lat": 0.0, "name": "cf058fc48ddfc31724e05c88e82ddae8", "fusion_lon": 0.0}, {"is_reserved": 0, "type": "electric_scooter", "bike_id": "365f208c42ac4de276b1cb0216920cae", "lat": 38.924176333333335, "lon": -77.01946683333334, "rental_uris": {"android": "https://dc.lft.to/lastmile_qr_scan", "ios": "https://dc.lft.to/lastmile_qr_scan"}, "is_disabled": 0, "fusion_lat": 0.0, "name": "365f208c42ac4de276b1cb0216920cae", "fusion_lon": 0.0}, {"is_reserved": 0, "type": "electric_bike", "bike_id": "0f9c91ff8bfcf704f1cfcfaf86a6cb38", "lat": 38.96503383333334, "lon": -77.10332883333334, "rental_uris": {"android": "https://dc.lft.to/lastmile_qr_scan", "ios": "https://dc.lft.to/lastmile_qr_scan"}, "is_disabled": 0, "fusion_lat": 0.0, "name": "0f9c91ff8bfcf704f1cfcfaf86a6cb38", "fusion_lon": 0.0}, {"is_reserved": 0, "type": "electric_scooter", "bike_id": "c30d843115cb5c29bee7c0e1dd663e60", "lat": 38.92358316666667, "lon": -77.018971, "rental_uris": {"android": "https://dc.lft.to/lastmile_qr_scan", "ios": "https://dc.lft.to/lastmile_qr_scan"}, "is_disabled": 0, "fusion_lat": 0.0, "name": "c30d843115cb5c29bee7c0e1dd663e60", "fusion_lon": 0.0}, {"is_reserved": 0, "type": "electric_scooter", "bike_id": "2bd96c2256b57bb954bf4eb14485bdd2", "lat": 38.9142675, "lon": -76.98592933333333, "rental_uris": {"android": "https://dc.lft.to/lastmile_qr_scan", "ios": "https://dc.lft.to/lastmile_qr_scan"}, "is_disabled": 0, "fusion_lat": 0.0, "name": "2bd96c2256b57bb954bf4eb14485bdd2", "fusion_lon": 0.0}, {"is_reserved": 0, "type": "electric_scooter", "bike_id": "72a1d8e9a568c9fec3c890e473460ad9", "lat": 38.914883833333334, "lon": -77.03823033333333, "rental_uris": {"android": "https://dc.lft.to/lastmile_qr_scan", "ios": "https://dc.lft.to/lastmile_qr_scan"}, "is_disabled": 0, "fusion_lat": 0.0, "name": "72a1d8e9a568c9fec3c890e473460ad9", "fusion_lon": 0.0}, {"is_reserved": 0, "type": "electric_scooter", "bike_id": "5d05164f7ac61dbfe3b5690b8b09e9b4", "lat": 38.891987666666665, "lon": -77.04826633333333, "rental_uris": {"android": "https://dc.lft.to/lastmile_qr_scan", "ios": "https://dc.lft.to/lastmile_qr_scan"}, "is_disabled": 0, "fusion_lat": 0.0, "name": "5d05164f7ac61dbfe3b5690b8b09e9b4", "fusion_lon": 0.0}, {"is_reserved": 0, "type": "electric_scooter", "bike_id": "f85e095bc0b5ce5732022c47e761c05b", "lat": 38.9168535, "lon": -77.02952283333333, "rental_uris": {"android": "https://dc.lft.to/lastmile_qr_scan", "ios": "https://dc.lft.to/lastmile_qr_scan"}, "is_disabled": 0, "fusion_lat": 0.0, "name": "f85e095bc0b5ce5732022c47e761c05b", "fusion_lon": 0.0}, {"is_reserved": 0, "type": "electric_scooter", "bike_id": "ba6c060a1c1b885dc191f49ab6a9130e", "lat": 38.91795883333333, "lon": -77.03186566666666, "rental_uris": {"android": "https://dc.lft.to/lastmile_qr_scan", "ios": "https://dc.lft.to/lastmile_qr_scan"}, "is_disabled": 0, "fusion_lat": 0.0, "name": "ba6c060a1c1b885dc191f49ab6a9130e", "fusion_lon": 0.0}, {"is_reserved": 0, "type": "electric_scooter", "bike_id": "786f32b31d33f3f9e28d615e520ed41e", "lat": 38.922242833333335, "lon": -77.04337016666666, "rental_uris": {"android": "https://dc.lft.to/lastmile_qr_scan", "ios": "https://dc.lft.to/lastmile_qr_scan"}, "is_disabled": 0, "fusion_lat": 0.0, "name": "786f32b31d33f3f9e28d615e520ed41e", "fusion_lon": 0.0}, {"is_reserved": 0, "type": "electric_scooter", "bike_id": "488e79c5f77793918c7d670c40f4eff2", "lat": 38.964041, "lon": -77.0276415, "rental_uris": {"android": "https://dc.lft.to/lastmile_qr_scan", "ios": "https://dc.lft.to/lastmile_qr_scan"}, "is_disabled": 0, "fusion_lat": 0.0, "name": "488e79c5f77793918c7d670c40f4eff2", "fusion_lon": 0.0}, {"is_reserved": 0, "type": "electric_scooter", "bike_id": "fa1ded7b8f5c48ba5457598f18974bb6", "lat": 38.898280666666665, "lon": -76.94653016666666, "rental_uris": {"android": "https://dc.lft.to/lastmile_qr_scan", "ios": "https://dc.lft.to/lastmile_qr_scan"}, "is_disabled": 0, "fusion_lat": 0.0, "name": "fa1ded7b8f5c48ba5457598f18974bb6", "fusion_lon": 0.0}, {"is_reserved": 0, "type": "electric_bike", "bike_id": "41b94076593ecba9f8879949bd37eec3", "lat": 38.999350666666665, "lon": -77.0514035, "rental_uris": {"android": "https://dc.lft.to/lastmile_qr_scan", "ios": "https://dc.lft.to/lastmile_qr_scan"}, "is_disabled": 0, "fusion_lat": 0.0, "name": "41b94076593ecba9f8879949bd37eec3", "fusion_lon": 0.0}, {"is_reserved": 0, "type": "electric_scooter", "bike_id": "3fe618eebfb892224e5f37000f2476ee", "lat": 38.891937166666665, "lon": -77.02175916666667, "rental_uris": {"android": "https://dc.lft.to/lastmile_qr_scan", "ios": "https://dc.lft.to/lastmile_qr_scan"}, "is_disabled": 0, "fusion_lat": 0.0, "name": "3fe618eebfb892224e5f37000f2476ee", "fusion_lon": 0.0}, {"is_reserved": 0, "type": "electric_bike", "bike_id": "e505ed485020edc01d993b436ba06f85", "lat": 38.89397566666667, "lon": -76.86840666666667, "rental_uris": {"android": "https://dc.lft.to/lastmile_qr_scan", "ios": "https://dc.lft.to/lastmile_qr_scan"}, "is_disabled": 0, "fusion_lat": 0.0, "name": "e505ed485020edc01d993b436ba06f85", "fusion_lon": 0.0}, {"is_reserved": 0, "type": "electric_scooter", "bike_id": "ab579cc12a01cc9e9a255669d5a3b054", "lat": 38.923351833333335, "lon": -77.00884416666666, "rental_uris": {"android": "https://dc.lft.to/lastmile_qr_scan", "ios": "https://dc.lft.to/lastmile_qr_scan"}, "is_disabled": 0, "fusion_lat": 0.0, "name": "ab579cc12a01cc9e9a255669d5a3b054", "fusion_lon": 0.0}, {"is_reserved": 0, "type": "electric_scooter", "bike_id": "e8ee7bdeb25d1ddb98b88ba0a71c53c1", "lat": 38.892244833333336, "lon": -77.0262265, "rental_uris": {"android": "https://dc.lft.to/lastmile_qr_scan", "ios": "https://dc.lft.to/lastmile_qr_scan"}, "is_disabled": 0, "fusion_lat": 0.0, "name": "e8ee7bdeb25d1ddb98b88ba0a71c53c1", "fusion_lon": 0.0}, {"is_reserved": 0, "type": "electric_scooter", "bike_id": "45cd1897550ecc944f1f8b2dc513b9b6", "lat": 38.91846, "lon": -77.04112916666666, "rental_uris": {"android": "https://dc.lft.to/lastmile_qr_scan", "ios": "https://dc.lft.to/lastmile_qr_scan"}, "is_disabled": 0, "fusion_lat": 0.0, "name": "45cd1897550ecc944f1f8b2dc513b9b6", "fusion_lon": 0.0}, {"is_reserved": 0, "type": "electric_bike", "bike_id": "bab42767a29db5ebe6f2d0eb713862bc", "lat": 38.803853833333335, "lon": -76.988074, "rental_uris": {"android": "https://dc.lft.to/lastmile_qr_scan", "ios": "https://dc.lft.to/lastmile_qr_scan"}, "is_disabled": 0, "fusion_lat": 0.0, "name": "bab42767a29db5ebe6f2d0eb713862bc", "fusion_lon": 0.0}, {"is_reserved": 0, "type": "electric_scooter", "bike_id": "a7db8596d627ad0175955c96a89e7e3b", "lat": 38.90392683333334, "lon": -77.04740716666667, "rental_uris": {"android": "https://dc.lft.to/lastmile_qr_scan", "ios": "https://dc.lft.to/lastmile_qr_scan"}, "is_disabled": 0, "fusion_lat": 0.0, "name": "a7db8596d627ad0175955c96a89e7e3b", "fusion_lon": 0.0}, {"is_reserved": 0, "type": "electric_scooter", "bike_id": "4034281ec44da132f715e8c4877fc608", "lat": 38.8942705, "lon": -77.055944, "rental_uris": {"android": "https://dc.lft.to/lastmile_qr_scan", "ios": "https://dc.lft.to/lastmile_qr_scan"}, "is_disabled": 0, "fusion_lat": 0.0, "name": "4034281ec44da132f715e8c4877fc608", "fusion_lon": 0.0}, {"is_reserved": 0, "type": "electric_scooter", "bike_id": "03e3806487512ee70a0d49156d89d72d", "lat": 38.895080666666665, "lon": -76.93472133333333, "rental_uris": {"android": "https://dc.lft.to/lastmile_qr_scan", "ios": "https://dc.lft.to/lastmile_qr_scan"}, "is_disabled": 0, "fusion_lat": 0.0, "name": "03e3806487512ee70a0d49156d89d72d", "fusion_lon": 0.0}, {"is_reserved": 0, "type": "electric_scooter", "bike_id": "fd03ad91ad00d91e64ff46a73233e813", "lat": 38.889369333333335, "lon": -76.99372616666666, "rental_uris": {"android": "https://dc.lft.to/lastmile_qr_scan", "ios": "https://dc.lft.to/lastmile_qr_scan"}, "is_disabled": 0, "fusion_lat": 0.0, "name": "fd03ad91ad00d91e64ff46a73233e813", "fusion_lon": 0.0}, {"is_reserved": 0, "type": "electric_scooter", "bike_id": "697570a06065a1f56636beac038f4b53", "lat": 38.88367483333333, "lon": -76.94156066666666, "rental_uris": {"android": "https://dc.lft.to/lastmile_qr_scan", "ios": "https://dc.lft.to/lastmile_qr_scan"}, "is_disabled": 0, "fusion_lat": 0.0, "name": "697570a06065a1f56636beac038f4b53", "fusion_lon": 0.0}, {"is_reserved": 0, "type": "electric_bike", "bike_id": "3155d048010fad4f7d029b5af74067a1", "lat": 38.930777666666664, "lon": -77.02176, "rental_uris": {"android": "https://dc.lft.to/lastmile_qr_scan", "ios": "https://dc.lft.to/lastmile_qr_scan"}, "is_disabled": 0, "fusion_lat": 0.0, "name": "3155d048010fad4f7d029b5af74067a1", "fusion_lon": 0.0}, {"is_reserved": 0, "type": "electric_scooter", "bike_id": "e28a18662ff842106552ce8ecee3ccf2", "lat": 38.900726, "lon": -77.0514915, "rental_uris": {"android": "https://dc.lft.to/lastmile_qr_scan", "ios": "https://dc.lft.to/lastmile_qr_scan"}, "is_disabled": 0, "fusion_lat": 0.0, "name": "e28a18662ff842106552ce8ecee3ccf2", "fusion_lon": 0.0}, {"is_reserved": 0, "type": "electric_scooter", "bike_id": "c9c67e3a2f182aa7f01c580651101391", "lat": 38.89369033333333, "lon": -76.93595483333333, "rental_uris": {"android": "https://dc.lft.to/lastmile_qr_scan", "ios": "https://dc.lft.to/lastmile_qr_scan"}, "is_disabled": 0, "fusion_lat": 0.0, "name": "c9c67e3a2f182aa7f01c580651101391", "fusion_lon": 0.0}, {"is_reserved": 0, "type": "electric_scooter", "bike_id": "f438afbdd874cc17bcfc4687689b347c", "lat": 38.866921166666664, "lon": -76.97902016666667, "rental_uris": {"android": "https://dc.lft.to/lastmile_qr_scan", "ios": "https://dc.lft.to/lastmile_qr_scan"}, "is_disabled": 0, "fusion_lat": 0.0, "name": "f438afbdd874cc17bcfc4687689b347c", "fusion_lon": 0.0}, {"is_reserved": 0, "type": "electric_scooter", "bike_id": "82c95a225fc7a06f938fef8ae8810d22", "lat": 38.85225233333333, "lon": -76.99423733333333, "rental_uris": {"android": "https://dc.lft.to/lastmile_qr_scan", "ios": "https://dc.lft.to/lastmile_qr_scan"}, "is_disabled": 0, "fusion_lat": 0.0, "name": "82c95a225fc7a06f938fef8ae8810d22", "fusion_lon": 0.0}, {"is_reserved": 0, "type": "electric_scooter", "bike_id": "ea56fd17435b41180fe9d430a494fe90", "lat": 38.9214235, "lon": -77.04486783333333, "rental_uris": {"android": "https://dc.lft.to/lastmile_qr_scan", "ios": "https://dc.lft.to/lastmile_qr_scan"}, "is_disabled": 0, "fusion_lat": 0.0, "name": "ea56fd17435b41180fe9d430a494fe90", "fusion_lon": 0.0}, {"is_reserved": 0, "type": "electric_scooter", "bike_id": "e2b6f269df9f9dbe74409080c2cecfde", "lat": 38.92719816666666, "lon": -77.03681066666667, "rental_uris": {"android": "https://dc.lft.to/lastmile_qr_scan", "ios": "https://dc.lft.to/lastmile_qr_scan"}, "is_disabled": 0, "fusion_lat": 0.0, "name": "e2b6f269df9f9dbe74409080c2cecfde", "fusion_lon": 0.0}, {"is_reserved": 0, "type": "electric_scooter", "bike_id": "743d53024e58b33dd1dc39d08abc3f7f", "lat": 38.89910066666667, "lon": -76.93366216666666, "rental_uris": {"android": "https://dc.lft.to/lastmile_qr_scan", "ios": "https://dc.lft.to/lastmile_qr_scan"}, "is_disabled": 0, "fusion_lat": 0.0, "name": "743d53024e58b33dd1dc39d08abc3f7f", "fusion_lon": 0.0}, {"is_reserved": 0, "type": "electric_scooter", "bike_id": "2a3d8249d81d2fcceb1b2db2b4729c81", "lat": 38.90139033333333, "lon": -77.01310833333334, "rental_uris": {"android": "https://dc.lft.to/lastmile_qr_scan", "ios": "https://dc.lft.to/lastmile_qr_scan"}, "is_disabled": 0, "fusion_lat": 0.0, "name": "2a3d8249d81d2fcceb1b2db2b4729c81", "fusion_lon": 0.0}, {"is_reserved": 0, "type": "electric_scooter", "bike_id": "c800e0f193cd9123e1c8e2b34080a75c", "lat": 38.9075885, "lon": -77.00195466666666, "rental_uris": {"android": "https://dc.lft.to/lastmile_qr_scan", "ios": "https://dc.lft.to/lastmile_qr_scan"}, "is_disabled": 0, "fusion_lat": 0.0, "name": "c800e0f193cd9123e1c8e2b34080a75c", "fusion_lon": 0.0}, {"is_reserved": 0, "type": "electric_scooter", "bike_id": "6eeb5510c702aa77760e75b3dfa4275f", "lat": 38.9361695, "lon": -77.03217966666666, "rental_uris": {"android": "https://dc.lft.to/lastmile_qr_scan", "ios": "https://dc.lft.to/lastmile_qr_scan"}, "is_disabled": 0, "fusion_lat": 0.0, "name": "6eeb5510c702aa77760e75b3dfa4275f", "fusion_lon": 0.0}, {"is_reserved": 0, "type": "electric_scooter", "bike_id": "2dfc055389a16eeb039f4347b39216a4", "lat": 38.938911166666664, "lon": -77.03262416666666, "rental_uris": {"android": "https://dc.lft.to/lastmile_qr_scan", "ios": "https://dc.lft.to/lastmile_qr_scan"}, "is_disabled": 0, "fusion_lat": 0.0, "name": "2dfc055389a16eeb039f4347b39216a4", "fusion_lon": 0.0}, {"is_reserved": 0, "type": "electric_scooter", "bike_id": "9fb0824a03615eb08649fcdfd7d6abdd", "lat": 38.906280333333335, "lon": -77.009048, "rental_uris": {"android": "https://dc.lft.to/lastmile_qr_scan", "ios": "https://dc.lft.to/lastmile_qr_scan"}, "is_disabled": 0, "fusion_lat": 0.0, "name": "9fb0824a03615eb08649fcdfd7d6abdd", "fusion_lon": 0.0}, {"is_reserved": 0, "type": "electric_scooter", "bike_id": "9efff51bd19b279f8ad5f045b7367ee2", "lat": 38.88734916666667, "lon": -77.0261615, "rental_uris": {"android": "https://dc.lft.to/lastmile_qr_scan", "ios": "https://dc.lft.to/lastmile_qr_scan"}, "is_disabled": 0, "fusion_lat": 0.0, "name": "9efff51bd19b279f8ad5f045b7367ee2", "fusion_lon": 0.0}, {"is_reserved": 0, "type": "electric_scooter", "bike_id": "7bee4e8756d79e6dacd9131a2339d76a", "lat": 38.90014333333333, "lon": -77.0294145, "rental_uris": {"android": "https://dc.lft.to/lastmile_qr_scan", "ios": "https://dc.lft.to/lastmile_qr_scan"}, "is_disabled": 0, "fusion_lat": 0.0, "name": "7bee4e8756d79e6dacd9131a2339d76a", "fusion_lon": 0.0}, {"is_reserved": 0, "type": "electric_scooter", "bike_id": "a63f0ef7a5bcecbe11e42eed05822a0b", "lat": 38.91577366666667, "lon": -76.98382333333333, "rental_uris": {"android": "https://dc.lft.to/lastmile_qr_scan", "ios": "https://dc.lft.to/lastmile_qr_scan"}, "is_disabled": 0, "fusion_lat": 0.0, "name": "a63f0ef7a5bcecbe11e42eed05822a0b", "fusion_lon": 0.0}, {"is_reserved": 0, "type": "electric_scooter", "bike_id": "17ba292e612c873053d675d9f2b93cfc", "lat": 38.949271, "lon": -77.02699216666667, "rental_uris": {"android": "https://dc.lft.to/lastmile_qr_scan", "ios": "https://dc.lft.to/lastmile_qr_scan"}, "is_disabled": 0, "fusion_lat": 0.0, "name": "17ba292e612c873053d675d9f2b93cfc", "fusion_lon": 0.0}, {"is_reserved": 0, "type": "electric_scooter", "bike_id": "5b9597ba0ab66f3e016aff27029a8a21", "lat": 38.9162045, "lon": -77.0239495, "rental_uris": {"android": "https://dc.lft.to/lastmile_qr_scan", "ios": "https://dc.lft.to/lastmile_qr_scan"}, "is_disabled": 0, "fusion_lat": 0.0, "name": "5b9597ba0ab66f3e016aff27029a8a21", "fusion_lon": 0.0}, {"is_reserved": 0, "type": "electric_scooter", "bike_id": "a8cce8c80dcc42164d0c1b34fc728f7b", "lat": 38.902682666666664, "lon": -77.03141516666666, "rental_uris": {"android": "https://dc.lft.to/lastmile_qr_scan", "ios": "https://dc.lft.to/lastmile_qr_scan"}, "is_disabled": 0, "fusion_lat": 0.0, "name": "a8cce8c80dcc42164d0c1b34fc728f7b", "fusion_lon": 0.0}, {"is_reserved": 0, "type": "electric_scooter", "bike_id": "82d707c63d96ab92d65d7a477d9a35e9", "lat": 38.893460166666664, "lon": -76.99376516666666, "rental_uris": {"android": "https://dc.lft.to/lastmile_qr_scan", "ios": "https://dc.lft.to/lastmile_qr_scan"}, "is_disabled": 0, "fusion_lat": 0.0, "name": "82d707c63d96ab92d65d7a477d9a35e9", "fusion_lon": 0.0}, {"is_reserved": 0, "type": "electric_scooter", "bike_id": "e59dbb0684a92274d8abc8401a28e7dd", "lat": 38.9188915, "lon": -77.02712816666667, "rental_uris": {"android": "https://dc.lft.to/lastmile_qr_scan", "ios": "https://dc.lft.to/lastmile_qr_scan"}, "is_disabled": 0, "fusion_lat": 0.0, "name": "e59dbb0684a92274d8abc8401a28e7dd", "fusion_lon": 0.0}, {"is_reserved": 0, "type": "electric_scooter", "bike_id": "19665f87f00b8b5f71ab80a6fdac416c", "lat": 38.92171716666667, "lon": -77.04123216666666, "rental_uris": {"android": "https://dc.lft.to/lastmile_qr_scan", "ios": "https://dc.lft.to/lastmile_qr_scan"}, "is_disabled": 0, "fusion_lat": 0.0, "name": "19665f87f00b8b5f71ab80a6fdac416c", "fusion_lon": 0.0}, {"is_reserved": 0, "type": "electric_scooter", "bike_id": "96e84ea7cc588589cb30956c677cbdd4", "lat": 38.923306833333335, "lon": -77.02963933333334, "rental_uris": {"android": "https://dc.lft.to/lastmile_qr_scan", "ios": "https://dc.lft.to/lastmile_qr_scan"}, "is_disabled": 0, "fusion_lat": 0.0, "name": "96e84ea7cc588589cb30956c677cbdd4", "fusion_lon": 0.0}, {"is_reserved": 0, "type": "electric_bike", "bike_id": "acf93eeb4b958f1a6c063eec99f3e734", "lat": 38.99541716666667, "lon": -77.0747705, "rental_uris": {"android": "https://dc.lft.to/lastmile_qr_scan", "ios": "https://dc.lft.to/lastmile_qr_scan"}, "is_disabled": 0, "fusion_lat": 0.0, "name": "acf93eeb4b958f1a6c063eec99f3e734", "fusion_lon": 0.0}, {"is_reserved": 0, "type": "electric_scooter", "bike_id": "47274fada7723476d4af9f211f3acbbb", "lat": 38.9058315, "lon": -77.03652566666666, "rental_uris": {"android": "https://dc.lft.to/lastmile_qr_scan", "ios": "https://dc.lft.to/lastmile_qr_scan"}, "is_disabled": 0, "fusion_lat": 0.0, "name": "47274fada7723476d4af9f211f3acbbb", "fusion_lon": 0.0}, {"is_reserved": 0, "type": "electric_scooter", "bike_id": "cd52b36b78c216822ee1900b6589c321", "lat": 38.95250166666667, "lon": -77.02391933333334, "rental_uris": {"android": "https://dc.lft.to/lastmile_qr_scan", "ios": "https://dc.lft.to/lastmile_qr_scan"}, "is_disabled": 0, "fusion_lat": 0.0, "name": "cd52b36b78c216822ee1900b6589c321", "fusion_lon": 0.0}, {"is_reserved": 0, "type": "electric_scooter", "bike_id": "1794b4f1b1c241a0402aff4dd67f0d3f", "lat": 38.91875533333334, "lon": -77.01345716666667, "rental_uris": {"android": "https://dc.lft.to/lastmile_qr_scan", "ios": "https://dc.lft.to/lastmile_qr_scan"}, "is_disabled": 0, "fusion_lat": 0.0, "name": "1794b4f1b1c241a0402aff4dd67f0d3f", "fusion_lon": 0.0}, {"is_reserved": 0, "type": "electric_scooter", "bike_id": "0e6742eb426a86112703a3e3013fdd1a", "lat": 38.9386255, "lon": -77.02559016666666, "rental_uris": {"android": "https://dc.lft.to/lastmile_qr_scan", "ios": "https://dc.lft.to/lastmile_qr_scan"}, "is_disabled": 0, "fusion_lat": 0.0, "name": "0e6742eb426a86112703a3e3013fdd1a", "fusion_lon": 0.0}, {"is_reserved": 0, "type": "electric_scooter", "bike_id": "a79711bccb5049266b4b530e52e05b9f", "lat": 38.96645633333333, "lon": -77.0089375, "rental_uris": {"android": "https://dc.lft.to/lastmile_qr_scan", "ios": "https://dc.lft.to/lastmile_qr_scan"}, "is_disabled": 0, "fusion_lat": 0.0, "name": "a79711bccb5049266b4b530e52e05b9f", "fusion_lon": 0.0}, {"is_reserved": 0, "type": "electric_bike", "bike_id": "ff7f68f51b68f4dc958c2a31db158e64", "lat": 38.9491845, "lon": -77.00800466666666, "rental_uris": {"android": "https://dc.lft.to/lastmile_qr_scan", "ios": "https://dc.lft.to/lastmile_qr_scan"}, "is_disabled": 0, "fusion_lat": 0.0, "name": "ff7f68f51b68f4dc958c2a31db158e64", "fusion_lon": 0.0}, {"is_reserved": 0, "type": "electric_scooter", "bike_id": "d7084a77760c48236494e899f8813bd5", "lat": 38.9261365, "lon": -77.02162833333334, "rental_uris": {"android": "https://dc.lft.to/lastmile_qr_scan", "ios": "https://dc.lft.to/lastmile_qr_scan"}, "is_disabled": 0, "fusion_lat": 0.0, "name": "d7084a77760c48236494e899f8813bd5", "fusion_lon": 0.0}, {"is_reserved": 0, "type": "electric_scooter", "bike_id": "dc52e287b9a87482d467f553dd096305", "lat": 38.90015966666667, "lon": -77.044833, "rental_uris": {"android": "https://dc.lft.to/lastmile_qr_scan", "ios": "https://dc.lft.to/lastmile_qr_scan"}, "is_disabled": 0, "fusion_lat": 0.0, "name": "dc52e287b9a87482d467f553dd096305", "fusion_lon": 0.0}, {"is_reserved": 0, "type": "electric_scooter", "bike_id": "d29390be1d9f505005df1efe65712197", "lat": 38.90602166666667, "lon": -77.00581283333334, "rental_uris": {"android": "https://dc.lft.to/lastmile_qr_scan", "ios": "https://dc.lft.to/lastmile_qr_scan"}, "is_disabled": 0, "fusion_lat": 0.0, "name": "d29390be1d9f505005df1efe65712197", "fusion_lon": 0.0}, {"is_reserved": 0, "type": "electric_scooter", "bike_id": "961b94b4c634dd2834af757f4eac1b29", "lat": 38.92663966666667, "lon": -77.024308, "rental_uris": {"android": "https://dc.lft.to/lastmile_qr_scan", "ios": "https://dc.lft.to/lastmile_qr_scan"}, "is_disabled": 0, "fusion_lat": 0.0, "name": "961b94b4c634dd2834af757f4eac1b29", "fusion_lon": 0.0}, {"is_reserved": 0, "type": "electric_scooter", "bike_id": "562036524c92b32d664fe97a0dd456e4", "lat": 38.91921983333334, "lon": -77.04806166666667, "rental_uris": {"android": "https://dc.lft.to/lastmile_qr_scan", "ios": "https://dc.lft.to/lastmile_qr_scan"}, "is_disabled": 0, "fusion_lat": 0.0, "name": "562036524c92b32d664fe97a0dd456e4", "fusion_lon": 0.0}, {"is_reserved": 0, "type": "electric_bike", "bike_id": "6d6e0e5957dca384124b2ef92d186731", "lat": 38.944723833333335, "lon": -76.98689683333333, "rental_uris": {"android": "https://dc.lft.to/lastmile_qr_scan", "ios": "https://dc.lft.to/lastmile_qr_scan"}, "is_disabled": 0, "fusion_lat": 0.0, "name": "6d6e0e5957dca384124b2ef92d186731", "fusion_lon": 0.0}, {"is_reserved": 0, "type": "electric_scooter", "bike_id": "064b9221702970c9fbf968453ecaba4c", "lat": 38.892237, "lon": -77.04866166666666, "rental_uris": {"android": "https://dc.lft.to/lastmile_qr_scan", "ios": "https://dc.lft.to/lastmile_qr_scan"}, "is_disabled": 0, "fusion_lat": 0.0, "name": "064b9221702970c9fbf968453ecaba4c", "fusion_lon": 0.0}, {"is_reserved": 0, "type": "electric_scooter", "bike_id": "3b14cc747220cb4f56e85b62fc36705f", "lat": 38.917816, "lon": -77.02310583333333, "rental_uris": {"android": "https://dc.lft.to/lastmile_qr_scan", "ios": "https://dc.lft.to/lastmile_qr_scan"}, "is_disabled": 0, "fusion_lat": 0.0, "name": "3b14cc747220cb4f56e85b62fc36705f", "fusion_lon": 0.0}, {"is_reserved": 0, "type": "electric_scooter", "bike_id": "c675643ac1d30d90d1da660917301d23", "lat": 38.924405666666665, "lon": -77.00069666666667, "rental_uris": {"android": "https://dc.lft.to/lastmile_qr_scan", "ios": "https://dc.lft.to/lastmile_qr_scan"}, "is_disabled": 0, "fusion_lat": 0.0, "name": "c675643ac1d30d90d1da660917301d23", "fusion_lon": 0.0}, {"is_reserved": 0, "type": "electric_scooter", "bike_id": "3fa88c53d63da7e3c1e6235dc8eb809c", "lat": 38.91703483333333, "lon": -77.023232, "rental_uris": {"android": "https://dc.lft.to/lastmile_qr_scan", "ios": "https://dc.lft.to/lastmile_qr_scan"}, "is_disabled": 0, "fusion_lat": 0.0, "name": "3fa88c53d63da7e3c1e6235dc8eb809c", "fusion_lon": 0.0}, {"is_reserved": 0, "type": "electric_scooter", "bike_id": "8ab6005e97be47f57c49c42d9e96cf2f", "lat": 38.87793716666667, "lon": -77.01737266666666, "rental_uris": {"android": "https://dc.lft.to/lastmile_qr_scan", "ios": "https://dc.lft.to/lastmile_qr_scan"}, "is_disabled": 0, "fusion_lat": 0.0, "name": "8ab6005e97be47f57c49c42d9e96cf2f", "fusion_lon": 0.0}, {"is_reserved": 0, "type": "electric_scooter", "bike_id": "e945a85a69ab0b2808b74bfc9db19b75", "lat": 38.932044, "lon": -77.02377433333334, "rental_uris": {"android": "https://dc.lft.to/lastmile_qr_scan", "ios": "https://dc.lft.to/lastmile_qr_scan"}, "is_disabled": 0, "fusion_lat": 0.0, "name": "e945a85a69ab0b2808b74bfc9db19b75", "fusion_lon": 0.0}, {"is_reserved": 0, "type": "electric_scooter", "bike_id": "5b97ba6915d55a6197affa875e82bf6d", "lat": 38.950586, "lon": -77.05415816666667, "rental_uris": {"android": "https://dc.lft.to/lastmile_qr_scan", "ios": "https://dc.lft.to/lastmile_qr_scan"}, "is_disabled": 0, "fusion_lat": 0.0, "name": "5b97ba6915d55a6197affa875e82bf6d", "fusion_lon": 0.0}, {"is_reserved": 0, "type": "electric_scooter", "bike_id": "3086d29da760a7414eec5d56e575dbc7", "lat": 38.87801066666667, "lon": -77.00117383333334, "rental_uris": {"android": "https://dc.lft.to/lastmile_qr_scan", "ios": "https://dc.lft.to/lastmile_qr_scan"}, "is_disabled": 0, "fusion_lat": 0.0, "name": "3086d29da760a7414eec5d56e575dbc7", "fusion_lon": 0.0}, {"is_reserved": 0, "type": "electric_scooter", "bike_id": "0a5891b75e70b9d8e83be2e7d99a2c19", "lat": 38.923875833333334, "lon": -77.03659466666667, "rental_uris": {"android": "https://dc.lft.to/lastmile_qr_scan", "ios": "https://dc.lft.to/lastmile_qr_scan"}, "is_disabled": 0, "fusion_lat": 0.0, "name": "0a5891b75e70b9d8e83be2e7d99a2c19", "fusion_lon": 0.0}, {"is_reserved": 0, "type": "electric_scooter", "bike_id": "142200125c5e95dd9571479168eca0aa", "lat": 38.9008015, "lon": -77.04934216666666, "rental_uris": {"android": "https://dc.lft.to/lastmile_qr_scan", "ios": "https://dc.lft.to/lastmile_qr_scan"}, "is_disabled": 0, "fusion_lat": 0.0, "name": "142200125c5e95dd9571479168eca0aa", "fusion_lon": 0.0}, {"is_reserved": 0, "type": "electric_scooter", "bike_id": "181a7cab11e148187de27cdbfe898d10", "lat": 38.90410583333333, "lon": -77.02498466666667, "rental_uris": {"android": "https://dc.lft.to/lastmile_qr_scan", "ios": "https://dc.lft.to/lastmile_qr_scan"}, "is_disabled": 0, "fusion_lat": 0.0, "name": "181a7cab11e148187de27cdbfe898d10", "fusion_lon": 0.0}, {"is_reserved": 0, "type": "electric_scooter", "bike_id": "ecd345c1c914150141af11a8fc5b0b35", "lat": 38.921594166666665, "lon": -77.04230183333334, "rental_uris": {"android": "https://dc.lft.to/lastmile_qr_scan", "ios": "https://dc.lft.to/lastmile_qr_scan"}, "is_disabled": 0, "fusion_lat": 0.0, "name": "ecd345c1c914150141af11a8fc5b0b35", "fusion_lon": 0.0}, {"is_reserved": 0, "type": "electric_scooter", "bike_id": "e8c433b8e7a9a5886e15490d8d24d2d9", "lat": 38.932081, "lon": -77.02396466666667, "rental_uris": {"android": "https://dc.lft.to/lastmile_qr_scan", "ios": "https://dc.lft.to/lastmile_qr_scan"}, "is_disabled": 0, "fusion_lat": 0.0, "name": "e8c433b8e7a9a5886e15490d8d24d2d9", "fusion_lon": 0.0}, {"is_reserved": 0, "type": "electric_scooter", "bike_id": "335d90308f87a6df585a2e33ce3fde09", "lat": 38.920624, "lon": -77.031512, "rental_uris": {"android": "https://dc.lft.to/lastmile_qr_scan", "ios": "https://dc.lft.to/lastmile_qr_scan"}, "is_disabled": 0, "fusion_lat": 0.0, "name": "335d90308f87a6df585a2e33ce3fde09", "fusion_lon": 0.0}, {"is_reserved": 0, "type": "electric_scooter", "bike_id": "5ad9f698057b24fbc8f7b6fdb74c66b9", "lat": 38.9242655, "lon": -77.01933516666666, "rental_uris": {"android": "https://dc.lft.to/lastmile_qr_scan", "ios": "https://dc.lft.to/lastmile_qr_scan"}, "is_disabled": 0, "fusion_lat": 0.0, "name": "5ad9f698057b24fbc8f7b6fdb74c66b9", "fusion_lon": 0.0}, {"is_reserved": 0, "type": "electric_scooter", "bike_id": "1885f318cb8b3d15e6caf885f0856441", "lat": 38.878726666666665, "lon": -76.96259933333333, "rental_uris": {"android": "https://dc.lft.to/lastmile_qr_scan", "ios": "https://dc.lft.to/lastmile_qr_scan"}, "is_disabled": 0, "fusion_lat": 0.0, "name": "1885f318cb8b3d15e6caf885f0856441", "fusion_lon": 0.0}, {"is_reserved": 0, "type": "electric_scooter", "bike_id": "6ae68c0bd0dead6876fc5cda1de99d8f", "lat": 38.926091666666665, "lon": -77.02158566666667, "rental_uris": {"android": "https://dc.lft.to/lastmile_qr_scan", "ios": "https://dc.lft.to/lastmile_qr_scan"}, "is_disabled": 0, "fusion_lat": 0.0, "name": "6ae68c0bd0dead6876fc5cda1de99d8f", "fusion_lon": 0.0}, {"is_reserved": 0, "type": "electric_scooter", "bike_id": "857980cf3fc34cfd77fc9a60388d7cdc", "lat": 38.9007765, "lon": -77.00740316666666, "rental_uris": {"android": "https://dc.lft.to/lastmile_qr_scan", "ios": "https://dc.lft.to/lastmile_qr_scan"}, "is_disabled": 0, "fusion_lat": 0.0, "name": "857980cf3fc34cfd77fc9a60388d7cdc", "fusion_lon": 0.0}, {"is_reserved": 0, "type": "electric_scooter", "bike_id": "06d3042ca6e59f2a99fe3e29af579684", "lat": 38.89782683333333, "lon": -77.016472, "rental_uris": {"android": "https://dc.lft.to/lastmile_qr_scan", "ios": "https://dc.lft.to/lastmile_qr_scan"}, "is_disabled": 0, "fusion_lat": 0.0, "name": "06d3042ca6e59f2a99fe3e29af579684", "fusion_lon": 0.0}, {"is_reserved": 0, "type": "electric_scooter", "bike_id": "156ad8373f98d64712728b3ba3e1176a", "lat": 38.9418055, "lon": -77.025646, "rental_uris": {"android": "https://dc.lft.to/lastmile_qr_scan", "ios": "https://dc.lft.to/lastmile_qr_scan"}, "is_disabled": 0, "fusion_lat": 0.0, "name": "156ad8373f98d64712728b3ba3e1176a", "fusion_lon": 0.0}, {"is_reserved": 0, "type": "electric_scooter", "bike_id": "c360c451c7e3d47bbc82ad5dbcc7f81a", "lat": 38.912579, "lon": -77.03159733333334, "rental_uris": {"android": "https://dc.lft.to/lastmile_qr_scan", "ios": "https://dc.lft.to/lastmile_qr_scan"}, "is_disabled": 0, "fusion_lat": 0.0, "name": "c360c451c7e3d47bbc82ad5dbcc7f81a", "fusion_lon": 0.0}, {"is_reserved": 0, "type": "electric_bike", "bike_id": "a4885b5677352a84959e70504f901a71", "lat": 38.958476166666664, "lon": -76.98584783333334, "rental_uris": {"android": "https://dc.lft.to/lastmile_qr_scan", "ios": "https://dc.lft.to/lastmile_qr_scan"}, "is_disabled": 0, "fusion_lat": 0.0, "name": "a4885b5677352a84959e70504f901a71", "fusion_lon": 0.0}, {"is_reserved": 0, "type": "electric_scooter", "bike_id": "9b49335328c4746aaa9d4dbc3627b8bd", "lat": 38.9147305, "lon": -77.02602133333333, "rental_uris": {"android": "https://dc.lft.to/lastmile_qr_scan", "ios": "https://dc.lft.to/lastmile_qr_scan"}, "is_disabled": 0, "fusion_lat": 0.0, "name": "9b49335328c4746aaa9d4dbc3627b8bd", "fusion_lon": 0.0}, {"is_reserved": 0, "type": "electric_scooter", "bike_id": "5db9549aa9652922edaa0955993194ab", "lat": 38.931959666666664, "lon": -77.02356, "rental_uris": {"android": "https://dc.lft.to/lastmile_qr_scan", "ios": "https://dc.lft.to/lastmile_qr_scan"}, "is_disabled": 0, "fusion_lat": 0.0, "name": "5db9549aa9652922edaa0955993194ab", "fusion_lon": 0.0}, {"is_reserved": 0, "type": "electric_scooter", "bike_id": "1deed79a591c98b3eae692a3d2ea1b19", "lat": 38.8933415, "lon": -77.0487075, "rental_uris": {"android": "https://dc.lft.to/lastmile_qr_scan", "ios": "https://dc.lft.to/lastmile_qr_scan"}, "is_disabled": 0, "fusion_lat": 0.0, "name": "1deed79a591c98b3eae692a3d2ea1b19", "fusion_lon": 0.0}, {"is_reserved": 0, "type": "electric_scooter", "bike_id": "0e93489c9b5d371187beefe19fe362ca", "lat": 38.90727233333333, "lon": -76.93448183333334, "rental_uris": {"android": "https://dc.lft.to/lastmile_qr_scan", "ios": "https://dc.lft.to/lastmile_qr_scan"}, "is_disabled": 0, "fusion_lat": 0.0, "name": "0e93489c9b5d371187beefe19fe362ca", "fusion_lon": 0.0}, {"is_reserved": 0, "type": "electric_scooter", "bike_id": "fa3b1f944e4b6a9de1853629fccb9b81", "lat": 38.9139735, "lon": -77.04675116666667, "rental_uris": {"android": "https://dc.lft.to/lastmile_qr_scan", "ios": "https://dc.lft.to/lastmile_qr_scan"}, "is_disabled": 0, "fusion_lat": 0.0, "name": "fa3b1f944e4b6a9de1853629fccb9b81", "fusion_lon": 0.0}, {"is_reserved": 0, "type": "electric_scooter", "bike_id": "34751d43457ecd17e135ef2112c5c9db", "lat": 38.933026, "lon": -77.02141316666666, "rental_uris": {"android": "https://dc.lft.to/lastmile_qr_scan", "ios": "https://dc.lft.to/lastmile_qr_scan"}, "is_disabled": 0, "fusion_lat": 0.0, "name": "34751d43457ecd17e135ef2112c5c9db", "fusion_lon": 0.0}, {"is_reserved": 0, "type": "electric_scooter", "bike_id": "1318aee738725ff24a56881e89d50922", "lat": 38.8994925, "lon": -76.97909733333333, "rental_uris": {"android": "https://dc.lft.to/lastmile_qr_scan", "ios": "https://dc.lft.to/lastmile_qr_scan"}, "is_disabled": 0, "fusion_lat": 0.0, "name": "1318aee738725ff24a56881e89d50922", "fusion_lon": 0.0}, {"is_reserved": 0, "type": "electric_scooter", "bike_id": "7a07b25b4b2529e814b13d5a88b54ad5", "lat": 38.914093, "lon": -77.03179266666666, "rental_uris": {"android": "https://dc.lft.to/lastmile_qr_scan", "ios": "https://dc.lft.to/lastmile_qr_scan"}, "is_disabled": 0, "fusion_lat": 0.0, "name": "7a07b25b4b2529e814b13d5a88b54ad5", "fusion_lon": 0.0}, {"is_reserved": 0, "type": "electric_scooter", "bike_id": "a1fea4386797bb2df7d40677757f01f7", "lat": 38.92029466666666, "lon": -77.042034, "rental_uris": {"android": "https://dc.lft.to/lastmile_qr_scan", "ios": "https://dc.lft.to/lastmile_qr_scan"}, "is_disabled": 0, "fusion_lat": 0.0, "name": "a1fea4386797bb2df7d40677757f01f7", "fusion_lon": 0.0}, {"is_reserved": 0, "type": "electric_bike", "bike_id": "5cc430d571c2042dbbd4d6f6cefce351", "lat": 38.946690833333335, "lon": -76.99338266666666, "rental_uris": {"android": "https://dc.lft.to/lastmile_qr_scan", "ios": "https://dc.lft.to/lastmile_qr_scan"}, "is_disabled": 0, "fusion_lat": 0.0, "name": "5cc430d571c2042dbbd4d6f6cefce351", "fusion_lon": 0.0}, {"is_reserved": 0, "type": "electric_scooter", "bike_id": "569b483e6851bbec61f5131399888781", "lat": 38.91259066666667, "lon": -77.00775266666666, "rental_uris": {"android": "https://dc.lft.to/lastmile_qr_scan", "ios": "https://dc.lft.to/lastmile_qr_scan"}, "is_disabled": 0, "fusion_lat": 0.0, "name": "569b483e6851bbec61f5131399888781", "fusion_lon": 0.0}, {"is_reserved": 0, "type": "electric_scooter", "bike_id": "b31b06e528b33b28a3aaaa0f2e1dc8a8", "lat": 38.8851085, "lon": -77.011157, "rental_uris": {"android": "https://dc.lft.to/lastmile_qr_scan", "ios": "https://dc.lft.to/lastmile_qr_scan"}, "is_disabled": 0, "fusion_lat": 0.0, "name": "b31b06e528b33b28a3aaaa0f2e1dc8a8", "fusion_lon": 0.0}, {"is_reserved": 0, "type": "electric_scooter", "bike_id": "6d155ceff974c8a7180c3d64594ced46", "lat": 38.8984665, "lon": -77.02949716666667, "rental_uris": {"android": "https://dc.lft.to/lastmile_qr_scan", "ios": "https://dc.lft.to/lastmile_qr_scan"}, "is_disabled": 0, "fusion_lat": 0.0, "name": "6d155ceff974c8a7180c3d64594ced46", "fusion_lon": 0.0}, {"is_reserved": 0, "type": "electric_scooter", "bike_id": "eafd0a67c1dab45cab65ad997797a294", "lat": 38.91643833333333, "lon": -77.03177983333333, "rental_uris": {"android": "https://dc.lft.to/lastmile_qr_scan", "ios": "https://dc.lft.to/lastmile_qr_scan"}, "is_disabled": 0, "fusion_lat": 0.0, "name": "eafd0a67c1dab45cab65ad997797a294", "fusion_lon": 0.0}, {"is_reserved": 0, "type": "electric_scooter", "bike_id": "39ef6e5baf0529ba01f44eb27fbccd03", "lat": 38.916388, "lon": -77.02379583333334, "rental_uris": {"android": "https://dc.lft.to/lastmile_qr_scan", "ios": "https://dc.lft.to/lastmile_qr_scan"}, "is_disabled": 0, "fusion_lat": 0.0, "name": "39ef6e5baf0529ba01f44eb27fbccd03", "fusion_lon": 0.0}, {"is_reserved": 0, "type": "electric_scooter", "bike_id": "f9f8da32a5de7f6c40e7db394ccada8e", "lat": 38.899171, "lon": -77.032854, "rental_uris": {"android": "https://dc.lft.to/lastmile_qr_scan", "ios": "https://dc.lft.to/lastmile_qr_scan"}, "is_disabled": 0, "fusion_lat": 0.0, "name": "f9f8da32a5de7f6c40e7db394ccada8e", "fusion_lon": 0.0}, {"is_reserved": 0, "type": "electric_scooter", "bike_id": "bfc79f530e5035209f248eb152c703c5", "lat": 38.897421, "lon": -76.99767316666667, "rental_uris": {"android": "https://dc.lft.to/lastmile_qr_scan", "ios": "https://dc.lft.to/lastmile_qr_scan"}, "is_disabled": 0, "fusion_lat": 0.0, "name": "bfc79f530e5035209f248eb152c703c5", "fusion_lon": 0.0}, {"is_reserved": 0, "type": "electric_scooter", "bike_id": "053d21eca2fbf894716333f15f05c8d1", "lat": 38.9074295, "lon": -77.04190233333334, "rental_uris": {"android": "https://dc.lft.to/lastmile_qr_scan", "ios": "https://dc.lft.to/lastmile_qr_scan"}, "is_disabled": 0, "fusion_lat": 0.0, "name": "053d21eca2fbf894716333f15f05c8d1", "fusion_lon": 0.0}, {"is_reserved": 0, "type": "electric_bike", "bike_id": "ca6457d8de362deaf696a9c9cccd5380", "lat": 38.886096, "lon": -77.14234116666667, "rental_uris": {"android": "https://dc.lft.to/lastmile_qr_scan", "ios": "https://dc.lft.to/lastmile_qr_scan"}, "is_disabled": 0, "fusion_lat": 0.0, "name": "ca6457d8de362deaf696a9c9cccd5380", "fusion_lon": 0.0}, {"is_reserved": 0, "type": "electric_scooter", "bike_id": "6db79a5a2ce624b522128236107d3497", "lat": 38.91685716666667, "lon": -77.02526866666666, "rental_uris": {"android": "https://dc.lft.to/lastmile_qr_scan", "ios": "https://dc.lft.to/lastmile_qr_scan"}, "is_disabled": 0, "fusion_lat": 0.0, "name": "6db79a5a2ce624b522128236107d3497", "fusion_lon": 0.0}, {"is_reserved": 0, "type": "electric_scooter", "bike_id": "957a4b3d460df34a0693bb3e96ea6dd1", "lat": 38.90709316666667, "lon": -77.0240215, "rental_uris": {"android": "https://dc.lft.to/lastmile_qr_scan", "ios": "https://dc.lft.to/lastmile_qr_scan"}, "is_disabled": 0, "fusion_lat": 0.0, "name": "957a4b3d460df34a0693bb3e96ea6dd1", "fusion_lon": 0.0}, {"is_reserved": 0, "type": "electric_scooter", "bike_id": "25e7de42d99232992a5839cc7f347536", "lat": 38.91446766666667, "lon": -77.0318485, "rental_uris": {"android": "https://dc.lft.to/lastmile_qr_scan", "ios": "https://dc.lft.to/lastmile_qr_scan"}, "is_disabled": 0, "fusion_lat": 0.0, "name": "25e7de42d99232992a5839cc7f347536", "fusion_lon": 0.0}, {"is_reserved": 0, "type": "electric_scooter", "bike_id": "4937c62f89ba687bc8c16db24bbd9e08", "lat": 38.903876833333335, "lon": -77.01786116666666, "rental_uris": {"android": "https://dc.lft.to/lastmile_qr_scan", "ios": "https://dc.lft.to/lastmile_qr_scan"}, "is_disabled": 0, "fusion_lat": 0.0, "name": "4937c62f89ba687bc8c16db24bbd9e08", "fusion_lon": 0.0}, {"is_reserved": 0, "type": "electric_scooter", "bike_id": "9fccaa2e3b13f48d23cb13d8bf1af15d", "lat": 38.916951166666664, "lon": -77.0259635, "rental_uris": {"android": "https://dc.lft.to/lastmile_qr_scan", "ios": "https://dc.lft.to/lastmile_qr_scan"}, "is_disabled": 0, "fusion_lat": 0.0, "name": "9fccaa2e3b13f48d23cb13d8bf1af15d", "fusion_lon": 0.0}, {"is_reserved": 0, "type": "electric_scooter", "bike_id": "d0d3a682c1e6748a80489133b1f0e631", "lat": 38.92247666666667, "lon": -77.047159, "rental_uris": {"android": "https://dc.lft.to/lastmile_qr_scan", "ios": "https://dc.lft.to/lastmile_qr_scan"}, "is_disabled": 0, "fusion_lat": 0.0, "name": "d0d3a682c1e6748a80489133b1f0e631", "fusion_lon": 0.0}, {"is_reserved": 0, "type": "electric_bike", "bike_id": "1aae4bf3c816ce9671215aa07c8c633d", "lat": 38.9479925, "lon": -76.9425235, "rental_uris": {"android": "https://dc.lft.to/lastmile_qr_scan", "ios": "https://dc.lft.to/lastmile_qr_scan"}, "is_disabled": 0, "fusion_lat": 0.0, "name": "1aae4bf3c816ce9671215aa07c8c633d", "fusion_lon": 0.0}, {"is_reserved": 0, "type": "electric_scooter", "bike_id": "d5da67e5a10288921e62e0f7d8969a27", "lat": 38.9267545, "lon": -77.00744116666667, "rental_uris": {"android": "https://dc.lft.to/lastmile_qr_scan", "ios": "https://dc.lft.to/lastmile_qr_scan"}, "is_disabled": 0, "fusion_lat": 0.0, "name": "d5da67e5a10288921e62e0f7d8969a27", "fusion_lon": 0.0}, {"is_reserved": 0, "type": "electric_scooter", "bike_id": "28e02aa130856864006e82b19a25c2db", "lat": 38.91119366666667, "lon": -77.00255433333334, "rental_uris": {"android": "https://dc.lft.to/lastmile_qr_scan", "ios": "https://dc.lft.to/lastmile_qr_scan"}, "is_disabled": 0, "fusion_lat": 0.0, "name": "28e02aa130856864006e82b19a25c2db", "fusion_lon": 0.0}, {"is_reserved": 0, "type": "electric_scooter", "bike_id": "e7c540203becc42f0b48ff9abe2533e6", "lat": 38.89545966666667, "lon": -76.9833745, "rental_uris": {"android": "https://dc.lft.to/lastmile_qr_scan", "ios": "https://dc.lft.to/lastmile_qr_scan"}, "is_disabled": 0, "fusion_lat": 0.0, "name": "e7c540203becc42f0b48ff9abe2533e6", "fusion_lon": 0.0}, {"is_reserved": 0, "type": "electric_scooter", "bike_id": "5f49ce6f282958f8f4ecb3ec5c6d2554", "lat": 38.91031016666667, "lon": -77.04808933333334, "rental_uris": {"android": "https://dc.lft.to/lastmile_qr_scan", "ios": "https://dc.lft.to/lastmile_qr_scan"}, "is_disabled": 0, "fusion_lat": 0.0, "name": "5f49ce6f282958f8f4ecb3ec5c6d2554", "fusion_lon": 0.0}, {"is_reserved": 0, "type": "electric_scooter", "bike_id": "1b2c3994be704088325d31712ee9f825", "lat": 38.914174833333334, "lon": -77.01879483333333, "rental_uris": {"android": "https://dc.lft.to/lastmile_qr_scan", "ios": "https://dc.lft.to/lastmile_qr_scan"}, "is_disabled": 0, "fusion_lat": 0.0, "name": "1b2c3994be704088325d31712ee9f825", "fusion_lon": 0.0}, {"is_reserved": 0, "type": "electric_bike", "bike_id": "7a626a53fcf9da75a6e837f06fece060", "lat": 38.844580666666666, "lon": -76.93160333333333, "rental_uris": {"android": "https://dc.lft.to/lastmile_qr_scan", "ios": "https://dc.lft.to/lastmile_qr_scan"}, "is_disabled": 0, "fusion_lat": 0.0, "name": "7a626a53fcf9da75a6e837f06fece060", "fusion_lon": 0.0}, {"is_reserved": 0, "type": "electric_scooter", "bike_id": "6f2c225529dc53fd6f8ce74eb2c64da4", "lat": 38.900861166666665, "lon": -77.034581, "rental_uris": {"android": "https://dc.lft.to/lastmile_qr_scan", "ios": "https://dc.lft.to/lastmile_qr_scan"}, "is_disabled": 0, "fusion_lat": 0.0, "name": "6f2c225529dc53fd6f8ce74eb2c64da4", "fusion_lon": 0.0}, {"is_reserved": 0, "type": "electric_bike", "bike_id": "24e13c4fa7f69df044ae0990400f57cd", "lat": 38.985341166666664, "lon": -76.95471, "rental_uris": {"android": "https://dc.lft.to/lastmile_qr_scan", "ios": "https://dc.lft.to/lastmile_qr_scan"}, "is_disabled": 0, "fusion_lat": 0.0, "name": "24e13c4fa7f69df044ae0990400f57cd", "fusion_lon": 0.0}, {"is_reserved": 0, "type": "electric_scooter", "bike_id": "8b6bd2360118ce492c0a694a4f26ec7a", "lat": 38.9255685, "lon": -77.03828833333333, "rental_uris": {"android": "https://dc.lft.to/lastmile_qr_scan", "ios": "https://dc.lft.to/lastmile_qr_scan"}, "is_disabled": 0, "fusion_lat": 0.0, "name": "8b6bd2360118ce492c0a694a4f26ec7a", "fusion_lon": 0.0}, {"is_reserved": 0, "type": "electric_scooter", "bike_id": "5319634fe6031bb5d02d2e3f7891cbc5", "lat": 38.91828666666667, "lon": -77.01207333333333, "rental_uris": {"android": "https://dc.lft.to/lastmile_qr_scan", "ios": "https://dc.lft.to/lastmile_qr_scan"}, "is_disabled": 0, "fusion_lat": 0.0, "name": "5319634fe6031bb5d02d2e3f7891cbc5", "fusion_lon": 0.0}, {"is_reserved": 0, "type": "electric_bike", "bike_id": "f02b9611091bb2f5496f58a09d551e30", "lat": 38.921197166666666, "lon": -76.9887985, "rental_uris": {"android": "https://dc.lft.to/lastmile_qr_scan", "ios": "https://dc.lft.to/lastmile_qr_scan"}, "is_disabled": 0, "fusion_lat": 0.0, "name": "f02b9611091bb2f5496f58a09d551e30", "fusion_lon": 0.0}, {"is_reserved": 0, "type": "electric_scooter", "bike_id": "16473a637081567d873ab7ed89fd4a5e", "lat": 38.924441333333334, "lon": -76.99667366666667, "rental_uris": {"android": "https://dc.lft.to/lastmile_qr_scan", "ios": "https://dc.lft.to/lastmile_qr_scan"}, "is_disabled": 0, "fusion_lat": 0.0, "name": "16473a637081567d873ab7ed89fd4a5e", "fusion_lon": 0.0}, {"is_reserved": 0, "type": "electric_bike", "bike_id": "5dac29a6c44fa92e8be5c953f49a4aa9", "lat": 39.0109535, "lon": -77.04953916666666, "rental_uris": {"android": "https://dc.lft.to/lastmile_qr_scan", "ios": "https://dc.lft.to/lastmile_qr_scan"}, "is_disabled": 0, "fusion_lat": 0.0, "name": "5dac29a6c44fa92e8be5c953f49a4aa9", "fusion_lon": 0.0}, {"is_reserved": 0, "type": "electric_scooter", "bike_id": "50a60bc573175c7c7f08561bfd7b76bd", "lat": 38.90782866666667, "lon": -77.002166, "rental_uris": {"android": "https://dc.lft.to/lastmile_qr_scan", "ios": "https://dc.lft.to/lastmile_qr_scan"}, "is_disabled": 0, "fusion_lat": 0.0, "name": "50a60bc573175c7c7f08561bfd7b76bd", "fusion_lon": 0.0}, {"is_reserved": 0, "type": "electric_scooter", "bike_id": "7f445656d0ada116fadad04e43ce5196", "lat": 38.907933666666665, "lon": -77.010736, "rental_uris": {"android": "https://dc.lft.to/lastmile_qr_scan", "ios": "https://dc.lft.to/lastmile_qr_scan"}, "is_disabled": 0, "fusion_lat": 0.0, "name": "7f445656d0ada116fadad04e43ce5196", "fusion_lon": 0.0}, {"is_reserved": 0, "type": "electric_bike", "bike_id": "6835f29a2a98bd1332cb9f1365be8ffa", "lat": 39.00002333333333, "lon": -76.9180415, "rental_uris": {"android": "https://dc.lft.to/lastmile_qr_scan", "ios": "https://dc.lft.to/lastmile_qr_scan"}, "is_disabled": 0, "fusion_lat": 0.0, "name": "6835f29a2a98bd1332cb9f1365be8ffa", "fusion_lon": 0.0}, {"is_reserved": 0, "type": "electric_bike", "bike_id": "0c36b5cdd580cce648a915da50d2146e", "lat": 38.862909333333334, "lon": -76.980113, "rental_uris": {"android": "https://dc.lft.to/lastmile_qr_scan", "ios": "https://dc.lft.to/lastmile_qr_scan"}, "is_disabled": 0, "fusion_lat": 0.0, "name": "0c36b5cdd580cce648a915da50d2146e", "fusion_lon": 0.0}, {"is_reserved": 0, "type": "electric_bike", "bike_id": "cc82d7a6bb3206c826e4dbcfaa088314", "lat": 38.92038016666667, "lon": -76.97953766666667, "rental_uris": {"android": "https://dc.lft.to/lastmile_qr_scan", "ios": "https://dc.lft.to/lastmile_qr_scan"}, "is_disabled": 0, "fusion_lat": 0.0, "name": "cc82d7a6bb3206c826e4dbcfaa088314", "fusion_lon": 0.0}, {"is_reserved": 0, "type": "electric_scooter", "bike_id": "da7da2c96e7bead078a747c670bcab78", "lat": 38.90575366666667, "lon": -77.00559083333333, "rental_uris": {"android": "https://dc.lft.to/lastmile_qr_scan", "ios": "https://dc.lft.to/lastmile_qr_scan"}, "is_disabled": 0, "fusion_lat": 0.0, "name": "da7da2c96e7bead078a747c670bcab78", "fusion_lon": 0.0}, {"is_reserved": 0, "type": "electric_scooter", "bike_id": "8206e5b745be08447b44d819be255293", "lat": 38.8873105, "lon": -77.0284035, "rental_uris": {"android": "https://dc.lft.to/lastmile_qr_scan", "ios": "https://dc.lft.to/lastmile_qr_scan"}, "is_disabled": 0, "fusion_lat": 0.0, "name": "8206e5b745be08447b44d819be255293", "fusion_lon": 0.0}, {"is_reserved": 0, "type": "electric_scooter", "bike_id": "5805694d032acaa50c410378b032c49c", "lat": 38.934965, "lon": -77.03656883333333, "rental_uris": {"android": "https://dc.lft.to/lastmile_qr_scan", "ios": "https://dc.lft.to/lastmile_qr_scan"}, "is_disabled": 0, "fusion_lat": 0.0, "name": "5805694d032acaa50c410378b032c49c", "fusion_lon": 0.0}, {"is_reserved": 0, "type": "electric_scooter", "bike_id": "af066ef69f318996a85153bdbe88f6a3", "lat": 38.903029833333335, "lon": -76.93417916666667, "rental_uris": {"android": "https://dc.lft.to/lastmile_qr_scan", "ios": "https://dc.lft.to/lastmile_qr_scan"}, "is_disabled": 0, "fusion_lat": 0.0, "name": "af066ef69f318996a85153bdbe88f6a3", "fusion_lon": 0.0}, {"is_reserved": 0, "type": "electric_scooter", "bike_id": "2358c401f62950288df9090fb82b0044", "lat": 38.94654233333333, "lon": -77.06474683333333, "rental_uris": {"android": "https://dc.lft.to/lastmile_qr_scan", "ios": "https://dc.lft.to/lastmile_qr_scan"}, "is_disabled": 0, "fusion_lat": 0.0, "name": "2358c401f62950288df9090fb82b0044", "fusion_lon": 0.0}, {"is_reserved": 0, "type": "electric_scooter", "bike_id": "1221d4f114868aa5b88cc3f84f6784bd", "lat": 38.921185, "lon": -77.04225366666667, "rental_uris": {"android": "https://dc.lft.to/lastmile_qr_scan", "ios": "https://dc.lft.to/lastmile_qr_scan"}, "is_disabled": 0, "fusion_lat": 0.0, "name": "1221d4f114868aa5b88cc3f84f6784bd", "fusion_lon": 0.0}, {"is_reserved": 0, "type": "electric_scooter", "bike_id": "9f9d955d3a005fe4a977f829c3c3ac13", "lat": 38.930996, "lon": -77.02473533333334, "rental_uris": {"android": "https://dc.lft.to/lastmile_qr_scan", "ios": "https://dc.lft.to/lastmile_qr_scan"}, "is_disabled": 0, "fusion_lat": 0.0, "name": "9f9d955d3a005fe4a977f829c3c3ac13", "fusion_lon": 0.0}, {"is_reserved": 0, "type": "electric_scooter", "bike_id": "dce0f8d21225760de65eb1b5949fda3e", "lat": 38.945144, "lon": -77.0336275, "rental_uris": {"android": "https://dc.lft.to/lastmile_qr_scan", "ios": "https://dc.lft.to/lastmile_qr_scan"}, "is_disabled": 0, "fusion_lat": 0.0, "name": "dce0f8d21225760de65eb1b5949fda3e", "fusion_lon": 0.0}, {"is_reserved": 0, "type": "electric_scooter", "bike_id": "49d76e860fdc2537f0da197dd5fea533", "lat": 38.916119333333334, "lon": -77.03166966666667, "rental_uris": {"android": "https://dc.lft.to/lastmile_qr_scan", "ios": "https://dc.lft.to/lastmile_qr_scan"}, "is_disabled": 0, "fusion_lat": 0.0, "name": "49d76e860fdc2537f0da197dd5fea533", "fusion_lon": 0.0}, {"is_reserved": 0, "type": "electric_scooter", "bike_id": "e8d56556fabf33803c1dc7c7d5255fbd", "lat": 38.93064833333333, "lon": -77.03943333333333, "rental_uris": {"android": "https://dc.lft.to/lastmile_qr_scan", "ios": "https://dc.lft.to/lastmile_qr_scan"}, "is_disabled": 0, "fusion_lat": 0.0, "name": "e8d56556fabf33803c1dc7c7d5255fbd", "fusion_lon": 0.0}, {"is_reserved": 0, "type": "electric_scooter", "bike_id": "f8debab9cc048d2b899b57326fff4946", "lat": 38.89494466666667, "lon": -77.02180266666667, "rental_uris": {"android": "https://dc.lft.to/lastmile_qr_scan", "ios": "https://dc.lft.to/lastmile_qr_scan"}, "is_disabled": 0, "fusion_lat": 0.0, "name": "f8debab9cc048d2b899b57326fff4946", "fusion_lon": 0.0}, {"is_reserved": 0, "type": "electric_scooter", "bike_id": "a1999ff7fa481a7ff53b5e4cbfaf481e", "lat": 38.919160833333336, "lon": -77.013422, "rental_uris": {"android": "https://dc.lft.to/lastmile_qr_scan", "ios": "https://dc.lft.to/lastmile_qr_scan"}, "is_disabled": 0, "fusion_lat": 0.0, "name": "a1999ff7fa481a7ff53b5e4cbfaf481e", "fusion_lon": 0.0}, {"is_reserved": 0, "type": "electric_scooter", "bike_id": "3cb9dcf1f86fd1e2bbd955918202cdf4", "lat": 38.92135016666667, "lon": -77.01807283333333, "rental_uris": {"android": "https://dc.lft.to/lastmile_qr_scan", "ios": "https://dc.lft.to/lastmile_qr_scan"}, "is_disabled": 0, "fusion_lat": 0.0, "name": "3cb9dcf1f86fd1e2bbd955918202cdf4", "fusion_lon": 0.0}, {"is_reserved": 0, "type": "electric_scooter", "bike_id": "baeafa23c43771668765335a827cb3da", "lat": 38.906164833333335, "lon": -77.02594916666666, "rental_uris": {"android": "https://dc.lft.to/lastmile_qr_scan", "ios": "https://dc.lft.to/lastmile_qr_scan"}, "is_disabled": 0, "fusion_lat": 0.0, "name": "baeafa23c43771668765335a827cb3da", "fusion_lon": 0.0}, {"is_reserved": 0, "type": "electric_scooter", "bike_id": "326bf40e53ba40058215ce6e96c35ef2", "lat": 38.93266066666666, "lon": -77.03263733333333, "rental_uris": {"android": "https://dc.lft.to/lastmile_qr_scan", "ios": "https://dc.lft.to/lastmile_qr_scan"}, "is_disabled": 0, "fusion_lat": 0.0, "name": "326bf40e53ba40058215ce6e96c35ef2", "fusion_lon": 0.0}, {"is_reserved": 0, "type": "electric_scooter", "bike_id": "8c1d9b648e4508491efc468ac85b8082", "lat": 38.92368916666667, "lon": -77.02013266666667, "rental_uris": {"android": "https://dc.lft.to/lastmile_qr_scan", "ios": "https://dc.lft.to/lastmile_qr_scan"}, "is_disabled": 0, "fusion_lat": 0.0, "name": "8c1d9b648e4508491efc468ac85b8082", "fusion_lon": 0.0}, {"is_reserved": 0, "type": "electric_scooter", "bike_id": "066281a8c74045d1480d7d4ca82bd73f", "lat": 38.9668015, "lon": -77.036079, "rental_uris": {"android": "https://dc.lft.to/lastmile_qr_scan", "ios": "https://dc.lft.to/lastmile_qr_scan"}, "is_disabled": 0, "fusion_lat": 0.0, "name": "066281a8c74045d1480d7d4ca82bd73f", "fusion_lon": 0.0}, {"is_reserved": 0, "type": "electric_scooter", "bike_id": "3e4af03b2ce3a1e13cc1fb8e6bde1e93", "lat": 38.916352833333335, "lon": -77.02548466666667, "rental_uris": {"android": "https://dc.lft.to/lastmile_qr_scan", "ios": "https://dc.lft.to/lastmile_qr_scan"}, "is_disabled": 0, "fusion_lat": 0.0, "name": "3e4af03b2ce3a1e13cc1fb8e6bde1e93", "fusion_lon": 0.0}, {"is_reserved": 0, "type": "electric_scooter", "bike_id": "1989c76abb3c6d7fcb694fe86833e576", "lat": 38.928901, "lon": -77.02308883333333, "rental_uris": {"android": "https://dc.lft.to/lastmile_qr_scan", "ios": "https://dc.lft.to/lastmile_qr_scan"}, "is_disabled": 0, "fusion_lat": 0.0, "name": "1989c76abb3c6d7fcb694fe86833e576", "fusion_lon": 0.0}, {"is_reserved": 0, "type": "electric_scooter", "bike_id": "5aa25c82ed810112d09447f132f32d59", "lat": 38.95182716666667, "lon": -77.01261966666667, "rental_uris": {"android": "https://dc.lft.to/lastmile_qr_scan", "ios": "https://dc.lft.to/lastmile_qr_scan"}, "is_disabled": 0, "fusion_lat": 0.0, "name": "5aa25c82ed810112d09447f132f32d59", "fusion_lon": 0.0}, {"is_reserved": 0, "type": "electric_scooter", "bike_id": "04623704494ad0d02a15785facf63855", "lat": 38.94826033333333, "lon": -77.025784, "rental_uris": {"android": "https://dc.lft.to/lastmile_qr_scan", "ios": "https://dc.lft.to/lastmile_qr_scan"}, "is_disabled": 0, "fusion_lat": 0.0, "name": "04623704494ad0d02a15785facf63855", "fusion_lon": 0.0}, {"is_reserved": 0, "type": "electric_scooter", "bike_id": "949c5208a53458d626c7202ecaa9b8fd", "lat": 38.9202995, "lon": -76.99546333333333, "rental_uris": {"android": "https://dc.lft.to/lastmile_qr_scan", "ios": "https://dc.lft.to/lastmile_qr_scan"}, "is_disabled": 0, "fusion_lat": 0.0, "name": "949c5208a53458d626c7202ecaa9b8fd", "fusion_lon": 0.0}, {"is_reserved": 0, "type": "electric_scooter", "bike_id": "22565d700d7fcf323536594c162abf2a", "lat": 38.909768, "lon": -77.0111165, "rental_uris": {"android": "https://dc.lft.to/lastmile_qr_scan", "ios": "https://dc.lft.to/lastmile_qr_scan"}, "is_disabled": 0, "fusion_lat": 0.0, "name": "22565d700d7fcf323536594c162abf2a", "fusion_lon": 0.0}, {"is_reserved": 0, "type": "electric_scooter", "bike_id": "c619af0d1e313fc936944141106784e4", "lat": 38.860194, "lon": -76.97000166666666, "rental_uris": {"android": "https://dc.lft.to/lastmile_qr_scan", "ios": "https://dc.lft.to/lastmile_qr_scan"}, "is_disabled": 0, "fusion_lat": 0.0, "name": "c619af0d1e313fc936944141106784e4", "fusion_lon": 0.0}, {"is_reserved": 0, "type": "electric_scooter", "bike_id": "adb0b6a83ad7474ada2ade25bff91f19", "lat": 38.895455166666665, "lon": -76.9833895, "rental_uris": {"android": "https://dc.lft.to/lastmile_qr_scan", "ios": "https://dc.lft.to/lastmile_qr_scan"}, "is_disabled": 0, "fusion_lat": 0.0, "name": "adb0b6a83ad7474ada2ade25bff91f19", "fusion_lon": 0.0}, {"is_reserved": 0, "type": "electric_scooter", "bike_id": "b8fa345ecab8833e3d744771f63aa744", "lat": 38.8954095, "lon": -76.927713, "rental_uris": {"android": "https://dc.lft.to/lastmile_qr_scan", "ios": "https://dc.lft.to/lastmile_qr_scan"}, "is_disabled": 0, "fusion_lat": 0.0, "name": "b8fa345ecab8833e3d744771f63aa744", "fusion_lon": 0.0},