{"data": {"bikes": [{"fusion_lat": 0.0, "fusion_lon": 0.0, "rental_uris": {"android": "https://dc.lft.to/lastmile_qr_scan", "ios": "https://dc.lft.to/lastmile_qr_scan"}, "lon": -76.9703185, "name": "53c38de706870fda3b5af1a3b3196229", "is_disabled": 0, "is_reserved": 0, "bike_id": "53c38de706870fda3b5af1a3b3196229", "lat": 38.8736125, "type": "electric_scooter"}, {"fusion_lat": 0.0, "fusion_lon": 0.0, "rental_uris": {"android": "https://dc.lft.to/lastmile_qr_scan", "ios": "https://dc.lft.to/lastmile_qr_scan"}, "lon": -77.01749966666667, "name": "cb32565beb849b08c1465a8548eea279", "is_disabled": 0, "is_reserved": 0, "bike_id": "cb32565beb849b08c1465a8548eea279", "lat": 38.90105283333333, "type": "electric_scooter"}, {"fusion_lat": 0.0, "fusion_lon": 0.0, "rental_uris": {"android": "https://dc.lft.to/lastmile_qr_scan", "ios": "https://dc.lft.to/lastmile_qr_scan"}, "lon": -77.08066633333334, "name": "2f311cd265d02a8e70d8868366ff381c", "is_disabled": 0, "is_reserved": 0, "bike_id": "2f311cd265d02a8e70d8868366ff381c", "lat": 39.05253533333333, "type": "electric_bike"}, {"fusion_lat": 0.0, "fusion_lon": 0.0, "rental_uris": {"android": "https://dc.lft.to/lastmile_qr_scan", "ios": "https://dc.lft.to/lastmile_qr_scan"}, "lon": -77.0217825, "name": "a40852fc7f28bbafd0f232cc070e73f4", "is_disabled": 0, "is_reserved": 0, "bike_id": "a40852fc7f28bbafd0f232cc070e73f4", "lat": 38.89732866666667, "type": "electric_scooter"}, {"fusion_lat": 0.0, "fusion_lon": 0.0, "rental_uris": {"android": "https://dc.lft.to/lastmile_qr_scan", "ios": "https://dc.lft.to/lastmile_qr_scan"}, "lon": -77.0049455, "name": "7ca70c3b189d8fb98abf8c72e34c21df", "is_disabled": 0, "is_reserved": 0, "bike_id": "7ca70c3b189d8fb98abf8c72e34c21df", "lat": 38.874658, "type": "electric_scooter"}, {"fusion_lat": 0.0, "fusion_lon": 0.0, "rental_uris": {"android": "https://dc.lft.to/lastmile_qr_scan", "ios": "https://dc.lft.to/lastmile_qr_scan"}, "lon": -77.02950283333334, "name": "77fc7da3af2704b9bef68314e93dd034", "is_disabled": 0, "is_reserved": 0, "bike_id": "77fc7da3af2704b9bef68314e93dd034", "lat": 38.902743666666666, "type": "electric_scooter"}, {"fusion_lat": 0.0, "fusion_lon": 0.0, "rental_uris": {"android": "https://dc.lft.to/lastmile_qr_scan", "ios": "https://dc.lft.to/lastmile_qr_scan"}, "lon": -77.046194, "name": "d2aad8866c9ef7d34ef5d0e3be08179f", "is_disabled": 0, "is_reserved": 0, "bike_id": "d2aad8866c9ef7d34ef5d0e3be08179f", "lat": 38.9168145, "type": "electric_scooter"}, {"fusion_lat": 0.0, "fusion_lon": 0.0, "rental_uris": {"android": "https://dc.lft.to/lastmile_qr_scan", "ios": "https://dc.lft.to/lastmile_qr_scan"}, "lon": -77.0514845, "name": "920cd5c7e72c981e4ff19bf81f15820c", "is_disabled": 0, "is_reserved": 0, "bike_id": "920cd5c7e72c981e4ff19bf81f15820c", "lat": 38.901851, "type": "electric_scooter"}, {"fusion_lat": 0.0, "fusion_lon": 0.0, "rental_uris": {"android": "https://dc.lft.to/lastmile_qr_scan", "ios": "https://dc.lft.to/lastmile_qr_scan"}, "lon": -77.03844533333333, "name": "76af7a987e42cdb184ee4b1b606b84fe", "is_disabled": 0, "is_reserved": 0, "bike_id": "76af7a987e42cdb184ee4b1b606b84fe", "lat": 38.902707666666664, "type": "electric_scooter"}, {"fusion_lat": 0.0, "fusion_lon": 0.0, "rental_uris": {"android": "https://dc.lft.to/lastmile_qr_scan", "ios": "https://dc.lft.to/lastmile_qr_scan"}, "lon": -77.02297616666667, "name": "c49c78cf562bfba06d7f8a9954a1b68a", "is_disabled": 0, "is_reserved": 0, "bike_id": "c49c78cf562bfba06d7f8a9954a1b68a", "lat": 38.89488466666667, "type": "electric_scooter"}, {"fusion_lat": 0.0, "fusion_lon": 0.0, "rental_uris": {"android": "https://dc.lft.to/lastmile_qr_scan", "ios": "https://dc.lft.to/lastmile_qr_scan"}, "lon": -77.0450345, "name": "80e5e4621e44b84ab5c69ca315967527", "is_disabled": 0, "is_reserved": 0, "bike_id": "80e5e4621e44b84ab5c69ca315967527", "lat": 38.903857, "type": "electric_scooter"}, {"fusion_lat": 0.0, "fusion_lon": 0.0, "rental_uris": {"android": "https://dc.lft.to/lastmile_qr_scan", "ios": "https://dc.lft.to/lastmile_qr_scan"}, "lon": -77.01361416666667, "name": "cf4118f7d58e55e63c738a8266d12951", "is_disabled": 0, "is_reserved": 0, "bike_id": "cf4118f7d58e55e63c738a8266d12951", "lat": 38.928802, "type": "electric_scooter"}, {"fusion_lat": 0.0, "fusion_lon": 0.0, "rental_uris": {"android": "https://dc.lft.to/lastmile_qr_scan", "ios": "https://dc.lft.to/lastmile_qr_scan"}, "lon": -77.03384683333333, "name": "17f75e06e2adc56cb61361cb49c6d85f", "is_disabled": 0, "is_reserved": 0, "bike_id": "17f75e06e2adc56cb61361cb49c6d85f", "lat": 38.925381, "type": "electric_scooter"}, {"fusion_lat": 0.0, "fusion_lon": 0.0, "rental_uris": {"android": "https://dc.lft.to/lastmile_qr_scan", "ios": "https://dc.lft.to/lastmile_qr_scan"}, "lon": -77.04488916666666, "name": "243b610ccbd5d1cebdd6428fa1fe2a87", "is_disabled": 0, "is_reserved": 0, "bike_id": "243b610ccbd5d1cebdd6428fa1fe2a87", "lat": 38.8975035, "type": "electric_scooter"}, {"fusion_lat": 0.0, "fusion_lon": 0.0, "rental_uris": {"android": "https://dc.lft.to/lastmile_qr_scan", "ios": "https://dc.lft.to/lastmile_qr_scan"}, "lon": -77.02404433333334, "name": "54624e135a6ab9f14ebd494727da1716", "is_disabled": 0, "is_reserved": 0, "bike_id": "54624e135a6ab9f14ebd494727da1716", "lat": 38.9056865, "type": "electric_scooter"}, {"fusion_lat": 0.0, "fusion_lon": 0.0, "rental_uris": {"android": "https://dc.lft.to/lastmile_qr_scan", "ios": "https://dc.lft.to/lastmile_qr_scan"}, "lon": -76.96531966666667, "name": "1207c12fd518b6de755a7530418a3e35", "is_disabled": 0, "is_reserved": 0, "bike_id": "1207c12fd518b6de755a7530418a3e35", "lat": 38.87476183333333, "type": "electric_bike"}, {"fusion_lat": 0.0, "fusion_lon": 0.0, "rental_uris": {"android": "https://dc.lft.to/lastmile_qr_scan", "ios": "https://dc.lft.to/lastmile_qr_scan"}, "lon": -77.02941583333333, "name": "d6f8215ca0bbe0f988b80b85f6bb5acd", "is_disabled": 0, "is_reserved": 0, "bike_id": "d6f8215ca0bbe0f988b80b85f6bb5acd", "lat": 38.9025465, "type": "electric_scooter"}, {"fusion_lat": 0.0, "fusion_lon": 0.0, "rental_uris": {"android": "https://dc.lft.to/lastmile_qr_scan", "ios": "https://dc.lft.to/lastmile_qr_scan"}, "lon": -76.98889933333334, "name": "16554f1e61b12e35e39226ff470e141b", "is_disabled": 0, "is_reserved": 0, "bike_id": "16554f1e61b12e35e39226ff470e141b", "lat": 38.8666155, "type": "electric_scooter"}, {"fusion_lat": 0.0, "fusion_lon": 0.0, "rental_uris": {"android": "https://dc.lft.to/lastmile_qr_scan", "ios": "https://dc.lft.to/lastmile_qr_scan"}, "lon": -77.07838583333333, "name": "af5f2d1a2a182b703b20b245dce06aca", "is_disabled": 0, "is_reserved": 0, "bike_id": "af5f2d1a2a182b703b20b245dce06aca", "lat": 38.93152333333333, "type": "electric_scooter"}, {"fusion_lat": 0.0, "fusion_lon": 0.0, "rental_uris": {"android": "https://dc.lft.to/lastmile_qr_scan", "ios": "https://dc.lft.to/lastmile_qr_scan"}, "lon": -77.00888316666666, "name": "3358776e9c98b9ec2d6ede2a44b517b1", "is_disabled": 0, "is_reserved": 0, "bike_id": "3358776e9c98b9ec2d6ede2a44b517b1", "lat": 38.91452916666667, "type": "electric_scooter"}, {"fusion_lat": 0.0, "fusion_lon": 0.0, "rental_uris": {"android": "https://dc.lft.to/lastmile_qr_scan", "ios": "https://dc.lft.to/lastmile_qr_scan"}, "lon": -77.02830283333333, "name": "1c1f8bf18c38374714fe10b480a63cc0", "is_disabled": 0, "is_reserved": 0, "bike_id": "1c1f8bf18c38374714fe10b480a63cc0", "lat": 38.88733666666667, "type": "electric_scooter"}, {"fusion_lat": 0.0, "fusion_lon": 0.0, "rental_uris": {"android": "https://dc.lft.to/lastmile_qr_scan", "ios": "https://dc.lft.to/lastmile_qr_scan"}, "lon": -77.025579, "name": "4aa6193b51e175772077ef7690c0c905", "is_disabled": 0, "is_reserved": 0, "bike_id": "4aa6193b51e175772077ef7690c0c905", "lat": 38.93077066666667, "type": "electric_scooter"}, {"fusion_lat": 0.0, "fusion_lon": 0.0, "rental_uris": {"android": "https://dc.lft.to/lastmile_qr_scan", "ios": "https://dc.lft.to/lastmile_qr_scan"}, "lon": -77.04978483333333, "name": "a56e5fcd182c1ed87182a6e0a7257700", "is_disabled": 0, "is_reserved": 0, "bike_id": "a56e5fcd182c1ed87182a6e0a7257700", "lat": 38.901083666666665, "type": "electric_scooter"}, {"fusion_lat": 0.0, "fusion_lon": 0.0, "rental_uris": {"android": "https://dc.lft.to/lastmile_qr_scan", "ios": "https://dc.lft.to/lastmile_qr_scan"}, "lon": -76.99580783333333, "name": "4703cf499068b8356be1814da303a03c", "is_disabled": 0, "is_reserved": 0, "bike_id": "4703cf499068b8356be1814da303a03c", "lat": 38.85177483333333, "type": "electric_scooter"}, {"fusion_lat": 0.0, "fusion_lon": 0.0, "rental_uris": {"android": "https://dc.lft.to/lastmile_qr_scan", "ios": "https://dc.lft.to/lastmile_qr_scan"}, "lon": -77.06310533333334, "name": "8d349e18544b1c3ba2db31de857e9eac", "is_disabled": 0, "is_reserved": 0, "bike_id": "8d349e18544b1c3ba2db31de857e9eac", "lat": 38.7985475, "type": "electric_bike"}, {"fusion_lat": 0.0, "fusion_lon": 0.0, "rental_uris": {"android": "https://dc.lft.to/lastmile_qr_scan", "ios": "https://dc.lft.to/lastmile_qr_scan"}, "lon": -77.01770266666666, "name": "b82f4fd62edd60103247f80f5c6fc732", "is_disabled": 0, "is_reserved": 0, "bike_id": "b82f4fd62edd60103247f80f5c6fc732", "lat": 38.87755816666667, "type": "electric_scooter"}, {"fusion_lat": 0.0, "fusion_lon": 0.0, "rental_uris": {"android": "https://dc.lft.to/lastmile_qr_scan", "ios": "https://dc.lft.to/lastmile_qr_scan"}, "lon": -77.02192216666667, "name": "d6288078a55fd3ff22fc736c145a528b", "is_disabled": 0, "is_reserved": 0, "bike_id": "d6288078a55fd3ff22fc736c145a528b", "lat": 38.901781666666665, "type": "electric_scooter"}, {"fusion_lat": 0.0, "fusion_lon": 0.0, "rental_uris": {"android": "https://dc.lft.to/lastmile_qr_scan", "ios": "https://dc.lft.to/lastmile_qr_scan"}, "lon": -77.02288266666666, "name": "251c7bacb706f637a42eef622f35403e", "is_disabled": 0, "is_reserved": 0, "bike_id": "251c7bacb706f637a42eef622f35403e", "lat": 38.89518916666667, "type": "electric_scooter"}, {"fusion_lat": 0.0, "fusion_lon": 0.0, "rental_uris": {"android": "https://dc.lft.to/lastmile_qr_scan", "ios": "https://dc.lft.to/lastmile_qr_scan"}, "lon": -77.03825116666667, "name": "46cb10e68fe92b16bd5deb8b3d7325fe", "is_disabled": 0, "is_reserved": 0, "bike_id": "46cb10e68fe92b16bd5deb8b3d7325fe", "lat": 38.912667166666665, "type": "electric_scooter"}, {"fusion_lat": 0.0, "fusion_lon": 0.0, "rental_uris": {"android": "https://dc.lft.to/lastmile_qr_scan", "ios": "https://dc.lft.to/lastmile_qr_scan"}, "lon": -76.9977645, "name": "322421c1140dc138dc8877170eb63b92", "is_disabled": 0, "is_reserved": 0, "bike_id": "322421c1140dc138dc8877170eb63b92", "lat": 38.844359, "type": "electric_scooter"}, {"fusion_lat": 0.0, "fusion_lon": 0.0, "rental_uris": {"android": "https://dc.lft.to/lastmile_qr_scan", "ios": "https://dc.lft.to/lastmile_qr_scan"}, "lon": -77.02589416666666, "name": "d6550839a688a0c5b75d191bb2f27c02", "is_disabled": 0, "is_reserved": 0, "bike_id": "d6550839a688a0c5b75d191bb2f27c02", "lat": 38.892373666666664, "type": "electric_scooter"}, {"fusion_lat": 0.0, "fusion_lon": 0.0, "rental_uris": {"android": "https://dc.lft.to/lastmile_qr_scan", "ios": "https://dc.lft.to/lastmile_qr_scan"}, "lon": -77.02283933333334, "name": "d26b679e117feeb4a4747084d647d170", "is_disabled": 0, "is_reserved": 0, "bike_id": "d26b679e117feeb4a4747084d647d170", "lat": 38.90142216666667, "type": "electric_scooter"}, {"fusion_lat": 0.0, "fusion_lon": 0.0, "rental_uris": {"android": "https://dc.lft.to/lastmile_qr_scan", "ios": "https://dc.lft.to/lastmile_qr_scan"}, "lon": -77.026547, "name": "de93b1fd39c21d023185e65cef65ae98", "is_disabled": 0, "is_reserved": 0, "bike_id": "de93b1fd39c21d023185e65cef65ae98", "lat": 38.9761585, "type": "electric_bike"}, {"fusion_lat": 0.0, "fusion_lon": 0.0, "rental_uris": {"android": "https://dc.lft.to/lastmile_qr_scan", "ios": "https://dc.lft.to/lastmile_qr_scan"}, "lon": -77.046732, "name": "c71849e66fb38b5d58ff0c77096b1622", "is_disabled": 0, "is_reserved": 0, "bike_id": "c71849e66fb38b5d58ff0c77096b1622", "lat": 38.91412233333333, "type": "electric_scooter"}, {"fusion_lat": 0.0, "fusion_lon": 0.0, "rental_uris": {"android": "https://dc.lft.to/lastmile_qr_scan", "ios": "https://dc.lft.to/lastmile_qr_scan"}, "lon": -77.03500133333333, "name": "55679fed1a2eefd5d97b9edf946c751f", "is_disabled": 0, "is_reserved": 0, "bike_id": "55679fed1a2eefd5d97b9edf946c751f", "lat": 38.93165916666667, "type": "electric_scooter"}, {"fusion_lat": 0.0, "fusion_lon": 0.0, "rental_uris": {"android": "https://dc.lft.to/lastmile_qr_scan", "ios": "https://dc.lft.to/lastmile_qr_scan"}, "lon": -76.9934305, "name": "e6dea5736d4f13635b036903cb4444c3", "is_disabled": 0, "is_reserved": 0, "bike_id": "e6dea5736d4f13635b036903cb4444c3", "lat": 38.91035816666667, "type": "electric_scooter"}, {"fusion_lat": 0.0, "fusion_lon": 0.0, "rental_uris": {"android": "https://dc.lft.to/lastmile_qr_scan", "ios": "https://dc.lft.to/lastmile_qr_scan"}, "lon": -77.01995366666667, "name": "d8512fcaf5ec3f6ecbf5c9af36d4bd30", "is_disabled": 0, "is_reserved": 0, "bike_id": "d8512fcaf5ec3f6ecbf5c9af36d4bd30", "lat": 38.89783383333334, "type": "electric_scooter"}, {"fusion_lat": 0.0, "fusion_lon": 0.0, "rental_uris": {"android": "https://dc.lft.to/lastmile_qr_scan", "ios": "https://dc.lft.to/lastmile_qr_scan"}, "lon": -76.98109883333333, "name": "22adaa5cded38415e6daa769df680a39", "is_disabled": 0, "is_reserved": 0, "bike_id": "22adaa5cded38415e6daa769df680a39", "lat": 38.91469933333333, "type": "electric_scooter"}, {"fusion_lat": 0.0, "fusion_lon": 0.0, "rental_uris": {"android": "https://dc.lft.to/lastmile_qr_scan", "ios": "https://dc.lft.to/lastmile_qr_scan"}, "lon": -77.02656316666666, "name": "d82842d1793f2639674852dccbd1013a", "is_disabled": 0, "is_reserved": 0, "bike_id": "d82842d1793f2639674852dccbd1013a", "lat": 38.881216333333334, "type": "electric_scooter"}, {"fusion_lat": 0.0, "fusion_lon": 0.0, "rental_uris": {"android": "https://dc.lft.to/lastmile_qr_scan", "ios": "https://dc.lft.to/lastmile_qr_scan"}, "lon": -77.02975433333333, "name": "f87b70948f5bff5ee124d806c40e156a", "is_disabled": 0, "is_reserved": 0, "bike_id": "f87b70948f5bff5ee124d806c40e156a", "lat": 38.905137333333336, "type": "electric_scooter"}, {"fusion_lat": 0.0, "fusion_lon": 0.0, "rental_uris": {"android": "https://dc.lft.to/lastmile_qr_scan", "ios": "https://dc.lft.to/lastmile_qr_scan"}, "lon": -76.99557116666666, "name": "03c6d2b1a7e64cd5474a20e0b29218fc", "is_disabled": 0, "is_reserved": 0, "bike_id": "03c6d2b1a7e64cd5474a20e0b29218fc", "lat": 38.920327, "type": "electric_scooter"}, {"fusion_lat": 0.0, "fusion_lon": 0.0, "rental_uris": {"android": "https://dc.lft.to/lastmile_qr_scan", "ios": "https://dc.lft.to/lastmile_qr_scan"}, "lon": -77.013487, "name": "003616e33b8438b82e76a05ddb468d05", "is_disabled": 0, "is_reserved": 0, "bike_id": "003616e33b8438b82e76a05ddb468d05", "lat": 38.91917766666667, "type": "electric_scooter"}, {"fusion_lat": 0.0, "fusion_lon": 0.0, "rental_uris": {"android": "https://dc.lft.to/lastmile_qr_scan", "ios": "https://dc.lft.to/lastmile_qr_scan"}, "lon": -77.02479883333334, "name": "746bc7ccbc147ef5a914a937b28c56b2", "is_disabled": 0, "is_reserved": 0, "bike_id": "746bc7ccbc147ef5a914a937b28c56b2", "lat": 38.91917883333333, "type": "electric_scooter"}, {"fusion_lat": 0.0, "fusion_lon": 0.0, "rental_uris": {"android": "https://dc.lft.to/lastmile_qr_scan", "ios": "https://dc.lft.to/lastmile_qr_scan"}, "lon": -77.01569466666666, "name": "9dc30bfae21253a9ae14c3f3fb429e3a", "is_disabled": 0, "is_reserved": 0, "bike_id": "9dc30bfae21253a9ae14c3f3fb429e3a", "lat": 38.91373266666667, "type": "electric_scooter"}, {"fusion_lat": 0.0, "fusion_lon": 0.0, "rental_uris": {"android": "https://dc.lft.to/lastmile_qr_scan", "ios": "https://dc.lft.to/lastmile_qr_scan"}, "lon": -77.03264516666667, "name": "cc5f4dfc5d48e7c8a24f2f90b5d6f35a", "is_disabled": 0, "is_reserved": 0, "bike_id": "cc5f4dfc5d48e7c8a24f2f90b5d6f35a", "lat": 38.93773766666666, "type": "electric_scooter"}, {"fusion_lat": 0.0, "fusion_lon": 0.0, "rental_uris": {"android": "https://dc.lft.to/lastmile_qr_scan", "ios": "https://dc.lft.to/lastmile_qr_scan"}, "lon": -77.02698066666666, "name": "b5e9be2e6fee27bff089410fb1ab2a0c", "is_disabled": 0, "is_reserved": 0, "bike_id": "b5e9be2e6fee27bff089410fb1ab2a0c", "lat": 38.90708516666667, "type": "electric_scooter"}, {"fusion_lat": 0.0, "fusion_lon": 0.0, "rental_uris": {"android": "https://dc.lft.to/lastmile_qr_scan", "ios": "https://dc.lft.to/lastmile_qr_scan"}, "lon": -77.03372633333333, "name": "12b5908e1c21559067dd383c51525699", "is_disabled": 0, "is_reserved": 0, "bike_id": "12b5908e1c21559067dd383c51525699", "lat": 38.92353416666667, "type": "electric_scooter"}, {"fusion_lat": 0.0, "fusion_lon": 0.0, "rental_uris": {"android": "https://dc.lft.to/lastmile_qr_scan", "ios": "https://dc.lft.to/lastmile_qr_scan"}, "lon": -77.03356066666667, "name": "0bec6db6d772e1570b4447d13954d094", "is_disabled": 0, "is_reserved": 0, "bike_id": "0bec6db6d772e1570b4447d13954d094", "lat": 38.886977333333334, "type": "electric_scooter"}, {"fusion_lat": 0.0, "fusion_lon": 0.0, "rental_uris": {"android": "https://dc.lft.to/lastmile_qr_scan", "ios": "https://dc.lft.to/lastmile_qr_scan"}, "lon": -77.0223045, "name": "89b47d8a931626648db35d89074b5d19", "is_disabled": 0, "is_reserved": 0, "bike_id": "89b47d8a931626648db35d89074b5d19", "lat": 38.88769683333334, "type": "electric_scooter"}, {"fusion_lat": 0.0, "fusion_lon": 0.0, "rental_uris": {"android": "https://dc.lft.to/lastmile_qr_scan", "ios": "https://dc.lft.to/lastmile_qr_scan"}, "lon": -77.0332285, "name": "e7ad9df35a15a2a0d674d669272f9c81", "is_disabled": 0, "is_reserved": 0, "bike_id": "e7ad9df35a15a2a0d674d669272f9c81", "lat": 38.92158666666667, "type": "electric_scooter"}, {"fusion_lat": 0.0, "fusion_lon": 0.0, "rental_uris": {"android": "https://dc.lft.to/lastmile_qr_scan", "ios": "https://dc.lft.to/lastmile_qr_scan"}, "lon": -77.02227583333334, "name": "2650e33c407c6e66d40437b86fb4a946", "is_disabled": 0, "is_reserved": 0, "bike_id": "2650e33c407c6e66d40437b86fb4a946", "lat": 38.8921835, "type": "electric_scooter"}, {"fusion_lat": 0.0, "fusion_lon": 0.0, "rental_uris": {"android": "https://dc.lft.to/lastmile_qr_scan", "ios": "https://dc.lft.to/lastmile_qr_scan"}, "lon": -77.01982566666666, "name": "0c01cd422a81cb147c1a7c89e42c0c6b", "is_disabled": 0, "is_reserved": 0, "bike_id": "0c01cd422a81cb147c1a7c89e42c0c6b", "lat": 38.9024895, "type": "electric_scooter"}, {"fusion_lat": 0.0, "fusion_lon": 0.0, "rental_uris": {"android": "https://dc.lft.to/lastmile_qr_scan", "ios": "https://dc.lft.to/lastmile_qr_scan"}, "lon": -77.02832533333333, "name": "097cfe8b18b1fa48c76ffec9ad59be80", "is_disabled": 0, "is_reserved": 0, "bike_id": "097cfe8b18b1fa48c76ffec9ad59be80", "lat": 38.8873175, "type": "electric_scooter"}, {"fusion_lat": 0.0, "fusion_lon": 0.0, "rental_uris": {"android": "https://dc.lft.to/lastmile_qr_scan", "ios": "https://dc.lft.to/lastmile_qr_scan"}, "lon": -77.03427433333333, "name": "c078f9ac4b1e900b532f02d26e2b6fd1", "is_disabled": 0, "is_reserved": 0, "bike_id": "c078f9ac4b1e900b532f02d26e2b6fd1", "lat": 38.966217666666665, "type": "electric_bike"}, {"fusion_lat": 0.0, "fusion_lon": 0.0, "rental_uris": {"android": "https://dc.lft.to/lastmile_qr_scan", "ios": "https://dc.lft.to/lastmile_qr_scan"}, "lon": -77.0388185, "name": "942aa0762606f740664901e7efcdcadf", "is_disabled": 0, "is_reserved": 0, "bike_id": "942aa0762606f740664901e7efcdcadf", "lat": 38.90617916666667, "type": "electric_scooter"}, {"fusion_lat": 0.0, "fusion_lon": 0.0, "rental_uris": {"android": "https://dc.lft.to/lastmile_qr_scan", "ios": "https://dc.lft.to/lastmile_qr_scan"}, "lon": -77.0451615, "name": "d38b3302b8560faab800b2ad38f7c669", "is_disabled": 0, "is_reserved": 0, "bike_id": "d38b3302b8560faab800b2ad38f7c669", "lat": 38.90959983333333, "type": "electric_scooter"}, {"fusion_lat": 0.0, "fusion_lon": 0.0, "rental_uris": {"android": "https://dc.lft.to/lastmile_qr_scan", "ios": "https://dc.lft.to/lastmile_qr_scan"}, "lon": -77.108571, "name": "80f3938b39a76fd7f0306161abe93d68", "is_disabled": 0, "is_reserved": 0, "bike_id": "80f3938b39a76fd7f0306161abe93d68", "lat": 38.87238416666667, "type": "electric_bike"}, {"fusion_lat": 0.0, "fusion_lon": 0.0, "rental_uris": {"android": "https://dc.lft.to/lastmile_qr_scan", "ios": "https://dc.lft.to/lastmile_qr_scan"}, "lon": -77.008903, "name": "7b780fa363d95ba65db75a3409d6945b", "is_disabled": 0, "is_reserved": 0, "bike_id": "7b780fa363d95ba65db75a3409d6945b", "lat": 38.9683815, "type": "electric_scooter"}, {"fusion_lat": 0.0, "fusion_lon": 0.0, "rental_uris": {"android": "https://dc.lft.to/lastmile_qr_scan", "ios": "https://dc.lft.to/lastmile_qr_scan"}, "lon": -77.02798, "name": "daf3e2daeae1d7ef00bfc0a23113f8e9", "is_disabled": 0, "is_reserved": 0, "bike_id": "daf3e2daeae1d7ef00bfc0a23113f8e9", "lat": 38.96050233333333, "type": "electric_scooter"}, {"fusion_lat": 0.0, "fusion_lon": 0.0, "rental_uris": {"android": "https://dc.lft.to/lastmile_qr_scan", "ios": "https://dc.lft.to/lastmile_qr_scan"}, "lon": -77.05289966666666, "name": "07276a9b5a42e815e6beb7f501fe3081", "is_disabled": 0, "is_reserved": 0, "bike_id": "07276a9b5a42e815e6beb7f501fe3081", "lat": 38.91060133333333, "type": "electric_scooter"}, {"fusion_lat": 0.0, "fusion_lon": 0.0, "rental_uris": {"android": "https://dc.lft.to/lastmile_qr_scan", "ios": "https://dc.lft.to/lastmile_qr_scan"}, "lon": -77.03247133333333, "name": "96bb7fcee28a74f3fbc9440176c3c48a", "is_disabled": 0, "is_reserved": 0, "bike_id": "96bb7fcee28a74f3fbc9440176c3c48a", "lat": 38.90549766666667, "type": "electric_scooter"}, {"fusion_lat": 0.0, "fusion_lon": 0.0, "rental_uris": {"android": "https://dc.lft.to/lastmile_qr_scan", "ios": "https://dc.lft.to/lastmile_qr_scan"}, "lon": -77.035774, "name": "f9acc5267dd495f8c1004d672b91a1a1", "is_disabled": 0, "is_reserved": 0, "bike_id": "f9acc5267dd495f8c1004d672b91a1a1", "lat": 38.9037585, "type": "electric_scooter"}, {"fusion_lat": 0.0, "fusion_lon": 0.0, "rental_uris": {"android": "https://dc.lft.to/lastmile_qr_scan", "ios": "https://dc.lft.to/lastmile_qr_scan"}, "lon": -77.02206916666667, "name": "aedd954b8a7379e95ad04f4f83ed8c54", "is_disabled": 0, "is_reserved": 0, "bike_id": "aedd954b8a7379e95ad04f4f83ed8c54", "lat": 38.895856333333334, "type": "electric_scooter"}, {"fusion_lat": 0.0, "fusion_lon": 0.0, "rental_uris": {"android": "https://dc.lft.to/lastmile_qr_scan", "ios": "https://dc.lft.to/lastmile_qr_scan"}, "lon": -77.02349466666666, "name": "e35febac96a4963dd53600b9b14f9f72", "is_disabled": 0, "is_reserved": 0, "bike_id": "e35febac96a4963dd53600b9b14f9f72", "lat": 38.893914333333335, "type": "electric_scooter"}, {"fusion_lat": 0.0, "fusion_lon": 0.0, "rental_uris": {"android": "https://dc.lft.to/lastmile_qr_scan", "ios": "https://dc.lft.to/lastmile_qr_scan"}, "lon": -77.02727783333333, "name": "bb4af9e17e62528753b457296dfc4d5c", "is_disabled": 0, "is_reserved": 0, "bike_id": "bb4af9e17e62528753b457296dfc4d5c", "lat": 38.898436333333336, "type": "electric_scooter"}, {"fusion_lat": 0.0, "fusion_lon": 0.0, "rental_uris": {"android": "https://dc.lft.to/lastmile_qr_scan", "ios": "https://dc.lft.to/lastmile_qr_scan"}, "lon": -77.03602316666667, "name": "15325a4e78a699709f827ce8cc08db12", "is_disabled": 0, "is_reserved": 0, "bike_id": "15325a4e78a699709f827ce8cc08db12", "lat": 38.92857683333333, "type": "electric_scooter"}, {"fusion_lat": 0.0, "fusion_lon": 0.0, "rental_uris": {"android": "https://dc.lft.to/lastmile_qr_scan", "ios": "https://dc.lft.to/lastmile_qr_scan"}, "lon": -77.007867, "name": "25f52857eae60b4e643a784e94d79579", "is_disabled": 0, "is_reserved": 0, "bike_id": "25f52857eae60b4e643a784e94d79579", "lat": 38.907230166666665, "type": "electric_scooter"}, {"fusion_lat": 0.0, "fusion_lon": 0.0, "rental_uris": {"android": "https://dc.lft.to/lastmile_qr_scan", "ios": "https://dc.lft.to/lastmile_qr_scan"}, "lon": -77.03255783333333, "name": "ffa5d74ee1b7e1530d4d8150ea106c98", "is_disabled": 0, "is_reserved": 0, "bike_id": "ffa5d74ee1b7e1530d4d8150ea106c98", "lat": 38.90145016666666, "type": "electric_scooter"}, {"fusion_lat": 0.0, "fusion_lon": 0.0, "rental_uris": {"android": "https://dc.lft.to/lastmile_qr_scan", "ios": "https://dc.lft.to/lastmile_qr_scan"}, "lon": -77.03379833333334, "name": "0202623713f53951c4469088f398cdeb", "is_disabled": 0, "is_reserved": 0, "bike_id": "0202623713f53951c4469088f398cdeb", "lat": 38.921616666666665, "type": "electric_scooter"}, {"fusion_lat": 0.0, "fusion_lon": 0.0, "rental_uris": {"android": "https://dc.lft.to/lastmile_qr_scan", "ios": "https://dc.lft.to/lastmile_qr_scan"}, "lon": -76.980879, "name": "9caf560bbfe2631538267eac3292fe95", "is_disabled": 0, "is_reserved": 0, "bike_id": "9caf560bbfe2631538267eac3292fe95", "lat": 38.922498833333336, "type": "electric_scooter"}, {"fusion_lat": 0.0, "fusion_lon": 0.0, "rental_uris": {"android": "https://dc.lft.to/lastmile_qr_scan", "ios": "https://dc.lft.to/lastmile_qr_scan"}, "lon": -76.99498866666667, "name": "34b20ad8298942c05dd35c5e40c113b2", "is_disabled": 0, "is_reserved": 0, "bike_id": "34b20ad8298942c05dd35c5e40c113b2", "lat": 38.90981766666667, "type": "electric_scooter"}, {"fusion_lat": 0.0, "fusion_lon": 0.0, "rental_uris": {"android": "https://dc.lft.to/lastmile_qr_scan", "ios": "https://dc.lft.to/lastmile_qr_scan"}, "lon": -76.99599666666667, "name": "47fa8ba14e772a0d7da16d0804365a4d", "is_disabled": 0, "is_reserved": 0, "bike_id": "47fa8ba14e772a0d7da16d0804365a4d", "lat": 38.856911, "type": "electric_scooter"}, {"fusion_lat": 0.0, "fusion_lon": 0.0, "rental_uris": {"android": "https://dc.lft.to/lastmile_qr_scan", "ios": "https://dc.lft.to/lastmile_qr_scan"}, "lon": -77.01828733333333, "name": "2fddcc2d9318e26b1b8563edc1c18aff", "is_disabled": 0, "is_reserved": 0, "bike_id": "2fddcc2d9318e26b1b8563edc1c18aff", "lat": 38.8998405, "type": "electric_scooter"}, {"fusion_lat": 0.0, "fusion_lon": 0.0, "rental_uris": {"android": "https://dc.lft.to/lastmile_qr_scan", "ios": "https://dc.lft.to/lastmile_qr_scan"}, "lon": -77.03334483333333, "name": "b80caeed95a9127ebf89fca484946b1a", "is_disabled": 0, "is_reserved": 0, "bike_id": "b80caeed95a9127ebf89fca484946b1a", "lat": 38.902357, "type": "electric_scooter"}, {"fusion_lat": 0.0, "fusion_lon": 0.0, "rental_uris": {"android": "https://dc.lft.to/lastmile_qr_scan", "ios": "https://dc.lft.to/lastmile_qr_scan"}, "lon": -77.05348166666667, "name": "78103f54230d3399e7392ff9f2cc9e61", "is_disabled": 0, "is_reserved": 0, "bike_id": "78103f54230d3399e7392ff9f2cc9e61", "lat": 38.927114333333336, "type": "electric_scooter"}, {"fusion_lat": 0.0, "fusion_lon": 0.0, "rental_uris": {"android": "https://dc.lft.to/lastmile_qr_scan", "ios": "https://dc.lft.to/lastmile_qr_scan"}, "lon": -77.02157533333333, "name": "441deef44fde720b2b2762385bed3d25", "is_disabled": 0, "is_reserved": 0, "bike_id": "441deef44fde720b2b2762385bed3d25", "lat": 38.91902783333333, "type": "electric_scooter"}, {"fusion_lat": 0.0, "fusion_lon": 0.0, "rental_uris": {"android": "https://dc.lft.to/lastmile_qr_scan", "ios": "https://dc.lft.to/lastmile_qr_scan"}, "lon": -76.933383, "name": "de7f73c49dd28a83d2934a5f9e330623", "is_disabled": 0, "is_reserved": 0, "bike_id": "de7f73c49dd28a83d2934a5f9e330623", "lat": 38.908673666666665, "type": "electric_scooter"}, {"fusion_lat": 0.0, "fusion_lon": 0.0, "rental_uris": {"android": "https://dc.lft.to/lastmile_qr_scan", "ios": "https://dc.lft.to/lastmile_qr_scan"}, "lon": -77.034736, "name": "0ee5a86f7d0f153be83011f5741287fc", "is_disabled": 0, "is_reserved": 0, "bike_id": "0ee5a86f7d0f153be83011f5741287fc", "lat": 38.90564783333333, "type": "electric_scooter"}, {"fusion_lat": 0.0, "fusion_lon": 0.0, "rental_uris": {"android": "https://dc.lft.to/lastmile_qr_scan", "ios": "https://dc.lft.to/lastmile_qr_scan"}, "lon": -77.01855566666667, "name": "fe64ef2d8b422de07068fd2f26bd1ba5", "is_disabled": 0, "is_reserved": 0, "bike_id": "fe64ef2d8b422de07068fd2f26bd1ba5", "lat": 38.949208166666665, "type": "electric_scooter"}, {"fusion_lat": 0.0, "fusion_lon": 0.0, "rental_uris": {"android": "https://dc.lft.to/lastmile_qr_scan", "ios": "https://dc.lft.to/lastmile_qr_scan"}, "lon": -77.06792466666667, "name": "8fed88b610d579e97e7cfb2fbbffb82b", "is_disabled": 0, "is_reserved": 0, "bike_id": "8fed88b610d579e97e7cfb2fbbffb82b", "lat": 38.91283083333333, "type": "electric_scooter"}, {"fusion_lat": 0.0, "fusion_lon": 0.0, "rental_uris": {"android": "https://dc.lft.to/lastmile_qr_scan", "ios": "https://dc.lft.to/lastmile_qr_scan"}, "lon": -77.045136, "name": "a1fcf76a6fc44a70c55f8ccee18756aa", "is_disabled": 0, "is_reserved": 0, "bike_id": "a1fcf76a6fc44a70c55f8ccee18756aa", "lat": 38.903894333333334, "type": "electric_scooter"}, {"fusion_lat": 0.0, "fusion_lon": 0.0, "rental_uris": {"android": "https://dc.lft.to/lastmile_qr_scan", "ios": "https://dc.lft.to/lastmile_qr_scan"}, "lon": -76.99856916666667, "name": "2459957009945676c4b56175688b8519", "is_disabled": 0, "is_reserved": 0, "bike_id": "2459957009945676c4b56175688b8519", "lat": 38.891875, "type": "electric_scooter"}, {"fusion_lat": 0.0, "fusion_lon": 0.0, "rental_uris": {"android": "https://dc.lft.to/lastmile_qr_scan", "ios": "https://dc.lft.to/lastmile_qr_scan"}, "lon": -77.02593583333334, "name": "25e97f16eca90f69a18b3fbb0806ebc3", "is_disabled": 0, "is_reserved": 0, "bike_id": "25e97f16eca90f69a18b3fbb0806ebc3", "lat": 38.9865895, "type": "electric_bike"}, {"fusion_lat": 0.0, "fusion_lon": 0.0, "rental_uris": {"android": "https://dc.lft.to/lastmile_qr_scan", "ios": "https://dc.lft.to/lastmile_qr_scan"}, "lon": -77.021315, "name": "96647ad6f4a08b3f9ff4084352d7a2e9", "is_disabled": 0, "is_reserved": 0, "bike_id": "96647ad6f4a08b3f9ff4084352d7a2e9", "lat": 38.923137833333335, "type": "electric_scooter"}, {"fusion_lat": 0.0, "fusion_lon": 0.0, "rental_uris": {"android": "https://dc.lft.to/lastmile_qr_scan", "ios": "https://dc.lft.to/lastmile_qr_scan"}, "lon": -77.03203733333334, "name": "44063f53bd961883b9d085f5674be5fe", "is_disabled": 0, "is_reserved": 0, "bike_id": "44063f53bd961883b9d085f5674be5fe", "lat": 38.90130216666667, "type": "electric_scooter"}, {"fusion_lat": 0.0, "fusion_lon": 0.0, "rental_uris": {"android": "https://dc.lft.to/lastmile_qr_scan", "ios": "https://dc.lft.to/lastmile_qr_scan"}, "lon": -77.04843366666667, "name": "ed16a4f6145dbe427ec17b592834d7ac", "is_disabled": 0, "is_reserved": 0, "bike_id": "ed16a4f6145dbe427ec17b592834d7ac", "lat": 38.89965216666667, "type": "electric_scooter"}, {"fusion_lat": 0.0, "fusion_lon": 0.0, "rental_uris": {"android": "https://dc.lft.to/lastmile_qr_scan", "ios": "https://dc.lft.to/lastmile_qr_scan"}, "lon": -77.02770616666666, "name": "85bb0beb22473e3f77401b1b0c17582b", "is_disabled": 0, "is_reserved": 0, "bike_id": "85bb0beb22473e3f77401b1b0c17582b", "lat": 38.917006666666666, "type": "electric_scooter"}, {"fusion_lat": 0.0, "fusion_lon": 0.0, "rental_uris": {"android": "https://dc.lft.to/lastmile_qr_scan", "ios": "https://dc.lft.to/lastmile_qr_scan"}, "lon": -77.07457266666667, "name": "fb0215775b344fc45600e3617977cc80", "is_disabled": 0, "is_reserved": 0, "bike_id": "fb0215775b344fc45600e3617977cc80", "lat": 38.9356005, "type": "electric_scooter"}, {"fusion_lat": 0.0, "fusion_lon": 0.0, "rental_uris": {"android": "https://dc.lft.to/lastmile_qr_scan", "ios": "https://dc.lft.to/lastmile_qr_scan"}, "lon": -77.02385066666666, "name": "3286baff9c6e1c2156f791ce9ae9391b", "is_disabled": 0, "is_reserved": 0, "bike_id": "3286baff9c6e1c2156f791ce9ae9391b", "lat": 38.89732683333333, "type": "electric_scooter"}, {"fusion_lat": 0.0, "fusion_lon": 0.0, "rental_uris": {"android": "https://dc.lft.to/lastmile_qr_scan", "ios": "https://dc.lft.to/lastmile_qr_scan"}, "lon": -77.0437055, "name": "fc58252f2a0f95d14a62ac7267f84ac9", "is_disabled": 0, "is_reserved": 0, "bike_id": "fc58252f2a0f95d14a62ac7267f84ac9", "lat": 38.897444166666666, "type": "electric_scooter"}, {"fusion_lat": 0.0, "fusion_lon": 0.0, "rental_uris": {"android": "https://dc.lft.to/lastmile_qr_scan", "ios": "https://dc.lft.to/lastmile_qr_scan"}, "lon": -77.02821483333334, "name": "9c55c0dcbd8f7836c17bf471c3d74a14", "is_disabled": 0, "is_reserved": 0, "bike_id": "9c55c0dcbd8f7836c17bf471c3d74a14", "lat": 38.916524, "type": "electric_scooter"}, {"fusion_lat": 0.0, "fusion_lon": 0.0, "rental_uris": {"android": "https://dc.lft.to/lastmile_qr_scan", "ios": "https://dc.lft.to/lastmile_qr_scan"}, "lon": -77.00726816666666, "name": "b957d0c0dea23de396112853048c7489", "is_disabled": 0, "is_reserved": 0, "bike_id": "b957d0c0dea23de396112853048c7489", "lat": 38.87728533333333, "type": "electric_scooter"}, {"fusion_lat": 0.0, "fusion_lon": 0.0, "rental_uris": {"android": "https://dc.lft.to/lastmile_qr_scan", "ios": "https://dc.lft.to/lastmile_qr_scan"}, "lon": -77.00064266666666, "name": "dd931b8522a2bf7ff2fdd3548252b529", "is_disabled": 0, "is_reserved": 0, "bike_id": "dd931b8522a2bf7ff2fdd3548252b529", "lat": 38.87688833333333, "type": "electric_scooter"}, {"fusion_lat": 0.0, "fusion_lon": 0.0, "rental_uris": {"android": "https://dc.lft.to/lastmile_qr_scan", "ios": "https://dc.lft.to/lastmile_qr_scan"}, "lon": -77.0265065, "name": "87a9b4fa49d4d2bf7ddd0663b0426b04", "is_disabled": 0, "is_reserved": 0, "bike_id": "87a9b4fa49d4d2bf7ddd0663b0426b04", "lat": 38.938627333333336, "type": "electric_scooter"}, {"fusion_lat": 0.0, "fusion_lon": 0.0, "rental_uris": {"android": "https://dc.lft.to/lastmile_qr_scan", "ios": "https://dc.lft.to/lastmile_qr_scan"}, "lon": -77.0473955, "name": "f8157144795aa6edb75a8bfbc7e26d10", "is_disabled": 0, "is_reserved": 0, "bike_id": "f8157144795aa6edb75a8bfbc7e26d10", "lat": 38.905169, "type": "electric_scooter"}, {"fusion_lat": 0.0, "fusion_lon": 0.0, "rental_uris": {"android": "https://dc.lft.to/lastmile_qr_scan", "ios": "https://dc.lft.to/lastmile_qr_scan"}, "lon": -76.951885, "name": "713c0487e5868d4ee9c4d16257b1f0d0", "is_disabled": 0, "is_reserved": 0, "bike_id": "713c0487e5868d4ee9c4d16257b1f0d0", "lat": 38.891339333333335, "type": "electric_scooter"}, {"fusion_lat": 0.0, "fusion_lon": 0.0, "rental_uris": {"android": "https://dc.lft.to/lastmile_qr_scan", "ios": "https://dc.lft.to/lastmile_qr_scan"}, "lon": -77.00888633333334, "name": "a0870d571dbdb09fbd711729e0167072", "is_disabled": 0, "is_reserved": 0, "bike_id": "a0870d571dbdb09fbd711729e0167072", "lat": 38.897606333333336, "type": "electric_scooter"}, {"fusion_lat": 0.0, "fusion_lon": 0.0, "rental_uris": {"android": "https://dc.lft.to/lastmile_qr_scan", "ios": "https://dc.lft.to/lastmile_qr_scan"}, "lon": -77.04513666666666, "name": "d5fe6bcaa9262392b55407d4a7e81783", "is_disabled": 0, "is_reserved": 0, "bike_id": "d5fe6bcaa9262392b55407d4a7e81783", "lat": 38.912891333333334, "type": "electric_scooter"}, {"fusion_lat": 0.0, "fusion_lon": 0.0, "rental_uris": {"android": "https://dc.lft.to/lastmile_qr_scan", "ios": "https://dc.lft.to/lastmile_qr_scan"}, "lon": -76.97968666666667, "name": "b57b415785cf9a0ad6668083d78a544f", "is_disabled": 0, "is_reserved": 0, "bike_id": "b57b415785cf9a0ad6668083d78a544f", "lat": 38.8921995, "type": "electric_scooter"}, {"fusion_lat": 0.0, "fusion_lon": 0.0, "rental_uris": {"android": "https://dc.lft.to/lastmile_qr_scan", "ios": "https://dc.lft.to/lastmile_qr_scan"}, "lon": -77.0229105, "name": "853cd703b2fa2ced2593c5f6cf743de2", "is_disabled": 0, "is_reserved": 0, "bike_id": "853cd703b2fa2ced2593c5f6cf743de2", "lat": 38.894889666666664, "type": "electric_scooter"}, {"fusion_lat": 0.0, "fusion_lon": 0.0, "rental_uris": {"android": "https://dc.lft.to/lastmile_qr_scan", "ios": "https://dc.lft.to/lastmile_qr_scan"}, "lon": -77.03722566666667, "name": "7f03a1f40f75dda714eec904b8bffc03", "is_disabled": 0, "is_reserved": 0, "bike_id": "7f03a1f40f75dda714eec904b8bffc03", "lat": 38.90364183333333, "type": "electric_scooter"}, {"fusion_lat": 0.0, "fusion_lon": 0.0, "rental_uris": {"android": "https://dc.lft.to/lastmile_qr_scan", "ios": "https://dc.lft.to/lastmile_qr_scan"}, "lon": -77.05323516666667, "name": "b3d66fac37b9403983032b6d2e91f9c4", "is_disabled": 0, "is_reserved": 0, "bike_id": "b3d66fac37b9403983032b6d2e91f9c4", "lat": 38.90642116666667, "type": "electric_scooter"}, {"fusion_lat": 0.0, "fusion_lon": 0.0, "rental_uris": {"android": "https://dc.lft.to/lastmile_qr_scan", "ios": "https://dc.lft.to/lastmile_qr_scan"}, "lon": -76.99978166666666, "name": "6c90f3bb810cdf89a07fdef787964593", "is_disabled": 0, "is_reserved": 0, "bike_id": "6c90f3bb810cdf89a07fdef787964593", "lat": 38.87492533333333, "type": "electric_scooter"}, {"fusion_lat": 0.0, "fusion_lon": 0.0, "rental_uris": {"android": "https://dc.lft.to/lastmile_qr_scan", "ios": "https://dc.lft.to/lastmile_qr_scan"}, "lon": -77.03721983333334, "name": "221fa439a35f206f117e37073800b177", "is_disabled": 0, "is_reserved": 0, "bike_id": "221fa439a35f206f117e37073800b177", "lat": 38.90243483333333, "type": "electric_scooter"}, {"fusion_lat": 0.0, "fusion_lon": 0.0, "rental_uris": {"android": "https://dc.lft.to/lastmile_qr_scan", "ios": "https://dc.lft.to/lastmile_qr_scan"}, "lon": -76.98337216666667, "name": "7891663f50820991dc0a9c8966c6144e", "is_disabled": 0, "is_reserved": 0, "bike_id": "7891663f50820991dc0a9c8966c6144e", "lat": 38.865622333333334, "type": "electric_scooter"}, {"fusion_lat": 0.0, "fusion_lon": 0.0, "rental_uris": {"android": "https://dc.lft.to/lastmile_qr_scan", "ios": "https://dc.lft.to/lastmile_qr_scan"}, "lon": -77.058602, "name": "0b33eaf12b319993d3afd4f2fbd5c21e", "is_disabled": 0, "is_reserved": 0, "bike_id": "0b33eaf12b319993d3afd4f2fbd5c21e", "lat": 38.93609166666667, "type": "electric_scooter"}, {"fusion_lat": 0.0, "fusion_lon": 0.0, "rental_uris": {"android": "https://dc.lft.to/lastmile_qr_scan", "ios": "https://dc.lft.to/lastmile_qr_scan"}, "lon": -77.00758616666667, "name": "08e19af86ee68296521dbd4c3b55e934", "is_disabled": 0, "is_reserved": 0, "bike_id": "08e19af86ee68296521dbd4c3b55e934", "lat": 38.898468333333334, "type": "electric_scooter"}, {"fusion_lat": 0.0, "fusion_lon": 0.0, "rental_uris": {"android": "https://dc.lft.to/lastmile_qr_scan", "ios": "https://dc.lft.to/lastmile_qr_scan"}, "lon": -77.0522445, "name": "48f52f0e460bd5b4ad9bf80bbfb418c9", "is_disabled": 0, "is_reserved": 0, "bike_id": "48f52f0e460bd5b4ad9bf80bbfb418c9", "lat": 38.92446433333333, "type": "electric_scooter"}, {"fusion_lat": 0.0, "fusion_lon": 0.0, "rental_uris": {"android": "https://dc.lft.to/lastmile_qr_scan", "ios": "https://dc.lft.to/lastmile_qr_scan"}, "lon": -77.03732733333334, "name": "e1e2cf3861cce06d2ce0a4cc24562a92", "is_disabled": 0, "is_reserved": 0, "bike_id": "e1e2cf3861cce06d2ce0a4cc24562a92", "lat": 38.92878266666666, "type": "electric_scooter"}, {"fusion_lat": 0.0, "fusion_lon": 0.0, "rental_uris": {"android": "https://dc.lft.to/lastmile_qr_scan", "ios": "https://dc.lft.to/lastmile_qr_scan"}, "lon": -76.99128683333333, "name": "86e6b97f2f7ba4e5be06344d2ed5c99e", "is_disabled": 0, "is_reserved": 0, "bike_id": "86e6b97f2f7ba4e5be06344d2ed5c99e", "lat": 38.846436, "type": "electric_scooter"}, {"fusion_lat": 0.0, "fusion_lon": 0.0, "rental_uris": {"android": "https://dc.lft.to/lastmile_qr_scan", "ios": "https://dc.lft.to/lastmile_qr_scan"}, "lon": -77.023579, "name": "d54202a37e8de58d3295e70da9b5bf8e", "is_disabled": 0, "is_reserved": 0, "bike_id": "d54202a37e8de58d3295e70da9b5bf8e", "lat": 38.93532316666667, "type": "electric_scooter"}, {"fusion_lat": 0.0, "fusion_lon": 0.0, "rental_uris": {"android": "https://dc.lft.to/lastmile_qr_scan", "ios": "https://dc.lft.to/lastmile_qr_scan"}, "lon": -76.9854595, "name": "a4a66d9f14e90f026f650bae31cf8960", "is_disabled": 0, "is_reserved": 0, "bike_id": "a4a66d9f14e90f026f650bae31cf8960", "lat": 38.86690083333333, "type": "electric_scooter"}, {"fusion_lat": 0.0, "fusion_lon": 0.0, "rental_uris": {"android": "https://dc.lft.to/lastmile_qr_scan", "ios": "https://dc.lft.to/lastmile_qr_scan"}, "lon": -76.99514683333334, "name": "f857fcbe5ba9c01c5f4501509a090e1c", "is_disabled": 0, "is_reserved": 0, "bike_id": "f857fcbe5ba9c01c5f4501509a090e1c", "lat": 38.8217555, "type": "electric_bike"}, {"fusion_lat": 0.0, "fusion_lon": 0.0, "rental_uris": {"android": "https://dc.lft.to/lastmile_qr_scan", "ios": "https://dc.lft.to/lastmile_qr_scan"}, "lon": -76.99768866666666, "name": "f3ad88d2216723c5bebe1ef4dabbfae6", "is_disabled": 0, "is_reserved": 0, "bike_id": "f3ad88d2216723c5bebe1ef4dabbfae6", "lat": 38.9089775, "type": "electric_scooter"}, {"fusion_lat": 0.0, "fusion_lon": 0.0, "rental_uris": {"android": "https://dc.lft.to/lastmile_qr_scan", "ios": "https://dc.lft.to/lastmile_qr_scan"}, "lon": -77.04748916666667, "name": "a9c90cf823b7ba97320f0f423cc7b109", "is_disabled": 0, "is_reserved": 0, "bike_id": "a9c90cf823b7ba97320f0f423cc7b109", "lat": 38.90945683333333, "type": "electric_scooter"}, {"fusion_lat": 0.0, "fusion_lon": 0.0, "rental_uris": {"android": "https://dc.lft.to/lastmile_qr_scan", "ios": "https://dc.lft.to/lastmile_qr_scan"}, "lon": -77.0167955, "name": "0c0dddb30a3700c800e566fce13a5acb", "is_disabled": 0, "is_reserved": 0, "bike_id": "0c0dddb30a3700c800e566fce13a5acb", "lat": 38.88120283333333, "type": "electric_scooter"}, {"fusion_lat": 0.0, "fusion_lon": 0.0, "rental_uris": {"android": "https://dc.lft.to/lastmile_qr_scan", "ios": "https://dc.lft.to/lastmile_qr_scan"}, "lon": -77.040174, "name": "e72329e8a6de7d79932366993c8f477f", "is_disabled": 0, "is_reserved": 0, "bike_id": "e72329e8a6de7d79932366993c8f477f", "lat": 38.91796466666667, "type": "electric_scooter"}, {"fusion_lat": 0.0, "fusion_lon": 0.0, "rental_uris": {"android": "https://dc.lft.to/lastmile_qr_scan", "ios": "https://dc.lft.to/lastmile_qr_scan"}, "lon": -76.997284, "name": "6f80eeb8cb777ed2aac28bfb707e3f2e", "is_disabled": 0, "is_reserved": 0, "bike_id": "6f80eeb8cb777ed2aac28bfb707e3f2e", "lat": 38.89929733333334, "type": "electric_scooter"}, {"fusion_lat": 0.0, "fusion_lon": 0.0, "rental_uris": {"android": "https://dc.lft.to/lastmile_qr_scan", "ios": "https://dc.lft.to/lastmile_qr_scan"}, "lon": -77.0503135, "name": "12a146ada84be30120c646cd5d5868c6", "is_disabled": 0, "is_reserved": 0, "bike_id": "12a146ada84be30120c646cd5d5868c6", "lat": 38.89670516666666, "type": "electric_scooter"}, {"fusion_lat": 0.0, "fusion_lon": 0.0, "rental_uris": {"android": "https://dc.lft.to/lastmile_qr_scan", "ios": "https://dc.lft.to/lastmile_qr_scan"}, "lon": -77.03211066666667, "name": "1a04c06ba5391ebc3d45213271bc70cb", "is_disabled": 0, "is_reserved": 0, "bike_id": "1a04c06ba5391ebc3d45213271bc70cb", "lat": 38.917869833333334, "type": "electric_scooter"}, {"fusion_lat": 0.0, "fusion_lon": 0.0, "rental_uris": {"android": "https://dc.lft.to/lastmile_qr_scan", "ios": "https://dc.lft.to/lastmile_qr_scan"}, "lon": -76.996961, "name": "7614f34d4d0536515ed89e717b7d2703", "is_disabled": 0, "is_reserved": 0, "bike_id": "7614f34d4d0536515ed89e717b7d2703", "lat": 38.884248666666664, "type": "electric_scooter"}, {"fusion_lat": 0.0, "fusion_lon": 0.0, "rental_uris": {"android": "https://dc.lft.to/lastmile_qr_scan", "ios": "https://dc.lft.to/lastmile_qr_scan"}, "lon": -77.02213666666667, "name": "5168f9f8d1685a34dadbe8acafa6f705", "is_disabled": 0, "is_reserved": 0, "bike_id": "5168f9f8d1685a34dadbe8acafa6f705", "lat": 38.934042, "type": "electric_bike"}, {"fusion_lat": 0.0, "fusion_lon": 0.0, "rental_uris": {"android": "https://dc.lft.to/lastmile_qr_scan", "ios": "https://dc.lft.to/lastmile_qr_scan"}, "lon": -77.033243, "name": "cce769d261ecaf1b0eae842df3fddef4", "is_disabled": 0, "is_reserved": 0, "bike_id": "cce769d261ecaf1b0eae842df3fddef4", "lat": 38.89009033333333, "type": "electric_scooter"}, {"fusion_lat": 0.0, "fusion_lon": 0.0, "rental_uris": {"android": "https://dc.lft.to/lastmile_qr_scan", "ios": "https://dc.lft.to/lastmile_qr_scan"}, "lon": -77.02170433333333, "name": "09dd15fc3f5d9899c4346a66754260cb", "is_disabled": 0, "is_reserved": 0, "bike_id": "09dd15fc3f5d9899c4346a66754260cb", "lat": 38.942925833333334, "type": "electric_scooter"}, {"fusion_lat": 0.0, "fusion_lon": 0.0, "rental_uris": {"android": "https://dc.lft.to/lastmile_qr_scan", "ios": "https://dc.lft.to/lastmile_qr_scan"}, "lon": -77.01761016666667, "name": "61bb4ed7416b8f467edd5c018f2f9021", "is_disabled": 0, "is_reserved": 0, "bike_id": "61bb4ed7416b8f467edd5c018f2f9021", "lat": 38.877090833333334, "type": "electric_scooter"}, {"fusion_lat": 0.0, "fusion_lon": 0.0, "rental_uris": {"android": "https://dc.lft.to/lastmile_qr_scan", "ios": "https://dc.lft.to/lastmile_qr_scan"}, "lon": -77.03176683333334, "name": "98e2a312e6446a5961adb7f3de12103f", "is_disabled": 0, "is_reserved": 0, "bike_id": "98e2a312e6446a5961adb7f3de12103f", "lat": 38.919133, "type": "electric_scooter"}, {"fusion_lat": 0.0, "fusion_lon": 0.0, "rental_uris": {"android": "https://dc.lft.to/lastmile_qr_scan", "ios": "https://dc.lft.to/lastmile_qr_scan"}, "lon": -77.04350383333333, "name": "139c7110b844108655aedb996785ff1a", "is_disabled": 0, "is_reserved": 0, "bike_id": "139c7110b844108655aedb996785ff1a", "lat": 38.92128816666666, "type": "electric_scooter"}, {"fusion_lat": 0.0, "fusion_lon": 0.0, "rental_uris": {"android": "https://dc.lft.to/lastmile_qr_scan", "ios": "https://dc.lft.to/lastmile_qr_scan"}, "lon": -77.05041866666667, "name": "300eeb1d445629abe580ff577c9a139d", "is_disabled": 0, "is_reserved": 0, "bike_id": "300eeb1d445629abe580ff577c9a139d", "lat": 38.923407166666664, "type": "electric_scooter"}, {"fusion_lat": 0.0, "fusion_lon": 0.0, "rental_uris": {"android": "https://dc.lft.to/lastmile_qr_scan", "ios": "https://dc.lft.to/lastmile_qr_scan"}, "lon": -77.04497616666667, "name": "98585ed2a2ab34c372c816a082857642", "is_disabled": 0, "is_reserved": 0, "bike_id": "98585ed2a2ab34c372c816a082857642", "lat": 38.89954766666666, "type": "electric_scooter"}, {"fusion_lat": 0.0, "fusion_lon": 0.0, "rental_uris": {"android": "https://dc.lft.to/lastmile_qr_scan", "ios": "https://dc.lft.to/lastmile_qr_scan"}, "lon": -77.02161833333334, "name": "f5915f58e8e5dacd153791febcc5cd6e", "is_disabled": 0, "is_reserved": 0, "bike_id": "f5915f58e8e5dacd153791febcc5cd6e", "lat": 38.92614916666667, "type": "electric_scooter"}, {"fusion_lat": 0.0, "fusion_lon": 0.0, "rental_uris": {"android": "https://dc.lft.to/lastmile_qr_scan", "ios": "https://dc.lft.to/lastmile_qr_scan"}, "lon": -77.10788916666667, "name": "14e311e5462da93d5739b07465ba93f4", "is_disabled": 0, "is_reserved": 0, "bike_id": "14e311e5462da93d5739b07465ba93f4", "lat": 38.8525025, "type": "electric_bike"}, {"fusion_lat": 0.0, "fusion_lon": 0.0, "rental_uris": {"android": "https://dc.lft.to/lastmile_qr_scan", "ios": "https://dc.lft.to/lastmile_qr_scan"}, "lon": -77.0142645, "name": "37148ce0a79e9e56c429b45d3bde2cd7", "is_disabled": 0, "is_reserved": 0, "bike_id": "37148ce0a79e9e56c429b45d3bde2cd7", "lat": 38.97217883333333, "type": "electric_bike"}, {"fusion_lat": 0.0, "fusion_lon": 0.0, "rental_uris": {"android": "https://dc.lft.to/lastmile_qr_scan", "ios": "https://dc.lft.to/lastmile_qr_scan"}, "lon": -77.12651383333333, "name": "0205db281b3c331d0cc496027d3b56de", "is_disabled": 0, "is_reserved": 0, "bike_id": "0205db281b3c331d0cc496027d3b56de", "lat": 38.815111, "type": "electric_bike"}, {"fusion_lat": 0.0, "fusion_lon": 0.0, "rental_uris": {"android": "https://dc.lft.to/lastmile_qr_scan", "ios": "https://dc.lft.to/lastmile_qr_scan"}, "lon": -76.985441, "name": "b6515c6791c524b28b1747738ade6004", "is_disabled": 0, "is_reserved": 0, "bike_id": "b6515c6791c524b28b1747738ade6004", "lat": 38.866867166666665, "type": "electric_scooter"}, {"fusion_lat": 0.0, "fusion_lon": 0.0, "rental_uris": {"android": "https://dc.lft.to/lastmile_qr_scan", "ios": "https://dc.lft.to/lastmile_qr_scan"}, "lon": -77.02224116666666, "name": "6a12585334bb3e1b2eb152a07f3fe0bd", "is_disabled": 0, "is_reserved": 0, "bike_id": "6a12585334bb3e1b2eb152a07f3fe0bd", "lat": 38.92471583333333, "type": "electric_scooter"}, {"fusion_lat": 0.0, "fusion_lon": 0.0, "rental_uris": {"android": "https://dc.lft.to/lastmile_qr_scan", "ios": "https://dc.lft.to/lastmile_qr_scan"}, "lon": -76.99246533333333, "name": "7a08734ebe6486b993776cfe6af605e3", "is_disabled": 0, "is_reserved": 0, "bike_id": "7a08734ebe6486b993776cfe6af605e3", "lat": 38.794692, "type": "electric_bike"}, {"fusion_lat": 0.0, "fusion_lon": 0.0, "rental_uris": {"android": "https://dc.lft.to/lastmile_qr_scan", "ios": "https://dc.lft.to/lastmile_qr_scan"}, "lon": -77.01627866666666, "name": "cb10e7d489f5803134678b8f60dc3809", "is_disabled": 0, "is_reserved": 0, "bike_id": "cb10e7d489f5803134678b8f60dc3809", "lat": 38.903246, "type": "electric_scooter"}, {"fusion_lat": 0.0, "fusion_lon": 0.0, "rental_uris": {"android": "https://dc.lft.to/lastmile_qr_scan", "ios": "https://dc.lft.to/lastmile_qr_scan"}, "lon": -77.0221235, "name": "978d88ba99b49a02c24befb8dc702baa", "is_disabled": 0, "is_reserved": 0, "bike_id": "978d88ba99b49a02c24befb8dc702baa", "lat": 38.91414983333333, "type": "electric_scooter"}, {"fusion_lat": 0.0, "fusion_lon": 0.0, "rental_uris": {"android": "https://dc.lft.to/lastmile_qr_scan", "ios": "https://dc.lft.to/lastmile_qr_scan"}, "lon": -77.0326635, "name": "f1a36010b32d8c345f40a0156a47e38e", "is_disabled": 0, "is_reserved": 0, "bike_id": "f1a36010b32d8c345f40a0156a47e38e", "lat": 38.9369955, "type": "electric_scooter"}, {"fusion_lat": 0.0, "fusion_lon": 0.0, "rental_uris": {"android": "https://dc.lft.to/lastmile_qr_scan", "ios": "https://dc.lft.to/lastmile_qr_scan"}, "lon": -77.031802, "name": "9e1d4704b3ac1a775aafc7c354ec89b8", "is_disabled": 0, "is_reserved": 0, "bike_id": "9e1d4704b3ac1a775aafc7c354ec89b8", "lat": 38.893821333333335, "type": "electric_scooter"}, {"fusion_lat": 0.0, "fusion_lon": 0.0, "rental_uris": {"android": "https://dc.lft.to/lastmile_qr_scan", "ios": "https://dc.lft.to/lastmile_qr_scan"}, "lon": -77.0770165, "name": "741d4f7a2a925ea3845cea8b502dba3f", "is_disabled": 0, "is_reserved": 0, "bike_id": "741d4f7a2a925ea3845cea8b502dba3f", "lat": 38.9438535, "type": "electric_scooter"}, {"fusion_lat": 0.0, "fusion_lon": 0.0, "rental_uris": {"android": "https://dc.lft.to/lastmile_qr_scan", "ios": "https://dc.lft.to/lastmile_qr_scan"}, "lon": -77.00834, "name": "044513aa60af30f11b713ca4305df3bc", "is_disabled": 0, "is_reserved": 0, "bike_id": "044513aa60af30f11b713ca4305df3bc", "lat": 38.876372833333335, "type": "electric_scooter"}, {"fusion_lat": 0.0, "fusion_lon": 0.0, "rental_uris": {"android": "https://dc.lft.to/lastmile_qr_scan", "ios": "https://dc.lft.to/lastmile_qr_scan"}, "lon": -77.041419, "name": "ae0c0e1a07627d9ecfd7d3915aaa115d", "is_disabled": 0, "is_reserved": 0, "bike_id": "ae0c0e1a07627d9ecfd7d3915aaa115d", "lat": 38.9063135, "type": "electric_scooter"}, {"fusion_lat": 0.0, "fusion_lon": 0.0, "rental_uris": {"android": "https://dc.lft.to/lastmile_qr_scan", "ios": "https://dc.lft.to/lastmile_qr_scan"}, "lon": -76.94046983333334, "name": "fa2a40e1265fdfd3598a160b3369edec", "is_disabled": 0, "is_reserved": 0, "bike_id": "fa2a40e1265fdfd3598a160b3369edec", "lat": 38.97858183333334, "type": "electric_bike"}, {"fusion_lat": 0.0, "fusion_lon": 0.0, "rental_uris": {"android": "https://dc.lft.to/lastmile_qr_scan", "ios": "https://dc.lft.to/lastmile_qr_scan"}, "lon": -76.98709716666667, "name": "d25bba0705825ad695517f46965d90a3", "is_disabled": 0, "is_reserved": 0, "bike_id": "d25bba0705825ad695517f46965d90a3", "lat": 38.86700116666667, "type": "electric_scooter"}, {"fusion_lat": 0.0, "fusion_lon": 0.0, "rental_uris": {"android": "https://dc.lft.to/lastmile_qr_scan", "ios": "https://dc.lft.to/lastmile_qr_scan"}, "lon": -77.01807383333333, "name": "f6cb1440386f385f9ae48a3715767d71", "is_disabled": 0, "is_reserved": 0, "bike_id": "f6cb1440386f385f9ae48a3715767d71", "lat": 38.9213565, "type": "electric_scooter"}, {"fusion_lat": 0.0, "fusion_lon": 0.0, "rental_uris": {"android": "https://dc.lft.to/lastmile_qr_scan", "ios": "https://dc.lft.to/lastmile_qr_scan"}, "lon": -77.02941766666666, "name": "f932eb213bb67547ad8f7277852b47fa", "is_disabled": 0, "is_reserved": 0, "bike_id": "f932eb213bb67547ad8f7277852b47fa", "lat": 38.91708966666667, "type": "electric_scooter"}, {"fusion_lat": 0.0, "fusion_lon": 0.0, "rental_uris": {"android": "https://dc.lft.to/lastmile_qr_scan", "ios": "https://dc.lft.to/lastmile_qr_scan"}, "lon": -77.0238835, "name": "6af8112240dcf05d2895b31809e7a69c", "is_disabled": 0, "is_reserved": 0, "bike_id": "6af8112240dcf05d2895b31809e7a69c", "lat": 38.89232883333333, "type": "electric_scooter"}, {"fusion_lat": 0.0, "fusion_lon": 0.0, "rental_uris": {"android": "https://dc.lft.to/lastmile_qr_scan", "ios": "https://dc.lft.to/lastmile_qr_scan"}, "lon": -77.02714516666667, "name": "53242763a3079d298164f841f256f2e7", "is_disabled": 0, "is_reserved": 0, "bike_id": "53242763a3079d298164f841f256f2e7", "lat": 38.915509666666665, "type": "electric_scooter"}, {"fusion_lat": 0.0, "fusion_lon": 0.0, "rental_uris": {"android": "https://dc.lft.to/lastmile_qr_scan", "ios": "https://dc.lft.to/lastmile_qr_scan"}, "lon": -77.04938833333334, "name": "776dd40a42f8015e6bcff496f284b1b8", "is_disabled": 0, "is_reserved": 0, "bike_id": "776dd40a42f8015e6bcff496f284b1b8", "lat": 38.8882315, "type": "electric_scooter"}, {"fusion_lat": 0.0, "fusion_lon": 0.0, "rental_uris": {"android": "https://dc.lft.to/lastmile_qr_scan", "ios": "https://dc.lft.to/lastmile_qr_scan"}, "lon": -76.94639183333334, "name": "598e90417fe7f03c5d599cf192947368", "is_disabled": 0, "is_reserved": 0, "bike_id": "598e90417fe7f03c5d599cf192947368", "lat": 38.89870966666667, "type": "electric_scooter"}, {"fusion_lat": 0.0, "fusion_lon": 0.0, "rental_uris": {"android": "https://dc.lft.to/lastmile_qr_scan", "ios": "https://dc.lft.to/lastmile_qr_scan"}, "lon": -76.99493366666667, "name": "091509c88128bc528a782f4b3856f0ae", "is_disabled": 0, "is_reserved": 0, "bike_id": "091509c88128bc528a782f4b3856f0ae", "lat": 38.862411333333334, "type": "electric_scooter"}, {"fusion_lat": 0.0, "fusion_lon": 0.0, "rental_uris": {"android": "https://dc.lft.to/lastmile_qr_scan", "ios": "https://dc.lft.to/lastmile_qr_scan"}, "lon": -77.0200295, "name": "b37ea36ea9c698adeff5b1dff9f2f79e", "is_disabled": 0, "is_reserved": 0, "bike_id": "b37ea36ea9c698adeff5b1dff9f2f79e", "lat": 38.913677, "type": "electric_scooter"}, {"fusion_lat": 0.0, "fusion_lon": 0.0, "rental_uris": {"android": "https://dc.lft.to/lastmile_qr_scan", "ios": "https://dc.lft.to/lastmile_qr_scan"}, "lon": -77.05261233333333, "name": "4dd6ca69f7e9648e620d8203a0f192eb", "is_disabled": 0, "is_reserved": 0, "bike_id": "4dd6ca69f7e9648e620d8203a0f192eb", "lat": 38.927872, "type": "electric_scooter"}, {"fusion_lat": 0.0, "fusion_lon": 0.0, "rental_uris": {"android": "https://dc.lft.to/lastmile_qr_scan", "ios": "https://dc.lft.to/lastmile_qr_scan"}, "lon": -77.0195005, "name": "4c7c0721f3497e356cda964e008357d3", "is_disabled": 0, "is_reserved": 0, "bike_id": "4c7c0721f3497e356cda964e008357d3", "lat": 38.92249416666667, "type": "electric_scooter"}, {"fusion_lat": 0.0, "fusion_lon": 0.0, "rental_uris": {"android": "https://dc.lft.to/lastmile_qr_scan", "ios": "https://dc.lft.to/lastmile_qr_scan"}, "lon": -77.00345433333334, "name": "b810815fc97bff008e5410049eece5f8", "is_disabled": 0, "is_reserved": 0, "bike_id": "b810815fc97bff008e5410049eece5f8", "lat": 38.897116833333335, "type": "electric_bike"}, {"fusion_lat": 0.0, "fusion_lon": 0.0, "rental_uris": {"android": "https://dc.lft.to/lastmile_qr_scan", "ios": "https://dc.lft.to/lastmile_qr_scan"}, "lon": -77.03225216666667, "name": "840fcf239ff773c8a32d20ffc6c86db5", "is_disabled": 0, "is_reserved": 0, "bike_id": "840fcf239ff773c8a32d20ffc6c86db5", "lat": 38.92591983333333, "type": "electric_scooter"}, {"fusion_lat": 0.0, "fusion_lon": 0.0, "rental_uris": {"android": "https://dc.lft.to/lastmile_qr_scan", "ios": "https://dc.lft.to/lastmile_qr_scan"}, "lon": -77.00281233333334, "name": "cc9d906bfed8f87340d42ff5a59eb9bb", "is_disabled": 0, "is_reserved": 0, "bike_id": "cc9d906bfed8f87340d42ff5a59eb9bb", "lat": 38.87724733333334, "type": "electric_scooter"}, {"fusion_lat": 0.0, "fusion_lon": 0.0, "rental_uris": {"android": "https://dc.lft.to/lastmile_qr_scan", "ios": "https://dc.lft.to/lastmile_qr_scan"}, "lon": -77.0344605, "name": "1b5a905a5d356ce77f3a3af73cc49821", "is_disabled": 0, "is_reserved": 0, "bike_id": "1b5a905a5d356ce77f3a3af73cc49821", "lat": 38.903213666666666, "type": "electric_scooter"}, {"fusion_lat": 0.0, "fusion_lon": 0.0, "rental_uris": {"android": "https://dc.lft.to/lastmile_qr_scan", "ios": "https://dc.lft.to/lastmile_qr_scan"}, "lon": -77.02773333333333, "name": "2615b5f21d1f7cf7b88461cb370282c8", "is_disabled": 0, "is_reserved": 0, "bike_id": "2615b5f21d1f7cf7b88461cb370282c8", "lat": 38.897247, "type": "electric_scooter"}, {"fusion_lat": 0.0, "fusion_lon": 0.0, "rental_uris": {"android": "https://dc.lft.to/lastmile_qr_scan", "ios": "https://dc.lft.to/lastmile_qr_scan"}, "lon": -77.00304983333334, "name": "2b65a1c7169431aa527ca5a6f0c4ce90", "is_disabled": 0, "is_reserved": 0, "bike_id": "2b65a1c7169431aa527ca5a6f0c4ce90", "lat": 38.83370333333333, "type": "electric_bike"}, {"fusion_lat": 0.0, "fusion_lon": 0.0, "rental_uris": {"android": "https://dc.lft.to/lastmile_qr_scan", "ios": "https://dc.lft.to/lastmile_qr_scan"}, "lon": -76.99813566666667, "name": "c6b4e9c08c271c20cb76597ece4b2834", "is_disabled": 0, "is_reserved": 0, "bike_id": "c6b4e9c08c271c20cb76597ece4b2834", "lat": 38.900114, "type": "electric_scooter"}, {"fusion_lat": 0.0, "fusion_lon": 0.0, "rental_uris": {"android": "https://dc.lft.to/lastmile_qr_scan", "ios": "https://dc.lft.to/lastmile_qr_scan"}, "lon": -77.0029595, "name": "1bd644b7b20f901a50a6601c3e6a1279", "is_disabled": 0, "is_reserved": 0, "bike_id": "1bd644b7b20f901a50a6601c3e6a1279", "lat": 38.894973, "type": "electric_scooter"}, {"fusion_lat": 0.0, "fusion_lon": 0.0, "rental_uris": {"android": "https://dc.lft.to/lastmile_qr_scan", "ios": "https://dc.lft.to/lastmile_qr_scan"}, "lon": -77.02122916666667, "name": "2348ed5df4fe482794666da4ba9027f0", "is_disabled": 0, "is_reserved": 0, "bike_id": "2348ed5df4fe482794666da4ba9027f0", "lat": 38.92269833333334, "type": "electric_scooter"}, {"fusion_lat": 0.0, "fusion_lon": 0.0, "rental_uris": {"android": "https://dc.lft.to/lastmile_qr_scan", "ios": "https://dc.lft.to/lastmile_qr_scan"}, "lon": -77.00929616666667, "name": "6171feb044b228a9a3d1ccc02d980471", "is_disabled": 0, "is_reserved": 0, "bike_id": "6171feb044b228a9a3d1ccc02d980471", "lat": 38.89888966666667, "type": "electric_scooter"}, {"fusion_lat": 0.0, "fusion_lon": 0.0, "rental_uris": {"android": "https://dc.lft.to/lastmile_qr_scan", "ios": "https://dc.lft.to/lastmile_qr_scan"}, "lon": -77.01183283333333, "name": "b954231dac7f9bee1c1c4c919c599cfb", "is_disabled": 0, "is_reserved": 0, "bike_id": "b954231dac7f9bee1c1c4c919c599cfb", "lat": 38.900178, "type": "electric_scooter"}, {"fusion_lat": 0.0, "fusion_lon": 0.0, "rental_uris": {"android": "https://dc.lft.to/lastmile_qr_scan", "ios": "https://dc.lft.to/lastmile_qr_scan"}, "lon": -77.02400666666666, "name": "16798c643b8b365ddb25d136941b9aeb", "is_disabled": 0, "is_reserved": 0, "bike_id": "16798c643b8b365ddb25d136941b9aeb", "lat": 38.89696433333334, "type": "electric_scooter"}, {"fusion_lat": 0.0, "fusion_lon": 0.0, "rental_uris": {"android": "https://dc.lft.to/lastmile_qr_scan", "ios": "https://dc.lft.to/lastmile_qr_scan"}, "lon": -76.95284583333333, "name": "d1e56221195a35478294f067dc4430cb", "is_disabled": 0, "is_reserved": 0, "bike_id": "d1e56221195a35478294f067dc4430cb", "lat": 38.86234666666667, "type": "electric_bike"}, {"fusion_lat": 0.0, "fusion_lon": 0.0, "rental_uris": {"android": "https://dc.lft.to/lastmile_qr_scan", "ios": "https://dc.lft.to/lastmile_qr_scan"}, "lon": -77.18745516666667, "name": "8de6a3c0385eb97a7e5e5f0b4ff0fe12", "is_disabled": 0, "is_reserved": 0, "bike_id": "8de6a3c0385eb97a7e5e5f0b4ff0fe12", "lat": 38.8935165, "type": "electric_bike"}, {"fusion_lat": 0.0, "fusion_lon": 0.0, "rental_uris": {"android": "https://dc.lft.to/lastmile_qr_scan", "ios": "https://dc.lft.to/lastmile_qr_scan"}, "lon": -77.04154, "name": "e25365bda1fc656f865558baf31e9b2f", "is_disabled": 0, "is_reserved": 0, "bike_id": "e25365bda1fc656f865558baf31e9b2f", "lat": 38.90523116666667, "type": "electric_scooter"}, {"fusion_lat": 0.0, "fusion_lon": 0.0, "rental_uris": {"android": "https://dc.lft.to/lastmile_qr_scan", "ios": "https://dc.lft.to/lastmile_qr_scan"}, "lon": -77.06036283333333, "name": "5257a22e78a9df7064afd2dd08bd47be", "is_disabled": 0, "is_reserved": 0, "bike_id": "5257a22e78a9df7064afd2dd08bd47be", "lat": 38.939142, "type": "electric_scooter"}, {"fusion_lat": 0.0, "fusion_lon": 0.0, "rental_uris": {"android": "https://dc.lft.to/lastmile_qr_scan", "ios": "https://dc.lft.to/lastmile_qr_scan"}, "lon": -77.03321883333334, "name": "db5718a1a495d49c74d3a267f73f4c18", "is_disabled": 0, "is_reserved": 0, "bike_id": "db5718a1a495d49c74d3a267f73f4c18", "lat": 38.91311916666667, "type": "electric_scooter"}, {"fusion_lat": 0.0, "fusion_lon": 0.0, "rental_uris": {"android": "https://dc.lft.to/lastmile_qr_scan", "ios": "https://dc.lft.to/lastmile_qr_scan"}, "lon": -77.045216, "name": "aaeab3afc0cedba0dfa4b2c853708332", "is_disabled": 0, "is_reserved": 0, "bike_id": "aaeab3afc0cedba0dfa4b2c853708332", "lat": 38.90378183333333, "type": "electric_scooter"}, {"fusion_lat": 0.0, "fusion_lon": 0.0, "rental_uris": {"android": "https://dc.lft.to/lastmile_qr_scan", "ios": "https://dc.lft.to/lastmile_qr_scan"}, "lon": -77.0395595, "name": "bdcf2d2d1f07b8e5e64895e6f86bdbdd", "is_disabled": 0, "is_reserved": 0, "bike_id": "bdcf2d2d1f07b8e5e64895e6f86bdbdd", "lat": 38.896244, "type": "electric_scooter"}, {"fusion_lat": 0.0, "fusion_lon": 0.0, "rental_uris": {"android": "https://dc.lft.to/lastmile_qr_scan", "ios": "https://dc.lft.to/lastmile_qr_scan"}, "lon": -77.027235, "name": "ff40853cbbcc1916d440726c13305bef", "is_disabled": 0, "is_reserved": 0, "bike_id": "ff40853cbbcc1916d440726c13305bef", "lat": 38.906782, "type": "electric_scooter"}, {"fusion_lat": 0.0, "fusion_lon": 0.0, "rental_uris": {"android": "https://dc.lft.to/lastmile_qr_scan", "ios": "https://dc.lft.to/lastmile_qr_scan"}, "lon": -77.042962, "name": "c4b2e24b37510e1d836ccac0f2d88ecd", "is_disabled": 0, "is_reserved": 0, "bike_id": "c4b2e24b37510e1d836ccac0f2d88ecd", "lat": 38.907374, "type": "electric_scooter"}, {"fusion_lat": 0.0, "fusion_lon": 0.0, "rental_uris": {"android": "https://dc.lft.to/lastmile_qr_scan", "ios": "https://dc.lft.to/lastmile_qr_scan"}, "lon": -76.99013516666666, "name": "1eff55f0d9b55a094a8b2fc0eda902d7", "is_disabled": 0, "is_reserved": 0, "bike_id": "1eff55f0d9b55a094a8b2fc0eda902d7", "lat": 38.86511083333333, "type": "electric_scooter"}, {"fusion_lat": 0.0, "fusion_lon": 0.0, "rental_uris": {"android": "https://dc.lft.to/lastmile_qr_scan", "ios": "https://dc.lft.to/lastmile_qr_scan"}, "lon": -77.03457033333333, "name": "e36a8c06055d2277f90bb7e6ec53ffc5", "is_disabled": 0, "is_reserved": 0, "bike_id": "e36a8c06055d2277f90bb7e6ec53ffc5", "lat": 38.902488166666664, "type": "electric_scooter"}, {"fusion_lat": 0.0, "fusion_lon": 0.0, "rental_uris": {"android": "https://dc.lft.to/lastmile_qr_scan", "ios": "https://dc.lft.to/lastmile_qr_scan"}, "lon": -77.0358785, "name": "207e3335b7e9e121d90f03312d94b879", "is_disabled": 0, "is_reserved": 0, "bike_id": "207e3335b7e9e121d90f03312d94b879", "lat": 38.918788, "type": "electric_scooter"}, {"fusion_lat": 0.0, "fusion_lon": 0.0, "rental_uris": {"android": "https://dc.lft.to/lastmile_qr_scan", "ios": "https://dc.lft.to/lastmile_qr_scan"}, "lon": -77.00821483333333, "name": "3eadadd7cc4890dd0ba1a4ea8f9fa565", "is_disabled": 0, "is_reserved": 0, "bike_id": "3eadadd7cc4890dd0ba1a4ea8f9fa565", "lat": 38.831659, "type": "electric_scooter"}, {"fusion_lat": 0.0, "fusion_lon": 0.0, "rental_uris": {"android": "https://dc.lft.to/lastmile_qr_scan", "ios": "https://dc.lft.to/lastmile_qr_scan"}, "lon": -77.0434045, "name": "ea4e78cbef7b748c901a011bf9baddfe", "is_disabled": 0, "is_reserved": 0, "bike_id": "ea4e78cbef7b748c901a011bf9baddfe", "lat": 38.903872, "type": "electric_scooter"}, {"fusion_lat": 0.0, "fusion_lon": 0.0, "rental_uris": {"android": "https://dc.lft.to/lastmile_qr_scan", "ios": "https://dc.lft.to/lastmile_qr_scan"}, "lon": -77.03829766666667, "name": "07cbbb2d7cd6263f5f019cc57ee0d148", "is_disabled": 0, "is_reserved": 0, "bike_id": "07cbbb2d7cd6263f5f019cc57ee0d148", "lat": 38.90319866666667, "type": "electric_scooter"}, {"fusion_lat": 0.0, "fusion_lon": 0.0, "rental_uris": {"android": "https://dc.lft.to/lastmile_qr_scan", "ios": "https://dc.lft.to/lastmile_qr_scan"}, "lon": -77.0258455, "name": "b208601d3c9c1b796c65b11452a1aaf8", "is_disabled": 0, "is_reserved": 0, "bike_id": "b208601d3c9c1b796c65b11452a1aaf8", "lat": 38.92034983333333, "type": "electric_scooter"}, {"fusion_lat": 0.0, "fusion_lon": 0.0, "rental_uris": {"android": "https://dc.lft.to/lastmile_qr_scan", "ios": "https://dc.lft.to/lastmile_qr_scan"}, "lon": -77.02714266666666, "name": "6205cf113cc56657ae9fc0159db8debf", "is_disabled": 0, "is_reserved": 0, "bike_id": "6205cf113cc56657ae9fc0159db8debf", "lat": 38.9078975, "type": "electric_scooter"}, {"fusion_lat": 0.0, "fusion_lon": 0.0, "rental_uris": {"android": "https://dc.lft.to/lastmile_qr_scan", "ios": "https://dc.lft.to/lastmile_qr_scan"}, "lon": -77.04533333333333, "name": "664e827b45e9b8906eabe25861bf057a", "is_disabled": 0, "is_reserved": 0, "bike_id": "664e827b45e9b8906eabe25861bf057a", "lat": 38.894733, "type": "electric_scooter"}, {"fusion_lat": 0.0, "fusion_lon": 0.0, "rental_uris": {"android": "https://dc.lft.to/lastmile_qr_scan", "ios": "https://dc.lft.to/lastmile_qr_scan"}, "lon": -77.012008, "name": "4d000e1d1521bc5ea28be8b75c5039d4", "is_disabled": 0, "is_reserved": 0, "bike_id": "4d000e1d1521bc5ea28be8b75c5039d4", "lat": 38.917069, "type": "electric_scooter"}, {"fusion_lat": 0.0, "fusion_lon": 0.0, "rental_uris": {"android": "https://dc.lft.to/lastmile_qr_scan", "ios": "https://dc.lft.to/lastmile_qr_scan"}, "lon": -77.02513616666667, "name": "766265e8645ee71ec73377ddcc1a0a82", "is_disabled": 0, "is_reserved": 0, "bike_id": "766265e8645ee71ec73377ddcc1a0a82", "lat": 38.91814433333333, "type": "electric_scooter"}, {"fusion_lat": 0.0, "fusion_lon": 0.0, "rental_uris": {"android": "https://dc.lft.to/lastmile_qr_scan", "ios": "https://dc.lft.to/lastmile_qr_scan"}, "lon": -77.04334683333333, "name": "0eb0e79c03be5447d2c003a19c333f02", "is_disabled": 0, "is_reserved": 0, "bike_id": "0eb0e79c03be5447d2c003a19c333f02", "lat": 38.90618816666667, "type": "electric_scooter"}, {"fusion_lat": 0.0, "fusion_lon": 0.0, "rental_uris": {"android": "https://dc.lft.to/lastmile_qr_scan", "ios": "https://dc.lft.to/lastmile_qr_scan"}, "lon": -77.03266366666666, "name": "27555e6d4d041c9b3d06071d1e69faf0", "is_disabled": 0, "is_reserved": 0, "bike_id": "27555e6d4d041c9b3d06071d1e69faf0", "lat": 38.8971535, "type": "electric_scooter"}, {"fusion_lat": 0.0, "fusion_lon": 0.0, "rental_uris": {"android": "https://dc.lft.to/lastmile_qr_scan", "ios": "https://dc.lft.to/lastmile_qr_scan"}, "lon": -76.93735466666666, "name": "f519c5af584a8256edfe5f76396969cf", "is_disabled": 0, "is_reserved": 0, "bike_id": "f519c5af584a8256edfe5f76396969cf", "lat": 38.890178166666665, "type": "electric_scooter"}, {"fusion_lat": 0.0, "fusion_lon": 0.0, "rental_uris": {"android": "https://dc.lft.to/lastmile_qr_scan", "ios": "https://dc.lft.to/lastmile_qr_scan"}, "lon": -77.04588133333333, "name": "4e38c6c501cb85ec084eac932cb7eb26", "is_disabled": 0, "is_reserved": 0, "bike_id": "4e38c6c501cb85ec084eac932cb7eb26", "lat": 38.921442666666664, "type": "electric_scooter"}, {"fusion_lat": 0.0, "fusion_lon": 0.0, "rental_uris": {"android": "https://dc.lft.to/lastmile_qr_scan", "ios": "https://dc.lft.to/lastmile_qr_scan"}, "lon": -77.02715266666667, "name": "d420febede74026fd48d2299fa349f46", "is_disabled": 0, "is_reserved": 0, "bike_id": "d420febede74026fd48d2299fa349f46", "lat": 38.917240166666666, "type": "electric_scooter"}, {"fusion_lat": 0.0, "fusion_lon": 0.0, "rental_uris": {"android": "https://dc.lft.to/lastmile_qr_scan", "ios": "https://dc.lft.to/lastmile_qr_scan"}, "lon": -77.01998066666667, "name": "62006c39487eee0b46e0a612f249b342", "is_disabled": 0, "is_reserved": 0, "bike_id": "62006c39487eee0b46e0a612f249b342", "lat": 38.89781266666667, "type": "electric_scooter"}, {"fusion_lat": 0.0, "fusion_lon": 0.0, "rental_uris": {"android": "https://dc.lft.to/lastmile_qr_scan", "ios": "https://dc.lft.to/lastmile_qr_scan"}, "lon": -76.90419416666667, "name": "572507ed3e5b54132574151fdf24d5af", "is_disabled": 0, "is_reserved": 0, "bike_id": "572507ed3e5b54132574151fdf24d5af", "lat": 38.94056483333333, "type": "electric_bike"}, {"fusion_lat": 0.0, "fusion_lon": 0.0, "rental_uris": {"android": "https://dc.lft.to/lastmile_qr_scan", "ios": "https://dc.lft.to/lastmile_qr_scan"}, "lon": -77.03824633333333, "name": "d1f2dd6982c5649f4576599077ad0079", "is_disabled": 0, "is_reserved": 0, "bike_id": "d1f2dd6982c5649f4576599077ad0079", "lat": 38.9032075, "type": "electric_scooter"}, {"fusion_lat": 0.0, "fusion_lon": 0.0, "rental_uris": {"android": "https://dc.lft.to/lastmile_qr_scan", "ios": "https://dc.lft.to/lastmile_qr_scan"}, "lon": -77.01245583333333, "name": "aa1c1be6f5eb0b0d25a98ee7dbeb853e", "is_disabled": 0, "is_reserved": 0, "bike_id": "aa1c1be6f5eb0b0d25a98ee7dbeb853e", "lat": 38.931079, "type": "electric_scooter"}, {"fusion_lat": 0.0, "fusion_lon": 0.0, "rental_uris": {"android": "https://dc.lft.to/lastmile_qr_scan", "ios": "https://dc.lft.to/lastmile_qr_scan"}, "lon": -77.03199316666667, "name": "a22f72fcd449e7fcac201a4442a90c29", "is_disabled": 0, "is_reserved": 0, "bike_id": "a22f72fcd449e7fcac201a4442a90c29", "lat": 38.900164, "type": "electric_scooter"}, {"fusion_lat": 0.0, "fusion_lon": 0.0, "rental_uris": {"android": "https://dc.lft.to/lastmile_qr_scan", "ios": "https://dc.lft.to/lastmile_qr_scan"}, "lon": -77.03836816666667, "name": "6797a939bee8e5d396fb22e140a477e6", "is_disabled": 0, "is_reserved": 0, "bike_id": "6797a939bee8e5d396fb22e140a477e6", "lat": 38.902708, "type": "electric_scooter"}, {"fusion_lat": 0.0, "fusion_lon": 0.0, "rental_uris": {"android": "https://dc.lft.to/lastmile_qr_scan", "ios": "https://dc.lft.to/lastmile_qr_scan"}, "lon": -77.03587766666666, "name": "2f94b61998a7f237f8477e17779cbb8c", "is_disabled": 0, "is_reserved": 0, "bike_id": "2f94b61998a7f237f8477e17779cbb8c", "lat": 38.9923055, "type": "electric_scooter"}, {"fusion_lat": 0.0, "fusion_lon": 0.0, "rental_uris": {"android": "https://dc.lft.to/lastmile_qr_scan", "ios": "https://dc.lft.to/lastmile_qr_scan"}, "lon": -76.9904065, "name": "3788f4ee9bf560ab0a097f29f7e92d98", "is_disabled": 0, "is_reserved": 0, "bike_id": "3788f4ee9bf560ab0a097f29f7e92d98", "lat": 38.863921500000004, "type": "electric_scooter"}, {"fusion_lat": 0.0, "fusion_lon": 0.0, "rental_uris": {"android": "https://dc.lft.to/lastmile_qr_scan", "ios": "https://dc.lft.to/lastmile_qr_scan"}, "lon": -76.94704266666666, "name": "13526cda205bcf3c105b5e54553d2eef", "is_disabled": 0, "is_reserved": 0, "bike_id": "13526cda205bcf3c105b5e54553d2eef", "lat": 38.89732583333333, "type": "electric_scooter"}, {"fusion_lat": 0.0, "fusion_lon": 0.0, "rental_uris": {"android": "https://dc.lft.to/lastmile_qr_scan", "ios": "https://dc.lft.to/lastmile_qr_scan"}, "lon": -76.990426, "name": "163e92e44b6aa1c1c4f7e476a550718c", "is_disabled": 0, "is_reserved": 0, "bike_id": "163e92e44b6aa1c1c4f7e476a550718c", "lat": 38.8639245, "type": "electric_scooter"}, {"fusion_lat": 0.0, "fusion_lon": 0.0, "rental_uris": {"android": "https://dc.lft.to/lastmile_qr_scan", "ios": "https://dc.lft.to/lastmile_qr_scan"}, "lon": -77.026818, "name": "08e81d92d944b3a567202379e1ba187f", "is_disabled": 0, "is_reserved": 0, "bike_id": "08e81d92d944b3a567202379e1ba187f", "lat": 38.91801483333333, "type": "electric_scooter"}, {"fusion_lat": 0.0, "fusion_lon": 0.0, "rental_uris": {"android": "https://dc.lft.to/lastmile_qr_scan", "ios": "https://dc.lft.to/lastmile_qr_scan"}, "lon": -76.96055366666667, "name": "47f003e1ea2cc32657d02f5223b82dbf", "is_disabled": 0, "is_reserved": 0, "bike_id": "47f003e1ea2cc32657d02f5223b82dbf", "lat": 38.88400466666667, "type": "electric_bike"}, {"fusion_lat": 0.0, "fusion_lon": 0.0, "rental_uris": {"android": "https://dc.lft.to/lastmile_qr_scan", "ios": "https://dc.lft.to/lastmile_qr_scan"}, "lon": -77.04404266666667, "name": "53779b5371fe9d2056d9f6b0b9567987", "is_disabled": 0, "is_reserved": 0, "bike_id": "53779b5371fe9d2056d9f6b0b9567987", "lat": 38.9295475, "type": "electric_scooter"}, {"fusion_lat": 0.0, "fusion_lon": 0.0, "rental_uris": {"android": "https://dc.lft.to/lastmile_qr_scan", "ios": "https://dc.lft.to/lastmile_qr_scan"}, "lon": -77.11746, "name": "99768964ba41e9b799a2701ad301aad1", "is_disabled": 0, "is_reserved": 0, "bike_id": "99768964ba41e9b799a2701ad301aad1", "lat": 39.05114916666667, "type": "electric_bike"}, {"fusion_lat": 0.0, "fusion_lon": 0.0, "rental_uris": {"android": "https://dc.lft.to/lastmile_qr_scan", "ios": "https://dc.lft.to/lastmile_qr_scan"}, "lon": -76.9923945, "name": "59db94425028c4489b564bb3baa94007", "is_disabled": 0, "is_reserved": 0, "bike_id": "59db94425028c4489b564bb3baa94007", "lat": 38.9080185, "type": "electric_scooter"}, {"fusion_lat": 0.0, "fusion_lon": 0.0, "rental_uris": {"android": "https://dc.lft.to/lastmile_qr_scan", "ios": "https://dc.lft.to/lastmile_qr_scan"}, "lon": -77.05474133333334, "name": "91085025ad6a52cf9486bced516a4f5d", "is_disabled": 0, "is_reserved": 0, "bike_id": "91085025ad6a52cf9486bced516a4f5d", "lat": 38.909545666666666, "type": "electric_scooter"}, {"fusion_lat": 0.0, "fusion_lon": 0.0, "rental_uris": {"android": "https://dc.lft.to/lastmile_qr_scan", "ios": "https://dc.lft.to/lastmile_qr_scan"}, "lon": -77.03462783333333, "name": "47fc581244e25b4f8b02f360b65eef36", "is_disabled": 0, "is_reserved": 0, "bike_id": "47fc581244e25b4f8b02f360b65eef36", "lat": 38.903041333333334, "type": "electric_scooter"}, {"fusion_lat": 0.0, "fusion_lon": 0.0, "rental_uris": {"android": "https://dc.lft.to/lastmile_qr_scan", "ios": "https://dc.lft.to/lastmile_qr_scan"}, "lon": -77.01431, "name": "a31a9a11231c4660c71890b37d30fff1", "is_disabled": 0, "is_reserved": 0, "bike_id": "a31a9a11231c4660c71890b37d30fff1", "lat": 38.914717333333336, "type": "electric_scooter"}, {"fusion_lat": 0.0, "fusion_lon": 0.0, "rental_uris": {"android": "https://dc.lft.to/lastmile_qr_scan", "ios": "https://dc.lft.to/lastmile_qr_scan"}, "lon": -76.98337533333333, "name": "37098011d98308687f741514749c9179", "is_disabled": 0, "is_reserved": 0, "bike_id": "37098011d98308687f741514749c9179", "lat": 38.865642666666666, "type": "electric_scooter"}, {"fusion_lat": 0.0, "fusion_lon": 0.0, "rental_uris": {"android": "https://dc.lft.to/lastmile_qr_scan", "ios": "https://dc.lft.to/lastmile_qr_scan"}, "lon": -77.017442, "name": "b9b1e430f3395a86a17dc181a39011d7", "is_disabled": 0, "is_reserved": 0, "bike_id": "b9b1e430f3395a86a17dc181a39011d7", "lat": 38.920307333333334, "type": "electric_scooter"}, {"fusion_lat": 0.0, "fusion_lon": 0.0, "rental_uris": {"android": "https://dc.lft.to/lastmile_qr_scan", "ios": "https://dc.lft.to/lastmile_qr_scan"}, "lon": -76.937303, "name": "104499e13893a78d6b5d2e8d08942b01", "is_disabled": 0, "is_reserved": 0, "bike_id": "104499e13893a78d6b5d2e8d08942b01", "lat": 38.890252833333335, "type": "electric_scooter"}, {"fusion_lat": 0.0, "fusion_lon": 0.0, "rental_uris": {"android": "https://dc.lft.to/lastmile_qr_scan", "ios": "https://dc.lft.to/lastmile_qr_scan"}, "lon": -77.03818483333333, "name": "6e13b19137a1588ef0514b24d3f8125b", "is_disabled": 0, "is_reserved": 0, "bike_id": "6e13b19137a1588ef0514b24d3f8125b", "lat": 38.90688383333333, "type": "electric_scooter"}, {"fusion_lat": 0.0, "fusion_lon": 0.0, "rental_uris": {"android": "https://dc.lft.to/lastmile_qr_scan", "ios": "https://dc.lft.to/lastmile_qr_scan"}, "lon": -77.03840666666666, "name": "0cbcb1245d495f1f70fa5d0e36a87235", "is_disabled": 0, "is_reserved": 0, "bike_id": "0cbcb1245d495f1f70fa5d0e36a87235", "lat": 38.9027165, "type": "electric_scooter"}, {"fusion_lat": 0.0, "fusion_lon": 0.0, "rental_uris": {"android": "https://dc.lft.to/lastmile_qr_scan", "ios": "https://dc.lft.to/lastmile_qr_scan"}, "lon": -77.0257095, "name": "f5eb03d8dc9af40fbf0ccfc184aa3474", "is_disabled": 0, "is_reserved": 0, "bike_id": "f5eb03d8dc9af40fbf0ccfc184aa3474", "lat": 38.88747166666667, "type": "electric_scooter"}, {"fusion_lat": 0.0, "fusion_lon": 0.0, "rental_uris": {"android": "https://dc.lft.to/lastmile_qr_scan", "ios": "https://dc.lft.to/lastmile_qr_scan"}, "lon": -77.05859833333334, "name": "cab24a34cc2d0ab48fedf8bafb8affb3", "is_disabled": 0, "is_reserved": 0, "bike_id": "cab24a34cc2d0ab48fedf8bafb8affb3", "lat": 38.93608616666667, "type": "electric_scooter"}, {"fusion_lat": 0.0, "fusion_lon": 0.0, "rental_uris": {"android": "https://dc.lft.to/lastmile_qr_scan", "ios": "https://dc.lft.to/lastmile_qr_scan"}, "lon": -77.02983866666666, "name": "4f01ca094bdb92d89c3f59d93d6fca19", "is_disabled": 0, "is_reserved": 0, "bike_id": "4f01ca094bdb92d89c3f59d93d6fca19", "lat": 38.89618083333333, "type": "electric_scooter"}, {"fusion_lat": 0.0, "fusion_lon": 0.0, "rental_uris": {"android": "https://dc.lft.to/lastmile_qr_scan", "ios": "https://dc.lft.to/lastmile_qr_scan"}, "lon": -77.02558366666666, "name": "290eee6e0dfac0403fc22d2861ed4f01", "is_disabled": 0, "is_reserved": 0, "bike_id": "290eee6e0dfac0403fc22d2861ed4f01", "lat": 38.9163145, "type": "electric_scooter"}, {"fusion_lat": 0.0, "fusion_lon": 0.0, "rental_uris": {"android": "https://dc.lft.to/lastmile_qr_scan", "ios": "https://dc.lft.to/lastmile_qr_scan"}, "lon": -77.02152383333333, "name": "b99292bcf1399f349ed9ba29bea1556c", "is_disabled": 0, "is_reserved": 0, "bike_id": "b99292bcf1399f349ed9ba29bea1556c", "lat": 38.924566666666664, "type": "electric_scooter"}, {"fusion_lat": 0.0, "fusion_lon": 0.0, "rental_uris": {"android": "https://dc.lft.to/lastmile_qr_scan", "ios": "https://dc.lft.to/lastmile_qr_scan"}, "lon": -76.946442, "name": "07a53b9d03fbf79b8218ff8195e60fe5", "is_disabled": 0, "is_reserved": 0, "bike_id": "07a53b9d03fbf79b8218ff8195e60fe5", "lat": 38.89864983333333, "type": "electric_scooter"}, {"fusion_lat": 0.0, "fusion_lon": 0.0, "rental_uris": {"android": "https://dc.lft.to/lastmile_qr_scan", "ios": "https://dc.lft.to/lastmile_qr_scan"}, "lon": -77.03807966666666, "name": "485b7769cc582da3d96ba2089e6a68d1", "is_disabled": 0, "is_reserved": 0, "bike_id": "485b7769cc582da3d96ba2089e6a68d1", "lat": 38.92075766666667, "type": "electric_scooter"}, {"fusion_lat": 0.0, "fusion_lon": 0.0, "rental_uris": {"android": "https://dc.lft.to/lastmile_qr_scan", "ios": "https://dc.lft.to/lastmile_qr_scan"}, "lon": -77.04339416666667, "name": "d7a8823df973846005efcae2f083d25b", "is_disabled": 0, "is_reserved": 0, "bike_id": "d7a8823df973846005efcae2f083d25b", "lat": 38.90516083333333, "type": "electric_scooter"}, {"fusion_lat": 0.0, "fusion_lon": 0.0, "rental_uris": {"android": "https://dc.lft.to/lastmile_qr_scan", "ios": "https://dc.lft.to/lastmile_qr_scan"}, "lon": -76.94797033333333, "name": "a98f7dd0bb8e4e352bc0043b9d7b6a3d", "is_disabled": 0, "is_reserved": 0, "bike_id": "a98f7dd0bb8e4e352bc0043b9d7b6a3d", "lat": 38.89637, "type": "electric_scooter"}, {"fusion_lat": 0.0, "fusion_lon": 0.0, "rental_uris": {"android": "https://dc.lft.to/lastmile_qr_scan", "ios": "https://dc.lft.to/lastmile_qr_scan"}, "lon": -77.04544133333333, "name": "ab2236d425a5f93c9c7bd0a147e61d10", "is_disabled": 0, "is_reserved": 0, "bike_id": "ab2236d425a5f93c9c7bd0a147e61d10", "lat": 38.93466166666666, "type": "electric_scooter"}, {"fusion_lat": 0.0, "fusion_lon": 0.0, "rental_uris": {"android": "https://dc.lft.to/lastmile_qr_scan", "ios": "https://dc.lft.to/lastmile_qr_scan"}, "lon": -77.03638066666667, "name": "d969974515810b6834b837a0abed63ff", "is_disabled": 0, "is_reserved": 0, "bike_id": "d969974515810b6834b837a0abed63ff", "lat": 38.92811233333333, "type": "electric_scooter"}, {"fusion_lat": 0.0, "fusion_lon": 0.0, "rental_uris": {"android": "https://dc.lft.to/lastmile_qr_scan", "ios": "https://dc.lft.to/lastmile_qr_scan"}, "lon": -76.96821716666666, "name": "e20863be7062b4cbae6f8a4574eb61e7", "is_disabled": 0, "is_reserved": 0, "bike_id": "e20863be7062b4cbae6f8a4574eb61e7", "lat": 38.95529466666667, "type": "electric_bike"}, {"fusion_lat": 0.0, "fusion_lon": 0.0, "rental_uris": {"android": "https://dc.lft.to/lastmile_qr_scan", "ios": "https://dc.lft.to/lastmile_qr_scan"}, "lon": -76.97227183333334, "name": "7306a536a810ba8e66431573a24d77f3", "is_disabled": 0, "is_reserved": 0, "bike_id": "7306a536a810ba8e66431573a24d77f3", "lat": 38.90034983333334, "type": "electric_bike"}, {"fusion_lat": 0.0, "fusion_lon": 0.0, "rental_uris": {"android": "https://dc.lft.to/lastmile_qr_scan", "ios": "https://dc.lft.to/lastmile_qr_scan"}, "lon": -77.0419625, "name": "d03d08a57a8cf7c27664e8851a4cd72b", "is_disabled": 0, "is_reserved": 0, "bike_id": "d03d08a57a8cf7c27664e8851a4cd72b", "lat": 38.90383033333333, "type": "electric_scooter"}, {"fusion_lat": 0.0, "fusion_lon": 0.0, "rental_uris": {"android": "https://dc.lft.to/lastmile_qr_scan", "ios": "https://dc.lft.to/lastmile_qr_scan"}, "lon": -77.01439216666667, "name": "8240da1d8736ceccd3f3ef8d0b650e32", "is_disabled": 0, "is_reserved": 0, "bike_id": "8240da1d8736ceccd3f3ef8d0b650e32", "lat": 38.913166833333335, "type": "electric_scooter"}, {"fusion_lat": 0.0, "fusion_lon": 0.0, "rental_uris": {"android": "https://dc.lft.to/lastmile_qr_scan", "ios": "https://dc.lft.to/lastmile_qr_scan"}, "lon": -77.05638983333333, "name": "2719a570376196138a2ebc93b1ab0522", "is_disabled": 0, "is_reserved": 0, "bike_id": "2719a570376196138a2ebc93b1ab0522", "lat": 38.923200666666666, "type": "electric_scooter"}, {"fusion_lat": 0.0, "fusion_lon": 0.0, "rental_uris": {"android": "https://dc.lft.to/lastmile_qr_scan", "ios": "https://dc.lft.to/lastmile_qr_scan"}, "lon": -77.03853183333334, "name": "e030468043960722bdfce9337721f900", "is_disabled": 0, "is_reserved": 0, "bike_id": "e030468043960722bdfce9337721f900", "lat": 38.915505, "type": "electric_scooter"}, {"fusion_lat": 0.0, "fusion_lon": 0.0, "rental_uris": {"android": "https://dc.lft.to/lastmile_qr_scan", "ios": "https://dc.lft.to/lastmile_qr_scan"}, "lon": -77.02783733333334, "name": "0a79a0001e37fb36725cfae10cf9c5ee", "is_disabled": 0, "is_reserved": 0, "bike_id": "0a79a0001e37fb36725cfae10cf9c5ee", "lat": 38.896040166666666, "type": "electric_scooter"}, {"fusion_lat": 0.0, "fusion_lon": 0.0, "rental_uris": {"android": "https://dc.lft.to/lastmile_qr_scan", "ios": "https://dc.lft.to/lastmile_qr_scan"}, "lon": -77.03596583333334, "name": "2900ae4f3cd9587c7480b14c397a3ccb", "is_disabled": 0, "is_reserved": 0, "bike_id": "2900ae4f3cd9587c7480b14c397a3ccb", "lat": 38.92865666666667, "type": "electric_scooter"}, {"fusion_lat": 0.0, "fusion_lon": 0.0, "rental_uris": {"android": "https://dc.lft.to/lastmile_qr_scan", "ios": "https://dc.lft.to/lastmile_qr_scan"}, "lon": -76.976299, "name": "b09c1248b78250332dde7a912c09fbad", "is_disabled": 0, "is_reserved": 0, "bike_id": "b09c1248b78250332dde7a912c09fbad", "lat": 38.90157416666667, "type": "electric_scooter"}, {"fusion_lat": 0.0, "fusion_lon": 0.0, "rental_uris": {"android": "https://dc.lft.to/lastmile_qr_scan", "ios": "https://dc.lft.to/lastmile_qr_scan"}, "lon": -77.0093255, "name": "50c61730fc4459a46da1e504d710fcfe", "is_disabled": 0, "is_reserved": 0, "bike_id": "50c61730fc4459a46da1e504d710fcfe", "lat": 38.875043833333336, "type": "electric_scooter"}, {"fusion_lat": 0.0, "fusion_lon": 0.0, "rental_uris": {"android": "https://dc.lft.to/lastmile_qr_scan", "ios": "https://dc.lft.to/lastmile_qr_scan"}, "lon": -77.04121633333334, "name": "4977732c814e90d00aa9366c9026af05", "is_disabled": 0, "is_reserved": 0, "bike_id": "4977732c814e90d00aa9366c9026af05", "lat": 38.92526633333333, "type": "electric_scooter"}, {"fusion_lat": 0.0, "fusion_lon": 0.0, "rental_uris": {"android": "https://dc.lft.to/lastmile_qr_scan", "ios": "https://dc.lft.to/lastmile_qr_scan"}, "lon": -77.03586133333333, "name": "487942d9113eec911615aa89c1874c0a", "is_disabled": 0, "is_reserved": 0, "bike_id": "487942d9113eec911615aa89c1874c0a", "lat": 38.931496333333335, "type": "electric_scooter"}, {"fusion_lat": 0.0, "fusion_lon": 0.0, "rental_uris": {"android": "https://dc.lft.to/lastmile_qr_scan", "ios": "https://dc.lft.to/lastmile_qr_scan"}, "lon": -77.01148033333334, "name": "168ebcdb1594f4d1253a44d30eb6fa48", "is_disabled": 0, "is_reserved": 0, "bike_id": "168ebcdb1594f4d1253a44d30eb6fa48", "lat": 38.929596, "type": "electric_scooter"}, {"fusion_lat": 0.0, "fusion_lon": 0.0, "rental_uris": {"android": "https://dc.lft.to/lastmile_qr_scan", "ios": "https://dc.lft.to/lastmile_qr_scan"}, "lon": -77.008445, "name": "691fda1abae92efd1b57145180ad99b0", "is_disabled": 0, "is_reserved": 0, "bike_id": "691fda1abae92efd1b57145180ad99b0", "lat": 38.8765085, "type": "electric_scooter"}, {"fusion_lat": 0.0, "fusion_lon": 0.0, "rental_uris": {"android": "https://dc.lft.to/lastmile_qr_scan", "ios": "https://dc.lft.to/lastmile_qr_scan"}, "lon": -77.03213166666667, "name": "9de340d9e7c7973745f1f5a8284f0490", "is_disabled": 0, "is_reserved": 0, "bike_id": "9de340d9e7c7973745f1f5a8284f0490", "lat": 38.884776, "type": "electric_scooter"}, {"fusion_lat": 0.0, "fusion_lon": 0.0, "rental_uris": {"android": "https://dc.lft.to/lastmile_qr_scan", "ios": "https://dc.lft.to/lastmile_qr_scan"}, "lon": -77.03126783333333, "name": "4e758b386c04e77fa0409f5b59bfb779", "is_disabled": 0, "is_reserved": 0, "bike_id": "4e758b386c04e77fa0409f5b59bfb779", "lat": 38.920209, "type": "electric_scooter"}, {"fusion_lat": 0.0, "fusion_lon": 0.0, "rental_uris": {"android": "https://dc.lft.to/lastmile_qr_scan", "ios": "https://dc.lft.to/lastmile_qr_scan"}, "lon": -77.04499116666666, "name": "0b6f1115718291de388c527f226ecf33", "is_disabled": 0, "is_reserved": 0, "bike_id": "0b6f1115718291de388c527f226ecf33", "lat": 38.898266666666665, "type": "electric_scooter"}, {"fusion_lat": 0.0, "fusion_lon": 0.0, "rental_uris": {"android": "https://dc.lft.to/lastmile_qr_scan", "ios": "https://dc.lft.to/lastmile_qr_scan"}, "lon": -77.02295633333334, "name": "7787fcb0de1a00ecc4e28404fe75d1bd", "is_disabled": 0, "is_reserved": 0, "bike_id": "7787fcb0de1a00ecc4e28404fe75d1bd", "lat": 38.895154, "type": "electric_scooter"}, {"fusion_lat": 0.0, "fusion_lon": 0.0, "rental_uris": {"android": "https://dc.lft.to/lastmile_qr_scan", "ios": "https://dc.lft.to/lastmile_qr_scan"}, "lon": -77.01111433333334, "name": "981cfa195f4b048335fe9e39e158845c", "is_disabled": 0, "is_reserved": 0, "bike_id": "981cfa195f4b048335fe9e39e158845c", "lat": 38.90971066666667, "type": "electric_scooter"}, {"fusion_lat": 0.0, "fusion_lon": 0.0, "rental_uris": {"android": "https://dc.lft.to/lastmile_qr_scan", "ios": "https://dc.lft.to/lastmile_qr_scan"}, "lon": -76.96906666666666, "name": "936f0335f00a9bbafe399f5cbf050451", "is_disabled": 0, "is_reserved": 0, "bike_id": "936f0335f00a9bbafe399f5cbf050451", "lat": 38.8729405, "type": "electric_scooter"}, {"fusion_lat": 0.0, "fusion_lon": 0.0, "rental_uris": {"android": "https://dc.lft.to/lastmile_qr_scan", "ios": "https://dc.lft.to/lastmile_qr_scan"}, "lon": -77.05111616666667, "name": "9298c868e8744d9806e37083e2846399", "is_disabled": 0, "is_reserved": 0, "bike_id": "9298c868e8744d9806e37083e2846399", "lat": 38.81333716666666, "type": "electric_bike"}, {"fusion_lat": 0.0, "fusion_lon": 0.0, "rental_uris": {"android": "https://dc.lft.to/lastmile_qr_scan", "ios": "https://dc.lft.to/lastmile_qr_scan"}, "lon": -77.03691133333334, "name": "32261f4585b58593f8e0ff7fd01f4286", "is_disabled": 0, "is_reserved": 0, "bike_id": "32261f4585b58593f8e0ff7fd01f4286", "lat": 38.926136166666666, "type": "electric_scooter"}, {"fusion_lat": 0.0, "fusion_lon": 0.0, "rental_uris": {"android": "https://dc.lft.to/lastmile_qr_scan", "ios": "https://dc.lft.to/lastmile_qr_scan"}, "lon": -77.04994366666666, "name": "5adc64a045935a8d37c1e413d48f048a", "is_disabled": 0, "is_reserved": 0, "bike_id": "5adc64a045935a8d37c1e413d48f048a", "lat": 38.89839633333333, "type": "electric_scooter"}, {"fusion_lat": 0.0, "fusion_lon": 0.0, "rental_uris": {"android": "https://dc.lft.to/lastmile_qr_scan", "ios": "https://dc.lft.to/lastmile_qr_scan"}, "lon": -77.00349866666667, "name": "0b56c053c3b1081dc70bea0008e81407", "is_disabled": 0, "is_reserved": 0, "bike_id": "0b56c053c3b1081dc70bea0008e81407", "lat": 38.89469533333333, "type": "electric_scooter"}, {"fusion_lat": 0.0, "fusion_lon": 0.0, "rental_uris": {"android": "https://dc.lft.to/lastmile_qr_scan", "ios": "https://dc.lft.to/lastmile_qr_scan"}, "lon": -76.97855883333334, "name": "2b84f33ecbbea9e0696d2d7d0e695b10", "is_disabled": 0, "is_reserved": 0, "bike_id": "2b84f33ecbbea9e0696d2d7d0e695b10", "lat": 38.8447305, "type": "electric_bike"}, {"fusion_lat": 0.0, "fusion_lon": 0.0, "rental_uris": {"android": "https://dc.lft.to/lastmile_qr_scan", "ios": "https://dc.lft.to/lastmile_qr_scan"}, "lon": -76.9981075, "name": "e21fa89ff07e45fe7dbeaea9f7105c08", "is_disabled": 0, "is_reserved": 0, "bike_id": "e21fa89ff07e45fe7dbeaea9f7105c08", "lat": 38.837769, "type": "electric_bike"}, {"fusion_lat": 0.0, "fusion_lon": 0.0, "rental_uris": {"android": "https://dc.lft.to/lastmile_qr_scan", "ios": "https://dc.lft.to/lastmile_qr_scan"}, "lon": -76.99519266666667, "name": "f6f6522fe0f339c78c3fe0a4d471a651", "is_disabled": 0, "is_reserved": 0, "bike_id": "f6f6522fe0f339c78c3fe0a4d471a651", "lat": 38.87922016666667, "type": "electric_scooter"}, {"fusion_lat": 0.0, "fusion_lon": 0.0, "rental_uris": {"android": "https://dc.lft.to/lastmile_qr_scan", "ios": "https://dc.lft.to/lastmile_qr_scan"}, "lon": -77.03194666666667, "name": "eacec76f343dcc13fed02ceaa6699d0a", "is_disabled": 0, "is_reserved": 0, "bike_id": "eacec76f343dcc13fed02ceaa6699d0a", "lat": 38.91927483333333, "type": "electric_scooter"}, {"fusion_lat": 0.0, "fusion_lon": 0.0, "rental_uris": {"android": "https://dc.lft.to/lastmile_qr_scan", "ios": "https://dc.lft.to/lastmile_qr_scan"}, "lon": -77.057358, "name": "40909b1e82de7ee5a97723bff6b174f6", "is_disabled": 0, "is_reserved": 0, "bike_id": "40909b1e82de7ee5a97723bff6b174f6", "lat": 38.93363933333333, "type": "electric_scooter"}, {"fusion_lat": 0.0, "fusion_lon": 0.0, "rental_uris": {"android": "https://dc.lft.to/lastmile_qr_scan", "ios": "https://dc.lft.to/lastmile_qr_scan"}, "lon": -77.0228965, "name": "37e8ba717922b22366b278f9655cb164", "is_disabled": 0, "is_reserved": 0, "bike_id": "37e8ba717922b22366b278f9655cb164", "lat": 38.897068166666664, "type": "electric_scooter"}, {"fusion_lat": 0.0, "fusion_lon": 0.0, "rental_uris": {"android": "https://dc.lft.to/lastmile_qr_scan", "ios": "https://dc.lft.to/lastmile_qr_scan"}, "lon": -77.01185083333333, "name": "023c1e65ab69d7c6a1c5571383785936", "is_disabled": 0, "is_reserved": 0, "bike_id": "023c1e65ab69d7c6a1c5571383785936", "lat": 38.89676516666667, "type": "electric_scooter"}, {"fusion_lat": 0.0, "fusion_lon": 0.0, "rental_uris": {"android": "https://dc.lft.to/lastmile_qr_scan", "ios": "https://dc.lft.to/lastmile_qr_scan"}, "lon": -77.025618, "name": "c707d877c1aee1ac9ad57ce8af7551fb", "is_disabled": 0, "is_reserved": 0, "bike_id": "c707d877c1aee1ac9ad57ce8af7551fb", "lat": 38.90956966666667, "type": "electric_scooter"}, {"fusion_lat": 0.0, "fusion_lon": 0.0, "rental_uris": {"android": "https://dc.lft.to/lastmile_qr_scan", "ios": "https://dc.lft.to/lastmile_qr_scan"}, "lon": -77.04900583333334, "name": "15c57c7a03da56f8ffea29e063fda1b9", "is_disabled": 0, "is_reserved": 0, "bike_id": "15c57c7a03da56f8ffea29e063fda1b9", "lat": 38.89874283333333, "type": "electric_scooter"}, {"fusion_lat": 0.0, "fusion_lon": 0.0, "rental_uris": {"android": "https://dc.lft.to/lastmile_qr_scan", "ios": "https://dc.lft.to/lastmile_qr_scan"}, "lon": -77.03644833333334, "name": "d2b35c6fdbedc91d9657f834803852ce", "is_disabled": 0, "is_reserved": 0, "bike_id": "d2b35c6fdbedc91d9657f834803852ce", "lat": 38.91828116666667, "type": "electric_scooter"}, {"fusion_lat": 0.0, "fusion_lon": 0.0, "rental_uris": {"android": "https://dc.lft.to/lastmile_qr_scan", "ios": "https://dc.lft.to/lastmile_qr_scan"}, "lon": -77.005674, "name": "199a5d03464757a7da36192e07bcbe74", "is_disabled": 0, "is_reserved": 0, "bike_id": "199a5d03464757a7da36192e07bcbe74", "lat": 38.87670966666667, "type": "electric_scooter"}, {"fusion_lat": 0.0, "fusion_lon": 0.0, "rental_uris": {"android": "https://dc.lft.to/lastmile_qr_scan", "ios": "https://dc.lft.to/lastmile_qr_scan"}, "lon": -77.04919666666666, "name": "67a3c2064014551d4b0e3cf749699271", "is_disabled": 0, "is_reserved": 0, "bike_id": "67a3c2064014551d4b0e3cf749699271", "lat": 38.905111, "type": "electric_scooter"}, {"fusion_lat": 0.0, "fusion_lon": 0.0, "rental_uris": {"android": "https://dc.lft.to/lastmile_qr_scan", "ios": "https://dc.lft.to/lastmile_qr_scan"}, "lon": -77.011215, "name": "08f571f9f8f80405a8685cf788eca01a", "is_disabled": 0, "is_reserved": 0, "bike_id": "08f571f9f8f80405a8685cf788eca01a", "lat": 38.90000583333333, "type": "electric_scooter"}, {"fusion_lat": 0.0, "fusion_lon": 0.0, "rental_uris": {"android": "https://dc.lft.to/lastmile_qr_scan", "ios": "https://dc.lft.to/lastmile_qr_scan"}, "lon": -77.02095283333334, "name": "60830d1366d2b676c5b72a7a3660a7d1", "is_disabled": 0, "is_reserved": 0, "bike_id": "60830d1366d2b676c5b72a7a3660a7d1", "lat": 38.8850645, "type": "electric_scooter"}, {"fusion_lat": 0.0, "fusion_lon": 0.0, "rental_uris": {"android": "https://dc.lft.to/lastmile_qr_scan", "ios": "https://dc.lft.to/lastmile_qr_scan"}, "lon": -77.03187583333333, "name": "0fe98d8bd90938ff743147553f48bb62", "is_disabled": 0, "is_reserved": 0, "bike_id": "0fe98d8bd90938ff743147553f48bb62", "lat": 38.901217333333335, "type": "electric_scooter"}, {"fusion_lat": 0.0, "fusion_lon": 0.0, "rental_uris": {"android": "https://dc.lft.to/lastmile_qr_scan", "ios": "https://dc.lft.to/lastmile_qr_scan"}, "lon": -77.02993233333333, "name": "dfc700aaddec255fd64f29b89a1537d0", "is_disabled": 0, "is_reserved": 0, "bike_id": "dfc700aaddec255fd64f29b89a1537d0", "lat": 38.90368983333333, "type": "electric_scooter"}, {"fusion_lat": 0.0, "fusion_lon": 0.0, "rental_uris": {"android": "https://dc.lft.to/lastmile_qr_scan", "ios": "https://dc.lft.to/lastmile_qr_scan"}, "lon": -77.0058975, "name": "65bae745263032db10ec93fb8dd48b54", "is_disabled": 0, "is_reserved": 0, "bike_id": "65bae745263032db10ec93fb8dd48b54", "lat": 38.90560266666667, "type": "electric_scooter"}, {"fusion_lat": 0.0, "fusion_lon": 0.0, "rental_uris": {"android": "https://dc.lft.to/lastmile_qr_scan", "ios": "https://dc.lft.to/lastmile_qr_scan"}, "lon": -77.011945, "name": "2910417eff01a57b2f89ff0b1ff3d63a", "is_disabled": 0, "is_reserved": 0, "bike_id": "2910417eff01a57b2f89ff0b1ff3d63a", "lat": 38.92762066666667, "type": "electric_scooter"}, {"fusion_lat": 0.0, "fusion_lon": 0.0, "rental_uris": {"android": "https://dc.lft.to/lastmile_qr_scan", "ios": "https://dc.lft.to/lastmile_qr_scan"}, "lon": -77.2292835, "name": "4b007402dc0f5e9ba0adcfc09554bf69", "is_disabled": 0, "is_reserved": 0, "bike_id": "4b007402dc0f5e9ba0adcfc09554bf69", "lat": 38.93189666666667, "type": "electric_bike"}, {"fusion_lat": 0.0, "fusion_lon": 0.0, "rental_uris": {"android": "https://dc.lft.to/lastmile_qr_scan", "ios": "https://dc.lft.to/lastmile_qr_scan"}, "lon": -77.02681966666667, "name": "a796a55443ba0b40341ba7eb7108939f", "is_disabled": 0, "is_reserved": 0, "bike_id": "a796a55443ba0b40341ba7eb7108939f", "lat": 38.955045166666665, "type": "electric_scooter"}, {"fusion_lat": 0.0, "fusion_lon": 0.0, "rental_uris": {"android": "https://dc.lft.to/lastmile_qr_scan", "ios": "https://dc.lft.to/lastmile_qr_scan"}, "lon": -77.00295466666667, "name": "878f0f2ac0b2bf11c5112c21cf65c3b1", "is_disabled": 0, "is_reserved": 0, "bike_id": "878f0f2ac0b2bf11c5112c21cf65c3b1", "lat": 38.91818266666667, "type": "electric_scooter"}, {"fusion_lat": 0.0, "fusion_lon": 0.0, "rental_uris": {"android": "https://dc.lft.to/lastmile_qr_scan", "ios": "https://dc.lft.to/lastmile_qr_scan"}, "lon": -77.0387535, "name": "682f5a3ed5f2dc3c6a35b6c4d2110ca9", "is_disabled": 0, "is_reserved": 0, "bike_id": "682f5a3ed5f2dc3c6a35b6c4d2110ca9", "lat": 38.906586, "type": "electric_scooter"}, {"fusion_lat": 0.0, "fusion_lon": 0.0, "rental_uris": {"android": "https://dc.lft.to/lastmile_qr_scan", "ios": "https://dc.lft.to/lastmile_qr_scan"}, "lon": -77.00239416666666, "name": "b0b08a4c60026728cdb1049e47a29e84", "is_disabled": 0, "is_reserved": 0, "bike_id": "b0b08a4c60026728cdb1049e47a29e84", "lat": 38.874879666666665, "type": "electric_scooter"}, {"fusion_lat": 0.0, "fusion_lon": 0.0, "rental_uris": {"android": "https://dc.lft.to/lastmile_qr_scan", "ios": "https://dc.lft.to/lastmile_qr_scan"}, "lon": -76.98719816666667, "name": "16ef5a37f999d8368bf3e7abb12a6aec", "is_disabled": 0, "is_reserved": 0, "bike_id": "16ef5a37f999d8368bf3e7abb12a6aec", "lat": 38.866287666666665, "type": "electric_scooter"}, {"fusion_lat": 0.0, "fusion_lon": 0.0, "rental_uris": {"android": "https://dc.lft.to/lastmile_qr_scan", "ios": "https://dc.lft.to/lastmile_qr_scan"}, "lon": -76.99583183333333, "name": "a9182506eacd05ad4fe1a37e07bd9d6c", "is_disabled": 0, "is_reserved": 0, "bike_id": "a9182506eacd05ad4fe1a37e07bd9d6c", "lat": 38.851816666666664, "type": "electric_scooter"}, {"fusion_lat": 0.0, "fusion_lon": 0.0, "rental_uris": {"android": "https://dc.lft.to/lastmile_qr_scan", "ios": "https://dc.lft.to/lastmile_qr_scan"}, "lon": -77.02178133333334, "name": "5617bf00ea220f6741d66b71a8d8453f", "is_disabled": 0, "is_reserved": 0, "bike_id": "5617bf00ea220f6741d66b71a8d8453f", "lat": 38.90579, "type": "electric_scooter"}, {"fusion_lat": 0.0, "fusion_lon": 0.0, "rental_uris": {"android": "https://dc.lft.to/lastmile_qr_scan", "ios": "https://dc.lft.to/lastmile_qr_scan"}, "lon": -76.99008883333333, "name": "b6e7023da9bdd7920616deba0e43aeca", "is_disabled": 0, "is_reserved": 0, "bike_id": "b6e7023da9bdd7920616deba0e43aeca", "lat": 38.90393916666667, "type": "electric_scooter"}, {"fusion_lat": 0.0, "fusion_lon": 0.0, "rental_uris": {"android": "https://dc.lft.to/lastmile_qr_scan", "ios": "https://dc.lft.to/lastmile_qr_scan"}, "lon": -77.05735966666667, "name": "994363b2ecabb12796d0c4a97825ffc5", "is_disabled": 0, "is_reserved": 0, "bike_id": "994363b2ecabb12796d0c4a97825ffc5", "lat": 38.93370933333333, "type": "electric_scooter"}, {"fusion_lat": 0.0, "fusion_lon": 0.0, "rental_uris": {"android": "https://dc.lft.to/lastmile_qr_scan", "ios": "https://dc.lft.to/lastmile_qr_scan"}, "lon": -77.02813716666667, "name": "44c167e43bbb6b601c9dd7aa1bd2fc74", "is_disabled": 0, "is_reserved": 0, "bike_id": "44c167e43bbb6b601c9dd7aa1bd2fc74", "lat": 38.89870833333333, "type": "electric_scooter"}, {"fusion_lat": 0.0, "fusion_lon": 0.0, "rental_uris": {"android": "https://dc.lft.to/lastmile_qr_scan", "ios": "https://dc.lft.to/lastmile_qr_scan"}, "lon": -77.00225933333333, "name": "385f28347191f4319eddbe97486a6778", "is_disabled": 0, "is_reserved": 0, "bike_id": "385f28347191f4319eddbe97486a6778", "lat": 38.925093, "type": "electric_scooter"}, {"fusion_lat": 0.0, "fusion_lon": 0.0, "rental_uris": {"android": "https://dc.lft.to/lastmile_qr_scan", "ios": "https://dc.lft.to/lastmile_qr_scan"}, "lon": -77.072506, "name": "4d2bff0fc4ad74a7b378832e26929af0", "is_disabled": 0, "is_reserved": 0, "bike_id": "4d2bff0fc4ad74a7b378832e26929af0", "lat": 38.939533, "type": "electric_scooter"}, {"fusion_lat": 0.0, "fusion_lon": 0.0, "rental_uris": {"android": "https://dc.lft.to/lastmile_qr_scan", "ios": "https://dc.lft.to/lastmile_qr_scan"}, "lon": -77.04199083333333, "name": "fbfb6e9bc408d47ccac366048e77afba", "is_disabled": 0, "is_reserved": 0, "bike_id": "fbfb6e9bc408d47ccac366048e77afba", "lat": 38.920990833333335, "type": "electric_scooter"},