{"data": {"bikes": [{"rental_uris": {"ios": "https://dc.lft.to/lastmile_qr_scan", "android": "https://dc.lft.to/lastmile_qr_scan"}, "type": "electric_scooter", "name": "d5feee7ea49f8d8cb9809cbacf05674b", "is_reserved": 0, "lon": -77.03523816666667, "is_disabled": 0, "fusion_lat": 0.0, "lat": 38.92214216666667, "bike_id": "d5feee7ea49f8d8cb9809cbacf05674b", "fusion_lon": 0.0}, {"rental_uris": {"ios": "https://dc.lft.to/lastmile_qr_scan", "android": "https://dc.lft.to/lastmile_qr_scan"}, "type": "electric_scooter", "name": "0bd934e5ceb5b2522baefad98b6c0e59", "is_reserved": 0, "lon": -76.99842616666666, "is_disabled": 0, "fusion_lat": 0.0, "lat": 38.902998833333335, "bike_id": "0bd934e5ceb5b2522baefad98b6c0e59", "fusion_lon": 0.0}, {"rental_uris": {"ios": "https://dc.lft.to/lastmile_qr_scan", "android": "https://dc.lft.to/lastmile_qr_scan"}, "type": "electric_scooter", "name": "831c59c02dbfd2f96df438dc67b6209c", "is_reserved": 0, "lon": -77.00562716666667, "is_disabled": 0, "fusion_lat": 0.0, "lat": 38.909076666666664, "bike_id": "831c59c02dbfd2f96df438dc67b6209c", "fusion_lon": 0.0}, {"rental_uris": {"ios": "https://dc.lft.to/lastmile_qr_scan", "android": "https://dc.lft.to/lastmile_qr_scan"}, "type": "electric_bike", "name": "af5feae2a7b16670045485ba6d521ccd", "is_reserved": 0, "lon": -76.9030225, "is_disabled": 0, "fusion_lat": 0.0, "lat": 39.002964666666664, "bike_id": "af5feae2a7b16670045485ba6d521ccd", "fusion_lon": 0.0}, {"rental_uris": {"ios": "https://dc.lft.to/lastmile_qr_scan", "android": "https://dc.lft.to/lastmile_qr_scan"}, "type": "electric_scooter", "name": "aeb07d6e61fcad27287062eb77c6ba8d", "is_reserved": 0, "lon": -76.99408516666666, "is_disabled": 0, "fusion_lat": 0.0, "lat": 38.87789466666667, "bike_id": "aeb07d6e61fcad27287062eb77c6ba8d", "fusion_lon": 0.0}, {"rental_uris": {"ios": "https://dc.lft.to/lastmile_qr_scan", "android": "https://dc.lft.to/lastmile_qr_scan"}, "type": "electric_scooter", "name": "dc22d7843abb72fed4bc713651de2c5a", "is_reserved": 0, "lon": -77.03471333333333, "is_disabled": 0, "fusion_lat": 0.0, "lat": 38.930228, "bike_id": "dc22d7843abb72fed4bc713651de2c5a", "fusion_lon": 0.0}, {"rental_uris": {"ios": "https://dc.lft.to/lastmile_qr_scan", "android": "https://dc.lft.to/lastmile_qr_scan"}, "type": "electric_scooter", "name": "93f2786e02bfa51ff86951e3d19f7539", "is_reserved": 0, "lon": -77.01735183333334, "is_disabled": 0, "fusion_lat": 0.0, "lat": 38.87917933333333, "bike_id": "93f2786e02bfa51ff86951e3d19f7539", "fusion_lon": 0.0}, {"rental_uris": {"ios": "https://dc.lft.to/lastmile_qr_scan", "android": "https://dc.lft.to/lastmile_qr_scan"}, "type": "electric_scooter", "name": "1ad00a0fb8ac14acb0f981f1cdaee395", "is_reserved": 0, "lon": -77.008726, "is_disabled": 0, "fusion_lat": 0.0, "lat": 38.91254883333333, "bike_id": "1ad00a0fb8ac14acb0f981f1cdaee395", "fusion_lon": 0.0}, {"rental_uris": {"ios": "https://dc.lft.to/lastmile_qr_scan", "android": "https://dc.lft.to/lastmile_qr_scan"}, "type": "electric_scooter", "name": "c9b0fe1ef8e0d9f4b88cf5d1de2c9d45", "is_reserved": 0, "lon": -77.04725583333334, "is_disabled": 0, "fusion_lat": 0.0, "lat": 38.896081833333334, "bike_id": "c9b0fe1ef8e0d9f4b88cf5d1de2c9d45", "fusion_lon": 0.0}, {"rental_uris": {"ios": "https://dc.lft.to/lastmile_qr_scan", "android": "https://dc.lft.to/lastmile_qr_scan"}, "type": "electric_bike", "name": "b6fe9dbce7b946ada23417679335d9a7", "is_reserved": 0, "lon": -77.08140216666666, "is_disabled": 0, "fusion_lat": 0.0, "lat": 38.82297583333333, "bike_id": "b6fe9dbce7b946ada23417679335d9a7", "fusion_lon": 0.0}, {"rental_uris": {"ios": "https://dc.lft.to/lastmile_qr_scan", "android": "https://dc.lft.to/lastmile_qr_scan"}, "type": "electric_scooter", "name": "f05a651f646bbc379c2d95a976ecd5a9", "is_reserved": 0, "lon": -77.03504666666667, "is_disabled": 0, "fusion_lat": 0.0, "lat": 38.92157066666667, "bike_id": "f05a651f646bbc379c2d95a976ecd5a9", "fusion_lon": 0.0}, {"rental_uris": {"ios": "https://dc.lft.to/lastmile_qr_scan", "android": "https://dc.lft.to/lastmile_qr_scan"}, "type": "electric_scooter", "name": "ab866ab8fd896bde6672e20cbc156c31", "is_reserved": 0, "lon": -77.01637533333333, "is_disabled": 0, "fusion_lat": 0.0, "lat": 38.90253366666666, "bike_id": "ab866ab8fd896bde6672e20cbc156c31", "fusion_lon": 0.0}, {"rental_uris": {"ios": "https://dc.lft.to/lastmile_qr_scan", "android": "https://dc.lft.to/lastmile_qr_scan"}, "type": "electric_bike", "name": "cb96212c68ea3909f45be95b048abc0b", "is_reserved": 0, "lon": -77.00374366666667, "is_disabled": 0, "fusion_lat": 0.0, "lat": 38.83605633333333, "bike_id": "cb96212c68ea3909f45be95b048abc0b", "fusion_lon": 0.0}, {"rental_uris": {"ios": "https://dc.lft.to/lastmile_qr_scan", "android": "https://dc.lft.to/lastmile_qr_scan"}, "type": "electric_scooter", "name": "ac0c30b2364c85ada7eddffa2beaabce", "is_reserved": 0, "lon": -77.02079233333333, "is_disabled": 0, "fusion_lat": 0.0, "lat": 38.93020166666667, "bike_id": "ac0c30b2364c85ada7eddffa2beaabce", "fusion_lon": 0.0}, {"rental_uris": {"ios": "https://dc.lft.to/lastmile_qr_scan", "android": "https://dc.lft.to/lastmile_qr_scan"}, "type": "electric_scooter", "name": "314c2404964d7f6d66bc2731b110e550", "is_reserved": 0, "lon": -77.02730466666667, "is_disabled": 0, "fusion_lat": 0.0, "lat": 38.916980833333334, "bike_id": "314c2404964d7f6d66bc2731b110e550", "fusion_lon": 0.0}, {"rental_uris": {"ios": "https://dc.lft.to/lastmile_qr_scan", "android": "https://dc.lft.to/lastmile_qr_scan"}, "type": "electric_scooter", "name": "ebf06d33a495172fd780c4153c8ba397", "is_reserved": 0, "lon": -77.03832466666667, "is_disabled": 0, "fusion_lat": 0.0, "lat": 38.908232166666664, "bike_id": "ebf06d33a495172fd780c4153c8ba397", "fusion_lon": 0.0}, {"rental_uris": {"ios": "https://dc.lft.to/lastmile_qr_scan", "android": "https://dc.lft.to/lastmile_qr_scan"}, "type": "electric_scooter", "name": "a172a7e5e232164d52977ef18f90a4d4", "is_reserved": 0, "lon": -77.02093316666667, "is_disabled": 0, "fusion_lat": 0.0, "lat": 38.9311655, "bike_id": "a172a7e5e232164d52977ef18f90a4d4", "fusion_lon": 0.0}, {"rental_uris": {"ios": "https://dc.lft.to/lastmile_qr_scan", "android": "https://dc.lft.to/lastmile_qr_scan"}, "type": "electric_scooter", "name": "534e36fb8e88bcf7afca320848daf80e", "is_reserved": 0, "lon": -77.001956, "is_disabled": 0, "fusion_lat": 0.0, "lat": 38.907608833333335, "bike_id": "534e36fb8e88bcf7afca320848daf80e", "fusion_lon": 0.0}, {"rental_uris": {"ios": "https://dc.lft.to/lastmile_qr_scan", "android": "https://dc.lft.to/lastmile_qr_scan"}, "type": "electric_bike", "name": "e14b6d645420d09bf99e9779bd3e89e8", "is_reserved": 0, "lon": -76.96322066666667, "is_disabled": 0, "fusion_lat": 0.0, "lat": 38.938970833333336, "bike_id": "e14b6d645420d09bf99e9779bd3e89e8", "fusion_lon": 0.0}, {"rental_uris": {"ios": "https://dc.lft.to/lastmile_qr_scan", "android": "https://dc.lft.to/lastmile_qr_scan"}, "type": "electric_scooter", "name": "27d344f5b6c508a290efd5058db8afd7", "is_reserved": 0, "lon": -77.03820033333334, "is_disabled": 0, "fusion_lat": 0.0, "lat": 38.935928, "bike_id": "27d344f5b6c508a290efd5058db8afd7", "fusion_lon": 0.0}, {"rental_uris": {"ios": "https://dc.lft.to/lastmile_qr_scan", "android": "https://dc.lft.to/lastmile_qr_scan"}, "type": "electric_scooter", "name": "1f9e5dffbb52f4ed141988765a177525", "is_reserved": 0, "lon": -77.0326895, "is_disabled": 0, "fusion_lat": 0.0, "lat": 38.914038166666664, "bike_id": "1f9e5dffbb52f4ed141988765a177525", "fusion_lon": 0.0}, {"rental_uris": {"ios": "https://dc.lft.to/lastmile_qr_scan", "android": "https://dc.lft.to/lastmile_qr_scan"}, "type": "electric_scooter", "name": "7d13add3cee1fd5888d09b37842a7efd", "is_reserved": 0, "lon": -77.00068833333333, "is_disabled": 0, "fusion_lat": 0.0, "lat": 38.876866166666666, "bike_id": "7d13add3cee1fd5888d09b37842a7efd", "fusion_lon": 0.0}, {"rental_uris": {"ios": "https://dc.lft.to/lastmile_qr_scan", "android": "https://dc.lft.to/lastmile_qr_scan"}, "type": "electric_scooter", "name": "37f23ee1d620653d863312c6571c1e15", "is_reserved": 0, "lon": -77.02694916666667, "is_disabled": 0, "fusion_lat": 0.0, "lat": 38.89980766666667, "bike_id": "37f23ee1d620653d863312c6571c1e15", "fusion_lon": 0.0}, {"rental_uris": {"ios": "https://dc.lft.to/lastmile_qr_scan", "android": "https://dc.lft.to/lastmile_qr_scan"}, "type": "electric_scooter", "name": "fd8da7930609a06c443d938c62485cb5", "is_reserved": 0, "lon": -77.06061483333333, "is_disabled": 0, "fusion_lat": 0.0, "lat": 38.886090833333334, "bike_id": "fd8da7930609a06c443d938c62485cb5", "fusion_lon": 0.0}, {"rental_uris": {"ios": "https://dc.lft.to/lastmile_qr_scan", "android": "https://dc.lft.to/lastmile_qr_scan"}, "type": "electric_bike", "name": "c67a49f2bc9ca21096553150f06fdfaf", "is_reserved": 0, "lon": -77.0388135, "is_disabled": 0, "fusion_lat": 0.0, "lat": 39.0263715, "bike_id": "c67a49f2bc9ca21096553150f06fdfaf", "fusion_lon": 0.0}, {"rental_uris": {"ios": "https://dc.lft.to/lastmile_qr_scan", "android": "https://dc.lft.to/lastmile_qr_scan"}, "type": "electric_scooter", "name": "0496e8a88ba518cfb8ecd05f5f905e48", "is_reserved": 0, "lon": -77.0294595, "is_disabled": 0, "fusion_lat": 0.0, "lat": 38.91691316666667, "bike_id": "0496e8a88ba518cfb8ecd05f5f905e48", "fusion_lon": 0.0}, {"rental_uris": {"ios": "https://dc.lft.to/lastmile_qr_scan", "android": "https://dc.lft.to/lastmile_qr_scan"}, "type": "electric_bike", "name": "2cda2d0cba00c0a0c8fabc680696b991", "is_reserved": 0, "lon": -77.09625866666667, "is_disabled": 0, "fusion_lat": 0.0, "lat": 38.952522, "bike_id": "2cda2d0cba00c0a0c8fabc680696b991", "fusion_lon": 0.0}, {"rental_uris": {"ios": "https://dc.lft.to/lastmile_qr_scan", "android": "https://dc.lft.to/lastmile_qr_scan"}, "type": "electric_scooter", "name": "482e6b9753d5f00ee881193a02ee48ae", "is_reserved": 0, "lon": -77.02096616666667, "is_disabled": 0, "fusion_lat": 0.0, "lat": 38.92706416666667, "bike_id": "482e6b9753d5f00ee881193a02ee48ae", "fusion_lon": 0.0}, {"rental_uris": {"ios": "https://dc.lft.to/lastmile_qr_scan", "android": "https://dc.lft.to/lastmile_qr_scan"}, "type": "electric_bike", "name": "068a42aef2af3da9cd84a548b4d032b2", "is_reserved": 0, "lon": -77.1273775, "is_disabled": 0, "fusion_lat": 0.0, "lat": 38.8957095, "bike_id": "068a42aef2af3da9cd84a548b4d032b2", "fusion_lon": 0.0}, {"rental_uris": {"ios": "https://dc.lft.to/lastmile_qr_scan", "android": "https://dc.lft.to/lastmile_qr_scan"}, "type": "electric_scooter", "name": "682f52f1ecd763f405fcaa186d2155dd", "is_reserved": 0, "lon": -77.04173583333333, "is_disabled": 0, "fusion_lat": 0.0, "lat": 38.91089266666667, "bike_id": "682f52f1ecd763f405fcaa186d2155dd", "fusion_lon": 0.0}, {"rental_uris": {"ios": "https://dc.lft.to/lastmile_qr_scan", "android": "https://dc.lft.to/lastmile_qr_scan"}, "type": "electric_scooter", "name": "8f13de2495eaaf0de685bd8127588ba9", "is_reserved": 0, "lon": -76.999648, "is_disabled": 0, "fusion_lat": 0.0, "lat": 38.9086615, "bike_id": "8f13de2495eaaf0de685bd8127588ba9", "fusion_lon": 0.0}, {"rental_uris": {"ios": "https://dc.lft.to/lastmile_qr_scan", "android": "https://dc.lft.to/lastmile_qr_scan"}, "type": "electric_scooter", "name": "388312754ef546a7ae181c2082b60809", "is_reserved": 0, "lon": -77.06607533333333, "is_disabled": 0, "fusion_lat": 0.0, "lat": 38.911167666666664, "bike_id": "388312754ef546a7ae181c2082b60809", "fusion_lon": 0.0}, {"rental_uris": {"ios": "https://dc.lft.to/lastmile_qr_scan", "android": "https://dc.lft.to/lastmile_qr_scan"}, "type": "electric_scooter", "name": "bf29c522bb17c510ad291261da9b6ebe", "is_reserved": 0, "lon": -77.04755333333334, "is_disabled": 0, "fusion_lat": 0.0, "lat": 38.89587483333333, "bike_id": "bf29c522bb17c510ad291261da9b6ebe", "fusion_lon": 0.0}, {"rental_uris": {"ios": "https://dc.lft.to/lastmile_qr_scan", "android": "https://dc.lft.to/lastmile_qr_scan"}, "type": "electric_scooter", "name": "56be737230210975930df62e8c796938", "is_reserved": 0, "lon": -77.031595, "is_disabled": 0, "fusion_lat": 0.0, "lat": 38.916932333333335, "bike_id": "56be737230210975930df62e8c796938", "fusion_lon": 0.0}, {"rental_uris": {"ios": "https://dc.lft.to/lastmile_qr_scan", "android": "https://dc.lft.to/lastmile_qr_scan"}, "type": "electric_scooter", "name": "43ce56f43adafafc3e2e0e6d6a39fb0e", "is_reserved": 0, "lon": -77.046318, "is_disabled": 0, "fusion_lat": 0.0, "lat": 38.923311, "bike_id": "43ce56f43adafafc3e2e0e6d6a39fb0e", "fusion_lon": 0.0}, {"rental_uris": {"ios": "https://dc.lft.to/lastmile_qr_scan", "android": "https://dc.lft.to/lastmile_qr_scan"}, "type": "electric_bike", "name": "7be53d5d5bce681cb21f45cf3b709cd7", "is_reserved": 0, "lon": -76.99919366666667, "is_disabled": 0, "fusion_lat": 0.0, "lat": 38.994693166666664, "bike_id": "7be53d5d5bce681cb21f45cf3b709cd7", "fusion_lon": 0.0}, {"rental_uris": {"ios": "https://dc.lft.to/lastmile_qr_scan", "android": "https://dc.lft.to/lastmile_qr_scan"}, "type": "electric_scooter", "name": "b7f5e5a344c6e72eadd5353731cecf56", "is_reserved": 0, "lon": -77.05124616666667, "is_disabled": 0, "fusion_lat": 0.0, "lat": 38.92524933333333, "bike_id": "b7f5e5a344c6e72eadd5353731cecf56", "fusion_lon": 0.0}, {"rental_uris": {"ios": "https://dc.lft.to/lastmile_qr_scan", "android": "https://dc.lft.to/lastmile_qr_scan"}, "type": "electric_scooter", "name": "cc1a54e4fc82454c0a1a9eb4f858ba57", "is_reserved": 0, "lon": -77.04665633333333, "is_disabled": 0, "fusion_lat": 0.0, "lat": 38.892790166666664, "bike_id": "cc1a54e4fc82454c0a1a9eb4f858ba57", "fusion_lon": 0.0}, {"rental_uris": {"ios": "https://dc.lft.to/lastmile_qr_scan", "android": "https://dc.lft.to/lastmile_qr_scan"}, "type": "electric_scooter", "name": "337cad2de7a0a24d30f18dd99741078f", "is_reserved": 0, "lon": -77.06854166666666, "is_disabled": 0, "fusion_lat": 0.0, "lat": 38.95271233333333, "bike_id": "337cad2de7a0a24d30f18dd99741078f", "fusion_lon": 0.0}, {"rental_uris": {"ios": "https://dc.lft.to/lastmile_qr_scan", "android": "https://dc.lft.to/lastmile_qr_scan"}, "type": "electric_bike", "name": "46de4f6a5f3c467f2fa8083c7297a22e", "is_reserved": 0, "lon": -77.09453416666666, "is_disabled": 0, "fusion_lat": 0.0, "lat": 38.80755216666667, "bike_id": "46de4f6a5f3c467f2fa8083c7297a22e", "fusion_lon": 0.0}, {"rental_uris": {"ios": "https://dc.lft.to/lastmile_qr_scan", "android": "https://dc.lft.to/lastmile_qr_scan"}, "type": "electric_scooter", "name": "218c56133c7698c0886a3a8907b645a1", "is_reserved": 0, "lon": -77.08630466666666, "is_disabled": 0, "fusion_lat": 0.0, "lat": 38.938245, "bike_id": "218c56133c7698c0886a3a8907b645a1", "fusion_lon": 0.0}, {"rental_uris": {"ios": "https://dc.lft.to/lastmile_qr_scan", "android": "https://dc.lft.to/lastmile_qr_scan"}, "type": "electric_scooter", "name": "02ab6f5a28dbf46ab7e4540d6061d6e6", "is_reserved": 0, "lon": -77.0146195, "is_disabled": 0, "fusion_lat": 0.0, "lat": 38.87935316666667, "bike_id": "02ab6f5a28dbf46ab7e4540d6061d6e6", "fusion_lon": 0.0}, {"rental_uris": {"ios": "https://dc.lft.to/lastmile_qr_scan", "android": "https://dc.lft.to/lastmile_qr_scan"}, "type": "electric_bike", "name": "c4614f92f0d944e356ee482bc60f4823", "is_reserved": 0, "lon": -77.08568266666667, "is_disabled": 0, "fusion_lat": 0.0, "lat": 38.87418916666667, "bike_id": "c4614f92f0d944e356ee482bc60f4823", "fusion_lon": 0.0}, {"rental_uris": {"ios": "https://dc.lft.to/lastmile_qr_scan", "android": "https://dc.lft.to/lastmile_qr_scan"}, "type": "electric_scooter", "name": "a0841eedeae69fc8826e5e51bac695bb", "is_reserved": 0, "lon": -76.948705, "is_disabled": 0, "fusion_lat": 0.0, "lat": 38.89481883333333, "bike_id": "a0841eedeae69fc8826e5e51bac695bb", "fusion_lon": 0.0}, {"rental_uris": {"ios": "https://dc.lft.to/lastmile_qr_scan", "android": "https://dc.lft.to/lastmile_qr_scan"}, "type": "electric_scooter", "name": "c9b903e1e0ef7595d9d1efe9ef14e8c8", "is_reserved": 0, "lon": -77.01826316666667, "is_disabled": 0, "fusion_lat": 0.0, "lat": 38.92251816666667, "bike_id": "c9b903e1e0ef7595d9d1efe9ef14e8c8", "fusion_lon": 0.0}, {"rental_uris": {"ios": "https://dc.lft.to/lastmile_qr_scan", "android": "https://dc.lft.to/lastmile_qr_scan"}, "type": "electric_scooter", "name": "d6ad9bf8406781d7f470315313e212e9", "is_reserved": 0, "lon": -77.0259805, "is_disabled": 0, "fusion_lat": 0.0, "lat": 38.90101116666666, "bike_id": "d6ad9bf8406781d7f470315313e212e9", "fusion_lon": 0.0}, {"rental_uris": {"ios": "https://dc.lft.to/lastmile_qr_scan", "android": "https://dc.lft.to/lastmile_qr_scan"}, "type": "electric_scooter", "name": "7aec11ada4f30d09af7455b21b2eb12c", "is_reserved": 0, "lon": -77.01759933333334, "is_disabled": 0, "fusion_lat": 0.0, "lat": 38.90257183333333, "bike_id": "7aec11ada4f30d09af7455b21b2eb12c", "fusion_lon": 0.0}, {"rental_uris": {"ios": "https://dc.lft.to/lastmile_qr_scan", "android": "https://dc.lft.to/lastmile_qr_scan"}, "type": "electric_scooter", "name": "f0f57728b4a4727dea57cea615ad7d77", "is_reserved": 0, "lon": -77.04408833333333, "is_disabled": 0, "fusion_lat": 0.0, "lat": 38.8958915, "bike_id": "f0f57728b4a4727dea57cea615ad7d77", "fusion_lon": 0.0}, {"rental_uris": {"ios": "https://dc.lft.to/lastmile_qr_scan", "android": "https://dc.lft.to/lastmile_qr_scan"}, "type": "electric_scooter", "name": "91155798089c2ced1879709a8dfe6a17", "is_reserved": 0, "lon": -77.022009, "is_disabled": 0, "fusion_lat": 0.0, "lat": 38.95152866666667, "bike_id": "91155798089c2ced1879709a8dfe6a17", "fusion_lon": 0.0}, {"rental_uris": {"ios": "https://dc.lft.to/lastmile_qr_scan", "android": "https://dc.lft.to/lastmile_qr_scan"}, "type": "electric_scooter", "name": "38efcad97638d318aec766732a84f7db", "is_reserved": 0, "lon": -77.0413095, "is_disabled": 0, "fusion_lat": 0.0, "lat": 38.91699216666667, "bike_id": "38efcad97638d318aec766732a84f7db", "fusion_lon": 0.0}, {"rental_uris": {"ios": "https://dc.lft.to/lastmile_qr_scan", "android": "https://dc.lft.to/lastmile_qr_scan"}, "type": "electric_scooter", "name": "f2c4fe11b68722937624b7213d63bfd1", "is_reserved": 0, "lon": -77.03852666666667, "is_disabled": 0, "fusion_lat": 0.0, "lat": 38.9166115, "bike_id": "f2c4fe11b68722937624b7213d63bfd1", "fusion_lon": 0.0}, {"rental_uris": {"ios": "https://dc.lft.to/lastmile_qr_scan", "android": "https://dc.lft.to/lastmile_qr_scan"}, "type": "electric_scooter", "name": "7bc91d5c0e5c35b97a16fa7fd8078984", "is_reserved": 0, "lon": -77.042293, "is_disabled": 0, "fusion_lat": 0.0, "lat": 38.92286083333333, "bike_id": "7bc91d5c0e5c35b97a16fa7fd8078984", "fusion_lon": 0.0}, {"rental_uris": {"ios": "https://dc.lft.to/lastmile_qr_scan", "android": "https://dc.lft.to/lastmile_qr_scan"}, "type": "electric_scooter", "name": "18b660cfa364f3279a50d5d41aff8cd4", "is_reserved": 0, "lon": -77.03886833333334, "is_disabled": 0, "fusion_lat": 0.0, "lat": 38.93216966666667, "bike_id": "18b660cfa364f3279a50d5d41aff8cd4", "fusion_lon": 0.0}, {"rental_uris": {"ios": "https://dc.lft.to/lastmile_qr_scan", "android": "https://dc.lft.to/lastmile_qr_scan"}, "type": "electric_scooter", "name": "88f22d9f31692e8e6e85de91df76677c", "is_reserved": 0, "lon": -77.02109016666667, "is_disabled": 0, "fusion_lat": 0.0, "lat": 38.9093735, "bike_id": "88f22d9f31692e8e6e85de91df76677c", "fusion_lon": 0.0}, {"rental_uris": {"ios": "https://dc.lft.to/lastmile_qr_scan", "android": "https://dc.lft.to/lastmile_qr_scan"}, "type": "electric_scooter", "name": "54cf25b1808fdd7ba6275038c869383f", "is_reserved": 0, "lon": -77.0242795, "is_disabled": 0, "fusion_lat": 0.0, "lat": 38.915561833333335, "bike_id": "54cf25b1808fdd7ba6275038c869383f", "fusion_lon": 0.0}, {"rental_uris": {"ios": "https://dc.lft.to/lastmile_qr_scan", "android": "https://dc.lft.to/lastmile_qr_scan"}, "type": "electric_scooter", "name": "7c04a917fe18e7d7aa9adc94a159a546", "is_reserved": 0, "lon": -77.05124116666667, "is_disabled": 0, "fusion_lat": 0.0, "lat": 38.923489000000004, "bike_id": "7c04a917fe18e7d7aa9adc94a159a546", "fusion_lon": 0.0}, {"rental_uris": {"ios": "https://dc.lft.to/lastmile_qr_scan", "android": "https://dc.lft.to/lastmile_qr_scan"}, "type": "electric_scooter", "name": "afb24748e2131dd9bea9e159c387f736", "is_reserved": 0, "lon": -77.02712333333334, "is_disabled": 0, "fusion_lat": 0.0, "lat": 38.90245633333333, "bike_id": "afb24748e2131dd9bea9e159c387f736", "fusion_lon": 0.0}, {"rental_uris": {"ios": "https://dc.lft.to/lastmile_qr_scan", "android": "https://dc.lft.to/lastmile_qr_scan"}, "type": "electric_bike", "name": "5ffbaf35a26b57523f5311a998f3eb13", "is_reserved": 0, "lon": -77.00152833333334, "is_disabled": 0, "fusion_lat": 0.0, "lat": 38.94163433333333, "bike_id": "5ffbaf35a26b57523f5311a998f3eb13", "fusion_lon": 0.0}, {"rental_uris": {"ios": "https://dc.lft.to/lastmile_qr_scan", "android": "https://dc.lft.to/lastmile_qr_scan"}, "type": "electric_scooter", "name": "a900db323b2120788fdbefc5de34dfc0", "is_reserved": 0, "lon": -76.926321, "is_disabled": 0, "fusion_lat": 0.0, "lat": 38.9019425, "bike_id": "a900db323b2120788fdbefc5de34dfc0", "fusion_lon": 0.0}, {"rental_uris": {"ios": "https://dc.lft.to/lastmile_qr_scan", "android": "https://dc.lft.to/lastmile_qr_scan"}, "type": "electric_scooter", "name": "2e3e100831038c54b5e84427a2018978", "is_reserved": 0, "lon": -76.98337983333333, "is_disabled": 0, "fusion_lat": 0.0, "lat": 38.900846, "bike_id": "2e3e100831038c54b5e84427a2018978", "fusion_lon": 0.0}, {"rental_uris": {"ios": "https://dc.lft.to/lastmile_qr_scan", "android": "https://dc.lft.to/lastmile_qr_scan"}, "type": "electric_scooter", "name": "af67c1693bd43677a62f9e35964185d4", "is_reserved": 0, "lon": -77.03396966666666, "is_disabled": 0, "fusion_lat": 0.0, "lat": 38.899701, "bike_id": "af67c1693bd43677a62f9e35964185d4", "fusion_lon": 0.0}, {"rental_uris": {"ios": "https://dc.lft.to/lastmile_qr_scan", "android": "https://dc.lft.to/lastmile_qr_scan"}, "type": "electric_scooter", "name": "157a4c67dc642d178d1b1b74e5cc3c57", "is_reserved": 0, "lon": -77.02332016666666, "is_disabled": 0, "fusion_lat": 0.0, "lat": 38.929397333333334, "bike_id": "157a4c67dc642d178d1b1b74e5cc3c57", "fusion_lon": 0.0}, {"rental_uris": {"ios": "https://dc.lft.to/lastmile_qr_scan", "android": "https://dc.lft.to/lastmile_qr_scan"}, "type": "electric_scooter", "name": "cd0219ed810d43f5d5083557669c29c4", "is_reserved": 0, "lon": -77.0331915, "is_disabled": 0, "fusion_lat": 0.0, "lat": 38.917115333333335, "bike_id": "cd0219ed810d43f5d5083557669c29c4", "fusion_lon": 0.0}, {"rental_uris": {"ios": "https://dc.lft.to/lastmile_qr_scan", "android": "https://dc.lft.to/lastmile_qr_scan"}, "type": "electric_scooter", "name": "2fe62f94fdaf7c668473134d6c55ebf8", "is_reserved": 0, "lon": -77.043812, "is_disabled": 0, "fusion_lat": 0.0, "lat": 38.93421816666667, "bike_id": "2fe62f94fdaf7c668473134d6c55ebf8", "fusion_lon": 0.0}, {"rental_uris": {"ios": "https://dc.lft.to/lastmile_qr_scan", "android": "https://dc.lft.to/lastmile_qr_scan"}, "type": "electric_scooter", "name": "cdcac81cb9a583fc70dca05e2ee602f4", "is_reserved": 0, "lon": -77.031626, "is_disabled": 0, "fusion_lat": 0.0, "lat": 38.95928516666667, "bike_id": "cdcac81cb9a583fc70dca05e2ee602f4", "fusion_lon": 0.0}, {"rental_uris": {"ios": "https://dc.lft.to/lastmile_qr_scan", "android": "https://dc.lft.to/lastmile_qr_scan"}, "type": "electric_scooter", "name": "fdd650b6816304d30522227179c3b7f6", "is_reserved": 0, "lon": -77.03349683333333, "is_disabled": 0, "fusion_lat": 0.0, "lat": 38.8953, "bike_id": "fdd650b6816304d30522227179c3b7f6", "fusion_lon": 0.0}, {"rental_uris": {"ios": "https://dc.lft.to/lastmile_qr_scan", "android": "https://dc.lft.to/lastmile_qr_scan"}, "type": "electric_bike", "name": "70992927290dc53226ca6f09654050ee", "is_reserved": 0, "lon": -77.00781683333334, "is_disabled": 0, "fusion_lat": 0.0, "lat": 38.98121716666667, "bike_id": "70992927290dc53226ca6f09654050ee", "fusion_lon": 0.0}, {"rental_uris": {"ios": "https://dc.lft.to/lastmile_qr_scan", "android": "https://dc.lft.to/lastmile_qr_scan"}, "type": "electric_scooter", "name": "2d774dcae9ac414218c11273ec05ca96", "is_reserved": 0, "lon": -76.990714, "is_disabled": 0, "fusion_lat": 0.0, "lat": 38.90418583333334, "bike_id": "2d774dcae9ac414218c11273ec05ca96", "fusion_lon": 0.0}, {"rental_uris": {"ios": "https://dc.lft.to/lastmile_qr_scan", "android": "https://dc.lft.to/lastmile_qr_scan"}, "type": "electric_scooter", "name": "7ae10296553d3a56602d0a832767f25f", "is_reserved": 0, "lon": -77.0154585, "is_disabled": 0, "fusion_lat": 0.0, "lat": 38.902577, "bike_id": "7ae10296553d3a56602d0a832767f25f", "fusion_lon": 0.0}, {"rental_uris": {"ios": "https://dc.lft.to/lastmile_qr_scan", "android": "https://dc.lft.to/lastmile_qr_scan"}, "type": "electric_scooter", "name": "431de8aec6fef79a6b5400b1894d103c", "is_reserved": 0, "lon": -77.012374, "is_disabled": 0, "fusion_lat": 0.0, "lat": 38.915788166666665, "bike_id": "431de8aec6fef79a6b5400b1894d103c", "fusion_lon": 0.0}, {"rental_uris": {"ios": "https://dc.lft.to/lastmile_qr_scan", "android": "https://dc.lft.to/lastmile_qr_scan"}, "type": "electric_scooter", "name": "d1c29aedecdb3393ed82e0d1fb44e35c", "is_reserved": 0, "lon": -77.0499255, "is_disabled": 0, "fusion_lat": 0.0, "lat": 38.907930666666665, "bike_id": "d1c29aedecdb3393ed82e0d1fb44e35c", "fusion_lon": 0.0}, {"rental_uris": {"ios": "https://dc.lft.to/lastmile_qr_scan", "android": "https://dc.lft.to/lastmile_qr_scan"}, "type": "electric_scooter", "name": "e638af3147ef0c6346ab532a55e66d29", "is_reserved": 0, "lon": -77.03658683333333, "is_disabled": 0, "fusion_lat": 0.0, "lat": 38.923853333333334, "bike_id": "e638af3147ef0c6346ab532a55e66d29", "fusion_lon": 0.0}, {"rental_uris": {"ios": "https://dc.lft.to/lastmile_qr_scan", "android": "https://dc.lft.to/lastmile_qr_scan"}, "type": "electric_scooter", "name": "f283f46bb8c80a457cd93b5b8b7c997f", "is_reserved": 0, "lon": -77.037677, "is_disabled": 0, "fusion_lat": 0.0, "lat": 38.9257575, "bike_id": "f283f46bb8c80a457cd93b5b8b7c997f", "fusion_lon": 0.0}, {"rental_uris": {"ios": "https://dc.lft.to/lastmile_qr_scan", "android": "https://dc.lft.to/lastmile_qr_scan"}, "type": "electric_scooter", "name": "e1a78e3265d6403b50eb702dcd06120f", "is_reserved": 0, "lon": -77.01807533333333, "is_disabled": 0, "fusion_lat": 0.0, "lat": 38.92136716666667, "bike_id": "e1a78e3265d6403b50eb702dcd06120f", "fusion_lon": 0.0}, {"rental_uris": {"ios": "https://dc.lft.to/lastmile_qr_scan", "android": "https://dc.lft.to/lastmile_qr_scan"}, "type": "electric_scooter", "name": "07312d2ba214d97f967c5e3b98d9bf0c", "is_reserved": 0, "lon": -77.03658433333334, "is_disabled": 0, "fusion_lat": 0.0, "lat": 38.922862, "bike_id": "07312d2ba214d97f967c5e3b98d9bf0c", "fusion_lon": 0.0}, {"rental_uris": {"ios": "https://dc.lft.to/lastmile_qr_scan", "android": "https://dc.lft.to/lastmile_qr_scan"}, "type": "electric_scooter", "name": "5e097138ce987559c55aa23fd8b6496d", "is_reserved": 0, "lon": -76.990058, "is_disabled": 0, "fusion_lat": 0.0, "lat": 38.903978333333335, "bike_id": "5e097138ce987559c55aa23fd8b6496d", "fusion_lon": 0.0}, {"rental_uris": {"ios": "https://dc.lft.to/lastmile_qr_scan", "android": "https://dc.lft.to/lastmile_qr_scan"}, "type": "electric_scooter", "name": "0d75681f06567e711adce12ffa3f276d", "is_reserved": 0, "lon": -77.00068716666667, "is_disabled": 0, "fusion_lat": 0.0, "lat": 38.876881166666664, "bike_id": "0d75681f06567e711adce12ffa3f276d", "fusion_lon": 0.0}, {"rental_uris": {"ios": "https://dc.lft.to/lastmile_qr_scan", "android": "https://dc.lft.to/lastmile_qr_scan"}, "type": "electric_bike", "name": "9131c69c122104ea668627894b18684c", "is_reserved": 0, "lon": -77.07247433333333, "is_disabled": 0, "fusion_lat": 0.0, "lat": 38.81362433333334, "bike_id": "9131c69c122104ea668627894b18684c", "fusion_lon": 0.0}, {"rental_uris": {"ios": "https://dc.lft.to/lastmile_qr_scan", "android": "https://dc.lft.to/lastmile_qr_scan"}, "type": "electric_scooter", "name": "5d9ede71f618811038f936a3c72322d1", "is_reserved": 0, "lon": -76.94320833333333, "is_disabled": 0, "fusion_lat": 0.0, "lat": 38.87919016666667, "bike_id": "5d9ede71f618811038f936a3c72322d1", "fusion_lon": 0.0}, {"rental_uris": {"ios": "https://dc.lft.to/lastmile_qr_scan", "android": "https://dc.lft.to/lastmile_qr_scan"}, "type": "electric_scooter", "name": "10d1c3e9bb8df058a52c5138da70f510", "is_reserved": 0, "lon": -77.023598, "is_disabled": 0, "fusion_lat": 0.0, "lat": 38.932878333333335, "bike_id": "10d1c3e9bb8df058a52c5138da70f510", "fusion_lon": 0.0}, {"rental_uris": {"ios": "https://dc.lft.to/lastmile_qr_scan", "android": "https://dc.lft.to/lastmile_qr_scan"}, "type": "electric_scooter", "name": "7d095b9859b7ed4c23a3acd92629de1a", "is_reserved": 0, "lon": -77.05355583333333, "is_disabled": 0, "fusion_lat": 0.0, "lat": 38.8988205, "bike_id": "7d095b9859b7ed4c23a3acd92629de1a", "fusion_lon": 0.0}, {"rental_uris": {"ios": "https://dc.lft.to/lastmile_qr_scan", "android": "https://dc.lft.to/lastmile_qr_scan"}, "type": "electric_scooter", "name": "7d152be100fa2bb62c8c0acc7dc0ef4d", "is_reserved": 0, "lon": -77.03506283333333, "is_disabled": 0, "fusion_lat": 0.0, "lat": 38.9188015, "bike_id": "7d152be100fa2bb62c8c0acc7dc0ef4d", "fusion_lon": 0.0}, {"rental_uris": {"ios": "https://dc.lft.to/lastmile_qr_scan", "android": "https://dc.lft.to/lastmile_qr_scan"}, "type": "electric_scooter", "name": "b25a5372bf5e0f4da815d0655ad62f47", "is_reserved": 0, "lon": -77.04257933333334, "is_disabled": 0, "fusion_lat": 0.0, "lat": 38.922153333333334, "bike_id": "b25a5372bf5e0f4da815d0655ad62f47", "fusion_lon": 0.0}, {"rental_uris": {"ios": "https://dc.lft.to/lastmile_qr_scan", "android": "https://dc.lft.to/lastmile_qr_scan"}, "type": "electric_scooter", "name": "ed20410d7ee5d2cc6cad31f0581afbac", "is_reserved": 0, "lon": -77.00728133333334, "is_disabled": 0, "fusion_lat": 0.0, "lat": 38.905865, "bike_id": "ed20410d7ee5d2cc6cad31f0581afbac", "fusion_lon": 0.0}, {"rental_uris": {"ios": "https://dc.lft.to/lastmile_qr_scan", "android": "https://dc.lft.to/lastmile_qr_scan"}, "type": "electric_scooter", "name": "2e3bf8707ffab68dd9afa537ac4f63a0", "is_reserved": 0, "lon": -77.0150795, "is_disabled": 0, "fusion_lat": 0.0, "lat": 38.9014645, "bike_id": "2e3bf8707ffab68dd9afa537ac4f63a0", "fusion_lon": 0.0}, {"rental_uris": {"ios": "https://dc.lft.to/lastmile_qr_scan", "android": "https://dc.lft.to/lastmile_qr_scan"}, "type": "electric_scooter", "name": "d25c7c4be2df5d46a050731f4e973330", "is_reserved": 0, "lon": -77.04405983333334, "is_disabled": 0, "fusion_lat": 0.0, "lat": 38.925841, "bike_id": "d25c7c4be2df5d46a050731f4e973330", "fusion_lon": 0.0}, {"rental_uris": {"ios": "https://dc.lft.to/lastmile_qr_scan", "android": "https://dc.lft.to/lastmile_qr_scan"}, "type": "electric_scooter", "name": "c290534ddab3e2fc9f8f899a4a6bffe2", "is_reserved": 0, "lon": -77.01921483333334, "is_disabled": 0, "fusion_lat": 0.0, "lat": 38.902370166666664, "bike_id": "c290534ddab3e2fc9f8f899a4a6bffe2", "fusion_lon": 0.0}, {"rental_uris": {"ios": "https://dc.lft.to/lastmile_qr_scan", "android": "https://dc.lft.to/lastmile_qr_scan"}, "type": "electric_scooter", "name": "4211e17a3c86d803a1faf5236113584a", "is_reserved": 0, "lon": -77.016016, "is_disabled": 0, "fusion_lat": 0.0, "lat": 38.90025333333333, "bike_id": "4211e17a3c86d803a1faf5236113584a", "fusion_lon": 0.0}, {"rental_uris": {"ios": "https://dc.lft.to/lastmile_qr_scan", "android": "https://dc.lft.to/lastmile_qr_scan"}, "type": "electric_scooter", "name": "099d781df81996486cb7a389783d4057", "is_reserved": 0, "lon": -77.04916183333333, "is_disabled": 0, "fusion_lat": 0.0, "lat": 38.910404166666666, "bike_id": "099d781df81996486cb7a389783d4057", "fusion_lon": 0.0}, {"rental_uris": {"ios": "https://dc.lft.to/lastmile_qr_scan", "android": "https://dc.lft.to/lastmile_qr_scan"}, "type": "electric_scooter", "name": "b9cb74306e03a7a3e0b6d00eadb4d516", "is_reserved": 0, "lon": -77.0349305, "is_disabled": 0, "fusion_lat": 0.0, "lat": 38.9042595, "bike_id": "b9cb74306e03a7a3e0b6d00eadb4d516", "fusion_lon": 0.0}, {"rental_uris": {"ios": "https://dc.lft.to/lastmile_qr_scan", "android": "https://dc.lft.to/lastmile_qr_scan"}, "type": "electric_scooter", "name": "dcccb17214a47370b1c2142a8c3cf673", "is_reserved": 0, "lon": -77.03253816666667, "is_disabled": 0, "fusion_lat": 0.0, "lat": 38.907205833333336, "bike_id": "dcccb17214a47370b1c2142a8c3cf673", "fusion_lon": 0.0}, {"rental_uris": {"ios": "https://dc.lft.to/lastmile_qr_scan", "android": "https://dc.lft.to/lastmile_qr_scan"}, "type": "electric_scooter", "name": "1e810dca6e81923a9c84fffb7dd9054e", "is_reserved": 0, "lon": -77.009555, "is_disabled": 0, "fusion_lat": 0.0, "lat": 38.92135666666667, "bike_id": "1e810dca6e81923a9c84fffb7dd9054e", "fusion_lon": 0.0}, {"rental_uris": {"ios": "https://dc.lft.to/lastmile_qr_scan", "android": "https://dc.lft.to/lastmile_qr_scan"}, "type": "electric_scooter", "name": "08ac088ff63e261a53a7ef1a96257775", "is_reserved": 0, "lon": -77.04079433333334, "is_disabled": 0, "fusion_lat": 0.0, "lat": 38.920246, "bike_id": "08ac088ff63e261a53a7ef1a96257775", "fusion_lon": 0.0}, {"rental_uris": {"ios": "https://dc.lft.to/lastmile_qr_scan", "android": "https://dc.lft.to/lastmile_qr_scan"}, "type": "electric_scooter", "name": "ddd07de5316265e1345d21a5f43bb740", "is_reserved": 0, "lon": -77.02892183333333, "is_disabled": 0, "fusion_lat": 0.0, "lat": 38.917125166666665, "bike_id": "ddd07de5316265e1345d21a5f43bb740", "fusion_lon": 0.0}, {"rental_uris": {"ios": "https://dc.lft.to/lastmile_qr_scan", "android": "https://dc.lft.to/lastmile_qr_scan"}, "type": "electric_scooter", "name": "9fb0d18efb09bf83693de3882280d8ab", "is_reserved": 0, "lon": -77.04130183333334, "is_disabled": 0, "fusion_lat": 0.0, "lat": 38.925321333333336, "bike_id": "9fb0d18efb09bf83693de3882280d8ab", "fusion_lon": 0.0}, {"rental_uris": {"ios": "https://dc.lft.to/lastmile_qr_scan", "android": "https://dc.lft.to/lastmile_qr_scan"}, "type": "electric_scooter", "name": "468184a2c7facdaada62f52935ef9eee", "is_reserved": 0, "lon": -76.9983365, "is_disabled": 0, "fusion_lat": 0.0, "lat": 38.9073425, "bike_id": "468184a2c7facdaada62f52935ef9eee", "fusion_lon": 0.0}, {"rental_uris": {"ios": "https://dc.lft.to/lastmile_qr_scan", "android": "https://dc.lft.to/lastmile_qr_scan"}, "type": "electric_scooter", "name": "2ad71877468055c32ca10cd022e47217", "is_reserved": 0, "lon": -77.05229, "is_disabled": 0, "fusion_lat": 0.0, "lat": 38.92462666666667, "bike_id": "2ad71877468055c32ca10cd022e47217", "fusion_lon": 0.0}, {"rental_uris": {"ios": "https://dc.lft.to/lastmile_qr_scan", "android": "https://dc.lft.to/lastmile_qr_scan"}, "type": "electric_scooter", "name": "b9f2b0bf35ed9198d574178f4082bf34", "is_reserved": 0, "lon": -77.00930933333333, "is_disabled": 0, "fusion_lat": 0.0, "lat": 38.87118183333333, "bike_id": "b9f2b0bf35ed9198d574178f4082bf34", "fusion_lon": 0.0}, {"rental_uris": {"ios": "https://dc.lft.to/lastmile_qr_scan", "android": "https://dc.lft.to/lastmile_qr_scan"}, "type": "electric_scooter", "name": "967c10762e69c20b86165a5a0c79d97f", "is_reserved": 0, "lon": -77.00259033333333, "is_disabled": 0, "fusion_lat": 0.0, "lat": 38.91259216666667, "bike_id": "967c10762e69c20b86165a5a0c79d97f", "fusion_lon": 0.0}, {"rental_uris": {"ios": "https://dc.lft.to/lastmile_qr_scan", "android": "https://dc.lft.to/lastmile_qr_scan"}, "type": "electric_bike", "name": "622c8a57312cf8617e5578693bf59a61", "is_reserved": 0, "lon": -76.9761695, "is_disabled": 0, "fusion_lat": 0.0, "lat": 38.89289766666667, "bike_id": "622c8a57312cf8617e5578693bf59a61", "fusion_lon": 0.0}, {"rental_uris": {"ios": "https://dc.lft.to/lastmile_qr_scan", "android": "https://dc.lft.to/lastmile_qr_scan"}, "type": "electric_scooter", "name": "2bc002533a89e1e1df4274a50a851751", "is_reserved": 0, "lon": -77.032167, "is_disabled": 0, "fusion_lat": 0.0, "lat": 38.9143555, "bike_id": "2bc002533a89e1e1df4274a50a851751", "fusion_lon": 0.0}, {"rental_uris": {"ios": "https://dc.lft.to/lastmile_qr_scan", "android": "https://dc.lft.to/lastmile_qr_scan"}, "type": "electric_scooter", "name": "d93f78c755174938b437a4dbecb82d9b", "is_reserved": 0, "lon": -77.0187955, "is_disabled": 0, "fusion_lat": 0.0, "lat": 38.87707233333333, "bike_id": "d93f78c755174938b437a4dbecb82d9b", "fusion_lon": 0.0}, {"rental_uris": {"ios": "https://dc.lft.to/lastmile_qr_scan", "android": "https://dc.lft.to/lastmile_qr_scan"}, "type": "electric_scooter", "name": "cfb25395338c908b2c74c1f0b3c66cea", "is_reserved": 0, "lon": -77.01914316666667, "is_disabled": 0, "fusion_lat": 0.0, "lat": 38.90566833333333, "bike_id": "cfb25395338c908b2c74c1f0b3c66cea", "fusion_lon": 0.0}, {"rental_uris": {"ios": "https://dc.lft.to/lastmile_qr_scan", "android": "https://dc.lft.to/lastmile_qr_scan"}, "type": "electric_scooter", "name": "9ca0e4f3727d77ac50ae3dafacb0c531", "is_reserved": 0, "lon": -77.04281466666667, "is_disabled": 0, "fusion_lat": 0.0, "lat": 38.92280916666667, "bike_id": "9ca0e4f3727d77ac50ae3dafacb0c531", "fusion_lon": 0.0}, {"rental_uris": {"ios": "https://dc.lft.to/lastmile_qr_scan", "android": "https://dc.lft.to/lastmile_qr_scan"}, "type": "electric_scooter", "name": "85c1ed3d5de8dd2ffbfdeef5a1ebec53", "is_reserved": 0, "lon": -77.03444533333334, "is_disabled": 0, "fusion_lat": 0.0, "lat": 38.91810533333334, "bike_id": "85c1ed3d5de8dd2ffbfdeef5a1ebec53", "fusion_lon": 0.0}, {"rental_uris": {"ios": "https://dc.lft.to/lastmile_qr_scan", "android": "https://dc.lft.to/lastmile_qr_scan"}, "type": "electric_bike", "name": "ffa878d929901209d711b2313b1c57aa", "is_reserved": 0, "lon": -77.22188366666667, "is_disabled": 0, "fusion_lat": 0.0, "lat": 38.871735, "bike_id": "ffa878d929901209d711b2313b1c57aa", "fusion_lon": 0.0}, {"rental_uris": {"ios": "https://dc.lft.to/lastmile_qr_scan", "android": "https://dc.lft.to/lastmile_qr_scan"}, "type": "electric_scooter", "name": "73974e98e4e0d19921d7d4d82f2c5ecf", "is_reserved": 0, "lon": -77.02555166666667, "is_disabled": 0, "fusion_lat": 0.0, "lat": 38.92028166666667, "bike_id": "73974e98e4e0d19921d7d4d82f2c5ecf", "fusion_lon": 0.0}, {"rental_uris": {"ios": "https://dc.lft.to/lastmile_qr_scan", "android": "https://dc.lft.to/lastmile_qr_scan"}, "type": "electric_scooter", "name": "58b14488de31d4f97fcdcb298633a9a8", "is_reserved": 0, "lon": -77.02197266666667, "is_disabled": 0, "fusion_lat": 0.0, "lat": 38.91984633333333, "bike_id": "58b14488de31d4f97fcdcb298633a9a8", "fusion_lon": 0.0}, {"rental_uris": {"ios": "https://dc.lft.to/lastmile_qr_scan", "android": "https://dc.lft.to/lastmile_qr_scan"}, "type": "electric_scooter", "name": "3c5017413cca5cc91601cb41e4e6dbf1", "is_reserved": 0, "lon": -77.05130233333334, "is_disabled": 0, "fusion_lat": 0.0, "lat": 38.8979865, "bike_id": "3c5017413cca5cc91601cb41e4e6dbf1", "fusion_lon": 0.0}, {"rental_uris": {"ios": "https://dc.lft.to/lastmile_qr_scan", "android": "https://dc.lft.to/lastmile_qr_scan"}, "type": "electric_scooter", "name": "a442253ac9faf2ac57445cb5b9492cec", "is_reserved": 0, "lon": -77.03265683333333, "is_disabled": 0, "fusion_lat": 0.0, "lat": 38.9046065, "bike_id": "a442253ac9faf2ac57445cb5b9492cec", "fusion_lon": 0.0}, {"rental_uris": {"ios": "https://dc.lft.to/lastmile_qr_scan", "android": "https://dc.lft.to/lastmile_qr_scan"}, "type": "electric_scooter", "name": "27dacd37befc4c70da708b1912dab0e7", "is_reserved": 0, "lon": -77.02350583333333, "is_disabled": 0, "fusion_lat": 0.0, "lat": 38.94197233333333, "bike_id": "27dacd37befc4c70da708b1912dab0e7", "fusion_lon": 0.0}, {"rental_uris": {"ios": "https://dc.lft.to/lastmile_qr_scan", "android": "https://dc.lft.to/lastmile_qr_scan"}, "type": "electric_scooter", "name": "ccd7596fa68bea3302132a0192dd5a51", "is_reserved": 0, "lon": -77.03665383333333, "is_disabled": 0, "fusion_lat": 0.0, "lat": 38.9235305, "bike_id": "ccd7596fa68bea3302132a0192dd5a51", "fusion_lon": 0.0}, {"rental_uris": {"ios": "https://dc.lft.to/lastmile_qr_scan", "android": "https://dc.lft.to/lastmile_qr_scan"}, "type": "electric_scooter", "name": "7344032feb74ab65207c42e530e3ccbc", "is_reserved": 0, "lon": -77.00982066666667, "is_disabled": 0, "fusion_lat": 0.0, "lat": 38.9056375, "bike_id": "7344032feb74ab65207c42e530e3ccbc", "fusion_lon": 0.0}, {"rental_uris": {"ios": "https://dc.lft.to/lastmile_qr_scan", "android": "https://dc.lft.to/lastmile_qr_scan"}, "type": "electric_scooter", "name": "11ae8f14cbdc8bed1b190a61c514d8ba", "is_reserved": 0, "lon": -76.92897716666667, "is_disabled": 0, "fusion_lat": 0.0, "lat": 38.87942, "bike_id": "11ae8f14cbdc8bed1b190a61c514d8ba", "fusion_lon": 0.0}, {"rental_uris": {"ios": "https://dc.lft.to/lastmile_qr_scan", "android": "https://dc.lft.to/lastmile_qr_scan"}, "type": "electric_scooter", "name": "503e24749ea8c35b51a7210e27309b0a", "is_reserved": 0, "lon": -77.04045433333333, "is_disabled": 0, "fusion_lat": 0.0, "lat": 38.92445516666667, "bike_id": "503e24749ea8c35b51a7210e27309b0a", "fusion_lon": 0.0}, {"rental_uris": {"ios": "https://dc.lft.to/lastmile_qr_scan", "android": "https://dc.lft.to/lastmile_qr_scan"}, "type": "electric_scooter", "name": "76d3d114eec09d488bf831d70802681f", "is_reserved": 0, "lon": -77.00573983333334, "is_disabled": 0, "fusion_lat": 0.0, "lat": 38.9066855, "bike_id": "76d3d114eec09d488bf831d70802681f", "fusion_lon": 0.0}, {"rental_uris": {"ios": "https://dc.lft.to/lastmile_qr_scan", "android": "https://dc.lft.to/lastmile_qr_scan"}, "type": "electric_scooter", "name": "da899e4b43ee9d3589c46c95b0d79298", "is_reserved": 0, "lon": -77.024518, "is_disabled": 0, "fusion_lat": 0.0, "lat": 38.91412233333333, "bike_id": "da899e4b43ee9d3589c46c95b0d79298", "fusion_lon": 0.0}, {"rental_uris": {"ios": "https://dc.lft.to/lastmile_qr_scan", "android": "https://dc.lft.to/lastmile_qr_scan"}, "type": "electric_scooter", "name": "9a546c5da7c31ab32550511d7581707a", "is_reserved": 0, "lon": -77.0004545, "is_disabled": 0, "fusion_lat": 0.0, "lat": 38.9001835, "bike_id": "9a546c5da7c31ab32550511d7581707a", "fusion_lon": 0.0}, {"rental_uris": {"ios": "https://dc.lft.to/lastmile_qr_scan", "android": "https://dc.lft.to/lastmile_qr_scan"}, "type": "electric_scooter", "name": "644a06b9f004506efeeba0105bec16af", "is_reserved": 0, "lon": -76.98497233333333, "is_disabled": 0, "fusion_lat": 0.0, "lat": 38.903586, "bike_id": "644a06b9f004506efeeba0105bec16af", "fusion_lon": 0.0}, {"rental_uris": {"ios": "https://dc.lft.to/lastmile_qr_scan", "android": "https://dc.lft.to/lastmile_qr_scan"}, "type": "electric_scooter", "name": "7dc21a0c4aa4d8d24df9f4bb1db17f5d", "is_reserved": 0, "lon": -77.0186625, "is_disabled": 0, "fusion_lat": 0.0, "lat": 38.93058466666667, "bike_id": "7dc21a0c4aa4d8d24df9f4bb1db17f5d", "fusion_lon": 0.0}, {"rental_uris": {"ios": "https://dc.lft.to/lastmile_qr_scan", "android": "https://dc.lft.to/lastmile_qr_scan"}, "type": "electric_scooter", "name": "a83d9da13290ca656be37485bddac039", "is_reserved": 0, "lon": -77.01756666666667, "is_disabled": 0, "fusion_lat": 0.0, "lat": 38.8768455, "bike_id": "a83d9da13290ca656be37485bddac039", "fusion_lon": 0.0}, {"rental_uris": {"ios": "https://dc.lft.to/lastmile_qr_scan", "android": "https://dc.lft.to/lastmile_qr_scan"}, "type": "electric_scooter", "name": "ada2bc16f594f472ed05ac275cebde5c", "is_reserved": 0, "lon": -77.0533935, "is_disabled": 0, "fusion_lat": 0.0, "lat": 38.90225733333333, "bike_id": "ada2bc16f594f472ed05ac275cebde5c", "fusion_lon": 0.0}, {"rental_uris": {"ios": "https://dc.lft.to/lastmile_qr_scan", "android": "https://dc.lft.to/lastmile_qr_scan"}, "type": "electric_scooter", "name": "0e4a91593e99f75a319710b2072daccd", "is_reserved": 0, "lon": -77.0226685, "is_disabled": 0, "fusion_lat": 0.0, "lat": 38.92409766666667, "bike_id": "0e4a91593e99f75a319710b2072daccd", "fusion_lon": 0.0}, {"rental_uris": {"ios": "https://dc.lft.to/lastmile_qr_scan", "android": "https://dc.lft.to/lastmile_qr_scan"}, "type": "electric_scooter", "name": "b33f67b1723466de0ac7135a4da5f522", "is_reserved": 0, "lon": -77.02788733333334, "is_disabled": 0, "fusion_lat": 0.0, "lat": 38.956089, "bike_id": "b33f67b1723466de0ac7135a4da5f522", "fusion_lon": 0.0}, {"rental_uris": {"ios": "https://dc.lft.to/lastmile_qr_scan", "android": "https://dc.lft.to/lastmile_qr_scan"}, "type": "electric_scooter", "name": "933dd72067005ef519e5b147a6f91d6a", "is_reserved": 0, "lon": -77.00800766666667, "is_disabled": 0, "fusion_lat": 0.0, "lat": 38.87842766666667, "bike_id": "933dd72067005ef519e5b147a6f91d6a", "fusion_lon": 0.0}, {"rental_uris": {"ios": "https://dc.lft.to/lastmile_qr_scan", "android": "https://dc.lft.to/lastmile_qr_scan"}, "type": "electric_scooter", "name": "c2d03e8689b4c390f07566a831dcbd6d", "is_reserved": 0, "lon": -77.03471, "is_disabled": 0, "fusion_lat": 0.0, "lat": 38.911112833333334, "bike_id": "c2d03e8689b4c390f07566a831dcbd6d", "fusion_lon": 0.0}, {"rental_uris": {"ios": "https://dc.lft.to/lastmile_qr_scan", "android": "https://dc.lft.to/lastmile_qr_scan"}, "type": "electric_scooter", "name": "d7ef8b88054a010d99766996edd016e5", "is_reserved": 0, "lon": -76.97043383333333, "is_disabled": 0, "fusion_lat": 0.0, "lat": 38.8732065, "bike_id": "d7ef8b88054a010d99766996edd016e5", "fusion_lon": 0.0}, {"rental_uris": {"ios": "https://dc.lft.to/lastmile_qr_scan", "android": "https://dc.lft.to/lastmile_qr_scan"}, "type": "electric_scooter", "name": "bb32d3b638bdebd2b3166ef4bfe29fa0", "is_reserved": 0, "lon": -77.02723883333333, "is_disabled": 0, "fusion_lat": 0.0, "lat": 38.910098, "bike_id": "bb32d3b638bdebd2b3166ef4bfe29fa0", "fusion_lon": 0.0}, {"rental_uris": {"ios": "https://dc.lft.to/lastmile_qr_scan", "android": "https://dc.lft.to/lastmile_qr_scan"}, "type": "electric_scooter", "name": "d8cbf5c895c2f388d23aee531a04b4d0", "is_reserved": 0, "lon": -77.03847383333333, "is_disabled": 0, "fusion_lat": 0.0, "lat": 38.908783, "bike_id": "d8cbf5c895c2f388d23aee531a04b4d0", "fusion_lon": 0.0}, {"rental_uris": {"ios": "https://dc.lft.to/lastmile_qr_scan", "android": "https://dc.lft.to/lastmile_qr_scan"}, "type": "electric_scooter", "name": "73de35bcda44e30ac7465da06e8a282e", "is_reserved": 0, "lon": -77.00874266666666, "is_disabled": 0, "fusion_lat": 0.0, "lat": 38.915572833333336, "bike_id": "73de35bcda44e30ac7465da06e8a282e", "fusion_lon": 0.0}, {"rental_uris": {"ios": "https://dc.lft.to/lastmile_qr_scan", "android": "https://dc.lft.to/lastmile_qr_scan"}, "type": "electric_scooter", "name": "0a7c4aefa59607b738d4f184b501a3a0", "is_reserved": 0, "lon": -77.0291385, "is_disabled": 0, "fusion_lat": 0.0, "lat": 38.94038166666667, "bike_id": "0a7c4aefa59607b738d4f184b501a3a0", "fusion_lon": 0.0}, {"rental_uris": {"ios": "https://dc.lft.to/lastmile_qr_scan", "android": "https://dc.lft.to/lastmile_qr_scan"}, "type": "electric_scooter", "name": "ba7938bbbe984a232faa3c3c24d1b7bb", "is_reserved": 0, "lon": -77.04152933333333, "is_disabled": 0, "fusion_lat": 0.0, "lat": 38.91930383333333, "bike_id": "ba7938bbbe984a232faa3c3c24d1b7bb", "fusion_lon": 0.0}, {"rental_uris": {"ios": "https://dc.lft.to/lastmile_qr_scan", "android": "https://dc.lft.to/lastmile_qr_scan"}, "type": "electric_scooter", "name": "41071df52beeed5dfc75b4fcb90ef62e", "is_reserved": 0, "lon": -77.035307, "is_disabled": 0, "fusion_lat": 0.0, "lat": 38.92387883333333, "bike_id": "41071df52beeed5dfc75b4fcb90ef62e", "fusion_lon": 0.0}, {"rental_uris": {"ios": "https://dc.lft.to/lastmile_qr_scan", "android": "https://dc.lft.to/lastmile_qr_scan"}, "type": "electric_scooter", "name": "e5e1756c15a3a24927a4720bd13698d3", "is_reserved": 0, "lon": -77.04863416666667, "is_disabled": 0, "fusion_lat": 0.0, "lat": 38.89222916666667, "bike_id": "e5e1756c15a3a24927a4720bd13698d3", "fusion_lon": 0.0}, {"rental_uris": {"ios": "https://dc.lft.to/lastmile_qr_scan", "android": "https://dc.lft.to/lastmile_qr_scan"}, "type": "electric_bike", "name": "e70a7f9b5446754a5010663263cdddc6", "is_reserved": 0, "lon": -77.06695633333334, "is_disabled": 0, "fusion_lat": 0.0, "lat": 38.831698, "bike_id": "e70a7f9b5446754a5010663263cdddc6", "fusion_lon": 0.0}, {"rental_uris": {"ios": "https://dc.lft.to/lastmile_qr_scan", "android": "https://dc.lft.to/lastmile_qr_scan"}, "type": "electric_scooter", "name": "cb0de4d2736515606fa20599e67f988a", "is_reserved": 0, "lon": -77.00940266666667, "is_disabled": 0, "fusion_lat": 0.0, "lat": 38.9126475, "bike_id": "cb0de4d2736515606fa20599e67f988a", "fusion_lon": 0.0}, {"rental_uris": {"ios": "https://dc.lft.to/lastmile_qr_scan", "android": "https://dc.lft.to/lastmile_qr_scan"}, "type": "electric_scooter", "name": "bd241141edc6dc12643023e48a5601c3", "is_reserved": 0, "lon": -77.01211066666667, "is_disabled": 0, "fusion_lat": 0.0, "lat": 38.918231666666664, "bike_id": "bd241141edc6dc12643023e48a5601c3", "fusion_lon": 0.0}, {"rental_uris": {"ios": "https://dc.lft.to/lastmile_qr_scan", "android": "https://dc.lft.to/lastmile_qr_scan"}, "type": "electric_bike", "name": "1e091600428ca6fe6a46539666410c3d", "is_reserved": 0, "lon": -76.97853733333334, "is_disabled": 0, "fusion_lat": 0.0, "lat": 38.983855166666665, "bike_id": "1e091600428ca6fe6a46539666410c3d", "fusion_lon": 0.0}, {"rental_uris": {"ios": "https://dc.lft.to/lastmile_qr_scan", "android": "https://dc.lft.to/lastmile_qr_scan"}, "type": "electric_scooter", "name": "fca4daf124f4868b68bd12aaf05f840e", "is_reserved": 0, "lon": -76.986977, "is_disabled": 0, "fusion_lat": 0.0, "lat": 38.8883855, "bike_id": "fca4daf124f4868b68bd12aaf05f840e", "fusion_lon": 0.0}, {"rental_uris": {"ios": "https://dc.lft.to/lastmile_qr_scan", "android": "https://dc.lft.to/lastmile_qr_scan"}, "type": "electric_bike", "name": "86be82e88f25d727b8dce0cddbf5649a", "is_reserved": 0, "lon": -77.08877, "is_disabled": 0, "fusion_lat": 0.0, "lat": 38.938828666666666, "bike_id": "86be82e88f25d727b8dce0cddbf5649a", "fusion_lon": 0.0}, {"rental_uris": {"ios": "https://dc.lft.to/lastmile_qr_scan", "android": "https://dc.lft.to/lastmile_qr_scan"}, "type": "electric_scooter", "name": "ebe0fa3a7deacbb895b9a0a662b8d09c", "is_reserved": 0, "lon": -77.01842216666667, "is_disabled": 0, "fusion_lat": 0.0, "lat": 38.949927833333334, "bike_id": "ebe0fa3a7deacbb895b9a0a662b8d09c", "fusion_lon": 0.0}, {"rental_uris": {"ios": "https://dc.lft.to/lastmile_qr_scan", "android": "https://dc.lft.to/lastmile_qr_scan"}, "type": "electric_scooter", "name": "89536dc77f098da2a6a4faa7b34fb5a1", "is_reserved": 0, "lon": -77.00571433333333, "is_disabled": 0, "fusion_lat": 0.0, "lat": 38.8745785, "bike_id": "89536dc77f098da2a6a4faa7b34fb5a1", "fusion_lon": 0.0}, {"rental_uris": {"ios": "https://dc.lft.to/lastmile_qr_scan", "android": "https://dc.lft.to/lastmile_qr_scan"}, "type": "electric_bike", "name": "eed16511f0b9decc6631442a1933c300", "is_reserved": 0, "lon": -77.099542, "is_disabled": 0, "fusion_lat": 0.0, "lat": 38.85791966666667, "bike_id": "eed16511f0b9decc6631442a1933c300", "fusion_lon": 0.0}, {"rental_uris": {"ios": "https://dc.lft.to/lastmile_qr_scan", "android": "https://dc.lft.to/lastmile_qr_scan"}, "type": "electric_scooter", "name": "7c1454828d91f6951c6dc2fd6538b7e7", "is_reserved": 0, "lon": -76.97939883333333, "is_disabled": 0, "fusion_lat": 0.0, "lat": 38.916013666666665, "bike_id": "7c1454828d91f6951c6dc2fd6538b7e7", "fusion_lon": 0.0}, {"rental_uris": {"ios": "https://dc.lft.to/lastmile_qr_scan", "android": "https://dc.lft.to/lastmile_qr_scan"}, "type": "electric_scooter", "name": "a3e77aa1704e63a4a3c69cde8633f15f", "is_reserved": 0, "lon": -77.01655283333334, "is_disabled": 0, "fusion_lat": 0.0, "lat": 38.91334166666667, "bike_id": "a3e77aa1704e63a4a3c69cde8633f15f", "fusion_lon": 0.0}, {"rental_uris": {"ios": "https://dc.lft.to/lastmile_qr_scan", "android": "https://dc.lft.to/lastmile_qr_scan"}, "type": "electric_scooter", "name": "5ffd0089e6ebcf825a4c20d2ac5d6c04", "is_reserved": 0, "lon": -77.01342533333333, "is_disabled": 0, "fusion_lat": 0.0, "lat": 38.919126166666665, "bike_id": "5ffd0089e6ebcf825a4c20d2ac5d6c04", "fusion_lon": 0.0}, {"rental_uris": {"ios": "https://dc.lft.to/lastmile_qr_scan", "android": "https://dc.lft.to/lastmile_qr_scan"}, "type": "electric_scooter", "name": "93c5128eeeaac69d2f9dc71518053502", "is_reserved": 0, "lon": -76.99734383333333, "is_disabled": 0, "fusion_lat": 0.0, "lat": 38.92038016666667, "bike_id": "93c5128eeeaac69d2f9dc71518053502", "fusion_lon": 0.0}, {"rental_uris": {"ios": "https://dc.lft.to/lastmile_qr_scan", "android": "https://dc.lft.to/lastmile_qr_scan"}, "type": "electric_scooter", "name": "f2e3d56cbff97ed598f257b5c61f736c", "is_reserved": 0, "lon": -77.0407235, "is_disabled": 0, "fusion_lat": 0.0, "lat": 38.915933833333334, "bike_id": "f2e3d56cbff97ed598f257b5c61f736c", "fusion_lon": 0.0}, {"rental_uris": {"ios": "https://dc.lft.to/lastmile_qr_scan", "android": "https://dc.lft.to/lastmile_qr_scan"}, "type": "electric_bike", "name": "be6b7143c1e7f4cc05193f44f1f239a6", "is_reserved": 0, "lon": -77.0836865, "is_disabled": 0, "fusion_lat": 0.0, "lat": 38.854149666666665, "bike_id": "be6b7143c1e7f4cc05193f44f1f239a6", "fusion_lon": 0.0}, {"rental_uris": {"ios": "https://dc.lft.to/lastmile_qr_scan", "android": "https://dc.lft.to/lastmile_qr_scan"}, "type": "electric_scooter", "name": "e7ac6b59017a30db1de00b4d8f8d1d6b", "is_reserved": 0, "lon": -76.96543716666666, "is_disabled": 0, "fusion_lat": 0.0, "lat": 38.878857333333336, "bike_id": "e7ac6b59017a30db1de00b4d8f8d1d6b", "fusion_lon": 0.0}, {"rental_uris": {"ios": "https://dc.lft.to/lastmile_qr_scan", "android": "https://dc.lft.to/lastmile_qr_scan"}, "type": "electric_scooter", "name": "bc39e24c866ba8a82550be3cfb4acaf2", "is_reserved": 0, "lon": -77.023787, "is_disabled": 0, "fusion_lat": 0.0, "lat": 38.91557666666667, "bike_id": "bc39e24c866ba8a82550be3cfb4acaf2", "fusion_lon": 0.0}, {"rental_uris": {"ios": "https://dc.lft.to/lastmile_qr_scan", "android": "https://dc.lft.to/lastmile_qr_scan"}, "type": "electric_bike", "name": "a5a58fa890cb9604a0d65612dca4ed6b", "is_reserved": 0, "lon": -76.97704866666666, "is_disabled": 0, "fusion_lat": 0.0, "lat": 38.822067, "bike_id": "a5a58fa890cb9604a0d65612dca4ed6b", "fusion_lon": 0.0}, {"rental_uris": {"ios": "https://dc.lft.to/lastmile_qr_scan", "android": "https://dc.lft.to/lastmile_qr_scan"}, "type": "electric_scooter", "name": "f672441d598359cdf1f98693d526efe5", "is_reserved": 0, "lon": -77.022718, "is_disabled": 0, "fusion_lat": 0.0, "lat": 38.898587, "bike_id": "f672441d598359cdf1f98693d526efe5", "fusion_lon": 0.0}, {"rental_uris": {"ios": "https://dc.lft.to/lastmile_qr_scan", "android": "https://dc.lft.to/lastmile_qr_scan"}, "type": "electric_scooter", "name": "0dc393d064412846ab70761c925a851a", "is_reserved": 0, "lon": -77.03431016666667, "is_disabled": 0, "fusion_lat": 0.0, "lat": 38.91185933333333, "bike_id": "0dc393d064412846ab70761c925a851a", "fusion_lon": 0.0}, {"rental_uris": {"ios": "https://dc.lft.to/lastmile_qr_scan", "android": "https://dc.lft.to/lastmile_qr_scan"}, "type": "electric_scooter", "name": "6e8f2c2791e953f7c88f799539990bb1", "is_reserved": 0, "lon": -77.0233065, "is_disabled": 0, "fusion_lat": 0.0, "lat": 38.9305145, "bike_id": "6e8f2c2791e953f7c88f799539990bb1", "fusion_lon": 0.0}, {"rental_uris": {"ios": "https://dc.lft.to/lastmile_qr_scan", "android": "https://dc.lft.to/lastmile_qr_scan"}, "type": "electric_scooter", "name": "3603953c401c33fecb9a267750056f91", "is_reserved": 0, "lon": -77.03471216666667, "is_disabled": 0, "fusion_lat": 0.0, "lat": 38.92542683333333, "bike_id": "3603953c401c33fecb9a267750056f91", "fusion_lon": 0.0}, {"rental_uris": {"ios": "https://dc.lft.to/lastmile_qr_scan", "android": "https://dc.lft.to/lastmile_qr_scan"}, "type": "electric_scooter", "name": "7de9ff04031e10c7e1ea32c3b8294b24", "is_reserved": 0, "lon": -77.02645633333333, "is_disabled": 0, "fusion_lat": 0.0, "lat": 38.919145, "bike_id": "7de9ff04031e10c7e1ea32c3b8294b24", "fusion_lon": 0.0}, {"rental_uris": {"ios": "https://dc.lft.to/lastmile_qr_scan", "android": "https://dc.lft.to/lastmile_qr_scan"}, "type": "electric_scooter", "name": "53f8552d212e3b4371343afaec917472", "is_reserved": 0, "lon": -77.0170125, "is_disabled": 0, "fusion_lat": 0.0, "lat": 38.9138315, "bike_id": "53f8552d212e3b4371343afaec917472", "fusion_lon": 0.0}, {"rental_uris": {"ios": "https://dc.lft.to/lastmile_qr_scan", "android": "https://dc.lft.to/lastmile_qr_scan"}, "type": "electric_scooter", "name": "a5153191e34ba6032e28a2933adf5ed8", "is_reserved": 0, "lon": -76.990352, "is_disabled": 0, "fusion_lat": 0.0, "lat": 38.8887835, "bike_id": "a5153191e34ba6032e28a2933adf5ed8", "fusion_lon": 0.0}, {"rental_uris": {"ios": "https://dc.lft.to/lastmile_qr_scan", "android": "https://dc.lft.to/lastmile_qr_scan"}, "type": "electric_bike", "name": "455ec7131eaffa2e6f035ed6f2c3c3ec", "is_reserved": 0, "lon": -76.91724416666666, "is_disabled": 0, "fusion_lat": 0.0, "lat": 38.8802805, "bike_id": "455ec7131eaffa2e6f035ed6f2c3c3ec", "fusion_lon": 0.0}, {"rental_uris": {"ios": "https://dc.lft.to/lastmile_qr_scan", "android": "https://dc.lft.to/lastmile_qr_scan"}, "type": "electric_scooter", "name": "35410f42af2d34ec309588f4b710e495", "is_reserved": 0, "lon": -77.0470285, "is_disabled": 0, "fusion_lat": 0.0, "lat": 38.92063483333333, "bike_id": "35410f42af2d34ec309588f4b710e495", "fusion_lon": 0.0}, {"rental_uris": {"ios": "https://dc.lft.to/lastmile_qr_scan", "android": "https://dc.lft.to/lastmile_qr_scan"}, "type": "electric_scooter", "name": "6e7484bc9c9e06af551d15b93216b4c5", "is_reserved": 0, "lon": -77.04227916666666, "is_disabled": 0, "fusion_lat": 0.0, "lat": 38.92289383333333, "bike_id": "6e7484bc9c9e06af551d15b93216b4c5", "fusion_lon": 0.0}, {"rental_uris": {"ios": "https://dc.lft.to/lastmile_qr_scan", "android": "https://dc.lft.to/lastmile_qr_scan"}, "type": "electric_scooter", "name": "844c57a775455f9c8cdc39f10b30416d", "is_reserved": 0, "lon": -77.02226683333333, "is_disabled": 0, "fusion_lat": 0.0, "lat": 38.891981, "bike_id": "844c57a775455f9c8cdc39f10b30416d", "fusion_lon": 0.0}, {"rental_uris": {"ios": "https://dc.lft.to/lastmile_qr_scan", "android": "https://dc.lft.to/lastmile_qr_scan"}, "type": "electric_scooter", "name": "43d3e4b5b5c7c5183fcff87df2311f69", "is_reserved": 0, "lon": -77.03485483333333, "is_disabled": 0, "fusion_lat": 0.0, "lat": 38.93534, "bike_id": "43d3e4b5b5c7c5183fcff87df2311f69", "fusion_lon": 0.0}, {"rental_uris": {"ios": "https://dc.lft.to/lastmile_qr_scan", "android": "https://dc.lft.to/lastmile_qr_scan"}, "type": "electric_scooter", "name": "c7f60b0a59f13e9504af5e5148925ab6", "is_reserved": 0, "lon": -77.01184183333334, "is_disabled": 0, "fusion_lat": 0.0, "lat": 38.951569, "bike_id": "c7f60b0a59f13e9504af5e5148925ab6", "fusion_lon": 0.0}, {"rental_uris": {"ios": "https://dc.lft.to/lastmile_qr_scan", "android": "https://dc.lft.to/lastmile_qr_scan"}, "type": "electric_bike", "name": "ec756102fe1f50fbbc6ce1987b3619ed", "is_reserved": 0, "lon": -76.95155816666667, "is_disabled": 0, "fusion_lat": 0.0, "lat": 39.084388833333335, "bike_id": "ec756102fe1f50fbbc6ce1987b3619ed", "fusion_lon": 0.0}, {"rental_uris": {"ios": "https://dc.lft.to/lastmile_qr_scan", "android": "https://dc.lft.to/lastmile_qr_scan"}, "type": "electric_scooter", "name": "a378f7dd49be2e43045da3855e743889", "is_reserved": 0, "lon": -77.03272116666666, "is_disabled": 0, "fusion_lat": 0.0, "lat": 38.932502, "bike_id": "a378f7dd49be2e43045da3855e743889", "fusion_lon": 0.0}, {"rental_uris": {"ios": "https://dc.lft.to/lastmile_qr_scan", "android": "https://dc.lft.to/lastmile_qr_scan"}, "type": "electric_scooter", "name": "1aafa12013aa478366c3eaeae194321d", "is_reserved": 0, "lon": -77.020496, "is_disabled": 0, "fusion_lat": 0.0, "lat": 38.894240333333336, "bike_id": "1aafa12013aa478366c3eaeae194321d", "fusion_lon": 0.0}, {"rental_uris": {"ios": "https://dc.lft.to/lastmile_qr_scan", "android": "https://dc.lft.to/lastmile_qr_scan"}, "type": "electric_scooter", "name": "8137c532406249bf84150a2580ed23c4", "is_reserved": 0, "lon": -77.001564, "is_disabled": 0, "fusion_lat": 0.0, "lat": 38.82131416666667, "bike_id": "8137c532406249bf84150a2580ed23c4", "fusion_lon": 0.0}, {"rental_uris": {"ios": "https://dc.lft.to/lastmile_qr_scan", "android": "https://dc.lft.to/lastmile_qr_scan"}, "type": "electric_scooter", "name": "a1e137870b9428df2dda544fe74b8b79", "is_reserved": 0, "lon": -77.01339733333333, "is_disabled": 0, "fusion_lat": 0.0, "lat": 38.919143, "bike_id": "a1e137870b9428df2dda544fe74b8b79", "fusion_lon": 0.0}, {"rental_uris": {"ios": "https://dc.lft.to/lastmile_qr_scan", "android": "https://dc.lft.to/lastmile_qr_scan"}, "type": "electric_scooter", "name": "4f54ddf64d8cb9252fec839e5641a324", "is_reserved": 0, "lon": -77.0755395, "is_disabled": 0, "fusion_lat": 0.0, "lat": 38.90642, "bike_id": "4f54ddf64d8cb9252fec839e5641a324", "fusion_lon": 0.0}, {"rental_uris": {"ios": "https://dc.lft.to/lastmile_qr_scan", "android": "https://dc.lft.to/lastmile_qr_scan"}, "type": "electric_bike", "name": "4896f27c326d0f04b4c4e739bd38e468", "is_reserved": 0, "lon": -77.01849733333333, "is_disabled": 0, "fusion_lat": 0.0, "lat": 38.931104833333336, "bike_id": "4896f27c326d0f04b4c4e739bd38e468", "fusion_lon": 0.0}, {"rental_uris": {"ios": "https://dc.lft.to/lastmile_qr_scan", "android": "https://dc.lft.to/lastmile_qr_scan"}, "type": "electric_bike", "name": "4ec897d351e60cb0ed55a853622091f7", "is_reserved": 0, "lon": -76.97546466666667, "is_disabled": 0, "fusion_lat": 0.0, "lat": 38.904254, "bike_id": "4ec897d351e60cb0ed55a853622091f7", "fusion_lon": 0.0}, {"rental_uris": {"ios": "https://dc.lft.to/lastmile_qr_scan", "android": "https://dc.lft.to/lastmile_qr_scan"}, "type": "electric_scooter", "name": "ea9ca6cf226853b7a670099439b7c26f", "is_reserved": 0, "lon": -77.01952583333333, "is_disabled": 0, "fusion_lat": 0.0, "lat": 38.95041, "bike_id": "ea9ca6cf226853b7a670099439b7c26f", "fusion_lon": 0.0}, {"rental_uris": {"ios": "https://dc.lft.to/lastmile_qr_scan", "android": "https://dc.lft.to/lastmile_qr_scan"}, "type": "electric_scooter", "name": "ec024b00863a34f447f82cda89577914", "is_reserved": 0, "lon": -77.0296775, "is_disabled": 0, "fusion_lat": 0.0, "lat": 38.923178666666665, "bike_id": "ec024b00863a34f447f82cda89577914", "fusion_lon": 0.0}, {"rental_uris": {"ios": "https://dc.lft.to/lastmile_qr_scan", "android": "https://dc.lft.to/lastmile_qr_scan"}, "type": "electric_scooter", "name": "bd054123cd2c9379869e5e9ac16d7f6e", "is_reserved": 0, "lon": -77.0270055, "is_disabled": 0, "fusion_lat": 0.0, "lat": 38.91811716666667, "bike_id": "bd054123cd2c9379869e5e9ac16d7f6e", "fusion_lon": 0.0}, {"rental_uris": {"ios": "https://dc.lft.to/lastmile_qr_scan", "android": "https://dc.lft.to/lastmile_qr_scan"}, "type": "electric_scooter", "name": "c32785cfc067f4e26e29394454810d3a", "is_reserved": 0, "lon": -77.017489, "is_disabled": 0, "fusion_lat": 0.0, "lat": 38.90270533333333, "bike_id": "c32785cfc067f4e26e29394454810d3a", "fusion_lon": 0.0}, {"rental_uris": {"ios": "https://dc.lft.to/lastmile_qr_scan", "android": "https://dc.lft.to/lastmile_qr_scan"}, "type": "electric_scooter", "name": "1115f7a5aca45d9a76658b139331838e", "is_reserved": 0, "lon": -77.02376816666667, "is_disabled": 0, "fusion_lat": 0.0, "lat": 38.93528, "bike_id": "1115f7a5aca45d9a76658b139331838e", "fusion_lon": 0.0}, {"rental_uris": {"ios": "https://dc.lft.to/lastmile_qr_scan", "android": "https://dc.lft.to/lastmile_qr_scan"}, "type": "electric_scooter", "name": "9b61be3f7ccfc62b82e98ad893d9f3bd", "is_reserved": 0, "lon": -77.06113133333334, "is_disabled": 0, "fusion_lat": 0.0, "lat": 38.91280716666667, "bike_id": "9b61be3f7ccfc62b82e98ad893d9f3bd", "fusion_lon": 0.0}, {"rental_uris": {"ios": "https://dc.lft.to/lastmile_qr_scan", "android": "https://dc.lft.to/lastmile_qr_scan"}, "type": "electric_scooter", "name": "5979f797faa4fba6bfac75c3ddb6a136", "is_reserved": 0, "lon": -77.04468433333334, "is_disabled": 0, "fusion_lat": 0.0, "lat": 38.90575666666667, "bike_id": "5979f797faa4fba6bfac75c3ddb6a136", "fusion_lon": 0.0}, {"rental_uris": {"ios": "https://dc.lft.to/lastmile_qr_scan", "android": "https://dc.lft.to/lastmile_qr_scan"}, "type": "electric_scooter", "name": "f4679a2a79f4fd8728a92933dd140ede", "is_reserved": 0, "lon": -77.00253283333333, "is_disabled": 0, "fusion_lat": 0.0, "lat": 38.90259666666667, "bike_id": "f4679a2a79f4fd8728a92933dd140ede", "fusion_lon": 0.0}, {"rental_uris": {"ios": "https://dc.lft.to/lastmile_qr_scan", "android": "https://dc.lft.to/lastmile_qr_scan"}, "type": "electric_scooter", "name": "e2fa8609c36978838c1a7d7a9fa7dd79", "is_reserved": 0, "lon": -77.01236483333334, "is_disabled": 0, "fusion_lat": 0.0, "lat": 38.881051, "bike_id": "e2fa8609c36978838c1a7d7a9fa7dd79", "fusion_lon": 0.0}, {"rental_uris": {"ios": "https://dc.lft.to/lastmile_qr_scan", "android": "https://dc.lft.to/lastmile_qr_scan"}, "type": "electric_scooter", "name": "831441642d174650e4dedee6a21d474e", "is_reserved": 0, "lon": -77.036327, "is_disabled": 0, "fusion_lat": 0.0, "lat": 38.91685783333333, "bike_id": "831441642d174650e4dedee6a21d474e", "fusion_lon": 0.0}, {"rental_uris": {"ios": "https://dc.lft.to/lastmile_qr_scan", "android": "https://dc.lft.to/lastmile_qr_scan"}, "type": "electric_scooter", "name": "f021400a8e369ddf21a31984a5f8fcdf", "is_reserved": 0, "lon": -77.021082, "is_disabled": 0, "fusion_lat": 0.0, "lat": 38.91413083333333, "bike_id": "f021400a8e369ddf21a31984a5f8fcdf", "fusion_lon": 0.0}, {"rental_uris": {"ios": "https://dc.lft.to/lastmile_qr_scan", "android": "https://dc.lft.to/lastmile_qr_scan"}, "type": "electric_scooter", "name": "b73707299098ed5b45723b0ec8fa8477", "is_reserved": 0, "lon": -77.03844783333334, "is_disabled": 0, "fusion_lat": 0.0, "lat": 38.90825366666667, "bike_id": "b73707299098ed5b45723b0ec8fa8477", "fusion_lon": 0.0}, {"rental_uris": {"ios": "https://dc.lft.to/lastmile_qr_scan", "android": "https://dc.lft.to/lastmile_qr_scan"}, "type": "electric_scooter", "name": "e0a6dd5ae90fe3d4639188fba1e432f4", "is_reserved": 0, "lon": -77.02373, "is_disabled": 0, "fusion_lat": 0.0, "lat": 38.90211033333333, "bike_id": "e0a6dd5ae90fe3d4639188fba1e432f4", "fusion_lon": 0.0}, {"rental_uris": {"ios": "https://dc.lft.to/lastmile_qr_scan", "android": "https://dc.lft.to/lastmile_qr_scan"}, "type": "electric_scooter", "name": "0da05e6e020d48904c3ddef05a5e87b1", "is_reserved": 0, "lon": -76.94862383333333, "is_disabled": 0, "fusion_lat": 0.0, "lat": 38.8947915, "bike_id": "0da05e6e020d48904c3ddef05a5e87b1", "fusion_lon": 0.0}, {"rental_uris": {"ios": "https://dc.lft.to/lastmile_qr_scan", "android": "https://dc.lft.to/lastmile_qr_scan"}, "type": "electric_scooter", "name": "9eeabd94badf526589a6034da15f978f", "is_reserved": 0, "lon": -77.04241383333333, "is_disabled": 0, "fusion_lat": 0.0, "lat": 38.921621333333334, "bike_id": "9eeabd94badf526589a6034da15f978f", "fusion_lon": 0.0}, {"rental_uris": {"ios": "https://dc.lft.to/lastmile_qr_scan", "android": "https://dc.lft.to/lastmile_qr_scan"}, "type": "electric_scooter", "name": "6ceba510eb903eb4c57b70dab51de4d9", "is_reserved": 0, "lon": -77.0088995, "is_disabled": 0, "fusion_lat": 0.0, "lat": 38.9233075, "bike_id": "6ceba510eb903eb4c57b70dab51de4d9", "fusion_lon": 0.0}, {"rental_uris": {"ios": "https://dc.lft.to/lastmile_qr_scan", "android": "https://dc.lft.to/lastmile_qr_scan"}, "type": "electric_scooter", "name": "d3ad2309ebcf398099a33c584967c3a3", "is_reserved": 0, "lon": -77.0056405, "is_disabled": 0, "fusion_lat": 0.0, "lat": 38.876505, "bike_id": "d3ad2309ebcf398099a33c584967c3a3", "fusion_lon": 0.0}, {"rental_uris": {"ios": "https://dc.lft.to/lastmile_qr_scan", "android": "https://dc.lft.to/lastmile_qr_scan"}, "type": "electric_scooter", "name": "4b765b497c4c55168d75f5d1b53caed3", "is_reserved": 0, "lon": -77.0351025, "is_disabled": 0, "fusion_lat": 0.0, "lat": 38.91184166666667, "bike_id": "4b765b497c4c55168d75f5d1b53caed3", "fusion_lon": 0.0}, {"rental_uris": {"ios": "https://dc.lft.to/lastmile_qr_scan", "android": "https://dc.lft.to/lastmile_qr_scan"}, "type": "electric_scooter", "name": "ae066b2398db45c1452ded9c92ee9db6", "is_reserved": 0, "lon": -77.0207155, "is_disabled": 0, "fusion_lat": 0.0, "lat": 38.93124616666667, "bike_id": "ae066b2398db45c1452ded9c92ee9db6", "fusion_lon": 0.0}, {"rental_uris": {"ios": "https://dc.lft.to/lastmile_qr_scan", "android": "https://dc.lft.to/lastmile_qr_scan"}, "type": "electric_scooter", "name": "bd0b1d3b61323e45007cf9f936144f67", "is_reserved": 0, "lon": -77.08779466666667, "is_disabled": 0, "fusion_lat": 0.0, "lat": 38.93561183333333, "bike_id": "bd0b1d3b61323e45007cf9f936144f67", "fusion_lon": 0.0}, {"rental_uris": {"ios": "https://dc.lft.to/lastmile_qr_scan", "android": "https://dc.lft.to/lastmile_qr_scan"}, "type": "electric_bike", "name": "e1a2e172aa9346d3dd6b802245181c52", "is_reserved": 0, "lon": -77.11281416666667, "is_disabled": 0, "fusion_lat": 0.0, "lat": 38.831055666666664, "bike_id": "e1a2e172aa9346d3dd6b802245181c52", "fusion_lon": 0.0}, {"rental_uris": {"ios": "https://dc.lft.to/lastmile_qr_scan", "android": "https://dc.lft.to/lastmile_qr_scan"}, "type": "electric_scooter", "name": "322c20819386377be1b6f5edffb793b1", "is_reserved": 0, "lon": -77.00822366666667, "is_disabled": 0, "fusion_lat": 0.0, "lat": 38.91566733333333, "bike_id": "322c20819386377be1b6f5edffb793b1", "fusion_lon": 0.0}, {"rental_uris": {"ios": "https://dc.lft.to/lastmile_qr_scan", "android": "https://dc.lft.to/lastmile_qr_scan"}, "type": "electric_scooter", "name": "15a66bcb273ba332f7dd07776af84ffc", "is_reserved": 0, "lon": -77.06324116666667, "is_disabled": 0, "fusion_lat": 0.0, "lat": 38.913377, "bike_id": "15a66bcb273ba332f7dd07776af84ffc", "fusion_lon": 0.0}, {"rental_uris": {"ios": "https://dc.lft.to/lastmile_qr_scan", "android": "https://dc.lft.to/lastmile_qr_scan"}, "type": "electric_scooter", "name": "43019f84f07c7d6168930e654e2fa4bb", "is_reserved": 0, "lon": -76.98692266666667, "is_disabled": 0, "fusion_lat": 0.0, "lat": 38.90706733333333, "bike_id": "43019f84f07c7d6168930e654e2fa4bb", "fusion_lon": 0.0}, {"rental_uris": {"ios": "https://dc.lft.to/lastmile_qr_scan", "android": "https://dc.lft.to/lastmile_qr_scan"}, "type": "electric_bike", "name": "8cda948846f8d6fc6625caac956f824d", "is_reserved": 0, "lon": -77.02315516666667, "is_disabled": 0, "fusion_lat": 0.0, "lat": 38.9268165, "bike_id": "8cda948846f8d6fc6625caac956f824d", "fusion_lon": 0.0}, {"rental_uris": {"ios": "https://dc.lft.to/lastmile_qr_scan", "android": "https://dc.lft.to/lastmile_qr_scan"}, "type": "electric_scooter", "name": "b03ae211027006296cb6a8be0687ce7d", "is_reserved": 0, "lon": -77.02186816666666, "is_disabled": 0, "fusion_lat": 0.0, "lat": 38.929179, "bike_id": "b03ae211027006296cb6a8be0687ce7d", "fusion_lon": 0.0}, {"rental_uris": {"ios": "https://dc.lft.to/lastmile_qr_scan", "android": "https://dc.lft.to/lastmile_qr_scan"}, "type": "electric_scooter", "name": "dade59ad741fa0f76446ab0fa0dd0e81", "is_reserved": 0, "lon": -77.04033666666666, "is_disabled": 0, "fusion_lat": 0.0, "lat": 38.921595833333335, "bike_id": "dade59ad741fa0f76446ab0fa0dd0e81", "fusion_lon": 0.0}, {"rental_uris": {"ios": "https://dc.lft.to/lastmile_qr_scan", "android": "https://dc.lft.to/lastmile_qr_scan"}, "type": "electric_scooter", "name": "9e3f044f06f3b03780a0480ad5af26e9", "is_reserved": 0, "lon": -77.03075683333333, "is_disabled": 0, "fusion_lat": 0.0, "lat": 38.923820666666664, "bike_id": "9e3f044f06f3b03780a0480ad5af26e9", "fusion_lon": 0.0}, {"rental_uris": {"ios": "https://dc.lft.to/lastmile_qr_scan", "android": "https://dc.lft.to/lastmile_qr_scan"}, "type": "electric_scooter", "name": "b157efec0d0f5e2019e6ab1b51b0067e", "is_reserved": 0, "lon": -77.002065, "is_disabled": 0, "fusion_lat": 0.0, "lat": 38.900331666666666, "bike_id": "b157efec0d0f5e2019e6ab1b51b0067e", "fusion_lon": 0.0}, {"rental_uris": {"ios": "https://dc.lft.to/lastmile_qr_scan", "android": "https://dc.lft.to/lastmile_qr_scan"}, "type": "electric_scooter", "name": "c15559eda1253bd4a5285ce2c810ec04", "is_reserved": 0, "lon": -77.02618633333333, "is_disabled": 0, "fusion_lat": 0.0, "lat": 38.90721883333333, "bike_id": "c15559eda1253bd4a5285ce2c810ec04", "fusion_lon": 0.0}, {"rental_uris": {"ios": "https://dc.lft.to/lastmile_qr_scan", "android": "https://dc.lft.to/lastmile_qr_scan"}, "type": "electric_scooter", "name": "c0b2df318463fe3d291fbb0c6368d49f", "is_reserved": 0, "lon": -77.01742966666667, "is_disabled": 0, "fusion_lat": 0.0, "lat": 38.91245333333333, "bike_id": "c0b2df318463fe3d291fbb0c6368d49f", "fusion_lon": 0.0}, {"rental_uris": {"ios": "https://dc.lft.to/lastmile_qr_scan", "android": "https://dc.lft.to/lastmile_qr_scan"}, "type": "electric_scooter", "name": "31e19275a001ec182ee15115046d51e5", "is_reserved": 0, "lon": -77.03359683333333, "is_disabled": 0, "fusion_lat": 0.0, "lat": 38.910661833333336, "bike_id": "31e19275a001ec182ee15115046d51e5", "fusion_lon": 0.0}, {"rental_uris": {"ios": "https://dc.lft.to/lastmile_qr_scan", "android": "https://dc.lft.to/lastmile_qr_scan"}, "type": "electric_scooter", "name": "e801db18e3cc332da2fb122e727bf573", "is_reserved": 0, "lon": -77.00987466666666, "is_disabled": 0, "fusion_lat": 0.0, "lat": 38.87285383333333, "bike_id": "e801db18e3cc332da2fb122e727bf573", "fusion_lon": 0.0}, {"rental_uris": {"ios": "https://dc.lft.to/lastmile_qr_scan", "android": "https://dc.lft.to/lastmile_qr_scan"}, "type": "electric_scooter", "name": "62972d5a76a0c2bc2100caf4782f4367", "is_reserved": 0, "lon": -77.03709833333333, "is_disabled": 0, "fusion_lat": 0.0, "lat": 38.914841833333334, "bike_id": "62972d5a76a0c2bc2100caf4782f4367", "fusion_lon": 0.0}, {"rental_uris": {"ios": "https://dc.lft.to/lastmile_qr_scan", "android": "https://dc.lft.to/lastmile_qr_scan"}, "type": "electric_scooter", "name": "bc57a3877132ed4348660a16276a5ea4", "is_reserved": 0, "lon": -76.98028783333334, "is_disabled": 0, "fusion_lat": 0.0, "lat": 38.916734166666664, "bike_id": "bc57a3877132ed4348660a16276a5ea4", "fusion_lon": 0.0}, {"rental_uris": {"ios": "https://dc.lft.to/lastmile_qr_scan", "android": "https://dc.lft.to/lastmile_qr_scan"}, "type": "electric_bike", "name": "3613b719a601f12c12e289943a27efdb", "is_reserved": 0, "lon": -76.94165866666667, "is_disabled": 0, "fusion_lat": 0.0, "lat": 38.865536, "bike_id": "3613b719a601f12c12e289943a27efdb", "fusion_lon": 0.0}, {"rental_uris": {"ios": "https://dc.lft.to/lastmile_qr_scan", "android": "https://dc.lft.to/lastmile_qr_scan"}, "type": "electric_scooter", "name": "799fae41bcde0d68c09ef3250bf0a2f9", "is_reserved": 0, "lon": -77.04503033333333, "is_disabled": 0, "fusion_lat": 0.0, "lat": 38.90781333333334, "bike_id": "799fae41bcde0d68c09ef3250bf0a2f9", "fusion_lon": 0.0}, {"rental_uris": {"ios": "https://dc.lft.to/lastmile_qr_scan", "android": "https://dc.lft.to/lastmile_qr_scan"}, "type": "electric_scooter", "name": "452d9049b9cfc1a261a8a8348d2cf4f9", "is_reserved": 0, "lon": -77.023357, "is_disabled": 0, "fusion_lat": 0.0, "lat": 38.93050016666667, "bike_id": "452d9049b9cfc1a261a8a8348d2cf4f9", "fusion_lon": 0.0}, {"rental_uris": {"ios": "https://dc.lft.to/lastmile_qr_scan", "android": "https://dc.lft.to/lastmile_qr_scan"}, "type": "electric_scooter", "name": "2d6eb347f59f40fbb69063e623624f2a", "is_reserved": 0, "lon": -77.04381266666667, "is_disabled": 0, "fusion_lat": 0.0, "lat": 38.923573833333336, "bike_id": "2d6eb347f59f40fbb69063e623624f2a", "fusion_lon": 0.0}, {"rental_uris": {"ios": "https://dc.lft.to/lastmile_qr_scan", "android": "https://dc.lft.to/lastmile_qr_scan"}, "type": "electric_scooter", "name": "6ebb26f733613ee3ef9894efb2887f27", "is_reserved": 0, "lon": -77.04912883333333, "is_disabled": 0, "fusion_lat": 0.0, "lat": 38.919269, "bike_id": "6ebb26f733613ee3ef9894efb2887f27", "fusion_lon": 0.0}, {"rental_uris": {"ios": "https://dc.lft.to/lastmile_qr_scan", "android": "https://dc.lft.to/lastmile_qr_scan"}, "type": "electric_scooter", "name": "c76160fee213874a9efb3d91bff663f0", "is_reserved": 0, "lon": -77.01606316666667, "is_disabled": 0, "fusion_lat": 0.0, "lat": 38.917561, "bike_id": "c76160fee213874a9efb3d91bff663f0", "fusion_lon": 0.0}, {"rental_uris": {"ios": "https://dc.lft.to/lastmile_qr_scan", "android": "https://dc.lft.to/lastmile_qr_scan"}, "type": "electric_scooter", "name": "d00ae8f4a88341ccb7579555ea121261", "is_reserved": 0, "lon": -77.00218883333334, "is_disabled": 0, "fusion_lat": 0.0, "lat": 38.90050683333333, "bike_id": "d00ae8f4a88341ccb7579555ea121261", "fusion_lon": 0.0}, {"rental_uris": {"ios": "https://dc.lft.to/lastmile_qr_scan", "android": "https://dc.lft.to/lastmile_qr_scan"}, "type": "electric_scooter", "name": "a9161d3d2ff7b070bd7e769868f619e3", "is_reserved": 0, "lon": -76.99121516666666, "is_disabled": 0, "fusion_lat": 0.0, "lat": 38.909018, "bike_id": "a9161d3d2ff7b070bd7e769868f619e3", "fusion_lon": 0.0}, {"rental_uris": {"ios": "https://dc.lft.to/lastmile_qr_scan", "android": "https://dc.lft.to/lastmile_qr_scan"}, "type": "electric_bike", "name": "1a21dd6b6337b6f888df15859a9642eb", "is_reserved": 0, "lon": -77.1283695, "is_disabled": 0, "fusion_lat": 0.0, "lat": 38.80054616666666, "bike_id": "1a21dd6b6337b6f888df15859a9642eb", "fusion_lon": 0.0}, {"rental_uris": {"ios": "https://dc.lft.to/lastmile_qr_scan", "android": "https://dc.lft.to/lastmile_qr_scan"}, "type": "electric_scooter", "name": "ea8ad091d3e173412ff68d467ece0410", "is_reserved": 0, "lon": -77.03864783333333, "is_disabled": 0, "fusion_lat": 0.0, "lat": 38.91263583333333, "bike_id": "ea8ad091d3e173412ff68d467ece0410", "fusion_lon": 0.0}, {"rental_uris": {"ios": "https://dc.lft.to/lastmile_qr_scan", "android": "https://dc.lft.to/lastmile_qr_scan"}, "type": "electric_scooter", "name": "4adfcd27bd8916b50dd2a51524be7a1c", "is_reserved": 0, "lon": -77.04697833333333, "is_disabled": 0, "fusion_lat": 0.0, "lat": 38.896040666666664, "bike_id": "4adfcd27bd8916b50dd2a51524be7a1c", "fusion_lon": 0.0}, {"rental_uris": {"ios": "https://dc.lft.to/lastmile_qr_scan", "android": "https://dc.lft.to/lastmile_qr_scan"}, "type": "electric_scooter", "name": "c508f3d8dfa03d3b6979246deb8638eb", "is_reserved": 0, "lon": -77.01984416666667, "is_disabled": 0, "fusion_lat": 0.0, "lat": 38.8759895, "bike_id": "c508f3d8dfa03d3b6979246deb8638eb", "fusion_lon": 0.0}, {"rental_uris": {"ios": "https://dc.lft.to/lastmile_qr_scan", "android": "https://dc.lft.to/lastmile_qr_scan"}, "type": "electric_scooter", "name": "a42926e3dab477c48e88db88e488c903", "is_reserved": 0, "lon": -77.02729283333333, "is_disabled": 0, "fusion_lat": 0.0, "lat": 38.93462733333333, "bike_id": "a42926e3dab477c48e88db88e488c903", "fusion_lon": 0.0}, {"rental_uris": {"ios": "https://dc.lft.to/lastmile_qr_scan", "android": "https://dc.lft.to/lastmile_qr_scan"}, "type": "electric_scooter", "name": "fa0a55e3f7c38a4efc22d852fa6d041b", "is_reserved": 0, "lon": -77.0489405, "is_disabled": 0, "fusion_lat": 0.0, "lat": 38.9193735, "bike_id": "fa0a55e3f7c38a4efc22d852fa6d041b", "fusion_lon": 0.0}, {"rental_uris": {"ios": "https://dc.lft.to/lastmile_qr_scan", "android": "https://dc.lft.to/lastmile_qr_scan"}, "type": "electric_scooter", "name": "00971314322771724c5aece7c255cbfa", "is_reserved": 0, "lon": -77.032504, "is_disabled": 0, "fusion_lat": 0.0, "lat": 38.928671, "bike_id": "00971314322771724c5aece7c255cbfa", "fusion_lon": 0.0}, {"rental_uris": {"ios": "https://dc.lft.to/lastmile_qr_scan", "android": "https://dc.lft.to/lastmile_qr_scan"}, "type": "electric_scooter", "name": "fa72a3efbffac74b04b69e26171f210c", "is_reserved": 0, "lon": -77.05426083333333, "is_disabled": 0, "fusion_lat": 0.0, "lat": 38.92846883333333, "bike_id": "fa72a3efbffac74b04b69e26171f210c", "fusion_lon": 0.0}, {"rental_uris": {"ios": "https://dc.lft.to/lastmile_qr_scan", "android": "https://dc.lft.to/lastmile_qr_scan"}, "type": "electric_scooter", "name": "33d1dd9bc15e3bc9bca583aa15a695e2", "is_reserved": 0, "lon": -77.04148633333334, "is_disabled": 0, "fusion_lat": 0.0, "lat": 38.905727666666664, "bike_id": "33d1dd9bc15e3bc9bca583aa15a695e2", "fusion_lon": 0.0}, {"rental_uris": {"ios": "https://dc.lft.to/lastmile_qr_scan", "android": "https://dc.lft.to/lastmile_qr_scan"}, "type": "electric_scooter", "name": "17852e319d84bb56a21ff0cb8c9cfaa3", "is_reserved": 0, "lon": -77.04044533333334, "is_disabled": 0, "fusion_lat": 0.0, "lat": 38.930114333333336, "bike_id": "17852e319d84bb56a21ff0cb8c9cfaa3", "fusion_lon": 0.0}, {"rental_uris": {"ios": "https://dc.lft.to/lastmile_qr_scan", "android": "https://dc.lft.to/lastmile_qr_scan"}, "type": "electric_scooter", "name": "be8b96ec33d6894b095ca45e5e4ce966", "is_reserved": 0, "lon": -77.07162516666666, "is_disabled": 0, "fusion_lat": 0.0, "lat": 38.90777033333333, "bike_id": "be8b96ec33d6894b095ca45e5e4ce966", "fusion_lon": 0.0}, {"rental_uris": {"ios": "https://dc.lft.to/lastmile_qr_scan", "android": "https://dc.lft.to/lastmile_qr_scan"}, "type": "electric_scooter", "name": "5c2936052e96b34d7a469f5ca24446f6", "is_reserved": 0, "lon": -77.04226916666667, "is_disabled": 0, "fusion_lat": 0.0, "lat": 38.92313566666667, "bike_id": "5c2936052e96b34d7a469f5ca24446f6", "fusion_lon": 0.0}, {"rental_uris": {"ios": "https://dc.lft.to/lastmile_qr_scan", "android": "https://dc.lft.to/lastmile_qr_scan"}, "type": "electric_scooter", "name": "a263a46e075c67221255715a87e85c06", "is_reserved": 0, "lon": -76.99188316666667, "is_disabled": 0, "fusion_lat": 0.0, "lat": 38.890364166666664, "bike_id": "a263a46e075c67221255715a87e85c06", "fusion_lon": 0.0}, {"rental_uris": {"ios": "https://dc.lft.to/lastmile_qr_scan", "android": "https://dc.lft.to/lastmile_qr_scan"}, "type": "electric_scooter", "name": "1fbaa14353743d106059c4f407617ad7", "is_reserved": 0, "lon": -77.02678766666666, "is_disabled": 0, "fusion_lat": 0.0, "lat": 38.92483266666667, "bike_id": "1fbaa14353743d106059c4f407617ad7", "fusion_lon": 0.0}, {"rental_uris": {"ios": "https://dc.lft.to/lastmile_qr_scan", "android": "https://dc.lft.to/lastmile_qr_scan"}, "type": "electric_scooter", "name": "e4ae569c1f9caae562e5ab579f7d0e34", "is_reserved": 0, "lon": -77.0265775, "is_disabled": 0, "fusion_lat": 0.0, "lat": 38.924862, "bike_id": "e4ae569c1f9caae562e5ab579f7d0e34", "fusion_lon": 0.0}, {"rental_uris": {"ios": "https://dc.lft.to/lastmile_qr_scan", "android": "https://dc.lft.to/lastmile_qr_scan"}, "type": "electric_scooter", "name": "e1aa0648fc13a06354631d329a1d10b3", "is_reserved": 0, "lon": -77.0176565, "is_disabled": 0, "fusion_lat": 0.0, "lat": 38.920434666666665, "bike_id": "e1aa0648fc13a06354631d329a1d10b3", "fusion_lon": 0.0}, {"rental_uris": {"ios": "https://dc.lft.to/lastmile_qr_scan", "android": "https://dc.lft.to/lastmile_qr_scan"}, "type": "electric_scooter", "name": "0eeb1f91d4f29697b623c6dc6cfe5d47", "is_reserved": 0, "lon": -77.02981733333333, "is_disabled": 0, "fusion_lat": 0.0, "lat": 38.921983166666664, "bike_id": "0eeb1f91d4f29697b623c6dc6cfe5d47", "fusion_lon": 0.0}, {"rental_uris": {"ios": "https://dc.lft.to/lastmile_qr_scan", "android": "https://dc.lft.to/lastmile_qr_scan"}, "type": "electric_scooter", "name": "68896a3e5ba20d4ce35d2a091aee6cc3", "is_reserved": 0, "lon": -77.01868533333334, "is_disabled": 0, "fusion_lat": 0.0, "lat": 38.9515285, "bike_id": "68896a3e5ba20d4ce35d2a091aee6cc3", "fusion_lon": 0.0}, {"rental_uris": {"ios": "https://dc.lft.to/lastmile_qr_scan", "android": "https://dc.lft.to/lastmile_qr_scan"}, "type": "electric_scooter", "name": "a41e3e719dc7cffab4fb16b357c7f3a0", "is_reserved": 0, "lon": -77.02110283333333, "is_disabled": 0, "fusion_lat": 0.0, "lat": 38.9141545, "bike_id": "a41e3e719dc7cffab4fb16b357c7f3a0", "fusion_lon": 0.0}, {"rental_uris": {"ios": "https://dc.lft.to/lastmile_qr_scan", "android": "https://dc.lft.to/lastmile_qr_scan"}, "type": "electric_scooter", "name": "057ee478b9110c1656001523118e33a4", "is_reserved": 0, "lon": -77.04494283333334, "is_disabled": 0, "fusion_lat": 0.0, "lat": 38.905489333333335, "bike_id": "057ee478b9110c1656001523118e33a4", "fusion_lon": 0.0}, {"rental_uris": {"ios": "https://dc.lft.to/lastmile_qr_scan", "android": "https://dc.lft.to/lastmile_qr_scan"}, "type": "electric_scooter", "name": "e234b09b05bad0aad572db79f3b7f054", "is_reserved": 0, "lon": -76.99047866666666, "is_disabled": 0, "fusion_lat": 0.0, "lat": 38.92475733333333, "bike_id": "e234b09b05bad0aad572db79f3b7f054", "fusion_lon": 0.0}, {"rental_uris": {"ios": "https://dc.lft.to/lastmile_qr_scan", "android": "https://dc.lft.to/lastmile_qr_scan"}, "type": "electric_scooter", "name": "d4b4574a3ba962ce5f8e2e4c5c447003", "is_reserved": 0, "lon": -77.0230935, "is_disabled": 0, "fusion_lat": 0.0, "lat": 38.91771466666667, "bike_id": "d4b4574a3ba962ce5f8e2e4c5c447003", "fusion_lon": 0.0}, {"rental_uris": {"ios": "https://dc.lft.to/lastmile_qr_scan", "android": "https://dc.lft.to/lastmile_qr_scan"}, "type": "electric_scooter", "name": "160b62ed87914448192dc58ea3b8d5ec", "is_reserved": 0, "lon": -77.034657, "is_disabled": 0, "fusion_lat": 0.0, "lat": 38.91268566666667, "bike_id": "160b62ed87914448192dc58ea3b8d5ec", "fusion_lon": 0.0}, {"rental_uris": {"ios": "https://dc.lft.to/lastmile_qr_scan", "android": "https://dc.lft.to/lastmile_qr_scan"}, "type": "electric_bike", "name": "14317d54209c06a001dd4aa6e07ad3d9", "is_reserved": 0, "lon": -77.07648366666666, "is_disabled": 0, "fusion_lat": 0.0, "lat": 38.88853683333333, "bike_id": "14317d54209c06a001dd4aa6e07ad3d9", "fusion_lon": 0.0}, {"rental_uris": {"ios": "https://dc.lft.to/lastmile_qr_scan", "android": "https://dc.lft.to/lastmile_qr_scan"}, "type": "electric_scooter", "name": "358e60a60fd1123c9267aaba3c8fac68", "is_reserved": 0, "lon": -77.03300766666666, "is_disabled": 0, "fusion_lat": 0.0, "lat": 38.92646333333333, "bike_id": "358e60a60fd1123c9267aaba3c8fac68", "fusion_lon": 0.0}, {"rental_uris": {"ios": "https://dc.lft.to/lastmile_qr_scan", "android": "https://dc.lft.to/lastmile_qr_scan"}, "type": "electric_scooter", "name": "bf249ac65f5bdbf3731bd09930754deb", "is_reserved": 0, "lon": -76.9963715, "is_disabled": 0, "fusion_lat": 0.0, "lat": 38.87736616666667, "bike_id": "bf249ac65f5bdbf3731bd09930754deb", "fusion_lon": 0.0}, {"rental_uris": {"ios": "https://dc.lft.to/lastmile_qr_scan", "android": "https://dc.lft.to/lastmile_qr_scan"}, "type": "electric_scooter", "name": "32158d2f7d15b7382fb0546589794254", "is_reserved": 0, "lon": -77.04510266666666, "is_disabled": 0, "fusion_lat": 0.0, "lat": 38.90797383333334, "bike_id": "32158d2f7d15b7382fb0546589794254", "fusion_lon": 0.0}, {"rental_uris": {"ios": "https://dc.lft.to/lastmile_qr_scan", "android": "https://dc.lft.to/lastmile_qr_scan"}, "type": "electric_scooter", "name": "02b87c24cea3d39b336821b2e64f67c5", "is_reserved": 0, "lon": -77.07451283333333, "is_disabled": 0, "fusion_lat": 0.0, "lat": 38.9378305, "bike_id": "02b87c24cea3d39b336821b2e64f67c5", "fusion_lon": 0.0}, {"rental_uris": {"ios": "https://dc.lft.to/lastmile_qr_scan", "android": "https://dc.lft.to/lastmile_qr_scan"}, "type": "electric_scooter", "name": "3a5e1224b8e087a4df06a4d0588f80db", "is_reserved": 0, "lon": -76.98107833333333, "is_disabled": 0, "fusion_lat": 0.0, "lat": 38.90241566666667, "bike_id": "3a5e1224b8e087a4df06a4d0588f80db", "fusion_lon": 0.0}, {"rental_uris": {"ios": "https://dc.lft.to/lastmile_qr_scan", "android": "https://dc.lft.to/lastmile_qr_scan"}, "type": "electric_scooter", "name": "8dc0acb1c4c5f6048b3b176ede2b5baa", "is_reserved": 0, "lon": -77.01771316666667, "is_disabled": 0, "fusion_lat": 0.0, "lat": 38.90052016666667, "bike_id": "8dc0acb1c4c5f6048b3b176ede2b5baa", "fusion_lon": 0.0}, {"rental_uris": {"ios": "https://dc.lft.to/lastmile_qr_scan", "android": "https://dc.lft.to/lastmile_qr_scan"}, "type": "electric_scooter", "name": "b160684b180ff18c368373a8d30d406d", "is_reserved": 0, "lon": -77.01018383333333, "is_disabled": 0, "fusion_lat": 0.0, "lat": 38.906235833333334, "bike_id": "b160684b180ff18c368373a8d30d406d", "fusion_lon": 0.0}, {"rental_uris": {"ios": "https://dc.lft.to/lastmile_qr_scan", "android": "https://dc.lft.to/lastmile_qr_scan"}, "type": "electric_scooter", "name": "49ca982ff409b8c532e8772506e4fb71", "is_reserved": 0, "lon": -76.99343716666667, "is_disabled": 0, "fusion_lat": 0.0, "lat": 38.87692916666666, "bike_id": "49ca982ff409b8c532e8772506e4fb71", "fusion_lon": 0.0}, {"rental_uris": {"ios": "https://dc.lft.to/lastmile_qr_scan", "android": "https://dc.lft.to/lastmile_qr_scan"}, "type": "electric_bike", "name": "3c1151dd0b3a1171eb507bb597e2fdca", "is_reserved": 0, "lon": -77.11357916666667, "is_disabled": 0, "fusion_lat": 0.0, "lat": 38.84201683333333, "bike_id": "3c1151dd0b3a1171eb507bb597e2fdca", "fusion_lon": 0.0}, {"rental_uris": {"ios": "https://dc.lft.to/lastmile_qr_scan", "android": "https://dc.lft.to/lastmile_qr_scan"}, "type": "electric_scooter", "name": "104174cdd053e8b460b3eef367852dd5", "is_reserved": 0, "lon": -77.0316145, "is_disabled": 0, "fusion_lat": 0.0, "lat": 38.914107, "bike_id": "104174cdd053e8b460b3eef367852dd5", "fusion_lon": 0.0}, {"rental_uris": {"ios": "https://dc.lft.to/lastmile_qr_scan", "android": "https://dc.lft.to/lastmile_qr_scan"}, "type": "electric_scooter", "name": "74db511340bb0e6cc0dc15cee0b02216", "is_reserved": 0, "lon": -77.04254433333334, "is_disabled": 0, "fusion_lat": 0.0, "lat": 38.92288766666667, "bike_id": "74db511340bb0e6cc0dc15cee0b02216", "fusion_lon": 0.0}, {"rental_uris": {"ios": "https://dc.lft.to/lastmile_qr_scan", "android": "https://dc.lft.to/lastmile_qr_scan"}, "type": "electric_scooter", "name": "4ad433b2fca3ac6813a65c33b5957a1a", "is_reserved": 0, "lon": -77.03210583333333, "is_disabled": 0, "fusion_lat": 0.0, "lat": 38.90729483333333, "bike_id": "4ad433b2fca3ac6813a65c33b5957a1a", "fusion_lon": 0.0}, {"rental_uris": {"ios": "https://dc.lft.to/lastmile_qr_scan", "android": "https://dc.lft.to/lastmile_qr_scan"}, "type": "electric_scooter", "name": "117943d6fddf0a7afb13f5225dd5cdec", "is_reserved": 0, "lon": -76.93128783333333, "is_disabled": 0, "fusion_lat": 0.0, "lat": 38.87645716666667, "bike_id": "117943d6fddf0a7afb13f5225dd5cdec", "fusion_lon": 0.0}, {"rental_uris": {"ios": "https://dc.lft.to/lastmile_qr_scan", "android": "https://dc.lft.to/lastmile_qr_scan"}, "type": "electric_scooter", "name": "f4bc1f00b8b63d05ad2a68e695467a8d", "is_reserved": 0, "lon": -77.000895, "is_disabled": 0, "fusion_lat": 0.0, "lat": 38.90847566666667, "bike_id": "f4bc1f00b8b63d05ad2a68e695467a8d", "fusion_lon": 0.0}, {"rental_uris": {"ios": "https://dc.lft.to/lastmile_qr_scan", "android": "https://dc.lft.to/lastmile_qr_scan"}, "type": "electric_scooter", "name": "236b5f04cc3c01691baf24753ff29f72", "is_reserved": 0, "lon": -77.021889, "is_disabled": 0, "fusion_lat": 0.0, "lat": 38.90971, "bike_id": "236b5f04cc3c01691baf24753ff29f72", "fusion_lon": 0.0}, {"rental_uris": {"ios": "https://dc.lft.to/lastmile_qr_scan", "android": "https://dc.lft.to/lastmile_qr_scan"}, "type": "electric_bike", "name": "c77166d9c9f37bd76ed69ab134331d5f", "is_reserved": 0, "lon": -77.04303166666666, "is_disabled": 0, "fusion_lat": 0.0, "lat": 39.034204833333334, "bike_id": "c77166d9c9f37bd76ed69ab134331d5f", "fusion_lon": 0.0}, {"rental_uris": {"ios": "https://dc.lft.to/lastmile_qr_scan", "android": "https://dc.lft.to/lastmile_qr_scan"}, "type": "electric_scooter", "name": "119151f5708de9aa57e84d29e51ad163", "is_reserved": 0, "lon": -77.005053, "is_disabled": 0, "fusion_lat": 0.0, "lat": 38.87932766666667, "bike_id": "119151f5708de9aa57e84d29e51ad163", "fusion_lon": 0.0}, {"rental_uris": {"ios": "https://dc.lft.to/lastmile_qr_scan", "android": "https://dc.lft.to/lastmile_qr_scan"}, "type": "electric_scooter", "name": "78befd9b6e3387959815939f42919797", "is_reserved": 0, "lon": -77.029635, "is_disabled": 0, "fusion_lat": 0.0, "lat": 38.90487183333333, "bike_id": "78befd9b6e3387959815939f42919797", "fusion_lon": 0.0}, {"rental_uris": {"ios": "https://dc.lft.to/lastmile_qr_scan", "android": "https://dc.lft.to/lastmile_qr_scan"}, "type": "electric_bike", "name": "b9c8fced8bc75cd1935a4f6288b0d839", "is_reserved": 0, "lon": -76.9574375, "is_disabled": 0, "fusion_lat": 0.0, "lat": 38.88856766666667, "bike_id": "b9c8fced8bc75cd1935a4f6288b0d839", "fusion_lon": 0.0}, {"rental_uris": {"ios": "https://dc.lft.to/lastmile_qr_scan", "android": "https://dc.lft.to/lastmile_qr_scan"}, "type": "electric_scooter", "name": "a379a1e0d1542b64d9ef1192c1247575", "is_reserved": 0, "lon": -76.94719566666667, "is_disabled": 0, "fusion_lat": 0.0, "lat": 38.89083766666667, "bike_id": "a379a1e0d1542b64d9ef1192c1247575", "fusion_lon": 0.0}, {"rental_uris": {"ios": "https://dc.lft.to/lastmile_qr_scan", "android": "https://dc.lft.to/lastmile_qr_scan"}, "type": "electric_scooter", "name": "a890639767583a720ebd0c330edbdec4", "is_reserved": 0, "lon": -77.01637216666667, "is_disabled": 0, "fusion_lat": 0.0, "lat": 38.903605166666665, "bike_id": "a890639767583a720ebd0c330edbdec4", "fusion_lon": 0.0}, {"rental_uris": {"ios": "https://dc.lft.to/lastmile_qr_scan", "android": "https://dc.lft.to/lastmile_qr_scan"}, "type": "electric_scooter", "name": "aa7bfad2506b592e5f8ea458e2ef2a96", "is_reserved": 0, "lon": -77.0435625, "is_disabled": 0, "fusion_lat": 0.0, "lat": 38.91113466666667, "bike_id": "aa7bfad2506b592e5f8ea458e2ef2a96", "fusion_lon": 0.0}, {"rental_uris": {"ios": "https://dc.lft.to/lastmile_qr_scan", "android": "https://dc.lft.to/lastmile_qr_scan"}, "type": "electric_scooter", "name": "642b3d181793b7eaee9e644160922b57", "is_reserved": 0, "lon": -77.02665466666667, "is_disabled": 0, "fusion_lat": 0.0, "lat": 38.8849285, "bike_id": "642b3d181793b7eaee9e644160922b57", "fusion_lon": 0.0}, {"rental_uris": {"ios": "https://dc.lft.to/lastmile_qr_scan", "android": "https://dc.lft.to/lastmile_qr_scan"}, "type": "electric_scooter", "name": "8b7de15f62ba443e3ea6a31430e55669", "is_reserved": 0, "lon": -77.0025705, "is_disabled": 0, "fusion_lat": 0.0, "lat": 38.907846166666666, "bike_id": "8b7de15f62ba443e3ea6a31430e55669", "fusion_lon": 0.0}, {"rental_uris": {"ios": "https://dc.lft.to/lastmile_qr_scan", "android": "https://dc.lft.to/lastmile_qr_scan"}, "type": "electric_scooter", "name": "3a1073301d34332f2752187ca8da9b8b", "is_reserved": 0, "lon": -77.00193666666667, "is_disabled": 0, "fusion_lat": 0.0, "lat": 38.90032, "bike_id": "3a1073301d34332f2752187ca8da9b8b", "fusion_lon": 0.0}, {"rental_uris": {"ios": "https://dc.lft.to/lastmile_qr_scan", "android": "https://dc.lft.to/lastmile_qr_scan"}, "type": "electric_scooter", "name": "735db63d22e2a8953dcf1aae3b51b2a4", "is_reserved": 0, "lon": -77.01978133333333, "is_disabled": 0, "fusion_lat": 0.0, "lat": 38.915282166666664, "bike_id": "735db63d22e2a8953dcf1aae3b51b2a4", "fusion_lon": 0.0}, {"rental_uris": {"ios": "https://dc.lft.to/lastmile_qr_scan", "android": "https://dc.lft.to/lastmile_qr_scan"}, "type": "electric_bike", "name": "80a1aa8eec1964b7e79b802b0dcd1d9f", "is_reserved": 0, "lon": -77.0512595, "is_disabled": 0, "fusion_lat": 0.0, "lat": 38.85918866666667, "bike_id": "80a1aa8eec1964b7e79b802b0dcd1d9f", "fusion_lon": 0.0}, {"rental_uris": {"ios": "https://dc.lft.to/lastmile_qr_scan", "android": "https://dc.lft.to/lastmile_qr_scan"}, "type": "electric_scooter", "name": "6e733f45686405291f02dec356f8b78a", "is_reserved": 0, "lon": -77.03159083333334, "is_disabled": 0, "fusion_lat": 0.0, "lat": 38.90631966666667, "bike_id": "6e733f45686405291f02dec356f8b78a", "fusion_lon": 0.0}, {"rental_uris": {"ios": "https://dc.lft.to/lastmile_qr_scan", "android": "https://dc.lft.to/lastmile_qr_scan"}, "type": "electric_scooter", "name": "f313fb31a79335ed541c320f72faae06", "is_reserved": 0, "lon": -76.9848905, "is_disabled": 0, "fusion_lat": 0.0, "lat": 38.9200785, "bike_id": "f313fb31a79335ed541c320f72faae06", "fusion_lon": 0.0}, {"rental_uris": {"ios": "https://dc.lft.to/lastmile_qr_scan", "android": "https://dc.lft.to/lastmile_qr_scan"}, "type": "electric_scooter", "name": "3a6822958fe873a19e950186c3a0d209", "is_reserved": 0, "lon": -76.98537883333333, "is_disabled": 0, "fusion_lat": 0.0, "lat": 38.858476833333334, "bike_id": "3a6822958fe873a19e950186c3a0d209", "fusion_lon": 0.0}, {"rental_uris": {"ios": "https://dc.lft.to/lastmile_qr_scan", "android": "https://dc.lft.to/lastmile_qr_scan"}, "type": "electric_scooter", "name": "93b764ece256cb8b03b8d96e72b7cc53", "is_reserved": 0, "lon": -77.0302385, "is_disabled": 0, "fusion_lat": 0.0, "lat": 38.8784985, "bike_id": "93b764ece256cb8b03b8d96e72b7cc53", "fusion_lon": 0.0}, {"rental_uris": {"ios": "https://dc.lft.to/lastmile_qr_scan", "android": "https://dc.lft.to/lastmile_qr_scan"}, "type": "electric_scooter", "name": "3178d5dc4c2d6bfa051b14e670e67b5c", "is_reserved": 0, "lon": -77.0372965, "is_disabled": 0, "fusion_lat": 0.0, "lat": 38.92030366666667, "bike_id": "3178d5dc4c2d6bfa051b14e670e67b5c", "fusion_lon": 0.0}, {"rental_uris": {"ios": "https://dc.lft.to/lastmile_qr_scan", "android": "https://dc.lft.to/lastmile_qr_scan"}, "type": "electric_scooter", "name": "95b98ed37d69fcc2fefc0cac2efa2b63", "is_reserved": 0, "lon": -77.008652, "is_disabled": 0, "fusion_lat": 0.0, "lat": 38.911727666666664, "bike_id": "95b98ed37d69fcc2fefc0cac2efa2b63", "fusion_lon": 0.0}, {"rental_uris": {"ios": "https://dc.lft.to/lastmile_qr_scan", "android": "https://dc.lft.to/lastmile_qr_scan"}, "type": "electric_scooter", "name": "e9d0b4fe13aa0320381e64ac3dcd3768", "is_reserved": 0, "lon": -76.98810416666667, "is_disabled": 0, "fusion_lat": 0.0, "lat": 38.91136433333333, "bike_id": "e9d0b4fe13aa0320381e64ac3dcd3768", "fusion_lon": 0.0}, {"rental_uris": {"ios": "https://dc.lft.to/lastmile_qr_scan", "android": "https://dc.lft.to/lastmile_qr_scan"}, "type": "electric_scooter", "name": "3670b4424a05509527332f6e8c78d59d", "is_reserved": 0, "lon": -77.02414316666666, "is_disabled": 0, "fusion_lat": 0.0, "lat": 38.92804833333334, "bike_id": "3670b4424a05509527332f6e8c78d59d", "fusion_lon": 0.0}, {"rental_uris": {"ios": "https://dc.lft.to/lastmile_qr_scan", "android": "https://dc.lft.to/lastmile_qr_scan"}, "type": "electric_scooter", "name": "42ced4b8ef7ce744b1c6232a9489ca75", "is_reserved": 0, "lon": -77.0245445, "is_disabled": 0, "fusion_lat": 0.0, "lat": 38.937933666666666, "bike_id": "42ced4b8ef7ce744b1c6232a9489ca75", "fusion_lon": 0.0}, {"rental_uris": {"ios": "https://dc.lft.to/lastmile_qr_scan", "android": "https://dc.lft.to/lastmile_qr_scan"}, "type": "electric_bike", "name": "a3b9c5d6eb772d68ab333ed9da35148a", "is_reserved": 0, "lon": -77.00564383333334, "is_disabled": 0, "fusion_lat": 0.0, "lat": 38.879140166666666, "bike_id": "a3b9c5d6eb772d68ab333ed9da35148a", "fusion_lon": 0.0}, {"rental_uris": {"ios": "https://dc.lft.to/lastmile_qr_scan", "android": "https://dc.lft.to/lastmile_qr_scan"}, "type": "electric_scooter", "name": "629e4bc78c94b4eb56d7dc7226b9c3c1", "is_reserved": 0, "lon": -76.92656783333334, "is_disabled": 0, "fusion_lat": 0.0, "lat": 38.88234466666667, "bike_id": "629e4bc78c94b4eb56d7dc7226b9c3c1", "fusion_lon": 0.0}, {"rental_uris": {"ios": "https://dc.lft.to/lastmile_qr_scan", "android": "https://dc.lft.to/lastmile_qr_scan"}, "type": "electric_scooter", "name": "27d48bad08e3f98571d4c8168882f126", "is_reserved": 0, "lon": -77.0119705, "is_disabled": 0, "fusion_lat": 0.0, "lat": 38.896904666666664, "bike_id": "27d48bad08e3f98571d4c8168882f126", "fusion_lon": 0.0}, {"rental_uris": {"ios": "https://dc.lft.to/lastmile_qr_scan", "android": "https://dc.lft.to/lastmile_qr_scan"}, "type": "electric_bike", "name": "2d7e9b57331da3bc14e28f13082054cb", "is_reserved": 0, "lon": -77.02820133333333, "is_disabled": 0, "fusion_lat": 0.0, "lat": 38.96559933333333, "bike_id": "2d7e9b57331da3bc14e28f13082054cb", "fusion_lon": 0.0}, {"rental_uris": {"ios": "https://dc.lft.to/lastmile_qr_scan", "android": "https://dc.lft.to/lastmile_qr_scan"}, "type": "electric_scooter", "name": "5c152e5e63522cab7a3f1e1573c64eb3", "is_reserved": 0, "lon": -77.018443, "is_disabled": 0, "fusion_lat": 0.0, "lat": 38.95430283333334, "bike_id": "5c152e5e63522cab7a3f1e1573c64eb3", "fusion_lon": 0.0}, {"rental_uris": {"ios": "https://dc.lft.to/lastmile_qr_scan", "android": "https://dc.lft.to/lastmile_qr_scan"}, "type": "electric_scooter", "name": "29203dd8dd50c58de52a175bfe2ff3fc", "is_reserved": 0, "lon": -77.02919516666667, "is_disabled": 0, "fusion_lat": 0.0, "lat": 38.93452, "bike_id": "29203dd8dd50c58de52a175bfe2ff3fc", "fusion_lon": 0.0}, {"rental_uris": {"ios": "https://dc.lft.to/lastmile_qr_scan", "android": "https://dc.lft.to/lastmile_qr_scan"},