{"data": {"bikes": [{"is_disabled": 0, "fusion_lon": 0.0, "fusion_lat": 0.0, "lat": 38.990874833333336, "type": "electric_bike", "lon": -76.87496133333333, "bike_id": "4e7c1b6dbc824ef0a98e14105c0eb55b", "rental_uris": {"android": "https://dc.lft.to/lastmile_qr_scan", "ios": "https://dc.lft.to/lastmile_qr_scan"}, "name": "4e7c1b6dbc824ef0a98e14105c0eb55b", "is_reserved": 0}, {"is_disabled": 0, "fusion_lon": 0.0, "fusion_lat": 0.0, "lat": 38.928375333333335, "type": "electric_scooter", "lon": -77.01421883333333, "bike_id": "a7d895ce3fd7b101895b4f672e1c0134", "rental_uris": {"android": "https://dc.lft.to/lastmile_qr_scan", "ios": "https://dc.lft.to/lastmile_qr_scan"}, "name": "a7d895ce3fd7b101895b4f672e1c0134", "is_reserved": 0}, {"is_disabled": 0, "fusion_lon": 0.0, "fusion_lat": 0.0, "lat": 38.93783333333333, "type": "electric_scooter", "lon": -77.023073, "bike_id": "2546b7e11891f4d7b4e7d2385e4cd620", "rental_uris": {"android": "https://dc.lft.to/lastmile_qr_scan", "ios": "https://dc.lft.to/lastmile_qr_scan"}, "name": "2546b7e11891f4d7b4e7d2385e4cd620", "is_reserved": 0}, {"is_disabled": 0, "fusion_lon": 0.0, "fusion_lat": 0.0, "lat": 38.86355116666667, "type": "electric_scooter", "lon": -76.99070416666666, "bike_id": "fe078cf5c0b685d79f40f8aa4a5ec916", "rental_uris": {"android": "https://dc.lft.to/lastmile_qr_scan", "ios": "https://dc.lft.to/lastmile_qr_scan"}, "name": "fe078cf5c0b685d79f40f8aa4a5ec916", "is_reserved": 0}, {"is_disabled": 0, "fusion_lon": 0.0, "fusion_lat": 0.0, "lat": 38.905275, "type": "electric_scooter", "lon": -77.05013933333333, "bike_id": "d89c73ffcc9f432875f1b57f519193dd", "rental_uris": {"android": "https://dc.lft.to/lastmile_qr_scan", "ios": "https://dc.lft.to/lastmile_qr_scan"}, "name": "d89c73ffcc9f432875f1b57f519193dd", "is_reserved": 0}, {"is_disabled": 0, "fusion_lon": 0.0, "fusion_lat": 0.0, "lat": 38.91126, "type": "electric_scooter", "lon": -77.04207483333333, "bike_id": "94bfabd2122a6e37cc763e6861014720", "rental_uris": {"android": "https://dc.lft.to/lastmile_qr_scan", "ios": "https://dc.lft.to/lastmile_qr_scan"}, "name": "94bfabd2122a6e37cc763e6861014720", "is_reserved": 0}, {"is_disabled": 0, "fusion_lon": 0.0, "fusion_lat": 0.0, "lat": 38.907786, "type": "electric_scooter", "lon": -77.03195316666667, "bike_id": "5514dc0801cf7e25a6c2949b6fabdd0f", "rental_uris": {"android": "https://dc.lft.to/lastmile_qr_scan", "ios": "https://dc.lft.to/lastmile_qr_scan"}, "name": "5514dc0801cf7e25a6c2949b6fabdd0f", "is_reserved": 0}, {"is_disabled": 0, "fusion_lon": 0.0, "fusion_lat": 0.0, "lat": 38.9008625, "type": "electric_scooter", "lon": -77.04876983333334, "bike_id": "c8369e7d10e48103f10acbeaa886cd9b", "rental_uris": {"android": "https://dc.lft.to/lastmile_qr_scan", "ios": "https://dc.lft.to/lastmile_qr_scan"}, "name": "c8369e7d10e48103f10acbeaa886cd9b", "is_reserved": 0}, {"is_disabled": 0, "fusion_lon": 0.0, "fusion_lat": 0.0, "lat": 38.990659666666666, "type": "electric_bike", "lon": -77.10031516666666, "bike_id": "c163cc57b890802dc91af1d0095ddf01", "rental_uris": {"android": "https://dc.lft.to/lastmile_qr_scan", "ios": "https://dc.lft.to/lastmile_qr_scan"}, "name": "c163cc57b890802dc91af1d0095ddf01", "is_reserved": 0}, {"is_disabled": 0, "fusion_lon": 0.0, "fusion_lat": 0.0, "lat": 38.90589533333333, "type": "electric_scooter", "lon": -77.04177416666667, "bike_id": "af6ea8b338662acf0c1b84b66e9cf6f7", "rental_uris": {"android": "https://dc.lft.to/lastmile_qr_scan", "ios": "https://dc.lft.to/lastmile_qr_scan"}, "name": "af6ea8b338662acf0c1b84b66e9cf6f7", "is_reserved": 0}, {"is_disabled": 0, "fusion_lon": 0.0, "fusion_lat": 0.0, "lat": 38.912750333333335, "type": "electric_scooter", "lon": -77.02246716666667, "bike_id": "f1a5fabd7ebcc85d7a17c5344225180a", "rental_uris": {"android": "https://dc.lft.to/lastmile_qr_scan", "ios": "https://dc.lft.to/lastmile_qr_scan"}, "name": "f1a5fabd7ebcc85d7a17c5344225180a", "is_reserved": 0}, {"is_disabled": 0, "fusion_lon": 0.0, "fusion_lat": 0.0, "lat": 38.930733000000004, "type": "electric_scooter", "lon": -77.03807466666666, "bike_id": "19110e43487b3ffd5148fa94ca8a3d1f", "rental_uris": {"android": "https://dc.lft.to/lastmile_qr_scan", "ios": "https://dc.lft.to/lastmile_qr_scan"}, "name": "19110e43487b3ffd5148fa94ca8a3d1f", "is_reserved": 0}, {"is_disabled": 0, "fusion_lon": 0.0, "fusion_lat": 0.0, "lat": 38.89478416666667, "type": "electric_scooter", "lon": -76.9941455, "bike_id": "58e6d22979c051d4be43ba444d4dcdb0", "rental_uris": {"android": "https://dc.lft.to/lastmile_qr_scan", "ios": "https://dc.lft.to/lastmile_qr_scan"}, "name": "58e6d22979c051d4be43ba444d4dcdb0", "is_reserved": 0}, {"is_disabled": 0, "fusion_lon": 0.0, "fusion_lat": 0.0, "lat": 38.908492, "type": "electric_scooter", "lon": -77.03184633333333, "bike_id": "e6f5b48754a195a9f462733c13946079", "rental_uris": {"android": "https://dc.lft.to/lastmile_qr_scan", "ios": "https://dc.lft.to/lastmile_qr_scan"}, "name": "e6f5b48754a195a9f462733c13946079", "is_reserved": 0}, {"is_disabled": 0, "fusion_lon": 0.0, "fusion_lat": 0.0, "lat": 38.8886735, "type": "electric_scooter", "lon": -77.04001166666667, "bike_id": "e1b300f87c7d756b146a71dd904212d5", "rental_uris": {"android": "https://dc.lft.to/lastmile_qr_scan", "ios": "https://dc.lft.to/lastmile_qr_scan"}, "name": "e1b300f87c7d756b146a71dd904212d5", "is_reserved": 0}, {"is_disabled": 0, "fusion_lon": 0.0, "fusion_lat": 0.0, "lat": 38.92909183333333, "type": "electric_scooter", "lon": -77.0143315, "bike_id": "3971f98167cfa1de564f4f145c322458", "rental_uris": {"android": "https://dc.lft.to/lastmile_qr_scan", "ios": "https://dc.lft.to/lastmile_qr_scan"}, "name": "3971f98167cfa1de564f4f145c322458", "is_reserved": 0}, {"is_disabled": 0, "fusion_lon": 0.0, "fusion_lat": 0.0, "lat": 38.90123116666667, "type": "electric_scooter", "lon": -77.04997066666667, "bike_id": "ef131e49985025f4b764a5c8843c47ce", "rental_uris": {"android": "https://dc.lft.to/lastmile_qr_scan", "ios": "https://dc.lft.to/lastmile_qr_scan"}, "name": "ef131e49985025f4b764a5c8843c47ce", "is_reserved": 0}, {"is_disabled": 0, "fusion_lon": 0.0, "fusion_lat": 0.0, "lat": 38.918395333333336, "type": "electric_scooter", "lon": -77.072127, "bike_id": "76b7b37e3bc08f710571181fd5c36fff", "rental_uris": {"android": "https://dc.lft.to/lastmile_qr_scan", "ios": "https://dc.lft.to/lastmile_qr_scan"}, "name": "76b7b37e3bc08f710571181fd5c36fff", "is_reserved": 0}, {"is_disabled": 0, "fusion_lon": 0.0, "fusion_lat": 0.0, "lat": 38.91270566666667, "type": "electric_scooter", "lon": -77.02224533333333, "bike_id": "83bae7a3122d5d16ae0ede3643a4e0be", "rental_uris": {"android": "https://dc.lft.to/lastmile_qr_scan", "ios": "https://dc.lft.to/lastmile_qr_scan"}, "name": "83bae7a3122d5d16ae0ede3643a4e0be", "is_reserved": 0}, {"is_disabled": 0, "fusion_lon": 0.0, "fusion_lat": 0.0, "lat": 38.90602716666667, "type": "electric_scooter", "lon": -77.05713216666666, "bike_id": "3685900c671de88e9b40909c9c960ff1", "rental_uris": {"android": "https://dc.lft.to/lastmile_qr_scan", "ios": "https://dc.lft.to/lastmile_qr_scan"}, "name": "3685900c671de88e9b40909c9c960ff1", "is_reserved": 0}, {"is_disabled": 0, "fusion_lon": 0.0, "fusion_lat": 0.0, "lat": 38.92531483333333, "type": "electric_scooter", "lon": -77.0765995, "bike_id": "942478f1a4b1b48330f9e509ef53d4a8", "rental_uris": {"android": "https://dc.lft.to/lastmile_qr_scan", "ios": "https://dc.lft.to/lastmile_qr_scan"}, "name": "942478f1a4b1b48330f9e509ef53d4a8", "is_reserved": 0}, {"is_disabled": 0, "fusion_lon": 0.0, "fusion_lat": 0.0, "lat": 38.91704283333333, "type": "electric_scooter", "lon": -77.03686283333333, "bike_id": "04053f8d01b46ddf27ad307d9daa288e", "rental_uris": {"android": "https://dc.lft.to/lastmile_qr_scan", "ios": "https://dc.lft.to/lastmile_qr_scan"}, "name": "04053f8d01b46ddf27ad307d9daa288e", "is_reserved": 0}, {"is_disabled": 0, "fusion_lon": 0.0, "fusion_lat": 0.0, "lat": 38.925875833333336, "type": "electric_scooter", "lon": -77.02868316666667, "bike_id": "cbabbae1bdfb290a3359320ba55b5d21", "rental_uris": {"android": "https://dc.lft.to/lastmile_qr_scan", "ios": "https://dc.lft.to/lastmile_qr_scan"}, "name": "cbabbae1bdfb290a3359320ba55b5d21", "is_reserved": 0}, {"is_disabled": 0, "fusion_lon": 0.0, "fusion_lat": 0.0, "lat": 38.8922445, "type": "electric_scooter", "lon": -77.04867566666667, "bike_id": "6f152c92285cb3ad6f098ff9d8ebc0b5", "rental_uris": {"android": "https://dc.lft.to/lastmile_qr_scan", "ios": "https://dc.lft.to/lastmile_qr_scan"}, "name": "6f152c92285cb3ad6f098ff9d8ebc0b5", "is_reserved": 0}, {"is_disabled": 0, "fusion_lon": 0.0, "fusion_lat": 0.0, "lat": 38.92825366666667, "type": "electric_scooter", "lon": -77.022556, "bike_id": "2cef4a7abd98756114d7d2f6fe8b3b77", "rental_uris": {"android": "https://dc.lft.to/lastmile_qr_scan", "ios": "https://dc.lft.to/lastmile_qr_scan"}, "name": "2cef4a7abd98756114d7d2f6fe8b3b77", "is_reserved": 0}, {"is_disabled": 0, "fusion_lon": 0.0, "fusion_lat": 0.0, "lat": 38.906765166666666, "type": "electric_scooter", "lon": -77.02711516666666, "bike_id": "7c91850d13d5cca7979bfa17c18cf249", "rental_uris": {"android": "https://dc.lft.to/lastmile_qr_scan", "ios": "https://dc.lft.to/lastmile_qr_scan"}, "name": "7c91850d13d5cca7979bfa17c18cf249", "is_reserved": 0}, {"is_disabled": 0, "fusion_lon": 0.0, "fusion_lat": 0.0, "lat": 38.918557166666666, "type": "electric_bike", "lon": -76.960887, "bike_id": "a3363ada316396156797f32b142713ec", "rental_uris": {"android": "https://dc.lft.to/lastmile_qr_scan", "ios": "https://dc.lft.to/lastmile_qr_scan"}, "name": "a3363ada316396156797f32b142713ec", "is_reserved": 0}, {"is_disabled": 0, "fusion_lon": 0.0, "fusion_lat": 0.0, "lat": 38.833493833333335, "type": "electric_bike", "lon": -76.96562466666667, "bike_id": "8150e7e81df7ad72e2d6dc04b0840a8f", "rental_uris": {"android": "https://dc.lft.to/lastmile_qr_scan", "ios": "https://dc.lft.to/lastmile_qr_scan"}, "name": "8150e7e81df7ad72e2d6dc04b0840a8f", "is_reserved": 0}, {"is_disabled": 0, "fusion_lon": 0.0, "fusion_lat": 0.0, "lat": 38.930882833333335, "type": "electric_scooter", "lon": -77.025531, "bike_id": "41890a0c9833547e98d797c4fef035cb", "rental_uris": {"android": "https://dc.lft.to/lastmile_qr_scan", "ios": "https://dc.lft.to/lastmile_qr_scan"}, "name": "41890a0c9833547e98d797c4fef035cb", "is_reserved": 0}, {"is_disabled": 0, "fusion_lon": 0.0, "fusion_lat": 0.0, "lat": 38.890435833333335, "type": "electric_scooter", "lon": -77.00134033333333, "bike_id": "3e50d513289a7d71d5e747548802b27a", "rental_uris": {"android": "https://dc.lft.to/lastmile_qr_scan", "ios": "https://dc.lft.to/lastmile_qr_scan"}, "name": "3e50d513289a7d71d5e747548802b27a", "is_reserved": 0}, {"is_disabled": 0, "fusion_lon": 0.0, "fusion_lat": 0.0, "lat": 38.9013015, "type": "electric_scooter", "lon": -77.03045316666666, "bike_id": "226885110d8dbcc93cdfa4b3e3c80c2d", "rental_uris": {"android": "https://dc.lft.to/lastmile_qr_scan", "ios": "https://dc.lft.to/lastmile_qr_scan"}, "name": "226885110d8dbcc93cdfa4b3e3c80c2d", "is_reserved": 0}, {"is_disabled": 0, "fusion_lon": 0.0, "fusion_lat": 0.0, "lat": 38.91651366666667, "type": "electric_scooter", "lon": -77.03468733333334, "bike_id": "56b66576c558380d0a36c923669b2374", "rental_uris": {"android": "https://dc.lft.to/lastmile_qr_scan", "ios": "https://dc.lft.to/lastmile_qr_scan"}, "name": "56b66576c558380d0a36c923669b2374", "is_reserved": 0}, {"is_disabled": 0, "fusion_lon": 0.0, "fusion_lat": 0.0, "lat": 38.90459283333333, "type": "electric_scooter", "lon": -77.03790233333334, "bike_id": "12742d7fd36df9408c4be2281e97f05e", "rental_uris": {"android": "https://dc.lft.to/lastmile_qr_scan", "ios": "https://dc.lft.to/lastmile_qr_scan"}, "name": "12742d7fd36df9408c4be2281e97f05e", "is_reserved": 0}, {"is_disabled": 0, "fusion_lon": 0.0, "fusion_lat": 0.0, "lat": 38.882502833333334, "type": "electric_scooter", "lon": -77.00351633333334, "bike_id": "f704b8d430351960473a8286928cd2fd", "rental_uris": {"android": "https://dc.lft.to/lastmile_qr_scan", "ios": "https://dc.lft.to/lastmile_qr_scan"}, "name": "f704b8d430351960473a8286928cd2fd", "is_reserved": 0}, {"is_disabled": 0, "fusion_lon": 0.0, "fusion_lat": 0.0, "lat": 38.895306166666664, "type": "electric_scooter", "lon": -77.01087733333334, "bike_id": "b1387c3e31342c4cef4b7e18e8dc58a1", "rental_uris": {"android": "https://dc.lft.to/lastmile_qr_scan", "ios": "https://dc.lft.to/lastmile_qr_scan"}, "name": "b1387c3e31342c4cef4b7e18e8dc58a1", "is_reserved": 0}, {"is_disabled": 0, "fusion_lon": 0.0, "fusion_lat": 0.0, "lat": 38.868439333333335, "type": "electric_bike", "lon": -77.0973085, "bike_id": "17ee3e804e6c4ed4e186c9af3a88b218", "rental_uris": {"android": "https://dc.lft.to/lastmile_qr_scan", "ios": "https://dc.lft.to/lastmile_qr_scan"}, "name": "17ee3e804e6c4ed4e186c9af3a88b218", "is_reserved": 0}, {"is_disabled": 0, "fusion_lon": 0.0, "fusion_lat": 0.0, "lat": 38.917151833333335, "type": "electric_scooter", "lon": -77.036734, "bike_id": "6ede2c5dc3ca68d50622c042f82e1dce", "rental_uris": {"android": "https://dc.lft.to/lastmile_qr_scan", "ios": "https://dc.lft.to/lastmile_qr_scan"}, "name": "6ede2c5dc3ca68d50622c042f82e1dce", "is_reserved": 0}, {"is_disabled": 0, "fusion_lon": 0.0, "fusion_lat": 0.0, "lat": 38.89357183333333, "type": "electric_scooter", "lon": -76.98469733333333, "bike_id": "10ccedf40b1c8e256f2bf1afba907bd6", "rental_uris": {"android": "https://dc.lft.to/lastmile_qr_scan", "ios": "https://dc.lft.to/lastmile_qr_scan"}, "name": "10ccedf40b1c8e256f2bf1afba907bd6", "is_reserved": 0}, {"is_disabled": 0, "fusion_lon": 0.0, "fusion_lat": 0.0, "lat": 38.90121716666667, "type": "electric_scooter", "lon": -77.01765566666667, "bike_id": "389c1f12a6c2a10d76dbce743b5a39bd", "rental_uris": {"android": "https://dc.lft.to/lastmile_qr_scan", "ios": "https://dc.lft.to/lastmile_qr_scan"}, "name": "389c1f12a6c2a10d76dbce743b5a39bd", "is_reserved": 0}, {"is_disabled": 0, "fusion_lon": 0.0, "fusion_lat": 0.0, "lat": 38.8832645, "type": "electric_scooter", "lon": -77.016786, "bike_id": "62e4552937dbe33f8020bceabe1a25d5", "rental_uris": {"android": "https://dc.lft.to/lastmile_qr_scan", "ios": "https://dc.lft.to/lastmile_qr_scan"}, "name": "62e4552937dbe33f8020bceabe1a25d5", "is_reserved": 0}, {"is_disabled": 0, "fusion_lon": 0.0, "fusion_lat": 0.0, "lat": 38.880188, "type": "electric_scooter", "lon": -76.98239733333334, "bike_id": "ad80a95290f9277e927f84659b2f9685", "rental_uris": {"android": "https://dc.lft.to/lastmile_qr_scan", "ios": "https://dc.lft.to/lastmile_qr_scan"}, "name": "ad80a95290f9277e927f84659b2f9685", "is_reserved": 0}, {"is_disabled": 0, "fusion_lon": 0.0, "fusion_lat": 0.0, "lat": 38.88730133333333, "type": "electric_scooter", "lon": -77.01744183333334, "bike_id": "ca5565048c3e14011fb3ba8f2007994a", "rental_uris": {"android": "https://dc.lft.to/lastmile_qr_scan", "ios": "https://dc.lft.to/lastmile_qr_scan"}, "name": "ca5565048c3e14011fb3ba8f2007994a", "is_reserved": 0}, {"is_disabled": 0, "fusion_lon": 0.0, "fusion_lat": 0.0, "lat": 38.8935755, "type": "electric_scooter", "lon": -77.02225583333333, "bike_id": "0c1d55fff1106bdd06888f515aedf86b", "rental_uris": {"android": "https://dc.lft.to/lastmile_qr_scan", "ios": "https://dc.lft.to/lastmile_qr_scan"}, "name": "0c1d55fff1106bdd06888f515aedf86b", "is_reserved": 0}, {"is_disabled": 0, "fusion_lon": 0.0, "fusion_lat": 0.0, "lat": 38.939618, "type": "electric_scooter", "lon": -77.027516, "bike_id": "024eb6ea3ccbdfe7005dd4ffa37a48ea", "rental_uris": {"android": "https://dc.lft.to/lastmile_qr_scan", "ios": "https://dc.lft.to/lastmile_qr_scan"}, "name": "024eb6ea3ccbdfe7005dd4ffa37a48ea", "is_reserved": 0}, {"is_disabled": 0, "fusion_lon": 0.0, "fusion_lat": 0.0, "lat": 38.940893833333334, "type": "electric_scooter", "lon": -77.03818816666667, "bike_id": "4c214925ea7dca8c6f7fed03a1010bc2", "rental_uris": {"android": "https://dc.lft.to/lastmile_qr_scan", "ios": "https://dc.lft.to/lastmile_qr_scan"}, "name": "4c214925ea7dca8c6f7fed03a1010bc2", "is_reserved": 0}, {"is_disabled": 0, "fusion_lon": 0.0, "fusion_lat": 0.0, "lat": 38.909607, "type": "electric_scooter", "lon": -77.039431, "bike_id": "3a55d4282dd3ee1b8bac8cd8bf0117e8", "rental_uris": {"android": "https://dc.lft.to/lastmile_qr_scan", "ios": "https://dc.lft.to/lastmile_qr_scan"}, "name": "3a55d4282dd3ee1b8bac8cd8bf0117e8", "is_reserved": 0}, {"is_disabled": 0, "fusion_lon": 0.0, "fusion_lat": 0.0, "lat": 38.90123716666667, "type": "electric_scooter", "lon": -77.03984683333333, "bike_id": "619e0322022082150891165061d39b61", "rental_uris": {"android": "https://dc.lft.to/lastmile_qr_scan", "ios": "https://dc.lft.to/lastmile_qr_scan"}, "name": "619e0322022082150891165061d39b61", "is_reserved": 0}, {"is_disabled": 0, "fusion_lon": 0.0, "fusion_lat": 0.0, "lat": 38.915620833333335, "type": "electric_scooter", "lon": -77.03839933333333, "bike_id": "6adba9486ca32ac61cd7e5bbfcdefaec", "rental_uris": {"android": "https://dc.lft.to/lastmile_qr_scan", "ios": "https://dc.lft.to/lastmile_qr_scan"}, "name": "6adba9486ca32ac61cd7e5bbfcdefaec", "is_reserved": 0}, {"is_disabled": 0, "fusion_lon": 0.0, "fusion_lat": 0.0, "lat": 38.92907833333334, "type": "electric_scooter", "lon": -77.02265966666667, "bike_id": "bf75d94a8921fe539b168a173c4a912b", "rental_uris": {"android": "https://dc.lft.to/lastmile_qr_scan", "ios": "https://dc.lft.to/lastmile_qr_scan"}, "name": "bf75d94a8921fe539b168a173c4a912b", "is_reserved": 0}, {"is_disabled": 0, "fusion_lon": 0.0, "fusion_lat": 0.0, "lat": 38.937037833333335, "type": "electric_scooter", "lon": -77.06105533333333, "bike_id": "c83a42f725cf2a22d64c61f7b847c437", "rental_uris": {"android": "https://dc.lft.to/lastmile_qr_scan", "ios": "https://dc.lft.to/lastmile_qr_scan"}, "name": "c83a42f725cf2a22d64c61f7b847c437", "is_reserved": 0}, {"is_disabled": 0, "fusion_lon": 0.0, "fusion_lat": 0.0, "lat": 38.905064833333334, "type": "electric_scooter", "lon": -76.99530866666667, "bike_id": "d581e52a16fe6462bc4f78b6ed0d9060", "rental_uris": {"android": "https://dc.lft.to/lastmile_qr_scan", "ios": "https://dc.lft.to/lastmile_qr_scan"}, "name": "d581e52a16fe6462bc4f78b6ed0d9060", "is_reserved": 0}, {"is_disabled": 0, "fusion_lon": 0.0, "fusion_lat": 0.0, "lat": 38.918617833333336, "type": "electric_bike", "lon": -76.96090033333333, "bike_id": "69b48c7201aa3bac43700c86c0878f6b", "rental_uris": {"android": "https://dc.lft.to/lastmile_qr_scan", "ios": "https://dc.lft.to/lastmile_qr_scan"}, "name": "69b48c7201aa3bac43700c86c0878f6b", "is_reserved": 0}, {"is_disabled": 0, "fusion_lon": 0.0, "fusion_lat": 0.0, "lat": 38.9155785, "type": "electric_scooter", "lon": -77.038429, "bike_id": "bfeb1b6c3eee7b386e142ac0aab0cf04", "rental_uris": {"android": "https://dc.lft.to/lastmile_qr_scan", "ios": "https://dc.lft.to/lastmile_qr_scan"}, "name": "bfeb1b6c3eee7b386e142ac0aab0cf04", "is_reserved": 0}, {"is_disabled": 0, "fusion_lon": 0.0, "fusion_lat": 0.0, "lat": 38.938288666666665, "type": "electric_scooter", "lon": -77.027951, "bike_id": "a008b72729f7e07ee8789d06787999a6", "rental_uris": {"android": "https://dc.lft.to/lastmile_qr_scan", "ios": "https://dc.lft.to/lastmile_qr_scan"}, "name": "a008b72729f7e07ee8789d06787999a6", "is_reserved": 0}, {"is_disabled": 0, "fusion_lon": 0.0, "fusion_lat": 0.0, "lat": 38.810259333333335, "type": "electric_bike", "lon": -77.08438316666667, "bike_id": "6ba110cee7688412386c280b6b4abe2b", "rental_uris": {"android": "https://dc.lft.to/lastmile_qr_scan", "ios": "https://dc.lft.to/lastmile_qr_scan"}, "name": "6ba110cee7688412386c280b6b4abe2b", "is_reserved": 0}, {"is_disabled": 0, "fusion_lon": 0.0, "fusion_lat": 0.0, "lat": 38.92326933333333, "type": "electric_scooter", "lon": -77.04190033333333, "bike_id": "dfb305789b83806350e43edcd9449a5b", "rental_uris": {"android": "https://dc.lft.to/lastmile_qr_scan", "ios": "https://dc.lft.to/lastmile_qr_scan"}, "name": "dfb305789b83806350e43edcd9449a5b", "is_reserved": 0}, {"is_disabled": 0, "fusion_lon": 0.0, "fusion_lat": 0.0, "lat": 38.86958966666667, "type": "electric_scooter", "lon": -76.96031883333333, "bike_id": "435b87d764d747193587429288e036aa", "rental_uris": {"android": "https://dc.lft.to/lastmile_qr_scan", "ios": "https://dc.lft.to/lastmile_qr_scan"}, "name": "435b87d764d747193587429288e036aa", "is_reserved": 0}, {"is_disabled": 0, "fusion_lon": 0.0, "fusion_lat": 0.0, "lat": 38.9193395, "type": "electric_bike", "lon": -76.975048, "bike_id": "92c2043fd91c9a02a449759e19d63958", "rental_uris": {"android": "https://dc.lft.to/lastmile_qr_scan", "ios": "https://dc.lft.to/lastmile_qr_scan"}, "name": "92c2043fd91c9a02a449759e19d63958", "is_reserved": 0}, {"is_disabled": 0, "fusion_lon": 0.0, "fusion_lat": 0.0, "lat": 38.90010766666666, "type": "electric_scooter", "lon": -77.033275, "bike_id": "2c8a48656dd3be17f41cbb2bb4be54dc", "rental_uris": {"android": "https://dc.lft.to/lastmile_qr_scan", "ios": "https://dc.lft.to/lastmile_qr_scan"}, "name": "2c8a48656dd3be17f41cbb2bb4be54dc", "is_reserved": 0}, {"is_disabled": 0, "fusion_lon": 0.0, "fusion_lat": 0.0, "lat": 38.909583166666664, "type": "electric_scooter", "lon": -77.02377516666667, "bike_id": "18d7e02c7cbe561ebe3ed63881ea2cf5", "rental_uris": {"android": "https://dc.lft.to/lastmile_qr_scan", "ios": "https://dc.lft.to/lastmile_qr_scan"}, "name": "18d7e02c7cbe561ebe3ed63881ea2cf5", "is_reserved": 0}, {"is_disabled": 0, "fusion_lon": 0.0, "fusion_lat": 0.0, "lat": 38.905319166666665, "type": "electric_scooter", "lon": -77.06534266666667, "bike_id": "dea353462e57b03539a4df5596c48d69", "rental_uris": {"android": "https://dc.lft.to/lastmile_qr_scan", "ios": "https://dc.lft.to/lastmile_qr_scan"}, "name": "dea353462e57b03539a4df5596c48d69", "is_reserved": 0}, {"is_disabled": 0, "fusion_lon": 0.0, "fusion_lat": 0.0, "lat": 38.94301933333333, "type": "electric_scooter", "lon": -77.02764566666667, "bike_id": "94f7ca42574b83562c1e8d9dd2b0e339", "rental_uris": {"android": "https://dc.lft.to/lastmile_qr_scan", "ios": "https://dc.lft.to/lastmile_qr_scan"}, "name": "94f7ca42574b83562c1e8d9dd2b0e339", "is_reserved": 0}, {"is_disabled": 0, "fusion_lon": 0.0, "fusion_lat": 0.0, "lat": 38.9189765, "type": "electric_scooter", "lon": -77.071167, "bike_id": "702042e81f38421ee3534e4de956d28e", "rental_uris": {"android": "https://dc.lft.to/lastmile_qr_scan", "ios": "https://dc.lft.to/lastmile_qr_scan"}, "name": "702042e81f38421ee3534e4de956d28e", "is_reserved": 0}, {"is_disabled": 0, "fusion_lon": 0.0, "fusion_lat": 0.0, "lat": 38.89411783333333, "type": "electric_scooter", "lon": -77.01090566666667, "bike_id": "01070c08619627342ee2c6350f4991a5", "rental_uris": {"android": "https://dc.lft.to/lastmile_qr_scan", "ios": "https://dc.lft.to/lastmile_qr_scan"}, "name": "01070c08619627342ee2c6350f4991a5", "is_reserved": 0}, {"is_disabled": 0, "fusion_lon": 0.0, "fusion_lat": 0.0, "lat": 38.92071383333333, "type": "electric_scooter", "lon": -77.0437935, "bike_id": "d921f80aaf8ae6eaaca3fe2ec8c69dcb", "rental_uris": {"android": "https://dc.lft.to/lastmile_qr_scan", "ios": "https://dc.lft.to/lastmile_qr_scan"}, "name": "d921f80aaf8ae6eaaca3fe2ec8c69dcb", "is_reserved": 0}, {"is_disabled": 0, "fusion_lon": 0.0, "fusion_lat": 0.0, "lat": 38.9258215, "type": "electric_scooter", "lon": -77.0321145, "bike_id": "484a1945a8e0a9dd5b37b3c6c2d0bd76", "rental_uris": {"android": "https://dc.lft.to/lastmile_qr_scan", "ios": "https://dc.lft.to/lastmile_qr_scan"}, "name": "484a1945a8e0a9dd5b37b3c6c2d0bd76", "is_reserved": 0}, {"is_disabled": 0, "fusion_lon": 0.0, "fusion_lat": 0.0, "lat": 38.988258, "type": "electric_bike", "lon": -76.987502, "bike_id": "f711e7d15ff81777c9c6e3e5bb9daa77", "rental_uris": {"android": "https://dc.lft.to/lastmile_qr_scan", "ios": "https://dc.lft.to/lastmile_qr_scan"}, "name": "f711e7d15ff81777c9c6e3e5bb9daa77", "is_reserved": 0}, {"is_disabled": 0, "fusion_lon": 0.0, "fusion_lat": 0.0, "lat": 38.90957566666667, "type": "electric_scooter", "lon": -77.02281616666667, "bike_id": "ac14c1de34beb8b803ef0da2bbbac84b", "rental_uris": {"android": "https://dc.lft.to/lastmile_qr_scan", "ios": "https://dc.lft.to/lastmile_qr_scan"}, "name": "ac14c1de34beb8b803ef0da2bbbac84b", "is_reserved": 0}, {"is_disabled": 0, "fusion_lon": 0.0, "fusion_lat": 0.0, "lat": 38.89525616666667, "type": "electric_scooter", "lon": -77.02844333333333, "bike_id": "7871cf2e3da1d114909b1eac4808966a", "rental_uris": {"android": "https://dc.lft.to/lastmile_qr_scan", "ios": "https://dc.lft.to/lastmile_qr_scan"}, "name": "7871cf2e3da1d114909b1eac4808966a", "is_reserved": 0}, {"is_disabled": 0, "fusion_lon": 0.0, "fusion_lat": 0.0, "lat": 38.92034683333333, "type": "electric_scooter", "lon": -77.025891, "bike_id": "2a489ad7b7db860cda0dda69299846a2", "rental_uris": {"android": "https://dc.lft.to/lastmile_qr_scan", "ios": "https://dc.lft.to/lastmile_qr_scan"}, "name": "2a489ad7b7db860cda0dda69299846a2", "is_reserved": 0}, {"is_disabled": 0, "fusion_lon": 0.0, "fusion_lat": 0.0, "lat": 38.9070425, "type": "electric_scooter", "lon": -77.02694383333333, "bike_id": "44200816c5ae90bf60b83fff840eaa4e", "rental_uris": {"android": "https://dc.lft.to/lastmile_qr_scan", "ios": "https://dc.lft.to/lastmile_qr_scan"}, "name": "44200816c5ae90bf60b83fff840eaa4e", "is_reserved": 0}, {"is_disabled": 0, "fusion_lon": 0.0, "fusion_lat": 0.0, "lat": 38.9309685, "type": "electric_scooter", "lon": -77.0246105, "bike_id": "0559ab6862468ad3649bd039768bdb1c", "rental_uris": {"android": "https://dc.lft.to/lastmile_qr_scan", "ios": "https://dc.lft.to/lastmile_qr_scan"}, "name": "0559ab6862468ad3649bd039768bdb1c", "is_reserved": 0}, {"is_disabled": 0, "fusion_lon": 0.0, "fusion_lat": 0.0, "lat": 38.88515866666667, "type": "electric_scooter", "lon": -76.99850216666667, "bike_id": "a6c022ee9a69af05ad5e0b3792cf1f72", "rental_uris": {"android": "https://dc.lft.to/lastmile_qr_scan", "ios": "https://dc.lft.to/lastmile_qr_scan"}, "name": "a6c022ee9a69af05ad5e0b3792cf1f72", "is_reserved": 0}, {"is_disabled": 0, "fusion_lon": 0.0, "fusion_lat": 0.0, "lat": 38.91536716666667, "type": "electric_scooter", "lon": -77.031948, "bike_id": "da441866cdfbf89abefefae06289a037", "rental_uris": {"android": "https://dc.lft.to/lastmile_qr_scan", "ios": "https://dc.lft.to/lastmile_qr_scan"}, "name": "da441866cdfbf89abefefae06289a037", "is_reserved": 0}, {"is_disabled": 0, "fusion_lon": 0.0, "fusion_lat": 0.0, "lat": 38.875364166666664, "type": "electric_scooter", "lon": -77.01360283333334, "bike_id": "7288dccdfa34c4b1c35d09850d344b7d", "rental_uris": {"android": "https://dc.lft.to/lastmile_qr_scan", "ios": "https://dc.lft.to/lastmile_qr_scan"}, "name": "7288dccdfa34c4b1c35d09850d344b7d", "is_reserved": 0}, {"is_disabled": 0, "fusion_lon": 0.0, "fusion_lat": 0.0, "lat": 38.8965065, "type": "electric_scooter", "lon": -77.04344216666667, "bike_id": "3a5f78af59974d67ef7a1bd84ccde0b8", "rental_uris": {"android": "https://dc.lft.to/lastmile_qr_scan", "ios": "https://dc.lft.to/lastmile_qr_scan"}, "name": "3a5f78af59974d67ef7a1bd84ccde0b8", "is_reserved": 0}, {"is_disabled": 0, "fusion_lon": 0.0, "fusion_lat": 0.0, "lat": 38.92613083333333, "type": "electric_scooter", "lon": -77.04193616666667, "bike_id": "935fcd38f079d9ec95704bcf6db6dea7", "rental_uris": {"android": "https://dc.lft.to/lastmile_qr_scan", "ios": "https://dc.lft.to/lastmile_qr_scan"}, "name": "935fcd38f079d9ec95704bcf6db6dea7", "is_reserved": 0}, {"is_disabled": 0, "fusion_lon": 0.0, "fusion_lat": 0.0, "lat": 38.94442516666667, "type": "electric_scooter", "lon": -77.06026466666667, "bike_id": "a6547a07ba240acc10afafc8c3ea50cd", "rental_uris": {"android": "https://dc.lft.to/lastmile_qr_scan", "ios": "https://dc.lft.to/lastmile_qr_scan"}, "name": "a6547a07ba240acc10afafc8c3ea50cd", "is_reserved": 0}, {"is_disabled": 0, "fusion_lon": 0.0, "fusion_lat": 0.0, "lat": 38.996687333333334, "type": "electric_bike", "lon": -76.99144716666666, "bike_id": "4fed862c4aa47689d4be1218b3b05ce0", "rental_uris": {"android": "https://dc.lft.to/lastmile_qr_scan", "ios": "https://dc.lft.to/lastmile_qr_scan"}, "name": "4fed862c4aa47689d4be1218b3b05ce0", "is_reserved": 0}, {"is_disabled": 0, "fusion_lon": 0.0, "fusion_lat": 0.0, "lat": 38.87682366666667, "type": "electric_scooter", "lon": -77.0178375, "bike_id": "aad4f2f235ad77d0fdf4200de3e04d2c", "rental_uris": {"android": "https://dc.lft.to/lastmile_qr_scan", "ios": "https://dc.lft.to/lastmile_qr_scan"}, "name": "aad4f2f235ad77d0fdf4200de3e04d2c", "is_reserved": 0}, {"is_disabled": 0, "fusion_lon": 0.0, "fusion_lat": 0.0, "lat": 38.905810833333334, "type": "electric_scooter", "lon": -77.0466, "bike_id": "efe7ac9715e9b7550a7ebd3899e1f3d2", "rental_uris": {"android": "https://dc.lft.to/lastmile_qr_scan", "ios": "https://dc.lft.to/lastmile_qr_scan"}, "name": "efe7ac9715e9b7550a7ebd3899e1f3d2", "is_reserved": 0}, {"is_disabled": 0, "fusion_lon": 0.0, "fusion_lat": 0.0, "lat": 38.905452833333335, "type": "electric_scooter", "lon": -77.02696783333333, "bike_id": "3cc0d0effa8b0dfa11894c3e39cf8be6", "rental_uris": {"android": "https://dc.lft.to/lastmile_qr_scan", "ios": "https://dc.lft.to/lastmile_qr_scan"}, "name": "3cc0d0effa8b0dfa11894c3e39cf8be6", "is_reserved": 0}, {"is_disabled": 0, "fusion_lon": 0.0, "fusion_lat": 0.0, "lat": 38.933566666666664, "type": "electric_scooter", "lon": -77.0738205, "bike_id": "367c9a230d086d60894768ac3cebdacb", "rental_uris": {"android": "https://dc.lft.to/lastmile_qr_scan", "ios": "https://dc.lft.to/lastmile_qr_scan"}, "name": "367c9a230d086d60894768ac3cebdacb", "is_reserved": 0}, {"is_disabled": 0, "fusion_lon": 0.0, "fusion_lat": 0.0, "lat": 38.9097325, "type": "electric_scooter", "lon": -77.03870533333334, "bike_id": "9ad33b219f1a3ddddeed6bf6fac824fa", "rental_uris": {"android": "https://dc.lft.to/lastmile_qr_scan", "ios": "https://dc.lft.to/lastmile_qr_scan"}, "name": "9ad33b219f1a3ddddeed6bf6fac824fa", "is_reserved": 0}, {"is_disabled": 0, "fusion_lon": 0.0, "fusion_lat": 0.0, "lat": 38.923343333333335, "type": "electric_scooter", "lon": -77.04183416666666, "bike_id": "11b7a00e296c8ea671b59b08f24f21f0", "rental_uris": {"android": "https://dc.lft.to/lastmile_qr_scan", "ios": "https://dc.lft.to/lastmile_qr_scan"}, "name": "11b7a00e296c8ea671b59b08f24f21f0", "is_reserved": 0}, {"is_disabled": 0, "fusion_lon": 0.0, "fusion_lat": 0.0, "lat": 38.90058066666667, "type": "electric_scooter", "lon": -76.9338825, "bike_id": "9c0ebf9b7182a024e992a8b8b3565778", "rental_uris": {"android": "https://dc.lft.to/lastmile_qr_scan", "ios": "https://dc.lft.to/lastmile_qr_scan"}, "name": "9c0ebf9b7182a024e992a8b8b3565778", "is_reserved": 0}, {"is_disabled": 0, "fusion_lon": 0.0, "fusion_lat": 0.0, "lat": 38.931291, "type": "electric_scooter", "lon": -77.05728, "bike_id": "f5f3afe9695de9dcfd33c1c02cff92e8", "rental_uris": {"android": "https://dc.lft.to/lastmile_qr_scan", "ios": "https://dc.lft.to/lastmile_qr_scan"}, "name": "f5f3afe9695de9dcfd33c1c02cff92e8", "is_reserved": 0}, {"is_disabled": 0, "fusion_lon": 0.0, "fusion_lat": 0.0, "lat": 38.878959333333334, "type": "electric_scooter", "lon": -76.9352505, "bike_id": "43ee28e06e1ff9de86a7c304cd9def35", "rental_uris": {"android": "https://dc.lft.to/lastmile_qr_scan", "ios": "https://dc.lft.to/lastmile_qr_scan"}, "name": "43ee28e06e1ff9de86a7c304cd9def35", "is_reserved": 0}, {"is_disabled": 0, "fusion_lon": 0.0, "fusion_lat": 0.0, "lat": 38.913013666666664, "type": "electric_scooter", "lon": -77.03850783333333, "bike_id": "8fc9c3c0d91343a7b35923a3d4f232ba", "rental_uris": {"android": "https://dc.lft.to/lastmile_qr_scan", "ios": "https://dc.lft.to/lastmile_qr_scan"}, "name": "8fc9c3c0d91343a7b35923a3d4f232ba", "is_reserved": 0}, {"is_disabled": 0, "fusion_lon": 0.0, "fusion_lat": 0.0, "lat": 38.8995825, "type": "electric_scooter", "lon": -77.05151866666667, "bike_id": "34c06757ba11694f680d4ebb87e892b7", "rental_uris": {"android": "https://dc.lft.to/lastmile_qr_scan", "ios": "https://dc.lft.to/lastmile_qr_scan"}, "name": "34c06757ba11694f680d4ebb87e892b7", "is_reserved": 0}, {"is_disabled": 0, "fusion_lon": 0.0, "fusion_lat": 0.0, "lat": 38.936089333333335, "type": "electric_scooter", "lon": -77.05862983333333, "bike_id": "43dc44c9764b6094416370dde897e687", "rental_uris": {"android": "https://dc.lft.to/lastmile_qr_scan", "ios": "https://dc.lft.to/lastmile_qr_scan"}, "name": "43dc44c9764b6094416370dde897e687", "is_reserved": 0}, {"is_disabled": 0, "fusion_lon": 0.0, "fusion_lat": 0.0, "lat": 38.886036, "type": "electric_scooter", "lon": -77.01762433333333, "bike_id": "043e430ab8c0ec4644b3f878956f6a26", "rental_uris": {"android": "https://dc.lft.to/lastmile_qr_scan", "ios": "https://dc.lft.to/lastmile_qr_scan"}, "name": "043e430ab8c0ec4644b3f878956f6a26", "is_reserved": 0}, {"is_disabled": 0, "fusion_lon": 0.0, "fusion_lat": 0.0, "lat": 38.8842275, "type": "electric_scooter", "lon": -77.02968766666666, "bike_id": "8c42ed91413f261464b362334419569a", "rental_uris": {"android": "https://dc.lft.to/lastmile_qr_scan", "ios": "https://dc.lft.to/lastmile_qr_scan"}, "name": "8c42ed91413f261464b362334419569a", "is_reserved": 0}, {"is_disabled": 0, "fusion_lon": 0.0, "fusion_lat": 0.0, "lat": 38.88698383333333, "type": "electric_scooter", "lon": -77.03226083333334, "bike_id": "84801f7587319fd3b5e680f554259d8c", "rental_uris": {"android": "https://dc.lft.to/lastmile_qr_scan", "ios": "https://dc.lft.to/lastmile_qr_scan"}, "name": "84801f7587319fd3b5e680f554259d8c", "is_reserved": 0}, {"is_disabled": 0, "fusion_lon": 0.0, "fusion_lat": 0.0, "lat": 39.054577333333334, "type": "electric_bike", "lon": -77.14328233333333, "bike_id": "9d433e6619c1ecf480f5cbd4540ae8ff", "rental_uris": {"android": "https://dc.lft.to/lastmile_qr_scan", "ios": "https://dc.lft.to/lastmile_qr_scan"}, "name": "9d433e6619c1ecf480f5cbd4540ae8ff", "is_reserved": 0}, {"is_disabled": 0, "fusion_lon": 0.0, "fusion_lat": 0.0, "lat": 38.89387133333334, "type": "electric_scooter", "lon": -76.95000016666667, "bike_id": "c3d45f0d2c1272fa430607c22098e505", "rental_uris": {"android": "https://dc.lft.to/lastmile_qr_scan", "ios": "https://dc.lft.to/lastmile_qr_scan"}, "name": "c3d45f0d2c1272fa430607c22098e505", "is_reserved": 0}, {"is_disabled": 0, "fusion_lon": 0.0, "fusion_lat": 0.0, "lat": 38.896072333333336, "type": "electric_scooter", "lon": -77.0092925, "bike_id": "e7720ba51ae7e852a7beafc1ea78abad", "rental_uris": {"android": "https://dc.lft.to/lastmile_qr_scan", "ios": "https://dc.lft.to/lastmile_qr_scan"}, "name": "e7720ba51ae7e852a7beafc1ea78abad", "is_reserved": 0}, {"is_disabled": 0, "fusion_lon": 0.0, "fusion_lat": 0.0, "lat": 38.9050725, "type": "electric_scooter", "lon": -76.98240816666667, "bike_id": "40266f0cbfab8fc9640243ea25c5ae1a", "rental_uris": {"android": "https://dc.lft.to/lastmile_qr_scan", "ios": "https://dc.lft.to/lastmile_qr_scan"}, "name": "40266f0cbfab8fc9640243ea25c5ae1a", "is_reserved": 0}, {"is_disabled": 0, "fusion_lon": 0.0, "fusion_lat": 0.0, "lat": 38.90852833333334, "type": "electric_scooter", "lon": -77.05505016666666, "bike_id": "370d08c24a65dfc9fc2e36ed37666eb2", "rental_uris": {"android": "https://dc.lft.to/lastmile_qr_scan", "ios": "https://dc.lft.to/lastmile_qr_scan"}, "name": "370d08c24a65dfc9fc2e36ed37666eb2", "is_reserved": 0}, {"is_disabled": 0, "fusion_lon": 0.0, "fusion_lat": 0.0, "lat": 38.94591483333333, "type": "electric_bike", "lon": -77.34416433333334, "bike_id": "ef747ccb08e4aa5690d625c69b327be9", "rental_uris": {"android": "https://dc.lft.to/lastmile_qr_scan", "ios": "https://dc.lft.to/lastmile_qr_scan"}, "name": "ef747ccb08e4aa5690d625c69b327be9", "is_reserved": 0}, {"is_disabled": 0, "fusion_lon": 0.0, "fusion_lat": 0.0, "lat": 38.88744533333333, "type": "electric_scooter", "lon": -77.01432183333333, "bike_id": "d13600f099adda76b61bd7a9338ccd7d", "rental_uris": {"android": "https://dc.lft.to/lastmile_qr_scan", "ios": "https://dc.lft.to/lastmile_qr_scan"}, "name": "d13600f099adda76b61bd7a9338ccd7d", "is_reserved": 0}, {"is_disabled": 0, "fusion_lon": 0.0, "fusion_lat": 0.0, "lat": 38.92218783333333, "type": "electric_scooter", "lon": -77.0431325, "bike_id": "6ec01b23ad558ce159f1272529ddfeed", "rental_uris": {"android": "https://dc.lft.to/lastmile_qr_scan", "ios": "https://dc.lft.to/lastmile_qr_scan"}, "name": "6ec01b23ad558ce159f1272529ddfeed", "is_reserved": 0}, {"is_disabled": 0, "fusion_lon": 0.0, "fusion_lat": 0.0, "lat": 38.9230715, "type": "electric_scooter", "lon": -77.02255166666667, "bike_id": "cf5e04324760c95f0357e6b613c8a45b", "rental_uris": {"android": "https://dc.lft.to/lastmile_qr_scan", "ios": "https://dc.lft.to/lastmile_qr_scan"}, "name": "cf5e04324760c95f0357e6b613c8a45b", "is_reserved": 0}, {"is_disabled": 0, "fusion_lon": 0.0, "fusion_lat": 0.0, "lat": 38.902607833333334, "type": "electric_scooter", "lon": -77.003274, "bike_id": "e04813f658144798449d3ee8474cc635", "rental_uris": {"android": "https://dc.lft.to/lastmile_qr_scan", "ios": "https://dc.lft.to/lastmile_qr_scan"}, "name": "e04813f658144798449d3ee8474cc635", "is_reserved": 0}, {"is_disabled": 0, "fusion_lon": 0.0, "fusion_lat": 0.0, "lat": 38.906847, "type": "electric_scooter", "lon": -77.026944, "bike_id": "ebb50b167d2809b10b6f4a1eaccaef69", "rental_uris": {"android": "https://dc.lft.to/lastmile_qr_scan", "ios": "https://dc.lft.to/lastmile_qr_scan"}, "name": "ebb50b167d2809b10b6f4a1eaccaef69", "is_reserved": 0}, {"is_disabled": 0, "fusion_lon": 0.0, "fusion_lat": 0.0, "lat": 38.8451465, "type": "electric_bike", "lon": -77.07798233333334, "bike_id": "79fe51e0cb782acfad4da2bf70dae536", "rental_uris": {"android": "https://dc.lft.to/lastmile_qr_scan", "ios": "https://dc.lft.to/lastmile_qr_scan"}, "name": "79fe51e0cb782acfad4da2bf70dae536", "is_reserved": 0}, {"is_disabled": 0, "fusion_lon": 0.0, "fusion_lat": 0.0, "lat": 38.9008265, "type": "electric_scooter", "lon": -77.04995416666667, "bike_id": "e03b7249e93a75caad48554cfb52789b", "rental_uris": {"android": "https://dc.lft.to/lastmile_qr_scan", "ios": "https://dc.lft.to/lastmile_qr_scan"}, "name": "e03b7249e93a75caad48554cfb52789b", "is_reserved": 0}, {"is_disabled": 0, "fusion_lon": 0.0, "fusion_lat": 0.0, "lat": 38.89733833333333, "type": "electric_scooter", "lon": -77.00340783333333, "bike_id": "6553a0f253f98bdf1999f5fabd25e1ab", "rental_uris": {"android": "https://dc.lft.to/lastmile_qr_scan", "ios": "https://dc.lft.to/lastmile_qr_scan"}, "name": "6553a0f253f98bdf1999f5fabd25e1ab", "is_reserved": 0}, {"is_disabled": 0, "fusion_lon": 0.0, "fusion_lat": 0.0, "lat": 38.916784666666665, "type": "electric_scooter", "lon": -77.02721166666667, "bike_id": "aba8ab704040b5e2d13878409f6e7b37", "rental_uris": {"android": "https://dc.lft.to/lastmile_qr_scan", "ios": "https://dc.lft.to/lastmile_qr_scan"}, "name": "aba8ab704040b5e2d13878409f6e7b37", "is_reserved": 0}, {"is_disabled": 0, "fusion_lon": 0.0, "fusion_lat": 0.0, "lat": 38.90836733333333, "type": "electric_scooter", "lon": -76.99693516666666, "bike_id": "eaf0fddf77246b76d27eb9f26af65e98", "rental_uris": {"android": "https://dc.lft.to/lastmile_qr_scan", "ios": "https://dc.lft.to/lastmile_qr_scan"}, "name": "eaf0fddf77246b76d27eb9f26af65e98", "is_reserved": 0}, {"is_disabled": 0, "fusion_lon": 0.0, "fusion_lat": 0.0, "lat": 38.9226315, "type": "electric_bike", "lon": -77.07721566666666, "bike_id": "372dd4c7a0317ebbe4597b82bffc6a8e", "rental_uris": {"android": "https://dc.lft.to/lastmile_qr_scan", "ios": "https://dc.lft.to/lastmile_qr_scan"}, "name": "372dd4c7a0317ebbe4597b82bffc6a8e", "is_reserved": 0}, {"is_disabled": 0, "fusion_lon": 0.0, "fusion_lat": 0.0, "lat": 38.92051216666667, "type": "electric_scooter", "lon": -77.02614033333333, "bike_id": "d0e31314c6880c87f5fb27204125ccd1", "rental_uris": {"android": "https://dc.lft.to/lastmile_qr_scan", "ios": "https://dc.lft.to/lastmile_qr_scan"}, "name": "d0e31314c6880c87f5fb27204125ccd1", "is_reserved": 0}, {"is_disabled": 0, "fusion_lon": 0.0, "fusion_lat": 0.0, "lat": 38.905352, "type": "electric_scooter", "lon": -77.04719316666667, "bike_id": "f09f01c65fea74c4752facc98cee36b0", "rental_uris": {"android": "https://dc.lft.to/lastmile_qr_scan", "ios": "https://dc.lft.to/lastmile_qr_scan"}, "name": "f09f01c65fea74c4752facc98cee36b0", "is_reserved": 0}, {"is_disabled": 0, "fusion_lon": 0.0, "fusion_lat": 0.0, "lat": 38.902094166666664, "type": "electric_scooter", "lon": -77.03941283333333, "bike_id": "9b420173041fc46b18489c6bbf5bca4a", "rental_uris": {"android": "https://dc.lft.to/lastmile_qr_scan", "ios": "https://dc.lft.to/lastmile_qr_scan"}, "name": "9b420173041fc46b18489c6bbf5bca4a", "is_reserved": 0}, {"is_disabled": 0, "fusion_lon": 0.0, "fusion_lat": 0.0, "lat": 38.90735, "type": "electric_scooter", "lon": -77.03443183333333, "bike_id": "f90b3517a1741cc4a145c913d04f1908", "rental_uris": {"android": "https://dc.lft.to/lastmile_qr_scan", "ios": "https://dc.lft.to/lastmile_qr_scan"}, "name": "f90b3517a1741cc4a145c913d04f1908", "is_reserved": 0}, {"is_disabled": 0, "fusion_lon": 0.0, "fusion_lat": 0.0, "lat": 38.901695333333336, "type": "electric_scooter", "lon": -77.02489033333333, "bike_id": "3c1875b660dd31a8f2b64c71fc15569f", "rental_uris": {"android": "https://dc.lft.to/lastmile_qr_scan", "ios": "https://dc.lft.to/lastmile_qr_scan"}, "name": "3c1875b660dd31a8f2b64c71fc15569f", "is_reserved": 0}, {"is_disabled": 0, "fusion_lon": 0.0, "fusion_lat": 0.0, "lat": 38.94187616666667, "type": "electric_scooter", "lon": -77.042569, "bike_id": "14b284cd3d8e4594cefc7f40946e135c", "rental_uris": {"android": "https://dc.lft.to/lastmile_qr_scan", "ios": "https://dc.lft.to/lastmile_qr_scan"}, "name": "14b284cd3d8e4594cefc7f40946e135c", "is_reserved": 0}, {"is_disabled": 0, "fusion_lon": 0.0, "fusion_lat": 0.0, "lat": 38.912622666666664, "type": "electric_scooter", "lon": -77.036792, "bike_id": "8d26e54a17f15b3ecb68987c30c0ad37", "rental_uris": {"android": "https://dc.lft.to/lastmile_qr_scan", "ios": "https://dc.lft.to/lastmile_qr_scan"}, "name": "8d26e54a17f15b3ecb68987c30c0ad37", "is_reserved": 0}, {"is_disabled": 0, "fusion_lon": 0.0, "fusion_lat": 0.0, "lat": 38.895520833333336, "type": "electric_scooter", "lon": -76.94875266666666, "bike_id": "3b8269c6c7c287703125591bd135aad0", "rental_uris": {"android": "https://dc.lft.to/lastmile_qr_scan", "ios": "https://dc.lft.to/lastmile_qr_scan"}, "name": "3b8269c6c7c287703125591bd135aad0", "is_reserved": 0}, {"is_disabled": 0, "fusion_lon": 0.0, "fusion_lat": 0.0, "lat": 38.86520633333333, "type": "electric_scooter", "lon": -76.9896855, "bike_id": "f88b3f364a3348cec73c743d0e5ef0f7", "rental_uris": {"android": "https://dc.lft.to/lastmile_qr_scan", "ios": "https://dc.lft.to/lastmile_qr_scan"}, "name": "f88b3f364a3348cec73c743d0e5ef0f7", "is_reserved": 0}, {"is_disabled": 0, "fusion_lon": 0.0, "fusion_lat": 0.0, "lat": 38.90367333333333, "type": "electric_scooter", "lon": -77.03978666666667, "bike_id": "ed5cf214880f3ac6e3a9355fcc9796dd", "rental_uris": {"android": "https://dc.lft.to/lastmile_qr_scan", "ios": "https://dc.lft.to/lastmile_qr_scan"}, "name": "ed5cf214880f3ac6e3a9355fcc9796dd", "is_reserved": 0}, {"is_disabled": 0, "fusion_lon": 0.0, "fusion_lat": 0.0, "lat": 38.901805833333334, "type": "electric_scooter", "lon": -77.05008383333333, "bike_id": "725ccd1ea12270ebbc0ef5be9b115c08", "rental_uris": {"android": "https://dc.lft.to/lastmile_qr_scan", "ios": "https://dc.lft.to/lastmile_qr_scan"}, "name": "725ccd1ea12270ebbc0ef5be9b115c08", "is_reserved": 0}, {"is_disabled": 0, "fusion_lon": 0.0, "fusion_lat": 0.0, "lat": 39.022969, "type": "electric_bike", "lon": -77.0210995, "bike_id": "968ce8b209a48a409e2a1d9784e4ef12", "rental_uris": {"android": "https://dc.lft.to/lastmile_qr_scan", "ios": "https://dc.lft.to/lastmile_qr_scan"}, "name": "968ce8b209a48a409e2a1d9784e4ef12", "is_reserved": 0}, {"is_disabled": 0, "fusion_lon": 0.0, "fusion_lat": 0.0, "lat": 38.93143033333333, "type": "electric_scooter", "lon": -77.04136116666666, "bike_id": "01a833f79e2dd9615dbc53ec554b68f8", "rental_uris": {"android": "https://dc.lft.to/lastmile_qr_scan", "ios": "https://dc.lft.to/lastmile_qr_scan"}, "name": "01a833f79e2dd9615dbc53ec554b68f8", "is_reserved": 0}, {"is_disabled": 0, "fusion_lon": 0.0, "fusion_lat": 0.0, "lat": 38.893351333333335, "type": "electric_scooter", "lon": -77.02131083333333, "bike_id": "fc84593cb19db5aed9c86c32c2725810", "rental_uris": {"android": "https://dc.lft.to/lastmile_qr_scan", "ios": "https://dc.lft.to/lastmile_qr_scan"}, "name": "fc84593cb19db5aed9c86c32c2725810", "is_reserved": 0}, {"is_disabled": 0, "fusion_lon": 0.0, "fusion_lat": 0.0, "lat": 38.90871516666667, "type": "electric_scooter", "lon": -77.03009416666667, "bike_id": "475ff69ac4c0f7c0871019d0bc999bc0", "rental_uris": {"android": "https://dc.lft.to/lastmile_qr_scan", "ios": "https://dc.lft.to/lastmile_qr_scan"}, "name": "475ff69ac4c0f7c0871019d0bc999bc0", "is_reserved": 0}, {"is_disabled": 0, "fusion_lon": 0.0, "fusion_lat": 0.0, "lat": 38.89845966666667, "type": "electric_scooter", "lon": -76.94495283333333, "bike_id": "0d4fb5cb496107d2eac891b7988213fc", "rental_uris": {"android": "https://dc.lft.to/lastmile_qr_scan", "ios": "https://dc.lft.to/lastmile_qr_scan"}, "name": "0d4fb5cb496107d2eac891b7988213fc", "is_reserved": 0}, {"is_disabled": 0, "fusion_lon": 0.0, "fusion_lat": 0.0, "lat": 38.899619333333334, "type": "electric_scooter", "lon": -77.01615833333334, "bike_id": "21c89285b1e3fa1e6082d084aa9f23fe", "rental_uris": {"android": "https://dc.lft.to/lastmile_qr_scan", "ios": "https://dc.lft.to/lastmile_qr_scan"}, "name": "21c89285b1e3fa1e6082d084aa9f23fe", "is_reserved": 0}, {"is_disabled": 0, "fusion_lon": 0.0, "fusion_lat": 0.0, "lat": 38.88878016666666, "type": "electric_bike", "lon": -77.028609, "bike_id": "45672149676f3c36711c87e087446637", "rental_uris": {"android": "https://dc.lft.to/lastmile_qr_scan", "ios": "https://dc.lft.to/lastmile_qr_scan"}, "name": "45672149676f3c36711c87e087446637", "is_reserved": 0}, {"is_disabled": 0, "fusion_lon": 0.0, "fusion_lat": 0.0, "lat": 38.879742666666665, "type": "electric_scooter", "lon": -77.02427933333334, "bike_id": "73511e5d61dba080ee857df51ddc440c", "rental_uris": {"android": "https://dc.lft.to/lastmile_qr_scan", "ios": "https://dc.lft.to/lastmile_qr_scan"}, "name": "73511e5d61dba080ee857df51ddc440c", "is_reserved": 0}, {"is_disabled": 0, "fusion_lon": 0.0, "fusion_lat": 0.0, "lat": 38.9057215, "type": "electric_scooter", "lon": -77.024736, "bike_id": "b6045b32c1ee9ad49a5a4a3c5098a191", "rental_uris": {"android": "https://dc.lft.to/lastmile_qr_scan", "ios": "https://dc.lft.to/lastmile_qr_scan"}, "name": "b6045b32c1ee9ad49a5a4a3c5098a191", "is_reserved": 0}, {"is_disabled": 0, "fusion_lon": 0.0, "fusion_lat": 0.0, "lat": 38.9284575, "type": "electric_scooter", "lon": -77.0562555, "bike_id": "27b1e23adf47a7f15144ee810c71f98d", "rental_uris": {"android": "https://dc.lft.to/lastmile_qr_scan", "ios": "https://dc.lft.to/lastmile_qr_scan"}, "name": "27b1e23adf47a7f15144ee810c71f98d", "is_reserved": 0}, {"is_disabled": 0, "fusion_lon": 0.0, "fusion_lat": 0.0, "lat": 38.908617166666666, "type": "electric_scooter", "lon": -77.04274066666666, "bike_id": "7659017e9bdf59c2910f5b598d242a3f", "rental_uris": {"android": "https://dc.lft.to/lastmile_qr_scan", "ios": "https://dc.lft.to/lastmile_qr_scan"}, "name": "7659017e9bdf59c2910f5b598d242a3f", "is_reserved": 0}, {"is_disabled": 0, "fusion_lon": 0.0, "fusion_lat": 0.0, "lat": 38.91802666666667, "type": "electric_scooter", "lon": -77.03444216666666, "bike_id": "86673ea455a4025048b0cbf0f3acceec", "rental_uris": {"android": "https://dc.lft.to/lastmile_qr_scan", "ios": "https://dc.lft.to/lastmile_qr_scan"}, "name": "86673ea455a4025048b0cbf0f3acceec", "is_reserved": 0}, {"is_disabled": 0, "fusion_lon": 0.0, "fusion_lat": 0.0, "lat": 38.91856383333333, "type": "electric_bike", "lon": -76.960896, "bike_id": "1aecdd63b17f1604a2c366dfbef9c612", "rental_uris": {"android": "https://dc.lft.to/lastmile_qr_scan", "ios": "https://dc.lft.to/lastmile_qr_scan"}, "name": "1aecdd63b17f1604a2c366dfbef9c612", "is_reserved": 0}, {"is_disabled": 0, "fusion_lon": 0.0, "fusion_lat": 0.0, "lat": 38.92962, "type": "electric_scooter", "lon": -77.023458, "bike_id": "b999cbdccd85ef62b1c2d5cca5909033", "rental_uris": {"android": "https://dc.lft.to/lastmile_qr_scan", "ios": "https://dc.lft.to/lastmile_qr_scan"}, "name": "b999cbdccd85ef62b1c2d5cca5909033", "is_reserved": 0}, {"is_disabled": 0, "fusion_lon": 0.0, "fusion_lat": 0.0, "lat": 38.92746316666667, "type": "electric_scooter", "lon": -77.02536633333334, "bike_id": "2eea1e72c00c965988b35809be56b7e8", "rental_uris": {"android": "https://dc.lft.to/lastmile_qr_scan", "ios": "https://dc.lft.to/lastmile_qr_scan"}, "name": "2eea1e72c00c965988b35809be56b7e8", "is_reserved": 0}, {"is_disabled": 0, "fusion_lon": 0.0, "fusion_lat": 0.0, "lat": 38.915163166666666, "type": "electric_scooter", "lon": -76.98348383333334, "bike_id": "32420e91c0baf5a0a96399f5d660ee38", "rental_uris": {"android": "https://dc.lft.to/lastmile_qr_scan", "ios": "https://dc.lft.to/lastmile_qr_scan"}, "name": "32420e91c0baf5a0a96399f5d660ee38", "is_reserved": 0}, {"is_disabled": 0, "fusion_lon": 0.0, "fusion_lat": 0.0, "lat": 38.874826, "type": "electric_bike", "lon": -77.00088133333334, "bike_id": "b11b71881422c3da9b7bdcb35490a705", "rental_uris": {"android": "https://dc.lft.to/lastmile_qr_scan", "ios": "https://dc.lft.to/lastmile_qr_scan"}, "name": "b11b71881422c3da9b7bdcb35490a705", "is_reserved": 0}, {"is_disabled": 0, "fusion_lon": 0.0, "fusion_lat": 0.0, "lat": 38.917060166666666, "type": "electric_scooter", "lon": -77.04303, "bike_id": "982a3e7d6bd71efd7057e1b2dc1cd88b", "rental_uris": {"android": "https://dc.lft.to/lastmile_qr_scan", "ios": "https://dc.lft.to/lastmile_qr_scan"}, "name": "982a3e7d6bd71efd7057e1b2dc1cd88b", "is_reserved": 0}, {"is_disabled": 0, "fusion_lon": 0.0, "fusion_lat": 0.0, "lat": 38.8996395, "type": "electric_bike", "lon": -77.03929933333333, "bike_id": "78d54075894771f3dd6a66694d048f94", "rental_uris": {"android": "https://dc.lft.to/lastmile_qr_scan", "ios": "https://dc.lft.to/lastmile_qr_scan"}, "name": "78d54075894771f3dd6a66694d048f94", "is_reserved": 0}, {"is_disabled": 0, "fusion_lon": 0.0, "fusion_lat": 0.0, "lat": 39.058166666666665, "type": "electric_bike", "lon": -77.12628866666667, "bike_id": "4efd41c1616ebed6df4a6267e3deb3c6", "rental_uris": {"android": "https://dc.lft.to/lastmile_qr_scan", "ios": "https://dc.lft.to/lastmile_qr_scan"}, "name": "4efd41c1616ebed6df4a6267e3deb3c6", "is_reserved": 0}, {"is_disabled": 0, "fusion_lon": 0.0, "fusion_lat": 0.0, "lat": 38.876846, "type": "electric_bike", "lon": -77.014455, "bike_id": "843a4f7c03a77b08d3813fdfcbe4ebe2", "rental_uris": {"android": "https://dc.lft.to/lastmile_qr_scan", "ios": "https://dc.lft.to/lastmile_qr_scan"}, "name": "843a4f7c03a77b08d3813fdfcbe4ebe2", "is_reserved": 0}, {"is_disabled": 0, "fusion_lon": 0.0, "fusion_lat": 0.0, "lat": 38.907573, "type": "electric_scooter", "lon": -77.03585833333334, "bike_id": "ec5afe07c082ec8f45000cb273ede2e1", "rental_uris": {"android": "https://dc.lft.to/lastmile_qr_scan", "ios": "https://dc.lft.to/lastmile_qr_scan"}, "name": "ec5afe07c082ec8f45000cb273ede2e1", "is_reserved": 0}, {"is_disabled": 0, "fusion_lon": 0.0, "fusion_lat": 0.0, "lat": 38.9051325, "type": "electric_scooter", "lon": -77.02616916666666, "bike_id": "8584e1011d49bb29d7ea1c145fc14921", "rental_uris": {"android": "https://dc.lft.to/lastmile_qr_scan", "ios": "https://dc.lft.to/lastmile_qr_scan"}, "name": "8584e1011d49bb29d7ea1c145fc14921", "is_reserved": 0}, {"is_disabled": 0, "fusion_lon": 0.0, "fusion_lat": 0.0, "lat": 38.903726666666664, "type": "electric_scooter", "lon": -77.0253485, "bike_id": "728d6b9740ae75f362f11b55efb84a3a", "rental_uris": {"android": "https://dc.lft.to/lastmile_qr_scan", "ios": "https://dc.lft.to/lastmile_qr_scan"}, "name": "728d6b9740ae75f362f11b55efb84a3a", "is_reserved": 0}, {"is_disabled": 0, "fusion_lon": 0.0, "fusion_lat": 0.0, "lat": 38.90976633333333, "type": "electric_scooter", "lon": -77.03844233333334, "bike_id": "71b4cee63956a2b9daa79fc257f0db84", "rental_uris": {"android": "https://dc.lft.to/lastmile_qr_scan", "ios": "https://dc.lft.to/lastmile_qr_scan"}, "name": "71b4cee63956a2b9daa79fc257f0db84", "is_reserved": 0}, {"is_disabled": 0, "fusion_lon": 0.0, "fusion_lat": 0.0, "lat": 38.88760583333333, "type": "electric_scooter", "lon": -77.03383833333334, "bike_id": "13b691264b13ef27088dbf634ad7556d", "rental_uris": {"android": "https://dc.lft.to/lastmile_qr_scan", "ios": "https://dc.lft.to/lastmile_qr_scan"}, "name": "13b691264b13ef27088dbf634ad7556d", "is_reserved": 0}, {"is_disabled": 0, "fusion_lon": 0.0, "fusion_lat": 0.0, "lat": 38.92284033333333, "type": "electric_scooter", "lon": -77.04033483333333, "bike_id": "26c8f8a21e3c7628a7eb86346e4ea50a", "rental_uris": {"android": "https://dc.lft.to/lastmile_qr_scan", "ios": "https://dc.lft.to/lastmile_qr_scan"}, "name": "26c8f8a21e3c7628a7eb86346e4ea50a", "is_reserved": 0}, {"is_disabled": 0, "fusion_lon": 0.0, "fusion_lat": 0.0, "lat": 38.918612833333334, "type": "electric_scooter", "lon": -77.03523816666667, "bike_id": "b33d440c3a2576fac2a0dd4e09396df2", "rental_uris": {"android": "https://dc.lft.to/lastmile_qr_scan", "ios": "https://dc.lft.to/lastmile_qr_scan"}, "name": "b33d440c3a2576fac2a0dd4e09396df2", "is_reserved": 0}, {"is_disabled": 0, "fusion_lon": 0.0, "fusion_lat": 0.0, "lat": 38.941546, "type": "electric_bike", "lon": -77.001979, "bike_id": "512454bf055298ec55a201327d783ece", "rental_uris": {"android": "https://dc.lft.to/lastmile_qr_scan", "ios": "https://dc.lft.to/lastmile_qr_scan"}, "name": "512454bf055298ec55a201327d783ece", "is_reserved": 0}, {"is_disabled": 0, "fusion_lon": 0.0, "fusion_lat": 0.0, "lat": 38.93879783333333, "type": "electric_scooter", "lon": -77.0334105, "bike_id": "620f7fe9a0123323a09061398ab41c6a", "rental_uris": {"android": "https://dc.lft.to/lastmile_qr_scan", "ios": "https://dc.lft.to/lastmile_qr_scan"}, "name": "620f7fe9a0123323a09061398ab41c6a", "is_reserved": 0}, {"is_disabled": 0, "fusion_lon": 0.0, "fusion_lat": 0.0, "lat": 38.85717733333333, "type": "electric_bike", "lon": -76.98116633333333, "bike_id": "5846585d40f2964593bf2d1c126e7e30", "rental_uris": {"android": "https://dc.lft.to/lastmile_qr_scan", "ios": "https://dc.lft.to/lastmile_qr_scan"}, "name": "5846585d40f2964593bf2d1c126e7e30", "is_reserved": 0}, {"is_disabled": 0, "fusion_lon": 0.0, "fusion_lat": 0.0, "lat": 38.93044883333334, "type": "electric_scooter", "lon": -77.00417466666667, "bike_id": "94406b38f20ae1446127e57d669af9ee", "rental_uris": {"android": "https://dc.lft.to/lastmile_qr_scan", "ios": "https://dc.lft.to/lastmile_qr_scan"}, "name": "94406b38f20ae1446127e57d669af9ee", "is_reserved": 0}, {"is_disabled": 0, "fusion_lon": 0.0, "fusion_lat": 0.0, "lat": 38.831201666666665, "type": "electric_bike", "lon": -77.04329233333333, "bike_id": "eae9a705fd18ed2d400060c419f7db3b", "rental_uris": {"android": "https://dc.lft.to/lastmile_qr_scan", "ios": "https://dc.lft.to/lastmile_qr_scan"}, "name": "eae9a705fd18ed2d400060c419f7db3b", "is_reserved": 0}, {"is_disabled": 0, "fusion_lon": 0.0, "fusion_lat": 0.0, "lat": 38.838102166666665, "type": "electric_scooter", "lon": -77.00434283333334, "bike_id": "1b4974b1af976aa6cf9fd7cc27ba5d06", "rental_uris": {"android": "https://dc.lft.to/lastmile_qr_scan", "ios": "https://dc.lft.to/lastmile_qr_scan"}, "name": "1b4974b1af976aa6cf9fd7cc27ba5d06", "is_reserved": 0}, {"is_disabled": 0, "fusion_lon": 0.0, "fusion_lat": 0.0, "lat": 39.11509933333333, "type": "electric_bike", "lon": -77.195456, "bike_id": "c99334d542fe0c18ab3b2f0fa6158521", "rental_uris": {"android": "https://dc.lft.to/lastmile_qr_scan", "ios": "https://dc.lft.to/lastmile_qr_scan"}, "name": "c99334d542fe0c18ab3b2f0fa6158521", "is_reserved": 0}, {"is_disabled": 0, "fusion_lon": 0.0, "fusion_lat": 0.0, "lat": 38.992615, "type": "electric_bike", "lon": -77.04997783333333, "bike_id": "cb88772d76c09e2b506527a6b7bb54da", "rental_uris": {"android": "https://dc.lft.to/lastmile_qr_scan", "ios": "https://dc.lft.to/lastmile_qr_scan"}, "name": "cb88772d76c09e2b506527a6b7bb54da", "is_reserved": 0}, {"is_disabled": 0, "fusion_lon": 0.0, "fusion_lat": 0.0, "lat": 38.94307416666667, "type": "electric_scooter", "lon": -77.0235365, "bike_id": "29d4652c00d65b8f53b46a0d714d14d3", "rental_uris": {"android": "https://dc.lft.to/lastmile_qr_scan", "ios": "https://dc.lft.to/lastmile_qr_scan"}, "name": "29d4652c00d65b8f53b46a0d714d14d3", "is_reserved": 0}, {"is_disabled": 0, "fusion_lon": 0.0, "fusion_lat": 0.0, "lat": 38.858058666666665, "type": "electric_scooter", "lon": -76.986582, "bike_id": "58adb46e107a6699f63da76d35f4820e", "rental_uris": {"android": "https://dc.lft.to/lastmile_qr_scan", "ios": "https://dc.lft.to/lastmile_qr_scan"}, "name": "58adb46e107a6699f63da76d35f4820e", "is_reserved": 0}, {"is_disabled": 0, "fusion_lon": 0.0, "fusion_lat": 0.0, "lat": 38.931433, "type": "electric_scooter", "lon": -77.056129, "bike_id": "15b37e1a1bdbdedaf6d8b5ab7277f456", "rental_uris": {"android": "https://dc.lft.to/lastmile_qr_scan", "ios": "https://dc.lft.to/lastmile_qr_scan"}, "name": "15b37e1a1bdbdedaf6d8b5ab7277f456", "is_reserved": 0}, {"is_disabled": 0, "fusion_lon": 0.0, "fusion_lat": 0.0, "lat": 38.9609755, "type": "electric_scooter", "lon": -77.06900366666666, "bike_id": "19f602e0f54b8b9441820a54dd01d6d1", "rental_uris": {"android": "https://dc.lft.to/lastmile_qr_scan", "ios": "https://dc.lft.to/lastmile_qr_scan"}, "name": "19f602e0f54b8b9441820a54dd01d6d1", "is_reserved": 0}, {"is_disabled": 0, "fusion_lon": 0.0, "fusion_lat": 0.0, "lat": 38.908717, "type": "electric_scooter", "lon": -77.0354205, "bike_id": "0450afdf5cee8b65425df147e5a654f8", "rental_uris": {"android": "https://dc.lft.to/lastmile_qr_scan", "ios": "https://dc.lft.to/lastmile_qr_scan"}, "name": "0450afdf5cee8b65425df147e5a654f8", "is_reserved": 0}, {"is_disabled": 0, "fusion_lon": 0.0, "fusion_lat": 0.0, "lat": 38.92189716666667, "type": "electric_scooter", "lon": -76.99697433333333, "bike_id": "7565bf479f1ee82761d1d76715f88505", "rental_uris": {"android": "https://dc.lft.to/lastmile_qr_scan", "ios": "https://dc.lft.to/lastmile_qr_scan"}, "name": "7565bf479f1ee82761d1d76715f88505", "is_reserved": 0}, {"is_disabled": 0, "fusion_lon": 0.0, "fusion_lat": 0.0, "lat": 38.9339765, "type": "electric_scooter", "lon": -77.0326265, "bike_id": "bd28d98ef26c1e53ab7221a7bb1ce565", "rental_uris": {"android": "https://dc.lft.to/lastmile_qr_scan", "ios": "https://dc.lft.to/lastmile_qr_scan"}, "name": "bd28d98ef26c1e53ab7221a7bb1ce565", "is_reserved": 0}, {"is_disabled": 0, "fusion_lon": 0.0, "fusion_lat": 0.0, "lat": 38.91188, "type": "electric_scooter", "lon": -77.03509116666666, "bike_id": "cc4ea79af99a24a6cab3372c06da8c70", "rental_uris": {"android": "https://dc.lft.to/lastmile_qr_scan", "ios": "https://dc.lft.to/lastmile_qr_scan"}, "name": "cc4ea79af99a24a6cab3372c06da8c70", "is_reserved": 0}, {"is_disabled": 0, "fusion_lon": 0.0, "fusion_lat": 0.0, "lat": 38.8652225, "type": "electric_scooter", "lon": -76.98971716666667, "bike_id": "f381d748fef3f758b7637d2713149dbd", "rental_uris": {"android": "https://dc.lft.to/lastmile_qr_scan", "ios": "https://dc.lft.to/lastmile_qr_scan"}, "name": "f381d748fef3f758b7637d2713149dbd", "is_reserved": 0}, {"is_disabled": 0, "fusion_lon": 0.0, "fusion_lat": 0.0, "lat": 38.934776166666666, "type": "electric_scooter", "lon": -77.03582866666666, "bike_id": "55bf853bc9a6a78d484b3259b6c1d306", "rental_uris": {"android": "https://dc.lft.to/lastmile_qr_scan", "ios": "https://dc.lft.to/lastmile_qr_scan"}, "name": "55bf853bc9a6a78d484b3259b6c1d306", "is_reserved": 0}, {"is_disabled": 0, "fusion_lon": 0.0, "fusion_lat": 0.0, "lat": 38.91615066666667, "type": "electric_scooter", "lon": -77.03119333333333, "bike_id": "a2c6a85f6321f5774bd2454b2294b861", "rental_uris": {"android": "https://dc.lft.to/lastmile_qr_scan", "ios": "https://dc.lft.to/lastmile_qr_scan"}, "name": "a2c6a85f6321f5774bd2454b2294b861", "is_reserved": 0}, {"is_disabled": 0, "fusion_lon": 0.0, "fusion_lat": 0.0, "lat": 38.92976616666667, "type": "electric_scooter", "lon": -77.020784, "bike_id": "837b81248ae2100afa7f7b9e1965d161", "rental_uris": {"android": "https://dc.lft.to/lastmile_qr_scan", "ios": "https://dc.lft.to/lastmile_qr_scan"}, "name": "837b81248ae2100afa7f7b9e1965d161", "is_reserved": 0}, {"is_disabled": 0, "fusion_lon": 0.0, "fusion_lat": 0.0, "lat": 38.8960775, "type": "electric_scooter", "lon": -77.00930883333334, "bike_id": "d9b8e5beb51864f16e2b3e967a9a2b57", "rental_uris": {"android": "https://dc.lft.to/lastmile_qr_scan", "ios": "https://dc.lft.to/lastmile_qr_scan"}, "name": "d9b8e5beb51864f16e2b3e967a9a2b57", "is_reserved": 0}, {"is_disabled": 0, "fusion_lon": 0.0, "fusion_lat": 0.0, "lat": 38.90147066666667, "type": "electric_scooter", "lon": -77.022557, "bike_id": "d41abd7039d9a0836bb3a48394b61e50", "rental_uris": {"android": "https://dc.lft.to/lastmile_qr_scan", "ios": "https://dc.lft.to/lastmile_qr_scan"}, "name": "d41abd7039d9a0836bb3a48394b61e50", "is_reserved": 0}, {"is_disabled": 0, "fusion_lon": 0.0, "fusion_lat": 0.0, "lat": 38.9154635, "type": "electric_scooter", "lon": -77.04177, "bike_id": "de32eeedf7e68bd9634104ed040d3cbb", "rental_uris": {"android": "https://dc.lft.to/lastmile_qr_scan", "ios": "https://dc.lft.to/lastmile_qr_scan"}, "name": "de32eeedf7e68bd9634104ed040d3cbb", "is_reserved": 0}, {"is_disabled": 0, "fusion_lon": 0.0, "fusion_lat": 0.0, "lat": 38.910407, "type": "electric_scooter", "lon": -77.040137, "bike_id": "cab7c4185c241f1fb26c8f8ed92209aa", "rental_uris": {"android": "https://dc.lft.to/lastmile_qr_scan", "ios": "https://dc.lft.to/lastmile_qr_scan"}, "name": "cab7c4185c241f1fb26c8f8ed92209aa", "is_reserved": 0}, {"is_disabled": 0, "fusion_lon": 0.0, "fusion_lat": 0.0, "lat": 38.942048166666666, "type": "electric_scooter", "lon": -77.025937, "bike_id": "c21f0f2634c588f4fa75db435c065dc1", "rental_uris": {"android": "https://dc.lft.to/lastmile_qr_scan", "ios": "https://dc.lft.to/lastmile_qr_scan"}, "name": "c21f0f2634c588f4fa75db435c065dc1", "is_reserved": 0}, {"is_disabled": 0, "fusion_lon": 0.0, "fusion_lat": 0.0, "lat": 38.90681416666666, "type": "electric_scooter", "lon": -76.9800025, "bike_id": "efb1d362437607e55c73eeddbc43f54c", "rental_uris": {"android": "https://dc.lft.to/lastmile_qr_scan", "ios": "https://dc.lft.to/lastmile_qr_scan"}, "name": "efb1d362437607e55c73eeddbc43f54c", "is_reserved": 0}, {"is_disabled": 0, "fusion_lon": 0.0, "fusion_lat": 0.0, "lat": 38.9070785, "type": "electric_scooter", "lon": -77.0238905, "bike_id": "c06026b2ed11feb7f2ce3080fd8c145e", "rental_uris": {"android": "https://dc.lft.to/lastmile_qr_scan", "ios": "https://dc.lft.to/lastmile_qr_scan"}, "name": "c06026b2ed11feb7f2ce3080fd8c145e", "is_reserved": 0}, {"is_disabled": 0, "fusion_lon": 0.0, "fusion_lat": 0.0, "lat": 38.924418, "type": "electric_scooter", "lon": -77.0425635, "bike_id": "e3b8b3f1862ed665df15584e9e0c7f7a", "rental_uris": {"android": "https://dc.lft.to/lastmile_qr_scan", "ios": "https://dc.lft.to/lastmile_qr_scan"}, "name": "e3b8b3f1862ed665df15584e9e0c7f7a", "is_reserved": 0}, {"is_disabled": 0, "fusion_lon": 0.0, "fusion_lat": 0.0, "lat": 39.003814166666665, "type": "electric_bike", "lon": -77.01286066666667, "bike_id": "ddc0776009efb5e2120aca40cad42b89", "rental_uris": {"android": "https://dc.lft.to/lastmile_qr_scan", "ios": "https://dc.lft.to/lastmile_qr_scan"}, "name": "ddc0776009efb5e2120aca40cad42b89", "is_reserved": 0}, {"is_disabled": 0, "fusion_lon": 0.0, "fusion_lat": 0.0, "lat": 38.91809666666666, "type": "electric_scooter", "lon": -77.0244695, "bike_id": "03a057a01546b88abe3fd34a397ed353", "rental_uris": {"android": "https://dc.lft.to/lastmile_qr_scan", "ios": "https://dc.lft.to/lastmile_qr_scan"}, "name": "03a057a01546b88abe3fd34a397ed353", "is_reserved": 0}, {"is_disabled": 0, "fusion_lon": 0.0, "fusion_lat": 0.0, "lat": 38.918066, "type": "electric_scooter", "lon": -77.03175483333334, "bike_id": "07f66f7e3946cbd5189ced27e1777fff", "rental_uris": {"android": "https://dc.lft.to/lastmile_qr_scan", "ios": "https://dc.lft.to/lastmile_qr_scan"}, "name": "07f66f7e3946cbd5189ced27e1777fff", "is_reserved": 0}, {"is_disabled": 0, "fusion_lon": 0.0, "fusion_lat": 0.0, "lat": 38.90121033333333, "type": "electric_scooter", "lon": -77.01804616666666, "bike_id": "26b13b7a056689a85271e99a8dba7d54", "rental_uris": {"android": "https://dc.lft.to/lastmile_qr_scan", "ios": "https://dc.lft.to/lastmile_qr_scan"}, "name": "26b13b7a056689a85271e99a8dba7d54", "is_reserved": 0}, {"is_disabled": 0, "fusion_lon": 0.0, "fusion_lat": 0.0, "lat": 38.934609, "type": "electric_scooter", "lon": -77.02747033333333, "bike_id": "72a28ca9701d5631253dca84ecc36a3c", "rental_uris": {"android": "https://dc.lft.to/lastmile_qr_scan", "ios": "https://dc.lft.to/lastmile_qr_scan"}, "name": "72a28ca9701d5631253dca84ecc36a3c", "is_reserved": 0}, {"is_disabled": 0, "fusion_lon": 0.0, "fusion_lat": 0.0, "lat": 38.91704333333333, "type": "electric_scooter", "lon": -77.0261865, "bike_id": "c342dbfd36e634da44eedd1cba962772", "rental_uris": {"android": "https://dc.lft.to/lastmile_qr_scan", "ios": "https://dc.lft.to/lastmile_qr_scan"}, "name": "c342dbfd36e634da44eedd1cba962772", "is_reserved": 0}, {"is_disabled": 0, "fusion_lon": 0.0, "fusion_lat": 0.0, "lat": 38.965539666666665, "type": "electric_bike", "lon": -77.02302433333334, "bike_id": "59107872c7e5d2c8c2412212a2bc4888", "rental_uris": {"android": "https://dc.lft.to/lastmile_qr_scan", "ios": "https://dc.lft.to/lastmile_qr_scan"}, "name": "59107872c7e5d2c8c2412212a2bc4888", "is_reserved": 0}, {"is_disabled": 0, "fusion_lon": 0.0, "fusion_lat": 0.0, "lat": 38.892166, "type": "electric_scooter", "lon": -77.02626866666667, "bike_id": "e52c3058df5cfec348a07793d30d1627", "rental_uris": {"android": "https://dc.lft.to/lastmile_qr_scan", "ios": "https://dc.lft.to/lastmile_qr_scan"}, "name": "e52c3058df5cfec348a07793d30d1627", "is_reserved": 0}, {"is_disabled": 0, "fusion_lon": 0.0, "fusion_lat": 0.0, "lat": 38.90715616666667, "type": "electric_scooter", "lon": -77.027167, "bike_id": "610d75f6f2e3931844f4fce8398fc289", "rental_uris": {"android": "https://dc.lft.to/lastmile_qr_scan", "ios": "https://dc.lft.to/lastmile_qr_scan"}, "name": "610d75f6f2e3931844f4fce8398fc289", "is_reserved": 0}, {"is_disabled": 0, "fusion_lon": 0.0, "fusion_lat": 0.0, "lat": 38.934926833333336, "type": "electric_scooter", "lon": -77.03283816666666, "bike_id": "1a1a0204b631c2e5f7b3ff9e4d6903d4", "rental_uris": {"android": "https://dc.lft.to/lastmile_qr_scan", "ios": "https://dc.lft.to/lastmile_qr_scan"}, "name": "1a1a0204b631c2e5f7b3ff9e4d6903d4", "is_reserved": 0}, {"is_disabled": 0, "fusion_lon": 0.0, "fusion_lat": 0.0, "lat": 38.90869216666667, "type": "electric_scooter", "lon": -77.035576, "bike_id": "e6c8d9b14f35c4987c760869fd824e23", "rental_uris": {"android": "https://dc.lft.to/lastmile_qr_scan", "ios": "https://dc.lft.to/lastmile_qr_scan"}, "name": "e6c8d9b14f35c4987c760869fd824e23", "is_reserved": 0}, {"is_disabled": 0, "fusion_lon": 0.0, "fusion_lat": 0.0, "lat": 38.9250295, "type": "electric_scooter", "lon": -76.99582016666666, "bike_id": "3fe1764addd4bae6298db41e2de9196c", "rental_uris": {"android": "https://dc.lft.to/lastmile_qr_scan", "ios": "https://dc.lft.to/lastmile_qr_scan"}, "name": "3fe1764addd4bae6298db41e2de9196c", "is_reserved": 0}, {"is_disabled": 0, "fusion_lon": 0.0, "fusion_lat": 0.0, "lat": 38.8762375, "type": "electric_scooter", "lon": -76.96543033333333, "bike_id": "3958b04a34585f2ae319cfe1a70dc713", "rental_uris": {"android": "https://dc.lft.to/lastmile_qr_scan", "ios": "https://dc.lft.to/lastmile_qr_scan"}, "name": "3958b04a34585f2ae319cfe1a70dc713", "is_reserved": 0}, {"is_disabled": 0, "fusion_lon": 0.0, "fusion_lat": 0.0, "lat": 38.9063555, "type": "electric_bike", "lon": -77.06413666666667, "bike_id": "7ee6a803c52c455f42e8af65574a481f", "rental_uris": {"android": "https://dc.lft.to/lastmile_qr_scan", "ios": "https://dc.lft.to/lastmile_qr_scan"}, "name": "7ee6a803c52c455f42e8af65574a481f", "is_reserved": 0}, {"is_disabled": 0, "fusion_lon": 0.0, "fusion_lat": 0.0, "lat": 38.9117505, "type": "electric_scooter", "lon": -77.03183983333334, "bike_id": "b9ace1cdfed8974a7743bc497c3f21aa", "rental_uris": {"android": "https://dc.lft.to/lastmile_qr_scan", "ios": "https://dc.lft.to/lastmile_qr_scan"}, "name": "b9ace1cdfed8974a7743bc497c3f21aa", "is_reserved": 0}, {"is_disabled": 0, "fusion_lon": 0.0, "fusion_lat": 0.0, "lat": 38.879291333333335, "type": "electric_scooter", "lon": -77.005582, "bike_id": "616c69dca07318bbd54b103b5c44cea2", "rental_uris": {"android": "https://dc.lft.to/lastmile_qr_scan", "ios": "https://dc.lft.to/lastmile_qr_scan"}, "name": "616c69dca07318bbd54b103b5c44cea2", "is_reserved": 0}, {"is_disabled": 0, "fusion_lon": 0.0, "fusion_lat": 0.0, "lat": 38.892632, "type": "electric_scooter", "lon": -76.94158683333333, "bike_id": "53bcad047a45d07d0d55c49df93ebb76", "rental_uris": {"android": "https://dc.lft.to/lastmile_qr_scan", "ios": "https://dc.lft.to/lastmile_qr_scan"}, "name": "53bcad047a45d07d0d55c49df93ebb76", "is_reserved": 0}, {"is_disabled": 0, "fusion_lon": 0.0, "fusion_lat": 0.0, "lat": 38.908294833333336, "type": "electric_scooter", "lon": -77.03347433333333, "bike_id": "553257e6153ad9e74413f67b9e805166", "rental_uris": {"android": "https://dc.lft.to/lastmile_qr_scan", "ios": "https://dc.lft.to/lastmile_qr_scan"}, "name": "553257e6153ad9e74413f67b9e805166", "is_reserved": 0}, {"is_disabled": 0, "fusion_lon": 0.0, "fusion_lat": 0.0, "lat": 38.90946733333333, "type": "electric_scooter", "lon": -77.0152825, "bike_id": "7b56c934f555b97fc0b459a9fe1814bc", "rental_uris": {"android": "https://dc.lft.to/lastmile_qr_scan", "ios": "https://dc.lft.to/lastmile_qr_scan"}, "name": "7b56c934f555b97fc0b459a9fe1814bc", "is_reserved": 0}, {"is_disabled": 0, "fusion_lon": 0.0, "fusion_lat": 0.0, "lat": 38.898531166666665, "type": "electric_bike", "lon": -76.93193166666667, "bike_id": "e13d9fb49c0da71c9a824a1f6bb3f09d", "rental_uris": {"android": "https://dc.lft.to/lastmile_qr_scan", "ios": "https://dc.lft.to/lastmile_qr_scan"}, "name": "e13d9fb49c0da71c9a824a1f6bb3f09d", "is_reserved": 0}, {"is_disabled": 0, "fusion_lon": 0.0, "fusion_lat": 0.0, "lat": 38.89219883333333, "type": "electric_scooter", "lon": -77.02263566666667, "bike_id": "bce1e1cf86c6fbef5062249b04568c15", "rental_uris": {"android": "https://dc.lft.to/lastmile_qr_scan", "ios": "https://dc.lft.to/lastmile_qr_scan"}, "name": "bce1e1cf86c6fbef5062249b04568c15", "is_reserved": 0}, {"is_disabled": 0, "fusion_lon": 0.0, "fusion_lat": 0.0, "lat": 38.90656666666667, "type": "electric_scooter", "lon": -77.02526233333333, "bike_id": "56573509fa267618275be3e62dd14cfe", "rental_uris": {"android": "https://dc.lft.to/lastmile_qr_scan", "ios": "https://dc.lft.to/lastmile_qr_scan"}, "name": "56573509fa267618275be3e62dd14cfe", "is_reserved": 0}, {"is_disabled": 0, "fusion_lon": 0.0, "fusion_lat": 0.0, "lat": 38.8935765, "type": "electric_scooter", "lon": -77.02224966666667, "bike_id": "64f1c753032cc619c3a8f3de56c4e80d", "rental_uris": {"android": "https://dc.lft.to/lastmile_qr_scan", "ios": "https://dc.lft.to/lastmile_qr_scan"}, "name": "64f1c753032cc619c3a8f3de56c4e80d", "is_reserved": 0}, {"is_disabled": 0, "fusion_lon": 0.0, "fusion_lat": 0.0, "lat": 38.923921166666666, "type": "electric_scooter", "lon": -77.02763816666666, "bike_id": "c4909eb708649991281d9ba7c38efa76", "rental_uris": {"android": "https://dc.lft.to/lastmile_qr_scan", "ios": "https://dc.lft.to/lastmile_qr_scan"}, "name": "c4909eb708649991281d9ba7c38efa76", "is_reserved": 0}, {"is_disabled": 0, "fusion_lon": 0.0, "fusion_lat": 0.0, "lat": 38.883554333333336, "type": "electric_scooter", "lon": -76.92790683333334, "bike_id": "48b5aa78227b8f0e5320aae6068a99b2", "rental_uris": {"android": "https://dc.lft.to/lastmile_qr_scan", "ios": "https://dc.lft.to/lastmile_qr_scan"}, "name": "48b5aa78227b8f0e5320aae6068a99b2", "is_reserved": 0}, {"is_disabled": 0, "fusion_lon": 0.0, "fusion_lat": 0.0, "lat": 38.948054, "type": "electric_bike", "lon": -76.972181, "bike_id": "18c976765083fbe80e48ee174e4371ea", "rental_uris": {"android": "https://dc.lft.to/lastmile_qr_scan", "ios": "https://dc.lft.to/lastmile_qr_scan"}, "name": "18c976765083fbe80e48ee174e4371ea", "is_reserved": 0}, {"is_disabled": 0, "fusion_lon": 0.0, "fusion_lat": 0.0, "lat": 38.91732483333333, "type": "electric_scooter", "lon": -76.991809, "bike_id": "178411b407b7fb1601674dc4ea01f469", "rental_uris": {"android": "https://dc.lft.to/lastmile_qr_scan", "ios": "https://dc.lft.to/lastmile_qr_scan"}, "name": "178411b407b7fb1601674dc4ea01f469", "is_reserved": 0}, {"is_disabled": 0, "fusion_lon": 0.0, "fusion_lat": 0.0, "lat": 38.902677833333335, "type": "electric_scooter", "lon": -77.00327716666666, "bike_id": "78cedd9f7fef146100b03f02defaef2c", "rental_uris": {"android": "https://dc.lft.to/lastmile_qr_scan", "ios": "https://dc.lft.to/lastmile_qr_scan"}, "name": "78cedd9f7fef146100b03f02defaef2c", "is_reserved": 0}, {"is_disabled": 0, "fusion_lon": 0.0, "fusion_lat": 0.0, "lat": 38.902237666666664, "type": "electric_scooter", "lon": -77.03950633333334, "bike_id": "cb407be148ad7430eb69b154687937f3", "rental_uris": {"android": "https://dc.lft.to/lastmile_qr_scan", "ios": "https://dc.lft.to/lastmile_qr_scan"}, "name": "cb407be148ad7430eb69b154687937f3", "is_reserved": 0}, {"is_disabled": 0, "fusion_lon": 0.0, "fusion_lat": 0.0, "lat": 38.91864266666666, "type": "electric_scooter", "lon": -77.03187266666667, "bike_id": "f13b0e9b438660bd731eafb014cf4717", "rental_uris": {"android": "https://dc.lft.to/lastmile_qr_scan", "ios": "https://dc.lft.to/lastmile_qr_scan"}, "name": "f13b0e9b438660bd731eafb014cf4717", "is_reserved": 0}, {"is_disabled": 0, "fusion_lon": 0.0, "fusion_lat": 0.0, "lat": 38.970641666666666, "type": "electric_bike", "lon": -76.9604425, "bike_id": "b9633663ed58c921b9800e4a3756bfaa", "rental_uris": {"android": "https://dc.lft.to/lastmile_qr_scan", "ios": "https://dc.lft.to/lastmile_qr_scan"}, "name": "b9633663ed58c921b9800e4a3756bfaa", "is_reserved": 0}, {"is_disabled": 0, "fusion_lon": 0.0, "fusion_lat": 0.0, "lat": 38.911983, "type": "electric_scooter", "lon": -76.98483116666667, "bike_id": "b01829114a1d2c01f75ca0d5099dcd41", "rental_uris": {"android": "https://dc.lft.to/lastmile_qr_scan", "ios": "https://dc.lft.to/lastmile_qr_scan"}, "name": "b01829114a1d2c01f75ca0d5099dcd41", "is_reserved": 0}, {"is_disabled": 0, "fusion_lon": 0.0, "fusion_lat": 0.0, "lat": 38.88755583333333, "type": "electric_scooter", "lon": -77.002312, "bike_id": "8fb7c6cbba99d3b9e9bc20e52f3e9af4", "rental_uris": {"android": "https://dc.lft.to/lastmile_qr_scan", "ios": "https://dc.lft.to/lastmile_qr_scan"}, "name": "8fb7c6cbba99d3b9e9bc20e52f3e9af4", "is_reserved": 0}, {"is_disabled": 0, "fusion_lon": 0.0, "fusion_lat": 0.0, "lat": 38.901760333333335, "type": "electric_scooter", "lon": -77.05025616666667, "bike_id": "fab238722a80c0de2329b69c0b52093a", "rental_uris": {"android": "https://dc.lft.to/lastmile_qr_scan", "ios": "https://dc.lft.to/lastmile_qr_scan"}, "name": "fab238722a80c0de2329b69c0b52093a", "is_reserved": 0}, {"is_disabled": 0, "fusion_lon": 0.0, "fusion_lat": 0.0, "lat": 38.9017235, "type": "electric_scooter", "lon": -76.99385883333333, "bike_id": "8b5327f3d193b01ebc13da0a0ee45e21", "rental_uris": {"android": "https://dc.lft.to/lastmile_qr_scan", "ios": "https://dc.lft.to/lastmile_qr_scan"}, "name": "8b5327f3d193b01ebc13da0a0ee45e21", "is_reserved": 0}, {"is_disabled": 0, "fusion_lon": 0.0, "fusion_lat": 0.0, "lat": 38.8947405, "type": "electric_scooter", "lon": -77.02297966666667, "bike_id": "76994e2a57f09c3ab1604029b9fc49c9", "rental_uris": {"android": "https://dc.lft.to/lastmile_qr_scan", "ios": "https://dc.lft.to/lastmile_qr_scan"}, "name": "76994e2a57f09c3ab1604029b9fc49c9", "is_reserved": 0}, {"is_disabled": 0, "fusion_lon": 0.0, "fusion_lat": 0.0, "lat": 38.897419, "type": "electric_scooter", "lon": -77.04691633333333, "bike_id": "0c87b8d22efab3a5ed8c15d3b6217058", "rental_uris": {"android": "https://dc.lft.to/lastmile_qr_scan", "ios": "https://dc.lft.to/lastmile_qr_scan"}, "name": "0c87b8d22efab3a5ed8c15d3b6217058", "is_reserved": 0}, {"is_disabled": 0, "fusion_lon": 0.0, "fusion_lat": 0.0, "lat": 38.935348166666664, "type": "electric_scooter", "lon": -77.03415016666666, "bike_id": "fd719f6a25e65627a39add84e017c512", "rental_uris": {"android": "https://dc.lft.to/lastmile_qr_scan", "ios": "https://dc.lft.to/lastmile_qr_scan"}, "name": "fd719f6a25e65627a39add84e017c512", "is_reserved": 0}, {"is_disabled": 0, "fusion_lon": 0.0, "fusion_lat": 0.0, "lat": 38.8923425, "type": "electric_scooter", "lon": -77.0467425, "bike_id": "778fe96e901d506101bd2ee2d56a62fa", "rental_uris": {"android": "https://dc.lft.to/lastmile_qr_scan", "ios": "https://dc.lft.to/lastmile_qr_scan"}, "name": "778fe96e901d506101bd2ee2d56a62fa", "is_reserved": 0}, {"is_disabled": 0, "fusion_lon": 0.0, "fusion_lat": 0.0, "lat": 38.90472666666667, "type": "electric_scooter", "lon": -76.992088, "bike_id": "1f2dfd4a55a96d6af8e805533e7268d7", "rental_uris": {"android": "https://dc.lft.to/lastmile_qr_scan", "ios": "https://dc.lft.to/lastmile_qr_scan"}, "name": "1f2dfd4a55a96d6af8e805533e7268d7", "is_reserved": 0}, {"is_disabled": 0, "fusion_lon": 0.0, "fusion_lat": 0.0, "lat": 38.92262916666667, "type": "electric_scooter", "lon": -77.07132166666666, "bike_id": "aff71ae784a74ef2a565d4f4aa9654ef", "rental_uris": {"android": "https://dc.lft.to/lastmile_qr_scan", "ios": "https://dc.lft.to/lastmile_qr_scan"}, "name": "aff71ae784a74ef2a565d4f4aa9654ef", "is_reserved": 0}, {"is_disabled": 0, "fusion_lon": 0.0, "fusion_lat": 0.0, "lat": 38.911540333333335, "type": "electric_scooter", "lon": -76.98500583333333, "bike_id": "1bd78ae471aa5c0813e5e5681d560eca", "rental_uris": {"android": "https://dc.lft.to/lastmile_qr_scan", "ios": "https://dc.lft.to/lastmile_qr_scan"}, "name": "1bd78ae471aa5c0813e5e5681d560eca", "is_reserved": 0}, {"is_disabled": 0, "fusion_lon": 0.0, "fusion_lat": 0.0, "lat": 38.90806, "type": "electric_scooter", "lon": -77.00140716666667, "bike_id": "f8edb5741dd7e83a9a70e9cd7f5f3db8", "rental_uris": {"android": "https://dc.lft.to/lastmile_qr_scan", "ios": "https://dc.lft.to/lastmile_qr_scan"}, "name": "f8edb5741dd7e83a9a70e9cd7f5f3db8", "is_reserved": 0}, {"is_disabled": 0, "fusion_lon": 0.0, "fusion_lat": 0.0, "lat": 38.900066333333335, "type": "electric_scooter", "lon": -77.03397883333334, "bike_id": "023f5acb8d0d7bf465d36f0a02b32846", "rental_uris": {"android": "https://dc.lft.to/lastmile_qr_scan", "ios": "https://dc.lft.to/lastmile_qr_scan"}, "name": "023f5acb8d0d7bf465d36f0a02b32846", "is_reserved": 0}, {"is_disabled": 0, "fusion_lon": 0.0, "fusion_lat": 0.0, "lat": 38.917072833333336, "type": "electric_scooter", "lon": -77.02620583333334, "bike_id": "81cd2f360dfdd6c046ea02eae8c83d0f", "rental_uris": {"android": "https://dc.lft.to/lastmile_qr_scan", "ios": "https://dc.lft.to/lastmile_qr_scan"}, "name": "81cd2f360dfdd6c046ea02eae8c83d0f", "is_reserved": 0}, {"is_disabled": 0, "fusion_lon": 0.0, "fusion_lat": 0.0, "lat": 38.87195366666667, "type": "electric_scooter", "lon": -76.97825133333333, "bike_id": "541c3a3b457817f85cdcf92bb1949a6d", "rental_uris": {"android": "https://dc.lft.to/lastmile_qr_scan", "ios": "https://dc.lft.to/lastmile_qr_scan"}, "name": "541c3a3b457817f85cdcf92bb1949a6d", "is_reserved": 0}, {"is_disabled": 0, "fusion_lon": 0.0, "fusion_lat": 0.0, "lat": 38.91589066666667, "type": "electric_scooter", "lon": -77.0433555, "bike_id": "076bb9ce86aee835e4abed399d415d38", "rental_uris": {"android": "https://dc.lft.to/lastmile_qr_scan", "ios": "https://dc.lft.to/lastmile_qr_scan"}, "name": "076bb9ce86aee835e4abed399d415d38", "is_reserved": 0}, {"is_disabled": 0, "fusion_lon": 0.0, "fusion_lat": 0.0, "lat": 38.9059595, "type": "electric_scooter", "lon": -77.06918283333333, "bike_id": "acd86c886889ec46750c46d2071b3a57", "rental_uris": {"android": "https://dc.lft.to/lastmile_qr_scan", "ios": "https://dc.lft.to/lastmile_qr_scan"}, "name": "acd86c886889ec46750c46d2071b3a57", "is_reserved": 0}, {"is_disabled": 0, "fusion_lon": 0.0, "fusion_lat": 0.0, "lat": 38.96146916666667, "type": "electric_scooter", "lon": -77.02798483333333, "bike_id": "3c3d3d6cee27c53ff4a0e06d14fb4f4c", "rental_uris": {"android": "https://dc.lft.to/lastmile_qr_scan", "ios": "https://dc.lft.to/lastmile_qr_scan"}, "name": "3c3d3d6cee27c53ff4a0e06d14fb4f4c", "is_reserved": 0}, {"is_disabled": 0, "fusion_lon": 0.0, "fusion_lat": 0.0, "lat": 38.88921783333333, "type": "electric_scooter", "lon": -76.98010916666667, "bike_id": "5d55ce34f1888d7004b1aa2ad8211865", "rental_uris": {"android": "https://dc.lft.to/lastmile_qr_scan", "ios": "https://dc.lft.to/lastmile_qr_scan"}, "name": "5d55ce34f1888d7004b1aa2ad8211865", "is_reserved": 0}, {"is_disabled": 0, "fusion_lon": 0.0, "fusion_lat": 0.0, "lat": 38.92435, "type": "electric_bike", "lon": -76.907644, "bike_id": "ca6091d9c37bc791f819d42fc4bd1139", "rental_uris": {"android": "https://dc.lft.to/lastmile_qr_scan", "ios": "https://dc.lft.to/lastmile_qr_scan"}, "name": "ca6091d9c37bc791f819d42fc4bd1139", "is_reserved": 0}, {"is_disabled": 0, "fusion_lon": 0.0, "fusion_lat": 0.0, "lat": 38.91299, "type": "electric_scooter", "lon": -77.03204333333333, "bike_id": "a706aef22c33783bf2309b0ab5a726ba", "rental_uris": {"android": "https://dc.lft.to/lastmile_qr_scan", "ios": "https://dc.lft.to/lastmile_qr_scan"}, "name": "a706aef22c33783bf2309b0ab5a726ba", "is_reserved": 0}, {"is_disabled": 0, "fusion_lon": 0.0, "fusion_lat": 0.0, "lat": 38.9054335, "type": "electric_scooter", "lon": -77.05006383333334, "bike_id": "4d244903ce5249fdfbfd35ad5219acbc", "rental_uris": {"android": "https://dc.lft.to/lastmile_qr_scan", "ios": "https://dc.lft.to/lastmile_qr_scan"}, "name": "4d244903ce5249fdfbfd35ad5219acbc", "is_reserved": 0}, {"is_disabled": 0, "fusion_lon": 0.0, "fusion_lat": 0.0, "lat": 38.91337216666667, "type": "electric_scooter", "lon": -77.03254183333334, "bike_id": "e142dd43dfeb7d69bab80e513b7491b0", "rental_uris": {"android": "https://dc.lft.to/lastmile_qr_scan", "ios": "https://dc.lft.to/lastmile_qr_scan"}, "name": "e142dd43dfeb7d69bab80e513b7491b0", "is_reserved": 0}, {"is_disabled": 0, "fusion_lon": 0.0, "fusion_lat": 0.0, "lat": 38.9053545, "type": "electric_scooter", "lon": -77.03405316666667, "bike_id": "88807025c2a3c96bc928c061b339f863", "rental_uris": {"android": "https://dc.lft.to/lastmile_qr_scan", "ios": "https://dc.lft.to/lastmile_qr_scan"}, "name": "88807025c2a3c96bc928c061b339f863", "is_reserved": 0}, {"is_disabled": 0, "fusion_lon": 0.0, "fusion_lat": 0.0, "lat": 38.88608116666666, "type": "electric_scooter", "lon": -77.02197583333333, "bike_id": "8da3cd252d3c22247f54b0c1ac161678", "rental_uris": {"android": "https://dc.lft.to/lastmile_qr_scan", "ios": "https://dc.lft.to/lastmile_qr_scan"}, "name": "8da3cd252d3c22247f54b0c1ac161678", "is_reserved": 0}, {"is_disabled": 0, "fusion_lon": 0.0, "fusion_lat": 0.0, "lat": 38.934859, "type": "electric_scooter", "lon": -77.02413366666667, "bike_id": "8d2790fc98aa71789a728f4f549a1e91", "rental_uris": {"android": "https://dc.lft.to/lastmile_qr_scan", "ios": "https://dc.lft.to/lastmile_qr_scan"}, "name": "8d2790fc98aa71789a728f4f549a1e91", "is_reserved": 0}, {"is_disabled": 0, "fusion_lon": 0.0, "fusion_lat": 0.0, "lat": 38.891917166666666, "type": "electric_scooter", "lon": -76.98837516666667, "bike_id": "b015c38a7295f6d8344873cff6d45dc4", "rental_uris": {"android": "https://dc.lft.to/lastmile_qr_scan", "ios": "https://dc.lft.to/lastmile_qr_scan"}, "name": "b015c38a7295f6d8344873cff6d45dc4", "is_reserved": 0}, {"is_disabled": 0, "fusion_lon": 0.0, "fusion_lat": 0.0, "lat": 38.9000365, "type": "electric_scooter", "lon": -77.026096, "bike_id": "88fac2da0290b01a502e99f346f52b89", "rental_uris": {"android": "https://dc.lft.to/lastmile_qr_scan", "ios": "https://dc.lft.to/lastmile_qr_scan"}, "name": "88fac2da0290b01a502e99f346f52b89", "is_reserved": 0}, {"is_disabled": 0, "fusion_lon": 0.0, "fusion_lat": 0.0, "lat": 38.919272, "type": "electric_scooter", "lon": -77.03396116666667, "bike_id": "031f6af881ed698204d9188ab3dbc9c4", "rental_uris": {"android": "https://dc.lft.to/lastmile_qr_scan", "ios": "https://dc.lft.to/lastmile_qr_scan"}, "name": "031f6af881ed698204d9188ab3dbc9c4", "is_reserved": 0}, {"is_disabled": 0, "fusion_lon": 0.0, "fusion_lat": 0.0, "lat": 38.897375333333336, "type": "electric_scooter", "lon": -77.01010966666666, "bike_id": "eb5145c174cafc6fc9c934c0e7e51b53", "rental_uris": {"android": "https://dc.lft.to/lastmile_qr_scan", "ios": "https://dc.lft.to/lastmile_qr_scan"}, "name": "eb5145c174cafc6fc9c934c0e7e51b53", "is_reserved": 0}, {"is_disabled": 0, "fusion_lon": 0.0, "fusion_lat": 0.0, "lat": 38.9725865, "type": "electric_bike", "lon": -76.99170483333333, "bike_id": "69dab9ee99f30c2ac6087576a71f066a", "rental_uris": {"android": "https://dc.lft.to/lastmile_qr_scan", "ios": "https://dc.lft.to/lastmile_qr_scan"}, "name": "69dab9ee99f30c2ac6087576a71f066a", "is_reserved": 0}, {"is_disabled": 0, "fusion_lon": 0.0, "fusion_lat": 0.0, "lat": 38.89428216666667, "type": "electric_scooter", "lon": -77.01098133333333, "bike_id": "5ce8170d092d190b52985f144251e83f", "rental_uris": {"android": "https://dc.lft.to/lastmile_qr_scan", "ios": "https://dc.lft.to/lastmile_qr_scan"}, "name": "5ce8170d092d190b52985f144251e83f", "is_reserved": 0}, {"is_disabled": 0, "fusion_lon": 0.0, "fusion_lat": 0.0, "lat": 38.934720666666664, "type": "electric_scooter", "lon": -77.068871, "bike_id": "aec541c9d10316254b7ac86709482a7e", "rental_uris": {"android": "https://dc.lft.to/lastmile_qr_scan", "ios": "https://dc.lft.to/lastmile_qr_scan"}, "name": "aec541c9d10316254b7ac86709482a7e", "is_reserved": 0}, {"is_disabled": 0, "fusion_lon": 0.0, "fusion_lat": 0.0, "lat": 38.9177045, "type": "electric_scooter", "lon": -77.0475095, "bike_id": "c23404cfb94fadd01fae6c45edc9e41d", "rental_uris": {"android": "https://dc.lft.to/lastmile_qr_scan", "ios": "https://dc.lft.to/lastmile_qr_scan"}, "name": "c23404cfb94fadd01fae6c45edc9e41d", "is_reserved": 0}, {"is_disabled": 0, "fusion_lon": 0.0, "fusion_lat": 0.0, "lat": 38.9037875, "type": "electric_scooter", "lon": -77.01643133333333, "bike_id": "471579fa9f9bcc6a53c7d6cad1503e8d", "rental_uris": {"android": "https://dc.lft.to/lastmile_qr_scan", "ios": "https://dc.lft.to/lastmile_qr_scan"}, "name": "471579fa9f9bcc6a53c7d6cad1503e8d", "is_reserved": 0}, {"is_disabled": 0, "fusion_lon": 0.0, "fusion_lat": 0.0, "lat": 38.83932516666667, "type": "electric_bike", "lon": -77.079061, "bike_id": "2a1e4ea8bbfec13856bda361f5162431", "rental_uris": {"android": "https://dc.lft.to/lastmile_qr_scan", "ios": "https://dc.lft.to/lastmile_qr_scan"}, "name": "2a1e4ea8bbfec13856bda361f5162431", "is_reserved": 0}, {"is_disabled": 0, "fusion_lon": 0.0, "fusion_lat": 0.0, "lat": 38.89488133333333, "type": "electric_scooter", "lon": -77.01091533333333, "bike_id": "1f5ebccca33cbc3d714d441ec9e5d1fd", "rental_uris": {"android": "https://dc.lft.to/lastmile_qr_scan", "ios": "https://dc.lft.to/lastmile_qr_scan"}, "name": "1f5ebccca33cbc3d714d441ec9e5d1fd", "is_reserved": 0}, {"is_disabled": 0, "fusion_lon": 0.0, "fusion_lat": 0.0, "lat": 38.894784666666666, "type": "electric_scooter", "lon": -76.99525116666666, "bike_id": "2a86e23e81e782c28ffe636e06499d23", "rental_uris": {"android": "https://dc.lft.to/lastmile_qr_scan", "ios": "https://dc.lft.to/lastmile_qr_scan"}, "name": "2a86e23e81e782c28ffe636e06499d23", "is_reserved": 0}, {"is_disabled": 0, "fusion_lon": 0.0, "fusion_lat": 0.0, "lat": 38.86522516666667, "type": "electric_scooter", "lon": -76.97338666666667, "bike_id": "508f0686ebfc34c02edcfc281aa8bc45", "rental_uris": {"android": "https://dc.lft.to/lastmile_qr_scan", "ios": "https://dc.lft.to/lastmile_qr_scan"}, "name": "508f0686ebfc34c02edcfc281aa8bc45", "is_reserved": 0}, {"is_disabled": 0, "fusion_lon": 0.0, "fusion_lat": 0.0, "lat": 38.9211655, "type": "electric_scooter", "lon": -77.01775216666667, "bike_id": "93d4f334c42e90f3ba91f1d716718680", "rental_uris": {"android": "https://dc.lft.to/lastmile_qr_scan", "ios": "https://dc.lft.to/lastmile_qr_scan"}, "name": "93d4f334c42e90f3ba91f1d716718680", "is_reserved": 0}, {"is_disabled": 0, "fusion_lon": 0.0, "fusion_lat": 0.0, "lat": 38.9127575, "type": "electric_scooter", "lon": -77.03146583333333, "bike_id": "3c29d6979f1168634bd1732f55fcf062", "rental_uris": {"android": "https://dc.lft.to/lastmile_qr_scan", "ios": "https://dc.lft.to/lastmile_qr_scan"}, "name": "3c29d6979f1168634bd1732f55fcf062", "is_reserved": 0}, {"is_disabled": 0, "fusion_lon": 0.0, "fusion_lat": 0.0, "lat": 38.92683016666667, "type": "electric_scooter", "lon": -77.02687266666666, "bike_id": "255dd4c94ce029333f7c121f7a0d443c", "rental_uris": {"android": "https://dc.lft.to/lastmile_qr_scan", "ios": "https://dc.lft.to/lastmile_qr_scan"}, "name": "255dd4c94ce029333f7c121f7a0d443c", "is_reserved": 0}, {"is_disabled": 0, "fusion_lon": 0.0, "fusion_lat": 0.0, "lat": 38.96125133333334, "type": "electric_scooter", "lon": -77.0281465, "bike_id": "0b99876dd7ec6679e3effadddb9a94a2", "rental_uris": {"android": "https://dc.lft.to/lastmile_qr_scan", "ios": "https://dc.lft.to/lastmile_qr_scan"}, "name": "0b99876dd7ec6679e3effadddb9a94a2", "is_reserved": 0}, {"is_disabled": 0, "fusion_lon": 0.0, "fusion_lat": 0.0, "lat": 38.892892833333335, "type": "electric_scooter", "lon": -77.0212465, "bike_id": "c09e932e96c81237589963179f9d961f", "rental_uris": {"android": "https://dc.lft.to/lastmile_qr_scan", "ios": "https://dc.lft.to/lastmile_qr_scan"}, "name": "c09e932e96c81237589963179f9d961f", "is_reserved": 0}, {"is_disabled": 0, "fusion_lon": 0.0, "fusion_lat": 0.0, "lat": 38.949822166666664, "type": "electric_scooter", "lon": -77.02701116666667, "bike_id": "5e6439650af57a214c1dcde3ee6d8d95", "rental_uris": {"android": "https://dc.lft.to/lastmile_qr_scan", "ios": "https://dc.lft.to/lastmile_qr_scan"}, "name": "5e6439650af57a214c1dcde3ee6d8d95", "is_reserved": 0}, {"is_disabled": 0, "fusion_lon": 0.0, "fusion_lat": 0.0, "lat": 38.858127, "type": "electric_scooter", "lon": -76.9896335, "bike_id": "5604db618769ef38431f1f5d769765a7", "rental_uris": {"android": "https://dc.lft.to/lastmile_qr_scan", "ios": "https://dc.lft.to/lastmile_qr_scan"}, "name": "5604db618769ef38431f1f5d769765a7", "is_reserved": 0}, {"is_disabled": 0, "fusion_lon": 0.0, "fusion_lat": 0.0, "lat": 38.918078666666666, "type": "electric_scooter", "lon": -77.04030733333333, "bike_id": "a2c685902bb4656915499db8b785ad5d", "rental_uris": {"android": "https://dc.lft.to/lastmile_qr_scan", "ios": "https://dc.lft.to/lastmile_qr_scan"}, "name": "a2c685902bb4656915499db8b785ad5d", "is_reserved": 0}, {"is_disabled": 0, "fusion_lon": 0.0, "fusion_lat": 0.0, "lat": 38.94280083333334, "type": "electric_scooter", "lon": -77.036376, "bike_id": "bb1141e2c84e62bdc6cc54964f97bf25", "rental_uris": {"android": "https://dc.lft.to/lastmile_qr_scan", "ios": "https://dc.lft.to/lastmile_qr_scan"}, "name": "bb1141e2c84e62bdc6cc54964f97bf25", "is_reserved": 0}, {"is_disabled": 0, "fusion_lon": 0.0, "fusion_lat": 0.0, "lat": 38.916962166666664, "type": "electric_scooter", "lon": -77.02852483333334, "bike_id": "66f3fb47a0e42e71f1c3e067eb8f2bca", "rental_uris": {"android": "https://dc.lft.to/lastmile_qr_scan", "ios": "https://dc.lft.to/lastmile_qr_scan"}, "name": "66f3fb47a0e42e71f1c3e067eb8f2bca", "is_reserved": 0}, {"is_disabled": 0, "fusion_lon": 0.0, "fusion_lat": 0.0, "lat": 38.9622435, "type": "electric_scooter", "lon": -77.028068, "bike_id": "4a6ca9935a88c806d02aa55d39498c74", "rental_uris": {"android": "https://dc.lft.to/lastmile_qr_scan", "ios": "https://dc.lft.to/lastmile_qr_scan"}, "name": "4a6ca9935a88c806d02aa55d39498c74", "is_reserved": 0}, {"is_disabled": 0, "fusion_lon": 0.0, "fusion_lat": 0.0, "lat": 38.94617083333333, "type": "electric_scooter", "lon": -77.03626616666666, "bike_id": "d326501fff74d9d49f7c8d511332e34a", "rental_uris": {"android": "https://dc.lft.to/lastmile_qr_scan", "ios": "https://dc.lft.to/lastmile_qr_scan"}, "name": "d326501fff74d9d49f7c8d511332e34a", "is_reserved": 0}, {"is_disabled": 0, "fusion_lon": 0.0, "fusion_lat": 0.0, "lat": 38.951756, "type": "electric_scooter", "lon": -77.0333385, "bike_id": "875ef2f24693860e3f6f1ded84b16e0a", "rental_uris": {"android": "https://dc.lft.to/lastmile_qr_scan", "ios": "https://dc.lft.to/lastmile_qr_scan"}, "name": "875ef2f24693860e3f6f1ded84b16e0a", "is_reserved": 0}, {"is_disabled": 0, "fusion_lon": 0.0, "fusion_lat": 0.0, "lat": 38.91308466666667, "type": "electric_scooter", "lon": -77.00845366666667, "bike_id": "f633b6cc4680de895d2f468af18a1f11", "rental_uris": {"android": "https://dc.lft.to/lastmile_qr_scan", "ios": "https://dc.lft.to/lastmile_qr_scan"}, "name": "f633b6cc4680de895d2f468af18a1f11", "is_reserved": 0}, {"is_disabled": 0, "fusion_lon": 0.0, "fusion_lat": 0.0, "lat": 38.9127325, "type": "electric_scooter", "lon": -77.03371783333333, "bike_id": "b02b5ec2fb5d7a607b85ec8d39d91ccc", "rental_uris": {"android": "https://dc.lft.to/lastmile_qr_scan", "ios": "https://dc.lft.to/lastmile_qr_scan"}, "name": "b02b5ec2fb5d7a607b85ec8d39d91ccc", "is_reserved": 0}, {"is_disabled": 0, "fusion_lon": 0.0, "fusion_lat": 0.0, "lat": 38.914686333333336, "type": "electric_scooter", "lon": -77.03851633333333, "bike_id": "cbd506803972f93f9d97ee4ec7cec1c5", "rental_uris": {"android": "https://dc.lft.to/lastmile_qr_scan", "ios": "https://dc.lft.to/lastmile_qr_scan"}, "name": "cbd506803972f93f9d97ee4ec7cec1c5", "is_reserved": 0}, {"is_disabled": 0, "fusion_lon": 0.0, "fusion_lat": 0.0, "lat": 38.96618, "type": "electric_scooter", "lon": -77.0354, "bike_id": "3c82b9b72b329dbd00fb5ea7abf07caf", "rental_uris": {"android": "https://dc.lft.to/lastmile_qr_scan", "ios": "https://dc.lft.to/lastmile_qr_scan"}, "name": "3c82b9b72b329dbd00fb5ea7abf07caf", "is_reserved": 0}, {"is_disabled": 0, "fusion_lon": 0.0, "fusion_lat": 0.0, "lat": 38.93443116666667, "type": "electric_scooter", "lon": -77.02587983333333, "bike_id": "fc5e95e1d118d3f2717a23d10c9bb633", "rental_uris": {"android": "https://dc.lft.to/lastmile_qr_scan", "ios": "https://dc.lft.to/lastmile_qr_scan"}, "name": "fc5e95e1d118d3f2717a23d10c9bb633", "is_reserved": 0}, {"is_disabled": 0, "fusion_lon": 0.0, "fusion_lat": 0.0, "lat": 38.917143833333334, "type": "electric_scooter", "lon": -77.0367555, "bike_id": "acf80712623c36da71a460a391418ee5", "rental_uris": {"android": "https://dc.lft.to/lastmile_qr_scan", "ios": "https://dc.lft.to/lastmile_qr_scan"}, "name": "acf80712623c36da71a460a391418ee5", "is_reserved": 0}, {"is_disabled": 0, "fusion_lon": 0.0, "fusion_lat": 0.0, "lat": 38.92964933333333, "type": "electric_scooter", "lon": -77.04205216666666, "bike_id": "e1526cefcb1465bf79ab48f733754f15", "rental_uris": {"android": "https://dc.lft.to/lastmile_qr_scan", "ios": "https://dc.lft.to/lastmile_qr_scan"}, "name": "e1526cefcb1465bf79ab48f733754f15", "is_reserved": 0}, {"is_disabled": 0, "fusion_lon": 0.0, "fusion_lat": 0.0, "lat": 38.89615916666666, "type": "electric_scooter", "lon": -76.996434, "bike_id": "3d4586eeeefbc18a138c3ee750b19779", "rental_uris": {"android": "https://dc.lft.to/lastmile_qr_scan", "ios": "https://dc.lft.to/lastmile_qr_scan"}, "name": "3d4586eeeefbc18a138c3ee750b19779", "is_reserved": 0}, {"is_disabled": 0, "fusion_lon": 0.0, "fusion_lat": 0.0, "lat": 38.912802166666665, "type": "electric_scooter", "lon": -77.014023, "bike_id": "0c7d91f65bf01128adb958da7841678d", "rental_uris": {"android": "https://dc.lft.to/lastmile_qr_scan", "ios": "https://dc.lft.to/lastmile_qr_scan"}, "name": "0c7d91f65bf01128adb958da7841678d", "is_reserved": 0}, {"is_disabled": 0, "fusion_lon": 0.0, "fusion_lat": 0.0, "lat": 38.91880966666667, "type": "electric_scooter", "lon": -77.04425383333333, "bike_id": "bfabffbceab612d7e96a8ccbc49ce87a", "rental_uris": {"android": "https://dc.lft.to/lastmile_qr_scan", "ios": "https://dc.lft.to/lastmile_qr_scan"}, "name": "bfabffbceab612d7e96a8ccbc49ce87a", "is_reserved": 0}, {"is_disabled": 0, "fusion_lon": 0.0, "fusion_lat": 0.0, "lat": 38.91483066666667, "type": "electric_scooter", "lon": -77.032219, "bike_id": "15d2d1b351dc353b35f5ce8ecea2dfe6", "rental_uris": {"android": "https://dc.lft.to/lastmile_qr_scan", "ios": "https://dc.lft.to/lastmile_qr_scan"}, "name": "15d2d1b351dc353b35f5ce8ecea2dfe6", "is_reserved": 0}, {"is_disabled": 0, "fusion_lon": 0.0, "fusion_lat": 0.0, "lat": 38.908231, "type": "electric_scooter", "lon": -77.03398566666667, "bike_id": "bff23933bc05954dd1cb139a5c62085f", "rental_uris": {"android": "https://dc.lft.to/lastmile_qr_scan", "ios": "https://dc.lft.to/lastmile_qr_scan"}, "name": "bff23933bc05954dd1cb139a5c62085f", "is_reserved": 0}, {"is_disabled": 0, "fusion_lon": 0.0, "fusion_lat": 0.0, "lat": 38.94788166666667, "type": "electric_scooter", "lon": -77.092802, "bike_id": "a75a430656ae516edf5b003f46b5febc", "rental_uris": {"android": "https://dc.lft.to/lastmile_qr_scan", "ios": "https://dc.lft.to/lastmile_qr_scan"}, "name": "a75a430656ae516edf5b003f46b5febc", "is_reserved": 0}, {"is_disabled": 0, "fusion_lon": 0.0, "fusion_lat": 0.0, "lat": 38.918716833333335, "type": "electric_bike", "lon": -76.96124266666666, "bike_id": "ce55f11a4e8bb9e4e87724be3b599692", "rental_uris": {"android": "https://dc.lft.to/lastmile_qr_scan", "ios": "https://dc.lft.to/lastmile_qr_scan"}, "name": "ce55f11a4e8bb9e4e87724be3b599692", "is_reserved": 0}, {"is_disabled": 0, "fusion_lon": 0.0, "fusion_lat": 0.0, "lat": 38.91924316666667, "type": "electric_scooter", "lon": -77.034203, "bike_id": "3a0a2c59ec9e9a5dfdddf4607ae08709", "rental_uris": {"android": "https://dc.lft.to/lastmile_qr_scan", "ios": "https://dc.lft.to/lastmile_qr_scan"}, "name": "3a0a2c59ec9e9a5dfdddf4607ae08709", "is_reserved": 0}, {"is_disabled": 0, "fusion_lon": 0.0, "fusion_lat": 0.0, "lat": 38.86590733333333, "type": "electric_scooter", "lon": -76.99044683333334, "bike_id": "309bfa103d6e4b78f81ebb23ebb00ce2", "rental_uris": {"android": "https://dc.lft.to/lastmile_qr_scan", "ios": "https://dc.lft.to/lastmile_qr_scan"}, "name": "309bfa103d6e4b78f81ebb23ebb00ce2", "is_reserved": 0}, {"is_disabled": 0, "fusion_lon": 0.0, "fusion_lat": 0.0, "lat": 38.91924683333333, "type": "electric_scooter", "lon": -77.034181, "bike_id": "5e194210be28c1e5b2fdc36d6b9879b0", "rental_uris": {"android": "https://dc.lft.to/lastmile_qr_scan", "ios": "https://dc.lft.to/lastmile_qr_scan"}, "name": "5e194210be28c1e5b2fdc36d6b9879b0", "is_reserved": 0}, {"is_disabled": 0, "fusion_lon": 0.0, "fusion_lat": 0.0, "lat": 38.92065916666667, "type": "electric_scooter", "lon": -77.0182485, "bike_id": "5c034ed4b099a8688a7d0b1142bf0923", "rental_uris": {"android": "https://dc.lft.to/lastmile_qr_scan", "ios": "https://dc.lft.to/lastmile_qr_scan"}, "name": "5c034ed4b099a8688a7d0b1142bf0923", "is_reserved": 0}, {"is_disabled": 0, "fusion_lon": 0.0, "fusion_lat": 0.0, "lat": 38.905384, "type": "electric_scooter", "lon": -77.04671583333334, "bike_id": "4850753df2f24faf432625ded9e90f06", "rental_uris": {"android": "https://dc.lft.to/lastmile_qr_scan", "ios": "https://dc.lft.to/lastmile_qr_scan"}, "name": "4850753df2f24faf432625ded9e90f06", "is_reserved": 0}, {"is_disabled": 0, "fusion_lon": 0.0, "fusion_lat": 0.0, "lat": 38.901794, "type": "electric_scooter", "lon": -76.92828133333333, "bike_id": "846d1af9345fd8d3177e376503045870", "rental_uris": {"android": "https://dc.lft.to/lastmile_qr_scan", "ios": "https://dc.lft.to/lastmile_qr_scan"}, "name": "846d1af9345fd8d3177e376503045870", "is_reserved": 0}, {"is_disabled": 0, "fusion_lon": 0.0, "fusion_lat": 0.0, "lat": 38.93110583333333, "type": "electric_scooter", "lon": -77.03483066666666, "bike_id": "ba83025a62d740717b7fedf2bca856a4", "rental_uris": {"android": "https://dc.lft.to/lastmile_qr_scan", "ios": "https://dc.lft.to/lastmile_qr_scan"}, "name": "ba83025a62d740717b7fedf2bca856a4", "is_reserved": 0},