{"data": {"bikes": [{"bike_id": "62fc34451634dc0fe828da79669e0cbc", "type": "electric_scooter", "is_disabled": 0, "lat": 38.905893666666664, "rental_uris": {"ios": "https://dc.lft.to/lastmile_qr_scan", "android": "https://dc.lft.to/lastmile_qr_scan"}, "is_reserved": 0, "fusion_lon": 0.0, "fusion_lat": 0.0, "lon": -77.051445, "name": "62fc34451634dc0fe828da79669e0cbc"}, {"bike_id": "593b1b64ba1b6b8bf28736b252eeba1c", "type": "electric_scooter", "is_disabled": 0, "lat": 38.916798, "rental_uris": {"ios": "https://dc.lft.to/lastmile_qr_scan", "android": "https://dc.lft.to/lastmile_qr_scan"}, "is_reserved": 0, "fusion_lon": 0.0, "fusion_lat": 0.0, "lon": -77.03194866666666, "name": "593b1b64ba1b6b8bf28736b252eeba1c"}, {"bike_id": "a764a1453e4da74a69b4354daf74b2d0", "type": "electric_scooter", "is_disabled": 0, "lat": 38.9236975, "rental_uris": {"ios": "https://dc.lft.to/lastmile_qr_scan", "android": "https://dc.lft.to/lastmile_qr_scan"}, "is_reserved": 0, "fusion_lon": 0.0, "fusion_lat": 0.0, "lon": -77.01943683333333, "name": "a764a1453e4da74a69b4354daf74b2d0"}, {"bike_id": "c2207e66ba9747ec8095f23211e9530e", "type": "electric_scooter", "is_disabled": 0, "lat": 38.90386816666667, "rental_uris": {"ios": "https://dc.lft.to/lastmile_qr_scan", "android": "https://dc.lft.to/lastmile_qr_scan"}, "is_reserved": 0, "fusion_lon": 0.0, "fusion_lat": 0.0, "lon": -77.0241175, "name": "c2207e66ba9747ec8095f23211e9530e"}, {"bike_id": "75c1bdfc9467a49829624c48997c42bc", "type": "electric_scooter", "is_disabled": 0, "lat": 38.9266065, "rental_uris": {"ios": "https://dc.lft.to/lastmile_qr_scan", "android": "https://dc.lft.to/lastmile_qr_scan"}, "is_reserved": 0, "fusion_lon": 0.0, "fusion_lat": 0.0, "lon": -77.03727233333333, "name": "75c1bdfc9467a49829624c48997c42bc"}, {"bike_id": "d03f2b09a9d0c95345b5e4f5f3e84c11", "type": "electric_scooter", "is_disabled": 0, "lat": 38.890110166666666, "rental_uris": {"ios": "https://dc.lft.to/lastmile_qr_scan", "android": "https://dc.lft.to/lastmile_qr_scan"}, "is_reserved": 0, "fusion_lon": 0.0, "fusion_lat": 0.0, "lon": -77.03327233333333, "name": "d03f2b09a9d0c95345b5e4f5f3e84c11"}, {"bike_id": "300b9050565ed30449d2b9ad8f2a7ce1", "type": "electric_scooter", "is_disabled": 0, "lat": 38.91579933333333, "rental_uris": {"ios": "https://dc.lft.to/lastmile_qr_scan", "android": "https://dc.lft.to/lastmile_qr_scan"}, "is_reserved": 0, "fusion_lon": 0.0, "fusion_lat": 0.0, "lon": -77.04494333333334, "name": "300b9050565ed30449d2b9ad8f2a7ce1"}, {"bike_id": "784da149ea40fe6ff020d3f20fd10503", "type": "electric_bike", "is_disabled": 0, "lat": 38.8767765, "rental_uris": {"ios": "https://dc.lft.to/lastmile_qr_scan", "android": "https://dc.lft.to/lastmile_qr_scan"}, "is_reserved": 0, "fusion_lon": 0.0, "fusion_lat": 0.0, "lon": -77.01437133333333, "name": "784da149ea40fe6ff020d3f20fd10503"}, {"bike_id": "758208667e539b303391afe8e673d4b9", "type": "electric_scooter", "is_disabled": 0, "lat": 38.93361733333333, "rental_uris": {"ios": "https://dc.lft.to/lastmile_qr_scan", "android": "https://dc.lft.to/lastmile_qr_scan"}, "is_reserved": 0, "fusion_lon": 0.0, "fusion_lat": 0.0, "lon": -77.08850016666666, "name": "758208667e539b303391afe8e673d4b9"}, {"bike_id": "a1d93c2f1e4bc514911530a7a8d21300", "type": "electric_scooter", "is_disabled": 0, "lat": 38.9181365, "rental_uris": {"ios": "https://dc.lft.to/lastmile_qr_scan", "android": "https://dc.lft.to/lastmile_qr_scan"}, "is_reserved": 0, "fusion_lon": 0.0, "fusion_lat": 0.0, "lon": -77.03266066666667, "name": "a1d93c2f1e4bc514911530a7a8d21300"}, {"bike_id": "68b0c42a5b2e7a5e70dfd7ee688f6e38", "type": "electric_scooter", "is_disabled": 0, "lat": 38.911431666666665, "rental_uris": {"ios": "https://dc.lft.to/lastmile_qr_scan", "android": "https://dc.lft.to/lastmile_qr_scan"}, "is_reserved": 0, "fusion_lon": 0.0, "fusion_lat": 0.0, "lon": -77.02800633333334, "name": "68b0c42a5b2e7a5e70dfd7ee688f6e38"}, {"bike_id": "bfbf9bed950b0012c31bba73b24da663", "type": "electric_scooter", "is_disabled": 0, "lat": 38.90647966666667, "rental_uris": {"ios": "https://dc.lft.to/lastmile_qr_scan", "android": "https://dc.lft.to/lastmile_qr_scan"}, "is_reserved": 0, "fusion_lon": 0.0, "fusion_lat": 0.0, "lon": -77.01412533333334, "name": "bfbf9bed950b0012c31bba73b24da663"}, {"bike_id": "51d953d469113be234913428f298a14a", "type": "electric_scooter", "is_disabled": 0, "lat": 38.926195166666666, "rental_uris": {"ios": "https://dc.lft.to/lastmile_qr_scan", "android": "https://dc.lft.to/lastmile_qr_scan"}, "is_reserved": 0, "fusion_lon": 0.0, "fusion_lat": 0.0, "lon": -77.0431915, "name": "51d953d469113be234913428f298a14a"}, {"bike_id": "9d6bd6253a393345eafcd68cdff7bf6d", "type": "electric_scooter", "is_disabled": 0, "lat": 38.93540316666667, "rental_uris": {"ios": "https://dc.lft.to/lastmile_qr_scan", "android": "https://dc.lft.to/lastmile_qr_scan"}, "is_reserved": 0, "fusion_lon": 0.0, "fusion_lat": 0.0, "lon": -77.03884633333334, "name": "9d6bd6253a393345eafcd68cdff7bf6d"}, {"bike_id": "0e7833eb29c8203ca50e52d5b7c45b65", "type": "electric_scooter", "is_disabled": 0, "lat": 38.900086333333334, "rental_uris": {"ios": "https://dc.lft.to/lastmile_qr_scan", "android": "https://dc.lft.to/lastmile_qr_scan"}, "is_reserved": 0, "fusion_lon": 0.0, "fusion_lat": 0.0, "lon": -77.00202433333334, "name": "0e7833eb29c8203ca50e52d5b7c45b65"}, {"bike_id": "3239bd2c0da821150011b09e051579f4", "type": "electric_scooter", "is_disabled": 0, "lat": 38.9079945, "rental_uris": {"ios": "https://dc.lft.to/lastmile_qr_scan", "android": "https://dc.lft.to/lastmile_qr_scan"}, "is_reserved": 0, "fusion_lon": 0.0, "fusion_lat": 0.0, "lon": -77.031238, "name": "3239bd2c0da821150011b09e051579f4"}, {"bike_id": "fe17f796d554a322ed8e0665aa19c111", "type": "electric_scooter", "is_disabled": 0, "lat": 38.9100825, "rental_uris": {"ios": "https://dc.lft.to/lastmile_qr_scan", "android": "https://dc.lft.to/lastmile_qr_scan"}, "is_reserved": 0, "fusion_lon": 0.0, "fusion_lat": 0.0, "lon": -77.01619366666667, "name": "fe17f796d554a322ed8e0665aa19c111"}, {"bike_id": "a7e0078afa65321299d56764953fc0f0", "type": "electric_scooter", "is_disabled": 0, "lat": 38.91424516666667, "rental_uris": {"ios": "https://dc.lft.to/lastmile_qr_scan", "android": "https://dc.lft.to/lastmile_qr_scan"}, "is_reserved": 0, "fusion_lon": 0.0, "fusion_lat": 0.0, "lon": -77.02290283333333, "name": "a7e0078afa65321299d56764953fc0f0"}, {"bike_id": "e27d24676d9f05c92805f5519f702b9d", "type": "electric_scooter", "is_disabled": 0, "lat": 38.90513883333333, "rental_uris": {"ios": "https://dc.lft.to/lastmile_qr_scan", "android": "https://dc.lft.to/lastmile_qr_scan"}, "is_reserved": 0, "fusion_lon": 0.0, "fusion_lat": 0.0, "lon": -77.029689, "name": "e27d24676d9f05c92805f5519f702b9d"}, {"bike_id": "3219e83d7dd19dbb7d433c9fe168c735", "type": "electric_scooter", "is_disabled": 0, "lat": 38.90958583333333, "rental_uris": {"ios": "https://dc.lft.to/lastmile_qr_scan", "android": "https://dc.lft.to/lastmile_qr_scan"}, "is_reserved": 0, "fusion_lon": 0.0, "fusion_lat": 0.0, "lon": -77.0395295, "name": "3219e83d7dd19dbb7d433c9fe168c735"}, {"bike_id": "fa63cafea60a3f6e6942866cba09d39c", "type": "electric_scooter", "is_disabled": 0, "lat": 38.91964883333333, "rental_uris": {"ios": "https://dc.lft.to/lastmile_qr_scan", "android": "https://dc.lft.to/lastmile_qr_scan"}, "is_reserved": 0, "fusion_lon": 0.0, "fusion_lat": 0.0, "lon": -77.042382, "name": "fa63cafea60a3f6e6942866cba09d39c"}, {"bike_id": "25fb82111888d4297150e0506e9c794b", "type": "electric_scooter", "is_disabled": 0, "lat": 38.8999715, "rental_uris": {"ios": "https://dc.lft.to/lastmile_qr_scan", "android": "https://dc.lft.to/lastmile_qr_scan"}, "is_reserved": 0, "fusion_lon": 0.0, "fusion_lat": 0.0, "lon": -77.0208585, "name": "25fb82111888d4297150e0506e9c794b"}, {"bike_id": "e73b075ceb2c22563b8ecc7375251b4a", "type": "electric_scooter", "is_disabled": 0, "lat": 38.876597833333335, "rental_uris": {"ios": "https://dc.lft.to/lastmile_qr_scan", "android": "https://dc.lft.to/lastmile_qr_scan"}, "is_reserved": 0, "fusion_lon": 0.0, "fusion_lat": 0.0, "lon": -76.99638183333333, "name": "e73b075ceb2c22563b8ecc7375251b4a"}, {"bike_id": "17b0257a0529f0c381eeaa4bd9589cac", "type": "electric_scooter", "is_disabled": 0, "lat": 38.92093966666667, "rental_uris": {"ios": "https://dc.lft.to/lastmile_qr_scan", "android": "https://dc.lft.to/lastmile_qr_scan"}, "is_reserved": 0, "fusion_lon": 0.0, "fusion_lat": 0.0, "lon": -77.016612, "name": "17b0257a0529f0c381eeaa4bd9589cac"}, {"bike_id": "a75a06594338b02ae63fca9fa923a719", "type": "electric_bike", "is_disabled": 0, "lat": 38.931044666666665, "rental_uris": {"ios": "https://dc.lft.to/lastmile_qr_scan", "android": "https://dc.lft.to/lastmile_qr_scan"}, "is_reserved": 0, "fusion_lon": 0.0, "fusion_lat": 0.0, "lon": -77.01844733333333, "name": "a75a06594338b02ae63fca9fa923a719"}, {"bike_id": "4da7e7c244757ad1736cde6c21b98ab4", "type": "electric_scooter", "is_disabled": 0, "lat": 38.910293333333335, "rental_uris": {"ios": "https://dc.lft.to/lastmile_qr_scan", "android": "https://dc.lft.to/lastmile_qr_scan"}, "is_reserved": 0, "fusion_lon": 0.0, "fusion_lat": 0.0, "lon": -77.00758266666666, "name": "4da7e7c244757ad1736cde6c21b98ab4"}, {"bike_id": "46166ec327a087028141488aefebe4ea", "type": "electric_scooter", "is_disabled": 0, "lat": 38.933229, "rental_uris": {"ios": "https://dc.lft.to/lastmile_qr_scan", "android": "https://dc.lft.to/lastmile_qr_scan"}, "is_reserved": 0, "fusion_lon": 0.0, "fusion_lat": 0.0, "lon": -77.027472, "name": "46166ec327a087028141488aefebe4ea"}, {"bike_id": "86320001d2a35273b307998a3fe24498", "type": "electric_scooter", "is_disabled": 0, "lat": 38.922351666666664, "rental_uris": {"ios": "https://dc.lft.to/lastmile_qr_scan", "android": "https://dc.lft.to/lastmile_qr_scan"}, "is_reserved": 0, "fusion_lon": 0.0, "fusion_lat": 0.0, "lon": -76.975299, "name": "86320001d2a35273b307998a3fe24498"}, {"bike_id": "7d46e03cbd97e22e1f5a0efc0cd82949", "type": "electric_bike", "is_disabled": 0, "lat": 38.929661, "rental_uris": {"ios": "https://dc.lft.to/lastmile_qr_scan", "android": "https://dc.lft.to/lastmile_qr_scan"}, "is_reserved": 0, "fusion_lon": 0.0, "fusion_lat": 0.0, "lon": -77.185609, "name": "7d46e03cbd97e22e1f5a0efc0cd82949"}, {"bike_id": "caa431977407e861c5ac8daeafac2cd8", "type": "electric_scooter", "is_disabled": 0, "lat": 38.9261105, "rental_uris": {"ios": "https://dc.lft.to/lastmile_qr_scan", "android": "https://dc.lft.to/lastmile_qr_scan"}, "is_reserved": 0, "fusion_lon": 0.0, "fusion_lat": 0.0, "lon": -77.021574, "name": "caa431977407e861c5ac8daeafac2cd8"}, {"bike_id": "6eae01f015bc25bf5b6d64ba42f36194", "type": "electric_scooter", "is_disabled": 0, "lat": 38.893702166666664, "rental_uris": {"ios": "https://dc.lft.to/lastmile_qr_scan", "android": "https://dc.lft.to/lastmile_qr_scan"}, "is_reserved": 0, "fusion_lon": 0.0, "fusion_lat": 0.0, "lon": -76.98553933333334, "name": "6eae01f015bc25bf5b6d64ba42f36194"}, {"bike_id": "cc6f8ef95c62de699b4fd6db714ac86e", "type": "electric_scooter", "is_disabled": 0, "lat": 38.90266866666666, "rental_uris": {"ios": "https://dc.lft.to/lastmile_qr_scan", "android": "https://dc.lft.to/lastmile_qr_scan"}, "is_reserved": 0, "fusion_lon": 0.0, "fusion_lat": 0.0, "lon": -77.03382, "name": "cc6f8ef95c62de699b4fd6db714ac86e"}, {"bike_id": "c3e454a5170432632b9662b94db09192", "type": "electric_scooter", "is_disabled": 0, "lat": 38.870674666666666, "rental_uris": {"ios": "https://dc.lft.to/lastmile_qr_scan", "android": "https://dc.lft.to/lastmile_qr_scan"}, "is_reserved": 0, "fusion_lon": 0.0, "fusion_lat": 0.0, "lon": -76.98128433333333, "name": "c3e454a5170432632b9662b94db09192"}, {"bike_id": "0714480ac21edf28e708eeaa7dc1a095", "type": "electric_scooter", "is_disabled": 0, "lat": 38.902856, "rental_uris": {"ios": "https://dc.lft.to/lastmile_qr_scan", "android": "https://dc.lft.to/lastmile_qr_scan"}, "is_reserved": 0, "fusion_lon": 0.0, "fusion_lat": 0.0, "lon": -77.057913, "name": "0714480ac21edf28e708eeaa7dc1a095"}, {"bike_id": "82b014929be810742ac25d81c3deefcd", "type": "electric_scooter", "is_disabled": 0, "lat": 38.91213883333333, "rental_uris": {"ios": "https://dc.lft.to/lastmile_qr_scan", "android": "https://dc.lft.to/lastmile_qr_scan"}, "is_reserved": 0, "fusion_lon": 0.0, "fusion_lat": 0.0, "lon": -77.03837433333334, "name": "82b014929be810742ac25d81c3deefcd"}, {"bike_id": "ea0712fdddcf195a848e146814e976fa", "type": "electric_scooter", "is_disabled": 0, "lat": 38.921556333333335, "rental_uris": {"ios": "https://dc.lft.to/lastmile_qr_scan", "android": "https://dc.lft.to/lastmile_qr_scan"}, "is_reserved": 0, "fusion_lon": 0.0, "fusion_lat": 0.0, "lon": -77.03868183333333, "name": "ea0712fdddcf195a848e146814e976fa"}, {"bike_id": "3f6b0a6e2b9fd5a6b3ca8870973bb9a9", "type": "electric_bike", "is_disabled": 0, "lat": 38.90208666666667, "rental_uris": {"ios": "https://dc.lft.to/lastmile_qr_scan", "android": "https://dc.lft.to/lastmile_qr_scan"}, "is_reserved": 0, "fusion_lon": 0.0, "fusion_lat": 0.0, "lon": -76.97409066666667, "name": "3f6b0a6e2b9fd5a6b3ca8870973bb9a9"}, {"bike_id": "8d893e90a94b9a0e3404eaddfb47449b", "type": "electric_bike", "is_disabled": 0, "lat": 38.949690833333335, "rental_uris": {"ios": "https://dc.lft.to/lastmile_qr_scan", "android": "https://dc.lft.to/lastmile_qr_scan"}, "is_reserved": 0, "fusion_lon": 0.0, "fusion_lat": 0.0, "lon": -77.06637, "name": "8d893e90a94b9a0e3404eaddfb47449b"}, {"bike_id": "7d45c3eb6173bdd364f8a12f0d7b1a20", "type": "electric_bike", "is_disabled": 0, "lat": 39.05499233333333, "rental_uris": {"ios": "https://dc.lft.to/lastmile_qr_scan", "android": "https://dc.lft.to/lastmile_qr_scan"}, "is_reserved": 0, "fusion_lon": 0.0, "fusion_lat": 0.0, "lon": -77.04643533333333, "name": "7d45c3eb6173bdd364f8a12f0d7b1a20"}, {"bike_id": "2e8055b267323fef327714e5ef11e1e6", "type": "electric_scooter", "is_disabled": 0, "lat": 38.93320533333333, "rental_uris": {"ios": "https://dc.lft.to/lastmile_qr_scan", "android": "https://dc.lft.to/lastmile_qr_scan"}, "is_reserved": 0, "fusion_lon": 0.0, "fusion_lat": 0.0, "lon": -77.0722045, "name": "2e8055b267323fef327714e5ef11e1e6"}, {"bike_id": "1b2dad4a98abed27ba441b31d8fbe0a9", "type": "electric_scooter", "is_disabled": 0, "lat": 38.9271955, "rental_uris": {"ios": "https://dc.lft.to/lastmile_qr_scan", "android": "https://dc.lft.to/lastmile_qr_scan"}, "is_reserved": 0, "fusion_lon": 0.0, "fusion_lat": 0.0, "lon": -77.02718983333334, "name": "1b2dad4a98abed27ba441b31d8fbe0a9"}, {"bike_id": "c4b4f5bcf8b0eecf93e79dcb18ef9742", "type": "electric_scooter", "is_disabled": 0, "lat": 38.93955116666667, "rental_uris": {"ios": "https://dc.lft.to/lastmile_qr_scan", "android": "https://dc.lft.to/lastmile_qr_scan"}, "is_reserved": 0, "fusion_lon": 0.0, "fusion_lat": 0.0, "lon": -77.0366355, "name": "c4b4f5bcf8b0eecf93e79dcb18ef9742"}, {"bike_id": "6dc33853ffe9a3cded6a06121d6d6f47", "type": "electric_scooter", "is_disabled": 0, "lat": 38.93396633333333, "rental_uris": {"ios": "https://dc.lft.to/lastmile_qr_scan", "android": "https://dc.lft.to/lastmile_qr_scan"}, "is_reserved": 0, "fusion_lon": 0.0, "fusion_lat": 0.0, "lon": -77.03978816666667, "name": "6dc33853ffe9a3cded6a06121d6d6f47"}, {"bike_id": "f51e919b1b4a9ea2e29d340384683ca1", "type": "electric_scooter", "is_disabled": 0, "lat": 38.92883833333333, "rental_uris": {"ios": "https://dc.lft.to/lastmile_qr_scan", "android": "https://dc.lft.to/lastmile_qr_scan"}, "is_reserved": 0, "fusion_lon": 0.0, "fusion_lat": 0.0, "lon": -77.03247666666667, "name": "f51e919b1b4a9ea2e29d340384683ca1"}, {"bike_id": "4837e8fc8078a678a245fc1b7f4c123c", "type": "electric_scooter", "is_disabled": 0, "lat": 38.900402666666665, "rental_uris": {"ios": "https://dc.lft.to/lastmile_qr_scan", "android": "https://dc.lft.to/lastmile_qr_scan"}, "is_reserved": 0, "fusion_lon": 0.0, "fusion_lat": 0.0, "lon": -77.03522983333333, "name": "4837e8fc8078a678a245fc1b7f4c123c"}, {"bike_id": "793c7ce9c8083154849cd33dcb161fbc", "type": "electric_scooter", "is_disabled": 0, "lat": 38.922051333333336, "rental_uris": {"ios": "https://dc.lft.to/lastmile_qr_scan", "android": "https://dc.lft.to/lastmile_qr_scan"}, "is_reserved": 0, "fusion_lon": 0.0, "fusion_lat": 0.0, "lon": -77.03896566666667, "name": "793c7ce9c8083154849cd33dcb161fbc"}, {"bike_id": "4e11cbc5b869090810705fd2702ec542", "type": "electric_scooter", "is_disabled": 0, "lat": 38.92972016666667, "rental_uris": {"ios": "https://dc.lft.to/lastmile_qr_scan", "android": "https://dc.lft.to/lastmile_qr_scan"}, "is_reserved": 0, "fusion_lon": 0.0, "fusion_lat": 0.0, "lon": -77.01689033333334, "name": "4e11cbc5b869090810705fd2702ec542"}, {"bike_id": "edb985591580dd57c3a43910f537ca9f", "type": "electric_scooter", "is_disabled": 0, "lat": 38.90574616666667, "rental_uris": {"ios": "https://dc.lft.to/lastmile_qr_scan", "android": "https://dc.lft.to/lastmile_qr_scan"}, "is_reserved": 0, "fusion_lon": 0.0, "fusion_lat": 0.0, "lon": -77.03031233333333, "name": "edb985591580dd57c3a43910f537ca9f"}, {"bike_id": "2aea08881fa4471f2c65a361cd5a7233", "type": "electric_scooter", "is_disabled": 0, "lat": 38.90275116666667, "rental_uris": {"ios": "https://dc.lft.to/lastmile_qr_scan", "android": "https://dc.lft.to/lastmile_qr_scan"}, "is_reserved": 0, "fusion_lon": 0.0, "fusion_lat": 0.0, "lon": -77.0382805, "name": "2aea08881fa4471f2c65a361cd5a7233"}, {"bike_id": "105bfe3bc33eb65cca8008fd3c78b2ca", "type": "electric_scooter", "is_disabled": 0, "lat": 38.90603616666667, "rental_uris": {"ios": "https://dc.lft.to/lastmile_qr_scan", "android": "https://dc.lft.to/lastmile_qr_scan"}, "is_reserved": 0, "fusion_lon": 0.0, "fusion_lat": 0.0, "lon": -77.04114833333334, "name": "105bfe3bc33eb65cca8008fd3c78b2ca"}, {"bike_id": "e9971833c0722b029402dd893b87b3e9", "type": "electric_scooter", "is_disabled": 0, "lat": 38.9038685, "rental_uris": {"ios": "https://dc.lft.to/lastmile_qr_scan", "android": "https://dc.lft.to/lastmile_qr_scan"}, "is_reserved": 0, "fusion_lon": 0.0, "fusion_lat": 0.0, "lon": -77.01645283333333, "name": "e9971833c0722b029402dd893b87b3e9"}, {"bike_id": "e95c64cddfd6defeca3e458f0b86edb7", "type": "electric_scooter", "is_disabled": 0, "lat": 38.9170135, "rental_uris": {"ios": "https://dc.lft.to/lastmile_qr_scan", "android": "https://dc.lft.to/lastmile_qr_scan"}, "is_reserved": 0, "fusion_lon": 0.0, "fusion_lat": 0.0, "lon": -77.00798883333333, "name": "e95c64cddfd6defeca3e458f0b86edb7"}, {"bike_id": "f0077ea43c9d9309b461ca87793520e8", "type": "electric_scooter", "is_disabled": 0, "lat": 38.92579666666666, "rental_uris": {"ios": "https://dc.lft.to/lastmile_qr_scan", "android": "https://dc.lft.to/lastmile_qr_scan"}, "is_reserved": 0, "fusion_lon": 0.0, "fusion_lat": 0.0, "lon": -77.02757416666667, "name": "f0077ea43c9d9309b461ca87793520e8"}, {"bike_id": "9a6ab677117fae2d502fac73cabc8c04", "type": "electric_scooter", "is_disabled": 0, "lat": 38.9226145, "rental_uris": {"ios": "https://dc.lft.to/lastmile_qr_scan", "android": "https://dc.lft.to/lastmile_qr_scan"}, "is_reserved": 0, "fusion_lon": 0.0, "fusion_lat": 0.0, "lon": -77.03259566666667, "name": "9a6ab677117fae2d502fac73cabc8c04"}, {"bike_id": "feb34d2a758f417d92c2397bdc7fc2dc", "type": "electric_scooter", "is_disabled": 0, "lat": 38.92657483333333, "rental_uris": {"ios": "https://dc.lft.to/lastmile_qr_scan", "android": "https://dc.lft.to/lastmile_qr_scan"}, "is_reserved": 0, "fusion_lon": 0.0, "fusion_lat": 0.0, "lon": -77.0372475, "name": "feb34d2a758f417d92c2397bdc7fc2dc"}, {"bike_id": "418ae4adffa60258156c5a3ff0be0b08", "type": "electric_scooter", "is_disabled": 0, "lat": 38.909760666666664, "rental_uris": {"ios": "https://dc.lft.to/lastmile_qr_scan", "android": "https://dc.lft.to/lastmile_qr_scan"}, "is_reserved": 0, "fusion_lon": 0.0, "fusion_lat": 0.0, "lon": -77.03756766666666, "name": "418ae4adffa60258156c5a3ff0be0b08"}, {"bike_id": "e355d6470cd3a891d7e801e4120d70c5", "type": "electric_scooter", "is_disabled": 0, "lat": 38.914151833333335, "rental_uris": {"ios": "https://dc.lft.to/lastmile_qr_scan", "android": "https://dc.lft.to/lastmile_qr_scan"}, "is_reserved": 0, "fusion_lon": 0.0, "fusion_lat": 0.0, "lon": -77.02248583333333, "name": "e355d6470cd3a891d7e801e4120d70c5"}, {"bike_id": "8fdcb131011670c374346a8ecd8983ae", "type": "electric_scooter", "is_disabled": 0, "lat": 38.91682383333333, "rental_uris": {"ios": "https://dc.lft.to/lastmile_qr_scan", "android": "https://dc.lft.to/lastmile_qr_scan"}, "is_reserved": 0, "fusion_lon": 0.0, "fusion_lat": 0.0, "lon": -77.02943216666667, "name": "8fdcb131011670c374346a8ecd8983ae"}, {"bike_id": "d2242eacdd5c10523e532cabaddba2c3", "type": "electric_bike", "is_disabled": 0, "lat": 38.95642316666667, "rental_uris": {"ios": "https://dc.lft.to/lastmile_qr_scan", "android": "https://dc.lft.to/lastmile_qr_scan"}, "is_reserved": 0, "fusion_lon": 0.0, "fusion_lat": 0.0, "lon": -76.99791616666667, "name": "d2242eacdd5c10523e532cabaddba2c3"}, {"bike_id": "9353774c219627aca2d4f8baf56e0984", "type": "electric_scooter", "is_disabled": 0, "lat": 38.921269, "rental_uris": {"ios": "https://dc.lft.to/lastmile_qr_scan", "android": "https://dc.lft.to/lastmile_qr_scan"}, "is_reserved": 0, "fusion_lon": 0.0, "fusion_lat": 0.0, "lon": -77.03651783333333, "name": "9353774c219627aca2d4f8baf56e0984"}, {"bike_id": "1929ddf933fbf725c1f1b000f05155c6", "type": "electric_scooter", "is_disabled": 0, "lat": 38.91921583333333, "rental_uris": {"ios": "https://dc.lft.to/lastmile_qr_scan", "android": "https://dc.lft.to/lastmile_qr_scan"}, "is_reserved": 0, "fusion_lon": 0.0, "fusion_lat": 0.0, "lon": -77.03386183333333, "name": "1929ddf933fbf725c1f1b000f05155c6"}, {"bike_id": "fbb44224b5fa4b3ac0da808d3f7b89ee", "type": "electric_scooter", "is_disabled": 0, "lat": 38.91960866666667, "rental_uris": {"ios": "https://dc.lft.to/lastmile_qr_scan", "android": "https://dc.lft.to/lastmile_qr_scan"}, "is_reserved": 0, "fusion_lon": 0.0, "fusion_lat": 0.0, "lon": -77.0385235, "name": "fbb44224b5fa4b3ac0da808d3f7b89ee"}, {"bike_id": "98afdb35a5607ce428ad9cd50fca5500", "type": "electric_scooter", "is_disabled": 0, "lat": 38.920548, "rental_uris": {"ios": "https://dc.lft.to/lastmile_qr_scan", "android": "https://dc.lft.to/lastmile_qr_scan"}, "is_reserved": 0, "fusion_lon": 0.0, "fusion_lat": 0.0, "lon": -77.023542, "name": "98afdb35a5607ce428ad9cd50fca5500"}, {"bike_id": "fb207221c6e4414d0f559f87b1170bf0", "type": "electric_scooter", "is_disabled": 0, "lat": 38.920914, "rental_uris": {"ios": "https://dc.lft.to/lastmile_qr_scan", "android": "https://dc.lft.to/lastmile_qr_scan"}, "is_reserved": 0, "fusion_lon": 0.0, "fusion_lat": 0.0, "lon": -77.00434616666666, "name": "fb207221c6e4414d0f559f87b1170bf0"}, {"bike_id": "d7179cae95e898c6e309ce2cae46817b", "type": "electric_scooter", "is_disabled": 0, "lat": 38.89628366666667, "rental_uris": {"ios": "https://dc.lft.to/lastmile_qr_scan", "android": "https://dc.lft.to/lastmile_qr_scan"}, "is_reserved": 0, "fusion_lon": 0.0, "fusion_lat": 0.0, "lon": -77.03293366666666, "name": "d7179cae95e898c6e309ce2cae46817b"}, {"bike_id": "a9862473960140c51d7b10bccd0d5bd9", "type": "electric_scooter", "is_disabled": 0, "lat": 38.90849033333333, "rental_uris": {"ios": "https://dc.lft.to/lastmile_qr_scan", "android": "https://dc.lft.to/lastmile_qr_scan"}, "is_reserved": 0, "fusion_lon": 0.0, "fusion_lat": 0.0, "lon": -77.02237066666666, "name": "a9862473960140c51d7b10bccd0d5bd9"}, {"bike_id": "3d4f910e9d89dae8c5b7d88d13ede409", "type": "electric_scooter", "is_disabled": 0, "lat": 38.916396666666664, "rental_uris": {"ios": "https://dc.lft.to/lastmile_qr_scan", "android": "https://dc.lft.to/lastmile_qr_scan"}, "is_reserved": 0, "fusion_lon": 0.0, "fusion_lat": 0.0, "lon": -77.01081383333333, "name": "3d4f910e9d89dae8c5b7d88d13ede409"}, {"bike_id": "54d8864bc07deb26818e503a6465d7e7", "type": "electric_scooter", "is_disabled": 0, "lat": 38.92444533333333, "rental_uris": {"ios": "https://dc.lft.to/lastmile_qr_scan", "android": "https://dc.lft.to/lastmile_qr_scan"}, "is_reserved": 0, "fusion_lon": 0.0, "fusion_lat": 0.0, "lon": -77.0441075, "name": "54d8864bc07deb26818e503a6465d7e7"}, {"bike_id": "bacd330cc15057f08596d2c3d7a650d4", "type": "electric_bike", "is_disabled": 0, "lat": 39.01370816666667, "rental_uris": {"ios": "https://dc.lft.to/lastmile_qr_scan", "android": "https://dc.lft.to/lastmile_qr_scan"}, "is_reserved": 0, "fusion_lon": 0.0, "fusion_lat": 0.0, "lon": -76.92131583333334, "name": "bacd330cc15057f08596d2c3d7a650d4"}, {"bike_id": "691df6619abf867a2821c66f2965dabb", "type": "electric_scooter", "is_disabled": 0, "lat": 38.92006883333333, "rental_uris": {"ios": "https://dc.lft.to/lastmile_qr_scan", "android": "https://dc.lft.to/lastmile_qr_scan"}, "is_reserved": 0, "fusion_lon": 0.0, "fusion_lat": 0.0, "lon": -77.01789883333333, "name": "691df6619abf867a2821c66f2965dabb"}, {"bike_id": "6e71ffd6fe8868b5e2ba528a39333ce0", "type": "electric_scooter", "is_disabled": 0, "lat": 38.9007435, "rental_uris": {"ios": "https://dc.lft.to/lastmile_qr_scan", "android": "https://dc.lft.to/lastmile_qr_scan"}, "is_reserved": 0, "fusion_lon": 0.0, "fusion_lat": 0.0, "lon": -77.047426, "name": "6e71ffd6fe8868b5e2ba528a39333ce0"}, {"bike_id": "8ddbfbb06d27226b78074ab95b850041", "type": "electric_scooter", "is_disabled": 0, "lat": 38.93934183333333, "rental_uris": {"ios": "https://dc.lft.to/lastmile_qr_scan", "android": "https://dc.lft.to/lastmile_qr_scan"}, "is_reserved": 0, "fusion_lon": 0.0, "fusion_lat": 0.0, "lon": -77.0368535, "name": "8ddbfbb06d27226b78074ab95b850041"}, {"bike_id": "5102d9ab5d5d9be3b12d8dabcf12e75d", "type": "electric_scooter", "is_disabled": 0, "lat": 38.918296166666664, "rental_uris": {"ios": "https://dc.lft.to/lastmile_qr_scan", "android": "https://dc.lft.to/lastmile_qr_scan"}, "is_reserved": 0, "fusion_lon": 0.0, "fusion_lat": 0.0, "lon": -77.04559983333333, "name": "5102d9ab5d5d9be3b12d8dabcf12e75d"}, {"bike_id": "ec27190ff82aa26f4e83d3ef86edc593", "type": "electric_scooter", "is_disabled": 0, "lat": 38.927774166666666, "rental_uris": {"ios": "https://dc.lft.to/lastmile_qr_scan", "android": "https://dc.lft.to/lastmile_qr_scan"}, "is_reserved": 0, "fusion_lon": 0.0, "fusion_lat": 0.0, "lon": -77.05413216666666, "name": "ec27190ff82aa26f4e83d3ef86edc593"}, {"bike_id": "dc7f07a1b3cfe03f0f31799128e5db64", "type": "electric_scooter", "is_disabled": 0, "lat": 38.92019783333333, "rental_uris": {"ios": "https://dc.lft.to/lastmile_qr_scan", "android": "https://dc.lft.to/lastmile_qr_scan"}, "is_reserved": 0, "fusion_lon": 0.0, "fusion_lat": 0.0, "lon": -77.03117533333334, "name": "dc7f07a1b3cfe03f0f31799128e5db64"}, {"bike_id": "76bab978197753f9491fff6ee1822e00", "type": "electric_bike", "is_disabled": 0, "lat": 38.82952866666667, "rental_uris": {"ios": "https://dc.lft.to/lastmile_qr_scan", "android": "https://dc.lft.to/lastmile_qr_scan"}, "is_reserved": 0, "fusion_lon": 0.0, "fusion_lat": 0.0, "lon": -77.1235225, "name": "76bab978197753f9491fff6ee1822e00"}, {"bike_id": "b5bcb2488c43d009e4d461e0cd39beff", "type": "electric_scooter", "is_disabled": 0, "lat": 38.94353016666667, "rental_uris": {"ios": "https://dc.lft.to/lastmile_qr_scan", "android": "https://dc.lft.to/lastmile_qr_scan"}, "is_reserved": 0, "fusion_lon": 0.0, "fusion_lat": 0.0, "lon": -77.0613325, "name": "b5bcb2488c43d009e4d461e0cd39beff"}, {"bike_id": "60eaf06ddb4bbc4a59c3bf133582ad18", "type": "electric_scooter", "is_disabled": 0, "lat": 38.8620605, "rental_uris": {"ios": "https://dc.lft.to/lastmile_qr_scan", "android": "https://dc.lft.to/lastmile_qr_scan"}, "is_reserved": 0, "fusion_lon": 0.0, "fusion_lat": 0.0, "lon": -76.99465233333333, "name": "60eaf06ddb4bbc4a59c3bf133582ad18"}, {"bike_id": "5bdeed30b3549b1fb107b8d305bd658f", "type": "electric_scooter", "is_disabled": 0, "lat": 38.926316, "rental_uris": {"ios": "https://dc.lft.to/lastmile_qr_scan", "android": "https://dc.lft.to/lastmile_qr_scan"}, "is_reserved": 0, "fusion_lon": 0.0, "fusion_lat": 0.0, "lon": -77.021735, "name": "5bdeed30b3549b1fb107b8d305bd658f"}, {"bike_id": "5c013bb5474408358f665b50820d3a62", "type": "electric_scooter", "is_disabled": 0, "lat": 38.90726933333333, "rental_uris": {"ios": "https://dc.lft.to/lastmile_qr_scan", "android": "https://dc.lft.to/lastmile_qr_scan"}, "is_reserved": 0, "fusion_lon": 0.0, "fusion_lat": 0.0, "lon": -77.009706, "name": "5c013bb5474408358f665b50820d3a62"}, {"bike_id": "83ab885f6433a9b613dde48b99dd6fd2", "type": "electric_scooter", "is_disabled": 0, "lat": 38.92788266666667, "rental_uris": {"ios": "https://dc.lft.to/lastmile_qr_scan", "android": "https://dc.lft.to/lastmile_qr_scan"}, "is_reserved": 0, "fusion_lon": 0.0, "fusion_lat": 0.0, "lon": -77.052624, "name": "83ab885f6433a9b613dde48b99dd6fd2"}, {"bike_id": "79ef99d0f6fee48fb5f3c4f2eb86a255", "type": "electric_scooter", "is_disabled": 0, "lat": 38.947180833333334, "rental_uris": {"ios": "https://dc.lft.to/lastmile_qr_scan", "android": "https://dc.lft.to/lastmile_qr_scan"}, "is_reserved": 0, "fusion_lon": 0.0, "fusion_lat": 0.0, "lon": -77.027766, "name": "79ef99d0f6fee48fb5f3c4f2eb86a255"}, {"bike_id": "9c073534905cef911a5dda2dc8e468ec", "type": "electric_scooter", "is_disabled": 0, "lat": 38.913440333333334, "rental_uris": {"ios": "https://dc.lft.to/lastmile_qr_scan", "android": "https://dc.lft.to/lastmile_qr_scan"}, "is_reserved": 0, "fusion_lon": 0.0, "fusion_lat": 0.0, "lon": -77.0316815, "name": "9c073534905cef911a5dda2dc8e468ec"}, {"bike_id": "26e7244374a0ab68fa7829127b11078d", "type": "electric_scooter", "is_disabled": 0, "lat": 38.882717, "rental_uris": {"ios": "https://dc.lft.to/lastmile_qr_scan", "android": "https://dc.lft.to/lastmile_qr_scan"}, "is_reserved": 0, "fusion_lon": 0.0, "fusion_lat": 0.0, "lon": -76.9950185, "name": "26e7244374a0ab68fa7829127b11078d"}, {"bike_id": "46a1b85189fe4d2d0ca2c6185a4f27cb", "type": "electric_scooter", "is_disabled": 0, "lat": 38.90798433333333, "rental_uris": {"ios": "https://dc.lft.to/lastmile_qr_scan", "android": "https://dc.lft.to/lastmile_qr_scan"}, "is_reserved": 0, "fusion_lon": 0.0, "fusion_lat": 0.0, "lon": -77.034747, "name": "46a1b85189fe4d2d0ca2c6185a4f27cb"}, {"bike_id": "f607c08c2e5d8beb435d801e1b17bad5", "type": "electric_scooter", "is_disabled": 0, "lat": 38.8667795, "rental_uris": {"ios": "https://dc.lft.to/lastmile_qr_scan", "android": "https://dc.lft.to/lastmile_qr_scan"}, "is_reserved": 0, "fusion_lon": 0.0, "fusion_lat": 0.0, "lon": -76.985295, "name": "f607c08c2e5d8beb435d801e1b17bad5"}, {"bike_id": "eef9b13bcae81443b9356b1e189af66c", "type": "electric_bike", "is_disabled": 0, "lat": 38.89292783333333, "rental_uris": {"ios": "https://dc.lft.to/lastmile_qr_scan", "android": "https://dc.lft.to/lastmile_qr_scan"}, "is_reserved": 0, "fusion_lon": 0.0, "fusion_lat": 0.0, "lon": -76.97617316666667, "name": "eef9b13bcae81443b9356b1e189af66c"}, {"bike_id": "72ffd9ca0e1e4182d31f543ead401939", "type": "electric_scooter", "is_disabled": 0, "lat": 38.92219383333333, "rental_uris": {"ios": "https://dc.lft.to/lastmile_qr_scan", "android": "https://dc.lft.to/lastmile_qr_scan"}, "is_reserved": 0, "fusion_lon": 0.0, "fusion_lat": 0.0, "lon": -77.03456583333333, "name": "72ffd9ca0e1e4182d31f543ead401939"}, {"bike_id": "9d80dc76fafae345cdda1aa31aa34268", "type": "electric_bike", "is_disabled": 0, "lat": 38.86486716666667, "rental_uris": {"ios": "https://dc.lft.to/lastmile_qr_scan", "android": "https://dc.lft.to/lastmile_qr_scan"}, "is_reserved": 0, "fusion_lon": 0.0, "fusion_lat": 0.0, "lon": -76.977506, "name": "9d80dc76fafae345cdda1aa31aa34268"}, {"bike_id": "2d711fe2f110a000ae57103aacd66e85", "type": "electric_scooter", "is_disabled": 0, "lat": 38.8707275, "rental_uris": {"ios": "https://dc.lft.to/lastmile_qr_scan", "android": "https://dc.lft.to/lastmile_qr_scan"}, "is_reserved": 0, "fusion_lon": 0.0, "fusion_lat": 0.0, "lon": -76.98124383333334, "name": "2d711fe2f110a000ae57103aacd66e85"}, {"bike_id": "c824e00c0a2418857ab371f6f2757bd2", "type": "electric_scooter", "is_disabled": 0, "lat": 38.918132, "rental_uris": {"ios": "https://dc.lft.to/lastmile_qr_scan", "android": "https://dc.lft.to/lastmile_qr_scan"}, "is_reserved": 0, "fusion_lon": 0.0, "fusion_lat": 0.0, "lon": -77.03164716666667, "name": "c824e00c0a2418857ab371f6f2757bd2"}, {"bike_id": "a6d55aa1f4a02c2a24b65a1b1872fd69", "type": "electric_scooter", "is_disabled": 0, "lat": 38.928487833333335, "rental_uris": {"ios": "https://dc.lft.to/lastmile_qr_scan", "android": "https://dc.lft.to/lastmile_qr_scan"}, "is_reserved": 0, "fusion_lon": 0.0, "fusion_lat": 0.0, "lon": -77.01405666666666, "name": "a6d55aa1f4a02c2a24b65a1b1872fd69"}, {"bike_id": "31750dcf2005d0d26f45e9dd356c8bec", "type": "electric_scooter", "is_disabled": 0, "lat": 38.90030183333333, "rental_uris": {"ios": "https://dc.lft.to/lastmile_qr_scan", "android": "https://dc.lft.to/lastmile_qr_scan"}, "is_reserved": 0, "fusion_lon": 0.0, "fusion_lat": 0.0, "lon": -76.99856416666667, "name": "31750dcf2005d0d26f45e9dd356c8bec"}, {"bike_id": "f38361f628206e0414849dbf6012b0c7", "type": "electric_scooter", "is_disabled": 0, "lat": 38.926188333333336, "rental_uris": {"ios": "https://dc.lft.to/lastmile_qr_scan", "android": "https://dc.lft.to/lastmile_qr_scan"}, "is_reserved": 0, "fusion_lon": 0.0, "fusion_lat": 0.0, "lon": -77.04180866666667, "name": "f38361f628206e0414849dbf6012b0c7"}, {"bike_id": "8aebb36d7b8fd42583747997b0c798b2", "type": "electric_scooter", "is_disabled": 0, "lat": 38.85812133333334, "rental_uris": {"ios": "https://dc.lft.to/lastmile_qr_scan", "android": "https://dc.lft.to/lastmile_qr_scan"}, "is_reserved": 0, "fusion_lon": 0.0, "fusion_lat": 0.0, "lon": -76.98923383333333, "name": "8aebb36d7b8fd42583747997b0c798b2"}, {"bike_id": "946a90310167e77428ef8bc5950462e3", "type": "electric_bike", "is_disabled": 0, "lat": 38.80397083333333, "rental_uris": {"ios": "https://dc.lft.to/lastmile_qr_scan", "android": "https://dc.lft.to/lastmile_qr_scan"}, "is_reserved": 0, "fusion_lon": 0.0, "fusion_lat": 0.0, "lon": -77.055566, "name": "946a90310167e77428ef8bc5950462e3"}, {"bike_id": "3595df5eefb1c5eda74f12f1ec1ab754", "type": "electric_scooter", "is_disabled": 0, "lat": 38.93429033333334, "rental_uris": {"ios": "https://dc.lft.to/lastmile_qr_scan", "android": "https://dc.lft.to/lastmile_qr_scan"}, "is_reserved": 0, "fusion_lon": 0.0, "fusion_lat": 0.0, "lon": -77.03996033333334, "name": "3595df5eefb1c5eda74f12f1ec1ab754"}, {"bike_id": "7cda5d21ec77117edcb235bde1fca34f", "type": "electric_scooter", "is_disabled": 0, "lat": 38.929727666666665, "rental_uris": {"ios": "https://dc.lft.to/lastmile_qr_scan", "android": "https://dc.lft.to/lastmile_qr_scan"}, "is_reserved": 0, "fusion_lon": 0.0, "fusion_lat": 0.0, "lon": -77.02817516666667, "name": "7cda5d21ec77117edcb235bde1fca34f"}, {"bike_id": "48305948d39b2f702cee4e0e98f44027", "type": "electric_scooter", "is_disabled": 0, "lat": 38.89524616666667, "rental_uris": {"ios": "https://dc.lft.to/lastmile_qr_scan", "android": "https://dc.lft.to/lastmile_qr_scan"}, "is_reserved": 0, "fusion_lon": 0.0, "fusion_lat": 0.0, "lon": -77.01110466666667, "name": "48305948d39b2f702cee4e0e98f44027"}, {"bike_id": "7b9e7d1dfc8698585b8ae714d1897d17", "type": "electric_scooter", "is_disabled": 0, "lat": 38.880136, "rental_uris": {"ios": "https://dc.lft.to/lastmile_qr_scan", "android": "https://dc.lft.to/lastmile_qr_scan"}, "is_reserved": 0, "fusion_lon": 0.0, "fusion_lat": 0.0, "lon": -77.024866, "name": "7b9e7d1dfc8698585b8ae714d1897d17"}, {"bike_id": "1396ec87c38fa8a30140806e63c5f7cb", "type": "electric_scooter", "is_disabled": 0, "lat": 38.93251516666667, "rental_uris": {"ios": "https://dc.lft.to/lastmile_qr_scan", "android": "https://dc.lft.to/lastmile_qr_scan"}, "is_reserved": 0, "fusion_lon": 0.0, "fusion_lat": 0.0, "lon": -77.032719, "name": "1396ec87c38fa8a30140806e63c5f7cb"}, {"bike_id": "60b050dbf25779f3ef3196888713a32a", "type": "electric_scooter", "is_disabled": 0, "lat": 38.90029083333334, "rental_uris": {"ios": "https://dc.lft.to/lastmile_qr_scan", "android": "https://dc.lft.to/lastmile_qr_scan"}, "is_reserved": 0, "fusion_lon": 0.0, "fusion_lat": 0.0, "lon": -76.99419633333333, "name": "60b050dbf25779f3ef3196888713a32a"}, {"bike_id": "bd45a81929f06075bfde796a593a52ea", "type": "electric_scooter", "is_disabled": 0, "lat": 38.90323466666667, "rental_uris": {"ios": "https://dc.lft.to/lastmile_qr_scan", "android": "https://dc.lft.to/lastmile_qr_scan"}, "is_reserved": 0, "fusion_lon": 0.0, "fusion_lat": 0.0, "lon": -76.97549933333333, "name": "bd45a81929f06075bfde796a593a52ea"}, {"bike_id": "e808c675bd8177383406b7e44ae47ffa", "type": "electric_scooter", "is_disabled": 0, "lat": 38.8874515, "rental_uris": {"ios": "https://dc.lft.to/lastmile_qr_scan", "android": "https://dc.lft.to/lastmile_qr_scan"}, "is_reserved": 0, "fusion_lon": 0.0, "fusion_lat": 0.0, "lon": -77.027168, "name": "e808c675bd8177383406b7e44ae47ffa"}, {"bike_id": "d4915a35a9c4e44e662d48e6413514dd", "type": "electric_scooter", "is_disabled": 0, "lat": 38.941870333333334, "rental_uris": {"ios": "https://dc.lft.to/lastmile_qr_scan", "android": "https://dc.lft.to/lastmile_qr_scan"}, "is_reserved": 0, "fusion_lon": 0.0, "fusion_lat": 0.0, "lon": -77.02489966666667, "name": "d4915a35a9c4e44e662d48e6413514dd"}, {"bike_id": "388114d3d518d4086d27774ec7a21f3e", "type": "electric_scooter", "is_disabled": 0, "lat": 38.93908166666667, "rental_uris": {"ios": "https://dc.lft.to/lastmile_qr_scan", "android": "https://dc.lft.to/lastmile_qr_scan"}, "is_reserved": 0, "fusion_lon": 0.0, "fusion_lat": 0.0, "lon": -77.03323583333334, "name": "388114d3d518d4086d27774ec7a21f3e"}, {"bike_id": "d4ed17d9f2faab56dc36b8d0fa757529", "type": "electric_scooter", "is_disabled": 0, "lat": 38.899483000000004, "rental_uris": {"ios": "https://dc.lft.to/lastmile_qr_scan", "android": "https://dc.lft.to/lastmile_qr_scan"}, "is_reserved": 0, "fusion_lon": 0.0, "fusion_lat": 0.0, "lon": -77.0477775, "name": "d4ed17d9f2faab56dc36b8d0fa757529"}, {"bike_id": "756a98d8a5c40f92ba824421808fcef2", "type": "electric_bike", "is_disabled": 0, "lat": 38.808953, "rental_uris": {"ios": "https://dc.lft.to/lastmile_qr_scan", "android": "https://dc.lft.to/lastmile_qr_scan"}, "is_reserved": 0, "fusion_lon": 0.0, "fusion_lat": 0.0, "lon": -77.08645166666666, "name": "756a98d8a5c40f92ba824421808fcef2"}, {"bike_id": "3bc0e10edfdc1cff4e165a66c13f2786", "type": "electric_bike", "is_disabled": 0, "lat": 39.01484883333333, "rental_uris": {"ios": "https://dc.lft.to/lastmile_qr_scan", "android": "https://dc.lft.to/lastmile_qr_scan"}, "is_reserved": 0, "fusion_lon": 0.0, "fusion_lat": 0.0, "lon": -77.05491383333333, "name": "3bc0e10edfdc1cff4e165a66c13f2786"}, {"bike_id": "685a5798dbfd15940e551fadfaa20a35", "type": "electric_scooter", "is_disabled": 0, "lat": 38.930812833333334, "rental_uris": {"ios": "https://dc.lft.to/lastmile_qr_scan", "android": "https://dc.lft.to/lastmile_qr_scan"}, "is_reserved": 0, "fusion_lon": 0.0, "fusion_lat": 0.0, "lon": -77.02794466666667, "name": "685a5798dbfd15940e551fadfaa20a35"}, {"bike_id": "5f9df58fc3be78aac0dc887779ffeaa3", "type": "electric_scooter", "is_disabled": 0, "lat": 38.91891066666667, "rental_uris": {"ios": "https://dc.lft.to/lastmile_qr_scan", "android": "https://dc.lft.to/lastmile_qr_scan"}, "is_reserved": 0, "fusion_lon": 0.0, "fusion_lat": 0.0, "lon": -77.0146265, "name": "5f9df58fc3be78aac0dc887779ffeaa3"}, {"bike_id": "d83863deaa0a45a1fb1d194c7a9fccee", "type": "electric_scooter", "is_disabled": 0, "lat": 38.91083916666667, "rental_uris": {"ios": "https://dc.lft.to/lastmile_qr_scan", "android": "https://dc.lft.to/lastmile_qr_scan"}, "is_reserved": 0, "fusion_lon": 0.0, "fusion_lat": 0.0, "lon": -77.01508033333333, "name": "d83863deaa0a45a1fb1d194c7a9fccee"}, {"bike_id": "ec0e5318b613b1d22b3ffd866482cb47", "type": "electric_scooter", "is_disabled": 0, "lat": 38.9287435, "rental_uris": {"ios": "https://dc.lft.to/lastmile_qr_scan", "android": "https://dc.lft.to/lastmile_qr_scan"}, "is_reserved": 0, "fusion_lon": 0.0, "fusion_lat": 0.0, "lon": -77.0122975, "name": "ec0e5318b613b1d22b3ffd866482cb47"}, {"bike_id": "9d2d58ce710d2300fad23fd10c1d8c43", "type": "electric_scooter", "is_disabled": 0, "lat": 38.90043033333333, "rental_uris": {"ios": "https://dc.lft.to/lastmile_qr_scan", "android": "https://dc.lft.to/lastmile_qr_scan"}, "is_reserved": 0, "fusion_lon": 0.0, "fusion_lat": 0.0, "lon": -77.01773733333333, "name": "9d2d58ce710d2300fad23fd10c1d8c43"}, {"bike_id": "ad742fe43f0c38fb5adb42b1a7dd0561", "type": "electric_scooter", "is_disabled": 0, "lat": 38.90195, "rental_uris": {"ios": "https://dc.lft.to/lastmile_qr_scan", "android": "https://dc.lft.to/lastmile_qr_scan"}, "is_reserved": 0, "fusion_lon": 0.0, "fusion_lat": 0.0, "lon": -77.01290566666667, "name": "ad742fe43f0c38fb5adb42b1a7dd0561"}, {"bike_id": "443bfb0c61aa3a51624ad05d26acc6b2", "type": "electric_scooter", "is_disabled": 0, "lat": 38.91119483333333, "rental_uris": {"ios": "https://dc.lft.to/lastmile_qr_scan", "android": "https://dc.lft.to/lastmile_qr_scan"}, "is_reserved": 0, "fusion_lon": 0.0, "fusion_lat": 0.0, "lon": -77.04158116666666, "name": "443bfb0c61aa3a51624ad05d26acc6b2"}, {"bike_id": "9d16359fcd774007b33d5c7dde4ed1d7", "type": "electric_scooter", "is_disabled": 0, "lat": 38.9051595, "rental_uris": {"ios": "https://dc.lft.to/lastmile_qr_scan", "android": "https://dc.lft.to/lastmile_qr_scan"}, "is_reserved": 0, "fusion_lon": 0.0, "fusion_lat": 0.0, "lon": -77.029688, "name": "9d16359fcd774007b33d5c7dde4ed1d7"}, {"bike_id": "56c06de13a7ea2cda0b287e3201c07b3", "type": "electric_scooter", "is_disabled": 0, "lat": 38.92388966666667, "rental_uris": {"ios": "https://dc.lft.to/lastmile_qr_scan", "android": "https://dc.lft.to/lastmile_qr_scan"}, "is_reserved": 0, "fusion_lon": 0.0, "fusion_lat": 0.0, "lon": -77.03067966666667, "name": "56c06de13a7ea2cda0b287e3201c07b3"}, {"bike_id": "34c431125a76ccedcbe892acaee00586", "type": "electric_scooter", "is_disabled": 0, "lat": 38.88014116666667, "rental_uris": {"ios": "https://dc.lft.to/lastmile_qr_scan", "android": "https://dc.lft.to/lastmile_qr_scan"}, "is_reserved": 0, "fusion_lon": 0.0, "fusion_lat": 0.0, "lon": -77.0247715, "name": "34c431125a76ccedcbe892acaee00586"}, {"bike_id": "3d141ccc8a18c77543d0990a69d35d69", "type": "electric_scooter", "is_disabled": 0, "lat": 38.900301666666664, "rental_uris": {"ios": "https://dc.lft.to/lastmile_qr_scan", "android": "https://dc.lft.to/lastmile_qr_scan"}, "is_reserved": 0, "fusion_lon": 0.0, "fusion_lat": 0.0, "lon": -77.046768, "name": "3d141ccc8a18c77543d0990a69d35d69"}, {"bike_id": "a24f1bfc6cfc884314546c5598b4b750", "type": "electric_scooter", "is_disabled": 0, "lat": 38.898001, "rental_uris": {"ios": "https://dc.lft.to/lastmile_qr_scan", "android": "https://dc.lft.to/lastmile_qr_scan"}, "is_reserved": 0, "fusion_lon": 0.0, "fusion_lat": 0.0, "lon": -77.01188433333333, "name": "a24f1bfc6cfc884314546c5598b4b750"}, {"bike_id": "15113668c3e977eb0841e071eb2bd076", "type": "electric_scooter", "is_disabled": 0, "lat": 38.910489166666665, "rental_uris": {"ios": "https://dc.lft.to/lastmile_qr_scan", "android": "https://dc.lft.to/lastmile_qr_scan"}, "is_reserved": 0, "fusion_lon": 0.0, "fusion_lat": 0.0, "lon": -77.05870466666667, "name": "15113668c3e977eb0841e071eb2bd076"}, {"bike_id": "88ee402fe91a448d68ec937472630690", "type": "electric_scooter", "is_disabled": 0, "lat": 38.92654733333333, "rental_uris": {"ios": "https://dc.lft.to/lastmile_qr_scan", "android": "https://dc.lft.to/lastmile_qr_scan"}, "is_reserved": 0, "fusion_lon": 0.0, "fusion_lat": 0.0, "lon": -77.03730933333334, "name": "88ee402fe91a448d68ec937472630690"}, {"bike_id": "9e6c18512a48723e2bd389c7d085265a", "type": "electric_scooter", "is_disabled": 0, "lat": 38.911233333333335, "rental_uris": {"ios": "https://dc.lft.to/lastmile_qr_scan", "android": "https://dc.lft.to/lastmile_qr_scan"}, "is_reserved": 0, "fusion_lon": 0.0, "fusion_lat": 0.0, "lon": -77.04234433333333, "name": "9e6c18512a48723e2bd389c7d085265a"}, {"bike_id": "45dfc050697c3bb130d341daec39d02e", "type": "electric_scooter", "is_disabled": 0, "lat": 38.92122616666666, "rental_uris": {"ios": "https://dc.lft.to/lastmile_qr_scan", "android": "https://dc.lft.to/lastmile_qr_scan"}, "is_reserved": 0, "fusion_lon": 0.0, "fusion_lat": 0.0, "lon": -77.0365825, "name": "45dfc050697c3bb130d341daec39d02e"}, {"bike_id": "70817e79689ca78b0aaf227dd0734cbf", "type": "electric_scooter", "is_disabled": 0, "lat": 38.90669283333333, "rental_uris": {"ios": "https://dc.lft.to/lastmile_qr_scan", "android": "https://dc.lft.to/lastmile_qr_scan"}, "is_reserved": 0, "fusion_lon": 0.0, "fusion_lat": 0.0, "lon": -77.0271135, "name": "70817e79689ca78b0aaf227dd0734cbf"}, {"bike_id": "2301a65ec31e40d50f4be468910965b8", "type": "electric_scooter", "is_disabled": 0, "lat": 38.92362983333334, "rental_uris": {"ios": "https://dc.lft.to/lastmile_qr_scan", "android": "https://dc.lft.to/lastmile_qr_scan"}, "is_reserved": 0, "fusion_lon": 0.0, "fusion_lat": 0.0, "lon": -77.05126583333333, "name": "2301a65ec31e40d50f4be468910965b8"}, {"bike_id": "9b911ea5f5aee868d42545cd10d848ba", "type": "electric_bike", "is_disabled": 0, "lat": 38.8323745, "rental_uris": {"ios": "https://dc.lft.to/lastmile_qr_scan", "android": "https://dc.lft.to/lastmile_qr_scan"}, "is_reserved": 0, "fusion_lon": 0.0, "fusion_lat": 0.0, "lon": -76.946272, "name": "9b911ea5f5aee868d42545cd10d848ba"}, {"bike_id": "1fac10a69ab3918b3b37407f085d16bc", "type": "electric_bike", "is_disabled": 0, "lat": 39.05054166666667, "rental_uris": {"ios": "https://dc.lft.to/lastmile_qr_scan", "android": "https://dc.lft.to/lastmile_qr_scan"}, "is_reserved": 0, "fusion_lon": 0.0, "fusion_lat": 0.0, "lon": -77.05147483333333, "name": "1fac10a69ab3918b3b37407f085d16bc"}, {"bike_id": "221fd7aa2c30de127d3b62b3d3edf0e5", "type": "electric_scooter", "is_disabled": 0, "lat": 38.9142005, "rental_uris": {"ios": "https://dc.lft.to/lastmile_qr_scan", "android": "https://dc.lft.to/lastmile_qr_scan"}, "is_reserved": 0, "fusion_lon": 0.0, "fusion_lat": 0.0, "lon": -77.02983883333333, "name": "221fd7aa2c30de127d3b62b3d3edf0e5"}, {"bike_id": "ff73f08633eba4efe34c790f63a9f6a8", "type": "electric_scooter", "is_disabled": 0, "lat": 38.9001255, "rental_uris": {"ios": "https://dc.lft.to/lastmile_qr_scan", "android": "https://dc.lft.to/lastmile_qr_scan"}, "is_reserved": 0, "fusion_lon": 0.0, "fusion_lat": 0.0, "lon": -77.04469, "name": "ff73f08633eba4efe34c790f63a9f6a8"}, {"bike_id": "9448f138fa92fd3bee390c1b6b1efd0e", "type": "electric_scooter", "is_disabled": 0, "lat": 38.932512333333335, "rental_uris": {"ios": "https://dc.lft.to/lastmile_qr_scan", "android": "https://dc.lft.to/lastmile_qr_scan"}, "is_reserved": 0, "fusion_lon": 0.0, "fusion_lat": 0.0, "lon": -77.03844383333333, "name": "9448f138fa92fd3bee390c1b6b1efd0e"}, {"bike_id": "d9df72d7e8875b9fe25278870d4159fb", "type": "electric_scooter", "is_disabled": 0, "lat": 38.89346466666667, "rental_uris": {"ios": "https://dc.lft.to/lastmile_qr_scan", "android": "https://dc.lft.to/lastmile_qr_scan"}, "is_reserved": 0, "fusion_lon": 0.0, "fusion_lat": 0.0, "lon": -77.02830133333333, "name": "d9df72d7e8875b9fe25278870d4159fb"}, {"bike_id": "0550ba4c70b2f3021e270b308fc097ee", "type": "electric_scooter", "is_disabled": 0, "lat": 38.904284, "rental_uris": {"ios": "https://dc.lft.to/lastmile_qr_scan", "android": "https://dc.lft.to/lastmile_qr_scan"}, "is_reserved": 0, "fusion_lon": 0.0, "fusion_lat": 0.0, "lon": -77.02766883333334, "name": "0550ba4c70b2f3021e270b308fc097ee"}, {"bike_id": "8e16a57b2e05ba3a3fc192f788b937ea", "type": "electric_scooter", "is_disabled": 0, "lat": 38.92156133333334, "rental_uris": {"ios": "https://dc.lft.to/lastmile_qr_scan", "android": "https://dc.lft.to/lastmile_qr_scan"}, "is_reserved": 0, "fusion_lon": 0.0, "fusion_lat": 0.0, "lon": -77.03440583333334, "name": "8e16a57b2e05ba3a3fc192f788b937ea"}, {"bike_id": "63bcd8f1ab360cbdec67770ab0083cb0", "type": "electric_scooter", "is_disabled": 0, "lat": 38.878531, "rental_uris": {"ios": "https://dc.lft.to/lastmile_qr_scan", "android": "https://dc.lft.to/lastmile_qr_scan"}, "is_reserved": 0, "fusion_lon": 0.0, "fusion_lat": 0.0, "lon": -77.00573416666667, "name": "63bcd8f1ab360cbdec67770ab0083cb0"}, {"bike_id": "f0f8c64f1d1ef005c9f623aaf5e5f5d3", "type": "electric_scooter", "is_disabled": 0, "lat": 38.94211766666667, "rental_uris": {"ios": "https://dc.lft.to/lastmile_qr_scan", "android": "https://dc.lft.to/lastmile_qr_scan"}, "is_reserved": 0, "fusion_lon": 0.0, "fusion_lat": 0.0, "lon": -77.025829, "name": "f0f8c64f1d1ef005c9f623aaf5e5f5d3"}, {"bike_id": "72c5b8d81d43fb640af2447d10ba467e", "type": "electric_scooter", "is_disabled": 0, "lat": 38.890906333333334, "rental_uris": {"ios": "https://dc.lft.to/lastmile_qr_scan", "android": "https://dc.lft.to/lastmile_qr_scan"}, "is_reserved": 0, "fusion_lon": 0.0, "fusion_lat": 0.0, "lon": -77.00256083333333, "name": "72c5b8d81d43fb640af2447d10ba467e"}, {"bike_id": "0f9e26584873110ab93e39766dbad236", "type": "electric_scooter", "is_disabled": 0, "lat": 38.91916533333333, "rental_uris": {"ios": "https://dc.lft.to/lastmile_qr_scan", "android": "https://dc.lft.to/lastmile_qr_scan"}, "is_reserved": 0, "fusion_lon": 0.0, "fusion_lat": 0.0, "lon": -77.03109166666667, "name": "0f9e26584873110ab93e39766dbad236"}, {"bike_id": "182e54a880d92117b5b8821139282439", "type": "electric_scooter", "is_disabled": 0, "lat": 38.87665666666667, "rental_uris": {"ios": "https://dc.lft.to/lastmile_qr_scan", "android": "https://dc.lft.to/lastmile_qr_scan"}, "is_reserved": 0, "fusion_lon": 0.0, "fusion_lat": 0.0, "lon": -77.00420383333334, "name": "182e54a880d92117b5b8821139282439"}, {"bike_id": "bb54c7dca8815fbc8e559b7bb12b19b0", "type": "electric_scooter", "is_disabled": 0, "lat": 38.90363833333333, "rental_uris": {"ios": "https://dc.lft.to/lastmile_qr_scan", "android": "https://dc.lft.to/lastmile_qr_scan"}, "is_reserved": 0, "fusion_lon": 0.0, "fusion_lat": 0.0, "lon": -77.0537405, "name": "bb54c7dca8815fbc8e559b7bb12b19b0"}, {"bike_id": "8da1a4d87effac7d7e2add82f31b5603", "type": "electric_scooter", "is_disabled": 0, "lat": 38.905748333333335, "rental_uris": {"ios": "https://dc.lft.to/lastmile_qr_scan", "android": "https://dc.lft.to/lastmile_qr_scan"}, "is_reserved": 0, "fusion_lon": 0.0, "fusion_lat": 0.0, "lon": -77.02598916666666, "name": "8da1a4d87effac7d7e2add82f31b5603"}, {"bike_id": "62c8ba38b8d57bf2904d7bd92dde0023", "type": "electric_scooter", "is_disabled": 0, "lat": 38.926098833333334, "rental_uris": {"ios": "https://dc.lft.to/lastmile_qr_scan", "android": "https://dc.lft.to/lastmile_qr_scan"}, "is_reserved": 0, "fusion_lon": 0.0, "fusion_lat": 0.0, "lon": -77.02655583333333, "name": "62c8ba38b8d57bf2904d7bd92dde0023"}, {"bike_id": "c6c41dc9e683a5abda56c3a600cde053", "type": "electric_scooter", "is_disabled": 0, "lat": 38.91567533333333, "rental_uris": {"ios": "https://dc.lft.to/lastmile_qr_scan", "android": "https://dc.lft.to/lastmile_qr_scan"}, "is_reserved": 0, "fusion_lon": 0.0, "fusion_lat": 0.0, "lon": -77.038658, "name": "c6c41dc9e683a5abda56c3a600cde053"}, {"bike_id": "a676602ed5bad3a15875643056adeb0f", "type": "electric_scooter", "is_disabled": 0, "lat": 38.91282533333333, "rental_uris": {"ios": "https://dc.lft.to/lastmile_qr_scan", "android": "https://dc.lft.to/lastmile_qr_scan"}, "is_reserved": 0, "fusion_lon": 0.0, "fusion_lat": 0.0, "lon": -77.0224895, "name": "a676602ed5bad3a15875643056adeb0f"}, {"bike_id": "331542daaf30d43c5f938c783dba22f2", "type": "electric_scooter", "is_disabled": 0, "lat": 38.9051795, "rental_uris": {"ios": "https://dc.lft.to/lastmile_qr_scan", "android": "https://dc.lft.to/lastmile_qr_scan"}, "is_reserved": 0, "fusion_lon": 0.0, "fusion_lat": 0.0, "lon": -77.06872933333334, "name": "331542daaf30d43c5f938c783dba22f2"}, {"bike_id": "f4c6641fb2c591a3f9ce6a15cdcd6d68", "type": "electric_scooter", "is_disabled": 0, "lat": 38.90779416666667, "rental_uris": {"ios": "https://dc.lft.to/lastmile_qr_scan", "android": "https://dc.lft.to/lastmile_qr_scan"}, "is_reserved": 0, "fusion_lon": 0.0, "fusion_lat": 0.0, "lon": -77.02032883333334, "name": "f4c6641fb2c591a3f9ce6a15cdcd6d68"}, {"bike_id": "ba31d400f42c49d613f8d2bc9c3a64c5", "type": "electric_scooter", "is_disabled": 0, "lat": 38.917261833333335, "rental_uris": {"ios": "https://dc.lft.to/lastmile_qr_scan", "android": "https://dc.lft.to/lastmile_qr_scan"}, "is_reserved": 0, "fusion_lon": 0.0, "fusion_lat": 0.0, "lon": -77.02499033333334, "name": "ba31d400f42c49d613f8d2bc9c3a64c5"}, {"bike_id": "778207431b8ec2ee6fe219771cbe503d", "type": "electric_bike", "is_disabled": 0, "lat": 38.87194683333333, "rental_uris": {"ios": "https://dc.lft.to/lastmile_qr_scan", "android": "https://dc.lft.to/lastmile_qr_scan"}, "is_reserved": 0, "fusion_lon": 0.0, "fusion_lat": 0.0, "lon": -77.01217283333334, "name": "778207431b8ec2ee6fe219771cbe503d"}, {"bike_id": "6d9ebfabdf4a141db1c2e9929dd328b9", "type": "electric_scooter", "is_disabled": 0, "lat": 38.863764833333335, "rental_uris": {"ios": "https://dc.lft.to/lastmile_qr_scan", "android": "https://dc.lft.to/lastmile_qr_scan"}, "is_reserved": 0, "fusion_lon": 0.0, "fusion_lat": 0.0, "lon": -76.99055283333334, "name": "6d9ebfabdf4a141db1c2e9929dd328b9"}, {"bike_id": "4443db63c1d2aeb0c6b13e8704fbac98", "type": "electric_scooter", "is_disabled": 0, "lat": 38.87920583333333, "rental_uris": {"ios": "https://dc.lft.to/lastmile_qr_scan", "android": "https://dc.lft.to/lastmile_qr_scan"}, "is_reserved": 0, "fusion_lon": 0.0, "fusion_lat": 0.0, "lon": -76.9950515, "name": "4443db63c1d2aeb0c6b13e8704fbac98"}, {"bike_id": "90fa8e6184a8c89c30371f17b3b0b277", "type": "electric_scooter", "is_disabled": 0, "lat": 38.8625205, "rental_uris": {"ios": "https://dc.lft.to/lastmile_qr_scan", "android": "https://dc.lft.to/lastmile_qr_scan"}, "is_reserved": 0, "fusion_lon": 0.0, "fusion_lat": 0.0, "lon": -76.992602, "name": "90fa8e6184a8c89c30371f17b3b0b277"}, {"bike_id": "9afb6a3c247d393f387807139a902e3b", "type": "electric_scooter", "is_disabled": 0, "lat": 38.91289583333333, "rental_uris": {"ios": "https://dc.lft.to/lastmile_qr_scan", "android": "https://dc.lft.to/lastmile_qr_scan"}, "is_reserved": 0, "fusion_lon": 0.0, "fusion_lat": 0.0, "lon": -77.01976133333334, "name": "9afb6a3c247d393f387807139a902e3b"}, {"bike_id": "0a67d9f77b17ebdeae1482113c70dec3", "type": "electric_scooter", "is_disabled": 0, "lat": 38.90784216666667, "rental_uris": {"ios": "https://dc.lft.to/lastmile_qr_scan", "android": "https://dc.lft.to/lastmile_qr_scan"}, "is_reserved": 0, "fusion_lon": 0.0, "fusion_lat": 0.0, "lon": -77.01857816666667, "name": "0a67d9f77b17ebdeae1482113c70dec3"}, {"bike_id": "dc0d458dfa0e54d6e9efb92f57db7294", "type": "electric_bike", "is_disabled": 0, "lat": 38.8956575, "rental_uris": {"ios": "https://dc.lft.to/lastmile_qr_scan", "android": "https://dc.lft.to/lastmile_qr_scan"}, "is_reserved": 0, "fusion_lon": 0.0, "fusion_lat": 0.0, "lon": -77.12735683333334, "name": "dc0d458dfa0e54d6e9efb92f57db7294"}, {"bike_id": "3ad14acdb5d65ea213b6b126e339b25a", "type": "electric_bike", "is_disabled": 0, "lat": 38.86884533333333, "rental_uris": {"ios": "https://dc.lft.to/lastmile_qr_scan", "android": "https://dc.lft.to/lastmile_qr_scan"}, "is_reserved": 0, "fusion_lon": 0.0, "fusion_lat": 0.0, "lon": -76.95772316666667, "name": "3ad14acdb5d65ea213b6b126e339b25a"}, {"bike_id": "8c4ae12b8764c6923cfb09b95eed0505", "type": "electric_bike", "is_disabled": 0, "lat": 38.908295, "rental_uris": {"ios": "https://dc.lft.to/lastmile_qr_scan", "android": "https://dc.lft.to/lastmile_qr_scan"}, "is_reserved": 0, "fusion_lon": 0.0, "fusion_lat": 0.0, "lon": -76.94157783333333, "name": "8c4ae12b8764c6923cfb09b95eed0505"}, {"bike_id": "0a42044b9ffadaf8970bdcf3d6ef557b", "type": "electric_scooter", "is_disabled": 0, "lat": 38.889318833333334, "rental_uris": {"ios": "https://dc.lft.to/lastmile_qr_scan", "android": "https://dc.lft.to/lastmile_qr_scan"}, "is_reserved": 0, "fusion_lon": 0.0, "fusion_lat": 0.0, "lon": -77.01498533333333, "name": "0a42044b9ffadaf8970bdcf3d6ef557b"}, {"bike_id": "0868cd824c77e0f7bc8158a8ebc277dc", "type": "electric_scooter", "is_disabled": 0, "lat": 38.906878, "rental_uris": {"ios": "https://dc.lft.to/lastmile_qr_scan", "android": "https://dc.lft.to/lastmile_qr_scan"}, "is_reserved": 0, "fusion_lon": 0.0, "fusion_lat": 0.0, "lon": -77.0531135, "name": "0868cd824c77e0f7bc8158a8ebc277dc"}, {"bike_id": "18f5e0a2cacc35ceeddf554310d5ea0b", "type": "electric_scooter", "is_disabled": 0, "lat": 38.931166833333336, "rental_uris": {"ios": "https://dc.lft.to/lastmile_qr_scan", "android": "https://dc.lft.to/lastmile_qr_scan"}, "is_reserved": 0, "fusion_lon": 0.0, "fusion_lat": 0.0, "lon": -77.0209975, "name": "18f5e0a2cacc35ceeddf554310d5ea0b"}, {"bike_id": "333c1c39e2eca71057e373e73fb11500", "type": "electric_scooter", "is_disabled": 0, "lat": 38.90783783333333, "rental_uris": {"ios": "https://dc.lft.to/lastmile_qr_scan", "android": "https://dc.lft.to/lastmile_qr_scan"}, "is_reserved": 0, "fusion_lon": 0.0, "fusion_lat": 0.0, "lon": -77.0110725, "name": "333c1c39e2eca71057e373e73fb11500"}, {"bike_id": "a04f6950321b1bb6b0e5345bfad53485", "type": "electric_scooter", "is_disabled": 0, "lat": 38.92257216666667, "rental_uris": {"ios": "https://dc.lft.to/lastmile_qr_scan", "android": "https://dc.lft.to/lastmile_qr_scan"}, "is_reserved": 0, "fusion_lon": 0.0, "fusion_lat": 0.0, "lon": -77.035211, "name": "a04f6950321b1bb6b0e5345bfad53485"}, {"bike_id": "5d8a81d2940d8c91b548046f71cf8603", "type": "electric_scooter", "is_disabled": 0, "lat": 38.8985195, "rental_uris": {"ios": "https://dc.lft.to/lastmile_qr_scan", "android": "https://dc.lft.to/lastmile_qr_scan"}, "is_reserved": 0, "fusion_lon": 0.0, "fusion_lat": 0.0, "lon": -76.99031433333333, "name": "5d8a81d2940d8c91b548046f71cf8603"}, {"bike_id": "614692ce0aca0b6e9e10c0a2b63fd9ae", "type": "electric_scooter", "is_disabled": 0, "lat": 38.9112135, "rental_uris": {"ios": "https://dc.lft.to/lastmile_qr_scan", "android": "https://dc.lft.to/lastmile_qr_scan"}, "is_reserved": 0, "fusion_lon": 0.0, "fusion_lat": 0.0, "lon": -77.03830083333334, "name": "614692ce0aca0b6e9e10c0a2b63fd9ae"}, {"bike_id": "18710726ab1d93b0325aa17f1219d392", "type": "electric_bike", "is_disabled": 0, "lat": 38.885912833333336, "rental_uris": {"ios": "https://dc.lft.to/lastmile_qr_scan", "android": "https://dc.lft.to/lastmile_qr_scan"}, "is_reserved": 0, "fusion_lon": 0.0, "fusion_lat": 0.0, "lon": -77.00059066666667, "name": "18710726ab1d93b0325aa17f1219d392"}, {"bike_id": "e0e4f157a545b0cf8e8a46bd1aacc2b4", "type": "electric_scooter", "is_disabled": 0, "lat": 38.9168555, "rental_uris": {"ios": "https://dc.lft.to/lastmile_qr_scan", "android": "https://dc.lft.to/lastmile_qr_scan"}, "is_reserved": 0, "fusion_lon": 0.0, "fusion_lat": 0.0, "lon": -77.02942366666667, "name": "e0e4f157a545b0cf8e8a46bd1aacc2b4"}, {"bike_id": "5b74395110166a64ee7ae9bdc7a55947", "type": "electric_scooter", "is_disabled": 0, "lat": 38.91705066666667, "rental_uris": {"ios": "https://dc.lft.to/lastmile_qr_scan", "android": "https://dc.lft.to/lastmile_qr_scan"}, "is_reserved": 0, "fusion_lon": 0.0, "fusion_lat": 0.0, "lon": -77.01072066666667, "name": "5b74395110166a64ee7ae9bdc7a55947"}, {"bike_id": "a088b6d098941e856296f6cf07eba4a5", "type": "electric_scooter", "is_disabled": 0, "lat": 38.892391333333336, "rental_uris": {"ios": "https://dc.lft.to/lastmile_qr_scan", "android": "https://dc.lft.to/lastmile_qr_scan"}, "is_reserved": 0, "fusion_lon": 0.0, "fusion_lat": 0.0, "lon": -77.02383866666666, "name": "a088b6d098941e856296f6cf07eba4a5"}, {"bike_id": "086aff79fbdf1926cccc154f326bf6c8", "type": "electric_scooter", "is_disabled": 0, "lat": 38.926009666666666, "rental_uris": {"ios": "https://dc.lft.to/lastmile_qr_scan", "android": "https://dc.lft.to/lastmile_qr_scan"}, "is_reserved": 0, "fusion_lon": 0.0, "fusion_lat": 0.0, "lon": -77.02154033333333, "name": "086aff79fbdf1926cccc154f326bf6c8"}, {"bike_id": "e6cfa1dfb0ffb8f341e6afedd9ed15af", "type": "electric_scooter", "is_disabled": 0, "lat": 38.9019355, "rental_uris": {"ios": "https://dc.lft.to/lastmile_qr_scan", "android": "https://dc.lft.to/lastmile_qr_scan"}, "is_reserved": 0, "fusion_lon": 0.0, "fusion_lat": 0.0, "lon": -76.98842833333333, "name": "e6cfa1dfb0ffb8f341e6afedd9ed15af"}, {"bike_id": "839c118d4bea4df6814b27c9ba4c7600", "type": "electric_scooter", "is_disabled": 0, "lat": 38.87936333333333, "rental_uris": {"ios": "https://dc.lft.to/lastmile_qr_scan", "android": "https://dc.lft.to/lastmile_qr_scan"}, "is_reserved": 0, "fusion_lon": 0.0, "fusion_lat": 0.0, "lon": -77.01539516666666, "name": "839c118d4bea4df6814b27c9ba4c7600"}, {"bike_id": "a5b7d2d3e34139e259c3fe5454e3ea9f", "type": "electric_scooter", "is_disabled": 0, "lat": 38.923515333333334, "rental_uris": {"ios": "https://dc.lft.to/lastmile_qr_scan", "android": "https://dc.lft.to/lastmile_qr_scan"}, "is_reserved": 0, "fusion_lon": 0.0, "fusion_lat": 0.0, "lon": -77.05426566666667, "name": "a5b7d2d3e34139e259c3fe5454e3ea9f"}, {"bike_id": "d57dab5856a54239c3fa4b26b10200a8", "type": "electric_scooter", "is_disabled": 0, "lat": 38.94073016666667, "rental_uris": {"ios": "https://dc.lft.to/lastmile_qr_scan", "android": "https://dc.lft.to/lastmile_qr_scan"}, "is_reserved": 0, "fusion_lon": 0.0, "fusion_lat": 0.0, "lon": -77.05251666666666, "name": "d57dab5856a54239c3fa4b26b10200a8"}, {"bike_id": "56919764ffe8f05b336b106e29bbe6fa", "type": "electric_scooter", "is_disabled": 0, "lat": 38.913662333333335, "rental_uris": {"ios": "https://dc.lft.to/lastmile_qr_scan", "android": "https://dc.lft.to/lastmile_qr_scan"}, "is_reserved": 0, "fusion_lon": 0.0, "fusion_lat": 0.0, "lon": -77.04561216666667, "name": "56919764ffe8f05b336b106e29bbe6fa"}, {"bike_id": "11730f565c4654dc098b47661c6ea155", "type": "electric_scooter", "is_disabled": 0, "lat": 38.9041845, "rental_uris": {"ios": "https://dc.lft.to/lastmile_qr_scan", "android": "https://dc.lft.to/lastmile_qr_scan"}, "is_reserved": 0, "fusion_lon": 0.0, "fusion_lat": 0.0, "lon": -77.02869966666667, "name": "11730f565c4654dc098b47661c6ea155"}, {"bike_id": "95a5e28fd53b6799549b3445ce9c51f5", "type": "electric_scooter", "is_disabled": 0, "lat": 38.899020166666666, "rental_uris": {"ios": "https://dc.lft.to/lastmile_qr_scan", "android": "https://dc.lft.to/lastmile_qr_scan"}, "is_reserved": 0, "fusion_lon": 0.0, "fusion_lat": 0.0, "lon": -76.97602183333333, "name": "95a5e28fd53b6799549b3445ce9c51f5"}, {"bike_id": "23466b3ab6b2afd794fc7abe2a72c9f1", "type": "electric_scooter", "is_disabled": 0, "lat": 38.884891833333334, "rental_uris": {"ios": "https://dc.lft.to/lastmile_qr_scan", "android": "https://dc.lft.to/lastmile_qr_scan"}, "is_reserved": 0, "fusion_lon": 0.0, "fusion_lat": 0.0, "lon": -77.01504566666667, "name": "23466b3ab6b2afd794fc7abe2a72c9f1"}, {"bike_id": "5230a96fd73071974285725966da61d0", "type": "electric_scooter", "is_disabled": 0, "lat": 38.911074666666664, "rental_uris": {"ios": "https://dc.lft.to/lastmile_qr_scan", "android": "https://dc.lft.to/lastmile_qr_scan"}, "is_reserved": 0, "fusion_lon": 0.0, "fusion_lat": 0.0, "lon": -77.04478133333333, "name": "5230a96fd73071974285725966da61d0"}, {"bike_id": "55d2c78217f751e6b6456e67828cd82c", "type": "electric_scooter", "is_disabled": 0, "lat": 38.9279295, "rental_uris": {"ios": "https://dc.lft.to/lastmile_qr_scan", "android": "https://dc.lft.to/lastmile_qr_scan"}, "is_reserved": 0, "fusion_lon": 0.0, "fusion_lat": 0.0, "lon": -77.02131216666666, "name": "55d2c78217f751e6b6456e67828cd82c"}, {"bike_id": "37df2ad7513571bbe636e29b6756b9b9", "type": "electric_scooter", "is_disabled": 0, "lat": 38.931231333333336, "rental_uris": {"ios": "https://dc.lft.to/lastmile_qr_scan", "android": "https://dc.lft.to/lastmile_qr_scan"}, "is_reserved": 0, "fusion_lon": 0.0, "fusion_lat": 0.0, "lon": -77.02068516666667, "name": "37df2ad7513571bbe636e29b6756b9b9"}, {"bike_id": "d2ac750dd3ce400802a32b3839481092", "type": "electric_scooter", "is_disabled": 0, "lat": 38.905932666666665, "rental_uris": {"ios": "https://dc.lft.to/lastmile_qr_scan", "android": "https://dc.lft.to/lastmile_qr_scan"}, "is_reserved": 0, "fusion_lon": 0.0, "fusion_lat": 0.0, "lon": -77.0217925, "name": "d2ac750dd3ce400802a32b3839481092"}, {"bike_id": "dab6382ede250d0fedcbf18e975fbfdb", "type": "electric_scooter", "is_disabled": 0, "lat": 38.862175, "rental_uris": {"ios": "https://dc.lft.to/lastmile_qr_scan", "android": "https://dc.lft.to/lastmile_qr_scan"}, "is_reserved": 0, "fusion_lon": 0.0, "fusion_lat": 0.0, "lon": -76.9948175, "name": "dab6382ede250d0fedcbf18e975fbfdb"}, {"bike_id": "021aed257dfd19d25ace466257377a87", "type": "electric_scooter", "is_disabled": 0, "lat": 38.90268916666667, "rental_uris": {"ios": "https://dc.lft.to/lastmile_qr_scan", "android": "https://dc.lft.to/lastmile_qr_scan"}, "is_reserved": 0, "fusion_lon": 0.0, "fusion_lat": 0.0, "lon": -77.01961383333334, "name": "021aed257dfd19d25ace466257377a87"}, {"bike_id": "ce6a5bddcd53453f3081ee1f807bcde8", "type": "electric_scooter", "is_disabled": 0, "lat": 38.9168515, "rental_uris": {"ios": "https://dc.lft.to/lastmile_qr_scan", "android": "https://dc.lft.to/lastmile_qr_scan"}, "is_reserved": 0, "fusion_lon": 0.0, "fusion_lat": 0.0, "lon": -77.029473, "name": "ce6a5bddcd53453f3081ee1f807bcde8"}, {"bike_id": "321b19219c23122b963a5d569fd7a791", "type": "electric_scooter", "is_disabled": 0, "lat": 38.956946, "rental_uris": {"ios": "https://dc.lft.to/lastmile_qr_scan", "android": "https://dc.lft.to/lastmile_qr_scan"}, "is_reserved": 0, "fusion_lon": 0.0, "fusion_lat": 0.0, "lon": -77.023937, "name": "321b19219c23122b963a5d569fd7a791"}, {"bike_id": "6925db7f042854798c8e4c4154444fa7", "type": "electric_scooter", "is_disabled": 0, "lat": 38.9207355, "rental_uris": {"ios": "https://dc.lft.to/lastmile_qr_scan", "android": "https://dc.lft.to/lastmile_qr_scan"}, "is_reserved": 0, "fusion_lon": 0.0, "fusion_lat": 0.0, "lon": -77.03455716666667, "name": "6925db7f042854798c8e4c4154444fa7"}, {"bike_id": "6adc1f35e5f47bf3fe9a1b70da3cc2d4", "type": "electric_scooter", "is_disabled": 0, "lat": 38.907342666666665, "rental_uris": {"ios": "https://dc.lft.to/lastmile_qr_scan", "android": "https://dc.lft.to/lastmile_qr_scan"}, "is_reserved": 0, "fusion_lon": 0.0, "fusion_lat": 0.0, "lon": -77.05330216666667, "name": "6adc1f35e5f47bf3fe9a1b70da3cc2d4"}, {"bike_id": "fc5d15640489c81e4903103d6c1dba7b", "type": "electric_bike", "is_disabled": 0, "lat": 38.96959283333333, "rental_uris": {"ios": "https://dc.lft.to/lastmile_qr_scan", "android": "https://dc.lft.to/lastmile_qr_scan"}, "is_reserved": 0, "fusion_lon": 0.0, "fusion_lat": 0.0, "lon": -76.95747666666666, "name": "fc5d15640489c81e4903103d6c1dba7b"}, {"bike_id": "4dec5d3405bc2a135727d9ad210d68bf", "type": "electric_scooter", "is_disabled": 0, "lat": 38.91589616666667, "rental_uris": {"ios": "https://dc.lft.to/lastmile_qr_scan", "android": "https://dc.lft.to/lastmile_qr_scan"}, "is_reserved": 0, "fusion_lon": 0.0, "fusion_lat": 0.0, "lon": -77.04481483333333, "name": "4dec5d3405bc2a135727d9ad210d68bf"}, {"bike_id": "9c89e495e1aea54857fc27d6f38935a7", "type": "electric_scooter", "is_disabled": 0, "lat": 38.864684833333335, "rental_uris": {"ios": "https://dc.lft.to/lastmile_qr_scan", "android": "https://dc.lft.to/lastmile_qr_scan"}, "is_reserved": 0, "fusion_lon": 0.0, "fusion_lat": 0.0, "lon": -76.97739366666667, "name": "9c89e495e1aea54857fc27d6f38935a7"}, {"bike_id": "d3cb6c24d5f01f555c87e069f4861231", "type": "electric_scooter", "is_disabled": 0, "lat": 38.91283116666666, "rental_uris": {"ios": "https://dc.lft.to/lastmile_qr_scan", "android": "https://dc.lft.to/lastmile_qr_scan"}, "is_reserved": 0, "fusion_lon": 0.0, "fusion_lat": 0.0, "lon": -77.02704783333333, "name": "d3cb6c24d5f01f555c87e069f4861231"}, {"bike_id": "f40b37d55915c3b6eae3139a489c9f5e", "type": "electric_scooter", "is_disabled": 0, "lat": 38.9027535, "rental_uris": {"ios": "https://dc.lft.to/lastmile_qr_scan", "android": "https://dc.lft.to/lastmile_qr_scan"}, "is_reserved": 0, "fusion_lon": 0.0, "fusion_lat": 0.0, "lon": -77.01893783333334, "name": "f40b37d55915c3b6eae3139a489c9f5e"}, {"bike_id": "dbee708339b92a20023fa6e371e6d938", "type": "electric_scooter", "is_disabled": 0, "lat": 38.92471833333333, "rental_uris": {"ios": "https://dc.lft.to/lastmile_qr_scan", "android": "https://dc.lft.to/lastmile_qr_scan"}, "is_reserved": 0, "fusion_lon": 0.0, "fusion_lat": 0.0, "lon": -77.02830266666666, "name": "dbee708339b92a20023fa6e371e6d938"}, {"bike_id": "1833cb5f7e69c9cbe65f0c1608ce800e", "type": "electric_scooter", "is_disabled": 0, "lat": 38.926150166666666, "rental_uris": {"ios": "https://dc.lft.to/lastmile_qr_scan", "android": "https://dc.lft.to/lastmile_qr_scan"}, "is_reserved": 0, "fusion_lon": 0.0, "fusion_lat": 0.0, "lon": -77.02157533333333, "name": "1833cb5f7e69c9cbe65f0c1608ce800e"}, {"bike_id": "f606acbc89fd8afe6afadec1e521bc52", "type": "electric_scooter", "is_disabled": 0, "lat": 38.90237066666667, "rental_uris": {"ios": "https://dc.lft.to/lastmile_qr_scan", "android": "https://dc.lft.to/lastmile_qr_scan"}, "is_reserved": 0, "fusion_lon": 0.0, "fusion_lat": 0.0, "lon": -77.00197666666666, "name": "f606acbc89fd8afe6afadec1e521bc52"}, {"bike_id": "e1bcf3107311e15263df6e233c9f76ef", "type": "electric_scooter", "is_disabled": 0, "lat": 38.9000505, "rental_uris": {"ios": "https://dc.lft.to/lastmile_qr_scan", "android": "https://dc.lft.to/lastmile_qr_scan"}, "is_reserved": 0, "fusion_lon": 0.0, "fusion_lat": 0.0, "lon": -77.04657766666666, "name": "e1bcf3107311e15263df6e233c9f76ef"}, {"bike_id": "5e3127b172899b89d2b7e593f7112221", "type": "electric_scooter", "is_disabled": 0, "lat": 38.93547733333333, "rental_uris": {"ios": "https://dc.lft.to/lastmile_qr_scan", "android": "https://dc.lft.to/lastmile_qr_scan"}, "is_reserved": 0, "fusion_lon": 0.0, "fusion_lat": 0.0, "lon": -77.05851366666667, "name": "5e3127b172899b89d2b7e593f7112221"}, {"bike_id": "c36cac96ac352dea5f889286e475ba86", "type": "electric_scooter", "is_disabled": 0, "lat": 38.923198166666666, "rental_uris": {"ios": "https://dc.lft.to/lastmile_qr_scan", "android": "https://dc.lft.to/lastmile_qr_scan"}, "is_reserved": 0, "fusion_lon": 0.0, "fusion_lat": 0.0, "lon": -77.02788466666667, "name": "c36cac96ac352dea5f889286e475ba86"}, {"bike_id": "ab7006319ac2abcdda4889684714a0da", "type": "electric_scooter", "is_disabled": 0, "lat": 38.92593083333333, "rental_uris": {"ios": "https://dc.lft.to/lastmile_qr_scan", "android": "https://dc.lft.to/lastmile_qr_scan"}, "is_reserved": 0, "fusion_lon": 0.0, "fusion_lat": 0.0, "lon": -77.04411616666667, "name": "ab7006319ac2abcdda4889684714a0da"}, {"bike_id": "afda3b2d96a796b2f00c7fa2e08e91ea", "type": "electric_scooter", "is_disabled": 0, "lat": 38.8830055, "rental_uris": {"ios": "https://dc.lft.to/lastmile_qr_scan", "android": "https://dc.lft.to/lastmile_qr_scan"}, "is_reserved": 0, "fusion_lon": 0.0, "fusion_lat": 0.0, "lon": -76.94855616666666, "name": "afda3b2d96a796b2f00c7fa2e08e91ea"}, {"bike_id": "f20e6e4c3579906c897f6a4a75863439", "type": "electric_scooter", "is_disabled": 0, "lat": 38.90062866666667, "rental_uris": {"ios": "https://dc.lft.to/lastmile_qr_scan", "android": "https://dc.lft.to/lastmile_qr_scan"}, "is_reserved": 0, "fusion_lon": 0.0, "fusion_lat": 0.0, "lon": -77.04673233333334, "name": "f20e6e4c3579906c897f6a4a75863439"}, {"bike_id": "fca8c574587444fff6e8128ff14deef1", "type": "electric_scooter", "is_disabled": 0, "lat": 38.92827666666667, "rental_uris": {"ios": "https://dc.lft.to/lastmile_qr_scan", "android": "https://dc.lft.to/lastmile_qr_scan"}, "is_reserved": 0, "fusion_lon": 0.0, "fusion_lat": 0.0, "lon": -77.0225775, "name": "fca8c574587444fff6e8128ff14deef1"}, {"bike_id": "f3381790d0ed825bb09f74e092416f03", "type": "electric_scooter", "is_disabled": 0, "lat": 38.8702895, "rental_uris": {"ios": "https://dc.lft.to/lastmile_qr_scan", "android": "https://dc.lft.to/lastmile_qr_scan"}, "is_reserved": 0, "fusion_lon": 0.0, "fusion_lat": 0.0, "lon": -76.98081, "name": "f3381790d0ed825bb09f74e092416f03"}, {"bike_id": "57449dee7b81e6cd7db6350fec52fdef", "type": "electric_scooter", "is_disabled": 0, "lat": 38.9072325, "rental_uris": {"ios": "https://dc.lft.to/lastmile_qr_scan", "android": "https://dc.lft.to/lastmile_qr_scan"}, "is_reserved": 0, "fusion_lon": 0.0, "fusion_lat": 0.0, "lon": -77.014661, "name": "57449dee7b81e6cd7db6350fec52fdef"}, {"bike_id": "bd82bfe26be145f7b0ebab9b2ccbfa72", "type": "electric_scooter", "is_disabled": 0, "lat": 38.93460433333333, "rental_uris": {"ios": "https://dc.lft.to/lastmile_qr_scan", "android": "https://dc.lft.to/lastmile_qr_scan"}, "is_reserved": 0, "fusion_lon": 0.0, "fusion_lat": 0.0, "lon": -77.029365, "name": "bd82bfe26be145f7b0ebab9b2ccbfa72"}, {"bike_id": "aa2d4aa53e0bfa1540e5d6ee34e55087", "type": "electric_scooter", "is_disabled": 0, "lat": 38.8918, "rental_uris": {"ios": "https://dc.lft.to/lastmile_qr_scan", "android": "https://dc.lft.to/lastmile_qr_scan"}, "is_reserved": 0, "fusion_lon": 0.0, "fusion_lat": 0.0, "lon": -77.02202283333334, "name": "aa2d4aa53e0bfa1540e5d6ee34e55087"}, {"bike_id": "ea8ba29ce4c10266a5d0d545e59fc43f", "type": "electric_scooter", "is_disabled": 0, "lat": 38.905813, "rental_uris": {"ios": "https://dc.lft.to/lastmile_qr_scan", "android": "https://dc.lft.to/lastmile_qr_scan"}, "is_reserved": 0, "fusion_lon": 0.0, "fusion_lat": 0.0, "lon": -77.02596566666666, "name": "ea8ba29ce4c10266a5d0d545e59fc43f"}, {"bike_id": "b6f44c0b432a10ebb5c63e4beb13f498", "type": "electric_scooter", "is_disabled": 0, "lat": 38.93534433333333, "rental_uris": {"ios": "https://dc.lft.to/lastmile_qr_scan", "android": "https://dc.lft.to/lastmile_qr_scan"}, "is_reserved": 0, "fusion_lon": 0.0, "fusion_lat": 0.0, "lon": -77.02345366666667, "name": "b6f44c0b432a10ebb5c63e4beb13f498"}, {"bike_id": "0bd54328c4c6c3f9fbd7ee636aad22f4", "type": "electric_scooter", "is_disabled": 0, "lat": 38.914197, "rental_uris": {"ios": "https://dc.lft.to/lastmile_qr_scan", "android": "https://dc.lft.to/lastmile_qr_scan"}, "is_reserved": 0, "fusion_lon": 0.0, "fusion_lat": 0.0, "lon": -77.02292433333334, "name": "0bd54328c4c6c3f9fbd7ee636aad22f4"}, {"bike_id": "c4b52d20dc475d7f217210d84e77be8b", "type": "electric_scooter", "is_disabled": 0, "lat": 38.92080683333333, "rental_uris": {"ios": "https://dc.lft.to/lastmile_qr_scan", "android": "https://dc.lft.to/lastmile_qr_scan"}, "is_reserved": 0, "fusion_lon": 0.0, "fusion_lat": 0.0, "lon": -77.02502683333333, "name": "c4b52d20dc475d7f217210d84e77be8b"}, {"bike_id": "98ebf4eba635b3ebe896ffac2c411d05", "type": "electric_scooter", "is_disabled": 0, "lat": 38.924747833333335, "rental_uris": {"ios": "https://dc.lft.to/lastmile_qr_scan", "android": "https://dc.lft.to/lastmile_qr_scan"}, "is_reserved": 0, "fusion_lon": 0.0, "fusion_lat": 0.0, "lon": -77.026613, "name": "98ebf4eba635b3ebe896ffac2c411d05"}, {"bike_id": "30afacfa8c8226c22430f5b00c83d619", "type": "electric_scooter", "is_disabled": 0, "lat": 38.94204083333333, "rental_uris": {"ios": "https://dc.lft.to/lastmile_qr_scan", "android": "https://dc.lft.to/lastmile_qr_scan"}, "is_reserved": 0, "fusion_lon": 0.0, "fusion_lat": 0.0, "lon": -77.0234725, "name": "30afacfa8c8226c22430f5b00c83d619"}, {"bike_id": "a5c1fdcd18ab2536e7cceab1be0546fa", "type": "electric_bike", "is_disabled": 0, "lat": 38.93649966666667, "rental_uris": {"ios": "https://dc.lft.to/lastmile_qr_scan", "android": "https://dc.lft.to/lastmile_qr_scan"}, "is_reserved": 0, "fusion_lon": 0.0, "fusion_lat": 0.0, "lon": -77.02085916666667, "name": "a5c1fdcd18ab2536e7cceab1be0546fa"}, {"bike_id": "edbe758d9dbd2cb56f024a9389c53390", "type": "electric_scooter", "is_disabled": 0, "lat": 38.93244333333333, "rental_uris": {"ios": "https://dc.lft.to/lastmile_qr_scan", "android": "https://dc.lft.to/lastmile_qr_scan"}, "is_reserved": 0, "fusion_lon": 0.0, "fusion_lat": 0.0, "lon": -77.03832683333333, "name": "edbe758d9dbd2cb56f024a9389c53390"}, {"bike_id": "f2beafc867495151639991ff06cacbfb", "type": "electric_scooter", "is_disabled": 0, "lat": 38.90005716666667, "rental_uris": {"ios": "https://dc.lft.to/lastmile_qr_scan", "android": "https://dc.lft.to/lastmile_qr_scan"}, "is_reserved": 0, "fusion_lon": 0.0, "fusion_lat": 0.0, "lon": -77.04477783333333, "name": "f2beafc867495151639991ff06cacbfb"}, {"bike_id": "0ab7b054a49a69a0d827b59c5d2a405c", "type": "electric_scooter", "is_disabled": 0, "lat": 38.949861, "rental_uris": {"ios": "https://dc.lft.to/lastmile_qr_scan", "android": "https://dc.lft.to/lastmile_qr_scan"}, "is_reserved": 0, "fusion_lon": 0.0, "fusion_lat": 0.0, "lon": -77.02700233333333, "name": "0ab7b054a49a69a0d827b59c5d2a405c"}, {"bike_id": "0ef80c0f3414188a51e992e215b8381c", "type": "electric_bike", "is_disabled": 0, "lat": 38.96137066666667, "rental_uris": {"ios": "https://dc.lft.to/lastmile_qr_scan", "android": "https://dc.lft.to/lastmile_qr_scan"}, "is_reserved": 0, "fusion_lon": 0.0, "fusion_lat": 0.0, "lon": -77.03326683333333, "name": "0ef80c0f3414188a51e992e215b8381c"}, {"bike_id": "34195d180c530dc0ad46b102eb26e889", "type": "electric_bike", "is_disabled": 0, "lat": 38.872983166666664, "rental_uris": {"ios": "https://dc.lft.to/lastmile_qr_scan", "android": "https://dc.lft.to/lastmile_qr_scan"}, "is_reserved": 0, "fusion_lon": 0.0, "fusion_lat": 0.0, "lon": -76.969803, "name": "34195d180c530dc0ad46b102eb26e889"}, {"bike_id": "38081398cb7484aa93b2bb63e9aa2200", "type": "electric_scooter", "is_disabled": 0, "lat": 38.90584716666667, "rental_uris": {"ios": "https://dc.lft.to/lastmile_qr_scan", "android": "https://dc.lft.to/lastmile_qr_scan"}, "is_reserved": 0, "fusion_lon": 0.0, "fusion_lat": 0.0, "lon": -77.04888833333334, "name": "38081398cb7484aa93b2bb63e9aa2200"}, {"bike_id": "2deacdb303f4da7831c86c8b80cebf9c", "type": "electric_scooter", "is_disabled": 0, "lat": 38.88589833333333, "rental_uris": {"ios": "https://dc.lft.to/lastmile_qr_scan", "android": "https://dc.lft.to/lastmile_qr_scan"}, "is_reserved": 0, "fusion_lon": 0.0, "fusion_lat": 0.0, "lon": -77.02835816666666, "name": "2deacdb303f4da7831c86c8b80cebf9c"}, {"bike_id": "200d574a63ceb013222c6aabbb3e39af", "type": "electric_scooter", "is_disabled": 0, "lat": 38.92316066666667, "rental_uris": {"ios": "https://dc.lft.to/lastmile_qr_scan", "android": "https://dc.lft.to/lastmile_qr_scan"}, "is_reserved": 0, "fusion_lon": 0.0, "fusion_lat": 0.0, "lon": -77.038071, "name": "200d574a63ceb013222c6aabbb3e39af"}, {"bike_id": "9ba798f5117d199cbbb74475a8fd7035", "type": "electric_scooter", "is_disabled": 0, "lat": 38.90410333333333, "rental_uris": {"ios": "https://dc.lft.to/lastmile_qr_scan", "android": "https://dc.lft.to/lastmile_qr_scan"}, "is_reserved": 0, "fusion_lon": 0.0, "fusion_lat": 0.0, "lon": -76.973274, "name": "9ba798f5117d199cbbb74475a8fd7035"}, {"bike_id": "12237e80e4c5be2dac55249cef3e8dc7", "type": "electric_scooter", "is_disabled": 0, "lat": 38.92457233333333, "rental_uris": {"ios": "https://dc.lft.to/lastmile_qr_scan", "android": "https://dc.lft.to/lastmile_qr_scan"}, "is_reserved": 0, "fusion_lon": 0.0, "fusion_lat": 0.0, "lon": -76.99910866666667, "name": "12237e80e4c5be2dac55249cef3e8dc7"}, {"bike_id": "9cc8e10d60e1337ce773bc279e9639ce", "type": "electric_scooter", "is_disabled": 0, "lat": 38.87814133333333, "rental_uris": {"ios": "https://dc.lft.to/lastmile_qr_scan", "android": "https://dc.lft.to/lastmile_qr_scan"}, "is_reserved": 0, "fusion_lon": 0.0, "fusion_lat": 0.0, "lon": -76.93099483333333, "name": "9cc8e10d60e1337ce773bc279e9639ce"}, {"bike_id": "6b8413c5af99717fd553fe5618c58c23", "type": "electric_scooter", "is_disabled": 0, "lat": 38.9055925, "rental_uris": {"ios": "https://dc.lft.to/lastmile_qr_scan", "android": "https://dc.lft.to/lastmile_qr_scan"}, "is_reserved": 0, "fusion_lon": 0.0, "fusion_lat": 0.0, "lon": -77.0344245, "name": "6b8413c5af99717fd553fe5618c58c23"}, {"bike_id": "770e7aa3d2b2d684dc87f82d1d2c24f4", "type": "electric_scooter", "is_disabled": 0, "lat": 38.926073, "rental_uris": {"ios": "https://dc.lft.to/lastmile_qr_scan", "android": "https://dc.lft.to/lastmile_qr_scan"}, "is_reserved": 0, "fusion_lon": 0.0, "fusion_lat": 0.0, "lon": -77.02413083333333, "name": "770e7aa3d2b2d684dc87f82d1d2c24f4"}, {"bike_id": "d1a550c186ffd9df75b697f4ce454605", "type": "electric_scooter", "is_disabled": 0, "lat": 38.881015166666664, "rental_uris": {"ios": "https://dc.lft.to/lastmile_qr_scan", "android": "https://dc.lft.to/lastmile_qr_scan"}, "is_reserved": 0, "fusion_lon": 0.0, "fusion_lat": 0.0, "lon": -76.99852166666666, "name": "d1a550c186ffd9df75b697f4ce454605"}, {"bike_id": "6092ba1793c2953bfdab1337c861c211", "type": "electric_scooter", "is_disabled": 0, "lat": 38.91333733333333, "rental_uris": {"ios": "https://dc.lft.to/lastmile_qr_scan", "android": "https://dc.lft.to/lastmile_qr_scan"}, "is_reserved": 0, "fusion_lon": 0.0, "fusion_lat": 0.0, "lon": -77.04728766666666, "name": "6092ba1793c2953bfdab1337c861c211"}, {"bike_id": "35b4ffcf90b6b9eab93309eabc4ea2e0", "type": "electric_scooter", "is_disabled": 0, "lat": 38.89218783333333, "rental_uris": {"ios": "https://dc.lft.to/lastmile_qr_scan", "android": "https://dc.lft.to/lastmile_qr_scan"}, "is_reserved": 0, "fusion_lon": 0.0, "fusion_lat": 0.0, "lon": -77.0257915, "name": "35b4ffcf90b6b9eab93309eabc4ea2e0"}, {"bike_id": "6ab2b6edd0609b1dbc65b25f03c5058c", "type": "electric_scooter", "is_disabled": 0, "lat": 38.9126715, "rental_uris": {"ios": "https://dc.lft.to/lastmile_qr_scan", "android": "https://dc.lft.to/lastmile_qr_scan"}, "is_reserved": 0, "fusion_lon": 0.0, "fusion_lat": 0.0, "lon": -77.03829766666667, "name": "6ab2b6edd0609b1dbc65b25f03c5058c"}, {"bike_id": "e989aaa841df96500de0cc3606d790f1", "type": "electric_scooter", "is_disabled": 0, "lat": 38.92560183333333, "rental_uris": {"ios": "https://dc.lft.to/lastmile_qr_scan", "android": "https://dc.lft.to/lastmile_qr_scan"}, "is_reserved": 0, "fusion_lon": 0.0, "fusion_lat": 0.0, "lon": -77.04377516666666, "name": "e989aaa841df96500de0cc3606d790f1"}, {"bike_id": "7dde2aece51dbc32b3f5308973792e89", "type": "electric_scooter", "is_disabled": 0, "lat": 38.924038333333336, "rental_uris": {"ios": "https://dc.lft.to/lastmile_qr_scan", "android": "https://dc.lft.to/lastmile_qr_scan"}, "is_reserved": 0, "fusion_lon": 0.0, "fusion_lat": 0.0, "lon": -77.02013183333334, "name": "7dde2aece51dbc32b3f5308973792e89"}, {"bike_id": "aa981bb553df83f90481abad203611bd", "type": "electric_scooter", "is_disabled": 0, "lat": 38.906480333333334, "rental_uris": {"ios": "https://dc.lft.to/lastmile_qr_scan", "android": "https://dc.lft.to/lastmile_qr_scan"}, "is_reserved": 0, "fusion_lon": 0.0, "fusion_lat": 0.0, "lon": -77.05325616666667, "name": "aa981bb553df83f90481abad203611bd"}, {"bike_id": "703ba5938f070c61256ce627ee2a7a6a", "type": "electric_scooter", "is_disabled": 0, "lat": 38.94461883333334, "rental_uris": {"ios": "https://dc.lft.to/lastmile_qr_scan", "android": "https://dc.lft.to/lastmile_qr_scan"}, "is_reserved": 0, "fusion_lon": 0.0, "fusion_lat": 0.0, "lon": -77.00655416666666, "name": "703ba5938f070c61256ce627ee2a7a6a"}, {"bike_id": "cd8302c114e2d105e649f255ccf6070d", "type": "electric_scooter", "is_disabled": 0, "lat": 38.9279535, "rental_uris": {"ios": "https://dc.lft.to/lastmile_qr_scan", "android": "https://dc.lft.to/lastmile_qr_scan"}, "is_reserved": 0, "fusion_lon": 0.0, "fusion_lat": 0.0, "lon": -77.02597116666666, "name": "cd8302c114e2d105e649f255ccf6070d"}, {"bike_id": "a8cee75a83a5e346a0f61438a68e2976", "type": "electric_scooter", "is_disabled": 0, "lat": 38.93605933333333, "rental_uris": {"ios": "https://dc.lft.to/lastmile_qr_scan", "android": "https://dc.lft.to/lastmile_qr_scan"}, "is_reserved": 0, "fusion_lon": 0.0, "fusion_lat": 0.0, "lon": -77.05855616666666, "name": "a8cee75a83a5e346a0f61438a68e2976"}, {"bike_id": "19bb0eaecd4268cf82a10fd265672fe5", "type": "electric_scooter", "is_disabled": 0, "lat": 38.934579666666664, "rental_uris": {"ios": "https://dc.lft.to/lastmile_qr_scan", "android": "https://dc.lft.to/lastmile_qr_scan"}, "is_reserved": 0, "fusion_lon": 0.0, "fusion_lat": 0.0, "lon": -77.07220266666667, "name": "19bb0eaecd4268cf82a10fd265672fe5"}, {"bike_id": "66fdc0fba3e0d836416e60d8065902f6", "type": "electric_scooter", "is_disabled": 0, "lat": 38.924675, "rental_uris": {"ios": "https://dc.lft.to/lastmile_qr_scan", "android": "https://dc.lft.to/lastmile_qr_scan"}, "is_reserved": 0, "fusion_lon": 0.0, "fusion_lat": 0.0, "lon": -77.05229333333334, "name": "66fdc0fba3e0d836416e60d8065902f6"}, {"bike_id": "b81f35c7581a2bdd224d9a717f03c840", "type": "electric_scooter", "is_disabled": 0, "lat": 38.892473333333335, "rental_uris": {"ios": "https://dc.lft.to/lastmile_qr_scan", "android": "https://dc.lft.to/lastmile_qr_scan"}, "is_reserved": 0, "fusion_lon": 0.0, "fusion_lat": 0.0, "lon": -77.03956333333333, "name": "b81f35c7581a2bdd224d9a717f03c840"}, {"bike_id": "0d4e7ad21ab2e0333210c67396330771", "type": "electric_scooter", "is_disabled": 0, "lat": 38.90731016666667, "rental_uris": {"ios": "https://dc.lft.to/lastmile_qr_scan", "android": "https://dc.lft.to/lastmile_qr_scan"}, "is_reserved": 0, "fusion_lon": 0.0, "fusion_lat": 0.0, "lon": -77.014852, "name": "0d4e7ad21ab2e0333210c67396330771"}, {"bike_id": "e86c7550a553014198bfa88e3b79875a", "type": "electric_scooter", "is_disabled": 0, "lat": 38.906841166666666, "rental_uris": {"ios": "https://dc.lft.to/lastmile_qr_scan", "android": "https://dc.lft.to/lastmile_qr_scan"}, "is_reserved": 0, "fusion_lon": 0.0, "fusion_lat": 0.0, "lon": -77.071482, "name": "e86c7550a553014198bfa88e3b79875a"}, {"bike_id": "c7c230bd632d547ac2e2f9b54dc06b80", "type": "electric_scooter", "is_disabled": 0, "lat": 38.898703, "rental_uris": {"ios": "https://dc.lft.to/lastmile_qr_scan", "android": "https://dc.lft.to/lastmile_qr_scan"}, "is_reserved": 0, "fusion_lon": 0.0, "fusion_lat": 0.0, "lon": -77.020059, "name": "c7c230bd632d547ac2e2f9b54dc06b80"}, {"bike_id": "4fb93baa5d0632ba5c022703464d4a61", "type": "electric_scooter", "is_disabled": 0, "lat": 38.9298685, "rental_uris": {"ios": "https://dc.lft.to/lastmile_qr_scan", "android": "https://dc.lft.to/lastmile_qr_scan"}, "is_reserved": 0, "fusion_lon": 0.0, "fusion_lat": 0.0, "lon": -77.03468866666667, "name": "4fb93baa5d0632ba5c022703464d4a61"}, {"bike_id": "3c3b4d09dc757980d86ccc182946a883", "type": "electric_scooter", "is_disabled": 0, "lat": 38.90023383333333, "rental_uris": {"ios": "https://dc.lft.to/lastmile_qr_scan", "android": "https://dc.lft.to/lastmile_qr_scan"}, "is_reserved": 0, "fusion_lon": 0.0, "fusion_lat": 0.0, "lon": -76.98811066666667, "name": "3c3b4d09dc757980d86ccc182946a883"}, {"bike_id": "6b652323692d40ab0ccde8021f4dffb5", "type": "electric_scooter", "is_disabled": 0, "lat": 38.906814, "rental_uris": {"ios": "https://dc.lft.to/lastmile_qr_scan", "android": "https://dc.lft.to/lastmile_qr_scan"}, "is_reserved": 0, "fusion_lon": 0.0, "fusion_lat": 0.0, "lon": -77.0633875, "name": "6b652323692d40ab0ccde8021f4dffb5"}, {"bike_id": "3d1809420e5d1737af9cb4fdbffb44e1", "type": "electric_scooter", "is_disabled": 0, "lat": 38.9168495, "rental_uris": {"ios": "https://dc.lft.to/lastmile_qr_scan", "android": "https://dc.lft.to/lastmile_qr_scan"}, "is_reserved": 0, "fusion_lon": 0.0, "fusion_lat": 0.0, "lon": -77.022905, "name": "3d1809420e5d1737af9cb4fdbffb44e1"}, {"bike_id": "9a647e0ead2da26ad8ac246bfd8e7cdd", "type": "electric_scooter", "is_disabled": 0, "lat": 38.93187, "rental_uris": {"ios": "https://dc.lft.to/lastmile_qr_scan", "android": "https://dc.lft.to/lastmile_qr_scan"}, "is_reserved": 0, "fusion_lon": 0.0, "fusion_lat": 0.0, "lon": -77.03654083333333, "name": "9a647e0ead2da26ad8ac246bfd8e7cdd"}, {"bike_id": "fb912882db5341def3410c228b2048c3", "type": "electric_scooter", "is_disabled": 0, "lat": 38.9111045, "rental_uris": {"ios": "https://dc.lft.to/lastmile_qr_scan", "android": "https://dc.lft.to/lastmile_qr_scan"}, "is_reserved": 0, "fusion_lon": 0.0, "fusion_lat": 0.0, "lon": -77.0114325, "name": "fb912882db5341def3410c228b2048c3"}, {"bike_id": "43d7f0119f55a004320b4b5538794ea3", "type": "electric_scooter", "is_disabled": 0, "lat": 38.92976483333333, "rental_uris": {"ios": "https://dc.lft.to/lastmile_qr_scan", "android": "https://dc.lft.to/lastmile_qr_scan"}, "is_reserved": 0, "fusion_lon": 0.0, "fusion_lat": 0.0, "lon": -77.03938533333333, "name": "43d7f0119f55a004320b4b5538794ea3"}, {"bike_id": "9af30e333c8b992c4170c640ad694347", "type": "electric_bike", "is_disabled": 0, "lat": 39.0563155, "rental_uris": {"ios": "https://dc.lft.to/lastmile_qr_scan", "android": "https://dc.lft.to/lastmile_qr_scan"}, "is_reserved": 0, "fusion_lon": 0.0, "fusion_lat": 0.0, "lon": -77.1252515, "name": "9af30e333c8b992c4170c640ad694347"}, {"bike_id": "fc56fba9e3d53ddcafbacdee5e5de4c7", "type": "electric_scooter", "is_disabled": 0, "lat": 38.923539833333336, "rental_uris": {"ios": "https://dc.lft.to/lastmile_qr_scan", "android": "https://dc.lft.to/lastmile_qr_scan"}, "is_reserved": 0, "fusion_lon": 0.0, "fusion_lat": 0.0, "lon": -77.040345, "name": "fc56fba9e3d53ddcafbacdee5e5de4c7"}, {"bike_id": "48ec18bdbecdb1f39911cc97bc707454", "type": "electric_scooter", "is_disabled": 0, "lat": 38.91044766666667, "rental_uris": {"ios": "https://dc.lft.to/lastmile_qr_scan", "android": "https://dc.lft.to/lastmile_qr_scan"}, "is_reserved": 0, "fusion_lon": 0.0, "fusion_lat": 0.0, "lon": -77.041196, "name": "48ec18bdbecdb1f39911cc97bc707454"}, {"bike_id": "a4d30fa3171a59c2996e6495820bc19c", "type": "electric_scooter", "is_disabled": 0, "lat": 38.922745666666664, "rental_uris": {"ios": "https://dc.lft.to/lastmile_qr_scan", "android": "https://dc.lft.to/lastmile_qr_scan"}, "is_reserved": 0, "fusion_lon": 0.0, "fusion_lat": 0.0, "lon": -77.0328015, "name": "a4d30fa3171a59c2996e6495820bc19c"}, {"bike_id": "72272464680ab5c515ca379f422ed2c0", "type": "electric_scooter", "is_disabled": 0, "lat": 38.90739833333333, "rental_uris": {"ios": "https://dc.lft.to/lastmile_qr_scan", "android": "https://dc.lft.to/lastmile_qr_scan"}, "is_reserved": 0, "fusion_lon": 0.0, "fusion_lat": 0.0, "lon": -77.02947016666667, "name": "72272464680ab5c515ca379f422ed2c0"}, {"bike_id": "1a70996346e07b88bb9a0e25ac678c49", "type": "electric_scooter", "is_disabled": 0, "lat": 38.884065, "rental_uris": {"ios": "https://dc.lft.to/lastmile_qr_scan", "android": "https://dc.lft.to/lastmile_qr_scan"}, "is_reserved": 0, "fusion_lon": 0.0, "fusion_lat": 0.0, "lon": -76.9538705, "name": "1a70996346e07b88bb9a0e25ac678c49"}, {"bike_id": "f458208b85b5d9d03dc91af3c33a8343", "type": "electric_scooter", "is_disabled": 0, "lat": 38.94212866666667, "rental_uris": {"ios": "https://dc.lft.to/lastmile_qr_scan", "android": "https://dc.lft.to/lastmile_qr_scan"}, "is_reserved": 0, "fusion_lon": 0.0, "fusion_lat": 0.0, "lon": -77.0258405, "name": "f458208b85b5d9d03dc91af3c33a8343"}, {"bike_id": "a9d6d7d89161eb55f7fb71eb54c83cee", "type": "electric_scooter", "is_disabled": 0, "lat": 38.90323433333333, "rental_uris": {"ios": "https://dc.lft.to/lastmile_qr_scan", "android": "https://dc.lft.to/lastmile_qr_scan"}, "is_reserved": 0, "fusion_lon": 0.0, "fusion_lat": 0.0, "lon": -76.9941765, "name": "a9d6d7d89161eb55f7fb71eb54c83cee"}, {"bike_id": "567687fa2124054f13ee0fdd34d44b49", "type": "electric_bike", "is_disabled": 0, "lat": 38.90836766666666, "rental_uris": {"ios": "https://dc.lft.to/lastmile_qr_scan", "android": "https://dc.lft.to/lastmile_qr_scan"}, "is_reserved": 0, "fusion_lon": 0.0, "fusion_lat": 0.0, "lon": -76.93301133333334, "name": "567687fa2124054f13ee0fdd34d44b49"}, {"bike_id": "22cfc8f8c39d186d24ca9f33545dc914", "type": "electric_scooter", "is_disabled": 0, "lat": 38.90575066666667, "rental_uris": {"ios": "https://dc.lft.to/lastmile_qr_scan", "android": "https://dc.lft.to/lastmile_qr_scan"}, "is_reserved": 0, "fusion_lon": 0.0, "fusion_lat": 0.0, "lon": -76.97621883333333, "name": "22cfc8f8c39d186d24ca9f33545dc914"}, {"bike_id": "abd6e63a9c05e7253162b63e6d072ced", "type": "electric_scooter", "is_disabled": 0, "lat": 38.92068533333333, "rental_uris": {"ios": "https://dc.lft.to/lastmile_qr_scan", "android": "https://dc.lft.to/lastmile_qr_scan"}, "is_reserved": 0, "fusion_lon": 0.0, "fusion_lat": 0.0, "lon": -77.03204716666667, "name": "abd6e63a9c05e7253162b63e6d072ced"}, {"bike_id": "696271377871c51018d0b0c99e84f5da", "type": "electric_scooter", "is_disabled": 0, "lat": 38.90908816666666, "rental_uris": {"ios": "https://dc.lft.to/lastmile_qr_scan", "android": "https://dc.lft.to/lastmile_qr_scan"}, "is_reserved": 0, "fusion_lon": 0.0, "fusion_lat": 0.0, "lon": -77.04462216666667, "name": "696271377871c51018d0b0c99e84f5da"}, {"bike_id": "b23f5a17e067abcb67ad0bc52b225a77", "type": "electric_scooter", "is_disabled": 0, "lat": 38.9169735, "rental_uris": {"ios": "https://dc.lft.to/lastmile_qr_scan", "android": "https://dc.lft.to/lastmile_qr_scan"}, "is_reserved": 0, "fusion_lon": 0.0, "fusion_lat": 0.0, "lon": -77.0318695, "name": "b23f5a17e067abcb67ad0bc52b225a77"}, {"bike_id": "be26c74beafb7476e0743f64942b4d65", "type": "electric_scooter", "is_disabled": 0, "lat": 38.90248916666667, "rental_uris": {"ios": "https://dc.lft.to/lastmile_qr_scan", "android": "https://dc.lft.to/lastmile_qr_scan"}, "is_reserved": 0, "fusion_lon": 0.0, "fusion_lat": 0.0, "lon": -77.01859583333334, "name": "be26c74beafb7476e0743f64942b4d65"}, {"bike_id": "e6e1598349a5c49dbdd29e0137ee7fc0", "type": "electric_scooter", "is_disabled": 0, "lat": 38.870957, "rental_uris": {"ios": "https://dc.lft.to/lastmile_qr_scan", "android": "https://dc.lft.to/lastmile_qr_scan"}, "is_reserved": 0, "fusion_lon": 0.0, "fusion_lat": 0.0, "lon": -77.01199866666667, "name": "e6e1598349a5c49dbdd29e0137ee7fc0"}, {"bike_id": "a658835ab80cf5b02b29ac51b6817f87", "type": "electric_scooter", "is_disabled": 0, "lat": 38.9111685, "rental_uris": {"ios": "https://dc.lft.to/lastmile_qr_scan", "android": "https://dc.lft.to/lastmile_qr_scan"}, "is_reserved": 0, "fusion_lon": 0.0, "fusion_lat": 0.0, "lon": -77.038291, "name": "a658835ab80cf5b02b29ac51b6817f87"}, {"bike_id": "74d6c6e936ae122907b44ca0c851c0a1", "type": "electric_scooter", "is_disabled": 0, "lat": 38.908379833333335, "rental_uris": {"ios": "https://dc.lft.to/lastmile_qr_scan", "android": "https://dc.lft.to/lastmile_qr_scan"}, "is_reserved": 0, "fusion_lon": 0.0, "fusion_lat": 0.0, "lon": -77.02391533333333, "name": "74d6c6e936ae122907b44ca0c851c0a1"}, {"bike_id": "24d374a05688d5e9876b8eb2d9c43b63", "type": "electric_scooter", "is_disabled": 0, "lat": 38.922468333333335, "rental_uris": {"ios": "https://dc.lft.to/lastmile_qr_scan", "android": "https://dc.lft.to/lastmile_qr_scan"}, "is_reserved": 0, "fusion_lon": 0.0, "fusion_lat": 0.0, "lon": -77.07471816666667, "name": "24d374a05688d5e9876b8eb2d9c43b63"}, {"bike_id": "3d56a31ab8ec1ccec11a2cdbb540bb0d", "type": "electric_scooter", "is_disabled": 0, "lat": 38.906823, "rental_uris": {"ios": "https://dc.lft.to/lastmile_qr_scan", "android": "https://dc.lft.to/lastmile_qr_scan"}, "is_reserved": 0, "fusion_lon": 0.0, "fusion_lat": 0.0, "lon": -77.06338383333333, "name": "3d56a31ab8ec1ccec11a2cdbb540bb0d"}, {"bike_id": "24eb9df793c7200a3a9c5555155ba5a8", "type": "electric_scooter", "is_disabled": 0, "lat": 38.93680033333333, "rental_uris": {"ios": "https://dc.lft.to/lastmile_qr_scan", "android": "https://dc.lft.to/lastmile_qr_scan"}, "is_reserved": 0, "fusion_lon": 0.0, "fusion_lat": 0.0, "lon": -77.0362305, "name": "24eb9df793c7200a3a9c5555155ba5a8"}, {"bike_id": "37b86ab135b6b24db517c317cd0b2b5e", "type": "electric_scooter", "is_disabled": 0, "lat": 38.90370466666667, "rental_uris": {"ios": "https://dc.lft.to/lastmile_qr_scan", "android": "https://dc.lft.to/lastmile_qr_scan"}, "is_reserved": 0, "fusion_lon": 0.0, "fusion_lat": 0.0, "lon": -77.0075045, "name": "37b86ab135b6b24db517c317cd0b2b5e"}, {"bike_id": "42103a2196bcf0659d866d5fdac58641", "type": "electric_scooter", "is_disabled": 0, "lat": 38.914083833333336, "rental_uris": {"ios": "https://dc.lft.to/lastmile_qr_scan", "android": "https://dc.lft.to/lastmile_qr_scan"}, "is_reserved": 0, "fusion_lon": 0.0, "fusion_lat": 0.0, "lon": -77.02096866666666, "name": "42103a2196bcf0659d866d5fdac58641"}, {"bike_id": "1bf5351a015ff79c3116c72bb9c63098", "type": "electric_scooter", "is_disabled": 0, "lat": 38.938846833333336, "rental_uris": {"ios": "https://dc.lft.to/lastmile_qr_scan", "android": "https://dc.lft.to/lastmile_qr_scan"}, "is_reserved": 0, "fusion_lon": 0.0, "fusion_lat": 0.0, "lon": -77.02450433333334, "name": "1bf5351a015ff79c3116c72bb9c63098"}, {"bike_id": "07cf0792ea898602705e238a2b863676", "type": "electric_scooter", "is_disabled": 0, "lat": 38.9208395, "rental_uris": {"ios": "https://dc.lft.to/lastmile_qr_scan", "android": "https://dc.lft.to/lastmile_qr_scan"}, "is_reserved": 0, "fusion_lon": 0.0, "fusion_lat": 0.0, "lon": -77.0239675, "name": "07cf0792ea898602705e238a2b863676"}, {"bike_id": "f2b0679adf80d7cec962153be51e6622", "type": "electric_scooter", "is_disabled": 0, "lat": 38.88267183333333, "rental_uris": {"ios": "https://dc.lft.to/lastmile_qr_scan", "android": "https://dc.lft.to/lastmile_qr_scan"}, "is_reserved": 0, "fusion_lon": 0.0, "fusion_lat": 0.0, "lon": -76.99250483333333, "name": "f2b0679adf80d7cec962153be51e6622"}, {"bike_id": "1c81b80847f9397960f23192737321a8", "type": "electric_scooter", "is_disabled": 0, "lat": 38.92757983333333, "rental_uris": {"ios": "https://dc.lft.to/lastmile_qr_scan", "android": "https://dc.lft.to/lastmile_qr_scan"}, "is_reserved": 0, "fusion_lon": 0.0, "fusion_lat": 0.0, "lon": -77.0230215, "name": "1c81b80847f9397960f23192737321a8"}, {"bike_id": "7ba60dad6994c6629ea85b88e83d2f0e", "type": "electric_scooter", "is_disabled": 0, "lat": 38.916328, "rental_uris": {"ios": "https://dc.lft.to/lastmile_qr_scan", "android": "https://dc.lft.to/lastmile_qr_scan"}, "is_reserved": 0, "fusion_lon": 0.0, "fusion_lat": 0.0, "lon": -77.039827, "name": "7ba60dad6994c6629ea85b88e83d2f0e"}, {"bike_id": "d566c2f6267be04f252afd0422dec5d0", "type": "electric_scooter", "is_disabled": 0, "lat": 38.9066195, "rental_uris": {"ios": "https://dc.lft.to/lastmile_qr_scan", "android": "https://dc.lft.to/lastmile_qr_scan"}, "is_reserved": 0, "fusion_lon": 0.0, "fusion_lat": 0.0, "lon": -77.04605366666667, "name": "d566c2f6267be04f252afd0422dec5d0"}, {"bike_id": "1f76ae185263c437cd6a814f99e65532", "type": "electric_scooter", "is_disabled": 0, "lat": 38.91918116666667, "rental_uris": {"ios": "https://dc.lft.to/lastmile_qr_scan", "android": "https://dc.lft.to/lastmile_qr_scan"}, "is_reserved": 0, "fusion_lon": 0.0, "fusion_lat": 0.0, "lon": -77.03421083333333, "name": "1f76ae185263c437cd6a814f99e65532"}, {"bike_id": "0993d7130d39a892012a4e7fe33a4067", "type": "electric_scooter", "is_disabled": 0, "lat": 38.934173333333334, "rental_uris": {"ios": "https://dc.lft.to/lastmile_qr_scan", "android": "https://dc.lft.to/lastmile_qr_scan"}, "is_reserved": 0, "fusion_lon": 0.0, "fusion_lat": 0.0, "lon": -77.041491, "name": "0993d7130d39a892012a4e7fe33a4067"}, {"bike_id": "3dc72d26a90edc02d92b8aa1083ffc95", "type": "electric_bike", "is_disabled": 0, "lat": 38.932279666666666, "rental_uris": {"ios": "https://dc.lft.to/lastmile_qr_scan", "android": "https://dc.lft.to/lastmile_qr_scan"}, "is_reserved": 0, "fusion_lon": 0.0, "fusion_lat": 0.0, "lon": -77.18121566666667, "name": "3dc72d26a90edc02d92b8aa1083ffc95"}, {"bike_id": "782144532fbf5fb6718831933a65a512", "type": "electric_bike", "is_disabled": 0, "lat": 38.934448833333335, "rental_uris": {"ios": "https://dc.lft.to/lastmile_qr_scan", "android": "https://dc.lft.to/lastmile_qr_scan"}, "is_reserved": 0, "fusion_lon": 0.0, "fusion_lat": 0.0, "lon": -77.04117466666666, "name": "782144532fbf5fb6718831933a65a512"}, {"bike_id": "03cd129441114e5d547f2f96b5cfbaf7", "type": "electric_scooter", "is_disabled": 0, "lat": 38.906783833333336, "rental_uris": {"ios": "https://dc.lft.to/lastmile_qr_scan", "android": "https://dc.lft.to/lastmile_qr_scan"}, "is_reserved": 0, "fusion_lon": 0.0, "fusion_lat": 0.0, "lon": -77.06257433333333, "name": "03cd129441114e5d547f2f96b5cfbaf7"},