{"data": {"bikes": [{"lon": -76.9997785, "lat": 38.8383825, "name": "8934c8789a0e02c8a9371aa5b2fe3b42", "fusion_lat": 0.0, "fusion_lon": 0.0, "rental_uris": {"android": "https://dc.lft.to/lastmile_qr_scan", "ios": "https://dc.lft.to/lastmile_qr_scan"}, "is_reserved": 0, "is_disabled": 0, "type": "electric_scooter", "bike_id": "8934c8789a0e02c8a9371aa5b2fe3b42"}, {"lon": -77.0450755, "lat": 38.90373833333334, "name": "b038dc15233dec1f216d360036ae7654", "fusion_lat": 0.0, "fusion_lon": 0.0, "rental_uris": {"android": "https://dc.lft.to/lastmile_qr_scan", "ios": "https://dc.lft.to/lastmile_qr_scan"}, "is_reserved": 0, "is_disabled": 0, "type": "electric_scooter", "bike_id": "b038dc15233dec1f216d360036ae7654"}, {"lon": -77.02320683333333, "lat": 38.90914133333333, "name": "9e9d9bec49bbf0ee84f5bd1fae0f0e59", "fusion_lat": 0.0, "fusion_lon": 0.0, "rental_uris": {"android": "https://dc.lft.to/lastmile_qr_scan", "ios": "https://dc.lft.to/lastmile_qr_scan"}, "is_reserved": 0, "is_disabled": 0, "type": "electric_scooter", "bike_id": "9e9d9bec49bbf0ee84f5bd1fae0f0e59"}, {"lon": -77.03902516666666, "lat": 38.923293666666666, "name": "1baea6e4d0c19dec8b0b4a60f78a8820", "fusion_lat": 0.0, "fusion_lon": 0.0, "rental_uris": {"android": "https://dc.lft.to/lastmile_qr_scan", "ios": "https://dc.lft.to/lastmile_qr_scan"}, "is_reserved": 0, "is_disabled": 0, "type": "electric_scooter", "bike_id": "1baea6e4d0c19dec8b0b4a60f78a8820"}, {"lon": -77.04300166666667, "lat": 38.92253083333333, "name": "97847566842992533dbff7950ac807ec", "fusion_lat": 0.0, "fusion_lon": 0.0, "rental_uris": {"android": "https://dc.lft.to/lastmile_qr_scan", "ios": "https://dc.lft.to/lastmile_qr_scan"}, "is_reserved": 0, "is_disabled": 0, "type": "electric_scooter", "bike_id": "97847566842992533dbff7950ac807ec"}, {"lon": -77.02308583333334, "lat": 38.917676, "name": "b540332b00d7aa8f79da35d122dee89f", "fusion_lat": 0.0, "fusion_lon": 0.0, "rental_uris": {"android": "https://dc.lft.to/lastmile_qr_scan", "ios": "https://dc.lft.to/lastmile_qr_scan"}, "is_reserved": 0, "is_disabled": 0, "type": "electric_scooter", "bike_id": "b540332b00d7aa8f79da35d122dee89f"}, {"lon": -77.03924766666667, "lat": 38.9111355, "name": "549173b31a9981786e026bbec58d91cd", "fusion_lat": 0.0, "fusion_lon": 0.0, "rental_uris": {"android": "https://dc.lft.to/lastmile_qr_scan", "ios": "https://dc.lft.to/lastmile_qr_scan"}, "is_reserved": 0, "is_disabled": 0, "type": "electric_scooter", "bike_id": "549173b31a9981786e026bbec58d91cd"}, {"lon": -76.99010366666667, "lat": 38.86507833333334, "name": "4e98f504ce339b246643164998ad9f85", "fusion_lat": 0.0, "fusion_lon": 0.0, "rental_uris": {"android": "https://dc.lft.to/lastmile_qr_scan", "ios": "https://dc.lft.to/lastmile_qr_scan"}, "is_reserved": 0, "is_disabled": 0, "type": "electric_scooter", "bike_id": "4e98f504ce339b246643164998ad9f85"}, {"lon": -77.04872016666667, "lat": 38.90169783333333, "name": "68f9e1f96b5e9ce65bf65560ff18473a", "fusion_lat": 0.0, "fusion_lon": 0.0, "rental_uris": {"android": "https://dc.lft.to/lastmile_qr_scan", "ios": "https://dc.lft.to/lastmile_qr_scan"}, "is_reserved": 0, "is_disabled": 0, "type": "electric_scooter", "bike_id": "68f9e1f96b5e9ce65bf65560ff18473a"}, {"lon": -76.99084833333333, "lat": 38.860460833333335, "name": "65efd5eb29d675b06b965f2863affce6", "fusion_lat": 0.0, "fusion_lon": 0.0, "rental_uris": {"android": "https://dc.lft.to/lastmile_qr_scan", "ios": "https://dc.lft.to/lastmile_qr_scan"}, "is_reserved": 0, "is_disabled": 0, "type": "electric_scooter", "bike_id": "65efd5eb29d675b06b965f2863affce6"}, {"lon": -77.0249665, "lat": 38.91805033333333, "name": "3d3abe7ca343d631424fe307fa6880fa", "fusion_lat": 0.0, "fusion_lon": 0.0, "rental_uris": {"android": "https://dc.lft.to/lastmile_qr_scan", "ios": "https://dc.lft.to/lastmile_qr_scan"}, "is_reserved": 0, "is_disabled": 0, "type": "electric_scooter", "bike_id": "3d3abe7ca343d631424fe307fa6880fa"}, {"lon": -77.0033365, "lat": 38.8935415, "name": "c518426190d78edb0ca7e1d28f24d98b", "fusion_lat": 0.0, "fusion_lon": 0.0, "rental_uris": {"android": "https://dc.lft.to/lastmile_qr_scan", "ios": "https://dc.lft.to/lastmile_qr_scan"}, "is_reserved": 0, "is_disabled": 0, "type": "electric_scooter", "bike_id": "c518426190d78edb0ca7e1d28f24d98b"}, {"lon": -77.04690566666666, "lat": 38.921353833333335, "name": "f6e9f1b3f9937f7e6105391b8a870922", "fusion_lat": 0.0, "fusion_lon": 0.0, "rental_uris": {"android": "https://dc.lft.to/lastmile_qr_scan", "ios": "https://dc.lft.to/lastmile_qr_scan"}, "is_reserved": 0, "is_disabled": 0, "type": "electric_scooter", "bike_id": "f6e9f1b3f9937f7e6105391b8a870922"}, {"lon": -77.04744183333334, "lat": 38.91255666666667, "name": "8634deba2fca35672cc3a242a66a421c", "fusion_lat": 0.0, "fusion_lon": 0.0, "rental_uris": {"android": "https://dc.lft.to/lastmile_qr_scan", "ios": "https://dc.lft.to/lastmile_qr_scan"}, "is_reserved": 0, "is_disabled": 0, "type": "electric_scooter", "bike_id": "8634deba2fca35672cc3a242a66a421c"}, {"lon": -76.94669783333333, "lat": 38.89868333333333, "name": "b224d24208d6bcd934773457eefc5e6c", "fusion_lat": 0.0, "fusion_lon": 0.0, "rental_uris": {"android": "https://dc.lft.to/lastmile_qr_scan", "ios": "https://dc.lft.to/lastmile_qr_scan"}, "is_reserved": 0, "is_disabled": 0, "type": "electric_scooter", "bike_id": "b224d24208d6bcd934773457eefc5e6c"}, {"lon": -77.03935133333333, "lat": 38.908096, "name": "17095b78712c8e2930772f7933291645", "fusion_lat": 0.0, "fusion_lon": 0.0, "rental_uris": {"android": "https://dc.lft.to/lastmile_qr_scan", "ios": "https://dc.lft.to/lastmile_qr_scan"}, "is_reserved": 0, "is_disabled": 0, "type": "electric_scooter", "bike_id": "17095b78712c8e2930772f7933291645"}, {"lon": -77.02617816666667, "lat": 38.89637716666667, "name": "b4a78efc2bc752f3584e48ac628be94f", "fusion_lat": 0.0, "fusion_lon": 0.0, "rental_uris": {"android": "https://dc.lft.to/lastmile_qr_scan", "ios": "https://dc.lft.to/lastmile_qr_scan"}, "is_reserved": 0, "is_disabled": 0, "type": "electric_scooter", "bike_id": "b4a78efc2bc752f3584e48ac628be94f"}, {"lon": -77.02106783333333, "lat": 38.93444983333333, "name": "4d39e8395b13c279a8e5e8e1db74f1a6", "fusion_lat": 0.0, "fusion_lon": 0.0, "rental_uris": {"android": "https://dc.lft.to/lastmile_qr_scan", "ios": "https://dc.lft.to/lastmile_qr_scan"}, "is_reserved": 0, "is_disabled": 0, "type": "electric_scooter", "bike_id": "4d39e8395b13c279a8e5e8e1db74f1a6"}, {"lon": -77.03304916666667, "lat": 38.90968633333333, "name": "22a8d3dc1cd2ce1bd0e79a23aa8dd47a", "fusion_lat": 0.0, "fusion_lon": 0.0, "rental_uris": {"android": "https://dc.lft.to/lastmile_qr_scan", "ios": "https://dc.lft.to/lastmile_qr_scan"}, "is_reserved": 0, "is_disabled": 0, "type": "electric_scooter", "bike_id": "22a8d3dc1cd2ce1bd0e79a23aa8dd47a"}, {"lon": -76.985571, "lat": 38.88992733333333, "name": "94d3db02c5809540f95df2c8bab56b2f", "fusion_lat": 0.0, "fusion_lon": 0.0, "rental_uris": {"android": "https://dc.lft.to/lastmile_qr_scan", "ios": "https://dc.lft.to/lastmile_qr_scan"}, "is_reserved": 0, "is_disabled": 0, "type": "electric_scooter", "bike_id": "94d3db02c5809540f95df2c8bab56b2f"}, {"lon": -77.03356633333334, "lat": 38.9243615, "name": "84d3b58da6101aa946ae703e8bada1a7", "fusion_lat": 0.0, "fusion_lon": 0.0, "rental_uris": {"android": "https://dc.lft.to/lastmile_qr_scan", "ios": "https://dc.lft.to/lastmile_qr_scan"}, "is_reserved": 0, "is_disabled": 0, "type": "electric_scooter", "bike_id": "84d3b58da6101aa946ae703e8bada1a7"}, {"lon": -77.05641416666667, "lat": 38.92412683333333, "name": "90e4a410322c1729f4d6d45ef50b60fd", "fusion_lat": 0.0, "fusion_lon": 0.0, "rental_uris": {"android": "https://dc.lft.to/lastmile_qr_scan", "ios": "https://dc.lft.to/lastmile_qr_scan"}, "is_reserved": 0, "is_disabled": 0, "type": "electric_scooter", "bike_id": "90e4a410322c1729f4d6d45ef50b60fd"}, {"lon": -77.07364416666667, "lat": 38.93354133333333, "name": "5ed82385c749a96c0ba4ac21240ba582", "fusion_lat": 0.0, "fusion_lon": 0.0, "rental_uris": {"android": "https://dc.lft.to/lastmile_qr_scan", "ios": "https://dc.lft.to/lastmile_qr_scan"}, "is_reserved": 0, "is_disabled": 0, "type": "electric_scooter", "bike_id": "5ed82385c749a96c0ba4ac21240ba582"}, {"lon": -77.00929783333333, "lat": 38.910599833333336, "name": "fef0bd772260cd317970effac3c28ced", "fusion_lat": 0.0, "fusion_lon": 0.0, "rental_uris": {"android": "https://dc.lft.to/lastmile_qr_scan", "ios": "https://dc.lft.to/lastmile_qr_scan"}, "is_reserved": 0, "is_disabled": 0, "type": "electric_scooter", "bike_id": "fef0bd772260cd317970effac3c28ced"}, {"lon": -77.07293, "lat": 38.9351795, "name": "8061f929e0a477b99c1e25bae61b82b8", "fusion_lat": 0.0, "fusion_lon": 0.0, "rental_uris": {"android": "https://dc.lft.to/lastmile_qr_scan", "ios": "https://dc.lft.to/lastmile_qr_scan"}, "is_reserved": 0, "is_disabled": 0, "type": "electric_scooter", "bike_id": "8061f929e0a477b99c1e25bae61b82b8"}, {"lon": -77.04883516666666, "lat": 38.901166833333335, "name": "0909432ef7f4a26d485ee00390836b39", "fusion_lat": 0.0, "fusion_lon": 0.0, "rental_uris": {"android": "https://dc.lft.to/lastmile_qr_scan", "ios": "https://dc.lft.to/lastmile_qr_scan"}, "is_reserved": 0, "is_disabled": 0, "type": "electric_scooter", "bike_id": "0909432ef7f4a26d485ee00390836b39"}, {"lon": -77.1226655, "lat": 38.891858166666665, "name": "f69749d4c93781d12f5a25653540abc6", "fusion_lat": 0.0, "fusion_lon": 0.0, "rental_uris": {"android": "https://dc.lft.to/lastmile_qr_scan", "ios": "https://dc.lft.to/lastmile_qr_scan"}, "is_reserved": 0, "is_disabled": 0, "type": "electric_bike", "bike_id": "f69749d4c93781d12f5a25653540abc6"}, {"lon": -77.11222666666667, "lat": 38.828755, "name": "ade1e6cc82009c9f3f80b078ebbda102", "fusion_lat": 0.0, "fusion_lon": 0.0, "rental_uris": {"android": "https://dc.lft.to/lastmile_qr_scan", "ios": "https://dc.lft.to/lastmile_qr_scan"}, "is_reserved": 0, "is_disabled": 0, "type": "electric_bike", "bike_id": "ade1e6cc82009c9f3f80b078ebbda102"}, {"lon": -77.0357345, "lat": 38.95722583333333, "name": "0162b743f5ffbbde2019a8b537e6a981", "fusion_lat": 0.0, "fusion_lon": 0.0, "rental_uris": {"android": "https://dc.lft.to/lastmile_qr_scan", "ios": "https://dc.lft.to/lastmile_qr_scan"}, "is_reserved": 0, "is_disabled": 0, "type": "electric_scooter", "bike_id": "0162b743f5ffbbde2019a8b537e6a981"}, {"lon": -77.04755666666667, "lat": 38.902429166666664, "name": "ac6c0d69791e0620ed9810089b300b2c", "fusion_lat": 0.0, "fusion_lon": 0.0, "rental_uris": {"android": "https://dc.lft.to/lastmile_qr_scan", "ios": "https://dc.lft.to/lastmile_qr_scan"}, "is_reserved": 0, "is_disabled": 0, "type": "electric_scooter", "bike_id": "ac6c0d69791e0620ed9810089b300b2c"}, {"lon": -77.02682816666666, "lat": 38.8992825, "name": "ac53fe1992586fd03b26bb96fa38a341", "fusion_lat": 0.0, "fusion_lon": 0.0, "rental_uris": {"android": "https://dc.lft.to/lastmile_qr_scan", "ios": "https://dc.lft.to/lastmile_qr_scan"}, "is_reserved": 0, "is_disabled": 0, "type": "electric_scooter", "bike_id": "ac53fe1992586fd03b26bb96fa38a341"}, {"lon": -77.07687866666667, "lat": 38.83192283333333, "name": "fee45f7346e9d056713aa09f88c4094b", "fusion_lat": 0.0, "fusion_lon": 0.0, "rental_uris": {"android": "https://dc.lft.to/lastmile_qr_scan", "ios": "https://dc.lft.to/lastmile_qr_scan"}, "is_reserved": 0, "is_disabled": 0, "type": "electric_bike", "bike_id": "fee45f7346e9d056713aa09f88c4094b"}, {"lon": -77.0332945, "lat": 38.89782, "name": "9740ee9921ef9a059e1bd0c081240580", "fusion_lat": 0.0, "fusion_lon": 0.0, "rental_uris": {"android": "https://dc.lft.to/lastmile_qr_scan", "ios": "https://dc.lft.to/lastmile_qr_scan"}, "is_reserved": 0, "is_disabled": 0, "type": "electric_scooter", "bike_id": "9740ee9921ef9a059e1bd0c081240580"}, {"lon": -76.98739983333333, "lat": 38.94429066666667, "name": "88bde265973ce968ccd29fdc5d68a70a", "fusion_lat": 0.0, "fusion_lon": 0.0, "rental_uris": {"android": "https://dc.lft.to/lastmile_qr_scan", "ios": "https://dc.lft.to/lastmile_qr_scan"}, "is_reserved": 0, "is_disabled": 0, "type": "electric_bike", "bike_id": "88bde265973ce968ccd29fdc5d68a70a"}, {"lon": -77.023916, "lat": 38.901721333333334, "name": "1b1c558405467eff41722a39efa3ec7a", "fusion_lat": 0.0, "fusion_lon": 0.0, "rental_uris": {"android": "https://dc.lft.to/lastmile_qr_scan", "ios": "https://dc.lft.to/lastmile_qr_scan"}, "is_reserved": 0, "is_disabled": 0, "type": "electric_scooter", "bike_id": "1b1c558405467eff41722a39efa3ec7a"}, {"lon": -76.93550583333334, "lat": 38.95556833333333, "name": "6b085857096ad356338b23c74454118c", "fusion_lat": 0.0, "fusion_lon": 0.0, "rental_uris": {"android": "https://dc.lft.to/lastmile_qr_scan", "ios": "https://dc.lft.to/lastmile_qr_scan"}, "is_reserved": 0, "is_disabled": 0, "type": "electric_bike", "bike_id": "6b085857096ad356338b23c74454118c"}, {"lon": -77.12630183333333, "lat": 39.058084, "name": "c4710fc495f57835658bacdcbb096cfb", "fusion_lat": 0.0, "fusion_lon": 0.0, "rental_uris": {"android": "https://dc.lft.to/lastmile_qr_scan", "ios": "https://dc.lft.to/lastmile_qr_scan"}, "is_reserved": 0, "is_disabled": 0, "type": "electric_bike", "bike_id": "c4710fc495f57835658bacdcbb096cfb"}, {"lon": -77.039943, "lat": 38.898959166666664, "name": "70d3d685e7b059c765ea0775839e556e", "fusion_lat": 0.0, "fusion_lon": 0.0, "rental_uris": {"android": "https://dc.lft.to/lastmile_qr_scan", "ios": "https://dc.lft.to/lastmile_qr_scan"}, "is_reserved": 0, "is_disabled": 0, "type": "electric_scooter", "bike_id": "70d3d685e7b059c765ea0775839e556e"}, {"lon": -77.04352283333333, "lat": 38.903760166666665, "name": "b37dfb78a8fdc26ef54563ec6005f5db", "fusion_lat": 0.0, "fusion_lon": 0.0, "rental_uris": {"android": "https://dc.lft.to/lastmile_qr_scan", "ios": "https://dc.lft.to/lastmile_qr_scan"}, "is_reserved": 0, "is_disabled": 0, "type": "electric_scooter", "bike_id": "b37dfb78a8fdc26ef54563ec6005f5db"}, {"lon": -77.07169966666666, "lat": 38.907750166666666, "name": "008a32d94b5a588a4c804e0e075c8421", "fusion_lat": 0.0, "fusion_lon": 0.0, "rental_uris": {"android": "https://dc.lft.to/lastmile_qr_scan", "ios": "https://dc.lft.to/lastmile_qr_scan"}, "is_reserved": 0, "is_disabled": 0, "type": "electric_scooter", "bike_id": "008a32d94b5a588a4c804e0e075c8421"}, {"lon": -77.03209233333334, "lat": 38.916362666666664, "name": "d3d06181cff4846b60a23705b8451f0c", "fusion_lat": 0.0, "fusion_lon": 0.0, "rental_uris": {"android": "https://dc.lft.to/lastmile_qr_scan", "ios": "https://dc.lft.to/lastmile_qr_scan"}, "is_reserved": 0, "is_disabled": 0, "type": "electric_scooter", "bike_id": "d3d06181cff4846b60a23705b8451f0c"}, {"lon": -77.03181733333334, "lat": 38.91931733333333, "name": "f7b846d98689e51cc54e6eed05afb66f", "fusion_lat": 0.0, "fusion_lon": 0.0, "rental_uris": {"android": "https://dc.lft.to/lastmile_qr_scan", "ios": "https://dc.lft.to/lastmile_qr_scan"}, "is_reserved": 0, "is_disabled": 0, "type": "electric_scooter", "bike_id": "f7b846d98689e51cc54e6eed05afb66f"}, {"lon": -77.03227483333333, "lat": 38.892194333333336, "name": "6fb7c1c272ec956142db309259688d93", "fusion_lat": 0.0, "fusion_lon": 0.0, "rental_uris": {"android": "https://dc.lft.to/lastmile_qr_scan", "ios": "https://dc.lft.to/lastmile_qr_scan"}, "is_reserved": 0, "is_disabled": 0, "type": "electric_scooter", "bike_id": "6fb7c1c272ec956142db309259688d93"}, {"lon": -76.99828166666667, "lat": 38.844212666666664, "name": "f2641608df3db81db0f1b99d159f4eb8", "fusion_lat": 0.0, "fusion_lon": 0.0, "rental_uris": {"android": "https://dc.lft.to/lastmile_qr_scan", "ios": "https://dc.lft.to/lastmile_qr_scan"}, "is_reserved": 0, "is_disabled": 0, "type": "electric_scooter", "bike_id": "f2641608df3db81db0f1b99d159f4eb8"}, {"lon": -76.9874015, "lat": 38.85787966666667, "name": "e782f940a0611a0ccdc792dc3ddd02fa", "fusion_lat": 0.0, "fusion_lon": 0.0, "rental_uris": {"android": "https://dc.lft.to/lastmile_qr_scan", "ios": "https://dc.lft.to/lastmile_qr_scan"}, "is_reserved": 0, "is_disabled": 0, "type": "electric_bike", "bike_id": "e782f940a0611a0ccdc792dc3ddd02fa"}, {"lon": -77.03272783333334, "lat": 38.898814, "name": "a891117b82d9a17fc31381abd7c4bb10", "fusion_lat": 0.0, "fusion_lon": 0.0, "rental_uris": {"android": "https://dc.lft.to/lastmile_qr_scan", "ios": "https://dc.lft.to/lastmile_qr_scan"}, "is_reserved": 0, "is_disabled": 0, "type": "electric_scooter", "bike_id": "a891117b82d9a17fc31381abd7c4bb10"}, {"lon": -76.98399233333333, "lat": 38.92196966666667, "name": "f2d7e2bdc678a924ad74df5640f9acc6", "fusion_lat": 0.0, "fusion_lon": 0.0, "rental_uris": {"android": "https://dc.lft.to/lastmile_qr_scan", "ios": "https://dc.lft.to/lastmile_qr_scan"}, "is_reserved": 0, "is_disabled": 0, "type": "electric_bike", "bike_id": "f2d7e2bdc678a924ad74df5640f9acc6"}, {"lon": -77.02975683333334, "lat": 38.892067, "name": "87f3a5d8e64896faad783a145c917545", "fusion_lat": 0.0, "fusion_lon": 0.0, "rental_uris": {"android": "https://dc.lft.to/lastmile_qr_scan", "ios": "https://dc.lft.to/lastmile_qr_scan"}, "is_reserved": 0, "is_disabled": 0, "type": "electric_scooter", "bike_id": "87f3a5d8e64896faad783a145c917545"}, {"lon": -77.03129466666667, "lat": 38.9103795, "name": "421e0d859b03636e20b65a47c8b6c941", "fusion_lat": 0.0, "fusion_lon": 0.0, "rental_uris": {"android": "https://dc.lft.to/lastmile_qr_scan", "ios": "https://dc.lft.to/lastmile_qr_scan"}, "is_reserved": 0, "is_disabled": 0, "type": "electric_scooter", "bike_id": "421e0d859b03636e20b65a47c8b6c941"}, {"lon": -76.98681583333334, "lat": 38.8821695, "name": "9af8a9933ce434b5a149fcc9d47dd294", "fusion_lat": 0.0, "fusion_lon": 0.0, "rental_uris": {"android": "https://dc.lft.to/lastmile_qr_scan", "ios": "https://dc.lft.to/lastmile_qr_scan"}, "is_reserved": 0, "is_disabled": 0, "type": "electric_scooter", "bike_id": "9af8a9933ce434b5a149fcc9d47dd294"}, {"lon": -76.99064466666667, "lat": 38.92662083333333, "name": "5270b2580dcad25539c50bfc98dc5b38", "fusion_lat": 0.0, "fusion_lon": 0.0, "rental_uris": {"android": "https://dc.lft.to/lastmile_qr_scan", "ios": "https://dc.lft.to/lastmile_qr_scan"}, "is_reserved": 0, "is_disabled": 0, "type": "electric_scooter", "bike_id": "5270b2580dcad25539c50bfc98dc5b38"}, {"lon": -77.057497, "lat": 38.904958, "name": "d3cb5576f47b0cb00f5e4129f370a8a8", "fusion_lat": 0.0, "fusion_lon": 0.0, "rental_uris": {"android": "https://dc.lft.to/lastmile_qr_scan", "ios": "https://dc.lft.to/lastmile_qr_scan"}, "is_reserved": 0, "is_disabled": 0, "type": "electric_scooter", "bike_id": "d3cb5576f47b0cb00f5e4129f370a8a8"}, {"lon": -77.028521, "lat": 38.9649945, "name": "54b4fec0ce6c8d9ca5f025d36f88c9e7", "fusion_lat": 0.0, "fusion_lon": 0.0, "rental_uris": {"android": "https://dc.lft.to/lastmile_qr_scan", "ios": "https://dc.lft.to/lastmile_qr_scan"}, "is_reserved": 0, "is_disabled": 0, "type": "electric_scooter", "bike_id": "54b4fec0ce6c8d9ca5f025d36f88c9e7"}, {"lon": -77.02348416666666, "lat": 38.9359515, "name": "6bb54020980398ff01400afb9c7acef3", "fusion_lat": 0.0, "fusion_lon": 0.0, "rental_uris": {"android": "https://dc.lft.to/lastmile_qr_scan", "ios": "https://dc.lft.to/lastmile_qr_scan"}, "is_reserved": 0, "is_disabled": 0, "type": "electric_scooter", "bike_id": "6bb54020980398ff01400afb9c7acef3"}, {"lon": -76.97964083333333, "lat": 38.9038015, "name": "13460d90bb2438880edd1910411f9eb6", "fusion_lat": 0.0, "fusion_lon": 0.0, "rental_uris": {"android": "https://dc.lft.to/lastmile_qr_scan", "ios": "https://dc.lft.to/lastmile_qr_scan"}, "is_reserved": 0, "is_disabled": 0, "type": "electric_scooter", "bike_id": "13460d90bb2438880edd1910411f9eb6"}, {"lon": -77.03283316666666, "lat": 38.910325, "name": "134c3c38d1655300217ae3be544a196d", "fusion_lat": 0.0, "fusion_lon": 0.0, "rental_uris": {"android": "https://dc.lft.to/lastmile_qr_scan", "ios": "https://dc.lft.to/lastmile_qr_scan"}, "is_reserved": 0, "is_disabled": 0, "type": "electric_scooter", "bike_id": "134c3c38d1655300217ae3be544a196d"}, {"lon": -77.03282616666667, "lat": 38.939851166666664, "name": "bd52848910c62b6821ea3ee72a4fb6ca", "fusion_lat": 0.0, "fusion_lon": 0.0, "rental_uris": {"android": "https://dc.lft.to/lastmile_qr_scan", "ios": "https://dc.lft.to/lastmile_qr_scan"}, "is_reserved": 0, "is_disabled": 0, "type": "electric_scooter", "bike_id": "bd52848910c62b6821ea3ee72a4fb6ca"}, {"lon": -77.04690233333334, "lat": 38.92109516666667, "name": "4d6bebccef7a4483d2e3e9c1d47dfcfb", "fusion_lat": 0.0, "fusion_lon": 0.0, "rental_uris": {"android": "https://dc.lft.to/lastmile_qr_scan", "ios": "https://dc.lft.to/lastmile_qr_scan"}, "is_reserved": 0, "is_disabled": 0, "type": "electric_scooter", "bike_id": "4d6bebccef7a4483d2e3e9c1d47dfcfb"}, {"lon": -76.99033266666666, "lat": 38.8586425, "name": "19c8cfa996389e8e4a62ecd01b1f0eff", "fusion_lat": 0.0, "fusion_lon": 0.0, "rental_uris": {"android": "https://dc.lft.to/lastmile_qr_scan", "ios": "https://dc.lft.to/lastmile_qr_scan"}, "is_reserved": 0, "is_disabled": 0, "type": "electric_scooter", "bike_id": "19c8cfa996389e8e4a62ecd01b1f0eff"}, {"lon": -77.02318866666667, "lat": 38.8873115, "name": "438cded20935e260df1e5f849fb6afa6", "fusion_lat": 0.0, "fusion_lon": 0.0, "rental_uris": {"android": "https://dc.lft.to/lastmile_qr_scan", "ios": "https://dc.lft.to/lastmile_qr_scan"}, "is_reserved": 0, "is_disabled": 0, "type": "electric_scooter", "bike_id": "438cded20935e260df1e5f849fb6afa6"}, {"lon": -77.02226733333333, "lat": 38.886222833333335, "name": "89e5763fa0d2a54a655d97fa6f82b7bd", "fusion_lat": 0.0, "fusion_lon": 0.0, "rental_uris": {"android": "https://dc.lft.to/lastmile_qr_scan", "ios": "https://dc.lft.to/lastmile_qr_scan"}, "is_reserved": 0, "is_disabled": 0, "type": "electric_bike", "bike_id": "89e5763fa0d2a54a655d97fa6f82b7bd"}, {"lon": -77.00095633333333, "lat": 38.873697666666665, "name": "4ffb8da508eff87afa0567118a4e5bf0", "fusion_lat": 0.0, "fusion_lon": 0.0, "rental_uris": {"android": "https://dc.lft.to/lastmile_qr_scan", "ios": "https://dc.lft.to/lastmile_qr_scan"}, "is_reserved": 0, "is_disabled": 0, "type": "electric_scooter", "bike_id": "4ffb8da508eff87afa0567118a4e5bf0"}, {"lon": -76.97612483333333, "lat": 38.913046666666666, "name": "361e94fc1498ccd32bae48e0ee6c0714", "fusion_lat": 0.0, "fusion_lon": 0.0, "rental_uris": {"android": "https://dc.lft.to/lastmile_qr_scan", "ios": "https://dc.lft.to/lastmile_qr_scan"}, "is_reserved": 0, "is_disabled": 0, "type": "electric_bike", "bike_id": "361e94fc1498ccd32bae48e0ee6c0714"}, {"lon": -77.02004266666667, "lat": 38.892460166666666, "name": "73acf7a32c519ed2b3b117587af9ccc6", "fusion_lat": 0.0, "fusion_lon": 0.0, "rental_uris": {"android": "https://dc.lft.to/lastmile_qr_scan", "ios": "https://dc.lft.to/lastmile_qr_scan"}, "is_reserved": 0, "is_disabled": 0, "type": "electric_scooter", "bike_id": "73acf7a32c519ed2b3b117587af9ccc6"}, {"lon": -77.04395133333334, "lat": 38.922743833333335, "name": "0893dae73ac45bb2af6161c128202b61", "fusion_lat": 0.0, "fusion_lon": 0.0, "rental_uris": {"android": "https://dc.lft.to/lastmile_qr_scan", "ios": "https://dc.lft.to/lastmile_qr_scan"}, "is_reserved": 0, "is_disabled": 0, "type": "electric_scooter", "bike_id": "0893dae73ac45bb2af6161c128202b61"}, {"lon": -77.024011, "lat": 38.887376, "name": "dace8b2619f3092bf2e18ba38e2e47f0", "fusion_lat": 0.0, "fusion_lon": 0.0, "rental_uris": {"android": "https://dc.lft.to/lastmile_qr_scan", "ios": "https://dc.lft.to/lastmile_qr_scan"}, "is_reserved": 0, "is_disabled": 0, "type": "electric_scooter", "bike_id": "dace8b2619f3092bf2e18ba38e2e47f0"}, {"lon": -77.018263, "lat": 38.908111, "name": "3017511cd9ad70d7c34ecfbb7568e1a3", "fusion_lat": 0.0, "fusion_lon": 0.0, "rental_uris": {"android": "https://dc.lft.to/lastmile_qr_scan", "ios": "https://dc.lft.to/lastmile_qr_scan"}, "is_reserved": 0, "is_disabled": 0, "type": "electric_scooter", "bike_id": "3017511cd9ad70d7c34ecfbb7568e1a3"}, {"lon": -77.010701, "lat": 38.871076333333335, "name": "f6eb5255e3eefd5da6869a2b8be6110d", "fusion_lat": 0.0, "fusion_lon": 0.0, "rental_uris": {"android": "https://dc.lft.to/lastmile_qr_scan", "ios": "https://dc.lft.to/lastmile_qr_scan"}, "is_reserved": 0, "is_disabled": 0, "type": "electric_scooter", "bike_id": "f6eb5255e3eefd5da6869a2b8be6110d"}, {"lon": -77.10934433333334, "lat": 39.0519625, "name": "bf6a38f7dbb2d1dd697430c10e980baa", "fusion_lat": 0.0, "fusion_lon": 0.0, "rental_uris": {"android": "https://dc.lft.to/lastmile_qr_scan", "ios": "https://dc.lft.to/lastmile_qr_scan"}, "is_reserved": 0, "is_disabled": 0, "type": "electric_bike", "bike_id": "bf6a38f7dbb2d1dd697430c10e980baa"}, {"lon": -77.023923, "lat": 38.887328833333335, "name": "76ece7e1e4d234d7fff5a776d493fcec", "fusion_lat": 0.0, "fusion_lon": 0.0, "rental_uris": {"android": "https://dc.lft.to/lastmile_qr_scan", "ios": "https://dc.lft.to/lastmile_qr_scan"}, "is_reserved": 0, "is_disabled": 0, "type": "electric_scooter", "bike_id": "76ece7e1e4d234d7fff5a776d493fcec"}, {"lon": -77.061644, "lat": 38.94223916666667, "name": "5ec4f2145ca83076d1f63d93b31d71b5", "fusion_lat": 0.0, "fusion_lon": 0.0, "rental_uris": {"android": "https://dc.lft.to/lastmile_qr_scan", "ios": "https://dc.lft.to/lastmile_qr_scan"}, "is_reserved": 0, "is_disabled": 0, "type": "electric_scooter", "bike_id": "5ec4f2145ca83076d1f63d93b31d71b5"}, {"lon": -77.02497866666667, "lat": 38.91802966666667, "name": "04cc7cb3e3e5bd3955d0f7a240c91583", "fusion_lat": 0.0, "fusion_lon": 0.0, "rental_uris": {"android": "https://dc.lft.to/lastmile_qr_scan", "ios": "https://dc.lft.to/lastmile_qr_scan"}, "is_reserved": 0, "is_disabled": 0, "type": "electric_scooter", "bike_id": "04cc7cb3e3e5bd3955d0f7a240c91583"}, {"lon": -77.12741466666667, "lat": 38.88819433333333, "name": "a7606be5d7cd3973b28d6ed66114dbe9", "fusion_lat": 0.0, "fusion_lon": 0.0, "rental_uris": {"android": "https://dc.lft.to/lastmile_qr_scan", "ios": "https://dc.lft.to/lastmile_qr_scan"}, "is_reserved": 0, "is_disabled": 0, "type": "electric_bike", "bike_id": "a7606be5d7cd3973b28d6ed66114dbe9"}, {"lon": -77.02589533333334, "lat": 38.8924015, "name": "1f9d0435e160e31b262ef3ea83aa490b", "fusion_lat": 0.0, "fusion_lon": 0.0, "rental_uris": {"android": "https://dc.lft.to/lastmile_qr_scan", "ios": "https://dc.lft.to/lastmile_qr_scan"}, "is_reserved": 0, "is_disabled": 0, "type": "electric_scooter", "bike_id": "1f9d0435e160e31b262ef3ea83aa490b"}, {"lon": -77.02382183333333, "lat": 38.9195945, "name": "40dcbcfb3ea299ca1b9aa98b0a377862", "fusion_lat": 0.0, "fusion_lon": 0.0, "rental_uris": {"android": "https://dc.lft.to/lastmile_qr_scan", "ios": "https://dc.lft.to/lastmile_qr_scan"}, "is_reserved": 0, "is_disabled": 0, "type": "electric_scooter", "bike_id": "40dcbcfb3ea299ca1b9aa98b0a377862"}, {"lon": -77.03834016666667, "lat": 38.91110066666667, "name": "e1f9ac29a60fc6f67c5246141525cece", "fusion_lat": 0.0, "fusion_lon": 0.0, "rental_uris": {"android": "https://dc.lft.to/lastmile_qr_scan", "ios": "https://dc.lft.to/lastmile_qr_scan"}, "is_reserved": 0, "is_disabled": 0, "type": "electric_scooter", "bike_id": "e1f9ac29a60fc6f67c5246141525cece"}, {"lon": -76.98776316666667, "lat": 38.911703333333335, "name": "85be96a838df5fdffc4b3c4a1568e61c", "fusion_lat": 0.0, "fusion_lon": 0.0, "rental_uris": {"android": "https://dc.lft.to/lastmile_qr_scan", "ios": "https://dc.lft.to/lastmile_qr_scan"}, "is_reserved": 0, "is_disabled": 0, "type": "electric_scooter", "bike_id": "85be96a838df5fdffc4b3c4a1568e61c"}, {"lon": -76.9316675, "lat": 38.89874566666667, "name": "92c6c264ddf51290bf99d26fedc41360", "fusion_lat": 0.0, "fusion_lon": 0.0, "rental_uris": {"android": "https://dc.lft.to/lastmile_qr_scan", "ios": "https://dc.lft.to/lastmile_qr_scan"}, "is_reserved": 0, "is_disabled": 0, "type": "electric_scooter", "bike_id": "92c6c264ddf51290bf99d26fedc41360"}, {"lon": -77.04697416666667, "lat": 38.902121, "name": "202e040fad39a9f1e70c84cda82c613d", "fusion_lat": 0.0, "fusion_lon": 0.0, "rental_uris": {"android": "https://dc.lft.to/lastmile_qr_scan", "ios": "https://dc.lft.to/lastmile_qr_scan"}, "is_reserved": 0, "is_disabled": 0, "type": "electric_scooter", "bike_id": "202e040fad39a9f1e70c84cda82c613d"}, {"lon": -77.005705, "lat": 38.88497983333333, "name": "3986ec3c4319c23eae60f6ed5e280250", "fusion_lat": 0.0, "fusion_lon": 0.0, "rental_uris": {"android": "https://dc.lft.to/lastmile_qr_scan", "ios": "https://dc.lft.to/lastmile_qr_scan"}, "is_reserved": 0, "is_disabled": 0, "type": "electric_scooter", "bike_id": "3986ec3c4319c23eae60f6ed5e280250"}, {"lon": -76.93527516666667, "lat": 38.90870233333333, "name": "b6a8347ba55ea36cc0ab33088f5dfdf6", "fusion_lat": 0.0, "fusion_lon": 0.0, "rental_uris": {"android": "https://dc.lft.to/lastmile_qr_scan", "ios": "https://dc.lft.to/lastmile_qr_scan"}, "is_reserved": 0, "is_disabled": 0, "type": "electric_scooter", "bike_id": "b6a8347ba55ea36cc0ab33088f5dfdf6"}, {"lon": -76.9381255, "lat": 38.912985666666664, "name": "a9dbf40a31abce022a646f792588738a", "fusion_lat": 0.0, "fusion_lon": 0.0, "rental_uris": {"android": "https://dc.lft.to/lastmile_qr_scan", "ios": "https://dc.lft.to/lastmile_qr_scan"}, "is_reserved": 0, "is_disabled": 0, "type": "electric_scooter", "bike_id": "a9dbf40a31abce022a646f792588738a"}, {"lon": -77.05006083333333, "lat": 38.901791333333335, "name": "f76017898e09406c6820c4aea5591071", "fusion_lat": 0.0, "fusion_lon": 0.0, "rental_uris": {"android": "https://dc.lft.to/lastmile_qr_scan", "ios": "https://dc.lft.to/lastmile_qr_scan"}, "is_reserved": 0, "is_disabled": 0, "type": "electric_scooter", "bike_id": "f76017898e09406c6820c4aea5591071"}, {"lon": -76.9963355, "lat": 38.846177, "name": "ede0035f92afc44cd5891b9ba321b01f", "fusion_lat": 0.0, "fusion_lon": 0.0, "rental_uris": {"android": "https://dc.lft.to/lastmile_qr_scan", "ios": "https://dc.lft.to/lastmile_qr_scan"}, "is_reserved": 0, "is_disabled": 0, "type": "electric_scooter", "bike_id": "ede0035f92afc44cd5891b9ba321b01f"}, {"lon": -77.04350033333333, "lat": 38.905503833333334, "name": "93ec5399e648b1025207ccf1e5786bdd", "fusion_lat": 0.0, "fusion_lon": 0.0, "rental_uris": {"android": "https://dc.lft.to/lastmile_qr_scan", "ios": "https://dc.lft.to/lastmile_qr_scan"}, "is_reserved": 0, "is_disabled": 0, "type": "electric_scooter", "bike_id": "93ec5399e648b1025207ccf1e5786bdd"}, {"lon": -77.03256283333333, "lat": 38.93524166666667, "name": "86d51e76bbbad996f0170de327d41ac7", "fusion_lat": 0.0, "fusion_lon": 0.0, "rental_uris": {"android": "https://dc.lft.to/lastmile_qr_scan", "ios": "https://dc.lft.to/lastmile_qr_scan"}, "is_reserved": 0, "is_disabled": 0, "type": "electric_scooter", "bike_id": "86d51e76bbbad996f0170de327d41ac7"}, {"lon": -76.99785, "lat": 38.844211333333334, "name": "94d4778272f6014b05a2a67f7cbca35a", "fusion_lat": 0.0, "fusion_lon": 0.0, "rental_uris": {"android": "https://dc.lft.to/lastmile_qr_scan", "ios": "https://dc.lft.to/lastmile_qr_scan"}, "is_reserved": 0, "is_disabled": 0, "type": "electric_scooter", "bike_id": "94d4778272f6014b05a2a67f7cbca35a"}, {"lon": -76.98092966666667, "lat": 38.963568333333335, "name": "46e7b245847b8defc2492879ea8278d1", "fusion_lat": 0.0, "fusion_lon": 0.0, "rental_uris": {"android": "https://dc.lft.to/lastmile_qr_scan", "ios": "https://dc.lft.to/lastmile_qr_scan"}, "is_reserved": 0, "is_disabled": 0, "type": "electric_bike", "bike_id": "46e7b245847b8defc2492879ea8278d1"}, {"lon": -76.995047, "lat": 38.88052883333334, "name": "49331a0b7858ad3be05717854325a4a9", "fusion_lat": 0.0, "fusion_lon": 0.0, "rental_uris": {"android": "https://dc.lft.to/lastmile_qr_scan", "ios": "https://dc.lft.to/lastmile_qr_scan"}, "is_reserved": 0, "is_disabled": 0, "type": "electric_bike", "bike_id": "49331a0b7858ad3be05717854325a4a9"}, {"lon": -77.00275916666666, "lat": 38.90887583333333, "name": "94f19b3adb5abd3e374680959f48d530", "fusion_lat": 0.0, "fusion_lon": 0.0, "rental_uris": {"android": "https://dc.lft.to/lastmile_qr_scan", "ios": "https://dc.lft.to/lastmile_qr_scan"}, "is_reserved": 0, "is_disabled": 0, "type": "electric_scooter", "bike_id": "94f19b3adb5abd3e374680959f48d530"}, {"lon": -77.03285133333333, "lat": 38.9056305, "name": "e0eb21808e7c79b22bc87df1286e51b3", "fusion_lat": 0.0, "fusion_lon": 0.0, "rental_uris": {"android": "https://dc.lft.to/lastmile_qr_scan", "ios": "https://dc.lft.to/lastmile_qr_scan"}, "is_reserved": 0, "is_disabled": 0, "type": "electric_scooter", "bike_id": "e0eb21808e7c79b22bc87df1286e51b3"}, {"lon": -77.04449333333334, "lat": 38.918849, "name": "7965c31c71310d3344ab01e8f641cce6", "fusion_lat": 0.0, "fusion_lon": 0.0, "rental_uris": {"android": "https://dc.lft.to/lastmile_qr_scan", "ios": "https://dc.lft.to/lastmile_qr_scan"}, "is_reserved": 0, "is_disabled": 0, "type": "electric_scooter", "bike_id": "7965c31c71310d3344ab01e8f641cce6"}, {"lon": -77.02761433333333, "lat": 38.88158333333333, "name": "e63c5c33e61d71680ee6e56ed72e7e98", "fusion_lat": 0.0, "fusion_lon": 0.0, "rental_uris": {"android": "https://dc.lft.to/lastmile_qr_scan", "ios": "https://dc.lft.to/lastmile_qr_scan"}, "is_reserved": 0, "is_disabled": 0, "type": "electric_scooter", "bike_id": "e63c5c33e61d71680ee6e56ed72e7e98"}, {"lon": -77.031769, "lat": 38.88621833333333, "name": "3efc116ba60181925da3db860528b6db", "fusion_lat": 0.0, "fusion_lon": 0.0, "rental_uris": {"android": "https://dc.lft.to/lastmile_qr_scan", "ios": "https://dc.lft.to/lastmile_qr_scan"}, "is_reserved": 0, "is_disabled": 0, "type": "electric_scooter", "bike_id": "3efc116ba60181925da3db860528b6db"}, {"lon": -77.03324183333334, "lat": 38.89884583333333, "name": "acbaae36580e37154c78bf0c04a7536f", "fusion_lat": 0.0, "fusion_lon": 0.0, "rental_uris": {"android": "https://dc.lft.to/lastmile_qr_scan", "ios": "https://dc.lft.to/lastmile_qr_scan"}, "is_reserved": 0, "is_disabled": 0, "type": "electric_scooter", "bike_id": "acbaae36580e37154c78bf0c04a7536f"}, {"lon": -77.03241433333334, "lat": 38.903915833333336, "name": "3ff75e6e098e75236b8ece4a6beb45e8", "fusion_lat": 0.0, "fusion_lon": 0.0, "rental_uris": {"android": "https://dc.lft.to/lastmile_qr_scan", "ios": "https://dc.lft.to/lastmile_qr_scan"}, "is_reserved": 0, "is_disabled": 0, "type": "electric_scooter", "bike_id": "3ff75e6e098e75236b8ece4a6beb45e8"}, {"lon": -77.046573, "lat": 38.893335, "name": "19e090ce6a2048d7c20cde2be4e62f18", "fusion_lat": 0.0, "fusion_lon": 0.0, "rental_uris": {"android": "https://dc.lft.to/lastmile_qr_scan", "ios": "https://dc.lft.to/lastmile_qr_scan"}, "is_reserved": 0, "is_disabled": 0, "type": "electric_scooter", "bike_id": "19e090ce6a2048d7c20cde2be4e62f18"}, {"lon": -77.06033716666667, "lat": 38.9051, "name": "d5214001c8d0b33196b42d625277789b", "fusion_lat": 0.0, "fusion_lon": 0.0, "rental_uris": {"android": "https://dc.lft.to/lastmile_qr_scan", "ios": "https://dc.lft.to/lastmile_qr_scan"}, "is_reserved": 0, "is_disabled": 0, "type": "electric_scooter", "bike_id": "d5214001c8d0b33196b42d625277789b"}, {"lon": -76.93181483333333, "lat": 38.89877516666667, "name": "57b72d9179643484f0a6360ec2afb393", "fusion_lat": 0.0, "fusion_lon": 0.0, "rental_uris": {"android": "https://dc.lft.to/lastmile_qr_scan", "ios": "https://dc.lft.to/lastmile_qr_scan"}, "is_reserved": 0, "is_disabled": 0, "type": "electric_scooter", "bike_id": "57b72d9179643484f0a6360ec2afb393"}, {"lon": -77.0058115, "lat": 38.87209283333333, "name": "687ddf2ae385bc3569e7f3ca6a39f1eb", "fusion_lat": 0.0, "fusion_lon": 0.0, "rental_uris": {"android": "https://dc.lft.to/lastmile_qr_scan", "ios": "https://dc.lft.to/lastmile_qr_scan"}, "is_reserved": 0, "is_disabled": 0, "type": "electric_scooter", "bike_id": "687ddf2ae385bc3569e7f3ca6a39f1eb"}, {"lon": -77.00219733333333, "lat": 38.90219183333333, "name": "81e1f0dfb1e779b33edcc4f2176b694c", "fusion_lat": 0.0, "fusion_lon": 0.0, "rental_uris": {"android": "https://dc.lft.to/lastmile_qr_scan", "ios": "https://dc.lft.to/lastmile_qr_scan"}, "is_reserved": 0, "is_disabled": 0, "type": "electric_scooter", "bike_id": "81e1f0dfb1e779b33edcc4f2176b694c"}, {"lon": -77.0191695, "lat": 38.902465166666666, "name": "4dcc0e866c3213095b73cd4cb0cbab16", "fusion_lat": 0.0, "fusion_lon": 0.0, "rental_uris": {"android": "https://dc.lft.to/lastmile_qr_scan", "ios": "https://dc.lft.to/lastmile_qr_scan"}, "is_reserved": 0, "is_disabled": 0, "type": "electric_scooter", "bike_id": "4dcc0e866c3213095b73cd4cb0cbab16"}, {"lon": -77.0316645, "lat": 38.893803, "name": "9defaab988a88406ba940d161932894e", "fusion_lat": 0.0, "fusion_lon": 0.0, "rental_uris": {"android": "https://dc.lft.to/lastmile_qr_scan", "ios": "https://dc.lft.to/lastmile_qr_scan"}, "is_reserved": 0, "is_disabled": 0, "type": "electric_scooter", "bike_id": "9defaab988a88406ba940d161932894e"}, {"lon": -76.98561116666667, "lat": 38.86888616666667, "name": "d8600006ab4d02cfc5e1cfe440c1bdd1", "fusion_lat": 0.0, "fusion_lon": 0.0, "rental_uris": {"android": "https://dc.lft.to/lastmile_qr_scan", "ios": "https://dc.lft.to/lastmile_qr_scan"}, "is_reserved": 0, "is_disabled": 0, "type": "electric_bike", "bike_id": "d8600006ab4d02cfc5e1cfe440c1bdd1"}, {"lon": -77.01838083333334, "lat": 38.913425, "name": "2bef91660ea85424210081fa21d7a7a2", "fusion_lat": 0.0, "fusion_lon": 0.0, "rental_uris": {"android": "https://dc.lft.to/lastmile_qr_scan", "ios": "https://dc.lft.to/lastmile_qr_scan"}, "is_reserved": 0, "is_disabled": 0, "type": "electric_scooter", "bike_id": "2bef91660ea85424210081fa21d7a7a2"}, {"lon": -77.02699816666667, "lat": 38.90933316666667, "name": "1a06854e5544239b99f6ecd98d51a81f", "fusion_lat": 0.0, "fusion_lon": 0.0, "rental_uris": {"android": "https://dc.lft.to/lastmile_qr_scan", "ios": "https://dc.lft.to/lastmile_qr_scan"}, "is_reserved": 0, "is_disabled": 0, "type": "electric_scooter", "bike_id": "1a06854e5544239b99f6ecd98d51a81f"}, {"lon": -77.02205366666666, "lat": 38.916887833333334, "name": "de27be450414968b0614be8c5433361a", "fusion_lat": 0.0, "fusion_lon": 0.0, "rental_uris": {"android": "https://dc.lft.to/lastmile_qr_scan", "ios": "https://dc.lft.to/lastmile_qr_scan"}, "is_reserved": 0, "is_disabled": 0, "type": "electric_scooter", "bike_id": "de27be450414968b0614be8c5433361a"}, {"lon": -76.99780666666666, "lat": 38.88548766666667, "name": "c17ff0cbdb86bc330de8abbd7e37b7bb", "fusion_lat": 0.0, "fusion_lon": 0.0, "rental_uris": {"android": "https://dc.lft.to/lastmile_qr_scan", "ios": "https://dc.lft.to/lastmile_qr_scan"}, "is_reserved": 0, "is_disabled": 0, "type": "electric_scooter", "bike_id": "c17ff0cbdb86bc330de8abbd7e37b7bb"}, {"lon": -77.04236233333333, "lat": 38.911065666666666, "name": "9611914f89687093bfa9f3f9325e7535", "fusion_lat": 0.0, "fusion_lon": 0.0, "rental_uris": {"android": "https://dc.lft.to/lastmile_qr_scan", "ios": "https://dc.lft.to/lastmile_qr_scan"}, "is_reserved": 0, "is_disabled": 0, "type": "electric_scooter", "bike_id": "9611914f89687093bfa9f3f9325e7535"}, {"lon": -76.98125983333334, "lat": 38.89193433333333, "name": "99766d6bfe121eb3fd6add08d7a489fd", "fusion_lat": 0.0, "fusion_lon": 0.0, "rental_uris": {"android": "https://dc.lft.to/lastmile_qr_scan", "ios": "https://dc.lft.to/lastmile_qr_scan"}, "is_reserved": 0, "is_disabled": 0, "type": "electric_scooter", "bike_id": "99766d6bfe121eb3fd6add08d7a489fd"}, {"lon": -77.04642233333334, "lat": 38.8922265, "name": "034a44d4288cac52c66de186389e38e7", "fusion_lat": 0.0, "fusion_lon": 0.0, "rental_uris": {"android": "https://dc.lft.to/lastmile_qr_scan", "ios": "https://dc.lft.to/lastmile_qr_scan"}, "is_reserved": 0, "is_disabled": 0, "type": "electric_scooter", "bike_id": "034a44d4288cac52c66de186389e38e7"}, {"lon": -77.03253583333333, "lat": 38.920520333333336, "name": "1baced8addcbeecdfc109715523db0e6", "fusion_lat": 0.0, "fusion_lon": 0.0, "rental_uris": {"android": "https://dc.lft.to/lastmile_qr_scan", "ios": "https://dc.lft.to/lastmile_qr_scan"}, "is_reserved": 0, "is_disabled": 0, "type": "electric_scooter", "bike_id": "1baced8addcbeecdfc109715523db0e6"}, {"lon": -77.0628775, "lat": 38.9045465, "name": "5015e82e1089189e7241d1642a2d3d54", "fusion_lat": 0.0, "fusion_lon": 0.0, "rental_uris": {"android": "https://dc.lft.to/lastmile_qr_scan", "ios": "https://dc.lft.to/lastmile_qr_scan"}, "is_reserved": 0, "is_disabled": 0, "type": "electric_scooter", "bike_id": "5015e82e1089189e7241d1642a2d3d54"}, {"lon": -76.94632216666666, "lat": 38.9462055, "name": "39c671dca5536cc7a46fee6b9bce1e8f", "fusion_lat": 0.0, "fusion_lon": 0.0, "rental_uris": {"android": "https://dc.lft.to/lastmile_qr_scan", "ios": "https://dc.lft.to/lastmile_qr_scan"}, "is_reserved": 0, "is_disabled": 0, "type": "electric_bike", "bike_id": "39c671dca5536cc7a46fee6b9bce1e8f"}, {"lon": -76.95518883333334, "lat": 38.8905025, "name": "15ec8a195ad9a2df6bfa80fee28544c7", "fusion_lat": 0.0, "fusion_lon": 0.0, "rental_uris": {"android": "https://dc.lft.to/lastmile_qr_scan", "ios": "https://dc.lft.to/lastmile_qr_scan"}, "is_reserved": 0, "is_disabled": 0, "type": "electric_scooter", "bike_id": "15ec8a195ad9a2df6bfa80fee28544c7"}, {"lon": -77.04273283333333, "lat": 38.93409483333333, "name": "2730c4b587ea123869e5cea6978a9c6e", "fusion_lat": 0.0, "fusion_lon": 0.0, "rental_uris": {"android": "https://dc.lft.to/lastmile_qr_scan", "ios": "https://dc.lft.to/lastmile_qr_scan"}, "is_reserved": 0, "is_disabled": 0, "type": "electric_scooter", "bike_id": "2730c4b587ea123869e5cea6978a9c6e"}, {"lon": -77.07667433333333, "lat": 38.906218, "name": "47c11f27790a552592ec54a91ff24bc0", "fusion_lat": 0.0, "fusion_lon": 0.0, "rental_uris": {"android": "https://dc.lft.to/lastmile_qr_scan", "ios": "https://dc.lft.to/lastmile_qr_scan"}, "is_reserved": 0, "is_disabled": 0, "type": "electric_scooter", "bike_id": "47c11f27790a552592ec54a91ff24bc0"}, {"lon": -76.99505766666667, "lat": 38.862464, "name": "5f03d19d005157f74fada5fc5d24b7ca", "fusion_lat": 0.0, "fusion_lon": 0.0, "rental_uris": {"android": "https://dc.lft.to/lastmile_qr_scan", "ios": "https://dc.lft.to/lastmile_qr_scan"}, "is_reserved": 0, "is_disabled": 0, "type": "electric_scooter", "bike_id": "5f03d19d005157f74fada5fc5d24b7ca"}, {"lon": -77.04540966666667, "lat": 38.913074, "name": "a174e411c9801a4ad0eadb1faa315d74", "fusion_lat": 0.0, "fusion_lon": 0.0, "rental_uris": {"android": "https://dc.lft.to/lastmile_qr_scan", "ios": "https://dc.lft.to/lastmile_qr_scan"}, "is_reserved": 0, "is_disabled": 0, "type": "electric_scooter", "bike_id": "a174e411c9801a4ad0eadb1faa315d74"}, {"lon": -77.02803566666667, "lat": 38.8951965, "name": "7b578c8f23e0b7c99114061012c56066", "fusion_lat": 0.0, "fusion_lon": 0.0, "rental_uris": {"android": "https://dc.lft.to/lastmile_qr_scan", "ios": "https://dc.lft.to/lastmile_qr_scan"}, "is_reserved": 0, "is_disabled": 0, "type": "electric_scooter", "bike_id": "7b578c8f23e0b7c99114061012c56066"}, {"lon": -77.03801466666667, "lat": 38.92547366666667, "name": "77a1f847d9d81a5c278777ae0d484457", "fusion_lat": 0.0, "fusion_lon": 0.0, "rental_uris": {"android": "https://dc.lft.to/lastmile_qr_scan", "ios": "https://dc.lft.to/lastmile_qr_scan"}, "is_reserved": 0, "is_disabled": 0, "type": "electric_scooter", "bike_id": "77a1f847d9d81a5c278777ae0d484457"}, {"lon": -77.033865, "lat": 38.921455333333334, "name": "e4b829ccfe72d26aef0ed36fbb47d0ac", "fusion_lat": 0.0, "fusion_lon": 0.0, "rental_uris": {"android": "https://dc.lft.to/lastmile_qr_scan", "ios": "https://dc.lft.to/lastmile_qr_scan"}, "is_reserved": 0, "is_disabled": 0, "type": "electric_scooter", "bike_id": "e4b829ccfe72d26aef0ed36fbb47d0ac"}, {"lon": -77.020598, "lat": 38.920176, "name": "9d15fe534d6d35f30fc1cda756fb70a5", "fusion_lat": 0.0, "fusion_lon": 0.0, "rental_uris": {"android": "https://dc.lft.to/lastmile_qr_scan", "ios": "https://dc.lft.to/lastmile_qr_scan"}, "is_reserved": 0, "is_disabled": 0, "type": "electric_scooter", "bike_id": "9d15fe534d6d35f30fc1cda756fb70a5"}, {"lon": -77.02798833333334, "lat": 38.892428, "name": "fd6cf073154664a9497e9d74caee3cb7", "fusion_lat": 0.0, "fusion_lon": 0.0, "rental_uris": {"android": "https://dc.lft.to/lastmile_qr_scan", "ios": "https://dc.lft.to/lastmile_qr_scan"}, "is_reserved": 0, "is_disabled": 0, "type": "electric_scooter", "bike_id": "fd6cf073154664a9497e9d74caee3cb7"}, {"lon": -77.0249665, "lat": 38.9428415, "name": "0dd79df7a5fda7c0693eb773ddbbdaf3", "fusion_lat": 0.0, "fusion_lon": 0.0, "rental_uris": {"android": "https://dc.lft.to/lastmile_qr_scan", "ios": "https://dc.lft.to/lastmile_qr_scan"}, "is_reserved": 0, "is_disabled": 0, "type": "electric_scooter", "bike_id": "0dd79df7a5fda7c0693eb773ddbbdaf3"}, {"lon": -77.01507166666667, "lat": 38.9134005, "name": "70778e23fe28a76f7626aa539ccef065", "fusion_lat": 0.0, "fusion_lon": 0.0, "rental_uris": {"android": "https://dc.lft.to/lastmile_qr_scan", "ios": "https://dc.lft.to/lastmile_qr_scan"}, "is_reserved": 0, "is_disabled": 0, "type": "electric_scooter", "bike_id": "70778e23fe28a76f7626aa539ccef065"}, {"lon": -77.06480133333334, "lat": 38.9737915, "name": "1fa336edfac545b9a7495b558236eee9", "fusion_lat": 0.0, "fusion_lon": 0.0, "rental_uris": {"android": "https://dc.lft.to/lastmile_qr_scan", "ios": "https://dc.lft.to/lastmile_qr_scan"}, "is_reserved": 0, "is_disabled": 0, "type": "electric_bike", "bike_id": "1fa336edfac545b9a7495b558236eee9"}, {"lon": -76.99880883333333, "lat": 38.90750233333333, "name": "7329880674652ee31cac8f6e87d41649", "fusion_lat": 0.0, "fusion_lon": 0.0, "rental_uris": {"android": "https://dc.lft.to/lastmile_qr_scan", "ios": "https://dc.lft.to/lastmile_qr_scan"}, "is_reserved": 0, "is_disabled": 0, "type": "electric_scooter", "bike_id": "7329880674652ee31cac8f6e87d41649"}, {"lon": -77.02654533333333, "lat": 38.938584, "name": "6f3a677e3d96ed27ef7985cafc0de686", "fusion_lat": 0.0, "fusion_lon": 0.0, "rental_uris": {"android": "https://dc.lft.to/lastmile_qr_scan", "ios": "https://dc.lft.to/lastmile_qr_scan"}, "is_reserved": 0, "is_disabled": 0, "type": "electric_bike", "bike_id": "6f3a677e3d96ed27ef7985cafc0de686"}, {"lon": -77.00044916666667, "lat": 38.906951666666664, "name": "34388dc5c265467c4b8ba73d8ebd300c", "fusion_lat": 0.0, "fusion_lon": 0.0, "rental_uris": {"android": "https://dc.lft.to/lastmile_qr_scan", "ios": "https://dc.lft.to/lastmile_qr_scan"}, "is_reserved": 0, "is_disabled": 0, "type": "electric_scooter", "bike_id": "34388dc5c265467c4b8ba73d8ebd300c"}, {"lon": -77.00508716666667, "lat": 38.87532733333333, "name": "c53de17d03ed27db8d3abad6e6b46957", "fusion_lat": 0.0, "fusion_lon": 0.0, "rental_uris": {"android": "https://dc.lft.to/lastmile_qr_scan", "ios": "https://dc.lft.to/lastmile_qr_scan"}, "is_reserved": 0, "is_disabled": 0, "type": "electric_scooter", "bike_id": "c53de17d03ed27db8d3abad6e6b46957"}, {"lon": -77.03166866666666, "lat": 38.91413816666667, "name": "e4a4401613339add0022a6cab07d1e3e", "fusion_lat": 0.0, "fusion_lon": 0.0, "rental_uris": {"android": "https://dc.lft.to/lastmile_qr_scan", "ios": "https://dc.lft.to/lastmile_qr_scan"}, "is_reserved": 0, "is_disabled": 0, "type": "electric_scooter", "bike_id": "e4a4401613339add0022a6cab07d1e3e"}, {"lon": -77.002142, "lat": 38.9051375, "name": "abf7d5ce6ad6cbefc70fcd92644e9c04", "fusion_lat": 0.0, "fusion_lon": 0.0, "rental_uris": {"android": "https://dc.lft.to/lastmile_qr_scan", "ios": "https://dc.lft.to/lastmile_qr_scan"}, "is_reserved": 0, "is_disabled": 0, "type": "electric_scooter", "bike_id": "abf7d5ce6ad6cbefc70fcd92644e9c04"}, {"lon": -76.99172483333334, "lat": 38.879226333333335, "name": "9c96c25344222583212c67db68bb19bd", "fusion_lat": 0.0, "fusion_lon": 0.0, "rental_uris": {"android": "https://dc.lft.to/lastmile_qr_scan", "ios": "https://dc.lft.to/lastmile_qr_scan"}, "is_reserved": 0, "is_disabled": 0, "type": "electric_scooter", "bike_id": "9c96c25344222583212c67db68bb19bd"}, {"lon": -77.029286, "lat": 38.9346995, "name": "11800c7929e0f2c26176b628efbd639f", "fusion_lat": 0.0, "fusion_lon": 0.0, "rental_uris": {"android": "https://dc.lft.to/lastmile_qr_scan", "ios": "https://dc.lft.to/lastmile_qr_scan"}, "is_reserved": 0, "is_disabled": 0, "type": "electric_scooter", "bike_id": "11800c7929e0f2c26176b628efbd639f"}, {"lon": -76.91655766666666, "lat": 38.86858433333333, "name": "1b377797ecf1df21e2658be01906354d", "fusion_lat": 0.0, "fusion_lon": 0.0, "rental_uris": {"android": "https://dc.lft.to/lastmile_qr_scan", "ios": "https://dc.lft.to/lastmile_qr_scan"}, "is_reserved": 0, "is_disabled": 0, "type": "electric_bike", "bike_id": "1b377797ecf1df21e2658be01906354d"}, {"lon": -77.0021605, "lat": 38.90217783333333, "name": "8f405007902010559026442ea0fd2fa3", "fusion_lat": 0.0, "fusion_lon": 0.0, "rental_uris": {"android": "https://dc.lft.to/lastmile_qr_scan", "ios": "https://dc.lft.to/lastmile_qr_scan"}, "is_reserved": 0, "is_disabled": 0, "type": "electric_scooter", "bike_id": "8f405007902010559026442ea0fd2fa3"}, {"lon": -77.04330166666666, "lat": 38.89652983333333, "name": "81c49311ac0f945afbba3182eb5d1886", "fusion_lat": 0.0, "fusion_lon": 0.0, "rental_uris": {"android": "https://dc.lft.to/lastmile_qr_scan", "ios": "https://dc.lft.to/lastmile_qr_scan"}, "is_reserved": 0, "is_disabled": 0, "type": "electric_scooter", "bike_id": "81c49311ac0f945afbba3182eb5d1886"}, {"lon": -77.1077115, "lat": 38.89225616666667, "name": "894edf53e13709dd2e6842d241257640", "fusion_lat": 0.0, "fusion_lon": 0.0, "rental_uris": {"android": "https://dc.lft.to/lastmile_qr_scan", "ios": "https://dc.lft.to/lastmile_qr_scan"}, "is_reserved": 0, "is_disabled": 0, "type": "electric_bike", "bike_id": "894edf53e13709dd2e6842d241257640"}, {"lon": -77.03126016666667, "lat": 38.904363000000004, "name": "61c7458f9c25bd2bd9a126f3eec0fa22", "fusion_lat": 0.0, "fusion_lon": 0.0, "rental_uris": {"android": "https://dc.lft.to/lastmile_qr_scan", "ios": "https://dc.lft.to/lastmile_qr_scan"}, "is_reserved": 0, "is_disabled": 0, "type": "electric_scooter", "bike_id": "61c7458f9c25bd2bd9a126f3eec0fa22"}, {"lon": -77.02965333333333, "lat": 38.916770166666666, "name": "532daa6d957368f310f9222d45919d3a", "fusion_lat": 0.0, "fusion_lon": 0.0, "rental_uris": {"android": "https://dc.lft.to/lastmile_qr_scan", "ios": "https://dc.lft.to/lastmile_qr_scan"}, "is_reserved": 0, "is_disabled": 0, "type": "electric_scooter", "bike_id": "532daa6d957368f310f9222d45919d3a"}, {"lon": -77.04353683333333, "lat": 38.90379083333333, "name": "4de6f09a680fa8d8f77b7ef0274268cb", "fusion_lat": 0.0, "fusion_lon": 0.0, "rental_uris": {"android": "https://dc.lft.to/lastmile_qr_scan", "ios": "https://dc.lft.to/lastmile_qr_scan"}, "is_reserved": 0, "is_disabled": 0, "type": "electric_scooter", "bike_id": "4de6f09a680fa8d8f77b7ef0274268cb"}, {"lon": -77.02983783333333, "lat": 38.922531166666666, "name": "8e77c7cee77c94edc554be5cdcc9c1dd", "fusion_lat": 0.0, "fusion_lon": 0.0, "rental_uris": {"android": "https://dc.lft.to/lastmile_qr_scan", "ios": "https://dc.lft.to/lastmile_qr_scan"}, "is_reserved": 0, "is_disabled": 0, "type": "electric_scooter", "bike_id": "8e77c7cee77c94edc554be5cdcc9c1dd"}, {"lon": -76.9984605, "lat": 38.900413, "name": "2c94c59dffcb28b3aff02b15fa8ffca2", "fusion_lat": 0.0, "fusion_lon": 0.0, "rental_uris": {"android": "https://dc.lft.to/lastmile_qr_scan", "ios": "https://dc.lft.to/lastmile_qr_scan"}, "is_reserved": 0, "is_disabled": 0, "type": "electric_scooter", "bike_id": "2c94c59dffcb28b3aff02b15fa8ffca2"}, {"lon": -77.024241, "lat": 38.926080166666665, "name": "da342a2b07a63356cbc666ffea00208d", "fusion_lat": 0.0, "fusion_lon": 0.0, "rental_uris": {"android": "https://dc.lft.to/lastmile_qr_scan", "ios": "https://dc.lft.to/lastmile_qr_scan"}, "is_reserved": 0, "is_disabled": 0, "type": "electric_scooter", "bike_id": "da342a2b07a63356cbc666ffea00208d"}, {"lon": -77.02840933333333, "lat": 38.916993166666664, "name": "b7b4cace7f292f0ec0a27cf791e14f58", "fusion_lat": 0.0, "fusion_lon": 0.0, "rental_uris": {"android": "https://dc.lft.to/lastmile_qr_scan", "ios": "https://dc.lft.to/lastmile_qr_scan"}, "is_reserved": 0, "is_disabled": 0, "type": "electric_scooter", "bike_id": "b7b4cace7f292f0ec0a27cf791e14f58"}, {"lon": -77.01593383333334, "lat": 38.957639666666665, "name": "2992da34620fbafb25cf5b3e4bf30a4f", "fusion_lat": 0.0, "fusion_lon": 0.0, "rental_uris": {"android": "https://dc.lft.to/lastmile_qr_scan", "ios": "https://dc.lft.to/lastmile_qr_scan"}, "is_reserved": 0, "is_disabled": 0, "type": "electric_scooter", "bike_id": "2992da34620fbafb25cf5b3e4bf30a4f"}, {"lon": -76.95185983333333, "lat": 38.891325, "name": "92e9bfc22714bf1bb59876f1669f33d6", "fusion_lat": 0.0, "fusion_lon": 0.0, "rental_uris": {"android": "https://dc.lft.to/lastmile_qr_scan", "ios": "https://dc.lft.to/lastmile_qr_scan"}, "is_reserved": 0, "is_disabled": 0, "type": "electric_scooter", "bike_id": "92e9bfc22714bf1bb59876f1669f33d6"}, {"lon": -77.0164865, "lat": 38.929367, "name": "cb3f97d044452c1dd8c5de807555533f", "fusion_lat": 0.0, "fusion_lon": 0.0, "rental_uris": {"android": "https://dc.lft.to/lastmile_qr_scan", "ios": "https://dc.lft.to/lastmile_qr_scan"}, "is_reserved": 0, "is_disabled": 0, "type": "electric_scooter", "bike_id": "cb3f97d044452c1dd8c5de807555533f"}, {"lon": -77.008805, "lat": 38.905152, "name": "5f8c5be773259ce99838560182545a50", "fusion_lat": 0.0, "fusion_lon": 0.0, "rental_uris": {"android": "https://dc.lft.to/lastmile_qr_scan", "ios": "https://dc.lft.to/lastmile_qr_scan"}, "is_reserved": 0, "is_disabled": 0, "type": "electric_scooter", "bike_id": "5f8c5be773259ce99838560182545a50"}, {"lon": -77.02166566666666, "lat": 38.92609516666667, "name": "65b7b992ddea4b4f81d6ec842e2d1b22", "fusion_lat": 0.0, "fusion_lon": 0.0, "rental_uris": {"android": "https://dc.lft.to/lastmile_qr_scan", "ios": "https://dc.lft.to/lastmile_qr_scan"}, "is_reserved": 0, "is_disabled": 0, "type": "electric_scooter", "bike_id": "65b7b992ddea4b4f81d6ec842e2d1b22"}, {"lon": -77.00924383333333, "lat": 38.9092545, "name": "bb8b4c0351f2631df0f769e218ff4894", "fusion_lat": 0.0, "fusion_lon": 0.0, "rental_uris": {"android": "https://dc.lft.to/lastmile_qr_scan", "ios": "https://dc.lft.to/lastmile_qr_scan"}, "is_reserved": 0, "is_disabled": 0, "type": "electric_scooter", "bike_id": "bb8b4c0351f2631df0f769e218ff4894"}, {"lon": -76.94905516666667, "lat": 38.895474166666666, "name": "d043409d968c3df8ff8c06c4b166e677", "fusion_lat": 0.0, "fusion_lon": 0.0, "rental_uris": {"android": "https://dc.lft.to/lastmile_qr_scan", "ios": "https://dc.lft.to/lastmile_qr_scan"}, "is_reserved": 0, "is_disabled": 0, "type": "electric_scooter", "bike_id": "d043409d968c3df8ff8c06c4b166e677"}, {"lon": -77.10330566666667, "lat": 38.96504016666667, "name": "0680e4314d273f447ca09b5a3d8c5987", "fusion_lat": 0.0, "fusion_lon": 0.0, "rental_uris": {"android": "https://dc.lft.to/lastmile_qr_scan", "ios": "https://dc.lft.to/lastmile_qr_scan"}, "is_reserved": 0, "is_disabled": 0, "type": "electric_bike", "bike_id": "0680e4314d273f447ca09b5a3d8c5987"}, {"lon": -77.03183216666666, "lat": 38.899998833333335, "name": "b3dc726781444252c2f7d2bf1193adbb", "fusion_lat": 0.0, "fusion_lon": 0.0, "rental_uris": {"android": "https://dc.lft.to/lastmile_qr_scan", "ios": "https://dc.lft.to/lastmile_qr_scan"}, "is_reserved": 0, "is_disabled": 0, "type": "electric_scooter", "bike_id": "b3dc726781444252c2f7d2bf1193adbb"}, {"lon": -77.0225755, "lat": 38.924947, "name": "548fee19e52d5b2f5c8188a0f49e9b3c", "fusion_lat": 0.0, "fusion_lon": 0.0, "rental_uris": {"android": "https://dc.lft.to/lastmile_qr_scan", "ios": "https://dc.lft.to/lastmile_qr_scan"}, "is_reserved": 0, "is_disabled": 0, "type": "electric_scooter", "bike_id": "548fee19e52d5b2f5c8188a0f49e9b3c"}, {"lon": -77.08934083333334, "lat": 38.8410215, "name": "2de1fc0e5059bd362a7ee7d33bd6730c", "fusion_lat": 0.0, "fusion_lon": 0.0, "rental_uris": {"android": "https://dc.lft.to/lastmile_qr_scan", "ios": "https://dc.lft.to/lastmile_qr_scan"}, "is_reserved": 0, "is_disabled": 0, "type": "electric_bike", "bike_id": "2de1fc0e5059bd362a7ee7d33bd6730c"}, {"lon": -77.03654416666667, "lat": 38.9548985, "name": "2b75e142975357063dd7262e834b2e85", "fusion_lat": 0.0, "fusion_lon": 0.0, "rental_uris": {"android": "https://dc.lft.to/lastmile_qr_scan", "ios": "https://dc.lft.to/lastmile_qr_scan"}, "is_reserved": 0, "is_disabled": 0, "type": "electric_scooter", "bike_id": "2b75e142975357063dd7262e834b2e85"}, {"lon": -77.028218, "lat": 38.923698, "name": "2f77f57c4c64be0965943b3b65a48084", "fusion_lat": 0.0, "fusion_lon": 0.0, "rental_uris": {"android": "https://dc.lft.to/lastmile_qr_scan", "ios": "https://dc.lft.to/lastmile_qr_scan"}, "is_reserved": 0, "is_disabled": 0, "type": "electric_scooter", "bike_id": "2f77f57c4c64be0965943b3b65a48084"}, {"lon": -77.02715183333333, "lat": 38.949980833333335, "name": "881e4d126a60da9e4bab15ba5d135421", "fusion_lat": 0.0, "fusion_lon": 0.0, "rental_uris": {"android": "https://dc.lft.to/lastmile_qr_scan", "ios": "https://dc.lft.to/lastmile_qr_scan"}, "is_reserved": 0, "is_disabled": 0, "type": "electric_scooter", "bike_id": "881e4d126a60da9e4bab15ba5d135421"}, {"lon": -77.0007945, "lat": 38.87497283333333, "name": "b1cefc1093b4dd3e62597038a6d6b209", "fusion_lat": 0.0, "fusion_lon": 0.0, "rental_uris": {"android": "https://dc.lft.to/lastmile_qr_scan", "ios": "https://dc.lft.to/lastmile_qr_scan"}, "is_reserved": 0, "is_disabled": 0, "type": "electric_scooter", "bike_id": "b1cefc1093b4dd3e62597038a6d6b209"}, {"lon": -77.0408, "lat": 38.81231583333334, "name": "d3fd3344d91293ea692236c7e0b23343", "fusion_lat": 0.0, "fusion_lon": 0.0, "rental_uris": {"android": "https://dc.lft.to/lastmile_qr_scan", "ios": "https://dc.lft.to/lastmile_qr_scan"}, "is_reserved": 0, "is_disabled": 0, "type": "electric_bike", "bike_id": "d3fd3344d91293ea692236c7e0b23343"}, {"lon": -77.01988316666667, "lat": 38.902307, "name": "9759e214b9232f2d9bf20698b9e698ed", "fusion_lat": 0.0, "fusion_lon": 0.0, "rental_uris": {"android": "https://dc.lft.to/lastmile_qr_scan", "ios": "https://dc.lft.to/lastmile_qr_scan"}, "is_reserved": 0, "is_disabled": 0, "type": "electric_scooter", "bike_id": "9759e214b9232f2d9bf20698b9e698ed"}, {"lon": -77.03295333333334, "lat": 38.956504, "name": "fcf36df277ff845c2378f29147f7a20e", "fusion_lat": 0.0, "fusion_lon": 0.0, "rental_uris": {"android": "https://dc.lft.to/lastmile_qr_scan", "ios": "https://dc.lft.to/lastmile_qr_scan"}, "is_reserved": 0, "is_disabled": 0, "type": "electric_scooter", "bike_id": "fcf36df277ff845c2378f29147f7a20e"}, {"lon": -77.03164266666667, "lat": 38.911913166666665, "name": "4e3265123cb03b0cda9b7c40381896aa", "fusion_lat": 0.0, "fusion_lon": 0.0, "rental_uris": {"android": "https://dc.lft.to/lastmile_qr_scan", "ios": "https://dc.lft.to/lastmile_qr_scan"}, "is_reserved": 0, "is_disabled": 0, "type": "electric_scooter", "bike_id": "4e3265123cb03b0cda9b7c40381896aa"}, {"lon": -76.993953, "lat": 38.90052516666667, "name": "4ad7d767c20f335be14491b355656e65", "fusion_lat": 0.0, "fusion_lon": 0.0, "rental_uris": {"android": "https://dc.lft.to/lastmile_qr_scan", "ios": "https://dc.lft.to/lastmile_qr_scan"}, "is_reserved": 0, "is_disabled": 0, "type": "electric_scooter", "bike_id": "4ad7d767c20f335be14491b355656e65"}, {"lon": -77.03287333333333, "lat": 38.936844, "name": "fdc9e99e11cecf5613efdea446286ab7", "fusion_lat": 0.0, "fusion_lon": 0.0, "rental_uris": {"android": "https://dc.lft.to/lastmile_qr_scan", "ios": "https://dc.lft.to/lastmile_qr_scan"}, "is_reserved": 0, "is_disabled": 0, "type": "electric_scooter", "bike_id": "fdc9e99e11cecf5613efdea446286ab7"}, {"lon": -77.029955, "lat": 38.956251333333334, "name": "a1ca660a266fe6c4a562ed83a8654cdb", "fusion_lat": 0.0, "fusion_lon": 0.0, "rental_uris": {"android": "https://dc.lft.to/lastmile_qr_scan", "ios": "https://dc.lft.to/lastmile_qr_scan"}, "is_reserved": 0, "is_disabled": 0, "type": "electric_scooter", "bike_id": "a1ca660a266fe6c4a562ed83a8654cdb"}, {"lon": -76.93891966666666, "lat": 38.88327133333333, "name": "c0b6bd91a0dfc42e6ab05317f3f379cf", "fusion_lat": 0.0, "fusion_lon": 0.0, "rental_uris": {"android": "https://dc.lft.to/lastmile_qr_scan", "ios": "https://dc.lft.to/lastmile_qr_scan"}, "is_reserved": 0, "is_disabled": 0, "type": "electric_bike", "bike_id": "c0b6bd91a0dfc42e6ab05317f3f379cf"}, {"lon": -77.02721616666666, "lat": 38.90949616666666, "name": "90d536de08ab3dae56aa904d557b2d4f", "fusion_lat": 0.0, "fusion_lon": 0.0, "rental_uris": {"android": "https://dc.lft.to/lastmile_qr_scan", "ios": "https://dc.lft.to/lastmile_qr_scan"}, "is_reserved": 0, "is_disabled": 0, "type": "electric_scooter", "bike_id": "90d536de08ab3dae56aa904d557b2d4f"}, {"lon": -77.041299, "lat": 38.92345483333333, "name": "ec6781c48c0689780e1695964c1e05b9", "fusion_lat": 0.0, "fusion_lon": 0.0, "rental_uris": {"android": "https://dc.lft.to/lastmile_qr_scan", "ios": "https://dc.lft.to/lastmile_qr_scan"}, "is_reserved": 0, "is_disabled": 0, "type": "electric_scooter", "bike_id": "ec6781c48c0689780e1695964c1e05b9"}, {"lon": -77.01899416666667, "lat": 38.91728766666667, "name": "9f4f3e8fa94aa97dbc954b14292835aa", "fusion_lat": 0.0, "fusion_lon": 0.0, "rental_uris": {"android": "https://dc.lft.to/lastmile_qr_scan", "ios": "https://dc.lft.to/lastmile_qr_scan"}, "is_reserved": 0, "is_disabled": 0, "type": "electric_scooter", "bike_id": "9f4f3e8fa94aa97dbc954b14292835aa"}, {"lon": -77.02713683333333, "lat": 38.91809533333333, "name": "aff6febaf379837a0de8b41e3f727539", "fusion_lat": 0.0, "fusion_lon": 0.0, "rental_uris": {"android": "https://dc.lft.to/lastmile_qr_scan", "ios": "https://dc.lft.to/lastmile_qr_scan"}, "is_reserved": 0, "is_disabled": 0, "type": "electric_scooter", "bike_id": "aff6febaf379837a0de8b41e3f727539"}, {"lon": -77.0111325, "lat": 38.903590333333334, "name": "2f67c5a7719238ac607442abae5d651b", "fusion_lat": 0.0, "fusion_lon": 0.0, "rental_uris": {"android": "https://dc.lft.to/lastmile_qr_scan", "ios": "https://dc.lft.to/lastmile_qr_scan"}, "is_reserved": 0, "is_disabled": 0, "type": "electric_scooter", "bike_id": "2f67c5a7719238ac607442abae5d651b"}, {"lon": -77.00060266666667, "lat": 38.88897683333333, "name": "ea66fdaca58b86201f3788c144c40f88", "fusion_lat": 0.0, "fusion_lon": 0.0, "rental_uris": {"android": "https://dc.lft.to/lastmile_qr_scan", "ios": "https://dc.lft.to/lastmile_qr_scan"}, "is_reserved": 0, "is_disabled": 0, "type": "electric_scooter", "bike_id": "ea66fdaca58b86201f3788c144c40f88"}, {"lon": -77.0452055, "lat": 38.886016833333336, "name": "f9b06dde0101b445b7ad2b8b01eccdf6", "fusion_lat": 0.0, "fusion_lon": 0.0, "rental_uris": {"android": "https://dc.lft.to/lastmile_qr_scan", "ios": "https://dc.lft.to/lastmile_qr_scan"}, "is_reserved": 0, "is_disabled": 0, "type": "electric_scooter", "bike_id": "f9b06dde0101b445b7ad2b8b01eccdf6"}, {"lon": -77.04490416666667, "lat": 38.911598833333336, "name": "4465966b8861be77252c2ebdee88b8fe", "fusion_lat": 0.0, "fusion_lon": 0.0, "rental_uris": {"android": "https://dc.lft.to/lastmile_qr_scan", "ios": "https://dc.lft.to/lastmile_qr_scan"}, "is_reserved": 0, "is_disabled": 0, "type": "electric_scooter", "bike_id": "4465966b8861be77252c2ebdee88b8fe"}, {"lon": -76.94845983333333, "lat": 38.894846333333334, "name": "daf80a75c78ae85994fac09a58289ac7", "fusion_lat": 0.0, "fusion_lon": 0.0, "rental_uris": {"android": "https://dc.lft.to/lastmile_qr_scan", "ios": "https://dc.lft.to/lastmile_qr_scan"}, "is_reserved": 0, "is_disabled": 0, "type": "electric_scooter", "bike_id": "daf80a75c78ae85994fac09a58289ac7"}, {"lon": -77.02272216666667, "lat": 38.8936705, "name": "0c18adcec2b06e638afa8e96a322be7a", "fusion_lat": 0.0, "fusion_lon": 0.0, "rental_uris": {"android": "https://dc.lft.to/lastmile_qr_scan", "ios": "https://dc.lft.to/lastmile_qr_scan"}, "is_reserved": 0, "is_disabled": 0, "type": "electric_scooter", "bike_id": "0c18adcec2b06e638afa8e96a322be7a"}, {"lon": -77.03179433333334, "lat": 38.9159745, "name": "f4fea5add96c1787d2a3d1f732debc55", "fusion_lat": 0.0, "fusion_lon": 0.0, "rental_uris": {"android": "https://dc.lft.to/lastmile_qr_scan", "ios": "https://dc.lft.to/lastmile_qr_scan"}, "is_reserved": 0, "is_disabled": 0, "type": "electric_scooter", "bike_id": "f4fea5add96c1787d2a3d1f732debc55"}, {"lon": -77.04905566666666, "lat": 38.91337016666667, "name": "e4c9fa4503229d14adc2a7c09b1e5a9f", "fusion_lat": 0.0, "fusion_lon": 0.0, "rental_uris": {"android": "https://dc.lft.to/lastmile_qr_scan", "ios": "https://dc.lft.to/lastmile_qr_scan"}, "is_reserved": 0, "is_disabled": 0, "type": "electric_scooter", "bike_id": "e4c9fa4503229d14adc2a7c09b1e5a9f"}, {"lon": -77.02544766666666, "lat": 38.89222383333333, "name": "03c7a6ada410f3cc501fc3b674ddb1ea", "fusion_lat": 0.0, "fusion_lon": 0.0, "rental_uris": {"android": "https://dc.lft.to/lastmile_qr_scan", "ios": "https://dc.lft.to/lastmile_qr_scan"}, "is_reserved": 0, "is_disabled": 0, "type": "electric_scooter", "bike_id": "03c7a6ada410f3cc501fc3b674ddb1ea"}, {"lon": -77.01296183333334, "lat": 39.00379316666667, "name": "c8150467d6d6338dd903c2a54469651c", "fusion_lat": 0.0, "fusion_lon": 0.0, "rental_uris": {"android": "https://dc.lft.to/lastmile_qr_scan", "ios": "https://dc.lft.to/lastmile_qr_scan"}, "is_reserved": 0, "is_disabled": 0, "type": "electric_bike", "bike_id": "c8150467d6d6338dd903c2a54469651c"}, {"lon": -77.01768266666667, "lat": 38.900256666666664, "name": "359989bf4303b01b72c64c11957d9e2f", "fusion_lat": 0.0, "fusion_lon": 0.0, "rental_uris": {"android": "https://dc.lft.to/lastmile_qr_scan", "ios": "https://dc.lft.to/lastmile_qr_scan"}, "is_reserved": 0, "is_disabled": 0, "type": "electric_scooter", "bike_id": "359989bf4303b01b72c64c11957d9e2f"}, {"lon": -77.0394145, "lat": 38.90279433333333, "name": "16835097224e9b39494ca08644a3f546", "fusion_lat": 0.0, "fusion_lon": 0.0, "rental_uris": {"android": "https://dc.lft.to/lastmile_qr_scan", "ios": "https://dc.lft.to/lastmile_qr_scan"}, "is_reserved": 0, "is_disabled": 0, "type": "electric_scooter", "bike_id": "16835097224e9b39494ca08644a3f546"}, {"lon": -76.97630083333334, "lat": 38.89282333333333, "name": "ca6add8979f03e57db252b3f56568fb9", "fusion_lat": 0.0, "fusion_lon": 0.0, "rental_uris": {"android": "https://dc.lft.to/lastmile_qr_scan", "ios": "https://dc.lft.to/lastmile_qr_scan"}, "is_reserved": 0, "is_disabled": 0, "type": "electric_bike", "bike_id": "ca6add8979f03e57db252b3f56568fb9"}, {"lon": -77.04251916666666, "lat": 38.92065816666667, "name": "1f67de090f908b7d8366a682f54e54fd", "fusion_lat": 0.0, "fusion_lon": 0.0, "rental_uris": {"android": "https://dc.lft.to/lastmile_qr_scan", "ios": "https://dc.lft.to/lastmile_qr_scan"}, "is_reserved": 0, "is_disabled": 0, "type": "electric_scooter", "bike_id": "1f67de090f908b7d8366a682f54e54fd"}, {"lon": -77.00593783333333, "lat": 38.906239, "name": "7368a907b493685fb75e6a124d08a2ae", "fusion_lat": 0.0, "fusion_lon": 0.0, "rental_uris": {"android": "https://dc.lft.to/lastmile_qr_scan", "ios": "https://dc.lft.to/lastmile_qr_scan"}, "is_reserved": 0, "is_disabled": 0, "type": "electric_scooter", "bike_id": "7368a907b493685fb75e6a124d08a2ae"}, {"lon": -77.06396283333333, "lat": 38.929021166666665, "name": "1803a09c1425ecc50f43f0e4738afd8b", "fusion_lat": 0.0, "fusion_lon": 0.0, "rental_uris": {"android": "https://dc.lft.to/lastmile_qr_scan", "ios": "https://dc.lft.to/lastmile_qr_scan"}, "is_reserved": 0, "is_disabled": 0, "type": "electric_scooter", "bike_id": "1803a09c1425ecc50f43f0e4738afd8b"}, {"lon": -77.02705133333333, "lat": 38.91825766666667, "name": "af07cb163ae08e113023f589f480174e", "fusion_lat": 0.0, "fusion_lon": 0.0, "rental_uris": {"android": "https://dc.lft.to/lastmile_qr_scan", "ios": "https://dc.lft.to/lastmile_qr_scan"}, "is_reserved": 0, "is_disabled": 0, "type": "electric_scooter", "bike_id": "af07cb163ae08e113023f589f480174e"}, {"lon": -77.005773, "lat": 38.9056965, "name": "a72bfcb4618dfda6358e647cdcaefeef", "fusion_lat": 0.0, "fusion_lon": 0.0, "rental_uris": {"android": "https://dc.lft.to/lastmile_qr_scan", "ios": "https://dc.lft.to/lastmile_qr_scan"}, "is_reserved": 0, "is_disabled": 0, "type": "electric_scooter", "bike_id": "a72bfcb4618dfda6358e647cdcaefeef"}, {"lon": -77.02695416666667, "lat": 38.9225045, "name": "0fb0508d1b70259c1d2c9272e571ebe8", "fusion_lat": 0.0, "fusion_lon": 0.0, "rental_uris": {"android": "https://dc.lft.to/lastmile_qr_scan", "ios": "https://dc.lft.to/lastmile_qr_scan"}, "is_reserved": 0, "is_disabled": 0, "type": "electric_scooter", "bike_id": "0fb0508d1b70259c1d2c9272e571ebe8"}, {"lon": -77.00210466666667, "lat": 38.89721866666667, "name": "35ea8ecde511dc76954dbd3dbcc9886d", "fusion_lat": 0.0, "fusion_lon": 0.0, "rental_uris": {"android": "https://dc.lft.to/lastmile_qr_scan", "ios": "https://dc.lft.to/lastmile_qr_scan"}, "is_reserved": 0, "is_disabled": 0, "type": "electric_scooter", "bike_id": "35ea8ecde511dc76954dbd3dbcc9886d"}, {"lon": -77.02775583333333, "lat": 38.891984666666666, "name": "4dd259077f1044f7c4a9849c10cc4775", "fusion_lat": 0.0, "fusion_lon": 0.0, "rental_uris": {"android": "https://dc.lft.to/lastmile_qr_scan", "ios": "https://dc.lft.to/lastmile_qr_scan"}, "is_reserved": 0, "is_disabled": 0, "type": "electric_scooter", "bike_id": "4dd259077f1044f7c4a9849c10cc4775"}, {"lon": -77.01083783333333, "lat": 38.956495333333336, "name": "db425289309ebc379e4b1f5b1ae7d020", "fusion_lat": 0.0, "fusion_lon": 0.0, "rental_uris": {"android": "https://dc.lft.to/lastmile_qr_scan", "ios": "https://dc.lft.to/lastmile_qr_scan"}, "is_reserved": 0, "is_disabled": 0, "type": "electric_bike", "bike_id": "db425289309ebc379e4b1f5b1ae7d020"}, {"lon": -77.0423475, "lat": 38.922723500000004, "name": "a713c75073ca8a0ec6d2450cfe4c5d3e", "fusion_lat": 0.0, "fusion_lon": 0.0, "rental_uris": {"android": "https://dc.lft.to/lastmile_qr_scan", "ios": "https://dc.lft.to/lastmile_qr_scan"}, "is_reserved": 0, "is_disabled": 0, "type": "electric_scooter", "bike_id": "a713c75073ca8a0ec6d2450cfe4c5d3e"}, {"lon": -77.00716716666666, "lat": 38.88487716666667, "name": "8a0fb3bef067c17ba746958c3cd86f35", "fusion_lat": 0.0, "fusion_lon": 0.0, "rental_uris": {"android": "https://dc.lft.to/lastmile_qr_scan", "ios": "https://dc.lft.to/lastmile_qr_scan"}, "is_reserved": 0, "is_disabled": 0, "type": "electric_scooter", "bike_id": "8a0fb3bef067c17ba746958c3cd86f35"}, {"lon": -76.98840383333334, "lat": 38.90175416666666, "name": "c053b54f0818702fde411c33d5770351", "fusion_lat": 0.0, "fusion_lon": 0.0, "rental_uris": {"android": "https://dc.lft.to/lastmile_qr_scan", "ios": "https://dc.lft.to/lastmile_qr_scan"}, "is_reserved": 0, "is_disabled": 0, "type": "electric_scooter", "bike_id": "c053b54f0818702fde411c33d5770351"}, {"lon": -77.02764866666666, "lat": 38.956147, "name": "1f8f9d44dab9dc1da0c7d5c33d92cbc9", "fusion_lat": 0.0, "fusion_lon": 0.0, "rental_uris": {"android": "https://dc.lft.to/lastmile_qr_scan", "ios": "https://dc.lft.to/lastmile_qr_scan"}, "is_reserved": 0, "is_disabled": 0, "type": "electric_scooter", "bike_id": "1f8f9d44dab9dc1da0c7d5c33d92cbc9"}, {"lon": -77.0490625, "lat": 38.888393666666666, "name": "5f88bd3eb417927af99aee9340fbdd8f", "fusion_lat": 0.0, "fusion_lon": 0.0, "rental_uris": {"android": "https://dc.lft.to/lastmile_qr_scan", "ios": "https://dc.lft.to/lastmile_qr_scan"}, "is_reserved": 0, "is_disabled": 0, "type": "electric_scooter", "bike_id": "5f88bd3eb417927af99aee9340fbdd8f"}, {"lon": -77.029682, "lat": 38.954204, "name": "10a2ea9373d70b963519b84b6c2a07a1", "fusion_lat": 0.0, "fusion_lon": 0.0, "rental_uris": {"android": "https://dc.lft.to/lastmile_qr_scan", "ios": "https://dc.lft.to/lastmile_qr_scan"}, "is_reserved": 0, "is_disabled": 0, "type": "electric_scooter", "bike_id": "10a2ea9373d70b963519b84b6c2a07a1"}, {"lon": -77.02286133333334, "lat": 38.9165645, "name": "911019c96b72666af388d2a3da69e95c", "fusion_lat": 0.0, "fusion_lon": 0.0, "rental_uris": {"android": "https://dc.lft.to/lastmile_qr_scan", "ios": "https://dc.lft.to/lastmile_qr_scan"}, "is_reserved": 0, "is_disabled": 0, "type": "electric_scooter", "bike_id": "911019c96b72666af388d2a3da69e95c"}, {"lon": -77.0695195, "lat": 38.99041583333333, "name": "e7b1073e03091bffdb1ac519e0e2077b", "fusion_lat": 0.0, "fusion_lon": 0.0, "rental_uris": {"android": "https://dc.lft.to/lastmile_qr_scan", "ios": "https://dc.lft.to/lastmile_qr_scan"}, "is_reserved": 0, "is_disabled": 0, "type": "electric_bike", "bike_id": "e7b1073e03091bffdb1ac519e0e2077b"}, {"lon": -76.93758366666667, "lat": 38.899634166666665, "name": "cedafa12cb5cd530e71c3f83208ca66f", "fusion_lat": 0.0, "fusion_lon": 0.0, "rental_uris": {"android": "https://dc.lft.to/lastmile_qr_scan", "ios": "https://dc.lft.to/lastmile_qr_scan"}, "is_reserved": 0, "is_disabled": 0, "type": "electric_scooter", "bike_id": "cedafa12cb5cd530e71c3f83208ca66f"}, {"lon": -76.99053766666667, "lat": 38.90293333333334, "name": "3388bf617aca36b7b4ac19f2f19f086a", "fusion_lat": 0.0, "fusion_lon": 0.0, "rental_uris": {"android": "https://dc.lft.to/lastmile_qr_scan", "ios": "https://dc.lft.to/lastmile_qr_scan"}, "is_reserved": 0, "is_disabled": 0, "type": "electric_bike", "bike_id": "3388bf617aca36b7b4ac19f2f19f086a"}, {"lon": -77.04738716666667, "lat": 38.911128833333336, "name": "acdaa623326a69760f5c9fd691cd132f", "fusion_lat": 0.0, "fusion_lon": 0.0, "rental_uris": {"android": "https://dc.lft.to/lastmile_qr_scan", "ios": "https://dc.lft.to/lastmile_qr_scan"}, "is_reserved": 0, "is_disabled": 0, "type": "electric_scooter", "bike_id": "acdaa623326a69760f5c9fd691cd132f"}, {"lon": -77.0108985, "lat": 38.89398166666667, "name": "746971283ebf1bdb96b1f262b0f711c4", "fusion_lat": 0.0, "fusion_lon": 0.0, "rental_uris": {"android": "https://dc.lft.to/lastmile_qr_scan", "ios": "https://dc.lft.to/lastmile_qr_scan"}, "is_reserved": 0, "is_disabled": 0, "type": "electric_scooter", "bike_id": "746971283ebf1bdb96b1f262b0f711c4"}, {"lon": -77.0271085, "lat": 38.93121583333333, "name": "f9e80c36df7f4933c7daf0a30bcc6426", "fusion_lat": 0.0, "fusion_lon": 0.0, "rental_uris": {"android": "https://dc.lft.to/lastmile_qr_scan", "ios": "https://dc.lft.to/lastmile_qr_scan"}, "is_reserved": 0, "is_disabled": 0, "type": "electric_bike", "bike_id": "f9e80c36df7f4933c7daf0a30bcc6426"}, {"lon": -77.013822, "lat": 38.883193, "name": "2140754caebf67ec6fd994910011a914", "fusion_lat": 0.0, "fusion_lon": 0.0, "rental_uris": {"android": "https://dc.lft.to/lastmile_qr_scan", "ios": "https://dc.lft.to/lastmile_qr_scan"}, "is_reserved": 0, "is_disabled": 0, "type": "electric_bike", "bike_id": "2140754caebf67ec6fd994910011a914"}, {"lon": -77.02474883333333, "lat": 38.903927333333336, "name": "352bf8e5c3074c7b50d7ec56793beb66", "fusion_lat": 0.0, "fusion_lon": 0.0, "rental_uris": {"android": "https://dc.lft.to/lastmile_qr_scan", "ios": "https://dc.lft.to/lastmile_qr_scan"}, "is_reserved": 0, "is_disabled": 0, "type": "electric_scooter", "bike_id": "352bf8e5c3074c7b50d7ec56793beb66"}, {"lon": -77.042285, "lat": 38.91106633333333, "name": "fcedf16ed7da7ea6dfe21e0bea04d6dd", "fusion_lat": 0.0, "fusion_lon": 0.0, "rental_uris": {"android": "https://dc.lft.to/lastmile_qr_scan", "ios": "https://dc.lft.to/lastmile_qr_scan"}, "is_reserved": 0, "is_disabled": 0, "type": "electric_scooter", "bike_id": "fcedf16ed7da7ea6dfe21e0bea04d6dd"}, {"lon": -77.03343866666667, "lat": 38.899547, "name": "944127c764c79198703696d8fb7747b7", "fusion_lat": 0.0, "fusion_lon": 0.0, "rental_uris": {"android": "https://dc.lft.to/lastmile_qr_scan", "ios": "https://dc.lft.to/lastmile_qr_scan"}, "is_reserved": 0, "is_disabled": 0, "type": "electric_scooter", "bike_id": "944127c764c79198703696d8fb7747b7"}, {"lon": -76.98827133333333, "lat": 38.880243666666665, "name": "8cafd9a212dc12e5d7973cecac0b60bb", "fusion_lat": 0.0, "fusion_lon": 0.0, "rental_uris": {"android": "https://dc.lft.to/lastmile_qr_scan", "ios": "https://dc.lft.to/lastmile_qr_scan"}, "is_reserved": 0, "is_disabled": 0, "type": "electric_scooter", "bike_id": "8cafd9a212dc12e5d7973cecac0b60bb"}, {"lon": -77.03177833333334, "lat": 38.88702583333333, "name": "13b1abbd45c7b0d0c7471f730e9dfcf1", "fusion_lat": 0.0, "fusion_lon": 0.0, "rental_uris": {"android": "https://dc.lft.to/lastmile_qr_scan", "ios": "https://dc.lft.to/lastmile_qr_scan"}, "is_reserved": 0, "is_disabled": 0, "type": "electric_scooter", "bike_id": "13b1abbd45c7b0d0c7471f730e9dfcf1"}, {"lon": -76.98349533333334, "lat": 38.91531883333333, "name": "b7a6e4ab8a79579ad65c0b2503c8b814", "fusion_lat": 0.0, "fusion_lon": 0.0, "rental_uris": {"android": "https://dc.lft.to/lastmile_qr_scan", "ios": "https://dc.lft.to/lastmile_qr_scan"}, "is_reserved": 0, "is_disabled": 0, "type": "electric_scooter", "bike_id": "b7a6e4ab8a79579ad65c0b2503c8b814"}, {"lon": -77.007272, "lat": 38.88489233333333, "name": "0f03345401adeb72fa4ec89e13df55b3", "fusion_lat": 0.0, "fusion_lon": 0.0, "rental_uris": {"android": "https://dc.lft.to/lastmile_qr_scan", "ios": "https://dc.lft.to/lastmile_qr_scan"}, "is_reserved": 0, "is_disabled": 0, "type": "electric_scooter", "bike_id": "0f03345401adeb72fa4ec89e13df55b3"}, {"lon": -77.03455466666666, "lat": 38.903478166666666, "name": "4a72ce2f330364be01bf279194585436", "fusion_lat": 0.0, "fusion_lon": 0.0, "rental_uris": {"android": "https://dc.lft.to/lastmile_qr_scan", "ios": "https://dc.lft.to/lastmile_qr_scan"}, "is_reserved": 0, "is_disabled": 0, "type": "electric_scooter", "bike_id": "4a72ce2f330364be01bf279194585436"}, {"lon": -77.02396166666666, "lat": 38.9070095, "name": "8c7c4ba747df9d613695289409c0c1fe", "fusion_lat": 0.0, "fusion_lon": 0.0, "rental_uris": {"android": "https://dc.lft.to/lastmile_qr_scan", "ios": "https://dc.lft.to/lastmile_qr_scan"}, "is_reserved": 0, "is_disabled": 0, "type": "electric_scooter", "bike_id": "8c7c4ba747df9d613695289409c0c1fe"}, {"lon": -77.0083935, "lat": 38.915486, "name": "2465a5b791a32a9d62d690ddea49ed53", "fusion_lat": 0.0, "fusion_lon": 0.0, "rental_uris": {"android": "https://dc.lft.to/lastmile_qr_scan", "ios": "https://dc.lft.to/lastmile_qr_scan"}, "is_reserved": 0, "is_disabled": 0, "type": "electric_scooter", "bike_id": "2465a5b791a32a9d62d690ddea49ed53"}, {"lon": -77.03895466666667, "lat": 38.90244283333333, "name": "d40977bfda8ba6ad8c386db8246d4fe9", "fusion_lat": 0.0, "fusion_lon": 0.0, "rental_uris": {"android": "https://dc.lft.to/lastmile_qr_scan", "ios": "https://dc.lft.to/lastmile_qr_scan"}, "is_reserved": 0, "is_disabled": 0, "type": "electric_scooter", "bike_id": "d40977bfda8ba6ad8c386db8246d4fe9"}, {"lon": -77.030776, "lat": 38.909910833333335, "name": "eb7788c0aac3e3624c9764afb21b9c5f", "fusion_lat": 0.0, "fusion_lon": 0.0, "rental_uris": {"android": "https://dc.lft.to/lastmile_qr_scan", "ios": "https://dc.lft.to/lastmile_qr_scan"}, "is_reserved": 0, "is_disabled": 0, "type": "electric_scooter", "bike_id": "eb7788c0aac3e3624c9764afb21b9c5f"}, {"lon": -77.01513216666666, "lat": 38.8873585, "name": "dea07646b49db4c2f9ce251007ff99d4", "fusion_lat": 0.0, "fusion_lon": 0.0, "rental_uris": {"android": "https://dc.lft.to/lastmile_qr_scan", "ios": "https://dc.lft.to/lastmile_qr_scan"}, "is_reserved": 0, "is_disabled": 0, "type": "electric_scooter", "bike_id": "dea07646b49db4c2f9ce251007ff99d4"}, {"lon": -76.99771016666666, "lat": 38.92182783333333, "name": "2fd61ce59fce1ec1d57e5953fc05398d", "fusion_lat": 0.0, "fusion_lon": 0.0, "rental_uris": {"android": "https://dc.lft.to/lastmile_qr_scan", "ios": "https://dc.lft.to/lastmile_qr_scan"}, "is_reserved": 0, "is_disabled": 0, "type": "electric_scooter", "bike_id": "2fd61ce59fce1ec1d57e5953fc05398d"}, {"lon": -77.04867333333333, "lat": 38.9123415, "name": "2e8219cabe2ebeccf34d06065fbaa6b8", "fusion_lat": 0.0, "fusion_lon": 0.0, "rental_uris": {"android": "https://dc.lft.to/lastmile_qr_scan", "ios": "https://dc.lft.to/lastmile_qr_scan"}, "is_reserved": 0, "is_disabled": 0, "type": "electric_scooter", "bike_id": "2e8219cabe2ebeccf34d06065fbaa6b8"}, {"lon": -77.040459, "lat": 38.9230255, "name": "928a7f383cecf9e7595f346409743c8a", "fusion_lat": 0.0, "fusion_lon": 0.0, "rental_uris": {"android": "https://dc.lft.to/lastmile_qr_scan", "ios": "https://dc.lft.to/lastmile_qr_scan"}, "is_reserved": 0, "is_disabled": 0, "type": "electric_scooter", "bike_id": "928a7f383cecf9e7595f346409743c8a"}, {"lon": -77.04157866666667, "lat": 38.918942, "name": "5603e5c9f7a5936f9d062ca9156f77eb", "fusion_lat": 0.0, "fusion_lon": 0.0, "rental_uris": {"android": "https://dc.lft.to/lastmile_qr_scan", "ios": "https://dc.lft.to/lastmile_qr_scan"}, "is_reserved": 0, "is_disabled": 0, "type": "electric_scooter", "bike_id": "5603e5c9f7a5936f9d062ca9156f77eb"}, {"lon": -77.0374185, "lat": 38.92551783333333, "name": "ace49b7fb9e214f8513f403e9a404b18", "fusion_lat": 0.0, "fusion_lon": 0.0, "rental_uris": {"android": "https://dc.lft.to/lastmile_qr_scan", "ios": "https://dc.lft.to/lastmile_qr_scan"}, "is_reserved": 0, "is_disabled": 0, "type": "electric_scooter", "bike_id": "ace49b7fb9e214f8513f403e9a404b18"}, {"lon": -77.02010933333334, "lat": 38.9047015, "name": "b4254c3f122846d437a41e802a87c812", "fusion_lat": 0.0, "fusion_lon": 0.0, "rental_uris": {"android": "https://dc.lft.to/lastmile_qr_scan", "ios": "https://dc.lft.to/lastmile_qr_scan"}, "is_reserved": 0, "is_disabled": 0, "type": "electric_scooter", "bike_id": "b4254c3f122846d437a41e802a87c812"}, {"lon": -77.03147533333333, "lat": 38.897774166666665, "name": "ff16ebfb45e876363458f222e6f536a1", "fusion_lat": 0.0, "fusion_lon": 0.0, "rental_uris": {"android": "https://dc.lft.to/lastmile_qr_scan", "ios": "https://dc.lft.to/lastmile_qr_scan"}, "is_reserved": 0, "is_disabled": 0, "type": "electric_scooter", "bike_id": "ff16ebfb45e876363458f222e6f536a1"}, {"lon": -76.90537633333334, "lat": 38.897332, "name": "d3b4b128b2303964633f8c3f48e96151", "fusion_lat": 0.0, "fusion_lon": 0.0, "rental_uris": {"android": "https://dc.lft.to/lastmile_qr_scan", "ios": "https://dc.lft.to/lastmile_qr_scan"}, "is_reserved": 0, "is_disabled": 0, "type": "electric_bike", "bike_id": "d3b4b128b2303964633f8c3f48e96151"}, {"lon": -77.0232295, "lat": 38.92941416666667, "name": "d0c254b39b42611b88740f5899149ee6", "fusion_lat": 0.0, "fusion_lon": 0.0, "rental_uris": {"android": "https://dc.lft.to/lastmile_qr_scan", "ios": "https://dc.lft.to/lastmile_qr_scan"}, "is_reserved": 0, "is_disabled": 0, "type": "electric_scooter", "bike_id": "d0c254b39b42611b88740f5899149ee6"}, {"lon": -77.12906583333333, "lat": 38.863721166666664, "name": "2da55b252008d1872bcb79cf6175548f", "fusion_lat": 0.0, "fusion_lon": 0.0, "rental_uris": {"android": "https://dc.lft.to/lastmile_qr_scan", "ios": "https://dc.lft.to/lastmile_qr_scan"}, "is_reserved": 0, "is_disabled": 0, "type": "electric_bike", "bike_id": "2da55b252008d1872bcb79cf6175548f"}, {"lon": -77.04019816666667, "lat": 38.896300333333336, "name": "c11edc82dc5e75a841bd6328e5accb10", "fusion_lat": 0.0, "fusion_lon": 0.0, "rental_uris": {"android": "https://dc.lft.to/lastmile_qr_scan", "ios": "https://dc.lft.to/lastmile_qr_scan"}, "is_reserved": 0, "is_disabled": 0, "type": "electric_scooter", "bike_id": "c11edc82dc5e75a841bd6328e5accb10"}, {"lon": -77.0318895, "lat": 38.914243166666665, "name": "a0aa6e11196bb7ac95cd1a237ec85744", "fusion_lat": 0.0, "fusion_lon": 0.0, "rental_uris": {"android": "https://dc.lft.to/lastmile_qr_scan", "ios": "https://dc.lft.to/lastmile_qr_scan"}, "is_reserved": 0, "is_disabled": 0, "type": "electric_scooter", "bike_id": "a0aa6e11196bb7ac95cd1a237ec85744"}, {"lon": -77.057247, "lat": 38.904841833333336, "name": "b3e8bb7d36b6c2050e2dce89d3a1a121", "fusion_lat": 0.0, "fusion_lon": 0.0, "rental_uris": {"android": "https://dc.lft.to/lastmile_qr_scan", "ios": "https://dc.lft.to/lastmile_qr_scan"}, "is_reserved": 0, "is_disabled": 0, "type": "electric_scooter", "bike_id": "b3e8bb7d36b6c2050e2dce89d3a1a121"}, {"lon": -77.0481335, "lat": 38.909665333333336, "name": "06caddc10c3637bd75f34178cf99f2a4", "fusion_lat": 0.0, "fusion_lon": 0.0, "rental_uris": {"android": "https://dc.lft.to/lastmile_qr_scan", "ios": "https://dc.lft.to/lastmile_qr_scan"}, "is_reserved": 0, "is_disabled": 0, "type": "electric_scooter", "bike_id": "06caddc10c3637bd75f34178cf99f2a4"}, {"lon": -77.060377, "lat": 38.939164, "name": "64ef2322d7ba91fba750f007ebda1f15", "fusion_lat": 0.0, "fusion_lon": 0.0, "rental_uris": {"android": "https://dc.lft.to/lastmile_qr_scan", "ios": "https://dc.lft.to/lastmile_qr_scan"}, "is_reserved": 0, "is_disabled": 0, "type": "electric_scooter", "bike_id": "64ef2322d7ba91fba750f007ebda1f15"}, {"lon": -77.03389116666666, "lat": 38.88658066666667, "name": "0e06ccc043f1cd36b5c4c16affbf4dcc", "fusion_lat": 0.0, "fusion_lon": 0.0, "rental_uris": {"android": "https://dc.lft.to/lastmile_qr_scan", "ios": "https://dc.lft.to/lastmile_qr_scan"}, "is_reserved": 0, "is_disabled": 0, "type": "electric_scooter", "bike_id": "0e06ccc043f1cd36b5c4c16affbf4dcc"}, {"lon": -77.05050016666667, "lat": 38.92419833333334, "name": "648547a8adabe20141e68af320a40988", "fusion_lat": 0.0, "fusion_lon": 0.0, "rental_uris": {"android": "https://dc.lft.to/lastmile_qr_scan", "ios": "https://dc.lft.to/lastmile_qr_scan"}, "is_reserved": 0, "is_disabled": 0, "type": "electric_scooter", "bike_id": "648547a8adabe20141e68af320a40988"}, {"lon": -76.99071783333333, "lat": 38.863551333333334, "name": "5c72ed297d26f3b536466f70f6e0ed95", "fusion_lat": 0.0, "fusion_lon": 0.0, "rental_uris": {"android": "https://dc.lft.to/lastmile_qr_scan", "ios": "https://dc.lft.to/lastmile_qr_scan"}, "is_reserved": 0, "is_disabled": 0, "type": "electric_scooter", "bike_id": "5c72ed297d26f3b536466f70f6e0ed95"}, {"lon": -77.066321, "lat": 38.913625333333336, "name": "82f77a8303b8a1c4318fd4220ff86418", "fusion_lat": 0.0, "fusion_lon": 0.0, "rental_uris": {"android": "https://dc.lft.to/lastmile_qr_scan", "ios": "https://dc.lft.to/lastmile_qr_scan"}, "is_reserved": 0, "is_disabled": 0, "type": "electric_scooter", "bike_id": "82f77a8303b8a1c4318fd4220ff86418"}, {"lon": -77.02934733333333, "lat": 38.94276383333333, "name": "4a16e2397875f993c6bae956b2c38ab6", "fusion_lat": 0.0, "fusion_lon": 0.0, "rental_uris": {"android": "https://dc.lft.to/lastmile_qr_scan", "ios": "https://dc.lft.to/lastmile_qr_scan"}, "is_reserved": 0, "is_disabled": 0, "type": "electric_scooter", "bike_id": "4a16e2397875f993c6bae956b2c38ab6"}, {"lon": -77.0055575, "lat": 38.87532433333333, "name": "3fcdb06fe26fd06712f1774cb3a01e39", "fusion_lat": 0.0, "fusion_lon": 0.0, "rental_uris": {"android": "https://dc.lft.to/lastmile_qr_scan", "ios": "https://dc.lft.to/lastmile_qr_scan"}, "is_reserved": 0, "is_disabled": 0, "type": "electric_scooter", "bike_id": "3fcdb06fe26fd06712f1774cb3a01e39"}, {"lon": -77.03209566666666, "lat": 38.9179995, "name": "b5b5abf18937dcb82a54703d6db1c86c", "fusion_lat": 0.0, "fusion_lon": 0.0, "rental_uris": {"android": "https://dc.lft.to/lastmile_qr_scan", "ios": "https://dc.lft.to/lastmile_qr_scan"}, "is_reserved": 0, "is_disabled": 0, "type": "electric_scooter", "bike_id": "b5b5abf18937dcb82a54703d6db1c86c"}, {"lon": -77.02415116666667, "lat": 38.90976216666667, "name": "f98c959877119a30e3a9223f47c256a4", "fusion_lat": 0.0, "fusion_lon": 0.0, "rental_uris": {"android": "https://dc.lft.to/lastmile_qr_scan", "ios": "https://dc.lft.to/lastmile_qr_scan"}, "is_reserved": 0, "is_disabled": 0, "type": "electric_scooter", "bike_id": "f98c959877119a30e3a9223f47c256a4"}, {"lon": -77.02952683333334, "lat": 38.91665316666667, "name": "8c49d0817e138da7b92fc260988ffe20", "fusion_lat": 0.0, "fusion_lon": 0.0, "rental_uris": {"android": "https://dc.lft.to/lastmile_qr_scan", "ios": "https://dc.lft.to/lastmile_qr_scan"}, "is_reserved": 0, "is_disabled": 0, "type": "electric_scooter", "bike_id": "8c49d0817e138da7b92fc260988ffe20"}, {"lon": -77.02598933333333, "lat": 38.895961666666665, "name": "aa4d267b38f853bb3def0ef720c63168", "fusion_lat": 0.0, "fusion_lon": 0.0, "rental_uris": {"android": "https://dc.lft.to/lastmile_qr_scan", "ios": "https://dc.lft.to/lastmile_qr_scan"}, "is_reserved": 0, "is_disabled": 0, "type": "electric_scooter", "bike_id": "aa4d267b38f853bb3def0ef720c63168"}, {"lon": -77.02045483333333, "lat": 38.879373666666666, "name": "70c219fe00846179b9fce70e9b9063b9", "fusion_lat": 0.0, "fusion_lon": 0.0, "rental_uris": {"android": "https://dc.lft.to/lastmile_qr_scan", "ios": "https://dc.lft.to/lastmile_qr_scan"}, "is_reserved": 0, "is_disabled": 0, "type": "electric_scooter", "bike_id": "70c219fe00846179b9fce70e9b9063b9"}, {"lon": -77.0266035, "lat": 38.938552, "name": "de3659f44d95902b870f9c35bf783964", "fusion_lat": 0.0, "fusion_lon": 0.0, "rental_uris": {"android": "https://dc.lft.to/lastmile_qr_scan", "ios": "https://dc.lft.to/lastmile_qr_scan"}, "is_reserved": 0, "is_disabled": 0, "type": "electric_scooter", "bike_id": "de3659f44d95902b870f9c35bf783964"}, {"lon": -77.0286175, "lat": 38.9334195, "name": "ba6aa241d9958f39fe59f308e4c3912f", "fusion_lat": 0.0, "fusion_lon": 0.0, "rental_uris": {"android": "https://dc.lft.to/lastmile_qr_scan", "ios": "https://dc.lft.to/lastmile_qr_scan"}, "is_reserved": 0, "is_disabled": 0, "type": "electric_scooter", "bike_id": "ba6aa241d9958f39fe59f308e4c3912f"}, {"lon": -77.09962733333333, "lat": 38.922396166666665, "name": "6015860cb71b7ac8349ef00126bfd2fd", "fusion_lat": 0.0, "fusion_lon": 0.0, "rental_uris": {"android": "https://dc.lft.to/lastmile_qr_scan", "ios": "https://dc.lft.to/lastmile_qr_scan"}, "is_reserved": 0, "is_disabled": 0, "type": "electric_scooter", "bike_id": "6015860cb71b7ac8349ef00126bfd2fd"}, {"lon": -76.96632683333333, "lat": 38.942005, "name": "d36e5021a5321146025c601588cba266", "fusion_lat": 0.0, "fusion_lon": 0.0, "rental_uris": {"android": "https://dc.lft.to/lastmile_qr_scan", "ios": "https://dc.lft.to/lastmile_qr_scan"}, "is_reserved": 0, "is_disabled": 0, "type": "electric_bike", "bike_id": "d36e5021a5321146025c601588cba266"}, {"lon": -77.03878316666666, "lat": 38.91688466666667, "name": "0a7b9c4f2a9082b314125ce963ea3ad6", "fusion_lat": 0.0, "fusion_lon": 0.0, "rental_uris": {"android": "https://dc.lft.to/lastmile_qr_scan", "ios": "https://dc.lft.to/lastmile_qr_scan"}, "is_reserved": 0, "is_disabled": 0, "type": "electric_scooter", "bike_id": "0a7b9c4f2a9082b314125ce963ea3ad6"}, {"lon": -77.067606, "lat": 38.91572983333333, "name": "594d188e63e44c292b59a0add3ae5870", "fusion_lat": 0.0, "fusion_lon": 0.0, "rental_uris": {"android": "https://dc.lft.to/lastmile_qr_scan", "ios": "https://dc.lft.to/lastmile_qr_scan"}, "is_reserved": 0, "is_disabled": 0, "type": "electric_scooter", "bike_id": "594d188e63e44c292b59a0add3ae5870"}, {"lon": -76.93752283333333, "lat": 38.89044033333333, "name": "010ea5a4239f20dc4d97ca89ca785f87", "fusion_lat": 0.0, "fusion_lon": 0.0, "rental_uris": {"android": "https://dc.lft.to/lastmile_qr_scan", "ios": "https://dc.lft.to/lastmile_qr_scan"}, "is_reserved": 0, "is_disabled": 0, "type": "electric_scooter", "bike_id": "010ea5a4239f20dc4d97ca89ca785f87"}, {"lon": -77.04701483333334, "lat": 38.92099533333333, "name": "98b1ee89296df974d53b520f96aef433", "fusion_lat": 0.0, "fusion_lon": 0.0, "rental_uris": {"android": "https://dc.lft.to/lastmile_qr_scan", "ios": "https://dc.lft.to/lastmile_qr_scan"}, "is_reserved": 0, "is_disabled": 0, "type": "electric_scooter", "bike_id": "98b1ee89296df974d53b520f96aef433"}, {"lon": -77.0220295, "lat": 38.913219166666664, "name": "39f2d4472e7e4a7a95626b01f5f7e7e9", "fusion_lat": 0.0, "fusion_lon": 0.0, "rental_uris": {"android": "https://dc.lft.to/lastmile_qr_scan", "ios": "https://dc.lft.to/lastmile_qr_scan"}, "is_reserved": 0, "is_disabled": 0, "type": "electric_scooter", "bike_id": "39f2d4472e7e4a7a95626b01f5f7e7e9"}, {"lon": -77.02993633333334, "lat": 38.9169735, "name": "19c35ac386da4f6f20a614ce0235f485", "fusion_lat": 0.0, "fusion_lon": 0.0, "rental_uris": {"android": "https://dc.lft.to/lastmile_qr_scan", "ios": "https://dc.lft.to/lastmile_qr_scan"}, "is_reserved": 0, "is_disabled": 0, "type": "electric_scooter", "bike_id": "19c35ac386da4f6f20a614ce0235f485"}, {"lon": -77.03699933333333, "lat": 38.91691633333333, "name": "dd806abdb5f47f5660c0c73f4c953606", "fusion_lat": 0.0, "fusion_lon": 0.0, "rental_uris": {"android": "https://dc.lft.to/lastmile_qr_scan", "ios": "https://dc.lft.to/lastmile_qr_scan"}, "is_reserved": 0, "is_disabled": 0, "type": "electric_scooter", "bike_id": "dd806abdb5f47f5660c0c73f4c953606"}, {"lon": -77.03973316666666, "lat": 38.91986933333333, "name": "7ca61f31cf1d122b7a8b47417b7bcafb", "fusion_lat": 0.0, "fusion_lon": 0.0, "rental_uris": {"android": "https://dc.lft.to/lastmile_qr_scan", "ios": "https://dc.lft.to/lastmile_qr_scan"}, "is_reserved": 0, "is_disabled": 0, "type": "electric_scooter", "bike_id": "7ca61f31cf1d122b7a8b47417b7bcafb"}, {"lon": -77.027967, "lat": 38.95680633333333, "name": "0d592b052077a1fb39c0533212c8dc0c", "fusion_lat": 0.0, "fusion_lon": 0.0, "rental_uris": {"android": "https://dc.lft.to/lastmile_qr_scan", "ios": "https://dc.lft.to/lastmile_qr_scan"}, "is_reserved": 0, "is_disabled": 0, "type": "electric_scooter", "bike_id": "0d592b052077a1fb39c0533212c8dc0c"}, {"lon": -76.92999433333334, "lat": 38.8879475, "name": "8cff4a8e00228f7d7cf0d7dca1b6f41a", "fusion_lat": 0.0, "fusion_lon": 0.0, "rental_uris": {"android": "https://dc.lft.to/lastmile_qr_scan", "ios": "https://dc.lft.to/lastmile_qr_scan"}, "is_reserved": 0, "is_disabled": 0, "type": "electric_bike", "bike_id": "8cff4a8e00228f7d7cf0d7dca1b6f41a"}, {"lon": -77.01349783333333, "lat": 38.876005666666664, "name": "a89f98108b905eb62dcf382cda5640a3", "fusion_lat": 0.0, "fusion_lon": 0.0, "rental_uris": {"android": "https://dc.lft.to/lastmile_qr_scan", "ios": "https://dc.lft.to/lastmile_qr_scan"}, "is_reserved": 0, "is_disabled": 0, "type": "electric_scooter", "bike_id": "a89f98108b905eb62dcf382cda5640a3"}, {"lon": -77.01601133333334, "lat": 38.89621733333333, "name": "31320d717c60d3a4d2c3cce685d48911", "fusion_lat": 0.0, "fusion_lon": 0.0, "rental_uris": {"android": "https://dc.lft.to/lastmile_qr_scan", "ios": "https://dc.lft.to/lastmile_qr_scan"}, "is_reserved": 0, "is_disabled": 0, "type": "electric_scooter", "bike_id": "31320d717c60d3a4d2c3cce685d48911"}, {"lon": -77.079405, "lat": 38.94874083333333, "name": "29b36afc89e7cef41aba40c5d3c09acc", "fusion_lat": 0.0, "fusion_lon": 0.0, "rental_uris": {"android": "https://dc.lft.to/lastmile_qr_scan", "ios": "https://dc.lft.to/lastmile_qr_scan"}, "is_reserved": 0, "is_disabled": 0, "type": "electric_scooter", "bike_id": "29b36afc89e7cef41aba40c5d3c09acc"}, {"lon": -77.03308016666666, "lat": 38.899983, "name": "a70deb8ab136e3ad9abed570cfc05b30", "fusion_lat": 0.0, "fusion_lon": 0.0, "rental_uris": {"android": "https://dc.lft.to/lastmile_qr_scan", "ios": "https://dc.lft.to/lastmile_qr_scan"}, "is_reserved": 0, "is_disabled": 0, "type": "electric_scooter", "bike_id": "a70deb8ab136e3ad9abed570cfc05b30"}, {"lon": -77.05267533333334, "lat": 38.91014783333333, "name": "74234f7995db10409250272dc38ef3a2", "fusion_lat": 0.0, "fusion_lon": 0.0, "rental_uris": {"android": "https://dc.lft.to/lastmile_qr_scan", "ios": "https://dc.lft.to/lastmile_qr_scan"}, "is_reserved": 0, "is_disabled": 0, "type": "electric_scooter", "bike_id": "74234f7995db10409250272dc38ef3a2"}, {"lon": -76.99027666666667, "lat": 38.8640325, "name": "c2daa44280e40ffb686cc0fd177631bf", "fusion_lat": 0.0, "fusion_lon": 0.0, "rental_uris": {"android": "https://dc.lft.to/lastmile_qr_scan", "ios": "https://dc.lft.to/lastmile_qr_scan"}, "is_reserved": 0, "is_disabled": 0, "type": "electric_scooter", "bike_id": "c2daa44280e40ffb686cc0fd177631bf"}, {"lon": -77.0072195, "lat": 38.913437, "name": "8749664ce8dea1bb5de032d9ea4534d3", "fusion_lat": 0.0, "fusion_lon": 0.0, "rental_uris": {"android": "https://dc.lft.to/lastmile_qr_scan", "ios": "https://dc.lft.to/lastmile_qr_scan"}, "is_reserved": 0, "is_disabled": 0, "type": "electric_scooter", "bike_id": "8749664ce8dea1bb5de032d9ea4534d3"}, {"lon": -77.04233566666667, "lat": 38.924284166666666, "name": "b7f33d4379eaa6eb7598c1db4e8173d0", "fusion_lat": 0.0, "fusion_lon": 0.0, "rental_uris": {"android": "https://dc.lft.to/lastmile_qr_scan", "ios": "https://dc.lft.to/lastmile_qr_scan"}, "is_reserved": 0, "is_disabled": 0, "type": "electric_scooter", "bike_id": "b7f33d4379eaa6eb7598c1db4e8173d0"}, {"lon": -77.03450516666666, "lat": 38.90353866666667, "name": "b74440a7a9c650b3aee358e932fd3ae3", "fusion_lat": 0.0, "fusion_lon": 0.0, "rental_uris": {"android": "https://dc.lft.to/lastmile_qr_scan", "ios": "https://dc.lft.to/lastmile_qr_scan"}, "is_reserved": 0, "is_disabled": 0, "type": "electric_scooter", "bike_id": "b74440a7a9c650b3aee358e932fd3ae3"}, {"lon": -77.03248566666667, "lat": 38.905447, "name": "9ea48f8653c417f7dd82b2afd253b064", "fusion_lat": 0.0, "fusion_lon": 0.0, "rental_uris": {"android": "https://dc.lft.to/lastmile_qr_scan", "ios": "https://dc.lft.to/lastmile_qr_scan"}, "is_reserved": 0, "is_disabled": 0, "type": "electric_scooter", "bike_id": "9ea48f8653c417f7dd82b2afd253b064"}, {"lon": -77.01765333333333, "lat": 38.90256983333333, "name": "de2c460092d614ded43bcc99823383cc", "fusion_lat": 0.0, "fusion_lon": 0.0, "rental_uris": {"android": "https://dc.lft.to/lastmile_qr_scan", "ios": "https://dc.lft.to/lastmile_qr_scan"}, "is_reserved": 0, "is_disabled": 0, "type": "electric_scooter", "bike_id": "de2c460092d614ded43bcc99823383cc"}, {"lon": -77.0053055, "lat": 38.916932, "name": "b56d5b6867993d6d04878dad710b8cfb", "fusion_lat": 0.0, "fusion_lon": 0.0, "rental_uris": {"android": "https://dc.lft.to/lastmile_qr_scan", "ios": "https://dc.lft.to/lastmile_qr_scan"}, "is_reserved": 0, "is_disabled": 0, "type": "electric_scooter", "bike_id": "b56d5b6867993d6d04878dad710b8cfb"}, {"lon": -76.93717583333333, "lat": 38.89587866666667, "name": "5d1897517a1d7411046f49634ce48627", "fusion_lat": 0.0, "fusion_lon": 0.0, "rental_uris": {"android": "https://dc.lft.to/lastmile_qr_scan", "ios": "https://dc.lft.to/lastmile_qr_scan"}, "is_reserved": 0, "is_disabled": 0, "type": "electric_scooter", "bike_id": "5d1897517a1d7411046f49634ce48627"}, {"lon": -77.04038083333333, "lat": 38.900040833333335, "name": "cb997ebc3825c435e78203418ff6f6a2", "fusion_lat": 0.0, "fusion_lon": 0.0, "rental_uris": {"android": "https://dc.lft.to/lastmile_qr_scan", "ios": "https://dc.lft.to/lastmile_qr_scan"}, "is_reserved": 0, "is_disabled": 0, "type": "electric_scooter", "bike_id": "cb997ebc3825c435e78203418ff6f6a2"}, {"lon": -77.00804566666666, "lat": 38.91699466666667, "name": "cb8d40c4d683abf52e508ace7a55a5f1", "fusion_lat": 0.0, "fusion_lon": 0.0, "rental_uris": {"android": "https://dc.lft.to/lastmile_qr_scan", "ios": "https://dc.lft.to/lastmile_qr_scan"}, "is_reserved": 0, "is_disabled": 0, "type": "electric_scooter", "bike_id": "cb8d40c4d683abf52e508ace7a55a5f1"}, {"lon": -77.02743133333334, "lat": 38.96716883333333, "name": "09c0d1741a9ad1f27224f8897ae02f27", "fusion_lat": 0.0, "fusion_lon": 0.0, "rental_uris": {"android": "https://dc.lft.to/lastmile_qr_scan", "ios": "https://dc.lft.to/lastmile_qr_scan"}, "is_reserved": 0, "is_disabled": 0, "type": "electric_scooter", "bike_id": "09c0d1741a9ad1f27224f8897ae02f27"}, {"lon": -77.0344875, "lat": 38.90946616666667, "name": "58d72056cf1223fb817406e1ffb737d9", "fusion_lat": 0.0, "fusion_lon": 0.0, "rental_uris": {"android": "https://dc.lft.to/lastmile_qr_scan", "ios": "https://dc.lft.to/lastmile_qr_scan"}, "is_reserved": 0, "is_disabled": 0, "type": "electric_scooter", "bike_id": "58d72056cf1223fb817406e1ffb737d9"}, {"lon": -77.03442583333333, "lat": 38.91804416666667, "name": "cc87c5c15bd5814c86ef8529df615e1a", "fusion_lat": 0.0, "fusion_lon": 0.0, "rental_uris": {"android": "https://dc.lft.to/lastmile_qr_scan", "ios": "https://dc.lft.to/lastmile_qr_scan"}, "is_reserved": 0, "is_disabled": 0, "type": "electric_scooter", "bike_id": "cc87c5c15bd5814c86ef8529df615e1a"}, {"lon": -77.022749, "lat": 38.87833916666666, "name": "69fc01b4b791611313930148cff53de7", "fusion_lat": 0.0, "fusion_lon": 0.0, "rental_uris": {"android": "https://dc.lft.to/lastmile_qr_scan", "ios": "https://dc.lft.to/lastmile_qr_scan"}, "is_reserved": 0, "is_disabled": 0, "type": "electric_scooter", "bike_id": "69fc01b4b791611313930148cff53de7"}, {"lon": -77.07898616666667, "lat": 38.9192005, "name": "c824d3beddb798280951cc2e599140b8", "fusion_lat": 0.0, "fusion_lon": 0.0, "rental_uris": {"android": "https://dc.lft.to/lastmile_qr_scan", "ios": "https://dc.lft.to/lastmile_qr_scan"}, "is_reserved": 0, "is_disabled": 0, "type": "electric_scooter", "bike_id": "c824d3beddb798280951cc2e599140b8"},