{"data": {"bikes": [{"fusion_lat": 0.0, "type": "electric_bike", "name": "0df9048723d5906386f984cc0410e8c1", "fusion_lon": 0.0, "bike_id": "0df9048723d5906386f984cc0410e8c1", "is_reserved": 0, "rental_uris": {"android": "https://dc.lft.to/lastmile_qr_scan", "ios": "https://dc.lft.to/lastmile_qr_scan"}, "lat": 38.859348, "is_disabled": 0, "lon": -77.11828233333334}, {"fusion_lat": 0.0, "type": "electric_scooter", "name": "e9bc14ae0ebba729062240f4a7634725", "fusion_lon": 0.0, "bike_id": "e9bc14ae0ebba729062240f4a7634725", "is_reserved": 0, "rental_uris": {"android": "https://dc.lft.to/lastmile_qr_scan", "ios": "https://dc.lft.to/lastmile_qr_scan"}, "lat": 38.920329333333335, "is_disabled": 0, "lon": -77.04177816666666}, {"fusion_lat": 0.0, "type": "electric_bike", "name": "13afd0684baeb1ae963f3d62529567aa", "fusion_lon": 0.0, "bike_id": "13afd0684baeb1ae963f3d62529567aa", "is_reserved": 0, "rental_uris": {"android": "https://dc.lft.to/lastmile_qr_scan", "ios": "https://dc.lft.to/lastmile_qr_scan"}, "lat": 38.9815745, "is_disabled": 0, "lon": -77.02640766666667}, {"fusion_lat": 0.0, "type": "electric_scooter", "name": "1783d1a9d3de555ce24deb1379dfdab1", "fusion_lon": 0.0, "bike_id": "1783d1a9d3de555ce24deb1379dfdab1", "is_reserved": 0, "rental_uris": {"android": "https://dc.lft.to/lastmile_qr_scan", "ios": "https://dc.lft.to/lastmile_qr_scan"}, "lat": 38.949841166666666, "is_disabled": 0, "lon": -77.02711216666667}, {"fusion_lat": 0.0, "type": "electric_scooter", "name": "b207439318348b6875344a8f2626898b", "fusion_lon": 0.0, "bike_id": "b207439318348b6875344a8f2626898b", "is_reserved": 0, "rental_uris": {"android": "https://dc.lft.to/lastmile_qr_scan", "ios": "https://dc.lft.to/lastmile_qr_scan"}, "lat": 38.88711383333333, "is_disabled": 0, "lon": -77.02203066666667}, {"fusion_lat": 0.0, "type": "electric_scooter", "name": "645f4193e71da05944e222349567c968", "fusion_lon": 0.0, "bike_id": "645f4193e71da05944e222349567c968", "is_reserved": 0, "rental_uris": {"android": "https://dc.lft.to/lastmile_qr_scan", "ios": "https://dc.lft.to/lastmile_qr_scan"}, "lat": 38.9200815, "is_disabled": 0, "lon": -77.02410783333333}, {"fusion_lat": 0.0, "type": "electric_scooter", "name": "ccbab93f1f48aa07ecf8081fb11e34fc", "fusion_lon": 0.0, "bike_id": "ccbab93f1f48aa07ecf8081fb11e34fc", "is_reserved": 0, "rental_uris": {"android": "https://dc.lft.to/lastmile_qr_scan", "ios": "https://dc.lft.to/lastmile_qr_scan"}, "lat": 38.886117666666664, "is_disabled": 0, "lon": -77.00136916666666}, {"fusion_lat": 0.0, "type": "electric_scooter", "name": "ac64c73b7ace34ce301b4337349ab176", "fusion_lon": 0.0, "bike_id": "ac64c73b7ace34ce301b4337349ab176", "is_reserved": 0, "rental_uris": {"android": "https://dc.lft.to/lastmile_qr_scan", "ios": "https://dc.lft.to/lastmile_qr_scan"}, "lat": 38.86465466666667, "is_disabled": 0, "lon": -76.982242}, {"fusion_lat": 0.0, "type": "electric_scooter", "name": "493be681e26ff13a48425c655cbfee3f", "fusion_lon": 0.0, "bike_id": "493be681e26ff13a48425c655cbfee3f", "is_reserved": 0, "rental_uris": {"android": "https://dc.lft.to/lastmile_qr_scan", "ios": "https://dc.lft.to/lastmile_qr_scan"}, "lat": 38.921663833333334, "is_disabled": 0, "lon": -77.0338965}, {"fusion_lat": 0.0, "type": "electric_scooter", "name": "58ec9b8079d4b6df12c1acd38714c000", "fusion_lon": 0.0, "bike_id": "58ec9b8079d4b6df12c1acd38714c000", "is_reserved": 0, "rental_uris": {"android": "https://dc.lft.to/lastmile_qr_scan", "ios": "https://dc.lft.to/lastmile_qr_scan"}, "lat": 38.907334, "is_disabled": 0, "lon": -77.0269065}, {"fusion_lat": 0.0, "type": "electric_scooter", "name": "0f522bb54d1d3c857cf3a56ddf45d158", "fusion_lon": 0.0, "bike_id": "0f522bb54d1d3c857cf3a56ddf45d158", "is_reserved": 0, "rental_uris": {"android": "https://dc.lft.to/lastmile_qr_scan", "ios": "https://dc.lft.to/lastmile_qr_scan"}, "lat": 38.898969, "is_disabled": 0, "lon": -77.03930633333333}, {"fusion_lat": 0.0, "type": "electric_scooter", "name": "225db0b2faf752e5a4ca7290e5696887", "fusion_lon": 0.0, "bike_id": "225db0b2faf752e5a4ca7290e5696887", "is_reserved": 0, "rental_uris": {"android": "https://dc.lft.to/lastmile_qr_scan", "ios": "https://dc.lft.to/lastmile_qr_scan"}, "lat": 38.905038833333336, "is_disabled": 0, "lon": -76.99609783333334}, {"fusion_lat": 0.0, "type": "electric_scooter", "name": "f4d26d80f9cca9ae8945a790eb1c13c2", "fusion_lon": 0.0, "bike_id": "f4d26d80f9cca9ae8945a790eb1c13c2", "is_reserved": 0, "rental_uris": {"android": "https://dc.lft.to/lastmile_qr_scan", "ios": "https://dc.lft.to/lastmile_qr_scan"}, "lat": 38.89794633333333, "is_disabled": 0, "lon": -77.05026816666667}, {"fusion_lat": 0.0, "type": "electric_scooter", "name": "7d3bf42170210075bd88baf3d462ea5f", "fusion_lon": 0.0, "bike_id": "7d3bf42170210075bd88baf3d462ea5f", "is_reserved": 0, "rental_uris": {"android": "https://dc.lft.to/lastmile_qr_scan", "ios": "https://dc.lft.to/lastmile_qr_scan"}, "lat": 38.91178166666667, "is_disabled": 0, "lon": -77.03490116666667}, {"fusion_lat": 0.0, "type": "electric_scooter", "name": "2ee416f86d4a61dabacd4112374cf8c0", "fusion_lon": 0.0, "bike_id": "2ee416f86d4a61dabacd4112374cf8c0", "is_reserved": 0, "rental_uris": {"android": "https://dc.lft.to/lastmile_qr_scan", "ios": "https://dc.lft.to/lastmile_qr_scan"}, "lat": 38.9225135, "is_disabled": 0, "lon": -77.02981916666667}, {"fusion_lat": 0.0, "type": "electric_scooter", "name": "8e71a13074c6d978ee8a69ea2991bce6", "fusion_lon": 0.0, "bike_id": "8e71a13074c6d978ee8a69ea2991bce6", "is_reserved": 0, "rental_uris": {"android": "https://dc.lft.to/lastmile_qr_scan", "ios": "https://dc.lft.to/lastmile_qr_scan"}, "lat": 38.89605, "is_disabled": 0, "lon": -76.99962583333334}, {"fusion_lat": 0.0, "type": "electric_scooter", "name": "1282f8889cde1b3f00eea9fc495e79fb", "fusion_lon": 0.0, "bike_id": "1282f8889cde1b3f00eea9fc495e79fb", "is_reserved": 0, "rental_uris": {"android": "https://dc.lft.to/lastmile_qr_scan", "ios": "https://dc.lft.to/lastmile_qr_scan"}, "lat": 38.95398183333333, "is_disabled": 0, "lon": -77.02782}, {"fusion_lat": 0.0, "type": "electric_scooter", "name": "eb3f108d7d4ede269180b851244faaae", "fusion_lon": 0.0, "bike_id": "eb3f108d7d4ede269180b851244faaae", "is_reserved": 0, "rental_uris": {"android": "https://dc.lft.to/lastmile_qr_scan", "ios": "https://dc.lft.to/lastmile_qr_scan"}, "lat": 38.8734205, "is_disabled": 0, "lon": -76.99165266666667}, {"fusion_lat": 0.0, "type": "electric_scooter", "name": "6148d5a61309d48b7d3b182725dbe4ab", "fusion_lon": 0.0, "bike_id": "6148d5a61309d48b7d3b182725dbe4ab", "is_reserved": 0, "rental_uris": {"android": "https://dc.lft.to/lastmile_qr_scan", "ios": "https://dc.lft.to/lastmile_qr_scan"}, "lat": 38.920338666666666, "is_disabled": 0, "lon": -77.01219533333334}, {"fusion_lat": 0.0, "type": "electric_scooter", "name": "b5653da4ac306212156ea5861fd7f67c", "fusion_lon": 0.0, "bike_id": "b5653da4ac306212156ea5861fd7f67c", "is_reserved": 0, "rental_uris": {"android": "https://dc.lft.to/lastmile_qr_scan", "ios": "https://dc.lft.to/lastmile_qr_scan"}, "lat": 38.9116785, "is_disabled": 0, "lon": -77.004576}, {"fusion_lat": 0.0, "type": "electric_scooter", "name": "cda2b801393939537ecb5e9e01691e0e", "fusion_lon": 0.0, "bike_id": "cda2b801393939537ecb5e9e01691e0e", "is_reserved": 0, "rental_uris": {"android": "https://dc.lft.to/lastmile_qr_scan", "ios": "https://dc.lft.to/lastmile_qr_scan"}, "lat": 38.93097316666667, "is_disabled": 0, "lon": -77.02535133333333}, {"fusion_lat": 0.0, "type": "electric_scooter", "name": "c7226fd23e310738ee8d531e8aa16bc3", "fusion_lon": 0.0, "bike_id": "c7226fd23e310738ee8d531e8aa16bc3", "is_reserved": 0, "rental_uris": {"android": "https://dc.lft.to/lastmile_qr_scan", "ios": "https://dc.lft.to/lastmile_qr_scan"}, "lat": 38.900304, "is_disabled": 0, "lon": -77.031699}, {"fusion_lat": 0.0, "type": "electric_bike", "name": "c055e0700d7401d8a59e1997a98784a9", "fusion_lon": 0.0, "bike_id": "c055e0700d7401d8a59e1997a98784a9", "is_reserved": 0, "rental_uris": {"android": "https://dc.lft.to/lastmile_qr_scan", "ios": "https://dc.lft.to/lastmile_qr_scan"}, "lat": 38.906241666666666, "is_disabled": 0, "lon": -76.98599116666666}, {"fusion_lat": 0.0, "type": "electric_bike", "name": "2908a3b17038478794b8621b079832ac", "fusion_lon": 0.0, "bike_id": "2908a3b17038478794b8621b079832ac", "is_reserved": 0, "rental_uris": {"android": "https://dc.lft.to/lastmile_qr_scan", "ios": "https://dc.lft.to/lastmile_qr_scan"}, "lat": 39.0431565, "is_disabled": 0, "lon": -77.0516695}, {"fusion_lat": 0.0, "type": "electric_scooter", "name": "ce93a0a5d9fad575d094d59818dbc391", "fusion_lon": 0.0, "bike_id": "ce93a0a5d9fad575d094d59818dbc391", "is_reserved": 0, "rental_uris": {"android": "https://dc.lft.to/lastmile_qr_scan", "ios": "https://dc.lft.to/lastmile_qr_scan"}, "lat": 38.89194633333334, "is_disabled": 0, "lon": -76.93301283333334}, {"fusion_lat": 0.0, "type": "electric_scooter", "name": "4b067cff387a6c46b861bad2f2a441b4", "fusion_lon": 0.0, "bike_id": "4b067cff387a6c46b861bad2f2a441b4", "is_reserved": 0, "rental_uris": {"android": "https://dc.lft.to/lastmile_qr_scan", "ios": "https://dc.lft.to/lastmile_qr_scan"}, "lat": 38.9265605, "is_disabled": 0, "lon": -77.02426116666666}, {"fusion_lat": 0.0, "type": "electric_scooter", "name": "8e6ab0389025d33a031cff9824850d2e", "fusion_lon": 0.0, "bike_id": "8e6ab0389025d33a031cff9824850d2e", "is_reserved": 0, "rental_uris": {"android": "https://dc.lft.to/lastmile_qr_scan", "ios": "https://dc.lft.to/lastmile_qr_scan"}, "lat": 38.907272166666665, "is_disabled": 0, "lon": -76.98689933333333}, {"fusion_lat": 0.0, "type": "electric_scooter", "name": "e2a2cef50e9dc0907d566769a152aaca", "fusion_lon": 0.0, "bike_id": "e2a2cef50e9dc0907d566769a152aaca", "is_reserved": 0, "rental_uris": {"android": "https://dc.lft.to/lastmile_qr_scan", "ios": "https://dc.lft.to/lastmile_qr_scan"}, "lat": 38.923665666666665, "is_disabled": 0, "lon": -77.01914333333333}, {"fusion_lat": 0.0, "type": "electric_scooter", "name": "a14e1364c53a3e833d904cb59dbc128a", "fusion_lon": 0.0, "bike_id": "a14e1364c53a3e833d904cb59dbc128a", "is_reserved": 0, "rental_uris": {"android": "https://dc.lft.to/lastmile_qr_scan", "ios": "https://dc.lft.to/lastmile_qr_scan"}, "lat": 38.892420333333334, "is_disabled": 0, "lon": -77.022049}, {"fusion_lat": 0.0, "type": "electric_scooter", "name": "69dbb4bc01606a78fc5ec6c50407126b", "fusion_lon": 0.0, "bike_id": "69dbb4bc01606a78fc5ec6c50407126b", "is_reserved": 0, "rental_uris": {"android": "https://dc.lft.to/lastmile_qr_scan", "ios": "https://dc.lft.to/lastmile_qr_scan"}, "lat": 38.892307333333335, "is_disabled": 0, "lon": -77.03178233333334}, {"fusion_lat": 0.0, "type": "electric_scooter", "name": "83862a0c467868fb7f892850a1c8e8c2", "fusion_lon": 0.0, "bike_id": "83862a0c467868fb7f892850a1c8e8c2", "is_reserved": 0, "rental_uris": {"android": "https://dc.lft.to/lastmile_qr_scan", "ios": "https://dc.lft.to/lastmile_qr_scan"}, "lat": 38.9045035, "is_disabled": 0, "lon": -77.03905833333333}, {"fusion_lat": 0.0, "type": "electric_bike", "name": "6cd9d88294d93d2aab641f482c9a2423", "fusion_lon": 0.0, "bike_id": "6cd9d88294d93d2aab641f482c9a2423", "is_reserved": 0, "rental_uris": {"android": "https://dc.lft.to/lastmile_qr_scan", "ios": "https://dc.lft.to/lastmile_qr_scan"}, "lat": 38.992246333333334, "is_disabled": 0, "lon": -77.03225233333333}, {"fusion_lat": 0.0, "type": "electric_scooter", "name": "2dfcd7c8cab1515c6643994b06e7da29", "fusion_lon": 0.0, "bike_id": "2dfcd7c8cab1515c6643994b06e7da29", "is_reserved": 0, "rental_uris": {"android": "https://dc.lft.to/lastmile_qr_scan", "ios": "https://dc.lft.to/lastmile_qr_scan"}, "lat": 38.92197566666667, "is_disabled": 0, "lon": -77.02978516666667}, {"fusion_lat": 0.0, "type": "electric_scooter", "name": "4d44c5681b3bca240c48136b51df29b8", "fusion_lon": 0.0, "bike_id": "4d44c5681b3bca240c48136b51df29b8", "is_reserved": 0, "rental_uris": {"android": "https://dc.lft.to/lastmile_qr_scan", "ios": "https://dc.lft.to/lastmile_qr_scan"}, "lat": 38.913460666666666, "is_disabled": 0, "lon": -77.009276}, {"fusion_lat": 0.0, "type": "electric_bike", "name": "0cf5019dc73c5d6b11a3d66bea9a5792", "fusion_lon": 0.0, "bike_id": "0cf5019dc73c5d6b11a3d66bea9a5792", "is_reserved": 0, "rental_uris": {"android": "https://dc.lft.to/lastmile_qr_scan", "ios": "https://dc.lft.to/lastmile_qr_scan"}, "lat": 38.880441833333336, "is_disabled": 0, "lon": -77.01130616666667}, {"fusion_lat": 0.0, "type": "electric_scooter", "name": "b4b5e935a7ceb8461d2e8b9d4162e8f0", "fusion_lon": 0.0, "bike_id": "b4b5e935a7ceb8461d2e8b9d4162e8f0", "is_reserved": 0, "rental_uris": {"android": "https://dc.lft.to/lastmile_qr_scan", "ios": "https://dc.lft.to/lastmile_qr_scan"}, "lat": 38.91681833333333, "is_disabled": 0, "lon": -77.02942016666667}, {"fusion_lat": 0.0, "type": "electric_scooter", "name": "eba54e731316c7ed13a8f43d4596dc5c", "fusion_lon": 0.0, "bike_id": "eba54e731316c7ed13a8f43d4596dc5c", "is_reserved": 0, "rental_uris": {"android": "https://dc.lft.to/lastmile_qr_scan", "ios": "https://dc.lft.to/lastmile_qr_scan"}, "lat": 38.883442333333335, "is_disabled": 0, "lon": -76.98553383333333}, {"fusion_lat": 0.0, "type": "electric_scooter", "name": "d31bf70c25a20b12785324ea047229ee", "fusion_lon": 0.0, "bike_id": "d31bf70c25a20b12785324ea047229ee", "is_reserved": 0, "rental_uris": {"android": "https://dc.lft.to/lastmile_qr_scan", "ios": "https://dc.lft.to/lastmile_qr_scan"}, "lat": 38.9318285, "is_disabled": 0, "lon": -77.03843016666667}, {"fusion_lat": 0.0, "type": "electric_scooter", "name": "06b9649d0fc9f5ba047ade24ee939d08", "fusion_lon": 0.0, "bike_id": "06b9649d0fc9f5ba047ade24ee939d08", "is_reserved": 0, "rental_uris": {"android": "https://dc.lft.to/lastmile_qr_scan", "ios": "https://dc.lft.to/lastmile_qr_scan"}, "lat": 38.86697783333334, "is_disabled": 0, "lon": -76.98713266666667}, {"fusion_lat": 0.0, "type": "electric_scooter", "name": "7ad26b46e9363f0a717fd6d91c06deb4", "fusion_lon": 0.0, "bike_id": "7ad26b46e9363f0a717fd6d91c06deb4", "is_reserved": 0, "rental_uris": {"android": "https://dc.lft.to/lastmile_qr_scan", "ios": "https://dc.lft.to/lastmile_qr_scan"}, "lat": 38.934596666666664, "is_disabled": 0, "lon": -77.0578445}, {"fusion_lat": 0.0, "type": "electric_scooter", "name": "d00d5b038eda4ef8c257c73a7087cfc7", "fusion_lon": 0.0, "bike_id": "d00d5b038eda4ef8c257c73a7087cfc7", "is_reserved": 0, "rental_uris": {"android": "https://dc.lft.to/lastmile_qr_scan", "ios": "https://dc.lft.to/lastmile_qr_scan"}, "lat": 38.909853166666664, "is_disabled": 0, "lon": -77.00916366666667}, {"fusion_lat": 0.0, "type": "electric_scooter", "name": "b936330075df4229a8e03e14acc30a02", "fusion_lon": 0.0, "bike_id": "b936330075df4229a8e03e14acc30a02", "is_reserved": 0, "rental_uris": {"android": "https://dc.lft.to/lastmile_qr_scan", "ios": "https://dc.lft.to/lastmile_qr_scan"}, "lat": 38.89840616666667, "is_disabled": 0, "lon": -76.94638133333333}, {"fusion_lat": 0.0, "type": "electric_scooter", "name": "89b28426417353d966fb1b47fe30723c", "fusion_lon": 0.0, "bike_id": "89b28426417353d966fb1b47fe30723c", "is_reserved": 0, "rental_uris": {"android": "https://dc.lft.to/lastmile_qr_scan", "ios": "https://dc.lft.to/lastmile_qr_scan"}, "lat": 38.92301833333333, "is_disabled": 0, "lon": -77.04457433333333}, {"fusion_lat": 0.0, "type": "electric_scooter", "name": "c38917a88aaf0b3960f2876f40db88f5", "fusion_lon": 0.0, "bike_id": "c38917a88aaf0b3960f2876f40db88f5", "is_reserved": 0, "rental_uris": {"android": "https://dc.lft.to/lastmile_qr_scan", "ios": "https://dc.lft.to/lastmile_qr_scan"}, "lat": 38.9089695, "is_disabled": 0, "lon": -77.03205766666666}, {"fusion_lat": 0.0, "type": "electric_scooter", "name": "43f6ce6b66f6a7750e99bc4554991f2c", "fusion_lon": 0.0, "bike_id": "43f6ce6b66f6a7750e99bc4554991f2c", "is_reserved": 0, "rental_uris": {"android": "https://dc.lft.to/lastmile_qr_scan", "ios": "https://dc.lft.to/lastmile_qr_scan"}, "lat": 38.8605605, "is_disabled": 0, "lon": -76.9842125}, {"fusion_lat": 0.0, "type": "electric_scooter", "name": "a9f5f0a460618b97c2d7381f47626d0d", "fusion_lon": 0.0, "bike_id": "a9f5f0a460618b97c2d7381f47626d0d", "is_reserved": 0, "rental_uris": {"android": "https://dc.lft.to/lastmile_qr_scan", "ios": "https://dc.lft.to/lastmile_qr_scan"}, "lat": 38.9168705, "is_disabled": 0, "lon": -77.02809733333333}, {"fusion_lat": 0.0, "type": "electric_scooter", "name": "5606cd64606478c1dd99b0119ac82449", "fusion_lon": 0.0, "bike_id": "5606cd64606478c1dd99b0119ac82449", "is_reserved": 0, "rental_uris": {"android": "https://dc.lft.to/lastmile_qr_scan", "ios": "https://dc.lft.to/lastmile_qr_scan"}, "lat": 38.9036655, "is_disabled": 0, "lon": -77.0174585}, {"fusion_lat": 0.0, "type": "electric_scooter", "name": "2a3666fa19dabc292b947c94d8fe6f1d", "fusion_lon": 0.0, "bike_id": "2a3666fa19dabc292b947c94d8fe6f1d", "is_reserved": 0, "rental_uris": {"android": "https://dc.lft.to/lastmile_qr_scan", "ios": "https://dc.lft.to/lastmile_qr_scan"}, "lat": 38.918470666666664, "is_disabled": 0, "lon": -77.0253885}, {"fusion_lat": 0.0, "type": "electric_scooter", "name": "a945b2140c8c2d522c69bb62efbe723e", "fusion_lon": 0.0, "bike_id": "a945b2140c8c2d522c69bb62efbe723e", "is_reserved": 0, "rental_uris": {"android": "https://dc.lft.to/lastmile_qr_scan", "ios": "https://dc.lft.to/lastmile_qr_scan"}, "lat": 38.898815666666664, "is_disabled": 0, "lon": -76.93175933333333}, {"fusion_lat": 0.0, "type": "electric_bike", "name": "08935d67ec86501ccf05c072958f95e1", "fusion_lon": 0.0, "bike_id": "08935d67ec86501ccf05c072958f95e1", "is_reserved": 0, "rental_uris": {"android": "https://dc.lft.to/lastmile_qr_scan", "ios": "https://dc.lft.to/lastmile_qr_scan"}, "lat": 38.87731016666667, "is_disabled": 0, "lon": -76.9810685}, {"fusion_lat": 0.0, "type": "electric_scooter", "name": "9f5774a76ade2d53b182153f0a5eac37", "fusion_lon": 0.0, "bike_id": "9f5774a76ade2d53b182153f0a5eac37", "is_reserved": 0, "rental_uris": {"android": "https://dc.lft.to/lastmile_qr_scan", "ios": "https://dc.lft.to/lastmile_qr_scan"}, "lat": 38.90183733333333, "is_disabled": 0, "lon": -77.02307416666666}, {"fusion_lat": 0.0, "type": "electric_scooter", "name": "8dd66a070c0fcf7bfa5540f595e409e2", "fusion_lon": 0.0, "bike_id": "8dd66a070c0fcf7bfa5540f595e409e2", "is_reserved": 0, "rental_uris": {"android": "https://dc.lft.to/lastmile_qr_scan", "ios": "https://dc.lft.to/lastmile_qr_scan"}, "lat": 38.90563516666667, "is_disabled": 0, "lon": -77.0346435}, {"fusion_lat": 0.0, "type": "electric_scooter", "name": "2b428051d4ceca8b3b1a3d647befee93", "fusion_lon": 0.0, "bike_id": "2b428051d4ceca8b3b1a3d647befee93", "is_reserved": 0, "rental_uris": {"android": "https://dc.lft.to/lastmile_qr_scan", "ios": "https://dc.lft.to/lastmile_qr_scan"}, "lat": 38.8745995, "is_disabled": 0, "lon": -77.00959683333333}, {"fusion_lat": 0.0, "type": "electric_scooter", "name": "109a38081f41dea26a75869d70b65a0e", "fusion_lon": 0.0, "bike_id": "109a38081f41dea26a75869d70b65a0e", "is_reserved": 0, "rental_uris": {"android": "https://dc.lft.to/lastmile_qr_scan", "ios": "https://dc.lft.to/lastmile_qr_scan"}, "lat": 38.948970833333334, "is_disabled": 0, "lon": -77.0064025}, {"fusion_lat": 0.0, "type": "electric_scooter", "name": "5e68c8b622ef1bafd3b9f2d472dfcb7b", "fusion_lon": 0.0, "bike_id": "5e68c8b622ef1bafd3b9f2d472dfcb7b", "is_reserved": 0, "rental_uris": {"android": "https://dc.lft.to/lastmile_qr_scan", "ios": "https://dc.lft.to/lastmile_qr_scan"}, "lat": 38.892208833333335, "is_disabled": 0, "lon": -77.04685233333333}, {"fusion_lat": 0.0, "type": "electric_scooter", "name": "706c427f50479777e536ab12e8dabcb7", "fusion_lon": 0.0, "bike_id": "706c427f50479777e536ab12e8dabcb7", "is_reserved": 0, "rental_uris": {"android": "https://dc.lft.to/lastmile_qr_scan", "ios": "https://dc.lft.to/lastmile_qr_scan"}, "lat": 38.9094965, "is_disabled": 0, "lon": -77.02714466666667}, {"fusion_lat": 0.0, "type": "electric_scooter", "name": "ec403de840b383a6aa22d57368d10dbb", "fusion_lon": 0.0, "bike_id": "ec403de840b383a6aa22d57368d10dbb", "is_reserved": 0, "rental_uris": {"android": "https://dc.lft.to/lastmile_qr_scan", "ios": "https://dc.lft.to/lastmile_qr_scan"}, "lat": 38.935364166666666, "is_disabled": 0, "lon": -77.0234375}, {"fusion_lat": 0.0, "type": "electric_bike", "name": "74d846027e8fd8dd1424cde4e0a3d430", "fusion_lon": 0.0, "bike_id": "74d846027e8fd8dd1424cde4e0a3d430", "is_reserved": 0, "rental_uris": {"android": "https://dc.lft.to/lastmile_qr_scan", "ios": "https://dc.lft.to/lastmile_qr_scan"}, "lat": 38.95419066666667, "is_disabled": 0, "lon": -76.93278}, {"fusion_lat": 0.0, "type": "electric_bike", "name": "f61cc7568667b4c5a855ff1a2eb6f335", "fusion_lon": 0.0, "bike_id": "f61cc7568667b4c5a855ff1a2eb6f335", "is_reserved": 0, "rental_uris": {"android": "https://dc.lft.to/lastmile_qr_scan", "ios": "https://dc.lft.to/lastmile_qr_scan"}, "lat": 38.86581133333333, "is_disabled": 0, "lon": -77.0475815}, {"fusion_lat": 0.0, "type": "electric_scooter", "name": "fe0724814f2a10cef227b228402a3786", "fusion_lon": 0.0, "bike_id": "fe0724814f2a10cef227b228402a3786", "is_reserved": 0, "rental_uris": {"android": "https://dc.lft.to/lastmile_qr_scan", "ios": "https://dc.lft.to/lastmile_qr_scan"}, "lat": 38.90565083333333, "is_disabled": 0, "lon": -77.04657116666667}, {"fusion_lat": 0.0, "type": "electric_scooter", "name": "4c7f7104e686a12e19639b9e2c1544f7", "fusion_lon": 0.0, "bike_id": "4c7f7104e686a12e19639b9e2c1544f7", "is_reserved": 0, "rental_uris": {"android": "https://dc.lft.to/lastmile_qr_scan", "ios": "https://dc.lft.to/lastmile_qr_scan"}, "lat": 38.918141, "is_disabled": 0, "lon": -77.02477466666667}, {"fusion_lat": 0.0, "type": "electric_scooter", "name": "4d23154836203c60145bae67ea4dddb1", "fusion_lon": 0.0, "bike_id": "4d23154836203c60145bae67ea4dddb1", "is_reserved": 0, "rental_uris": {"android": "https://dc.lft.to/lastmile_qr_scan", "ios": "https://dc.lft.to/lastmile_qr_scan"}, "lat": 38.90892683333333, "is_disabled": 0, "lon": -77.01882416666666}, {"fusion_lat": 0.0, "type": "electric_scooter", "name": "add6bdd1aac9aefaf1d8c03fa83acf13", "fusion_lon": 0.0, "bike_id": "add6bdd1aac9aefaf1d8c03fa83acf13", "is_reserved": 0, "rental_uris": {"android": "https://dc.lft.to/lastmile_qr_scan", "ios": "https://dc.lft.to/lastmile_qr_scan"}, "lat": 38.9225415, "is_disabled": 0, "lon": -77.042943}, {"fusion_lat": 0.0, "type": "electric_scooter", "name": "8f3e8d274024087d992a265abfb583ae", "fusion_lon": 0.0, "bike_id": "8f3e8d274024087d992a265abfb583ae", "is_reserved": 0, "rental_uris": {"android": "https://dc.lft.to/lastmile_qr_scan", "ios": "https://dc.lft.to/lastmile_qr_scan"}, "lat": 38.865033333333336, "is_disabled": 0, "lon": -76.99000616666666}, {"fusion_lat": 0.0, "type": "electric_scooter", "name": "53522c9e9bf23b7cb9cdac3e03720828", "fusion_lon": 0.0, "bike_id": "53522c9e9bf23b7cb9cdac3e03720828", "is_reserved": 0, "rental_uris": {"android": "https://dc.lft.to/lastmile_qr_scan", "ios": "https://dc.lft.to/lastmile_qr_scan"}, "lat": 38.874821833333336, "is_disabled": 0, "lon": -77.00867016666666}, {"fusion_lat": 0.0, "type": "electric_scooter", "name": "3caad0d4b8d90bb78f48998cb42c0f36", "fusion_lon": 0.0, "bike_id": "3caad0d4b8d90bb78f48998cb42c0f36", "is_reserved": 0, "rental_uris": {"android": "https://dc.lft.to/lastmile_qr_scan", "ios": "https://dc.lft.to/lastmile_qr_scan"}, "lat": 38.9305855, "is_disabled": 0, "lon": -77.03330083333333}, {"fusion_lat": 0.0, "type": "electric_bike", "name": "98f5e99d91ea7f681ac2426c4b2fe171", "fusion_lon": 0.0, "bike_id": "98f5e99d91ea7f681ac2426c4b2fe171", "is_reserved": 0, "rental_uris": {"android": "https://dc.lft.to/lastmile_qr_scan", "ios": "https://dc.lft.to/lastmile_qr_scan"}, "lat": 38.865133166666666, "is_disabled": 0, "lon": -76.97326783333334}, {"fusion_lat": 0.0, "type": "electric_scooter", "name": "966b3d683e57370009b426abbf4f21ad", "fusion_lon": 0.0, "bike_id": "966b3d683e57370009b426abbf4f21ad", "is_reserved": 0, "rental_uris": {"android": "https://dc.lft.to/lastmile_qr_scan", "ios": "https://dc.lft.to/lastmile_qr_scan"}, "lat": 38.9110495, "is_disabled": 0, "lon": -77.0383185}, {"fusion_lat": 0.0, "type": "electric_scooter", "name": "14e06c99f77075b09cc062dfc2a9be3d", "fusion_lon": 0.0, "bike_id": "14e06c99f77075b09cc062dfc2a9be3d", "is_reserved": 0, "rental_uris": {"android": "https://dc.lft.to/lastmile_qr_scan", "ios": "https://dc.lft.to/lastmile_qr_scan"}, "lat": 38.9395695, "is_disabled": 0, "lon": -77.07251333333333}, {"fusion_lat": 0.0, "type": "electric_scooter", "name": "6b0e12c8e5022ac036ededbf17303174", "fusion_lon": 0.0, "bike_id": "6b0e12c8e5022ac036ededbf17303174", "is_reserved": 0, "rental_uris": {"android": "https://dc.lft.to/lastmile_qr_scan", "ios": "https://dc.lft.to/lastmile_qr_scan"}, "lat": 38.942011666666666, "is_disabled": 0, "lon": -77.025}, {"fusion_lat": 0.0, "type": "electric_scooter", "name": "174bcd9e1f4f69e65dbca2ac23940e69", "fusion_lon": 0.0, "bike_id": "174bcd9e1f4f69e65dbca2ac23940e69", "is_reserved": 0, "rental_uris": {"android": "https://dc.lft.to/lastmile_qr_scan", "ios": "https://dc.lft.to/lastmile_qr_scan"}, "lat": 38.93906466666667, "is_disabled": 0, "lon": -77.02460133333334}, {"fusion_lat": 0.0, "type": "electric_scooter", "name": "28abaadc7db46b5bf8d2fa42778f4fbd", "fusion_lon": 0.0, "bike_id": "28abaadc7db46b5bf8d2fa42778f4fbd", "is_reserved": 0, "rental_uris": {"android": "https://dc.lft.to/lastmile_qr_scan", "ios": "https://dc.lft.to/lastmile_qr_scan"}, "lat": 38.887424, "is_disabled": 0, "lon": -77.027337}, {"fusion_lat": 0.0, "type": "electric_scooter", "name": "8bece752a9e30c3d31947b04248196b6", "fusion_lon": 0.0, "bike_id": "8bece752a9e30c3d31947b04248196b6", "is_reserved": 0, "rental_uris": {"android": "https://dc.lft.to/lastmile_qr_scan", "ios": "https://dc.lft.to/lastmile_qr_scan"}, "lat": 38.96025233333334, "is_disabled": 0, "lon": -77.08555833333334}, {"fusion_lat": 0.0, "type": "electric_scooter", "name": "bc648331e373849353dbb35ca4d68281", "fusion_lon": 0.0, "bike_id": "bc648331e373849353dbb35ca4d68281", "is_reserved": 0, "rental_uris": {"android": "https://dc.lft.to/lastmile_qr_scan", "ios": "https://dc.lft.to/lastmile_qr_scan"}, "lat": 38.929213833333336, "is_disabled": 0, "lon": -77.037542}, {"fusion_lat": 0.0, "type": "electric_scooter", "name": "cfc0d1d019693fda2f1975854a6237f4", "fusion_lon": 0.0, "bike_id": "cfc0d1d019693fda2f1975854a6237f4", "is_reserved": 0, "rental_uris": {"android": "https://dc.lft.to/lastmile_qr_scan", "ios": "https://dc.lft.to/lastmile_qr_scan"}, "lat": 38.9175655, "is_disabled": 0, "lon": -77.0313465}, {"fusion_lat": 0.0, "type": "electric_scooter", "name": "97fa65d5a06d0ef6901290258e5f100e", "fusion_lon": 0.0, "bike_id": "97fa65d5a06d0ef6901290258e5f100e", "is_reserved": 0, "rental_uris": {"android": "https://dc.lft.to/lastmile_qr_scan", "ios": "https://dc.lft.to/lastmile_qr_scan"}, "lat": 38.9072135, "is_disabled": 0, "lon": -77.03476033333334}, {"fusion_lat": 0.0, "type": "electric_scooter", "name": "0f91ef71d5756fea5c7919295b188342", "fusion_lon": 0.0, "bike_id": "0f91ef71d5756fea5c7919295b188342", "is_reserved": 0, "rental_uris": {"android": "https://dc.lft.to/lastmile_qr_scan", "ios": "https://dc.lft.to/lastmile_qr_scan"}, "lat": 38.9017105, "is_disabled": 0, "lon": -76.98075966666667}, {"fusion_lat": 0.0, "type": "electric_scooter", "name": "710f7c22cb7265b3ef0d38255d018e3b", "fusion_lon": 0.0, "bike_id": "710f7c22cb7265b3ef0d38255d018e3b", "is_reserved": 0, "rental_uris": {"android": "https://dc.lft.to/lastmile_qr_scan", "ios": "https://dc.lft.to/lastmile_qr_scan"}, "lat": 38.93494283333333, "is_disabled": 0, "lon": -77.02432233333333}, {"fusion_lat": 0.0, "type": "electric_scooter", "name": "7d27455a20f3803b4096bae376decb48", "fusion_lon": 0.0, "bike_id": "7d27455a20f3803b4096bae376decb48", "is_reserved": 0, "rental_uris": {"android": "https://dc.lft.to/lastmile_qr_scan", "ios": "https://dc.lft.to/lastmile_qr_scan"}, "lat": 38.89420783333333, "is_disabled": 0, "lon": -77.020937}, {"fusion_lat": 0.0, "type": "electric_scooter", "name": "5437b1e5a72d5213897d2d4eb12575b7", "fusion_lon": 0.0, "bike_id": "5437b1e5a72d5213897d2d4eb12575b7", "is_reserved": 0, "rental_uris": {"android": "https://dc.lft.to/lastmile_qr_scan", "ios": "https://dc.lft.to/lastmile_qr_scan"}, "lat": 38.9167735, "is_disabled": 0, "lon": -77.03212883333333}, {"fusion_lat": 0.0, "type": "electric_scooter", "name": "c7ee15dbab525ba3205fd251bdc6ab3a", "fusion_lon": 0.0, "bike_id": "c7ee15dbab525ba3205fd251bdc6ab3a", "is_reserved": 0, "rental_uris": {"android": "https://dc.lft.to/lastmile_qr_scan", "ios": "https://dc.lft.to/lastmile_qr_scan"}, "lat": 38.893133166666665, "is_disabled": 0, "lon": -76.95116166666666}, {"fusion_lat": 0.0, "type": "electric_scooter", "name": "32cd851c75b3b0e653b53ee1efacb63e", "fusion_lon": 0.0, "bike_id": "32cd851c75b3b0e653b53ee1efacb63e", "is_reserved": 0, "rental_uris": {"android": "https://dc.lft.to/lastmile_qr_scan", "ios": "https://dc.lft.to/lastmile_qr_scan"}, "lat": 38.91403833333333, "is_disabled": 0, "lon": -77.0323185}, {"fusion_lat": 0.0, "type": "electric_scooter", "name": "981128e7aeb06da3d0462addbdb8620a", "fusion_lon": 0.0, "bike_id": "981128e7aeb06da3d0462addbdb8620a", "is_reserved": 0, "rental_uris": {"android": "https://dc.lft.to/lastmile_qr_scan", "ios": "https://dc.lft.to/lastmile_qr_scan"}, "lat": 38.90966016666667, "is_disabled": 0, "lon": -77.03865583333334}, {"fusion_lat": 0.0, "type": "electric_scooter", "name": "1350076ed10c4ef87a96556d1c139d04", "fusion_lon": 0.0, "bike_id": "1350076ed10c4ef87a96556d1c139d04", "is_reserved": 0, "rental_uris": {"android": "https://dc.lft.to/lastmile_qr_scan", "ios": "https://dc.lft.to/lastmile_qr_scan"}, "lat": 38.9418175, "is_disabled": 0, "lon": -77.02537283333334}, {"fusion_lat": 0.0, "type": "electric_scooter", "name": "c556870856afb9fbe5ab182440e92117", "fusion_lon": 0.0, "bike_id": "c556870856afb9fbe5ab182440e92117", "is_reserved": 0, "rental_uris": {"android": "https://dc.lft.to/lastmile_qr_scan", "ios": "https://dc.lft.to/lastmile_qr_scan"}, "lat": 38.896128, "is_disabled": 0, "lon": -76.99296933333333}, {"fusion_lat": 0.0, "type": "electric_scooter", "name": "09c43df582d3de79af9b382f31d89d86", "fusion_lon": 0.0, "bike_id": "09c43df582d3de79af9b382f31d89d86", "is_reserved": 0, "rental_uris": {"android": "https://dc.lft.to/lastmile_qr_scan", "ios": "https://dc.lft.to/lastmile_qr_scan"}, "lat": 38.884233333333334, "is_disabled": 0, "lon": -77.030493}, {"fusion_lat": 0.0, "type": "electric_scooter", "name": "01d523390986a4b17667119acb30d2b1", "fusion_lon": 0.0, "bike_id": "01d523390986a4b17667119acb30d2b1", "is_reserved": 0, "rental_uris": {"android": "https://dc.lft.to/lastmile_qr_scan", "ios": "https://dc.lft.to/lastmile_qr_scan"}, "lat": 38.91674033333334, "is_disabled": 0, "lon": -77.03689683333333}, {"fusion_lat": 0.0, "type": "electric_scooter", "name": "e21009cf4af0ec0c3911f5b3e360debd", "fusion_lon": 0.0, "bike_id": "e21009cf4af0ec0c3911f5b3e360debd", "is_reserved": 0, "rental_uris": {"android": "https://dc.lft.to/lastmile_qr_scan", "ios": "https://dc.lft.to/lastmile_qr_scan"}, "lat": 38.8921865, "is_disabled": 0, "lon": -77.031612}, {"fusion_lat": 0.0, "type": "electric_scooter", "name": "b18c8e930e53b5a0073d85ef74976ca8", "fusion_lon": 0.0, "bike_id": "b18c8e930e53b5a0073d85ef74976ca8", "is_reserved": 0, "rental_uris": {"android": "https://dc.lft.to/lastmile_qr_scan", "ios": "https://dc.lft.to/lastmile_qr_scan"}, "lat": 38.9146995, "is_disabled": 0, "lon": -77.0218265}, {"fusion_lat": 0.0, "type": "electric_scooter", "name": "01b6fc2e30408436b13916433b5cb6fe", "fusion_lon": 0.0, "bike_id": "01b6fc2e30408436b13916433b5cb6fe", "is_reserved": 0, "rental_uris": {"android": "https://dc.lft.to/lastmile_qr_scan", "ios": "https://dc.lft.to/lastmile_qr_scan"}, "lat": 38.889905, "is_disabled": 0, "lon": -76.93111366666666}, {"fusion_lat": 0.0, "type": "electric_scooter", "name": "1283e7f3586a1fb2376795b0f56ec0c4", "fusion_lon": 0.0, "bike_id": "1283e7f3586a1fb2376795b0f56ec0c4", "is_reserved": 0, "rental_uris": {"android": "https://dc.lft.to/lastmile_qr_scan", "ios": "https://dc.lft.to/lastmile_qr_scan"}, "lat": 38.903327833333336, "is_disabled": 0, "lon": -77.03314333333333}, {"fusion_lat": 0.0, "type": "electric_scooter", "name": "16a5792d9f612437aaeef323bba8adbe", "fusion_lon": 0.0, "bike_id": "16a5792d9f612437aaeef323bba8adbe", "is_reserved": 0, "rental_uris": {"android": "https://dc.lft.to/lastmile_qr_scan", "ios": "https://dc.lft.to/lastmile_qr_scan"}, "lat": 38.94066683333333, "is_disabled": 0, "lon": -77.02530166666666}, {"fusion_lat": 0.0, "type": "electric_scooter", "name": "3c8ecf864a49b089646e5220b8a15e1f", "fusion_lon": 0.0, "bike_id": "3c8ecf864a49b089646e5220b8a15e1f", "is_reserved": 0, "rental_uris": {"android": "https://dc.lft.to/lastmile_qr_scan", "ios": "https://dc.lft.to/lastmile_qr_scan"}, "lat": 38.91793, "is_disabled": 0, "lon": -77.040378}, {"fusion_lat": 0.0, "type": "electric_scooter", "name": "eb46f715da4f50882c2060ec779bef1d", "fusion_lon": 0.0, "bike_id": "eb46f715da4f50882c2060ec779bef1d", "is_reserved": 0, "rental_uris": {"android": "https://dc.lft.to/lastmile_qr_scan", "ios": "https://dc.lft.to/lastmile_qr_scan"}, "lat": 38.919220833333334, "is_disabled": 0, "lon": -77.03259466666667}, {"fusion_lat": 0.0, "type": "electric_scooter", "name": "f9036053c00c596cac3d50063e8c5f60", "fusion_lon": 0.0, "bike_id": "f9036053c00c596cac3d50063e8c5f60", "is_reserved": 0, "rental_uris": {"android": "https://dc.lft.to/lastmile_qr_scan", "ios": "https://dc.lft.to/lastmile_qr_scan"}, "lat": 38.91126783333333, "is_disabled": 0, "lon": -77.04423}, {"fusion_lat": 0.0, "type": "electric_scooter", "name": "1ead7f95e11618103975e4219976f07d", "fusion_lon": 0.0, "bike_id": "1ead7f95e11618103975e4219976f07d", "is_reserved": 0, "rental_uris": {"android": "https://dc.lft.to/lastmile_qr_scan", "ios": "https://dc.lft.to/lastmile_qr_scan"}, "lat": 38.9420005, "is_disabled": 0, "lon": -77.02502683333333}, {"fusion_lat": 0.0, "type": "electric_scooter", "name": "ba38cdd86bda36b0613e7f8a772e0eb1", "fusion_lon": 0.0, "bike_id": "ba38cdd86bda36b0613e7f8a772e0eb1", "is_reserved": 0, "rental_uris": {"android": "https://dc.lft.to/lastmile_qr_scan", "ios": "https://dc.lft.to/lastmile_qr_scan"}, "lat": 38.865017, "is_disabled": 0, "lon": -76.99001766666666}, {"fusion_lat": 0.0, "type": "electric_scooter", "name": "da9dfaf9df2742d998342615e9396303", "fusion_lon": 0.0, "bike_id": "da9dfaf9df2742d998342615e9396303", "is_reserved": 0, "rental_uris": {"android": "https://dc.lft.to/lastmile_qr_scan", "ios": "https://dc.lft.to/lastmile_qr_scan"}, "lat": 38.928863666666665, "is_disabled": 0, "lon": -77.01941183333334}, {"fusion_lat": 0.0, "type": "electric_scooter", "name": "c4e8e3d5e8c9e9dacc5ea9889267a1fc", "fusion_lon": 0.0, "bike_id": "c4e8e3d5e8c9e9dacc5ea9889267a1fc", "is_reserved": 0, "rental_uris": {"android": "https://dc.lft.to/lastmile_qr_scan", "ios": "https://dc.lft.to/lastmile_qr_scan"}, "lat": 38.89876983333333, "is_disabled": 0, "lon": -76.93189083333333}, {"fusion_lat": 0.0, "type": "electric_bike", "name": "65fe5ba04bc8294597bc9628499534f6", "fusion_lon": 0.0, "bike_id": "65fe5ba04bc8294597bc9628499534f6", "is_reserved": 0, "rental_uris": {"android": "https://dc.lft.to/lastmile_qr_scan", "ios": "https://dc.lft.to/lastmile_qr_scan"}, "lat": 38.95757733333333, "is_disabled": 0, "lon": -77.00708966666667}, {"fusion_lat": 0.0, "type": "electric_scooter", "name": "0af9b0afd76fba67b53cc49dc23965fa", "fusion_lon": 0.0, "bike_id": "0af9b0afd76fba67b53cc49dc23965fa", "is_reserved": 0, "rental_uris": {"android": "https://dc.lft.to/lastmile_qr_scan", "ios": "https://dc.lft.to/lastmile_qr_scan"}, "lat": 38.936038333333336, "is_disabled": 0, "lon": -77.05896866666667}, {"fusion_lat": 0.0, "type": "electric_scooter", "name": "bebd12859e22177052cfa7dd13e6cf11", "fusion_lon": 0.0, "bike_id": "bebd12859e22177052cfa7dd13e6cf11", "is_reserved": 0, "rental_uris": {"android": "https://dc.lft.to/lastmile_qr_scan", "ios": "https://dc.lft.to/lastmile_qr_scan"}, "lat": 38.949849666666665, "is_disabled": 0, "lon": -77.02711633333334}, {"fusion_lat": 0.0, "type": "electric_scooter", "name": "00df5e6a4e162d55e82145e3d5ed231e", "fusion_lon": 0.0, "bike_id": "00df5e6a4e162d55e82145e3d5ed231e", "is_reserved": 0, "rental_uris": {"android": "https://dc.lft.to/lastmile_qr_scan", "ios": "https://dc.lft.to/lastmile_qr_scan"}, "lat": 38.90157983333334, "is_disabled": 0, "lon": -77.051077}, {"fusion_lat": 0.0, "type": "electric_scooter", "name": "7eefebb8b3a03f5cd9e70b04ced70140", "fusion_lon": 0.0, "bike_id": "7eefebb8b3a03f5cd9e70b04ced70140", "is_reserved": 0, "rental_uris": {"android": "https://dc.lft.to/lastmile_qr_scan", "ios": "https://dc.lft.to/lastmile_qr_scan"}, "lat": 38.8860415, "is_disabled": 0, "lon": -77.019875}, {"fusion_lat": 0.0, "type": "electric_scooter", "name": "d45aa9e2e6dad827f620c53564823679", "fusion_lon": 0.0, "bike_id": "d45aa9e2e6dad827f620c53564823679", "is_reserved": 0, "rental_uris": {"android": "https://dc.lft.to/lastmile_qr_scan", "ios": "https://dc.lft.to/lastmile_qr_scan"}, "lat": 38.87186033333333, "is_disabled": 0, "lon": -77.00582483333334}, {"fusion_lat": 0.0, "type": "electric_scooter", "name": "575b04efbc04a1ff07f61d35d7caa5a8", "fusion_lon": 0.0, "bike_id": "575b04efbc04a1ff07f61d35d7caa5a8", "is_reserved": 0, "rental_uris": {"android": "https://dc.lft.to/lastmile_qr_scan", "ios": "https://dc.lft.to/lastmile_qr_scan"}, "lat": 38.8950635, "is_disabled": 0, "lon": -76.94889066666667}, {"fusion_lat": 0.0, "type": "electric_scooter", "name": "f2762f310b0234918947ca5fd221cb9c", "fusion_lon": 0.0, "bike_id": "f2762f310b0234918947ca5fd221cb9c", "is_reserved": 0, "rental_uris": {"android": "https://dc.lft.to/lastmile_qr_scan", "ios": "https://dc.lft.to/lastmile_qr_scan"}, "lat": 38.9097305, "is_disabled": 0, "lon": -77.03866733333334}, {"fusion_lat": 0.0, "type": "electric_scooter", "name": "a61655244cdcb3e19d496bc80a0ed704", "fusion_lon": 0.0, "bike_id": "a61655244cdcb3e19d496bc80a0ed704", "is_reserved": 0, "rental_uris": {"android": "https://dc.lft.to/lastmile_qr_scan", "ios": "https://dc.lft.to/lastmile_qr_scan"}, "lat": 38.90654283333333, "is_disabled": 0, "lon": -77.03869983333334}, {"fusion_lat": 0.0, "type": "electric_scooter", "name": "e7403d1346de30912b3de716dc1b1fdd", "fusion_lon": 0.0, "bike_id": "e7403d1346de30912b3de716dc1b1fdd", "is_reserved": 0, "rental_uris": {"android": "https://dc.lft.to/lastmile_qr_scan", "ios": "https://dc.lft.to/lastmile_qr_scan"}, "lat": 38.887951, "is_disabled": 0, "lon": -76.9335405}, {"fusion_lat": 0.0, "type": "electric_scooter", "name": "6a88dcc6ff3f4a75b330cadd72ad2fb5", "fusion_lon": 0.0, "bike_id": "6a88dcc6ff3f4a75b330cadd72ad2fb5", "is_reserved": 0, "rental_uris": {"android": "https://dc.lft.to/lastmile_qr_scan", "ios": "https://dc.lft.to/lastmile_qr_scan"}, "lat": 38.91546833333334, "is_disabled": 0, "lon": -77.0254935}, {"fusion_lat": 0.0, "type": "electric_scooter", "name": "4e82536be18985295ec1d6e287d11431", "fusion_lon": 0.0, "bike_id": "4e82536be18985295ec1d6e287d11431", "is_reserved": 0, "rental_uris": {"android": "https://dc.lft.to/lastmile_qr_scan", "ios": "https://dc.lft.to/lastmile_qr_scan"}, "lat": 38.917593, "is_disabled": 0, "lon": -77.03209916666667}, {"fusion_lat": 0.0, "type": "electric_scooter", "name": "0295e64e8ebab153a2b2b87930bb4b55", "fusion_lon": 0.0, "bike_id": "0295e64e8ebab153a2b2b87930bb4b55", "is_reserved": 0, "rental_uris": {"android": "https://dc.lft.to/lastmile_qr_scan", "ios": "https://dc.lft.to/lastmile_qr_scan"}, "lat": 38.909690166666664, "is_disabled": 0, "lon": -77.03472233333333}, {"fusion_lat": 0.0, "type": "electric_scooter", "name": "34bfe3b34de6c8089c685d5ba9f45673", "fusion_lon": 0.0, "bike_id": "34bfe3b34de6c8089c685d5ba9f45673", "is_reserved": 0, "rental_uris": {"android": "https://dc.lft.to/lastmile_qr_scan", "ios": "https://dc.lft.to/lastmile_qr_scan"}, "lat": 38.91805016666667, "is_disabled": 0, "lon": -77.03443883333334}, {"fusion_lat": 0.0, "type": "electric_scooter", "name": "65fac84c43a7c1773b215b438a06d67f", "fusion_lon": 0.0, "bike_id": "65fac84c43a7c1773b215b438a06d67f", "is_reserved": 0, "rental_uris": {"android": "https://dc.lft.to/lastmile_qr_scan", "ios": "https://dc.lft.to/lastmile_qr_scan"}, "lat": 38.87623333333333, "is_disabled": 0, "lon": -77.0056305}, {"fusion_lat": 0.0, "type": "electric_scooter", "name": "b53b68deddcaf22e2bd7b09ea278fc24", "fusion_lon": 0.0, "bike_id": "b53b68deddcaf22e2bd7b09ea278fc24", "is_reserved": 0, "rental_uris": {"android": "https://dc.lft.to/lastmile_qr_scan", "ios": "https://dc.lft.to/lastmile_qr_scan"}, "lat": 38.92238416666667, "is_disabled": 0, "lon": -77.03090566666667}, {"fusion_lat": 0.0, "type": "electric_scooter", "name": "3e07dcc3c50e439f06cac66103a3efaf", "fusion_lon": 0.0, "bike_id": "3e07dcc3c50e439f06cac66103a3efaf", "is_reserved": 0, "rental_uris": {"android": "https://dc.lft.to/lastmile_qr_scan", "ios": "https://dc.lft.to/lastmile_qr_scan"}, "lat": 38.835605666666666, "is_disabled": 0, "lon": -76.99496983333333}, {"fusion_lat": 0.0, "type": "electric_scooter", "name": "d039f1bb14db380b55553a8be92a971d", "fusion_lon": 0.0, "bike_id": "d039f1bb14db380b55553a8be92a971d", "is_reserved": 0, "rental_uris": {"android": "https://dc.lft.to/lastmile_qr_scan", "ios": "https://dc.lft.to/lastmile_qr_scan"}, "lat": 38.900606833333335, "is_disabled": 0, "lon": -76.92744083333334}, {"fusion_lat": 0.0, "type": "electric_scooter", "name": "c6e80f530f0553684b114e514383415b", "fusion_lon": 0.0, "bike_id": "c6e80f530f0553684b114e514383415b", "is_reserved": 0, "rental_uris": {"android": "https://dc.lft.to/lastmile_qr_scan", "ios": "https://dc.lft.to/lastmile_qr_scan"}, "lat": 38.90137266666667, "is_disabled": 0, "lon": -77.03243716666667}, {"fusion_lat": 0.0, "type": "electric_scooter", "name": "5214c167e251fa6dad8f8aa9ee031da7", "fusion_lon": 0.0, "bike_id": "5214c167e251fa6dad8f8aa9ee031da7", "is_reserved": 0, "rental_uris": {"android": "https://dc.lft.to/lastmile_qr_scan", "ios": "https://dc.lft.to/lastmile_qr_scan"}, "lat": 38.8997705, "is_disabled": 0, "lon": -77.048213}, {"fusion_lat": 0.0, "type": "electric_scooter", "name": "518484052f5bcf0eb62ddeff50e5e796", "fusion_lon": 0.0, "bike_id": "518484052f5bcf0eb62ddeff50e5e796", "is_reserved": 0, "rental_uris": {"android": "https://dc.lft.to/lastmile_qr_scan", "ios": "https://dc.lft.to/lastmile_qr_scan"}, "lat": 38.88327316666667, "is_disabled": 0, "lon": -76.99224466666666}, {"fusion_lat": 0.0, "type": "electric_scooter", "name": "65b046a7851bbefb8a2b4fc5ead2570b", "fusion_lon": 0.0, "bike_id": "65b046a7851bbefb8a2b4fc5ead2570b", "is_reserved": 0, "rental_uris": {"android": "https://dc.lft.to/lastmile_qr_scan", "ios": "https://dc.lft.to/lastmile_qr_scan"}, "lat": 38.93918583333333, "is_disabled": 0, "lon": -77.03265183333333}, {"fusion_lat": 0.0, "type": "electric_scooter", "name": "89d4a29b50f6a840c10bd02172223d50", "fusion_lon": 0.0, "bike_id": "89d4a29b50f6a840c10bd02172223d50", "is_reserved": 0, "rental_uris": {"android": "https://dc.lft.to/lastmile_qr_scan", "ios": "https://dc.lft.to/lastmile_qr_scan"}, "lat": 38.92470683333333, "is_disabled": 0, "lon": -77.02218833333333}, {"fusion_lat": 0.0, "type": "electric_scooter", "name": "1fa6c9c8487b972ed69d8a7f1a64180f", "fusion_lon": 0.0, "bike_id": "1fa6c9c8487b972ed69d8a7f1a64180f", "is_reserved": 0, "rental_uris": {"android": "https://dc.lft.to/lastmile_qr_scan", "ios": "https://dc.lft.to/lastmile_qr_scan"}, "lat": 38.921195166666664, "is_disabled": 0, "lon": -77.03239466666666}, {"fusion_lat": 0.0, "type": "electric_scooter", "name": "5a363654fad90ceaedd0b3b423364238", "fusion_lon": 0.0, "bike_id": "5a363654fad90ceaedd0b3b423364238", "is_reserved": 0, "rental_uris": {"android": "https://dc.lft.to/lastmile_qr_scan", "ios": "https://dc.lft.to/lastmile_qr_scan"}, "lat": 38.93990333333333, "is_disabled": 0, "lon": -77.02889233333333}, {"fusion_lat": 0.0, "type": "electric_scooter", "name": "56f678fdb42c402a547e7be5a98803ac", "fusion_lon": 0.0, "bike_id": "56f678fdb42c402a547e7be5a98803ac", "is_reserved": 0, "rental_uris": {"android": "https://dc.lft.to/lastmile_qr_scan", "ios": "https://dc.lft.to/lastmile_qr_scan"}, "lat": 38.91930033333333, "is_disabled": 0, "lon": -77.04488983333333}, {"fusion_lat": 0.0, "type": "electric_scooter", "name": "a3e1b8d24ced931b4f72ac4a13de8e2c", "fusion_lon": 0.0, "bike_id": "a3e1b8d24ced931b4f72ac4a13de8e2c", "is_reserved": 0, "rental_uris": {"android": "https://dc.lft.to/lastmile_qr_scan", "ios": "https://dc.lft.to/lastmile_qr_scan"}, "lat": 38.90939233333334, "is_disabled": 0, "lon": -77.04425033333334}, {"fusion_lat": 0.0, "type": "electric_scooter", "name": "9044d338f1c7acface840a17eb56e3c9", "fusion_lon": 0.0, "bike_id": "9044d338f1c7acface840a17eb56e3c9", "is_reserved": 0, "rental_uris": {"android": "https://dc.lft.to/lastmile_qr_scan", "ios": "https://dc.lft.to/lastmile_qr_scan"}, "lat": 38.90718, "is_disabled": 0, "lon": -77.02540933333333}, {"fusion_lat": 0.0, "type": "electric_scooter", "name": "5341cdf3e58ab5a3018ac5a6dc88b7cc", "fusion_lon": 0.0, "bike_id": "5341cdf3e58ab5a3018ac5a6dc88b7cc", "is_reserved": 0, "rental_uris": {"android": "https://dc.lft.to/lastmile_qr_scan", "ios": "https://dc.lft.to/lastmile_qr_scan"}, "lat": 38.945992, "is_disabled": 0, "lon": -77.02668416666667}, {"fusion_lat": 0.0, "type": "electric_bike", "name": "3ae96992c1edd13336ebc869d6e403ad", "fusion_lon": 0.0, "bike_id": "3ae96992c1edd13336ebc869d6e403ad", "is_reserved": 0, "rental_uris": {"android": "https://dc.lft.to/lastmile_qr_scan", "ios": "https://dc.lft.to/lastmile_qr_scan"}, "lat": 39.02436016666667, "is_disabled": 0, "lon": -77.13097233333333}, {"fusion_lat": 0.0, "type": "electric_scooter", "name": "8d320836e408a0a456aa007a566ce88c", "fusion_lon": 0.0, "bike_id": "8d320836e408a0a456aa007a566ce88c", "is_reserved": 0, "rental_uris": {"android": "https://dc.lft.to/lastmile_qr_scan", "ios": "https://dc.lft.to/lastmile_qr_scan"}, "lat": 38.857507, "is_disabled": 0, "lon": -76.993054}, {"fusion_lat": 0.0, "type": "electric_scooter", "name": "dbc6283fb9cb6209d762e0b06f22a04f", "fusion_lon": 0.0, "bike_id": "dbc6283fb9cb6209d762e0b06f22a04f", "is_reserved": 0, "rental_uris": {"android": "https://dc.lft.to/lastmile_qr_scan", "ios": "https://dc.lft.to/lastmile_qr_scan"}, "lat": 38.924117833333334, "is_disabled": 0, "lon": -77.035407}, {"fusion_lat": 0.0, "type": "electric_scooter", "name": "a5c6179a4ced112636e9f96a2a6d724a", "fusion_lon": 0.0, "bike_id": "a5c6179a4ced112636e9f96a2a6d724a", "is_reserved": 0, "rental_uris": {"android": "https://dc.lft.to/lastmile_qr_scan", "ios": "https://dc.lft.to/lastmile_qr_scan"}, "lat": 38.917412666666664, "is_disabled": 0, "lon": -77.01085516666667}, {"fusion_lat": 0.0, "type": "electric_bike", "name": "418c89f08973722857ec02c297b7d504", "fusion_lon": 0.0, "bike_id": "418c89f08973722857ec02c297b7d504", "is_reserved": 0, "rental_uris": {"android": "https://dc.lft.to/lastmile_qr_scan", "ios": "https://dc.lft.to/lastmile_qr_scan"}, "lat": 38.93968783333333, "is_disabled": 0, "lon": -76.98616066666666}, {"fusion_lat": 0.0, "type": "electric_scooter", "name": "c188124b36f4fe7eb1ec10c9b73c68fd", "fusion_lon": 0.0, "bike_id": "c188124b36f4fe7eb1ec10c9b73c68fd", "is_reserved": 0, "rental_uris": {"android": "https://dc.lft.to/lastmile_qr_scan", "ios": "https://dc.lft.to/lastmile_qr_scan"}, "lat": 38.885946833333335, "is_disabled": 0, "lon": -76.99147333333333}, {"fusion_lat": 0.0, "type": "electric_scooter", "name": "59152065ad51125c5cccdf0212d242a2", "fusion_lon": 0.0, "bike_id": "59152065ad51125c5cccdf0212d242a2", "is_reserved": 0, "rental_uris": {"android": "https://dc.lft.to/lastmile_qr_scan", "ios": "https://dc.lft.to/lastmile_qr_scan"}, "lat": 38.91588866666667, "is_disabled": 0, "lon": -77.04168366666667}, {"fusion_lat": 0.0, "type": "electric_scooter", "name": "60da1009c8d13d27c80133279d46d26f", "fusion_lon": 0.0, "bike_id": "60da1009c8d13d27c80133279d46d26f", "is_reserved": 0, "rental_uris": {"android": "https://dc.lft.to/lastmile_qr_scan", "ios": "https://dc.lft.to/lastmile_qr_scan"}, "lat": 38.922480666666665, "is_disabled": 0, "lon": -77.0723455}, {"fusion_lat": 0.0, "type": "electric_scooter", "name": "0be8f08fe659c322f199f910e84314c4", "fusion_lon": 0.0, "bike_id": "0be8f08fe659c322f199f910e84314c4", "is_reserved": 0, "rental_uris": {"android": "https://dc.lft.to/lastmile_qr_scan", "ios": "https://dc.lft.to/lastmile_qr_scan"}, "lat": 38.9103455, "is_disabled": 0, "lon": -77.03683016666666}, {"fusion_lat": 0.0, "type": "electric_scooter", "name": "068df125ac14a69c3c152b8dfae8bbf3", "fusion_lon": 0.0, "bike_id": "068df125ac14a69c3c152b8dfae8bbf3", "is_reserved": 0, "rental_uris": {"android": "https://dc.lft.to/lastmile_qr_scan", "ios": "https://dc.lft.to/lastmile_qr_scan"}, "lat": 38.91884, "is_disabled": 0, "lon": -77.023077}, {"fusion_lat": 0.0, "type": "electric_scooter", "name": "7b59ff1ee6ac1b81e25a3493de40096d", "fusion_lon": 0.0, "bike_id": "7b59ff1ee6ac1b81e25a3493de40096d", "is_reserved": 0, "rental_uris": {"android": "https://dc.lft.to/lastmile_qr_scan", "ios": "https://dc.lft.to/lastmile_qr_scan"}, "lat": 38.923173, "is_disabled": 0, "lon": -77.03406683333333}, {"fusion_lat": 0.0, "type": "electric_scooter", "name": "2ae9610f00a0b2a18dd6302fdf2516ef", "fusion_lon": 0.0, "bike_id": "2ae9610f00a0b2a18dd6302fdf2516ef", "is_reserved": 0, "rental_uris": {"android": "https://dc.lft.to/lastmile_qr_scan", "ios": "https://dc.lft.to/lastmile_qr_scan"}, "lat": 38.88043433333333, "is_disabled": 0, "lon": -77.03063716666666}, {"fusion_lat": 0.0, "type": "electric_scooter", "name": "293e440f99dcd448bb680cd1de4f198f", "fusion_lon": 0.0, "bike_id": "293e440f99dcd448bb680cd1de4f198f", "is_reserved": 0, "rental_uris": {"android": "https://dc.lft.to/lastmile_qr_scan", "ios": "https://dc.lft.to/lastmile_qr_scan"}, "lat": 38.91435166666667, "is_disabled": 0, "lon": -77.01710316666667}, {"fusion_lat": 0.0, "type": "electric_scooter", "name": "bd4a6acc43d0b93732844b650f6588a3", "fusion_lon": 0.0, "bike_id": "bd4a6acc43d0b93732844b650f6588a3", "is_reserved": 0, "rental_uris": {"android": "https://dc.lft.to/lastmile_qr_scan", "ios": "https://dc.lft.to/lastmile_qr_scan"}, "lat": 38.92904433333333, "is_disabled": 0, "lon": -77.03748716666666}, {"fusion_lat": 0.0, "type": "electric_scooter", "name": "03d89783f59433611c7cdb3ebc0f361a", "fusion_lon": 0.0, "bike_id": "03d89783f59433611c7cdb3ebc0f361a", "is_reserved": 0, "rental_uris": {"android": "https://dc.lft.to/lastmile_qr_scan", "ios": "https://dc.lft.to/lastmile_qr_scan"}, "lat": 38.8922505, "is_disabled": 0, "lon": -77.02620383333333}, {"fusion_lat": 0.0, "type": "electric_scooter", "name": "2342fe4718aa621b4dfd722c7aa53ca6", "fusion_lon": 0.0, "bike_id": "2342fe4718aa621b4dfd722c7aa53ca6", "is_reserved": 0, "rental_uris": {"android": "https://dc.lft.to/lastmile_qr_scan", "ios": "https://dc.lft.to/lastmile_qr_scan"}, "lat": 38.930353833333335, "is_disabled": 0, "lon": -77.03800983333333}, {"fusion_lat": 0.0, "type": "electric_scooter", "name": "1b378dad1018ee5fc6572cdea27006cc", "fusion_lon": 0.0, "bike_id": "1b378dad1018ee5fc6572cdea27006cc", "is_reserved": 0, "rental_uris": {"android": "https://dc.lft.to/lastmile_qr_scan", "ios": "https://dc.lft.to/lastmile_qr_scan"}, "lat": 38.88020816666667, "is_disabled": 0, "lon": -77.02657983333333}, {"fusion_lat": 0.0, "type": "electric_bike", "name": "19133a340768fca4ff852b571ed649bb", "fusion_lon": 0.0, "bike_id": "19133a340768fca4ff852b571ed649bb", "is_reserved": 0, "rental_uris": {"android": "https://dc.lft.to/lastmile_qr_scan", "ios": "https://dc.lft.to/lastmile_qr_scan"}, "lat": 38.88718016666667, "is_disabled": 0, "lon": -77.13305783333334}, {"fusion_lat": 0.0, "type": "electric_scooter", "name": "a7f84a91188f4162fe0b95b3996f45ad", "fusion_lon": 0.0, "bike_id": "a7f84a91188f4162fe0b95b3996f45ad", "is_reserved": 0, "rental_uris": {"android": "https://dc.lft.to/lastmile_qr_scan", "ios": "https://dc.lft.to/lastmile_qr_scan"}, "lat": 38.93764483333333, "is_disabled": 0, "lon": -77.02196216666667}, {"fusion_lat": 0.0, "type": "electric_scooter", "name": "a9f79e106e00ca1607ecaa43a3331a03", "fusion_lon": 0.0, "bike_id": "a9f79e106e00ca1607ecaa43a3331a03", "is_reserved": 0, "rental_uris": {"android": "https://dc.lft.to/lastmile_qr_scan", "ios": "https://dc.lft.to/lastmile_qr_scan"}, "lat": 38.9095765, "is_disabled": 0, "lon": -77.03631933333334}, {"fusion_lat": 0.0, "type": "electric_scooter", "name": "ba30413d561d11fef8f4d16915e521c7", "fusion_lon": 0.0, "bike_id": "ba30413d561d11fef8f4d16915e521c7", "is_reserved": 0, "rental_uris": {"android": "https://dc.lft.to/lastmile_qr_scan", "ios": "https://dc.lft.to/lastmile_qr_scan"}, "lat": 38.91420183333334, "is_disabled": 0, "lon": -77.02592416666667}, {"fusion_lat": 0.0, "type": "electric_scooter", "name": "0e0db4bf228ffc7b3872112cd9571354", "fusion_lon": 0.0, "bike_id": "0e0db4bf228ffc7b3872112cd9571354", "is_reserved": 0, "rental_uris": {"android": "https://dc.lft.to/lastmile_qr_scan", "ios": "https://dc.lft.to/lastmile_qr_scan"}, "lat": 38.883093, "is_disabled": 0, "lon": -77.01751366666667}, {"fusion_lat": 0.0, "type": "electric_scooter", "name": "d5d7551df167c484a569e666a73abf7e", "fusion_lon": 0.0, "bike_id": "d5d7551df167c484a569e666a73abf7e", "is_reserved": 0, "rental_uris": {"android": "https://dc.lft.to/lastmile_qr_scan", "ios": "https://dc.lft.to/lastmile_qr_scan"}, "lat": 38.90812183333333, "is_disabled": 0, "lon": -77.0435305}, {"fusion_lat": 0.0, "type": "electric_scooter", "name": "559aa8c61c49357756ce0f855115df67", "fusion_lon": 0.0, "bike_id": "559aa8c61c49357756ce0f855115df67", "is_reserved": 0, "rental_uris": {"android": "https://dc.lft.to/lastmile_qr_scan", "ios": "https://dc.lft.to/lastmile_qr_scan"}, "lat": 38.9241295, "is_disabled": 0, "lon": -77.04462916666667}, {"fusion_lat": 0.0, "type": "electric_scooter", "name": "3e3badc61729925974d0777d0eb5c516", "fusion_lon": 0.0, "bike_id": "3e3badc61729925974d0777d0eb5c516", "is_reserved": 0, "rental_uris": {"android": "https://dc.lft.to/lastmile_qr_scan", "ios": "https://dc.lft.to/lastmile_qr_scan"}, "lat": 38.92755366666667, "is_disabled": 0, "lon": -77.03284383333333}, {"fusion_lat": 0.0, "type": "electric_scooter", "name": "ab55506d1fdf6e4f1bb4f6abc806458b", "fusion_lon": 0.0, "bike_id": "ab55506d1fdf6e4f1bb4f6abc806458b", "is_reserved": 0, "rental_uris": {"android": "https://dc.lft.to/lastmile_qr_scan", "ios": "https://dc.lft.to/lastmile_qr_scan"}, "lat": 38.92266166666667, "is_disabled": 0, "lon": -77.03675733333333}, {"fusion_lat": 0.0, "type": "electric_scooter", "name": "5e5b840a60a8131fa51a806d270340bf", "fusion_lon": 0.0, "bike_id": "5e5b840a60a8131fa51a806d270340bf", "is_reserved": 0, "rental_uris": {"android": "https://dc.lft.to/lastmile_qr_scan", "ios": "https://dc.lft.to/lastmile_qr_scan"}, "lat": 38.91884133333333, "is_disabled": 0, "lon": -77.04831}, {"fusion_lat": 0.0, "type": "electric_scooter", "name": "21fa5663cb28451bc44471a866118d6e", "fusion_lon": 0.0, "bike_id": "21fa5663cb28451bc44471a866118d6e", "is_reserved": 0, "rental_uris": {"android": "https://dc.lft.to/lastmile_qr_scan", "ios": "https://dc.lft.to/lastmile_qr_scan"}, "lat": 38.92069566666667, "is_disabled": 0, "lon": -77.02306633333333}, {"fusion_lat": 0.0, "type": "electric_scooter", "name": "fcbfb19afc7f5b3803d51703d826da99", "fusion_lon": 0.0, "bike_id": "fcbfb19afc7f5b3803d51703d826da99", "is_reserved": 0, "rental_uris": {"android": "https://dc.lft.to/lastmile_qr_scan", "ios": "https://dc.lft.to/lastmile_qr_scan"}, "lat": 38.9579045, "is_disabled": 0, "lon": -77.02008916666666}, {"fusion_lat": 0.0, "type": "electric_scooter", "name": "09f97403204ae176f7e00fa19cbab81b", "fusion_lon": 0.0, "bike_id": "09f97403204ae176f7e00fa19cbab81b", "is_reserved": 0, "rental_uris": {"android": "https://dc.lft.to/lastmile_qr_scan", "ios": "https://dc.lft.to/lastmile_qr_scan"}, "lat": 38.923573833333336, "is_disabled": 0, "lon": -76.99373816666667}, {"fusion_lat": 0.0, "type": "electric_scooter", "name": "782464cc63589b2625d734343f3fdc69", "fusion_lon": 0.0, "bike_id": "782464cc63589b2625d734343f3fdc69", "is_reserved": 0, "rental_uris": {"android": "https://dc.lft.to/lastmile_qr_scan", "ios": "https://dc.lft.to/lastmile_qr_scan"}, "lat": 38.931921833333334, "is_disabled": 0, "lon": -77.04533433333333}, {"fusion_lat": 0.0, "type": "electric_scooter", "name": "388bd179dfe717f45af191a517d60a8d", "fusion_lon": 0.0, "bike_id": "388bd179dfe717f45af191a517d60a8d", "is_reserved": 0, "rental_uris": {"android": "https://dc.lft.to/lastmile_qr_scan", "ios": "https://dc.lft.to/lastmile_qr_scan"}, "lat": 38.89304116666667, "is_disabled": 0, "lon": -77.021663}, {"fusion_lat": 0.0, "type": "electric_scooter", "name": "90abe055203d92b8c95a90ef25a8a49b", "fusion_lon": 0.0, "bike_id": "90abe055203d92b8c95a90ef25a8a49b", "is_reserved": 0, "rental_uris": {"android": "https://dc.lft.to/lastmile_qr_scan", "ios": "https://dc.lft.to/lastmile_qr_scan"}, "lat": 38.91937883333333, "is_disabled": 0, "lon": -77.04570216666667}, {"fusion_lat": 0.0, "type": "electric_scooter", "name": "d839d4254bfbdb46d995b4d38a38d2b9", "fusion_lon": 0.0, "bike_id": "d839d4254bfbdb46d995b4d38a38d2b9", "is_reserved": 0, "rental_uris": {"android": "https://dc.lft.to/lastmile_qr_scan", "ios": "https://dc.lft.to/lastmile_qr_scan"}, "lat": 38.90496366666667, "is_disabled": 0, "lon": -77.068578}, {"fusion_lat": 0.0, "type": "electric_scooter", "name": "e6a47bbf30d397a6ee45aa92233343bd", "fusion_lon": 0.0, "bike_id": "e6a47bbf30d397a6ee45aa92233343bd", "is_reserved": 0, "rental_uris": {"android": "https://dc.lft.to/lastmile_qr_scan", "ios": "https://dc.lft.to/lastmile_qr_scan"}, "lat": 38.89294733333333, "is_disabled": 0, "lon": -77.01240433333334}, {"fusion_lat": 0.0, "type": "electric_scooter", "name": "f2958e34c415a2efe1e6a13445014f2c", "fusion_lon": 0.0, "bike_id": "f2958e34c415a2efe1e6a13445014f2c", "is_reserved": 0, "rental_uris": {"android": "https://dc.lft.to/lastmile_qr_scan", "ios": "https://dc.lft.to/lastmile_qr_scan"}, "lat": 38.886160833333335, "is_disabled": 0, "lon": -77.00064183333333}, {"fusion_lat": 0.0, "type": "electric_scooter", "name": "ac4c7353e240bf4aa5e58d3f8a4fce84", "fusion_lon": 0.0, "bike_id": "ac4c7353e240bf4aa5e58d3f8a4fce84", "is_reserved": 0, "rental_uris": {"android": "https://dc.lft.to/lastmile_qr_scan", "ios": "https://dc.lft.to/lastmile_qr_scan"}, "lat": 38.974500666666664, "is_disabled": 0, "lon": -77.01795433333334}, {"fusion_lat": 0.0, "type": "electric_scooter", "name": "a7494b6d4c17636af78bc39bf43c8ea3", "fusion_lon": 0.0, "bike_id": "a7494b6d4c17636af78bc39bf43c8ea3", "is_reserved": 0, "rental_uris": {"android": "https://dc.lft.to/lastmile_qr_scan", "ios": "https://dc.lft.to/lastmile_qr_scan"}, "lat": 38.873623, "is_disabled": 0, "lon": -76.970122}, {"fusion_lat": 0.0, "type": "electric_scooter", "name": "81213b00edeebd2a6febc461f2ec6e63", "fusion_lon": 0.0, "bike_id": "81213b00edeebd2a6febc461f2ec6e63", "is_reserved": 0, "rental_uris": {"android": "https://dc.lft.to/lastmile_qr_scan", "ios": "https://dc.lft.to/lastmile_qr_scan"}, "lat": 38.909389166666664, "is_disabled": 0, "lon": -77.0220485}, {"fusion_lat": 0.0, "type": "electric_bike", "name": "3da4e11bd9bdd78ec0c6e53eb65edf53", "fusion_lon": 0.0, "bike_id": "3da4e11bd9bdd78ec0c6e53eb65edf53", "is_reserved": 0, "rental_uris": {"android": "https://dc.lft.to/lastmile_qr_scan", "ios": "https://dc.lft.to/lastmile_qr_scan"}, "lat": 38.839348, "is_disabled": 0, "lon": -77.079046}, {"fusion_lat": 0.0, "type": "electric_scooter", "name": "efd04adcedbc864b324982462789bdf0", "fusion_lon": 0.0, "bike_id": "efd04adcedbc864b324982462789bdf0", "is_reserved": 0, "rental_uris": {"android": "https://dc.lft.to/lastmile_qr_scan", "ios": "https://dc.lft.to/lastmile_qr_scan"}, "lat": 38.90269283333333, "is_disabled": 0, "lon": -77.03649266666666}, {"fusion_lat": 0.0, "type": "electric_scooter", "name": "a197b1542b197cb48f40a47de8ab7074", "fusion_lon": 0.0, "bike_id": "a197b1542b197cb48f40a47de8ab7074", "is_reserved": 0, "rental_uris": {"android": "https://dc.lft.to/lastmile_qr_scan", "ios": "https://dc.lft.to/lastmile_qr_scan"}, "lat": 38.89837266666667, "is_disabled": 0, "lon": -77.03288183333333}, {"fusion_lat": 0.0, "type": "electric_scooter", "name": "fdba7a611bd64514b5751f29f00735a7", "fusion_lon": 0.0, "bike_id": "fdba7a611bd64514b5751f29f00735a7", "is_reserved": 0, "rental_uris": {"android": "https://dc.lft.to/lastmile_qr_scan", "ios": "https://dc.lft.to/lastmile_qr_scan"}, "lat": 38.91423266666666, "is_disabled": 0, "lon": -77.039252}, {"fusion_lat": 0.0, "type": "electric_bike", "name": "7c8d1ea2dfd3af4f10193fe6c4a6a952", "fusion_lon": 0.0, "bike_id": "7c8d1ea2dfd3af4f10193fe6c4a6a952", "is_reserved": 0, "rental_uris": {"android": "https://dc.lft.to/lastmile_qr_scan", "ios": "https://dc.lft.to/lastmile_qr_scan"}, "lat": 38.94752283333333, "is_disabled": 0, "lon": -77.02365466666667}, {"fusion_lat": 0.0, "type": "electric_scooter", "name": "63089ad945aaa6a0394e5893d1a1b8e7", "fusion_lon": 0.0, "bike_id": "63089ad945aaa6a0394e5893d1a1b8e7", "is_reserved": 0, "rental_uris": {"android": "https://dc.lft.to/lastmile_qr_scan", "ios": "https://dc.lft.to/lastmile_qr_scan"}, "lat": 38.914222, "is_disabled": 0, "lon": -77.045519}, {"fusion_lat": 0.0, "type": "electric_scooter", "name": "b511e497384cbbaccc6e999cef6cc890", "fusion_lon": 0.0, "bike_id": "b511e497384cbbaccc6e999cef6cc890", "is_reserved": 0, "rental_uris": {"android": "https://dc.lft.to/lastmile_qr_scan", "ios": "https://dc.lft.to/lastmile_qr_scan"}, "lat": 38.911027833333335, "is_disabled": 0, "lon": -77.0434865}, {"fusion_lat": 0.0, "type": "electric_scooter", "name": "95f6a774af59d0415306c3001161ac75", "fusion_lon": 0.0, "bike_id": "95f6a774af59d0415306c3001161ac75", "is_reserved": 0, "rental_uris": {"android": "https://dc.lft.to/lastmile_qr_scan", "ios": "https://dc.lft.to/lastmile_qr_scan"}, "lat": 38.91470316666667, "is_disabled": 0, "lon": -77.03846116666666}, {"fusion_lat": 0.0, "type": "electric_scooter", "name": "943bf88c1ce23088ce14f2a9fe3303d5", "fusion_lon": 0.0, "bike_id": "943bf88c1ce23088ce14f2a9fe3303d5", "is_reserved": 0, "rental_uris": {"android": "https://dc.lft.to/lastmile_qr_scan", "ios": "https://dc.lft.to/lastmile_qr_scan"}, "lat": 38.92191, "is_disabled": 0, "lon": -76.98874833333333}, {"fusion_lat": 0.0, "type": "electric_scooter", "name": "7d8c53bda63c0e284511cd110ac23e48", "fusion_lon": 0.0, "bike_id": "7d8c53bda63c0e284511cd110ac23e48", "is_reserved": 0, "rental_uris": {"android": "https://dc.lft.to/lastmile_qr_scan", "ios": "https://dc.lft.to/lastmile_qr_scan"}, "lat": 38.9268805, "is_disabled": 0, "lon": -77.02216266666667}, {"fusion_lat": 0.0, "type": "electric_scooter", "name": "5af4640ea05237b47def236c5003f751", "fusion_lon": 0.0, "bike_id": "5af4640ea05237b47def236c5003f751", "is_reserved": 0, "rental_uris": {"android": "https://dc.lft.to/lastmile_qr_scan", "ios": "https://dc.lft.to/lastmile_qr_scan"}, "lat": 38.906682333333336, "is_disabled": 0, "lon": -77.0702265}, {"fusion_lat": 0.0, "type": "electric_scooter", "name": "cb803eaa3bf4aba5f3ff19b22fae54fd", "fusion_lon": 0.0, "bike_id": "cb803eaa3bf4aba5f3ff19b22fae54fd", "is_reserved": 0, "rental_uris": {"android": "https://dc.lft.to/lastmile_qr_scan", "ios": "https://dc.lft.to/lastmile_qr_scan"}, "lat": 38.920486833333335, "is_disabled": 0, "lon": -77.0236815}, {"fusion_lat": 0.0, "type": "electric_scooter", "name": "7e8637169d342ec61470a90cd2d1884d", "fusion_lon": 0.0, "bike_id": "7e8637169d342ec61470a90cd2d1884d", "is_reserved": 0, "rental_uris": {"android": "https://dc.lft.to/lastmile_qr_scan", "ios": "https://dc.lft.to/lastmile_qr_scan"}, "lat": 38.897247666666665, "is_disabled": 0, "lon": -77.03095333333333}, {"fusion_lat": 0.0, "type": "electric_scooter", "name": "9d4c3a569ff8f6c8f35e0f1e17710cbd", "fusion_lon": 0.0, "bike_id": "9d4c3a569ff8f6c8f35e0f1e17710cbd", "is_reserved": 0, "rental_uris": {"android": "https://dc.lft.to/lastmile_qr_scan", "ios": "https://dc.lft.to/lastmile_qr_scan"}, "lat": 38.93619066666667, "is_disabled": 0, "lon": -77.08171966666667}, {"fusion_lat": 0.0, "type": "electric_scooter", "name": "79dcf1fa6ba759661baea1ee612885a0", "fusion_lon": 0.0, "bike_id": "79dcf1fa6ba759661baea1ee612885a0", "is_reserved": 0, "rental_uris": {"android": "https://dc.lft.to/lastmile_qr_scan", "ios": "https://dc.lft.to/lastmile_qr_scan"}, "lat": 38.927939, "is_disabled": 0, "lon": -77.0337315}, {"fusion_lat": 0.0, "type": "electric_scooter", "name": "5148224ea572c88477b49225ebee3d73", "fusion_lon": 0.0, "bike_id": "5148224ea572c88477b49225ebee3d73", "is_reserved": 0, "rental_uris": {"android": "https://dc.lft.to/lastmile_qr_scan", "ios": "https://dc.lft.to/lastmile_qr_scan"}, "lat": 38.900785166666665, "is_disabled": 0, "lon": -76.938705}, {"fusion_lat": 0.0, "type": "electric_scooter", "name": "5aa8e50cea5fdc304ad7a45f5e4e0401", "fusion_lon": 0.0, "bike_id": "5aa8e50cea5fdc304ad7a45f5e4e0401", "is_reserved": 0, "rental_uris": {"android": "https://dc.lft.to/lastmile_qr_scan", "ios": "https://dc.lft.to/lastmile_qr_scan"}, "lat": 38.918056666666665, "is_disabled": 0, "lon": -77.03379833333334}, {"fusion_lat": 0.0, "type": "electric_scooter", "name": "8c27797f7707b63aae41588976deca9f", "fusion_lon": 0.0, "bike_id": "8c27797f7707b63aae41588976deca9f", "is_reserved": 0, "rental_uris": {"android": "https://dc.lft.to/lastmile_qr_scan", "ios": "https://dc.lft.to/lastmile_qr_scan"}, "lat": 38.89015833333333, "is_disabled": 0, "lon": -76.93733333333333}, {"fusion_lat": 0.0, "type": "electric_scooter", "name": "4763734b790a2bbcaba02abbcf61b174", "fusion_lon": 0.0, "bike_id": "4763734b790a2bbcaba02abbcf61b174", "is_reserved": 0, "rental_uris": {"android": "https://dc.lft.to/lastmile_qr_scan", "ios": "https://dc.lft.to/lastmile_qr_scan"}, "lat": 38.921326666666666, "is_disabled": 0, "lon": -77.0366125}, {"fusion_lat": 0.0, "type": "electric_scooter", "name": "3d6f32690173481a558295f7a7d55501", "fusion_lon": 0.0, "bike_id": "3d6f32690173481a558295f7a7d55501", "is_reserved": 0, "rental_uris": {"android": "https://dc.lft.to/lastmile_qr_scan", "ios": "https://dc.lft.to/lastmile_qr_scan"}, "lat": 38.862578666666664, "is_disabled": 0, "lon": -76.99608916666666}, {"fusion_lat": 0.0, "type": "electric_scooter", "name": "d952975c25ee3392ae36c80a60155f25", "fusion_lon": 0.0, "bike_id": "d952975c25ee3392ae36c80a60155f25", "is_reserved": 0, "rental_uris": {"android": "https://dc.lft.to/lastmile_qr_scan", "ios": "https://dc.lft.to/lastmile_qr_scan"}, "lat": 38.911282, "is_disabled": 0, "lon": -77.02689533333333}, {"fusion_lat": 0.0, "type": "electric_scooter", "name": "c86d59dcf00a19812eb2a5fd0d96f345", "fusion_lon": 0.0, "bike_id": "c86d59dcf00a19812eb2a5fd0d96f345", "is_reserved": 0, "rental_uris": {"android": "https://dc.lft.to/lastmile_qr_scan", "ios": "https://dc.lft.to/lastmile_qr_scan"}, "lat": 38.897100333333334, "is_disabled": 0, "lon": -77.0269045}, {"fusion_lat": 0.0, "type": "electric_scooter", "name": "8230e279d06896daf99524491fd45d11", "fusion_lon": 0.0, "bike_id": "8230e279d06896daf99524491fd45d11", "is_reserved": 0, "rental_uris": {"android": "https://dc.lft.to/lastmile_qr_scan", "ios": "https://dc.lft.to/lastmile_qr_scan"}, "lat": 38.906528, "is_disabled": 0, "lon": -77.04877333333333}, {"fusion_lat": 0.0, "type": "electric_scooter", "name": "f972561a0f366c91d04d1cfa88035189", "fusion_lon": 0.0, "bike_id": "f972561a0f366c91d04d1cfa88035189", "is_reserved": 0, "rental_uris": {"android": "https://dc.lft.to/lastmile_qr_scan", "ios": "https://dc.lft.to/lastmile_qr_scan"}, "lat": 38.92166116666667, "is_disabled": 0, "lon": -77.03267233333334}, {"fusion_lat": 0.0, "type": "electric_scooter", "name": "f4230ce1906b3e905e39240e0c7fcd3d", "fusion_lon": 0.0, "bike_id": "f4230ce1906b3e905e39240e0c7fcd3d", "is_reserved": 0, "rental_uris": {"android": "https://dc.lft.to/lastmile_qr_scan", "ios": "https://dc.lft.to/lastmile_qr_scan"}, "lat": 38.90735816666667, "is_disabled": 0, "lon": -77.03204183333334}, {"fusion_lat": 0.0, "type": "electric_scooter", "name": "a8d2c876d3b3bf4054a4a11256d18b79", "fusion_lon": 0.0, "bike_id": "a8d2c876d3b3bf4054a4a11256d18b79", "is_reserved": 0, "rental_uris": {"android": "https://dc.lft.to/lastmile_qr_scan", "ios": "https://dc.lft.to/lastmile_qr_scan"}, "lat": 38.91098916666667, "is_disabled": 0, "lon": -77.0021225}, {"fusion_lat": 0.0, "type": "electric_scooter", "name": "6798beb5fe2d2478cfd6382aa2d2db0d", "fusion_lon": 0.0, "bike_id": "6798beb5fe2d2478cfd6382aa2d2db0d", "is_reserved": 0, "rental_uris": {"android": "https://dc.lft.to/lastmile_qr_scan", "ios": "https://dc.lft.to/lastmile_qr_scan"}, "lat": 38.904044166666665, "is_disabled": 0, "lon": -76.9808615}, {"fusion_lat": 0.0, "type": "electric_scooter", "name": "6f3236e2cdfb54afdf3d12dd565fab1d", "fusion_lon": 0.0, "bike_id": "6f3236e2cdfb54afdf3d12dd565fab1d", "is_reserved": 0, "rental_uris": {"android": "https://dc.lft.to/lastmile_qr_scan", "ios": "https://dc.lft.to/lastmile_qr_scan"}, "lat": 38.92564316666667, "is_disabled": 0, "lon": -77.02284333333333}, {"fusion_lat": 0.0, "type": "electric_scooter", "name": "b97f2433c25de27c8fd7b9dff37f1e93", "fusion_lon": 0.0, "bike_id": "b97f2433c25de27c8fd7b9dff37f1e93", "is_reserved": 0, "rental_uris": {"android": "https://dc.lft.to/lastmile_qr_scan", "ios": "https://dc.lft.to/lastmile_qr_scan"}, "lat": 38.90567983333333, "is_disabled": 0, "lon": -77.00594}, {"fusion_lat": 0.0, "type": "electric_scooter", "name": "89793414260eff3e4042bc1130c37db4", "fusion_lon": 0.0, "bike_id": "89793414260eff3e4042bc1130c37db4", "is_reserved": 0, "rental_uris": {"android": "https://dc.lft.to/lastmile_qr_scan", "ios": "https://dc.lft.to/lastmile_qr_scan"}, "lat": 38.91115766666667, "is_disabled": 0, "lon": -77.03155216666667}, {"fusion_lat": 0.0, "type": "electric_scooter", "name": "d610876cc51304117394e1c7e6afff50", "fusion_lon": 0.0, "bike_id": "d610876cc51304117394e1c7e6afff50", "is_reserved": 0, "rental_uris": {"android": "https://dc.lft.to/lastmile_qr_scan", "ios": "https://dc.lft.to/lastmile_qr_scan"}, "lat": 38.92337916666666, "is_disabled": 0, "lon": -77.03617733333333}, {"fusion_lat": 0.0, "type": "electric_scooter", "name": "a4d300527650a470ffc376251c905a4a", "fusion_lon": 0.0, "bike_id": "a4d300527650a470ffc376251c905a4a", "is_reserved": 0, "rental_uris": {"android": "https://dc.lft.to/lastmile_qr_scan", "ios": "https://dc.lft.to/lastmile_qr_scan"}, "lat": 38.90196866666667, "is_disabled": 0, "lon": -77.04655016666666}, {"fusion_lat": 0.0, "type": "electric_scooter", "name": "d057f9bff0044e9bfd164670745ec035", "fusion_lon": 0.0, "bike_id": "d057f9bff0044e9bfd164670745ec035", "is_reserved": 0, "rental_uris": {"android": "https://dc.lft.to/lastmile_qr_scan", "ios": "https://dc.lft.to/lastmile_qr_scan"}, "lat": 38.94510366666667, "is_disabled": 0, "lon": -77.0332285}, {"fusion_lat": 0.0, "type": "electric_bike", "name": "4285f90c4cb317e70bb1e67307c3ec40", "fusion_lon": 0.0, "bike_id": "4285f90c4cb317e70bb1e67307c3ec40", "is_reserved": 0, "rental_uris": {"android": "https://dc.lft.to/lastmile_qr_scan", "ios": "https://dc.lft.to/lastmile_qr_scan"}, "lat": 38.85489533333333, "is_disabled": 0, "lon": -77.11610483333334}, {"fusion_lat": 0.0, "type": "electric_scooter", "name": "3e9aa892ec5ec8f99fd15ac0acae2ad2", "fusion_lon": 0.0, "bike_id": "3e9aa892ec5ec8f99fd15ac0acae2ad2", "is_reserved": 0, "rental_uris": {"android": "https://dc.lft.to/lastmile_qr_scan", "ios": "https://dc.lft.to/lastmile_qr_scan"}, "lat": 38.916798666666665, "is_disabled": 0, "lon": -77.02943983333333}, {"fusion_lat": 0.0, "type": "electric_scooter", "name": "4ee461efae96fca5881708b06d2dd2f4", "fusion_lon": 0.0, "bike_id": "4ee461efae96fca5881708b06d2dd2f4", "is_reserved": 0, "rental_uris": {"android": "https://dc.lft.to/lastmile_qr_scan", "ios": "https://dc.lft.to/lastmile_qr_scan"}, "lat": 38.92336516666667, "is_disabled": 0, "lon": -77.03612883333334}, {"fusion_lat": 0.0, "type": "electric_scooter", "name": "764a9844cb9050203f6da5f0568eee27", "fusion_lon": 0.0, "bike_id": "764a9844cb9050203f6da5f0568eee27", "is_reserved": 0, "rental_uris": {"android": "https://dc.lft.to/lastmile_qr_scan", "ios": "https://dc.lft.to/lastmile_qr_scan"}, "lat": 38.902624, "is_disabled": 0, "lon": -77.005773}, {"fusion_lat": 0.0, "type": "electric_scooter", "name": "e8f941d70c4dfe7b14d9b7afc2ed7826", "fusion_lon": 0.0, "bike_id": "e8f941d70c4dfe7b14d9b7afc2ed7826", "is_reserved": 0, "rental_uris": {"android": "https://dc.lft.to/lastmile_qr_scan", "ios": "https://dc.lft.to/lastmile_qr_scan"}, "lat": 38.902679166666665, "is_disabled": 0, "lon": -77.00581183333334}, {"fusion_lat": 0.0, "type": "electric_scooter", "name": "eae0ad04a030dff7d54dc7dd5c8171da", "fusion_lon": 0.0, "bike_id": "eae0ad04a030dff7d54dc7dd5c8171da", "is_reserved": 0, "rental_uris": {"android": "https://dc.lft.to/lastmile_qr_scan", "ios": "https://dc.lft.to/lastmile_qr_scan"}, "lat": 38.9095305, "is_disabled": 0, "lon": -77.0271525}, {"fusion_lat": 0.0, "type": "electric_scooter", "name": "a6debed0ab0e17b3d6fa055347c6af09", "fusion_lon": 0.0, "bike_id": "a6debed0ab0e17b3d6fa055347c6af09", "is_reserved": 0, "rental_uris": {"android": "https://dc.lft.to/lastmile_qr_scan", "ios": "https://dc.lft.to/lastmile_qr_scan"}, "lat": 38.9121705, "is_disabled": 0, "lon": -77.03468716666667}, {"fusion_lat": 0.0, "type": "electric_scooter", "name": "67fefa3cdf147170e3ccdae5697efccb", "fusion_lon": 0.0, "bike_id": "67fefa3cdf147170e3ccdae5697efccb", "is_reserved": 0, "rental_uris": {"android": "https://dc.lft.to/lastmile_qr_scan", "ios": "https://dc.lft.to/lastmile_qr_scan"}, "lat": 38.9110655, "is_disabled": 0, "lon": -77.038297}, {"fusion_lat": 0.0, "type": "electric_scooter", "name": "ce7d30181b521be50a8491a8669fd8e6", "fusion_lon": 0.0, "bike_id": "ce7d30181b521be50a8491a8669fd8e6", "is_reserved": 0, "rental_uris": {"android": "https://dc.lft.to/lastmile_qr_scan", "ios": "https://dc.lft.to/lastmile_qr_scan"}, "lat": 38.8746915, "is_disabled": 0, "lon": -77.00516066666667}, {"fusion_lat": 0.0, "type": "electric_scooter", "name": "38e9bc256b4ece88586fa8edace13252", "fusion_lon": 0.0, "bike_id": "38e9bc256b4ece88586fa8edace13252", "is_reserved": 0, "rental_uris": {"android": "https://dc.lft.to/lastmile_qr_scan", "ios": "https://dc.lft.to/lastmile_qr_scan"}, "lat": 38.92170433333333, "is_disabled": 0, "lon": -77.0422705}, {"fusion_lat": 0.0, "type": "electric_scooter", "name": "5e77e495f177e7ac81790e0ff754c3d6", "fusion_lon": 0.0, "bike_id": "5e77e495f177e7ac81790e0ff754c3d6", "is_reserved": 0, "rental_uris": {"android": "https://dc.lft.to/lastmile_qr_scan", "ios": "https://dc.lft.to/lastmile_qr_scan"}, "lat": 38.931053666666664, "is_disabled": 0, "lon": -77.03637583333334}, {"fusion_lat": 0.0, "type": "electric_scooter", "name": "fa157bff95a59510eed97ee26a8e337d", "fusion_lon": 0.0, "bike_id": "fa157bff95a59510eed97ee26a8e337d", "is_reserved": 0, "rental_uris": {"android": "https://dc.lft.to/lastmile_qr_scan", "ios": "https://dc.lft.to/lastmile_qr_scan"}, "lat": 38.86351883333333, "is_disabled": 0, "lon": -76.99065616666667}, {"fusion_lat": 0.0, "type": "electric_scooter", "name": "8bf57e384c9401f7c1ae9acc3287ef2f", "fusion_lon": 0.0, "bike_id": "8bf57e384c9401f7c1ae9acc3287ef2f", "is_reserved": 0, "rental_uris": {"android": "https://dc.lft.to/lastmile_qr_scan", "ios": "https://dc.lft.to/lastmile_qr_scan"}, "lat": 38.93756583333333, "is_disabled": 0, "lon": -77.02258883333333}, {"fusion_lat": 0.0, "type": "electric_scooter", "name": "b983b7e83dd26fa025553c43cc2de8a9", "fusion_lon": 0.0, "bike_id": "b983b7e83dd26fa025553c43cc2de8a9", "is_reserved": 0, "rental_uris": {"android": "https://dc.lft.to/lastmile_qr_scan", "ios": "https://dc.lft.to/lastmile_qr_scan"}, "lat": 38.912567333333335, "is_disabled": 0, "lon": -77.04465616666667}, {"fusion_lat": 0.0, "type": "electric_scooter", "name": "f7e0b41550a9841cd02a82f20e25e070", "fusion_lon": 0.0, "bike_id": "f7e0b41550a9841cd02a82f20e25e070", "is_reserved": 0, "rental_uris": {"android": "https://dc.lft.to/lastmile_qr_scan", "ios": "https://dc.lft.to/lastmile_qr_scan"}, "lat": 38.914073333333334, "is_disabled": 0, "lon": -77.03831383333333}, {"fusion_lat": 0.0, "type": "electric_bike", "name": "e6e9e589b4df9fc3ff797d740b1f241a", "fusion_lon": 0.0, "bike_id": "e6e9e589b4df9fc3ff797d740b1f241a", "is_reserved": 0, "rental_uris": {"android": "https://dc.lft.to/lastmile_qr_scan", "ios": "https://dc.lft.to/lastmile_qr_scan"}, "lat": 38.85516766666667, "is_disabled": 0, "lon": -76.98421316666666}, {"fusion_lat": 0.0, "type": "electric_scooter", "name": "043c76c845b0d7fae8007fc84d0544fd", "fusion_lon": 0.0, "bike_id": "043c76c845b0d7fae8007fc84d0544fd", "is_reserved": 0, "rental_uris": {"android": "https://dc.lft.to/lastmile_qr_scan", "ios": "https://dc.lft.to/lastmile_qr_scan"}, "lat": 38.9243905, "is_disabled": 0, "lon": -77.04025716666666}, {"fusion_lat": 0.0, "type": "electric_scooter", "name": "4f311e92e6ecbaf2210388c2bbbe2f69", "fusion_lon": 0.0, "bike_id": "4f311e92e6ecbaf2210388c2bbbe2f69", "is_reserved": 0, "rental_uris": {"android": "https://dc.lft.to/lastmile_qr_scan", "ios": "https://dc.lft.to/lastmile_qr_scan"}, "lat": 38.90718016666667, "is_disabled": 0, "lon": -77.02983366666666}, {"fusion_lat": 0.0, "type": "electric_scooter", "name": "b982e390b04294359435b8a88b147b72", "fusion_lon": 0.0, "bike_id": "b982e390b04294359435b8a88b147b72", "is_reserved": 0, "rental_uris": {"android": "https://dc.lft.to/lastmile_qr_scan", "ios": "https://dc.lft.to/lastmile_qr_scan"}, "lat": 38.898729333333335, "is_disabled": 0, "lon": -77.0258005}, {"fusion_lat": 0.0, "type": "electric_scooter", "name": "2c12f8e604de38313260971faa1ce15d", "fusion_lon": 0.0, "bike_id": "2c12f8e604de38313260971faa1ce15d", "is_reserved": 0, "rental_uris": {"android": "https://dc.lft.to/lastmile_qr_scan", "ios": "https://dc.lft.to/lastmile_qr_scan"}, "lat": 38.9065085, "is_disabled": 0, "lon": -77.01148466666666}, {"fusion_lat": 0.0, "type": "electric_scooter", "name": "179fcfa8b9c12214219eae2eac530818", "fusion_lon": 0.0, "bike_id": "179fcfa8b9c12214219eae2eac530818", "is_reserved": 0, "rental_uris": {"android": "https://dc.lft.to/lastmile_qr_scan", "ios": "https://dc.lft.to/lastmile_qr_scan"}, "lat": 38.901683, "is_disabled": 0, "lon": -76.98057516666667}, {"fusion_lat": 0.0, "type": "electric_scooter", "name": "c8cfee3306f0ae755e6b7be0f3d45c0d", "fusion_lon": 0.0, "bike_id": "c8cfee3306f0ae755e6b7be0f3d45c0d", "is_reserved": 0, "rental_uris": {"android": "https://dc.lft.to/lastmile_qr_scan", "ios": "https://dc.lft.to/lastmile_qr_scan"}, "lat": 38.936721, "is_disabled": 0, "lon": -77.035929}, {"fusion_lat": 0.0, "type": "electric_scooter", "name": "0949fbb438df6c22651a6ca18f34bfe6", "fusion_lon": 0.0, "bike_id": "0949fbb438df6c22651a6ca18f34bfe6", "is_reserved": 0, "rental_uris": {"android": "https://dc.lft.to/lastmile_qr_scan", "ios": "https://dc.lft.to/lastmile_qr_scan"}, "lat": 38.91046766666667, "is_disabled": 0, "lon": -77.034951}, {"fusion_lat": 0.0, "type": "electric_scooter", "name": "a5c9eac4e71dd40186c8dc57b0490e55", "fusion_lon": 0.0, "bike_id": "a5c9eac4e71dd40186c8dc57b0490e55", "is_reserved": 0, "rental_uris": {"android": "https://dc.lft.to/lastmile_qr_scan", "ios": "https://dc.lft.to/lastmile_qr_scan"}, "lat": 38.891919333333334, "is_disabled": 0, "lon": -76.9885625}, {"fusion_lat": 0.0, "type": "electric_bike", "name": "9130cc12ccb0b5b286e42340a5650f16", "fusion_lon": 0.0, "bike_id": "9130cc12ccb0b5b286e42340a5650f16", "is_reserved": 0, "rental_uris": {"android": "https://dc.lft.to/lastmile_qr_scan", "ios": "https://dc.lft.to/lastmile_qr_scan"}, "lat": 38.9515635, "is_disabled": 0, "lon": -77.01286216666666}, {"fusion_lat": 0.0, "type": "electric_bike", "name": "72939870936c9e9c619c5ea4371fc846", "fusion_lon": 0.0, "bike_id": "72939870936c9e9c619c5ea4371fc846", "is_reserved": 0, "rental_uris": {"android": "https://dc.lft.to/lastmile_qr_scan", "ios": "https://dc.lft.to/lastmile_qr_scan"}, "lat": 38.98355566666667, "is_disabled": 0, "lon": -76.97217683333334}, {"fusion_lat": 0.0, "type": "electric_scooter", "name": "e1192064494e2cf21d57be06cc1eee7b", "fusion_lon": 0.0, "bike_id": "e1192064494e2cf21d57be06cc1eee7b", "is_reserved": 0, "rental_uris": {"android": "https://dc.lft.to/lastmile_qr_scan", "ios": "https://dc.lft.to/lastmile_qr_scan"}, "lat": 38.914980666666665, "is_disabled": 0, "lon": -77.00772666666667}, {"fusion_lat": 0.0, "type": "electric_scooter", "name": "f16468aa2d0799841488c9b2da9bb2bf", "fusion_lon": 0.0, "bike_id": "f16468aa2d0799841488c9b2da9bb2bf", "is_reserved": 0, "rental_uris": {"android": "https://dc.lft.to/lastmile_qr_scan", "ios": "https://dc.lft.to/lastmile_qr_scan"}, "lat": 38.913454333333334, "is_disabled": 0, "lon": -77.03184116666667}, {"fusion_lat": 0.0, "type": "electric_scooter", "name": "1fea7e40322acdfcfe0aaa01a4927526", "fusion_lon": 0.0, "bike_id": "1fea7e40322acdfcfe0aaa01a4927526", "is_reserved": 0, "rental_uris": {"android": "https://dc.lft.to/lastmile_qr_scan", "ios": "https://dc.lft.to/lastmile_qr_scan"}, "lat": 38.879208, "is_disabled": 0, "lon": -77.02133416666666}, {"fusion_lat": 0.0, "type": "electric_scooter", "name": "c575d3243fa1c14d4083570b35d5f3e0", "fusion_lon": 0.0, "bike_id": "c575d3243fa1c14d4083570b35d5f3e0", "is_reserved": 0, "rental_uris": {"android": "https://dc.lft.to/lastmile_qr_scan", "ios": "https://dc.lft.to/lastmile_qr_scan"}, "lat": 38.9574395, "is_disabled": 0, "lon": -77.02061916666666}, {"fusion_lat": 0.0, "type": "electric_scooter", "name": "845401175014d7f11ccba97dc9878edc", "fusion_lon": 0.0, "bike_id": "845401175014d7f11ccba97dc9878edc", "is_reserved": 0, "rental_uris": {"android": "https://dc.lft.to/lastmile_qr_scan", "ios": "https://dc.lft.to/lastmile_qr_scan"}, "lat": 38.8995615, "is_disabled": 0, "lon": -76.97533916666667}, {"fusion_lat": 0.0, "type": "electric_bike", "name": "c186661dab6131a9b209ec1618efaf0a", "fusion_lon": 0.0, "bike_id": "c186661dab6131a9b209ec1618efaf0a", "is_reserved": 0, "rental_uris": {"android": "https://dc.lft.to/lastmile_qr_scan", "ios": "https://dc.lft.to/lastmile_qr_scan"}, "lat": 38.932068, "is_disabled": 0, "lon": -77.0188005}, {"fusion_lat": 0.0, "type": "electric_bike", "name": "c2fa2143e48ce7ce764f881b4aedbb22", "fusion_lon": 0.0, "bike_id": "c2fa2143e48ce7ce764f881b4aedbb22", "is_reserved": 0, "rental_uris": {"android": "https://dc.lft.to/lastmile_qr_scan", "ios": "https://dc.lft.to/lastmile_qr_scan"}, "lat": 38.923367166666665, "is_disabled": 0, "lon": -76.97141383333333}, {"fusion_lat": 0.0, "type": "electric_scooter", "name": "09611da7b97cf37e8d2b4f002feb891d", "fusion_lon": 0.0, "bike_id": "09611da7b97cf37e8d2b4f002feb891d", "is_reserved": 0, "rental_uris": {"android": "https://dc.lft.to/lastmile_qr_scan", "ios": "https://dc.lft.to/lastmile_qr_scan"}, "lat": 38.941989666666665, "is_disabled": 0, "lon": -77.02504816666666}, {"fusion_lat": 0.0, "type": "electric_bike", "name": "8a05b001850571c8238c1511dc58c44a", "fusion_lon": 0.0, "bike_id": "8a05b001850571c8238c1511dc58c44a", "is_reserved": 0, "rental_uris": {"android": "https://dc.lft.to/lastmile_qr_scan", "ios": "https://dc.lft.to/lastmile_qr_scan"}, "lat": 38.8727655, "is_disabled": 0, "lon": -77.23314533333334}, {"fusion_lat": 0.0, "type": "electric_scooter", "name": "4bc240916ee6b8433645da5fc001b39a", "fusion_lon": 0.0, "bike_id": "4bc240916ee6b8433645da5fc001b39a", "is_reserved": 0, "rental_uris": {"android": "https://dc.lft.to/lastmile_qr_scan", "ios": "https://dc.lft.to/lastmile_qr_scan"}, "lat": 38.8653925, "is_disabled": 0, "lon": -76.9870275}, {"fusion_lat": 0.0, "type": "electric_scooter", "name": "4d1f8063dbd9f1d519701d268d082e9b", "fusion_lon": 0.0, "bike_id": "4d1f8063dbd9f1d519701d268d082e9b", "is_reserved": 0, "rental_uris": {"android": "https://dc.lft.to/lastmile_qr_scan", "ios": "https://dc.lft.to/lastmile_qr_scan"}, "lat": 38.9185055, "is_disabled": 0, "lon": -77.01671216666666}, {"fusion_lat": 0.0, "type": "electric_scooter", "name": "b7e82c1cb530877cfd89bf120462a851", "fusion_lon": 0.0, "bike_id": "b7e82c1cb530877cfd89bf120462a851", "is_reserved": 0, "rental_uris": {"android": "https://dc.lft.to/lastmile_qr_scan", "ios": "https://dc.lft.to/lastmile_qr_scan"}, "lat": 38.927444, "is_disabled": 0, "lon": -77.0355825}, {"fusion_lat": 0.0, "type": "electric_bike", "name": "180f18b88d1bd61fe4eb6842a12093d6", "fusion_lon": 0.0, "bike_id": "180f18b88d1bd61fe4eb6842a12093d6", "is_reserved": 0, "rental_uris": {"android": "https://dc.lft.to/lastmile_qr_scan", "ios": "https://dc.lft.to/lastmile_qr_scan"}, "lat": 38.94230133333333, "is_disabled": 0, "lon": -76.96621766666667}, {"fusion_lat": 0.0, "type": "electric_scooter", "name": "16620e1ac54f058c814c759235182427", "fusion_lon": 0.0, "bike_id": "16620e1ac54f058c814c759235182427", "is_reserved": 0, "rental_uris": {"android": "https://dc.lft.to/lastmile_qr_scan", "ios": "https://dc.lft.to/lastmile_qr_scan"}, "lat": 38.92144783333333, "is_disabled": 0, "lon": -77.04223383333333}, {"fusion_lat": 0.0, "type": "electric_scooter", "name": "7ee70a836f4d96e8a666c3019b14f044", "fusion_lon": 0.0, "bike_id": "7ee70a836f4d96e8a666c3019b14f044", "is_reserved": 0, "rental_uris": {"android": "https://dc.lft.to/lastmile_qr_scan", "ios": "https://dc.lft.to/lastmile_qr_scan"}, "lat": 38.920958, "is_disabled": 0, "lon": -77.03173083333333}, {"fusion_lat": 0.0, "type": "electric_scooter", "name": "f30e268b82b762b99e87ed203f0f243b", "fusion_lon": 0.0, "bike_id": "f30e268b82b762b99e87ed203f0f243b", "is_reserved": 0, "rental_uris": {"android": "https://dc.lft.to/lastmile_qr_scan", "ios": "https://dc.lft.to/lastmile_qr_scan"}, "lat": 38.86697783333334, "is_disabled": 0, "lon": -76.9859085}, {"fusion_lat": 0.0, "type": "electric_scooter", "name": "100ce8cd810ce5f9c13c6daf464d19a8", "fusion_lon": 0.0, "bike_id": "100ce8cd810ce5f9c13c6daf464d19a8", "is_reserved": 0, "rental_uris": {"android": "https://dc.lft.to/lastmile_qr_scan", "ios": "https://dc.lft.to/lastmile_qr_scan"}, "lat": 38.900819, "is_disabled": 0, "lon": -77.04762133333334}, {"fusion_lat": 0.0, "type": "electric_scooter", "name": "bf9e13cc5afa9d1bf312131e11ef6f31", "fusion_lon": 0.0, "bike_id": "bf9e13cc5afa9d1bf312131e11ef6f31", "is_reserved": 0, "rental_uris": {"android": "https://dc.lft.to/lastmile_qr_scan", "ios": "https://dc.lft.to/lastmile_qr_scan"}, "lat": 38.9095405, "is_disabled": 0, "lon": -77.03213816666667}, {"fusion_lat": 0.0, "type": "electric_scooter", "name": "99e9d9505128f5d7ed642f7de6bc0989", "fusion_lon": 0.0, "bike_id": "99e9d9505128f5d7ed642f7de6bc0989", "is_reserved": 0, "rental_uris": {"android": "https://dc.lft.to/lastmile_qr_scan", "ios": "https://dc.lft.to/lastmile_qr_scan"}, "lat": 38.89223, "is_disabled": 0, "lon": -77.02237083333333}, {"fusion_lat": 0.0, "type": "electric_scooter", "name": "3472045ed00950abf90629daad664e66", "fusion_lon": 0.0, "bike_id": "3472045ed00950abf90629daad664e66", "is_reserved": 0, "rental_uris": {"android": "https://dc.lft.to/lastmile_qr_scan", "ios": "https://dc.lft.to/lastmile_qr_scan"}, "lat": 38.88727, "is_disabled": 0, "lon": -77.0282945}, {"fusion_lat": 0.0, "type": "electric_scooter", "name": "52f1368233c7a57ee7051d6a7cf58dc4", "fusion_lon": 0.0, "bike_id": "52f1368233c7a57ee7051d6a7cf58dc4", "is_reserved": 0, "rental_uris": {"android": "https://dc.lft.to/lastmile_qr_scan", "ios": "https://dc.lft.to/lastmile_qr_scan"}, "lat": 38.92246333333333, "is_disabled": 0, "lon": -77.02121983333333}, {"fusion_lat": 0.0, "type": "electric_bike", "name": "5507d8ee0532252a51997e5a63477c08", "fusion_lon": 0.0, "bike_id": "5507d8ee0532252a51997e5a63477c08", "is_reserved": 0, "rental_uris": {"android": "https://dc.lft.to/lastmile_qr_scan", "ios": "https://dc.lft.to/lastmile_qr_scan"}, "lat": 38.91014116666667, "is_disabled": 0, "lon": -77.22796416666667}, {"fusion_lat": 0.0, "type": "electric_scooter", "name": "39fd245f190b70d50619899d02a808e8", "fusion_lon": 0.0, "bike_id": "39fd245f190b70d50619899d02a808e8", "is_reserved": 0, "rental_uris": {"android": "https://dc.lft.to/lastmile_qr_scan", "ios": "https://dc.lft.to/lastmile_qr_scan"}, "lat": 38.892909, "is_disabled": 0, "lon": -77.01240466666667}, {"fusion_lat": 0.0, "type": "electric_scooter", "name": "84b23204d27771082b056ced1b946b8a", "fusion_lon": 0.0, "bike_id": "84b23204d27771082b056ced1b946b8a", "is_reserved": 0, "rental_uris": {"android": "https://dc.lft.to/lastmile_qr_scan", "ios": "https://dc.lft.to/lastmile_qr_scan"}, "lat": 38.90780516666667, "is_disabled": 0, "lon": -77.023064}, {"fusion_lat": 0.0, "type": "electric_scooter", "name": "09a3ea399c4317508f7ba5fc906520c1", "fusion_lon": 0.0, "bike_id": "09a3ea399c4317508f7ba5fc906520c1", "is_reserved": 0, "rental_uris": {"android": "https://dc.lft.to/lastmile_qr_scan", "ios": "https://dc.lft.to/lastmile_qr_scan"}, "lat": 38.91555733333333, "is_disabled": 0, "lon": -77.03175716666667}, {"fusion_lat": 0.0, "type": "electric_bike", "name": "b19a2c801b155df07cfe7f9455d5afb8", "fusion_lon": 0.0, "bike_id": "b19a2c801b155df07cfe7f9455d5afb8", "is_reserved": 0, "rental_uris": {"android": "https://dc.lft.to/lastmile_qr_scan", "ios": "https://dc.lft.to/lastmile_qr_scan"}, "lat": 38.96742483333333, "is_disabled": 0, "lon": -76.9819215}, {"fusion_lat": 0.0, "type": "electric_bike", "name": "9652b33bc065b6d140b9929e7cdc9047", "fusion_lon": 0.0, "bike_id": "9652b33bc065b6d140b9929e7cdc9047", "is_reserved": 0, "rental_uris": {"android": "https://dc.lft.to/lastmile_qr_scan", "ios": "https://dc.lft.to/lastmile_qr_scan"}, "lat": 39.014744666666665, "is_disabled": 0, "lon": -77.05492483333333}, {"fusion_lat": 0.0, "type": "electric_scooter", "name": "cabcf86b2f40118770055c6b8c9e88d1", "fusion_lon": 0.0, "bike_id": "cabcf86b2f40118770055c6b8c9e88d1", "is_reserved": 0, "rental_uris": {"android": "https://dc.lft.to/lastmile_qr_scan", "ios": "https://dc.lft.to/lastmile_qr_scan"}, "lat": 38.92456333333333, "is_disabled": 0, "lon": -77.03292383333333}, {"fusion_lat": 0.0, "type": "electric_scooter", "name": "a6f5684468b65faac31d1a93eb4c2780", "fusion_lon": 0.0, "bike_id": "a6f5684468b65faac31d1a93eb4c2780", "is_reserved": 0, "rental_uris": {"android": "https://dc.lft.to/lastmile_qr_scan", "ios": "https://dc.lft.to/lastmile_qr_scan"}, "lat": 38.891964, "is_disabled": 0, "lon": -77.02777616666667}, {"fusion_lat": 0.0, "type": "electric_scooter", "name": "7294605ae970867e8a5fdd6fb5733965", "fusion_lon": 0.0, "bike_id": "7294605ae970867e8a5fdd6fb5733965", "is_reserved": 0, "rental_uris": {"android": "https://dc.lft.to/lastmile_qr_scan", "ios": "https://dc.lft.to/lastmile_qr_scan"}, "lat": 38.916398, "is_disabled": 0, "lon": -77.04818116666667}, {"fusion_lat": 0.0, "type": "electric_scooter", "name": "4df8b307475bebfe26070f42bcd6c3c7", "fusion_lon": 0.0, "bike_id": "4df8b307475bebfe26070f42bcd6c3c7", "is_reserved": 0, "rental_uris": {"android": "https://dc.lft.to/lastmile_qr_scan", "ios": "https://dc.lft.to/lastmile_qr_scan"}, "lat": 38.9139295, "is_disabled": 0, "lon": -77.04172583333333}, {"fusion_lat": 0.0, "type": "electric_scooter", "name": "c502eb7ffccc5ccacea9337e49f5e117", "fusion_lon": 0.0, "bike_id": "c502eb7ffccc5ccacea9337e49f5e117", "is_reserved": 0, "rental_uris": {"android": "https://dc.lft.to/lastmile_qr_scan", "ios": "https://dc.lft.to/lastmile_qr_scan"}, "lat": 38.90239033333334, "is_disabled": 0, "lon": -76.99891483333333}, {"fusion_lat": 0.0, "type": "electric_scooter", "name": "2e2de074d45fbef58ed6269a9c6e00fb", "fusion_lon": 0.0, "bike_id": "2e2de074d45fbef58ed6269a9c6e00fb", "is_reserved": 0, "rental_uris": {"android": "https://dc.lft.to/lastmile_qr_scan", "ios": "https://dc.lft.to/lastmile_qr_scan"}, "lat": 38.934689, "is_disabled": 0, "lon": -77.028441}, {"fusion_lat": 0.0, "type": "electric_scooter", "name": "9c433305239a9e9ac0a79636e8085dcf", "fusion_lon": 0.0, "bike_id": "9c433305239a9e9ac0a79636e8085dcf", "is_reserved": 0, "rental_uris": {"android": "https://dc.lft.to/lastmile_qr_scan", "ios": "https://dc.lft.to/lastmile_qr_scan"}, "lat": 38.8921895, "is_disabled": 0, "lon": -77.02630616666667}, {"fusion_lat": 0.0, "type": "electric_scooter", "name": "ab177e8a167eca3308c5175153cd117b", "fusion_lon": 0.0, "bike_id": "ab177e8a167eca3308c5175153cd117b", "is_reserved": 0, "rental_uris": {"android": "https://dc.lft.to/lastmile_qr_scan", "ios": "https://dc.lft.to/lastmile_qr_scan"}, "lat": 38.9385205, "is_disabled": 0, "lon": -77.02458833333333}, {"fusion_lat": 0.0, "type": "electric_scooter", "name": "b703694dcce1411cb6cd919998ac3691", "fusion_lon": 0.0, "bike_id": "b703694dcce1411cb6cd919998ac3691", "is_reserved": 0, "rental_uris": {"android": "https://dc.lft.to/lastmile_qr_scan", "ios": "https://dc.lft.to/lastmile_qr_scan"}, "lat": 38.898991333333335, "is_disabled": 0, "lon": -77.03910566666667}, {"fusion_lat": 0.0, "type": "electric_scooter", "name": "1b0c240f113685735596b1a611f1b909", "fusion_lon": 0.0, "bike_id": "1b0c240f113685735596b1a611f1b909", "is_reserved": 0, "rental_uris": {"android": "https://dc.lft.to/lastmile_qr_scan", "ios": "https://dc.lft.to/lastmile_qr_scan"}, "lat": 38.924870166666665, "is_disabled": 0, "lon": -77.04164533333334}, {"fusion_lat": 0.0, "type": "electric_scooter", "name": "690a59e1ef6d94944f80513e0b150001", "fusion_lon": 0.0, "bike_id": "690a59e1ef6d94944f80513e0b150001", "is_reserved": 0, "rental_uris": {"android": "https://dc.lft.to/lastmile_qr_scan", "ios": "https://dc.lft.to/lastmile_qr_scan"}, "lat": 38.8728645, "is_disabled": 0, "lon": -77.0098165}, {"fusion_lat": 0.0, "type": "electric_scooter", "name": "306ab0d6ebe5e329ee1b006e0e7b4e2c", "fusion_lon": 0.0, "bike_id": "306ab0d6ebe5e329ee1b006e0e7b4e2c", "is_reserved": 0, "rental_uris": {"android": "https://dc.lft.to/lastmile_qr_scan", "ios": "https://dc.lft.to/lastmile_qr_scan"}, "lat": 38.935782333333336, "is_disabled": 0, "lon": -77.03510483333334}, {"fusion_lat": 0.0, "type": "electric_scooter", "name": "5c361d06afa3200e279218c656de4481", "fusion_lon": 0.0, "bike_id": "5c361d06afa3200e279218c656de4481", "is_reserved": 0, "rental_uris": {"android": "https://dc.lft.to/lastmile_qr_scan", "ios": "https://dc.lft.to/lastmile_qr_scan"}, "lat": 38.90320883333333, "is_disabled": 0, "lon": -76.991237}, {"fusion_lat": 0.0, "type": "electric_scooter", "name": "abd8ed469a7cbda332d9265aa236c661", "fusion_lon": 0.0, "bike_id": "abd8ed469a7cbda332d9265aa236c661", "is_reserved": 0, "rental_uris": {"android": "https://dc.lft.to/lastmile_qr_scan", "ios": "https://dc.lft.to/lastmile_qr_scan"}, "lat": 38.8600705, "is_disabled": 0, "lon": -76.985196}, {"fusion_lat": 0.0, "type": "electric_scooter", "name": "ad9accc9d487b96229d45bd42c844313", "fusion_lon": 0.0, "bike_id": "ad9accc9d487b96229d45bd42c844313", "is_reserved": 0, "rental_uris": {"android": "https://dc.lft.to/lastmile_qr_scan", "ios": "https://dc.lft.to/lastmile_qr_scan"}, "lat": 38.91679766666667, "is_disabled": 0, "lon": -77.01577783333333}, {"fusion_lat": 0.0, "type": "electric_scooter", "name": "0f3196c0cf5e1937b596b9c14a3072fb", "fusion_lon": 0.0, "bike_id": "0f3196c0cf5e1937b596b9c14a3072fb", "is_reserved": 0, "rental_uris": {"android": "https://dc.lft.to/lastmile_qr_scan", "ios": "https://dc.lft.to/lastmile_qr_scan"}, "lat": 38.909498666666664, "is_disabled": 0, "lon": -76.98539583333333}, {"fusion_lat": 0.0, "type": "electric_scooter", "name": "a572a7b9eae4c58e67f2536d6cab32be", "fusion_lon": 0.0, "bike_id": "a572a7b9eae4c58e67f2536d6cab32be", "is_reserved": 0, "rental_uris": {"android": "https://dc.lft.to/lastmile_qr_scan", "ios": "https://dc.lft.to/lastmile_qr_scan"}, "lat": 38.94327933333334, "is_disabled": 0, "lon": -77.02682366666667}, {"fusion_lat": 0.0, "type": "electric_scooter", "name": "0882d2f6c358f271aa16cdf7e8e1a8ad", "fusion_lon": 0.0, "bike_id": "0882d2f6c358f271aa16cdf7e8e1a8ad", "is_reserved": 0, "rental_uris": {"android": "https://dc.lft.to/lastmile_qr_scan", "ios": "https://dc.lft.to/lastmile_qr_scan"}, "lat": 38.92406033333334, "is_disabled": 0, "lon": -77.02975116666667}, {"fusion_lat": 0.0, "type": "electric_scooter", "name": "c1357b66f957e8fbbde94eadd485762f", "fusion_lon": 0.0, "bike_id": "c1357b66f957e8fbbde94eadd485762f", "is_reserved": 0, "rental_uris": {"android": "https://dc.lft.to/lastmile_qr_scan", "ios": "https://dc.lft.to/lastmile_qr_scan"}, "lat": 38.876261666666664, "is_disabled": 0, "lon": -77.01255916666666}, {"fusion_lat": 0.0, "type": "electric_scooter", "name": "f2ba35698f133553b2fe6cd6a08f8b72", "fusion_lon": 0.0, "bike_id": "f2ba35698f133553b2fe6cd6a08f8b72", "is_reserved": 0, "rental_uris": {"android": "https://dc.lft.to/lastmile_qr_scan", "ios": "https://dc.lft.to/lastmile_qr_scan"}, "lat": 38.88083866666667, "is_disabled": 0, "lon": -76.99833833333334}, {"fusion_lat": 0.0, "type": "electric_scooter", "name": "563d4dd151092d3e3842dc3cdf725059", "fusion_lon": 0.0, "bike_id": "563d4dd151092d3e3842dc3cdf725059", "is_reserved": 0, "rental_uris": {"android": "https://dc.lft.to/lastmile_qr_scan", "ios": "https://dc.lft.to/lastmile_qr_scan"}, "lat": 38.87470116666667, "is_disabled": 0, "lon": -77.01902766666667}, {"fusion_lat": 0.0, "type": "electric_scooter", "name": "7945daa55e717531e5324d6ffdfc4135", "fusion_lon": 0.0, "bike_id": "7945daa55e717531e5324d6ffdfc4135", "is_reserved": 0, "rental_uris": {"android": "https://dc.lft.to/lastmile_qr_scan", "ios": "https://dc.lft.to/lastmile_qr_scan"}, "lat": 38.95274166666667, "is_disabled": 0, "lon": -77.0697735}, {"fusion_lat": 0.0, "type": "electric_scooter", "name": "b2857143de55adb9caea30ad9fce3661", "fusion_lon": 0.0, "bike_id": "b2857143de55adb9caea30ad9fce3661", "is_reserved": 0, "rental_uris": {"android": "https://dc.lft.to/lastmile_qr_scan", "ios": "https://dc.lft.to/lastmile_qr_scan"}, "lat": 38.91639216666667, "is_disabled": 0, "lon": -77.0425165}, {"fusion_lat": 0.0, "type": "electric_scooter", "name": "107645a35cab64dca7ebf3f27e2110d2", "fusion_lon": 0.0, "bike_id": "107645a35cab64dca7ebf3f27e2110d2", "is_reserved": 0, "rental_uris": {"android": "https://dc.lft.to/lastmile_qr_scan", "ios": "https://dc.lft.to/lastmile_qr_scan"}, "lat": 38.905842666666665, "is_disabled": 0, "lon": -77.0259275}, {"fusion_lat": 0.0, "type": "electric_scooter", "name": "13d7f2b2844b6c98f3a4e5496d013e1a", "fusion_lon": 0.0, "bike_id": "13d7f2b2844b6c98f3a4e5496d013e1a", "is_reserved": 0, "rental_uris": {"android": "https://dc.lft.to/lastmile_qr_scan", "ios": "https://dc.lft.to/lastmile_qr_scan"}, "lat": 38.904661, "is_disabled": 0, "lon": -76.9804435}, {"fusion_lat": 0.0, "type": "electric_scooter", "name": "8a57405d09d75210835c8a5df9ae2999", "fusion_lon": 0.0, "bike_id": "8a57405d09d75210835c8a5df9ae2999", "is_reserved": 0, "rental_uris": {"android": "https://dc.lft.to/lastmile_qr_scan", "ios": "https://dc.lft.to/lastmile_qr_scan"}, "lat": 38.892331666666664, "is_disabled": 0, "lon": -77.023859}, {"fusion_lat": 0.0, "type": "electric_scooter", "name": "8117c3e5fd8da39748611cce6f29743f", "fusion_lon": 0.0, "bike_id": "8117c3e5fd8da39748611cce6f29743f", "is_reserved": 0, "rental_uris": {"android": "https://dc.lft.to/lastmile_qr_scan", "ios": "https://dc.lft.to/lastmile_qr_scan"}, "lat": 38.87248816666666, "is_disabled": 0, "lon": -76.97731983333334}, {"fusion_lat": 0.0, "type": "electric_scooter", "name": "899d36584dad0483df41d3984f9c9d90", "fusion_lon": 0.0, "bike_id": "899d36584dad0483df41d3984f9c9d90", "is_reserved": 0, "rental_uris": {"android": "https://dc.lft.to/lastmile_qr_scan", "ios": "https://dc.lft.to/lastmile_qr_scan"}, "lat": 38.899916833333336, "is_disabled": 0, "lon": -77.0012765}, {"fusion_lat": 0.0, "type": "electric_scooter", "name": "a62857cf2b7307bb67e0380b38cc7a98", "fusion_lon": 0.0, "bike_id": "a62857cf2b7307bb67e0380b38cc7a98", "is_reserved": 0, "rental_uris": {"android": "https://dc.lft.to/lastmile_qr_scan", "ios": "https://dc.lft.to/lastmile_qr_scan"}, "lat": 38.91093766666667, "is_disabled": 0, "lon": -77.04479583333334},