{"data": {"bikes": [{"is_disabled": 0, "fusion_lon": 0.0, "fusion_lat": 0.0, "lat": 38.908557333333334, "type": "electric_scooter", "lon": -77.05504716666667, "bike_id": "aaf1637dd9aa10918dcd127f629a6f5b", "rental_uris": {"android": "https://dc.lft.to/lastmile_qr_scan", "ios": "https://dc.lft.to/lastmile_qr_scan"}, "name": "aaf1637dd9aa10918dcd127f629a6f5b", "is_reserved": 0}, {"is_disabled": 0, "fusion_lon": 0.0, "fusion_lat": 0.0, "lat": 38.88500233333333, "type": "electric_scooter", "lon": -77.0208585, "bike_id": "7af2220349b7bd6c07bf7bb14d604b14", "rental_uris": {"android": "https://dc.lft.to/lastmile_qr_scan", "ios": "https://dc.lft.to/lastmile_qr_scan"}, "name": "7af2220349b7bd6c07bf7bb14d604b14", "is_reserved": 0}, {"is_disabled": 0, "fusion_lon": 0.0, "fusion_lat": 0.0, "lat": 38.90754166666667, "type": "electric_bike", "lon": -77.041495, "bike_id": "e6e8b932565fdc8c22864fd1e35a0ab8", "rental_uris": {"android": "https://dc.lft.to/lastmile_qr_scan", "ios": "https://dc.lft.to/lastmile_qr_scan"}, "name": "e6e8b932565fdc8c22864fd1e35a0ab8", "is_reserved": 0}, {"is_disabled": 0, "fusion_lon": 0.0, "fusion_lat": 0.0, "lat": 38.90506766666667, "type": "electric_scooter", "lon": -76.9823785, "bike_id": "4d64b4535f466e686bef1f8d1dc323de", "rental_uris": {"android": "https://dc.lft.to/lastmile_qr_scan", "ios": "https://dc.lft.to/lastmile_qr_scan"}, "name": "4d64b4535f466e686bef1f8d1dc323de", "is_reserved": 0}, {"is_disabled": 0, "fusion_lon": 0.0, "fusion_lat": 0.0, "lat": 38.887442666666665, "type": "electric_scooter", "lon": -77.01429666666667, "bike_id": "6433fb32a4139008ce064b5d2e2ec671", "rental_uris": {"android": "https://dc.lft.to/lastmile_qr_scan", "ios": "https://dc.lft.to/lastmile_qr_scan"}, "name": "6433fb32a4139008ce064b5d2e2ec671", "is_reserved": 0}, {"is_disabled": 0, "fusion_lon": 0.0, "fusion_lat": 0.0, "lat": 38.898002166666664, "type": "electric_scooter", "lon": -77.00364483333334, "bike_id": "4af5a9e5d288ac3cf2979a096822a4cd", "rental_uris": {"android": "https://dc.lft.to/lastmile_qr_scan", "ios": "https://dc.lft.to/lastmile_qr_scan"}, "name": "4af5a9e5d288ac3cf2979a096822a4cd", "is_reserved": 0}, {"is_disabled": 0, "fusion_lon": 0.0, "fusion_lat": 0.0, "lat": 38.88963116666667, "type": "electric_scooter", "lon": -76.991422, "bike_id": "c4b99b799a422a8afc939c8cf8255e6a", "rental_uris": {"android": "https://dc.lft.to/lastmile_qr_scan", "ios": "https://dc.lft.to/lastmile_qr_scan"}, "name": "c4b99b799a422a8afc939c8cf8255e6a", "is_reserved": 0}, {"is_disabled": 0, "fusion_lon": 0.0, "fusion_lat": 0.0, "lat": 38.89396166666667, "type": "electric_scooter", "lon": -76.94992583333334, "bike_id": "46580d4d131062db9e072dff6c16527b", "rental_uris": {"android": "https://dc.lft.to/lastmile_qr_scan", "ios": "https://dc.lft.to/lastmile_qr_scan"}, "name": "46580d4d131062db9e072dff6c16527b", "is_reserved": 0}, {"is_disabled": 0, "fusion_lon": 0.0, "fusion_lat": 0.0, "lat": 38.921292333333334, "type": "electric_scooter", "lon": -77.03656916666667, "bike_id": "8953837cb63f0d2e2c3cf52cdcb56850", "rental_uris": {"android": "https://dc.lft.to/lastmile_qr_scan", "ios": "https://dc.lft.to/lastmile_qr_scan"}, "name": "8953837cb63f0d2e2c3cf52cdcb56850", "is_reserved": 0}, {"is_disabled": 0, "fusion_lon": 0.0, "fusion_lat": 0.0, "lat": 38.88851233333333, "type": "electric_bike", "lon": -76.97701933333333, "bike_id": "0de38ff0bad2e5a064e9984c7c4b6975", "rental_uris": {"android": "https://dc.lft.to/lastmile_qr_scan", "ios": "https://dc.lft.to/lastmile_qr_scan"}, "name": "0de38ff0bad2e5a064e9984c7c4b6975", "is_reserved": 0}, {"is_disabled": 0, "fusion_lon": 0.0, "fusion_lat": 0.0, "lat": 38.89609466666667, "type": "electric_scooter", "lon": -77.00929866666667, "bike_id": "7a4e80430372a85135a271aef380169b", "rental_uris": {"android": "https://dc.lft.to/lastmile_qr_scan", "ios": "https://dc.lft.to/lastmile_qr_scan"}, "name": "7a4e80430372a85135a271aef380169b", "is_reserved": 0}, {"is_disabled": 0, "fusion_lon": 0.0, "fusion_lat": 0.0, "lat": 38.9103665, "type": "electric_scooter", "lon": -77.0379865, "bike_id": "bb0429ed7d75cbb017772a8eb88b3da1", "rental_uris": {"android": "https://dc.lft.to/lastmile_qr_scan", "ios": "https://dc.lft.to/lastmile_qr_scan"}, "name": "bb0429ed7d75cbb017772a8eb88b3da1", "is_reserved": 0}, {"is_disabled": 0, "fusion_lon": 0.0, "fusion_lat": 0.0, "lat": 38.928452166666666, "type": "electric_scooter", "lon": -77.0554295, "bike_id": "c90e402ec9023b8dbbda934c9a7fd39b", "rental_uris": {"android": "https://dc.lft.to/lastmile_qr_scan", "ios": "https://dc.lft.to/lastmile_qr_scan"}, "name": "c90e402ec9023b8dbbda934c9a7fd39b", "is_reserved": 0}, {"is_disabled": 0, "fusion_lon": 0.0, "fusion_lat": 0.0, "lat": 39.05458133333333, "type": "electric_bike", "lon": -77.143259, "bike_id": "284a6312ebebd7aea0dca5d948afe85d", "rental_uris": {"android": "https://dc.lft.to/lastmile_qr_scan", "ios": "https://dc.lft.to/lastmile_qr_scan"}, "name": "284a6312ebebd7aea0dca5d948afe85d", "is_reserved": 0}, {"is_disabled": 0, "fusion_lon": 0.0, "fusion_lat": 0.0, "lat": 38.776210166666665, "type": "electric_bike", "lon": -77.08351916666666, "bike_id": "9a203b4bc705068eeb4d02d83513526c", "rental_uris": {"android": "https://dc.lft.to/lastmile_qr_scan", "ios": "https://dc.lft.to/lastmile_qr_scan"}, "name": "9a203b4bc705068eeb4d02d83513526c", "is_reserved": 0}, {"is_disabled": 0, "fusion_lon": 0.0, "fusion_lat": 0.0, "lat": 38.875013, "type": "electric_scooter", "lon": -76.99977733333333, "bike_id": "4abd8baf26fa6ee71fd96e3cf8e5c0ad", "rental_uris": {"android": "https://dc.lft.to/lastmile_qr_scan", "ios": "https://dc.lft.to/lastmile_qr_scan"}, "name": "4abd8baf26fa6ee71fd96e3cf8e5c0ad", "is_reserved": 0}, {"is_disabled": 0, "fusion_lon": 0.0, "fusion_lat": 0.0, "lat": 38.9182635, "type": "electric_scooter", "lon": -77.03654766666666, "bike_id": "00f794123f574af8efb05e81d0a365f9", "rental_uris": {"android": "https://dc.lft.to/lastmile_qr_scan", "ios": "https://dc.lft.to/lastmile_qr_scan"}, "name": "00f794123f574af8efb05e81d0a365f9", "is_reserved": 0}, {"is_disabled": 0, "fusion_lon": 0.0, "fusion_lat": 0.0, "lat": 38.94305583333333, "type": "electric_scooter", "lon": -77.03345716666666, "bike_id": "886ae3f6e68d1302b8de1aecdd6248c9", "rental_uris": {"android": "https://dc.lft.to/lastmile_qr_scan", "ios": "https://dc.lft.to/lastmile_qr_scan"}, "name": "886ae3f6e68d1302b8de1aecdd6248c9", "is_reserved": 0}, {"is_disabled": 0, "fusion_lon": 0.0, "fusion_lat": 0.0, "lat": 38.842953, "type": "electric_scooter", "lon": -76.99944833333333, "bike_id": "c880d4e4b67e8d6ed3ed9d99963e85f1", "rental_uris": {"android": "https://dc.lft.to/lastmile_qr_scan", "ios": "https://dc.lft.to/lastmile_qr_scan"}, "name": "c880d4e4b67e8d6ed3ed9d99963e85f1", "is_reserved": 0}, {"is_disabled": 0, "fusion_lon": 0.0, "fusion_lat": 0.0, "lat": 38.92907, "type": "electric_scooter", "lon": -77.0325675, "bike_id": "bfb9bb461269c4c014321a3282105194", "rental_uris": {"android": "https://dc.lft.to/lastmile_qr_scan", "ios": "https://dc.lft.to/lastmile_qr_scan"}, "name": "bfb9bb461269c4c014321a3282105194", "is_reserved": 0}, {"is_disabled": 0, "fusion_lon": 0.0, "fusion_lat": 0.0, "lat": 38.964487, "type": "electric_bike", "lon": -76.97722416666667, "bike_id": "c21d5a250da5a9022afb398de62bccbf", "rental_uris": {"android": "https://dc.lft.to/lastmile_qr_scan", "ios": "https://dc.lft.to/lastmile_qr_scan"}, "name": "c21d5a250da5a9022afb398de62bccbf", "is_reserved": 0}, {"is_disabled": 0, "fusion_lon": 0.0, "fusion_lat": 0.0, "lat": 39.0300115, "type": "electric_bike", "lon": -77.106533, "bike_id": "0d51a88a444197714b375535b8b89332", "rental_uris": {"android": "https://dc.lft.to/lastmile_qr_scan", "ios": "https://dc.lft.to/lastmile_qr_scan"}, "name": "0d51a88a444197714b375535b8b89332", "is_reserved": 0}, {"is_disabled": 0, "fusion_lon": 0.0, "fusion_lat": 0.0, "lat": 38.887503, "type": "electric_scooter", "lon": -77.01591766666667, "bike_id": "d6a2c381f87441217a52e8a8049851a2", "rental_uris": {"android": "https://dc.lft.to/lastmile_qr_scan", "ios": "https://dc.lft.to/lastmile_qr_scan"}, "name": "d6a2c381f87441217a52e8a8049851a2", "is_reserved": 0}, {"is_disabled": 0, "fusion_lon": 0.0, "fusion_lat": 0.0, "lat": 38.91184966666667, "type": "electric_scooter", "lon": -77.0187225, "bike_id": "aeae435c7039687edcc21d1858660a8f", "rental_uris": {"android": "https://dc.lft.to/lastmile_qr_scan", "ios": "https://dc.lft.to/lastmile_qr_scan"}, "name": "aeae435c7039687edcc21d1858660a8f", "is_reserved": 0}, {"is_disabled": 0, "fusion_lon": 0.0, "fusion_lat": 0.0, "lat": 38.89956733333333, "type": "electric_scooter", "lon": -77.0522125, "bike_id": "6f53b554acbb046229294eb91f0fa165", "rental_uris": {"android": "https://dc.lft.to/lastmile_qr_scan", "ios": "https://dc.lft.to/lastmile_qr_scan"}, "name": "6f53b554acbb046229294eb91f0fa165", "is_reserved": 0}, {"is_disabled": 0, "fusion_lon": 0.0, "fusion_lat": 0.0, "lat": 38.92384466666667, "type": "electric_scooter", "lon": -77.0275395, "bike_id": "cce487b85be653f0131ead90cf1f0781", "rental_uris": {"android": "https://dc.lft.to/lastmile_qr_scan", "ios": "https://dc.lft.to/lastmile_qr_scan"}, "name": "cce487b85be653f0131ead90cf1f0781", "is_reserved": 0}, {"is_disabled": 0, "fusion_lon": 0.0, "fusion_lat": 0.0, "lat": 38.894073166666665, "type": "electric_scooter", "lon": -77.031873, "bike_id": "497bd9d69bfdcf7947a5387f5b9632e3", "rental_uris": {"android": "https://dc.lft.to/lastmile_qr_scan", "ios": "https://dc.lft.to/lastmile_qr_scan"}, "name": "497bd9d69bfdcf7947a5387f5b9632e3", "is_reserved": 0}, {"is_disabled": 0, "fusion_lon": 0.0, "fusion_lat": 0.0, "lat": 38.90291916666666, "type": "electric_scooter", "lon": -77.03638566666666, "bike_id": "9de29861fad2bb99417ee31b2d733a43", "rental_uris": {"android": "https://dc.lft.to/lastmile_qr_scan", "ios": "https://dc.lft.to/lastmile_qr_scan"}, "name": "9de29861fad2bb99417ee31b2d733a43", "is_reserved": 0}, {"is_disabled": 0, "fusion_lon": 0.0, "fusion_lat": 0.0, "lat": 38.89259916666666, "type": "electric_scooter", "lon": -76.94156116666667, "bike_id": "f7b907c00b9c5a49f7f26131bc96798e", "rental_uris": {"android": "https://dc.lft.to/lastmile_qr_scan", "ios": "https://dc.lft.to/lastmile_qr_scan"}, "name": "f7b907c00b9c5a49f7f26131bc96798e", "is_reserved": 0}, {"is_disabled": 0, "fusion_lon": 0.0, "fusion_lat": 0.0, "lat": 38.91881633333333, "type": "electric_scooter", "lon": -77.04184583333333, "bike_id": "677344615ec8ab7751eec2573d72103b", "rental_uris": {"android": "https://dc.lft.to/lastmile_qr_scan", "ios": "https://dc.lft.to/lastmile_qr_scan"}, "name": "677344615ec8ab7751eec2573d72103b", "is_reserved": 0}, {"is_disabled": 0, "fusion_lon": 0.0, "fusion_lat": 0.0, "lat": 38.909476833333336, "type": "electric_scooter", "lon": -77.015239, "bike_id": "a3fd9c723f6d62abfb40d7b85a2a94f5", "rental_uris": {"android": "https://dc.lft.to/lastmile_qr_scan", "ios": "https://dc.lft.to/lastmile_qr_scan"}, "name": "a3fd9c723f6d62abfb40d7b85a2a94f5", "is_reserved": 0}, {"is_disabled": 0, "fusion_lon": 0.0, "fusion_lat": 0.0, "lat": 38.887426, "type": "electric_scooter", "lon": -77.03210383333334, "bike_id": "de00770ad5dc4ccbd5aa5730df3503ef", "rental_uris": {"android": "https://dc.lft.to/lastmile_qr_scan", "ios": "https://dc.lft.to/lastmile_qr_scan"}, "name": "de00770ad5dc4ccbd5aa5730df3503ef", "is_reserved": 0}, {"is_disabled": 0, "fusion_lon": 0.0, "fusion_lat": 0.0, "lat": 38.94091616666667, "type": "electric_scooter", "lon": -77.03815166666666, "bike_id": "c556f380b65a0aa0b337bc5948155e36", "rental_uris": {"android": "https://dc.lft.to/lastmile_qr_scan", "ios": "https://dc.lft.to/lastmile_qr_scan"}, "name": "c556f380b65a0aa0b337bc5948155e36", "is_reserved": 0}, {"is_disabled": 0, "fusion_lon": 0.0, "fusion_lat": 0.0, "lat": 38.88741516666666, "type": "electric_scooter", "lon": -77.01533083333334, "bike_id": "bf37edee2c2515e00fa919711d43018e", "rental_uris": {"android": "https://dc.lft.to/lastmile_qr_scan", "ios": "https://dc.lft.to/lastmile_qr_scan"}, "name": "bf37edee2c2515e00fa919711d43018e", "is_reserved": 0}, {"is_disabled": 0, "fusion_lon": 0.0, "fusion_lat": 0.0, "lat": 38.89896183333333, "type": "electric_scooter", "lon": -77.03270116666667, "bike_id": "8c201a8931e5cce8c90c0ff9d15bc812", "rental_uris": {"android": "https://dc.lft.to/lastmile_qr_scan", "ios": "https://dc.lft.to/lastmile_qr_scan"}, "name": "8c201a8931e5cce8c90c0ff9d15bc812", "is_reserved": 0}, {"is_disabled": 0, "fusion_lon": 0.0, "fusion_lat": 0.0, "lat": 38.91554466666667, "type": "electric_scooter", "lon": -77.03836866666667, "bike_id": "7b5ab01d519d875918ca0db220307fe3", "rental_uris": {"android": "https://dc.lft.to/lastmile_qr_scan", "ios": "https://dc.lft.to/lastmile_qr_scan"}, "name": "7b5ab01d519d875918ca0db220307fe3", "is_reserved": 0}, {"is_disabled": 0, "fusion_lon": 0.0, "fusion_lat": 0.0, "lat": 38.893554, "type": "electric_scooter", "lon": -76.98471433333333, "bike_id": "35354b101f54225b3ba6e7e5a28f51b9", "rental_uris": {"android": "https://dc.lft.to/lastmile_qr_scan", "ios": "https://dc.lft.to/lastmile_qr_scan"}, "name": "35354b101f54225b3ba6e7e5a28f51b9", "is_reserved": 0}, {"is_disabled": 0, "fusion_lon": 0.0, "fusion_lat": 0.0, "lat": 38.88735766666667, "type": "electric_scooter", "lon": -77.01740166666667, "bike_id": "364a89ab7147ab50d1d086ee771a2290", "rental_uris": {"android": "https://dc.lft.to/lastmile_qr_scan", "ios": "https://dc.lft.to/lastmile_qr_scan"}, "name": "364a89ab7147ab50d1d086ee771a2290", "is_reserved": 0}, {"is_disabled": 0, "fusion_lon": 0.0, "fusion_lat": 0.0, "lat": 38.92470083333333, "type": "electric_scooter", "lon": -77.02811966666667, "bike_id": "cb1b775f5a3a3a43200224fb5fe3048d", "rental_uris": {"android": "https://dc.lft.to/lastmile_qr_scan", "ios": "https://dc.lft.to/lastmile_qr_scan"}, "name": "cb1b775f5a3a3a43200224fb5fe3048d", "is_reserved": 0}, {"is_disabled": 0, "fusion_lon": 0.0, "fusion_lat": 0.0, "lat": 38.88016666666667, "type": "electric_scooter", "lon": -76.98237483333334, "bike_id": "79ef55a38df7ce087462bb298e9fe96d", "rental_uris": {"android": "https://dc.lft.to/lastmile_qr_scan", "ios": "https://dc.lft.to/lastmile_qr_scan"}, "name": "79ef55a38df7ce087462bb298e9fe96d", "is_reserved": 0}, {"is_disabled": 0, "fusion_lon": 0.0, "fusion_lat": 0.0, "lat": 38.9015315, "type": "electric_scooter", "lon": -77.03995933333333, "bike_id": "de028e5cde00bc669354fecf69d1e8ae", "rental_uris": {"android": "https://dc.lft.to/lastmile_qr_scan", "ios": "https://dc.lft.to/lastmile_qr_scan"}, "name": "de028e5cde00bc669354fecf69d1e8ae", "is_reserved": 0}, {"is_disabled": 0, "fusion_lon": 0.0, "fusion_lat": 0.0, "lat": 38.906386499999996, "type": "electric_scooter", "lon": -77.03435416666666, "bike_id": "e6d25c22d89f0bcfd09e458d01d10244", "rental_uris": {"android": "https://dc.lft.to/lastmile_qr_scan", "ios": "https://dc.lft.to/lastmile_qr_scan"}, "name": "e6d25c22d89f0bcfd09e458d01d10244", "is_reserved": 0}, {"is_disabled": 0, "fusion_lon": 0.0, "fusion_lat": 0.0, "lat": 38.9170325, "type": "electric_scooter", "lon": -77.0374795, "bike_id": "5f82f70b24c9fd3333e3c3a94aacfd7c", "rental_uris": {"android": "https://dc.lft.to/lastmile_qr_scan", "ios": "https://dc.lft.to/lastmile_qr_scan"}, "name": "5f82f70b24c9fd3333e3c3a94aacfd7c", "is_reserved": 0}, {"is_disabled": 0, "fusion_lon": 0.0, "fusion_lat": 0.0, "lat": 38.8973755, "type": "electric_scooter", "lon": -77.02500483333333, "bike_id": "5c55748dcd4e2ad77b416c8e8e1501ce", "rental_uris": {"android": "https://dc.lft.to/lastmile_qr_scan", "ios": "https://dc.lft.to/lastmile_qr_scan"}, "name": "5c55748dcd4e2ad77b416c8e8e1501ce", "is_reserved": 0}, {"is_disabled": 0, "fusion_lon": 0.0, "fusion_lat": 0.0, "lat": 38.885300666666666, "type": "electric_scooter", "lon": -76.99790833333333, "bike_id": "3e3f89c7cce54c41271a6815a712f56d", "rental_uris": {"android": "https://dc.lft.to/lastmile_qr_scan", "ios": "https://dc.lft.to/lastmile_qr_scan"}, "name": "3e3f89c7cce54c41271a6815a712f56d", "is_reserved": 0}, {"is_disabled": 0, "fusion_lon": 0.0, "fusion_lat": 0.0, "lat": 38.91697216666667, "type": "electric_scooter", "lon": -77.02595333333333, "bike_id": "a20e3713379a136fe84c3f52a36e0aac", "rental_uris": {"android": "https://dc.lft.to/lastmile_qr_scan", "ios": "https://dc.lft.to/lastmile_qr_scan"}, "name": "a20e3713379a136fe84c3f52a36e0aac", "is_reserved": 0}, {"is_disabled": 0, "fusion_lon": 0.0, "fusion_lat": 0.0, "lat": 38.906998333333334, "type": "electric_scooter", "lon": -77.0632285, "bike_id": "6a7e206ee49f42a09b00c36af0525d62", "rental_uris": {"android": "https://dc.lft.to/lastmile_qr_scan", "ios": "https://dc.lft.to/lastmile_qr_scan"}, "name": "6a7e206ee49f42a09b00c36af0525d62", "is_reserved": 0}, {"is_disabled": 0, "fusion_lon": 0.0, "fusion_lat": 0.0, "lat": 38.920272833333335, "type": "electric_scooter", "lon": -77.03191816666667, "bike_id": "0299ca46ab16fe9ad6b8710251fd5af4", "rental_uris": {"android": "https://dc.lft.to/lastmile_qr_scan", "ios": "https://dc.lft.to/lastmile_qr_scan"}, "name": "0299ca46ab16fe9ad6b8710251fd5af4", "is_reserved": 0}, {"is_disabled": 0, "fusion_lon": 0.0, "fusion_lat": 0.0, "lat": 38.907727, "type": "electric_scooter", "lon": -77.032045, "bike_id": "18fa329872dc9bfef10ae5eea436cc32", "rental_uris": {"android": "https://dc.lft.to/lastmile_qr_scan", "ios": "https://dc.lft.to/lastmile_qr_scan"}, "name": "18fa329872dc9bfef10ae5eea436cc32", "is_reserved": 0}, {"is_disabled": 0, "fusion_lon": 0.0, "fusion_lat": 0.0, "lat": 38.85889066666667, "type": "electric_scooter", "lon": -76.99029866666666, "bike_id": "b24439340a4baf1f0d85d9aa68b05f74", "rental_uris": {"android": "https://dc.lft.to/lastmile_qr_scan", "ios": "https://dc.lft.to/lastmile_qr_scan"}, "name": "b24439340a4baf1f0d85d9aa68b05f74", "is_reserved": 0}, {"is_disabled": 0, "fusion_lon": 0.0, "fusion_lat": 0.0, "lat": 38.97830183333333, "type": "electric_bike", "lon": -76.92881616666666, "bike_id": "35bd6dca1b1077ba0fdfe13d28efa473", "rental_uris": {"android": "https://dc.lft.to/lastmile_qr_scan", "ios": "https://dc.lft.to/lastmile_qr_scan"}, "name": "35bd6dca1b1077ba0fdfe13d28efa473", "is_reserved": 0}, {"is_disabled": 0, "fusion_lon": 0.0, "fusion_lat": 0.0, "lat": 38.893728333333335, "type": "electric_scooter", "lon": -76.97818633333333, "bike_id": "2a4c3ecfe1b37364a6685b7ad33cf202", "rental_uris": {"android": "https://dc.lft.to/lastmile_qr_scan", "ios": "https://dc.lft.to/lastmile_qr_scan"}, "name": "2a4c3ecfe1b37364a6685b7ad33cf202", "is_reserved": 0}, {"is_disabled": 0, "fusion_lon": 0.0, "fusion_lat": 0.0, "lat": 38.89313716666667, "type": "electric_scooter", "lon": -77.02200283333333, "bike_id": "54663ce81253057d28e78571310c49d3", "rental_uris": {"android": "https://dc.lft.to/lastmile_qr_scan", "ios": "https://dc.lft.to/lastmile_qr_scan"}, "name": "54663ce81253057d28e78571310c49d3", "is_reserved": 0}, {"is_disabled": 0, "fusion_lon": 0.0, "fusion_lat": 0.0, "lat": 38.90519883333333, "type": "electric_scooter", "lon": -77.05038416666666, "bike_id": "8b03ac87be745f5a8600fce5e76a79bd", "rental_uris": {"android": "https://dc.lft.to/lastmile_qr_scan", "ios": "https://dc.lft.to/lastmile_qr_scan"}, "name": "8b03ac87be745f5a8600fce5e76a79bd", "is_reserved": 0}, {"is_disabled": 0, "fusion_lon": 0.0, "fusion_lat": 0.0, "lat": 38.90686816666667, "type": "electric_scooter", "lon": -77.07569533333333, "bike_id": "644b6d14307818b05755bae7d4f38227", "rental_uris": {"android": "https://dc.lft.to/lastmile_qr_scan", "ios": "https://dc.lft.to/lastmile_qr_scan"}, "name": "644b6d14307818b05755bae7d4f38227", "is_reserved": 0}, {"is_disabled": 0, "fusion_lon": 0.0, "fusion_lat": 0.0, "lat": 38.90026233333333, "type": "electric_scooter", "lon": -77.0396375, "bike_id": "175e847c870d6722d06aa3479f73e172", "rental_uris": {"android": "https://dc.lft.to/lastmile_qr_scan", "ios": "https://dc.lft.to/lastmile_qr_scan"}, "name": "175e847c870d6722d06aa3479f73e172", "is_reserved": 0}, {"is_disabled": 0, "fusion_lon": 0.0, "fusion_lat": 0.0, "lat": 38.94478683333333, "type": "electric_bike", "lon": -77.00647966666666, "bike_id": "dcb6f52362f6043a0c1a57deb30c8a20", "rental_uris": {"android": "https://dc.lft.to/lastmile_qr_scan", "ios": "https://dc.lft.to/lastmile_qr_scan"}, "name": "dcb6f52362f6043a0c1a57deb30c8a20", "is_reserved": 0}, {"is_disabled": 0, "fusion_lon": 0.0, "fusion_lat": 0.0, "lat": 38.91593566666667, "type": "electric_scooter", "lon": -77.02129983333333, "bike_id": "8927df1414efd7504a7f95031481886d", "rental_uris": {"android": "https://dc.lft.to/lastmile_qr_scan", "ios": "https://dc.lft.to/lastmile_qr_scan"}, "name": "8927df1414efd7504a7f95031481886d", "is_reserved": 0}, {"is_disabled": 0, "fusion_lon": 0.0, "fusion_lat": 0.0, "lat": 38.90830166666667, "type": "electric_scooter", "lon": -77.04330583333333, "bike_id": "20a84fcaf1151595754ca0fdbb3af21f", "rental_uris": {"android": "https://dc.lft.to/lastmile_qr_scan", "ios": "https://dc.lft.to/lastmile_qr_scan"}, "name": "20a84fcaf1151595754ca0fdbb3af21f", "is_reserved": 0}, {"is_disabled": 0, "fusion_lon": 0.0, "fusion_lat": 0.0, "lat": 38.89238016666667, "type": "electric_scooter", "lon": -77.03174733333333, "bike_id": "274fab41aa82c61df20d517cea802d57", "rental_uris": {"android": "https://dc.lft.to/lastmile_qr_scan", "ios": "https://dc.lft.to/lastmile_qr_scan"}, "name": "274fab41aa82c61df20d517cea802d57", "is_reserved": 0}, {"is_disabled": 0, "fusion_lon": 0.0, "fusion_lat": 0.0, "lat": 38.886809, "type": "electric_scooter", "lon": -76.95474883333333, "bike_id": "15c9491dc6c6a28fe7468c88f4ff48f2", "rental_uris": {"android": "https://dc.lft.to/lastmile_qr_scan", "ios": "https://dc.lft.to/lastmile_qr_scan"}, "name": "15c9491dc6c6a28fe7468c88f4ff48f2", "is_reserved": 0}, {"is_disabled": 0, "fusion_lon": 0.0, "fusion_lat": 0.0, "lat": 38.9247735, "type": "electric_scooter", "lon": -77.037252, "bike_id": "3a42b65fa04aa809802bf8438de5c561", "rental_uris": {"android": "https://dc.lft.to/lastmile_qr_scan", "ios": "https://dc.lft.to/lastmile_qr_scan"}, "name": "3a42b65fa04aa809802bf8438de5c561", "is_reserved": 0}, {"is_disabled": 0, "fusion_lon": 0.0, "fusion_lat": 0.0, "lat": 38.94558216666667, "type": "electric_bike", "lon": -77.05123066666667, "bike_id": "aa07c3a26c3741cf586c4a0fac421575", "rental_uris": {"android": "https://dc.lft.to/lastmile_qr_scan", "ios": "https://dc.lft.to/lastmile_qr_scan"}, "name": "aa07c3a26c3741cf586c4a0fac421575", "is_reserved": 0}, {"is_disabled": 0, "fusion_lon": 0.0, "fusion_lat": 0.0, "lat": 38.92084916666667, "type": "electric_scooter", "lon": -77.03488633333333, "bike_id": "9b2cc895a948ecb71abeaf42073eebcc", "rental_uris": {"android": "https://dc.lft.to/lastmile_qr_scan", "ios": "https://dc.lft.to/lastmile_qr_scan"}, "name": "9b2cc895a948ecb71abeaf42073eebcc", "is_reserved": 0}, {"is_disabled": 0, "fusion_lon": 0.0, "fusion_lat": 0.0, "lat": 38.9053695, "type": "electric_scooter", "lon": -77.05026533333333, "bike_id": "4e3f1eabf1fac4343af81222d0434721", "rental_uris": {"android": "https://dc.lft.to/lastmile_qr_scan", "ios": "https://dc.lft.to/lastmile_qr_scan"}, "name": "4e3f1eabf1fac4343af81222d0434721", "is_reserved": 0}, {"is_disabled": 0, "fusion_lon": 0.0, "fusion_lat": 0.0, "lat": 38.899409, "type": "electric_scooter", "lon": -77.0390365, "bike_id": "fcb7cc590f7fae9b958dbadf95445376", "rental_uris": {"android": "https://dc.lft.to/lastmile_qr_scan", "ios": "https://dc.lft.to/lastmile_qr_scan"}, "name": "fcb7cc590f7fae9b958dbadf95445376", "is_reserved": 0}, {"is_disabled": 0, "fusion_lon": 0.0, "fusion_lat": 0.0, "lat": 38.914675, "type": "electric_scooter", "lon": -76.98450116666666, "bike_id": "ae75753c33179b21de430749a45485d6", "rental_uris": {"android": "https://dc.lft.to/lastmile_qr_scan", "ios": "https://dc.lft.to/lastmile_qr_scan"}, "name": "ae75753c33179b21de430749a45485d6", "is_reserved": 0}, {"is_disabled": 0, "fusion_lon": 0.0, "fusion_lat": 0.0, "lat": 38.925732333333336, "type": "electric_scooter", "lon": -77.080581, "bike_id": "5d5a6a5516759e98031fe2ec4e5aede4", "rental_uris": {"android": "https://dc.lft.to/lastmile_qr_scan", "ios": "https://dc.lft.to/lastmile_qr_scan"}, "name": "5d5a6a5516759e98031fe2ec4e5aede4", "is_reserved": 0}, {"is_disabled": 0, "fusion_lon": 0.0, "fusion_lat": 0.0, "lat": 38.877585, "type": "electric_bike", "lon": -76.97995466666667, "bike_id": "de38444784bd529be53637935009a585", "rental_uris": {"android": "https://dc.lft.to/lastmile_qr_scan", "ios": "https://dc.lft.to/lastmile_qr_scan"}, "name": "de38444784bd529be53637935009a585", "is_reserved": 0}, {"is_disabled": 0, "fusion_lon": 0.0, "fusion_lat": 0.0, "lat": 38.92106883333334, "type": "electric_scooter", "lon": -77.01769016666667, "bike_id": "e1190d991529a4fce36cab81ebd6df6d", "rental_uris": {"android": "https://dc.lft.to/lastmile_qr_scan", "ios": "https://dc.lft.to/lastmile_qr_scan"}, "name": "e1190d991529a4fce36cab81ebd6df6d", "is_reserved": 0}, {"is_disabled": 0, "fusion_lon": 0.0, "fusion_lat": 0.0, "lat": 38.895264166666664, "type": "electric_scooter", "lon": -77.04847916666667, "bike_id": "54934665909f5f4eceba968894548678", "rental_uris": {"android": "https://dc.lft.to/lastmile_qr_scan", "ios": "https://dc.lft.to/lastmile_qr_scan"}, "name": "54934665909f5f4eceba968894548678", "is_reserved": 0}, {"is_disabled": 0, "fusion_lon": 0.0, "fusion_lat": 0.0, "lat": 38.939624, "type": "electric_bike", "lon": -77.36085033333333, "bike_id": "fdf2fbe19d22e3356e294aa430ef4c29", "rental_uris": {"android": "https://dc.lft.to/lastmile_qr_scan", "ios": "https://dc.lft.to/lastmile_qr_scan"}, "name": "fdf2fbe19d22e3356e294aa430ef4c29", "is_reserved": 0}, {"is_disabled": 0, "fusion_lon": 0.0, "fusion_lat": 0.0, "lat": 38.905817166666665, "type": "electric_scooter", "lon": -77.0559145, "bike_id": "b647070f75f1493fb96c79023e2bf755", "rental_uris": {"android": "https://dc.lft.to/lastmile_qr_scan", "ios": "https://dc.lft.to/lastmile_qr_scan"}, "name": "b647070f75f1493fb96c79023e2bf755", "is_reserved": 0}, {"is_disabled": 0, "fusion_lon": 0.0, "fusion_lat": 0.0, "lat": 38.92978033333333, "type": "electric_scooter", "lon": -77.02797733333334, "bike_id": "c681589ccff5ecfb80097356189d03bc", "rental_uris": {"android": "https://dc.lft.to/lastmile_qr_scan", "ios": "https://dc.lft.to/lastmile_qr_scan"}, "name": "c681589ccff5ecfb80097356189d03bc", "is_reserved": 0}, {"is_disabled": 0, "fusion_lon": 0.0, "fusion_lat": 0.0, "lat": 38.924636166666666, "type": "electric_scooter", "lon": -77.07866733333333, "bike_id": "c0f0a38d5b3336c6f694d4198b54e66c", "rental_uris": {"android": "https://dc.lft.to/lastmile_qr_scan", "ios": "https://dc.lft.to/lastmile_qr_scan"}, "name": "c0f0a38d5b3336c6f694d4198b54e66c", "is_reserved": 0}, {"is_disabled": 0, "fusion_lon": 0.0, "fusion_lat": 0.0, "lat": 38.9407745, "type": "electric_scooter", "lon": -77.02909433333333, "bike_id": "5fd6d084e5cb23b4568d73bb8954e8bd", "rental_uris": {"android": "https://dc.lft.to/lastmile_qr_scan", "ios": "https://dc.lft.to/lastmile_qr_scan"}, "name": "5fd6d084e5cb23b4568d73bb8954e8bd", "is_reserved": 0}, {"is_disabled": 0, "fusion_lon": 0.0, "fusion_lat": 0.0, "lat": 38.89831933333333, "type": "electric_scooter", "lon": -77.031989, "bike_id": "fbb6dc2848b8e4e640ca4a586053f0b4", "rental_uris": {"android": "https://dc.lft.to/lastmile_qr_scan", "ios": "https://dc.lft.to/lastmile_qr_scan"}, "name": "fbb6dc2848b8e4e640ca4a586053f0b4", "is_reserved": 0}, {"is_disabled": 0, "fusion_lon": 0.0, "fusion_lat": 0.0, "lat": 38.85785633333333, "type": "electric_bike", "lon": -76.9875215, "bike_id": "8fde075e01413d9281d699bced3f8183", "rental_uris": {"android": "https://dc.lft.to/lastmile_qr_scan", "ios": "https://dc.lft.to/lastmile_qr_scan"}, "name": "8fde075e01413d9281d699bced3f8183", "is_reserved": 0}, {"is_disabled": 0, "fusion_lon": 0.0, "fusion_lat": 0.0, "lat": 38.916154666666664, "type": "electric_scooter", "lon": -77.03189533333334, "bike_id": "a011a51dd54042ab585562ba321f9059", "rental_uris": {"android": "https://dc.lft.to/lastmile_qr_scan", "ios": "https://dc.lft.to/lastmile_qr_scan"}, "name": "a011a51dd54042ab585562ba321f9059", "is_reserved": 0}, {"is_disabled": 0, "fusion_lon": 0.0, "fusion_lat": 0.0, "lat": 38.900034833333336, "type": "electric_scooter", "lon": -77.03377016666667, "bike_id": "5d89818dd391d4cb52a60705c5a56554", "rental_uris": {"android": "https://dc.lft.to/lastmile_qr_scan", "ios": "https://dc.lft.to/lastmile_qr_scan"}, "name": "5d89818dd391d4cb52a60705c5a56554", "is_reserved": 0}, {"is_disabled": 0, "fusion_lon": 0.0, "fusion_lat": 0.0, "lat": 38.905703, "type": "electric_scooter", "lon": -77.03663716666667, "bike_id": "c02d65745f281e587496b28cf045ac44", "rental_uris": {"android": "https://dc.lft.to/lastmile_qr_scan", "ios": "https://dc.lft.to/lastmile_qr_scan"}, "name": "c02d65745f281e587496b28cf045ac44", "is_reserved": 0}, {"is_disabled": 0, "fusion_lon": 0.0, "fusion_lat": 0.0, "lat": 38.9140845, "type": "electric_scooter", "lon": -77.0317065, "bike_id": "d3bb522b84d459b08921d8d23faf252e", "rental_uris": {"android": "https://dc.lft.to/lastmile_qr_scan", "ios": "https://dc.lft.to/lastmile_qr_scan"}, "name": "d3bb522b84d459b08921d8d23faf252e", "is_reserved": 0}, {"is_disabled": 0, "fusion_lon": 0.0, "fusion_lat": 0.0, "lat": 38.90533416666667, "type": "electric_bike", "lon": -77.05689266666667, "bike_id": "402eee0f8e16fe825785c611c0e9f32b", "rental_uris": {"android": "https://dc.lft.to/lastmile_qr_scan", "ios": "https://dc.lft.to/lastmile_qr_scan"}, "name": "402eee0f8e16fe825785c611c0e9f32b", "is_reserved": 0}, {"is_disabled": 0, "fusion_lon": 0.0, "fusion_lat": 0.0, "lat": 38.943336, "type": "electric_bike", "lon": -77.01477166666666, "bike_id": "fc1dbe321f45c3a4bcd07f5135ee2197", "rental_uris": {"android": "https://dc.lft.to/lastmile_qr_scan", "ios": "https://dc.lft.to/lastmile_qr_scan"}, "name": "fc1dbe321f45c3a4bcd07f5135ee2197", "is_reserved": 0}, {"is_disabled": 0, "fusion_lon": 0.0, "fusion_lat": 0.0, "lat": 38.921356, "type": "electric_scooter", "lon": -77.04424683333333, "bike_id": "b81a257c5e4b139bc90f0ad8232a6b78", "rental_uris": {"android": "https://dc.lft.to/lastmile_qr_scan", "ios": "https://dc.lft.to/lastmile_qr_scan"}, "name": "b81a257c5e4b139bc90f0ad8232a6b78", "is_reserved": 0}, {"is_disabled": 0, "fusion_lon": 0.0, "fusion_lat": 0.0, "lat": 38.89538616666667, "type": "electric_scooter", "lon": -77.01532866666666, "bike_id": "ad31306bf394e0b79aaaccbc64644fcd", "rental_uris": {"android": "https://dc.lft.to/lastmile_qr_scan", "ios": "https://dc.lft.to/lastmile_qr_scan"}, "name": "ad31306bf394e0b79aaaccbc64644fcd", "is_reserved": 0}, {"is_disabled": 0, "fusion_lon": 0.0, "fusion_lat": 0.0, "lat": 38.90792166666667, "type": "electric_scooter", "lon": -77.0238485, "bike_id": "b78143a07b7ea6cafa4d4a16668df22d", "rental_uris": {"android": "https://dc.lft.to/lastmile_qr_scan", "ios": "https://dc.lft.to/lastmile_qr_scan"}, "name": "b78143a07b7ea6cafa4d4a16668df22d", "is_reserved": 0}, {"is_disabled": 0, "fusion_lon": 0.0, "fusion_lat": 0.0, "lat": 38.852873, "type": "electric_bike", "lon": -76.98155983333334, "bike_id": "ea9731f88fa34b4b89cc5786d543691f", "rental_uris": {"android": "https://dc.lft.to/lastmile_qr_scan", "ios": "https://dc.lft.to/lastmile_qr_scan"}, "name": "ea9731f88fa34b4b89cc5786d543691f", "is_reserved": 0}, {"is_disabled": 0, "fusion_lon": 0.0, "fusion_lat": 0.0, "lat": 38.92284883333333, "type": "electric_scooter", "lon": -77.04460866666666, "bike_id": "c2531be608dae0191ac198b25a7262f3", "rental_uris": {"android": "https://dc.lft.to/lastmile_qr_scan", "ios": "https://dc.lft.to/lastmile_qr_scan"}, "name": "c2531be608dae0191ac198b25a7262f3", "is_reserved": 0}, {"is_disabled": 0, "fusion_lon": 0.0, "fusion_lat": 0.0, "lat": 38.922652166666666, "type": "electric_scooter", "lon": -77.042184, "bike_id": "cb458c0d804a1a4a92103468c6393a3e", "rental_uris": {"android": "https://dc.lft.to/lastmile_qr_scan", "ios": "https://dc.lft.to/lastmile_qr_scan"}, "name": "cb458c0d804a1a4a92103468c6393a3e", "is_reserved": 0}, {"is_disabled": 0, "fusion_lon": 0.0, "fusion_lat": 0.0, "lat": 38.90397683333333, "type": "electric_scooter", "lon": -77.04388383333334, "bike_id": "7e037948aac963d73d279c44e322b539", "rental_uris": {"android": "https://dc.lft.to/lastmile_qr_scan", "ios": "https://dc.lft.to/lastmile_qr_scan"}, "name": "7e037948aac963d73d279c44e322b539", "is_reserved": 0}, {"is_disabled": 0, "fusion_lon": 0.0, "fusion_lat": 0.0, "lat": 38.919973666666664, "type": "electric_scooter", "lon": -77.02507966666667, "bike_id": "6a738eb3b657d6ed65340f002190b01e", "rental_uris": {"android": "https://dc.lft.to/lastmile_qr_scan", "ios": "https://dc.lft.to/lastmile_qr_scan"}, "name": "6a738eb3b657d6ed65340f002190b01e", "is_reserved": 0}, {"is_disabled": 0, "fusion_lon": 0.0, "fusion_lat": 0.0, "lat": 38.827813, "type": "electric_bike", "lon": -77.11079816666667, "bike_id": "1e2b6a6a72a2a671a00504b1a59371cf", "rental_uris": {"android": "https://dc.lft.to/lastmile_qr_scan", "ios": "https://dc.lft.to/lastmile_qr_scan"}, "name": "1e2b6a6a72a2a671a00504b1a59371cf", "is_reserved": 0}, {"is_disabled": 0, "fusion_lon": 0.0, "fusion_lat": 0.0, "lat": 38.91425483333333, "type": "electric_scooter", "lon": -77.03204, "bike_id": "7f01e25134a1ffee482fb959ec71eee3", "rental_uris": {"android": "https://dc.lft.to/lastmile_qr_scan", "ios": "https://dc.lft.to/lastmile_qr_scan"}, "name": "7f01e25134a1ffee482fb959ec71eee3", "is_reserved": 0}, {"is_disabled": 0, "fusion_lon": 0.0, "fusion_lat": 0.0, "lat": 38.96263866666666, "type": "electric_scooter", "lon": -77.02894116666667, "bike_id": "7a9238a2cb3b4f5b8a25bb047a5e94a7", "rental_uris": {"android": "https://dc.lft.to/lastmile_qr_scan", "ios": "https://dc.lft.to/lastmile_qr_scan"}, "name": "7a9238a2cb3b4f5b8a25bb047a5e94a7", "is_reserved": 0}, {"is_disabled": 0, "fusion_lon": 0.0, "fusion_lat": 0.0, "lat": 38.9160275, "type": "electric_scooter", "lon": -77.02299883333333, "bike_id": "00b9e518dacd8fc5b2a7b09f73fa38c2", "rental_uris": {"android": "https://dc.lft.to/lastmile_qr_scan", "ios": "https://dc.lft.to/lastmile_qr_scan"}, "name": "00b9e518dacd8fc5b2a7b09f73fa38c2", "is_reserved": 0}, {"is_disabled": 0, "fusion_lon": 0.0, "fusion_lat": 0.0, "lat": 38.905077666666664, "type": "electric_scooter", "lon": -77.06516033333334, "bike_id": "d9914de56eeed2aec8f29e8f141b534a", "rental_uris": {"android": "https://dc.lft.to/lastmile_qr_scan", "ios": "https://dc.lft.to/lastmile_qr_scan"}, "name": "d9914de56eeed2aec8f29e8f141b534a", "is_reserved": 0}, {"is_disabled": 0, "fusion_lon": 0.0, "fusion_lat": 0.0, "lat": 38.89970816666667, "type": "electric_scooter", "lon": -76.9397675, "bike_id": "2c98d89a8958b008911b8ecc6bd45b1b", "rental_uris": {"android": "https://dc.lft.to/lastmile_qr_scan", "ios": "https://dc.lft.to/lastmile_qr_scan"}, "name": "2c98d89a8958b008911b8ecc6bd45b1b", "is_reserved": 0}, {"is_disabled": 0, "fusion_lon": 0.0, "fusion_lat": 0.0, "lat": 38.885175, "type": "electric_scooter", "lon": -76.99848416666667, "bike_id": "5eb7078176282e8501d62043b3ad5f6b", "rental_uris": {"android": "https://dc.lft.to/lastmile_qr_scan", "ios": "https://dc.lft.to/lastmile_qr_scan"}, "name": "5eb7078176282e8501d62043b3ad5f6b", "is_reserved": 0}, {"is_disabled": 0, "fusion_lon": 0.0, "fusion_lat": 0.0, "lat": 38.9883095, "type": "electric_bike", "lon": -76.98756233333333, "bike_id": "0c9ddc50765182f037deeeacd92d1603", "rental_uris": {"android": "https://dc.lft.to/lastmile_qr_scan", "ios": "https://dc.lft.to/lastmile_qr_scan"}, "name": "0c9ddc50765182f037deeeacd92d1603", "is_reserved": 0}, {"is_disabled": 0, "fusion_lon": 0.0, "fusion_lat": 0.0, "lat": 38.915413666666666, "type": "electric_scooter", "lon": -77.03205416666667, "bike_id": "0ee768fa3f09cc2fdab2fd255bee9e67", "rental_uris": {"android": "https://dc.lft.to/lastmile_qr_scan", "ios": "https://dc.lft.to/lastmile_qr_scan"}, "name": "0ee768fa3f09cc2fdab2fd255bee9e67", "is_reserved": 0}, {"is_disabled": 0, "fusion_lon": 0.0, "fusion_lat": 0.0, "lat": 38.95213866666667, "type": "electric_scooter", "lon": -77.0363115, "bike_id": "84294a78b1b435ca3aebc28a589d3164", "rental_uris": {"android": "https://dc.lft.to/lastmile_qr_scan", "ios": "https://dc.lft.to/lastmile_qr_scan"}, "name": "84294a78b1b435ca3aebc28a589d3164", "is_reserved": 0}, {"is_disabled": 0, "fusion_lon": 0.0, "fusion_lat": 0.0, "lat": 38.920347, "type": "electric_scooter", "lon": -77.025836, "bike_id": "9fca97c5c1799f6abf67837b1df8b3ad", "rental_uris": {"android": "https://dc.lft.to/lastmile_qr_scan", "ios": "https://dc.lft.to/lastmile_qr_scan"}, "name": "9fca97c5c1799f6abf67837b1df8b3ad", "is_reserved": 0}, {"is_disabled": 0, "fusion_lon": 0.0, "fusion_lat": 0.0, "lat": 38.89630433333333, "type": "electric_scooter", "lon": -77.02161916666667, "bike_id": "11a245fa36fe8700ca634892664c969e", "rental_uris": {"android": "https://dc.lft.to/lastmile_qr_scan", "ios": "https://dc.lft.to/lastmile_qr_scan"}, "name": "11a245fa36fe8700ca634892664c969e", "is_reserved": 0}, {"is_disabled": 0, "fusion_lon": 0.0, "fusion_lat": 0.0, "lat": 38.89527733333333, "type": "electric_scooter", "lon": -77.0283725, "bike_id": "ab93ae4824330365292728a07c63f2fe", "rental_uris": {"android": "https://dc.lft.to/lastmile_qr_scan", "ios": "https://dc.lft.to/lastmile_qr_scan"}, "name": "ab93ae4824330365292728a07c63f2fe", "is_reserved": 0}, {"is_disabled": 0, "fusion_lon": 0.0, "fusion_lat": 0.0, "lat": 38.9062195, "type": "electric_scooter", "lon": -77.0240815, "bike_id": "a9be5103289092e7cdf8c84c70a428cd", "rental_uris": {"android": "https://dc.lft.to/lastmile_qr_scan", "ios": "https://dc.lft.to/lastmile_qr_scan"}, "name": "a9be5103289092e7cdf8c84c70a428cd", "is_reserved": 0}, {"is_disabled": 0, "fusion_lon": 0.0, "fusion_lat": 0.0, "lat": 38.877789, "type": "electric_scooter", "lon": -77.01440366666667, "bike_id": "4cee6997789fb11062527f21a7600372", "rental_uris": {"android": "https://dc.lft.to/lastmile_qr_scan", "ios": "https://dc.lft.to/lastmile_qr_scan"}, "name": "4cee6997789fb11062527f21a7600372", "is_reserved": 0}, {"is_disabled": 0, "fusion_lon": 0.0, "fusion_lat": 0.0, "lat": 38.90054583333333, "type": "electric_scooter", "lon": -77.00757816666666, "bike_id": "71fb7f4795d5eedf0c13181981a9b73c", "rental_uris": {"android": "https://dc.lft.to/lastmile_qr_scan", "ios": "https://dc.lft.to/lastmile_qr_scan"}, "name": "71fb7f4795d5eedf0c13181981a9b73c", "is_reserved": 0}, {"is_disabled": 0, "fusion_lon": 0.0, "fusion_lat": 0.0, "lat": 38.9118825, "type": "electric_scooter", "lon": -77.0417445, "bike_id": "0735892faca9e0efb6260c2c8049dd66", "rental_uris": {"android": "https://dc.lft.to/lastmile_qr_scan", "ios": "https://dc.lft.to/lastmile_qr_scan"}, "name": "0735892faca9e0efb6260c2c8049dd66", "is_reserved": 0}, {"is_disabled": 0, "fusion_lon": 0.0, "fusion_lat": 0.0, "lat": 38.93707583333333, "type": "electric_scooter", "lon": -77.06098883333334, "bike_id": "a612f0d67d8a50002721356148367e4f", "rental_uris": {"android": "https://dc.lft.to/lastmile_qr_scan", "ios": "https://dc.lft.to/lastmile_qr_scan"}, "name": "a612f0d67d8a50002721356148367e4f", "is_reserved": 0}, {"is_disabled": 0, "fusion_lon": 0.0, "fusion_lat": 0.0, "lat": 38.86357683333333, "type": "electric_scooter", "lon": -76.99064166666666, "bike_id": "6d58aace477185a8aab61c1c101be03b", "rental_uris": {"android": "https://dc.lft.to/lastmile_qr_scan", "ios": "https://dc.lft.to/lastmile_qr_scan"}, "name": "6d58aace477185a8aab61c1c101be03b", "is_reserved": 0}, {"is_disabled": 0, "fusion_lon": 0.0, "fusion_lat": 0.0, "lat": 38.981375166666666, "type": "electric_bike", "lon": -77.00763283333333, "bike_id": "97308ddc14eadfd59607ee740f39ba6e", "rental_uris": {"android": "https://dc.lft.to/lastmile_qr_scan", "ios": "https://dc.lft.to/lastmile_qr_scan"}, "name": "97308ddc14eadfd59607ee740f39ba6e", "is_reserved": 0}, {"is_disabled": 0, "fusion_lon": 0.0, "fusion_lat": 0.0, "lat": 38.8489075, "type": "electric_scooter", "lon": -77.005188, "bike_id": "08cd04ff079d0bf270946c47acc4a988", "rental_uris": {"android": "https://dc.lft.to/lastmile_qr_scan", "ios": "https://dc.lft.to/lastmile_qr_scan"}, "name": "08cd04ff079d0bf270946c47acc4a988", "is_reserved": 0}, {"is_disabled": 0, "fusion_lon": 0.0, "fusion_lat": 0.0, "lat": 38.905941, "type": "electric_scooter", "lon": -77.05129083333334, "bike_id": "c1c9484af93cb24feb3d09241f483d6c", "rental_uris": {"android": "https://dc.lft.to/lastmile_qr_scan", "ios": "https://dc.lft.to/lastmile_qr_scan"}, "name": "c1c9484af93cb24feb3d09241f483d6c", "is_reserved": 0}, {"is_disabled": 0, "fusion_lon": 0.0, "fusion_lat": 0.0, "lat": 38.90598583333333, "type": "electric_scooter", "lon": -77.06369216666667, "bike_id": "680d7cd0840681fc49d60d04a37a2ad1", "rental_uris": {"android": "https://dc.lft.to/lastmile_qr_scan", "ios": "https://dc.lft.to/lastmile_qr_scan"}, "name": "680d7cd0840681fc49d60d04a37a2ad1", "is_reserved": 0}, {"is_disabled": 0, "fusion_lon": 0.0, "fusion_lat": 0.0, "lat": 38.9180675, "type": "electric_scooter", "lon": -77.03436333333333, "bike_id": "cf5aeaf9dbe1001f6a59c432c7f10c21", "rental_uris": {"android": "https://dc.lft.to/lastmile_qr_scan", "ios": "https://dc.lft.to/lastmile_qr_scan"}, "name": "cf5aeaf9dbe1001f6a59c432c7f10c21", "is_reserved": 0}, {"is_disabled": 0, "fusion_lon": 0.0, "fusion_lat": 0.0, "lat": 38.88373083333333, "type": "electric_scooter", "lon": -76.92374883333333, "bike_id": "2f926d83a09896d4d076a4481e4f87ec", "rental_uris": {"android": "https://dc.lft.to/lastmile_qr_scan", "ios": "https://dc.lft.to/lastmile_qr_scan"}, "name": "2f926d83a09896d4d076a4481e4f87ec", "is_reserved": 0}, {"is_disabled": 0, "fusion_lon": 0.0, "fusion_lat": 0.0, "lat": 38.89928466666667, "type": "electric_scooter", "lon": -77.03981033333334, "bike_id": "d77f94f96fdd4fa5d4f9cafebd7308ee", "rental_uris": {"android": "https://dc.lft.to/lastmile_qr_scan", "ios": "https://dc.lft.to/lastmile_qr_scan"}, "name": "d77f94f96fdd4fa5d4f9cafebd7308ee", "is_reserved": 0}, {"is_disabled": 0, "fusion_lon": 0.0, "fusion_lat": 0.0, "lat": 38.898272, "type": "electric_scooter", "lon": -77.03171433333333, "bike_id": "33b9ca8f458a6265bbc085eda6946665", "rental_uris": {"android": "https://dc.lft.to/lastmile_qr_scan", "ios": "https://dc.lft.to/lastmile_qr_scan"}, "name": "33b9ca8f458a6265bbc085eda6946665", "is_reserved": 0}, {"is_disabled": 0, "fusion_lon": 0.0, "fusion_lat": 0.0, "lat": 38.94525216666667, "type": "electric_scooter", "lon": -77.029758, "bike_id": "9e04682dab2358d0c0c1f429535fb933", "rental_uris": {"android": "https://dc.lft.to/lastmile_qr_scan", "ios": "https://dc.lft.to/lastmile_qr_scan"}, "name": "9e04682dab2358d0c0c1f429535fb933", "is_reserved": 0}, {"is_disabled": 0, "fusion_lon": 0.0, "fusion_lat": 0.0, "lat": 38.906857333333335, "type": "electric_scooter", "lon": -77.03108233333333, "bike_id": "cf8529c56ade14b6a9ede74cc5ca7b5a", "rental_uris": {"android": "https://dc.lft.to/lastmile_qr_scan", "ios": "https://dc.lft.to/lastmile_qr_scan"}, "name": "cf8529c56ade14b6a9ede74cc5ca7b5a", "is_reserved": 0}, {"is_disabled": 0, "fusion_lon": 0.0, "fusion_lat": 0.0, "lat": 38.901484333333336, "type": "electric_scooter", "lon": -77.041831, "bike_id": "b695d4b99807f0408cf7742c90b5437f", "rental_uris": {"android": "https://dc.lft.to/lastmile_qr_scan", "ios": "https://dc.lft.to/lastmile_qr_scan"}, "name": "b695d4b99807f0408cf7742c90b5437f", "is_reserved": 0}, {"is_disabled": 0, "fusion_lon": 0.0, "fusion_lat": 0.0, "lat": 38.9279815, "type": "electric_scooter", "lon": -77.032608, "bike_id": "590a26c494729d99f75193d38a1538f4", "rental_uris": {"android": "https://dc.lft.to/lastmile_qr_scan", "ios": "https://dc.lft.to/lastmile_qr_scan"}, "name": "590a26c494729d99f75193d38a1538f4", "is_reserved": 0}, {"is_disabled": 0, "fusion_lon": 0.0, "fusion_lat": 0.0, "lat": 38.903155, "type": "electric_scooter", "lon": -77.02247483333333, "bike_id": "25698ad4117e624ab347e3ea03dfed96", "rental_uris": {"android": "https://dc.lft.to/lastmile_qr_scan", "ios": "https://dc.lft.to/lastmile_qr_scan"}, "name": "25698ad4117e624ab347e3ea03dfed96", "is_reserved": 0}, {"is_disabled": 0, "fusion_lon": 0.0, "fusion_lat": 0.0, "lat": 38.90717383333333, "type": "electric_scooter", "lon": -77.02713683333333, "bike_id": "c745c1cb1b0c5c26348cc02d7791c570", "rental_uris": {"android": "https://dc.lft.to/lastmile_qr_scan", "ios": "https://dc.lft.to/lastmile_qr_scan"}, "name": "c745c1cb1b0c5c26348cc02d7791c570", "is_reserved": 0}, {"is_disabled": 0, "fusion_lon": 0.0, "fusion_lat": 0.0, "lat": 38.913078666666664, "type": "electric_scooter", "lon": -77.03203833333333, "bike_id": "b816314a4edecc07ac9359ca285d58fc", "rental_uris": {"android": "https://dc.lft.to/lastmile_qr_scan", "ios": "https://dc.lft.to/lastmile_qr_scan"}, "name": "b816314a4edecc07ac9359ca285d58fc", "is_reserved": 0}, {"is_disabled": 0, "fusion_lon": 0.0, "fusion_lat": 0.0, "lat": 38.916673333333335, "type": "electric_scooter", "lon": -77.0279095, "bike_id": "c053ce710e79a243c1061a6423bc32a5", "rental_uris": {"android": "https://dc.lft.to/lastmile_qr_scan", "ios": "https://dc.lft.to/lastmile_qr_scan"}, "name": "c053ce710e79a243c1061a6423bc32a5", "is_reserved": 0}, {"is_disabled": 0, "fusion_lon": 0.0, "fusion_lat": 0.0, "lat": 38.900118666666664, "type": "electric_scooter", "lon": -77.0319775, "bike_id": "c6f91de4ec8a893b6f065f04988fe5a1", "rental_uris": {"android": "https://dc.lft.to/lastmile_qr_scan", "ios": "https://dc.lft.to/lastmile_qr_scan"}, "name": "c6f91de4ec8a893b6f065f04988fe5a1", "is_reserved": 0}, {"is_disabled": 0, "fusion_lon": 0.0, "fusion_lat": 0.0, "lat": 38.845113166666664, "type": "electric_bike", "lon": -76.97211216666666, "bike_id": "4f30cd69268e2aac735f04ca2ffc941e", "rental_uris": {"android": "https://dc.lft.to/lastmile_qr_scan", "ios": "https://dc.lft.to/lastmile_qr_scan"}, "name": "4f30cd69268e2aac735f04ca2ffc941e", "is_reserved": 0}, {"is_disabled": 0, "fusion_lon": 0.0, "fusion_lat": 0.0, "lat": 38.90273833333333, "type": "electric_scooter", "lon": -77.01762866666667, "bike_id": "7ea5ff49a4fbbd220bc868bdd137e8a8", "rental_uris": {"android": "https://dc.lft.to/lastmile_qr_scan", "ios": "https://dc.lft.to/lastmile_qr_scan"}, "name": "7ea5ff49a4fbbd220bc868bdd137e8a8", "is_reserved": 0}, {"is_disabled": 0, "fusion_lon": 0.0, "fusion_lat": 0.0, "lat": 38.93640766666667, "type": "electric_bike", "lon": -76.9544675, "bike_id": "d7fd86ad98df13f3428e048af4a486f7", "rental_uris": {"android": "https://dc.lft.to/lastmile_qr_scan", "ios": "https://dc.lft.to/lastmile_qr_scan"}, "name": "d7fd86ad98df13f3428e048af4a486f7", "is_reserved": 0}, {"is_disabled": 0, "fusion_lon": 0.0, "fusion_lat": 0.0, "lat": 38.888722666666666, "type": "electric_scooter", "lon": -77.0285305, "bike_id": "436c391d733761c6c9fea24a36672fbd", "rental_uris": {"android": "https://dc.lft.to/lastmile_qr_scan", "ios": "https://dc.lft.to/lastmile_qr_scan"}, "name": "436c391d733761c6c9fea24a36672fbd", "is_reserved": 0}, {"is_disabled": 0, "fusion_lon": 0.0, "fusion_lat": 0.0, "lat": 38.9055675, "type": "electric_scooter", "lon": -77.00559566666666, "bike_id": "df2497730d9afdb9a1a7222dc8dc7afc", "rental_uris": {"android": "https://dc.lft.to/lastmile_qr_scan", "ios": "https://dc.lft.to/lastmile_qr_scan"}, "name": "df2497730d9afdb9a1a7222dc8dc7afc", "is_reserved": 0}, {"is_disabled": 0, "fusion_lon": 0.0, "fusion_lat": 0.0, "lat": 38.93101816666667, "type": "electric_scooter", "lon": -77.03100933333333, "bike_id": "8572af470717778741c98165376e7718", "rental_uris": {"android": "https://dc.lft.to/lastmile_qr_scan", "ios": "https://dc.lft.to/lastmile_qr_scan"}, "name": "8572af470717778741c98165376e7718", "is_reserved": 0}, {"is_disabled": 0, "fusion_lon": 0.0, "fusion_lat": 0.0, "lat": 38.904582833333336, "type": "electric_scooter", "lon": -77.03464733333334, "bike_id": "74587c98c5f0933119dd00197d71b639", "rental_uris": {"android": "https://dc.lft.to/lastmile_qr_scan", "ios": "https://dc.lft.to/lastmile_qr_scan"}, "name": "74587c98c5f0933119dd00197d71b639", "is_reserved": 0}, {"is_disabled": 0, "fusion_lon": 0.0, "fusion_lat": 0.0, "lat": 38.9457725, "type": "electric_bike", "lon": -76.987762, "bike_id": "2fc74833d0428f492e1f943636638f22", "rental_uris": {"android": "https://dc.lft.to/lastmile_qr_scan", "ios": "https://dc.lft.to/lastmile_qr_scan"}, "name": "2fc74833d0428f492e1f943636638f22", "is_reserved": 0}, {"is_disabled": 0, "fusion_lon": 0.0, "fusion_lat": 0.0, "lat": 38.914136666666664, "type": "electric_scooter", "lon": -77.04501566666667, "bike_id": "4988045fdd9ce50ecfe39edd6519caa6", "rental_uris": {"android": "https://dc.lft.to/lastmile_qr_scan", "ios": "https://dc.lft.to/lastmile_qr_scan"}, "name": "4988045fdd9ce50ecfe39edd6519caa6", "is_reserved": 0}, {"is_disabled": 0, "fusion_lon": 0.0, "fusion_lat": 0.0, "lat": 38.90474716666667, "type": "electric_scooter", "lon": -77.035738, "bike_id": "9a164339d2ee7bda1fb6db9744c5bf10", "rental_uris": {"android": "https://dc.lft.to/lastmile_qr_scan", "ios": "https://dc.lft.to/lastmile_qr_scan"}, "name": "9a164339d2ee7bda1fb6db9744c5bf10", "is_reserved": 0}, {"is_disabled": 0, "fusion_lon": 0.0, "fusion_lat": 0.0, "lat": 38.96113066666667, "type": "electric_bike", "lon": -77.028501, "bike_id": "81591d2de0d5e3412bb0e772d3c8517c", "rental_uris": {"android": "https://dc.lft.to/lastmile_qr_scan", "ios": "https://dc.lft.to/lastmile_qr_scan"}, "name": "81591d2de0d5e3412bb0e772d3c8517c", "is_reserved": 0}, {"is_disabled": 0, "fusion_lon": 0.0, "fusion_lat": 0.0, "lat": 38.90432533333333, "type": "electric_scooter", "lon": -77.02882666666666, "bike_id": "4683065868af739b1b360cf44051b730", "rental_uris": {"android": "https://dc.lft.to/lastmile_qr_scan", "ios": "https://dc.lft.to/lastmile_qr_scan"}, "name": "4683065868af739b1b360cf44051b730", "is_reserved": 0}, {"is_disabled": 0, "fusion_lon": 0.0, "fusion_lat": 0.0, "lat": 38.94751266666667, "type": "electric_scooter", "lon": -77.0179955, "bike_id": "960090bfef1ef227a9358f3f101bbe17", "rental_uris": {"android": "https://dc.lft.to/lastmile_qr_scan", "ios": "https://dc.lft.to/lastmile_qr_scan"}, "name": "960090bfef1ef227a9358f3f101bbe17", "is_reserved": 0}, {"is_disabled": 0, "fusion_lon": 0.0, "fusion_lat": 0.0, "lat": 38.87406883333333, "type": "electric_scooter", "lon": -77.00200666666667, "bike_id": "4f971600f87edf6174039233a803a9d6", "rental_uris": {"android": "https://dc.lft.to/lastmile_qr_scan", "ios": "https://dc.lft.to/lastmile_qr_scan"}, "name": "4f971600f87edf6174039233a803a9d6", "is_reserved": 0}, {"is_disabled": 0, "fusion_lon": 0.0, "fusion_lat": 0.0, "lat": 38.910493833333334, "type": "electric_scooter", "lon": -77.064534, "bike_id": "6bee08c96c8357fa927aee752868c9aa", "rental_uris": {"android": "https://dc.lft.to/lastmile_qr_scan", "ios": "https://dc.lft.to/lastmile_qr_scan"}, "name": "6bee08c96c8357fa927aee752868c9aa", "is_reserved": 0}, {"is_disabled": 0, "fusion_lon": 0.0, "fusion_lat": 0.0, "lat": 38.91805566666667, "type": "electric_scooter", "lon": -77.02874933333334, "bike_id": "8aa06e5015c766dc4a3e6f4cc363b175", "rental_uris": {"android": "https://dc.lft.to/lastmile_qr_scan", "ios": "https://dc.lft.to/lastmile_qr_scan"}, "name": "8aa06e5015c766dc4a3e6f4cc363b175", "is_reserved": 0}, {"is_disabled": 0, "fusion_lon": 0.0, "fusion_lat": 0.0, "lat": 38.895054, "type": "electric_scooter", "lon": -76.94873833333334, "bike_id": "060687f63ed704f0c5352c54f5cfb12b", "rental_uris": {"android": "https://dc.lft.to/lastmile_qr_scan", "ios": "https://dc.lft.to/lastmile_qr_scan"}, "name": "060687f63ed704f0c5352c54f5cfb12b", "is_reserved": 0}, {"is_disabled": 0, "fusion_lon": 0.0, "fusion_lat": 0.0, "lat": 38.909407333333334, "type": "electric_scooter", "lon": -77.03207666666667, "bike_id": "f6aae75031bc5d2f05f78e1bbdb9ebea", "rental_uris": {"android": "https://dc.lft.to/lastmile_qr_scan", "ios": "https://dc.lft.to/lastmile_qr_scan"}, "name": "f6aae75031bc5d2f05f78e1bbdb9ebea", "is_reserved": 0}, {"is_disabled": 0, "fusion_lon": 0.0, "fusion_lat": 0.0, "lat": 38.92075583333333, "type": "electric_scooter", "lon": -77.04190033333333, "bike_id": "adde42c7ddc6cd8f43c9230f5f95a769", "rental_uris": {"android": "https://dc.lft.to/lastmile_qr_scan", "ios": "https://dc.lft.to/lastmile_qr_scan"}, "name": "adde42c7ddc6cd8f43c9230f5f95a769", "is_reserved": 0}, {"is_disabled": 0, "fusion_lon": 0.0, "fusion_lat": 0.0, "lat": 38.911701666666666, "type": "electric_scooter", "lon": -77.02696, "bike_id": "9e6b8d12ef96e99e59ff88aa890d769d", "rental_uris": {"android": "https://dc.lft.to/lastmile_qr_scan", "ios": "https://dc.lft.to/lastmile_qr_scan"}, "name": "9e6b8d12ef96e99e59ff88aa890d769d", "is_reserved": 0}, {"is_disabled": 0, "fusion_lon": 0.0, "fusion_lat": 0.0, "lat": 38.89361783333333, "type": "electric_scooter", "lon": -77.02179433333333, "bike_id": "0baf51aece1b99573063b41e7e86644e", "rental_uris": {"android": "https://dc.lft.to/lastmile_qr_scan", "ios": "https://dc.lft.to/lastmile_qr_scan"}, "name": "0baf51aece1b99573063b41e7e86644e", "is_reserved": 0}, {"is_disabled": 0, "fusion_lon": 0.0, "fusion_lat": 0.0, "lat": 38.91429016666667, "type": "electric_scooter", "lon": -77.031834, "bike_id": "5af2ec099493109b118854159e5e15bd", "rental_uris": {"android": "https://dc.lft.to/lastmile_qr_scan", "ios": "https://dc.lft.to/lastmile_qr_scan"}, "name": "5af2ec099493109b118854159e5e15bd", "is_reserved": 0}, {"is_disabled": 0, "fusion_lon": 0.0, "fusion_lat": 0.0, "lat": 38.91643933333334, "type": "electric_scooter", "lon": -77.0224335, "bike_id": "2021a80655b0f072b0b1ff3eeacc5863", "rental_uris": {"android": "https://dc.lft.to/lastmile_qr_scan", "ios": "https://dc.lft.to/lastmile_qr_scan"}, "name": "2021a80655b0f072b0b1ff3eeacc5863", "is_reserved": 0}, {"is_disabled": 0, "fusion_lon": 0.0, "fusion_lat": 0.0, "lat": 38.94615233333333, "type": "electric_scooter", "lon": -77.034642, "bike_id": "0e84debf6d5573b543d6726b1defa7c2", "rental_uris": {"android": "https://dc.lft.to/lastmile_qr_scan", "ios": "https://dc.lft.to/lastmile_qr_scan"}, "name": "0e84debf6d5573b543d6726b1defa7c2", "is_reserved": 0}, {"is_disabled": 0, "fusion_lon": 0.0, "fusion_lat": 0.0, "lat": 38.92055883333333, "type": "electric_scooter", "lon": -77.0418875, "bike_id": "391e8ea9c8051d15ad9b0075a9fb37b9", "rental_uris": {"android": "https://dc.lft.to/lastmile_qr_scan", "ios": "https://dc.lft.to/lastmile_qr_scan"}, "name": "391e8ea9c8051d15ad9b0075a9fb37b9", "is_reserved": 0}, {"is_disabled": 0, "fusion_lon": 0.0, "fusion_lat": 0.0, "lat": 38.946288, "type": "electric_bike", "lon": -76.93414633333333, "bike_id": "918479aff597ef775761206f79408a3b", "rental_uris": {"android": "https://dc.lft.to/lastmile_qr_scan", "ios": "https://dc.lft.to/lastmile_qr_scan"}, "name": "918479aff597ef775761206f79408a3b", "is_reserved": 0}, {"is_disabled": 0, "fusion_lon": 0.0, "fusion_lat": 0.0, "lat": 38.90286866666667, "type": "electric_scooter", "lon": -77.0238155, "bike_id": "caad35f21307563c360ef64fe0a2ad93", "rental_uris": {"android": "https://dc.lft.to/lastmile_qr_scan", "ios": "https://dc.lft.to/lastmile_qr_scan"}, "name": "caad35f21307563c360ef64fe0a2ad93", "is_reserved": 0}, {"is_disabled": 0, "fusion_lon": 0.0, "fusion_lat": 0.0, "lat": 38.924635, "type": "electric_scooter", "lon": -77.02963216666667, "bike_id": "52fc46ce036459c675ea6ecf4167d9f3", "rental_uris": {"android": "https://dc.lft.to/lastmile_qr_scan", "ios": "https://dc.lft.to/lastmile_qr_scan"}, "name": "52fc46ce036459c675ea6ecf4167d9f3", "is_reserved": 0}, {"is_disabled": 0, "fusion_lon": 0.0, "fusion_lat": 0.0, "lat": 38.915482, "type": "electric_scooter", "lon": -77.038434, "bike_id": "debe21e1c28fc6180629d686a7bb6c53", "rental_uris": {"android": "https://dc.lft.to/lastmile_qr_scan", "ios": "https://dc.lft.to/lastmile_qr_scan"}, "name": "debe21e1c28fc6180629d686a7bb6c53", "is_reserved": 0}, {"is_disabled": 0, "fusion_lon": 0.0, "fusion_lat": 0.0, "lat": 38.937191166666665, "type": "electric_scooter", "lon": -77.0246405, "bike_id": "bca3b6be6224753d4dfffaa88056be1b", "rental_uris": {"android": "https://dc.lft.to/lastmile_qr_scan", "ios": "https://dc.lft.to/lastmile_qr_scan"}, "name": "bca3b6be6224753d4dfffaa88056be1b", "is_reserved": 0}, {"is_disabled": 0, "fusion_lon": 0.0, "fusion_lat": 0.0, "lat": 38.93328283333334, "type": "electric_scooter", "lon": -77.03279116666667, "bike_id": "4bf82a4d174c8f2b652a689be970ffa3", "rental_uris": {"android": "https://dc.lft.to/lastmile_qr_scan", "ios": "https://dc.lft.to/lastmile_qr_scan"}, "name": "4bf82a4d174c8f2b652a689be970ffa3", "is_reserved": 0}, {"is_disabled": 0, "fusion_lon": 0.0, "fusion_lat": 0.0, "lat": 38.9105255, "type": "electric_scooter", "lon": -77.02284283333333, "bike_id": "41e60af0e614a6f5be187fb1b8a363d7", "rental_uris": {"android": "https://dc.lft.to/lastmile_qr_scan", "ios": "https://dc.lft.to/lastmile_qr_scan"}, "name": "41e60af0e614a6f5be187fb1b8a363d7", "is_reserved": 0}, {"is_disabled": 0, "fusion_lon": 0.0, "fusion_lat": 0.0, "lat": 38.91628, "type": "electric_scooter", "lon": -77.03501683333333, "bike_id": "8b26c75f086a5254ae9d87f8184c425d", "rental_uris": {"android": "https://dc.lft.to/lastmile_qr_scan", "ios": "https://dc.lft.to/lastmile_qr_scan"}, "name": "8b26c75f086a5254ae9d87f8184c425d", "is_reserved": 0}, {"is_disabled": 0, "fusion_lon": 0.0, "fusion_lat": 0.0, "lat": 38.897341833333336, "type": "electric_scooter", "lon": -77.02169716666667, "bike_id": "83636b5335baa18ff153365cf3eebce2", "rental_uris": {"android": "https://dc.lft.to/lastmile_qr_scan", "ios": "https://dc.lft.to/lastmile_qr_scan"}, "name": "83636b5335baa18ff153365cf3eebce2", "is_reserved": 0}, {"is_disabled": 0, "fusion_lon": 0.0, "fusion_lat": 0.0, "lat": 38.90389416666667, "type": "electric_scooter", "lon": -76.99002133333333, "bike_id": "99801590ad7ab14e4b4d3d0eec5aba24", "rental_uris": {"android": "https://dc.lft.to/lastmile_qr_scan", "ios": "https://dc.lft.to/lastmile_qr_scan"}, "name": "99801590ad7ab14e4b4d3d0eec5aba24", "is_reserved": 0}, {"is_disabled": 0, "fusion_lon": 0.0, "fusion_lat": 0.0, "lat": 38.90540516666667, "type": "electric_scooter", "lon": -77.05697133333334, "bike_id": "d6c2e60adbe210e6a2f3b5cd36fb3866", "rental_uris": {"android": "https://dc.lft.to/lastmile_qr_scan", "ios": "https://dc.lft.to/lastmile_qr_scan"}, "name": "d6c2e60adbe210e6a2f3b5cd36fb3866", "is_reserved": 0}, {"is_disabled": 0, "fusion_lon": 0.0, "fusion_lat": 0.0, "lat": 38.887394666666665, "type": "electric_scooter", "lon": -77.01530183333334, "bike_id": "ea89772716adf3540c30962022c9d822", "rental_uris": {"android": "https://dc.lft.to/lastmile_qr_scan", "ios": "https://dc.lft.to/lastmile_qr_scan"}, "name": "ea89772716adf3540c30962022c9d822", "is_reserved": 0}, {"is_disabled": 0, "fusion_lon": 0.0, "fusion_lat": 0.0, "lat": 38.92428016666667, "type": "electric_scooter", "lon": -77.0560575, "bike_id": "4aa02097793b9fb2f49635ed81f7c886", "rental_uris": {"android": "https://dc.lft.to/lastmile_qr_scan", "ios": "https://dc.lft.to/lastmile_qr_scan"}, "name": "4aa02097793b9fb2f49635ed81f7c886", "is_reserved": 0}, {"is_disabled": 0, "fusion_lon": 0.0, "fusion_lat": 0.0, "lat": 38.969237, "type": "electric_bike", "lon": -77.026225, "bike_id": "2dc0ce70d451394bad49894b6d7f06ca", "rental_uris": {"android": "https://dc.lft.to/lastmile_qr_scan", "ios": "https://dc.lft.to/lastmile_qr_scan"}, "name": "2dc0ce70d451394bad49894b6d7f06ca", "is_reserved": 0}, {"is_disabled": 0, "fusion_lon": 0.0, "fusion_lat": 0.0, "lat": 38.878783, "type": "electric_scooter", "lon": -77.02227616666667, "bike_id": "3d96a0160350169213868e65e5ad1971", "rental_uris": {"android": "https://dc.lft.to/lastmile_qr_scan", "ios": "https://dc.lft.to/lastmile_qr_scan"}, "name": "3d96a0160350169213868e65e5ad1971", "is_reserved": 0}, {"is_disabled": 0, "fusion_lon": 0.0, "fusion_lat": 0.0, "lat": 38.9186175, "type": "electric_bike", "lon": -76.961741, "bike_id": "b14b7bf0e2243c527de5621cca58de0f", "rental_uris": {"android": "https://dc.lft.to/lastmile_qr_scan", "ios": "https://dc.lft.to/lastmile_qr_scan"}, "name": "b14b7bf0e2243c527de5621cca58de0f", "is_reserved": 0}, {"is_disabled": 0, "fusion_lon": 0.0, "fusion_lat": 0.0, "lat": 38.98662933333333, "type": "electric_scooter", "lon": -77.02647966666666, "bike_id": "2a0e3d9c5255402b90a9865f08a08986", "rental_uris": {"android": "https://dc.lft.to/lastmile_qr_scan", "ios": "https://dc.lft.to/lastmile_qr_scan"}, "name": "2a0e3d9c5255402b90a9865f08a08986", "is_reserved": 0}, {"is_disabled": 0, "fusion_lon": 0.0, "fusion_lat": 0.0, "lat": 38.91474816666667, "type": "electric_scooter", "lon": -77.043826, "bike_id": "1c8aa046aea443dc37207190083c12b6", "rental_uris": {"android": "https://dc.lft.to/lastmile_qr_scan", "ios": "https://dc.lft.to/lastmile_qr_scan"}, "name": "1c8aa046aea443dc37207190083c12b6", "is_reserved": 0}, {"is_disabled": 0, "fusion_lon": 0.0, "fusion_lat": 0.0, "lat": 38.918508833333334, "type": "electric_scooter", "lon": -77.02959233333333, "bike_id": "7e40f4bc02fb6a227b57a5825d9d3ec9", "rental_uris": {"android": "https://dc.lft.to/lastmile_qr_scan", "ios": "https://dc.lft.to/lastmile_qr_scan"}, "name": "7e40f4bc02fb6a227b57a5825d9d3ec9", "is_reserved": 0}, {"is_disabled": 0, "fusion_lon": 0.0, "fusion_lat": 0.0, "lat": 38.914970333333336, "type": "electric_scooter", "lon": -77.01977033333333, "bike_id": "8c67dc27c51f7725e25acc7f171b9f1c", "rental_uris": {"android": "https://dc.lft.to/lastmile_qr_scan", "ios": "https://dc.lft.to/lastmile_qr_scan"}, "name": "8c67dc27c51f7725e25acc7f171b9f1c", "is_reserved": 0}, {"is_disabled": 0, "fusion_lon": 0.0, "fusion_lat": 0.0, "lat": 38.93281266666666, "type": "electric_scooter", "lon": -76.99686816666667, "bike_id": "08ec977a295b583246f4e450600b46b2", "rental_uris": {"android": "https://dc.lft.to/lastmile_qr_scan", "ios": "https://dc.lft.to/lastmile_qr_scan"}, "name": "08ec977a295b583246f4e450600b46b2", "is_reserved": 0}, {"is_disabled": 0, "fusion_lon": 0.0, "fusion_lat": 0.0, "lat": 38.899869333333335, "type": "electric_scooter", "lon": -77.0270395, "bike_id": "398e189725b7e6f543f01b27cafdd115", "rental_uris": {"android": "https://dc.lft.to/lastmile_qr_scan", "ios": "https://dc.lft.to/lastmile_qr_scan"}, "name": "398e189725b7e6f543f01b27cafdd115", "is_reserved": 0}, {"is_disabled": 0, "fusion_lon": 0.0, "fusion_lat": 0.0, "lat": 38.8361, "type": "electric_bike", "lon": -77.00383533333333, "bike_id": "a1f21476ee0851be91e14c5980f76392", "rental_uris": {"android": "https://dc.lft.to/lastmile_qr_scan", "ios": "https://dc.lft.to/lastmile_qr_scan"}, "name": "a1f21476ee0851be91e14c5980f76392", "is_reserved": 0}, {"is_disabled": 0, "fusion_lon": 0.0, "fusion_lat": 0.0, "lat": 38.899136666666664, "type": "electric_scooter", "lon": -76.93389783333333, "bike_id": "8bdbc409082a101d336eabf9b950be59", "rental_uris": {"android": "https://dc.lft.to/lastmile_qr_scan", "ios": "https://dc.lft.to/lastmile_qr_scan"}, "name": "8bdbc409082a101d336eabf9b950be59", "is_reserved": 0}, {"is_disabled": 0, "fusion_lon": 0.0, "fusion_lat": 0.0, "lat": 38.88755666666667, "type": "electric_scooter", "lon": -76.99616566666667, "bike_id": "cd28ffc70b6d1f62fef1e066bfa327d6", "rental_uris": {"android": "https://dc.lft.to/lastmile_qr_scan", "ios": "https://dc.lft.to/lastmile_qr_scan"}, "name": "cd28ffc70b6d1f62fef1e066bfa327d6", "is_reserved": 0}, {"is_disabled": 0, "fusion_lon": 0.0, "fusion_lat": 0.0, "lat": 38.8920555, "type": "electric_scooter", "lon": -76.98801033333334, "bike_id": "9814477259172b0c2adfe0a041dcb153", "rental_uris": {"android": "https://dc.lft.to/lastmile_qr_scan", "ios": "https://dc.lft.to/lastmile_qr_scan"}, "name": "9814477259172b0c2adfe0a041dcb153", "is_reserved": 0}, {"is_disabled": 0, "fusion_lon": 0.0, "fusion_lat": 0.0, "lat": 38.9174305, "type": "electric_scooter", "lon": -77.02296233333334, "bike_id": "d7fd0fe902f0e1fbf6ff6e02d9e8f164", "rental_uris": {"android": "https://dc.lft.to/lastmile_qr_scan", "ios": "https://dc.lft.to/lastmile_qr_scan"}, "name": "d7fd0fe902f0e1fbf6ff6e02d9e8f164", "is_reserved": 0}, {"is_disabled": 0, "fusion_lon": 0.0, "fusion_lat": 0.0, "lat": 38.917979833333334, "type": "electric_scooter", "lon": -77.03436516666666, "bike_id": "5f1d0d42e99c2ffc589ef6b1bc48fc06", "rental_uris": {"android": "https://dc.lft.to/lastmile_qr_scan", "ios": "https://dc.lft.to/lastmile_qr_scan"}, "name": "5f1d0d42e99c2ffc589ef6b1bc48fc06", "is_reserved": 0}, {"is_disabled": 0, "fusion_lon": 0.0, "fusion_lat": 0.0, "lat": 38.84294083333333, "type": "electric_scooter", "lon": -76.99944466666666, "bike_id": "89d7eaee40419c8e12faf25ffdc6cda0", "rental_uris": {"android": "https://dc.lft.to/lastmile_qr_scan", "ios": "https://dc.lft.to/lastmile_qr_scan"}, "name": "89d7eaee40419c8e12faf25ffdc6cda0", "is_reserved": 0}, {"is_disabled": 0, "fusion_lon": 0.0, "fusion_lat": 0.0, "lat": 38.88701783333333, "type": "electric_scooter", "lon": -76.9536325, "bike_id": "76258fc80d660986ec64d7a00bb2319f", "rental_uris": {"android": "https://dc.lft.to/lastmile_qr_scan", "ios": "https://dc.lft.to/lastmile_qr_scan"}, "name": "76258fc80d660986ec64d7a00bb2319f", "is_reserved": 0}, {"is_disabled": 0, "fusion_lon": 0.0, "fusion_lat": 0.0, "lat": 38.90838316666667, "type": "electric_scooter", "lon": -76.99704216666666, "bike_id": "1f8cd3d83f2e9e756a2e8b41e5c92760", "rental_uris": {"android": "https://dc.lft.to/lastmile_qr_scan", "ios": "https://dc.lft.to/lastmile_qr_scan"}, "name": "1f8cd3d83f2e9e756a2e8b41e5c92760", "is_reserved": 0}, {"is_disabled": 0, "fusion_lon": 0.0, "fusion_lat": 0.0, "lat": 38.8973325, "type": "electric_scooter", "lon": -77.00752716666666, "bike_id": "72daab9b4139df0a0151bd401ae9ffee", "rental_uris": {"android": "https://dc.lft.to/lastmile_qr_scan", "ios": "https://dc.lft.to/lastmile_qr_scan"}, "name": "72daab9b4139df0a0151bd401ae9ffee", "is_reserved": 0}, {"is_disabled": 0, "fusion_lon": 0.0, "fusion_lat": 0.0, "lat": 38.92270583333333, "type": "electric_scooter", "lon": -77.034078, "bike_id": "8f36ebbe937ce6f1419ef22365a4412d", "rental_uris": {"android": "https://dc.lft.to/lastmile_qr_scan", "ios": "https://dc.lft.to/lastmile_qr_scan"}, "name": "8f36ebbe937ce6f1419ef22365a4412d", "is_reserved": 0}, {"is_disabled": 0, "fusion_lon": 0.0, "fusion_lat": 0.0, "lat": 38.9195515, "type": "electric_scooter", "lon": -77.01397733333333, "bike_id": "d42b1a2c937c4825d4501ab9df01b6c3", "rental_uris": {"android": "https://dc.lft.to/lastmile_qr_scan", "ios": "https://dc.lft.to/lastmile_qr_scan"}, "name": "d42b1a2c937c4825d4501ab9df01b6c3", "is_reserved": 0}, {"is_disabled": 0, "fusion_lon": 0.0, "fusion_lat": 0.0, "lat": 38.91230383333333, "type": "electric_scooter", "lon": -77.03196066666666, "bike_id": "6f40a4d05aae7c533a73bea0eb754031", "rental_uris": {"android": "https://dc.lft.to/lastmile_qr_scan", "ios": "https://dc.lft.to/lastmile_qr_scan"}, "name": "6f40a4d05aae7c533a73bea0eb754031", "is_reserved": 0}, {"is_disabled": 0, "fusion_lon": 0.0, "fusion_lat": 0.0, "lat": 38.91709816666667, "type": "electric_scooter", "lon": -77.02887466666667, "bike_id": "b28bda3b065e2c9777b8990b41a75700", "rental_uris": {"android": "https://dc.lft.to/lastmile_qr_scan", "ios": "https://dc.lft.to/lastmile_qr_scan"}, "name": "b28bda3b065e2c9777b8990b41a75700", "is_reserved": 0}, {"is_disabled": 0, "fusion_lon": 0.0, "fusion_lat": 0.0, "lat": 38.93608233333333, "type": "electric_scooter", "lon": -77.0558635, "bike_id": "5e3e3e8cef955f69ee7165228d105c52", "rental_uris": {"android": "https://dc.lft.to/lastmile_qr_scan", "ios": "https://dc.lft.to/lastmile_qr_scan"}, "name": "5e3e3e8cef955f69ee7165228d105c52", "is_reserved": 0}, {"is_disabled": 0, "fusion_lon": 0.0, "fusion_lat": 0.0, "lat": 38.80295683333333, "type": "electric_bike", "lon": -77.03986533333334, "bike_id": "8cea4e8e4b18cc7a4f1e4964eb30d5bd", "rental_uris": {"android": "https://dc.lft.to/lastmile_qr_scan", "ios": "https://dc.lft.to/lastmile_qr_scan"}, "name": "8cea4e8e4b18cc7a4f1e4964eb30d5bd", "is_reserved": 0}, {"is_disabled": 0, "fusion_lon": 0.0, "fusion_lat": 0.0, "lat": 38.92032233333333, "type": "electric_scooter", "lon": -77.01909716666667, "bike_id": "b4124eb98e5ab512244524f3e3b55341", "rental_uris": {"android": "https://dc.lft.to/lastmile_qr_scan", "ios": "https://dc.lft.to/lastmile_qr_scan"}, "name": "b4124eb98e5ab512244524f3e3b55341", "is_reserved": 0}, {"is_disabled": 0, "fusion_lon": 0.0, "fusion_lat": 0.0, "lat": 38.93493316666667, "type": "electric_scooter", "lon": -77.02420566666666, "bike_id": "cf436840c7a112564e24058db2967e10", "rental_uris": {"android": "https://dc.lft.to/lastmile_qr_scan", "ios": "https://dc.lft.to/lastmile_qr_scan"}, "name": "cf436840c7a112564e24058db2967e10", "is_reserved": 0}, {"is_disabled": 0, "fusion_lon": 0.0, "fusion_lat": 0.0, "lat": 38.8874375, "type": "electric_scooter", "lon": -77.01531083333333, "bike_id": "4b4d71159fb92d796fa375b801ea16a1", "rental_uris": {"android": "https://dc.lft.to/lastmile_qr_scan", "ios": "https://dc.lft.to/lastmile_qr_scan"}, "name": "4b4d71159fb92d796fa375b801ea16a1", "is_reserved": 0}, {"is_disabled": 0, "fusion_lon": 0.0, "fusion_lat": 0.0, "lat": 38.901980333333334, "type": "electric_scooter", "lon": -77.02193533333333, "bike_id": "9b311552f76316807f54c10510a63201", "rental_uris": {"android": "https://dc.lft.to/lastmile_qr_scan", "ios": "https://dc.lft.to/lastmile_qr_scan"}, "name": "9b311552f76316807f54c10510a63201", "is_reserved": 0}, {"is_disabled": 0, "fusion_lon": 0.0, "fusion_lat": 0.0, "lat": 38.918281, "type": "electric_scooter", "lon": -77.03653866666667, "bike_id": "41d0f783aa906ef9f4842958a3937d7c", "rental_uris": {"android": "https://dc.lft.to/lastmile_qr_scan", "ios": "https://dc.lft.to/lastmile_qr_scan"}, "name": "41d0f783aa906ef9f4842958a3937d7c", "is_reserved": 0}, {"is_disabled": 0, "fusion_lon": 0.0, "fusion_lat": 0.0, "lat": 38.93076683333334, "type": "electric_scooter", "lon": -77.03802, "bike_id": "a6fb31fd1b7c7b8e739732bd5a7ecc67", "rental_uris": {"android": "https://dc.lft.to/lastmile_qr_scan", "ios": "https://dc.lft.to/lastmile_qr_scan"}, "name": "a6fb31fd1b7c7b8e739732bd5a7ecc67", "is_reserved": 0}, {"is_disabled": 0, "fusion_lon": 0.0, "fusion_lat": 0.0, "lat": 38.888906, "type": "electric_scooter", "lon": -77.01505733333333, "bike_id": "64be123a5f52d423f2aa0c5d3f564389", "rental_uris": {"android": "https://dc.lft.to/lastmile_qr_scan", "ios": "https://dc.lft.to/lastmile_qr_scan"}, "name": "64be123a5f52d423f2aa0c5d3f564389", "is_reserved": 0}, {"is_disabled": 0, "fusion_lon": 0.0, "fusion_lat": 0.0, "lat": 38.88734066666667, "type": "electric_scooter", "lon": -77.01513016666667, "bike_id": "8683d00823ac764e2a7cfc05d181da18", "rental_uris": {"android": "https://dc.lft.to/lastmile_qr_scan", "ios": "https://dc.lft.to/lastmile_qr_scan"}, "name": "8683d00823ac764e2a7cfc05d181da18", "is_reserved": 0}, {"is_disabled": 0, "fusion_lon": 0.0, "fusion_lat": 0.0, "lat": 38.88585333333333, "type": "electric_scooter", "lon": -77.01226116666666, "bike_id": "672933a2a8be3abb40f23b29361ad177", "rental_uris": {"android": "https://dc.lft.to/lastmile_qr_scan", "ios": "https://dc.lft.to/lastmile_qr_scan"}, "name": "672933a2a8be3abb40f23b29361ad177", "is_reserved": 0}, {"is_disabled": 0, "fusion_lon": 0.0, "fusion_lat": 0.0, "lat": 38.8647075, "type": "electric_scooter", "lon": -76.99605516666666, "bike_id": "11bc5fc01477629a3c25ef0d96dc679c", "rental_uris": {"android": "https://dc.lft.to/lastmile_qr_scan", "ios": "https://dc.lft.to/lastmile_qr_scan"}, "name": "11bc5fc01477629a3c25ef0d96dc679c", "is_reserved": 0}, {"is_disabled": 0, "fusion_lon": 0.0, "fusion_lat": 0.0, "lat": 38.89235766666667, "type": "electric_scooter", "lon": -77.03178483333333, "bike_id": "5d8702c7835329cb42a5f08233ebe20d", "rental_uris": {"android": "https://dc.lft.to/lastmile_qr_scan", "ios": "https://dc.lft.to/lastmile_qr_scan"}, "name": "5d8702c7835329cb42a5f08233ebe20d", "is_reserved": 0}, {"is_disabled": 0, "fusion_lon": 0.0, "fusion_lat": 0.0, "lat": 38.94080966666667, "type": "electric_scooter", "lon": -77.06143566666667, "bike_id": "7c7010d3bfa2cabb087e4eb38a995937", "rental_uris": {"android": "https://dc.lft.to/lastmile_qr_scan", "ios": "https://dc.lft.to/lastmile_qr_scan"}, "name": "7c7010d3bfa2cabb087e4eb38a995937", "is_reserved": 0}, {"is_disabled": 0, "fusion_lon": 0.0, "fusion_lat": 0.0, "lat": 38.9517455, "type": "electric_scooter", "lon": -77.033311, "bike_id": "f8adbd73f2661c38d1ca4bb88dde8111", "rental_uris": {"android": "https://dc.lft.to/lastmile_qr_scan", "ios": "https://dc.lft.to/lastmile_qr_scan"}, "name": "f8adbd73f2661c38d1ca4bb88dde8111", "is_reserved": 0}, {"is_disabled": 0, "fusion_lon": 0.0, "fusion_lat": 0.0, "lat": 38.896883, "type": "electric_scooter", "lon": -77.00497366666667, "bike_id": "330e2996b4f0fb410648c9a3177feb2b", "rental_uris": {"android": "https://dc.lft.to/lastmile_qr_scan", "ios": "https://dc.lft.to/lastmile_qr_scan"}, "name": "330e2996b4f0fb410648c9a3177feb2b", "is_reserved": 0}, {"is_disabled": 0, "fusion_lon": 0.0, "fusion_lat": 0.0, "lat": 38.90379733333333, "type": "electric_scooter", "lon": -77.00736983333333, "bike_id": "ea61dd3395121afe8d133dce40d9b318", "rental_uris": {"android": "https://dc.lft.to/lastmile_qr_scan", "ios": "https://dc.lft.to/lastmile_qr_scan"}, "name": "ea61dd3395121afe8d133dce40d9b318", "is_reserved": 0}, {"is_disabled": 0, "fusion_lon": 0.0, "fusion_lat": 0.0, "lat": 38.91046716666666, "type": "electric_scooter", "lon": -77.03858333333334, "bike_id": "de0553b815abf5a433aa7df296e48117", "rental_uris": {"android": "https://dc.lft.to/lastmile_qr_scan", "ios": "https://dc.lft.to/lastmile_qr_scan"}, "name": "de0553b815abf5a433aa7df296e48117", "is_reserved": 0}, {"is_disabled": 0, "fusion_lon": 0.0, "fusion_lat": 0.0, "lat": 38.92873083333333, "type": "electric_scooter", "lon": -77.03303483333333, "bike_id": "b43361a7f38bf1422409f942f610ac0d", "rental_uris": {"android": "https://dc.lft.to/lastmile_qr_scan", "ios": "https://dc.lft.to/lastmile_qr_scan"}, "name": "b43361a7f38bf1422409f942f610ac0d", "is_reserved": 0}, {"is_disabled": 0, "fusion_lon": 0.0, "fusion_lat": 0.0, "lat": 38.9033415, "type": "electric_bike", "lon": -76.975327, "bike_id": "164a146e378bd83c3517a7f4097c1c4f", "rental_uris": {"android": "https://dc.lft.to/lastmile_qr_scan", "ios": "https://dc.lft.to/lastmile_qr_scan"}, "name": "164a146e378bd83c3517a7f4097c1c4f", "is_reserved": 0}, {"is_disabled": 0, "fusion_lon": 0.0, "fusion_lat": 0.0, "lat": 38.9562935, "type": "electric_scooter", "lon": -77.02456683333334, "bike_id": "6f7315401e4c70cc91fb4fb517e2016b", "rental_uris": {"android": "https://dc.lft.to/lastmile_qr_scan", "ios": "https://dc.lft.to/lastmile_qr_scan"}, "name": "6f7315401e4c70cc91fb4fb517e2016b", "is_reserved": 0}, {"is_disabled": 0, "fusion_lon": 0.0, "fusion_lat": 0.0, "lat": 38.91917633333333, "type": "electric_scooter", "lon": -77.02508866666666, "bike_id": "cbfce1449096c272faa5296f6f70b3a3", "rental_uris": {"android": "https://dc.lft.to/lastmile_qr_scan", "ios": "https://dc.lft.to/lastmile_qr_scan"}, "name": "cbfce1449096c272faa5296f6f70b3a3", "is_reserved": 0}, {"is_disabled": 0, "fusion_lon": 0.0, "fusion_lat": 0.0, "lat": 38.924092, "type": "electric_scooter", "lon": -77.02535566666667, "bike_id": "428ba73b3537da7d01d909f51c3cb17d", "rental_uris": {"android": "https://dc.lft.to/lastmile_qr_scan", "ios": "https://dc.lft.to/lastmile_qr_scan"}, "name": "428ba73b3537da7d01d909f51c3cb17d", "is_reserved": 0}, {"is_disabled": 0, "fusion_lon": 0.0, "fusion_lat": 0.0, "lat": 38.9156825, "type": "electric_scooter", "lon": -77.0393565, "bike_id": "169f4e0a21f1f4ab62e2c3247802148a", "rental_uris": {"android": "https://dc.lft.to/lastmile_qr_scan", "ios": "https://dc.lft.to/lastmile_qr_scan"}, "name": "169f4e0a21f1f4ab62e2c3247802148a", "is_reserved": 0}, {"is_disabled": 0, "fusion_lon": 0.0, "fusion_lat": 0.0, "lat": 38.915965666666665, "type": "electric_scooter", "lon": -77.02348166666667, "bike_id": "cbd59b735cfa849e77f53354580ded78", "rental_uris": {"android": "https://dc.lft.to/lastmile_qr_scan", "ios": "https://dc.lft.to/lastmile_qr_scan"}, "name": "cbd59b735cfa849e77f53354580ded78", "is_reserved": 0}, {"is_disabled": 0, "fusion_lon": 0.0, "fusion_lat": 0.0, "lat": 38.8858245, "type": "electric_scooter", "lon": -77.012261, "bike_id": "d065f4b575ab0c093775b038548e5fe8", "rental_uris": {"android": "https://dc.lft.to/lastmile_qr_scan", "ios": "https://dc.lft.to/lastmile_qr_scan"}, "name": "d065f4b575ab0c093775b038548e5fe8", "is_reserved": 0}, {"is_disabled": 0, "fusion_lon": 0.0, "fusion_lat": 0.0, "lat": 38.9726365, "type": "electric_bike", "lon": -76.99168383333334, "bike_id": "8191fb6c65f6046d92d5011c8760decf", "rental_uris": {"android": "https://dc.lft.to/lastmile_qr_scan", "ios": "https://dc.lft.to/lastmile_qr_scan"}, "name": "8191fb6c65f6046d92d5011c8760decf", "is_reserved": 0}, {"is_disabled": 0, "fusion_lon": 0.0, "fusion_lat": 0.0, "lat": 38.918053, "type": "electric_scooter", "lon": -77.03442066666666, "bike_id": "c9a75ab9ea7062547944e3ba60c3e05e", "rental_uris": {"android": "https://dc.lft.to/lastmile_qr_scan", "ios": "https://dc.lft.to/lastmile_qr_scan"}, "name": "c9a75ab9ea7062547944e3ba60c3e05e", "is_reserved": 0}, {"is_disabled": 0, "fusion_lon": 0.0, "fusion_lat": 0.0, "lat": 38.897476166666664, "type": "electric_scooter", "lon": -77.01014733333334, "bike_id": "e33dd276ac95cb8c8dbf9a40f3c2ed33", "rental_uris": {"android": "https://dc.lft.to/lastmile_qr_scan", "ios": "https://dc.lft.to/lastmile_qr_scan"}, "name": "e33dd276ac95cb8c8dbf9a40f3c2ed33", "is_reserved": 0}, {"is_disabled": 0, "fusion_lon": 0.0, "fusion_lat": 0.0, "lat": 38.932290333333334, "type": "electric_scooter", "lon": -76.99478666666667, "bike_id": "16e4c2fc96f547ac86b307a4d73a9c96", "rental_uris": {"android": "https://dc.lft.to/lastmile_qr_scan", "ios": "https://dc.lft.to/lastmile_qr_scan"}, "name": "16e4c2fc96f547ac86b307a4d73a9c96", "is_reserved": 0}, {"is_disabled": 0, "fusion_lon": 0.0, "fusion_lat": 0.0, "lat": 38.91773116666667, "type": "electric_scooter", "lon": -77.028127, "bike_id": "59229383f2bceb79d846e6d43d6084d8", "rental_uris": {"android": "https://dc.lft.to/lastmile_qr_scan", "ios": "https://dc.lft.to/lastmile_qr_scan"}, "name": "59229383f2bceb79d846e6d43d6084d8", "is_reserved": 0}, {"is_disabled": 0, "fusion_lon": 0.0, "fusion_lat": 0.0, "lat": 38.905621833333335, "type": "electric_scooter", "lon": -77.04568583333334, "bike_id": "4a13c4a5cd010dda2da430de797ea074", "rental_uris": {"android": "https://dc.lft.to/lastmile_qr_scan", "ios": "https://dc.lft.to/lastmile_qr_scan"}, "name": "4a13c4a5cd010dda2da430de797ea074", "is_reserved": 0}, {"is_disabled": 0, "fusion_lon": 0.0, "fusion_lat": 0.0, "lat": 38.839343, "type": "electric_bike", "lon": -77.0789485, "bike_id": "439632b102482e73b5763c5088828392", "rental_uris": {"android": "https://dc.lft.to/lastmile_qr_scan", "ios": "https://dc.lft.to/lastmile_qr_scan"}, "name": "439632b102482e73b5763c5088828392", "is_reserved": 0}, {"is_disabled": 0, "fusion_lon": 0.0, "fusion_lat": 0.0, "lat": 38.81276016666666, "type": "electric_bike", "lon": -77.06169133333333, "bike_id": "1d74fbb8c209dbe78698cf1c99b85cd4", "rental_uris": {"android": "https://dc.lft.to/lastmile_qr_scan", "ios": "https://dc.lft.to/lastmile_qr_scan"}, "name": "1d74fbb8c209dbe78698cf1c99b85cd4", "is_reserved": 0}, {"is_disabled": 0, "fusion_lon": 0.0, "fusion_lat": 0.0, "lat": 38.934726, "type": "electric_scooter", "lon": -77.0687765, "bike_id": "2589f39ed613a5439e28ac937b199c2a", "rental_uris": {"android": "https://dc.lft.to/lastmile_qr_scan", "ios": "https://dc.lft.to/lastmile_qr_scan"}, "name": "2589f39ed613a5439e28ac937b199c2a", "is_reserved": 0}, {"is_disabled": 0, "fusion_lon": 0.0, "fusion_lat": 0.0, "lat": 38.955595333333335, "type": "electric_bike", "lon": -76.935443, "bike_id": "71fb77c970bfdaaac1e3277370278e40", "rental_uris": {"android": "https://dc.lft.to/lastmile_qr_scan", "ios": "https://dc.lft.to/lastmile_qr_scan"}, "name": "71fb77c970bfdaaac1e3277370278e40", "is_reserved": 0}, {"is_disabled": 0, "fusion_lon": 0.0, "fusion_lat": 0.0, "lat": 38.91700983333333, "type": "electric_scooter", "lon": -77.02433066666667, "bike_id": "9743d8b2c9fee205b5579eeb6d738a9b", "rental_uris": {"android": "https://dc.lft.to/lastmile_qr_scan", "ios": "https://dc.lft.to/lastmile_qr_scan"}, "name": "9743d8b2c9fee205b5579eeb6d738a9b", "is_reserved": 0}, {"is_disabled": 0, "fusion_lon": 0.0, "fusion_lat": 0.0, "lat": 38.8868495, "type": "electric_scooter", "lon": -77.00197633333333, "bike_id": "76f43d6296f4ef83eb0e98eb2c3a86a1", "rental_uris": {"android": "https://dc.lft.to/lastmile_qr_scan", "ios": "https://dc.lft.to/lastmile_qr_scan"}, "name": "76f43d6296f4ef83eb0e98eb2c3a86a1", "is_reserved": 0}, {"is_disabled": 0, "fusion_lon": 0.0, "fusion_lat": 0.0, "lat": 38.831964166666666, "type": "electric_bike", "lon": -77.0768285, "bike_id": "1e717441642f3314c4695ae03502a1c1", "rental_uris": {"android": "https://dc.lft.to/lastmile_qr_scan", "ios": "https://dc.lft.to/lastmile_qr_scan"}, "name": "1e717441642f3314c4695ae03502a1c1", "is_reserved": 0}, {"is_disabled": 0, "fusion_lon": 0.0, "fusion_lat": 0.0, "lat": 38.925947666666666, "type": "electric_scooter", "lon": -77.05526316666666, "bike_id": "0267e65406c1c99fa280a450bc05246a", "rental_uris": {"android": "https://dc.lft.to/lastmile_qr_scan", "ios": "https://dc.lft.to/lastmile_qr_scan"}, "name": "0267e65406c1c99fa280a450bc05246a", "is_reserved": 0}, {"is_disabled": 0, "fusion_lon": 0.0, "fusion_lat": 0.0, "lat": 38.874806, "type": "electric_scooter", "lon": -77.01067916666666, "bike_id": "1ea2b97560c4c50785877ba0b379afc4", "rental_uris": {"android": "https://dc.lft.to/lastmile_qr_scan", "ios": "https://dc.lft.to/lastmile_qr_scan"}, "name": "1ea2b97560c4c50785877ba0b379afc4", "is_reserved": 0}, {"is_disabled": 0, "fusion_lon": 0.0, "fusion_lat": 0.0, "lat": 38.95174816666667, "type": "electric_scooter", "lon": -77.056557, "bike_id": "4c5bc12929e0da7b567db248fe7b4e62", "rental_uris": {"android": "https://dc.lft.to/lastmile_qr_scan", "ios": "https://dc.lft.to/lastmile_qr_scan"}, "name": "4c5bc12929e0da7b567db248fe7b4e62", "is_reserved": 0}, {"is_disabled": 0, "fusion_lon": 0.0, "fusion_lat": 0.0, "lat": 38.8287565, "type": "electric_bike", "lon": -77.11222316666667, "bike_id": "a500ffe87db0f02db2cc5bd3200e6300", "rental_uris": {"android": "https://dc.lft.to/lastmile_qr_scan", "ios": "https://dc.lft.to/lastmile_qr_scan"}, "name": "a500ffe87db0f02db2cc5bd3200e6300", "is_reserved": 0}, {"is_disabled": 0, "fusion_lon": 0.0, "fusion_lat": 0.0, "lat": 38.91343783333333, "type": "electric_scooter", "lon": -77.04862533333333, "bike_id": "9cb44ebb14bf605dc7c438753e140b69", "rental_uris": {"android": "https://dc.lft.to/lastmile_qr_scan", "ios": "https://dc.lft.to/lastmile_qr_scan"}, "name": "9cb44ebb14bf605dc7c438753e140b69", "is_reserved": 0}, {"is_disabled": 0, "fusion_lon": 0.0, "fusion_lat": 0.0, "lat": 38.9283795, "type": "electric_scooter", "lon": -77.03693516666667, "bike_id": "d0360b37fe2a55c9df36cf9d7a6144a3", "rental_uris": {"android": "https://dc.lft.to/lastmile_qr_scan", "ios": "https://dc.lft.to/lastmile_qr_scan"}, "name": "d0360b37fe2a55c9df36cf9d7a6144a3", "is_reserved": 0}, {"is_disabled": 0, "fusion_lon": 0.0, "fusion_lat": 0.0, "lat": 38.83320633333334, "type": "electric_scooter", "lon": -77.00004316666667, "bike_id": "ecdc2fa07c0973d82b66c55ef78c746e", "rental_uris": {"android": "https://dc.lft.to/lastmile_qr_scan", "ios": "https://dc.lft.to/lastmile_qr_scan"}, "name": "ecdc2fa07c0973d82b66c55ef78c746e", "is_reserved": 0}, {"is_disabled": 0, "fusion_lon": 0.0, "fusion_lat": 0.0, "lat": 38.89234916666667, "type": "electric_scooter", "lon": -77.03179033333333, "bike_id": "a51cdb2b265a63d69589f199db8e947d", "rental_uris": {"android": "https://dc.lft.to/lastmile_qr_scan", "ios": "https://dc.lft.to/lastmile_qr_scan"}, "name": "a51cdb2b265a63d69589f199db8e947d", "is_reserved": 0}, {"is_disabled": 0, "fusion_lon": 0.0, "fusion_lat": 0.0, "lat": 38.8998725, "type": "electric_scooter", "lon": -76.99475116666666, "bike_id": "603e28c71b38e6441ba06edd3134c09e", "rental_uris": {"android": "https://dc.lft.to/lastmile_qr_scan", "ios": "https://dc.lft.to/lastmile_qr_scan"}, "name": "603e28c71b38e6441ba06edd3134c09e", "is_reserved": 0}, {"is_disabled": 0, "fusion_lon": 0.0, "fusion_lat": 0.0, "lat": 38.918559333333334, "type": "electric_scooter", "lon": -77.032151, "bike_id": "2a4c9b0342beb84a47c4738eb8064400", "rental_uris": {"android": "https://dc.lft.to/lastmile_qr_scan", "ios": "https://dc.lft.to/lastmile_qr_scan"}, "name": "2a4c9b0342beb84a47c4738eb8064400", "is_reserved": 0}, {"is_disabled": 0, "fusion_lon": 0.0, "fusion_lat": 0.0, "lat": 38.90737083333333, "type": "electric_scooter", "lon": -77.0298925, "bike_id": "767cecef8e6e169af7d5923035159ff1", "rental_uris": {"android": "https://dc.lft.to/lastmile_qr_scan", "ios": "https://dc.lft.to/lastmile_qr_scan"}, "name": "767cecef8e6e169af7d5923035159ff1", "is_reserved": 0}, {"is_disabled": 0, "fusion_lon": 0.0, "fusion_lat": 0.0, "lat": 38.905615166666664, "type": "electric_scooter", "lon": -77.00563383333333, "bike_id": "29364836c9e2b6d1da9028871cbe07dd", "rental_uris": {"android": "https://dc.lft.to/lastmile_qr_scan", "ios": "https://dc.lft.to/lastmile_qr_scan"}, "name": "29364836c9e2b6d1da9028871cbe07dd", "is_reserved": 0}, {"is_disabled": 0, "fusion_lon": 0.0, "fusion_lat": 0.0, "lat": 38.92949316666667, "type": "electric_scooter", "lon": -77.018895, "bike_id": "f41c5a48c13fe0537150c94a67e55917", "rental_uris": {"android": "https://dc.lft.to/lastmile_qr_scan", "ios": "https://dc.lft.to/lastmile_qr_scan"}, "name": "f41c5a48c13fe0537150c94a67e55917", "is_reserved": 0}, {"is_disabled": 0, "fusion_lon": 0.0, "fusion_lat": 0.0, "lat": 38.957838333333335, "type": "electric_bike", "lon": -76.94100866666666, "bike_id": "743797d05c6a6ba2313264c8ab755e49", "rental_uris": {"android": "https://dc.lft.to/lastmile_qr_scan", "ios": "https://dc.lft.to/lastmile_qr_scan"}, "name": "743797d05c6a6ba2313264c8ab755e49", "is_reserved": 0}, {"is_disabled": 0, "fusion_lon": 0.0, "fusion_lat": 0.0, "lat": 38.90691616666667, "type": "electric_bike", "lon": -76.95194183333334, "bike_id": "2a66567d88dc5f4ab5c2a5154bfcfb4d", "rental_uris": {"android": "https://dc.lft.to/lastmile_qr_scan", "ios": "https://dc.lft.to/lastmile_qr_scan"}, "name": "2a66567d88dc5f4ab5c2a5154bfcfb4d", "is_reserved": 0}, {"is_disabled": 0, "fusion_lon": 0.0, "fusion_lat": 0.0, "lat": 38.91626266666667, "type": "electric_scooter", "lon": -77.02153233333334, "bike_id": "1502a84dabb60d842d88b3bca69bcac7", "rental_uris": {"android": "https://dc.lft.to/lastmile_qr_scan", "ios": "https://dc.lft.to/lastmile_qr_scan"}, "name": "1502a84dabb60d842d88b3bca69bcac7", "is_reserved": 0}, {"is_disabled": 0, "fusion_lon": 0.0, "fusion_lat": 0.0, "lat": 38.9195625, "type": "electric_scooter", "lon": -77.0165535, "bike_id": "a36049f3fa341c63a6a35870acb5a4d4", "rental_uris": {"android": "https://dc.lft.to/lastmile_qr_scan", "ios": "https://dc.lft.to/lastmile_qr_scan"}, "name": "a36049f3fa341c63a6a35870acb5a4d4", "is_reserved": 0}, {"is_disabled": 0, "fusion_lon": 0.0, "fusion_lat": 0.0, "lat": 38.919554, "type": "electric_scooter", "lon": -77.0007605, "bike_id": "17b0cd4acca4f419bd2f718f6d087d26", "rental_uris": {"android": "https://dc.lft.to/lastmile_qr_scan", "ios": "https://dc.lft.to/lastmile_qr_scan"}, "name": "17b0cd4acca4f419bd2f718f6d087d26", "is_reserved": 0}, {"is_disabled": 0, "fusion_lon": 0.0, "fusion_lat": 0.0, "lat": 38.912113, "type": "electric_scooter", "lon": -77.03836216666667, "bike_id": "c6f2c6c0ba5b4183a22e622f2163a30a", "rental_uris": {"android": "https://dc.lft.to/lastmile_qr_scan", "ios": "https://dc.lft.to/lastmile_qr_scan"}, "name": "c6f2c6c0ba5b4183a22e622f2163a30a", "is_reserved": 0}, {"is_disabled": 0, "fusion_lon": 0.0, "fusion_lat": 0.0, "lat": 38.90064, "type": "electric_scooter", "lon": -76.93473383333334, "bike_id": "9971757be96d71698cd3a714c099a69d", "rental_uris": {"android": "https://dc.lft.to/lastmile_qr_scan", "ios": "https://dc.lft.to/lastmile_qr_scan"}, "name": "9971757be96d71698cd3a714c099a69d", "is_reserved": 0}, {"is_disabled": 0, "fusion_lon": 0.0, "fusion_lat": 0.0, "lat": 38.9323085, "type": "electric_scooter", "lon": -77.0202855, "bike_id": "8fb44a69ed612e464fd0cb91e6253eee", "rental_uris": {"android": "https://dc.lft.to/lastmile_qr_scan", "ios": "https://dc.lft.to/lastmile_qr_scan"}, "name": "8fb44a69ed612e464fd0cb91e6253eee", "is_reserved": 0}, {"is_disabled": 0, "fusion_lon": 0.0, "fusion_lat": 0.0, "lat": 38.8873915, "type": "electric_scooter", "lon": -77.01527966666667, "bike_id": "8b724b37119da3bae14849ed1ec8eb4c", "rental_uris": {"android": "https://dc.lft.to/lastmile_qr_scan", "ios": "https://dc.lft.to/lastmile_qr_scan"}, "name": "8b724b37119da3bae14849ed1ec8eb4c", "is_reserved": 0}, {"is_disabled": 0, "fusion_lon": 0.0, "fusion_lat": 0.0, "lat": 38.895690333333334, "type": "electric_scooter", "lon": -77.02307666666667, "bike_id": "14afd91652a274905478c1b4c5fa3bff", "rental_uris": {"android": "https://dc.lft.to/lastmile_qr_scan", "ios": "https://dc.lft.to/lastmile_qr_scan"}, "name": "14afd91652a274905478c1b4c5fa3bff", "is_reserved": 0}, {"is_disabled": 0, "fusion_lon": 0.0, "fusion_lat": 0.0, "lat": 38.924291833333335, "type": "electric_scooter", "lon": -77.04479483333333, "bike_id": "d58badc0b0f9568b54be23788151a43a", "rental_uris": {"android": "https://dc.lft.to/lastmile_qr_scan", "ios": "https://dc.lft.to/lastmile_qr_scan"}, "name": "d58badc0b0f9568b54be23788151a43a", "is_reserved": 0}, {"is_disabled": 0, "fusion_lon": 0.0, "fusion_lat": 0.0, "lat": 38.94498433333333, "type": "electric_bike", "lon": -76.98660266666667, "bike_id": "6ddeec8b4df1a5697025a3b30f87028b", "rental_uris": {"android": "https://dc.lft.to/lastmile_qr_scan", "ios": "https://dc.lft.to/lastmile_qr_scan"}, "name": "6ddeec8b4df1a5697025a3b30f87028b", "is_reserved": 0}, {"is_disabled": 0, "fusion_lon": 0.0, "fusion_lat": 0.0, "lat": 38.935467, "type": "electric_scooter", "lon": -77.05809083333334, "bike_id": "b77530d3e39326619c94977757ec4f11", "rental_uris": {"android": "https://dc.lft.to/lastmile_qr_scan", "ios": "https://dc.lft.to/lastmile_qr_scan"}, "name": "b77530d3e39326619c94977757ec4f11", "is_reserved": 0}, {"is_disabled": 0, "fusion_lon": 0.0, "fusion_lat": 0.0, "lat": 38.914046166666665, "type": "electric_scooter", "lon": -77.00322333333334, "bike_id": "f6456256db1aa26d536d336a693d7589", "rental_uris": {"android": "https://dc.lft.to/lastmile_qr_scan", "ios": "https://dc.lft.to/lastmile_qr_scan"}, "name": "f6456256db1aa26d536d336a693d7589", "is_reserved": 0}, {"is_disabled": 0, "fusion_lon": 0.0, "fusion_lat": 0.0, "lat": 38.92922183333334, "type": "electric_scooter", "lon": -77.0326075, "bike_id": "c4e4f256e34733f949d9dd4e52eaf00b", "rental_uris": {"android": "https://dc.lft.to/lastmile_qr_scan", "ios": "https://dc.lft.to/lastmile_qr_scan"}, "name": "c4e4f256e34733f949d9dd4e52eaf00b", "is_reserved": 0}, {"is_disabled": 0, "fusion_lon": 0.0, "fusion_lat": 0.0, "lat": 38.89488633333333, "type": "electric_scooter", "lon": -77.02279883333334, "bike_id": "7622a147ae9ec55cfeaa8ca867d6a265", "rental_uris": {"android": "https://dc.lft.to/lastmile_qr_scan", "ios": "https://dc.lft.to/lastmile_qr_scan"}, "name": "7622a147ae9ec55cfeaa8ca867d6a265", "is_reserved": 0}, {"is_disabled": 0, "fusion_lon": 0.0, "fusion_lat": 0.0, "lat": 38.903732833333336, "type": "electric_scooter", "lon": -77.03513016666666, "bike_id": "dd5e75946bdd49b0d958ad08660c167e", "rental_uris": {"android": "https://dc.lft.to/lastmile_qr_scan", "ios": "https://dc.lft.to/lastmile_qr_scan"}, "name": "dd5e75946bdd49b0d958ad08660c167e", "is_reserved": 0}, {"is_disabled": 0, "fusion_lon": 0.0, "fusion_lat": 0.0, "lat": 38.85972866666667, "type": "electric_scooter", "lon": -76.98406433333334, "bike_id": "7f7a375252857be4ce2273501811b157", "rental_uris": {"android": "https://dc.lft.to/lastmile_qr_scan", "ios": "https://dc.lft.to/lastmile_qr_scan"}, "name": "7f7a375252857be4ce2273501811b157", "is_reserved": 0}, {"is_disabled": 0, "fusion_lon": 0.0, "fusion_lat": 0.0, "lat": 38.913939166666665, "type": "electric_scooter", "lon": -77.03854883333334, "bike_id": "a6a0bb07083a5ede9217cdf51aaf0277", "rental_uris": {"android": "https://dc.lft.to/lastmile_qr_scan", "ios": "https://dc.lft.to/lastmile_qr_scan"}, "name": "a6a0bb07083a5ede9217cdf51aaf0277", "is_reserved": 0}, {"is_disabled": 0, "fusion_lon": 0.0, "fusion_lat": 0.0, "lat": 38.91185, "type": "electric_scooter", "lon": -77.04185666666666, "bike_id": "aefe79321b22a6b572859fc145561970", "rental_uris": {"android": "https://dc.lft.to/lastmile_qr_scan", "ios": "https://dc.lft.to/lastmile_qr_scan"}, "name": "aefe79321b22a6b572859fc145561970", "is_reserved": 0}, {"is_disabled": 0, "fusion_lon": 0.0, "fusion_lat": 0.0, "lat": 38.956310333333334, "type": "electric_scooter", "lon": -77.0297985, "bike_id": "4295afcb1d5819c0095e33d960b6a547", "rental_uris": {"android": "https://dc.lft.to/lastmile_qr_scan", "ios": "https://dc.lft.to/lastmile_qr_scan"}, "name": "4295afcb1d5819c0095e33d960b6a547", "is_reserved": 0}, {"is_disabled": 0, "fusion_lon": 0.0, "fusion_lat": 0.0, "lat": 38.9156475, "type": "electric_scooter", "lon": -77.03237033333333, "bike_id": "e4972620caa3678c268ec72910fe9abd", "rental_uris": {"android": "https://dc.lft.to/lastmile_qr_scan", "ios": "https://dc.lft.to/lastmile_qr_scan"}, "name": "e4972620caa3678c268ec72910fe9abd", "is_reserved": 0}, {"is_disabled": 0, "fusion_lon": 0.0, "fusion_lat": 0.0, "lat": 38.89610183333333, "type": "electric_scooter", "lon": -77.01123833333334, "bike_id": "13dd34e12f19b09f4b017240d3a5f2da", "rental_uris": {"android": "https://dc.lft.to/lastmile_qr_scan", "ios": "https://dc.lft.to/lastmile_qr_scan"}, "name": "13dd34e12f19b09f4b017240d3a5f2da", "is_reserved": 0}, {"is_disabled": 0, "fusion_lon": 0.0, "fusion_lat": 0.0, "lat": 38.9056805, "type": "electric_scooter", "lon": -77.007048, "bike_id": "1c16aa9011a513eaea86650c7e10fc3e", "rental_uris": {"android": "https://dc.lft.to/lastmile_qr_scan", "ios": "https://dc.lft.to/lastmile_qr_scan"}, "name": "1c16aa9011a513eaea86650c7e10fc3e", "is_reserved": 0}, {"is_disabled": 0, "fusion_lon": 0.0, "fusion_lat": 0.0, "lat": 38.850685, "type": "electric_bike", "lon": -76.9732935, "bike_id": "b37f3b25ab1f463f98a4f54a844876d0", "rental_uris": {"android": "https://dc.lft.to/lastmile_qr_scan", "ios": "https://dc.lft.to/lastmile_qr_scan"}, "name": "b37f3b25ab1f463f98a4f54a844876d0", "is_reserved": 0}, {"is_disabled": 0, "fusion_lon": 0.0, "fusion_lat": 0.0, "lat": 38.9519095, "type": "electric_bike", "lon": -77.02251066666666, "bike_id": "aa5bd22fc16eba4d400911b8673e11b1", "rental_uris": {"android": "https://dc.lft.to/lastmile_qr_scan", "ios": "https://dc.lft.to/lastmile_qr_scan"}, "name": "aa5bd22fc16eba4d400911b8673e11b1", "is_reserved": 0}, {"is_disabled": 0, "fusion_lon": 0.0, "fusion_lat": 0.0, "lat": 38.90255166666667, "type": "electric_scooter", "lon": -77.03324283333333, "bike_id": "71f79ab9b2dd7f91dea0c654515e8a97", "rental_uris": {"android": "https://dc.lft.to/lastmile_qr_scan", "ios": "https://dc.lft.to/lastmile_qr_scan"}, "name": "71f79ab9b2dd7f91dea0c654515e8a97", "is_reserved": 0}, {"is_disabled": 0, "fusion_lon": 0.0, "fusion_lat": 0.0, "lat": 38.9525215, "type": "electric_bike", "lon": -77.06982883333333, "bike_id": "0dae1012d05d4a59ba86bb1b73f5ed8c", "rental_uris": {"android": "https://dc.lft.to/lastmile_qr_scan", "ios": "https://dc.lft.to/lastmile_qr_scan"}, "name": "0dae1012d05d4a59ba86bb1b73f5ed8c", "is_reserved": 0}, {"is_disabled": 0, "fusion_lon": 0.0, "fusion_lat": 0.0, "lat": 38.89358683333333, "type": "electric_scooter", "lon": -76.93990616666666, "bike_id": "301fb6691da061073bcd85d8806f52d6", "rental_uris": {"android": "https://dc.lft.to/lastmile_qr_scan", "ios": "https://dc.lft.to/lastmile_qr_scan"}, "name": "301fb6691da061073bcd85d8806f52d6", "is_reserved": 0}, {"is_disabled": 0, "fusion_lon": 0.0, "fusion_lat": 0.0, "lat": 38.90312433333333, "type": "electric_scooter", "lon": -76.982429, "bike_id": "46c3f6d1cff4b6ddf16c3acdaab85253", "rental_uris": {"android": "https://dc.lft.to/lastmile_qr_scan", "ios": "https://dc.lft.to/lastmile_qr_scan"}, "name": "46c3f6d1cff4b6ddf16c3acdaab85253", "is_reserved": 0}, {"is_disabled": 0, "fusion_lon": 0.0, "fusion_lat": 0.0, "lat": 38.9509125, "type": "electric_bike", "lon": -76.965604, "bike_id": "e79246454d57ad4a9fb207b158f9474f", "rental_uris": {"android": "https://dc.lft.to/lastmile_qr_scan", "ios": "https://dc.lft.to/lastmile_qr_scan"}, "name": "e79246454d57ad4a9fb207b158f9474f", "is_reserved": 0}, {"is_disabled": 0, "fusion_lon": 0.0, "fusion_lat": 0.0, "lat": 38.904034833333334, "type": "electric_scooter", "lon": -77.03426283333333, "bike_id": "20212b0873e34689c471f727748eac1b", "rental_uris": {"android": "https://dc.lft.to/lastmile_qr_scan", "ios": "https://dc.lft.to/lastmile_qr_scan"}, "name": "20212b0873e34689c471f727748eac1b", "is_reserved": 0}, {"is_disabled": 0, "fusion_lon": 0.0, "fusion_lat": 0.0, "lat": 38.90796316666667, "type": "electric_scooter", "lon": -77.04088083333333, "bike_id": "86d74d445e8178066736bb65e4f87b80", "rental_uris": {"android": "https://dc.lft.to/lastmile_qr_scan", "ios": "https://dc.lft.to/lastmile_qr_scan"}, "name": "86d74d445e8178066736bb65e4f87b80", "is_reserved": 0}, {"is_disabled": 0, "fusion_lon": 0.0, "fusion_lat": 0.0, "lat": 38.912554666666665, "type": "electric_scooter", "lon": -77.0092995, "bike_id": "7e92ad0a53a52bf691786a251d2ee597", "rental_uris": {"android": "https://dc.lft.to/lastmile_qr_scan", "ios": "https://dc.lft.to/lastmile_qr_scan"}, "name": "7e92ad0a53a52bf691786a251d2ee597", "is_reserved": 0}, {"is_disabled": 0, "fusion_lon": 0.0, "fusion_lat": 0.0, "lat": 38.90886166666667, "type": "electric_scooter", "lon": -77.0347195, "bike_id": "d7ff0cb996500fe0910657d9ab32ed29", "rental_uris": {"android": "https://dc.lft.to/lastmile_qr_scan", "ios": "https://dc.lft.to/lastmile_qr_scan"}, "name": "d7ff0cb996500fe0910657d9ab32ed29", "is_reserved": 0}, {"is_disabled": 0, "fusion_lon": 0.0, "fusion_lat": 0.0, "lat": 38.9162505, "type": "electric_scooter", "lon": -77.04866333333334, "bike_id": "44bb9f3000bf865a104585fe257102f3", "rental_uris": {"android": "https://dc.lft.to/lastmile_qr_scan", "ios": "https://dc.lft.to/lastmile_qr_scan"}, "name": "44bb9f3000bf865a104585fe257102f3", "is_reserved": 0}, {"is_disabled": 0, "fusion_lon": 0.0, "fusion_lat": 0.0, "lat": 38.937430666666664, "type": "electric_bike", "lon": -77.03618766666666, "bike_id": "42b193cdaf94be1cd64f9967dc22756a", "rental_uris": {"android": "https://dc.lft.to/lastmile_qr_scan", "ios": "https://dc.lft.to/lastmile_qr_scan"}, "name": "42b193cdaf94be1cd64f9967dc22756a", "is_reserved": 0}, {"is_disabled": 0, "fusion_lon": 0.0, "fusion_lat": 0.0, "lat": 38.9378245, "type": "electric_scooter", "lon": -77.01878666666667, "bike_id": "fe081f3294f26cbcfae05d7a5cae40c4", "rental_uris": {"android": "https://dc.lft.to/lastmile_qr_scan", "ios": "https://dc.lft.to/lastmile_qr_scan"}, "name": "fe081f3294f26cbcfae05d7a5cae40c4", "is_reserved": 0}, {"is_disabled": 0, "fusion_lon": 0.0, "fusion_lat": 0.0, "lat": 38.88747383333333, "type": "electric_scooter", "lon": -77.0153515, "bike_id": "974d8f14c074bb120e5728c588a0233c", "rental_uris": {"android": "https://dc.lft.to/lastmile_qr_scan", "ios": "https://dc.lft.to/lastmile_qr_scan"}, "name": "974d8f14c074bb120e5728c588a0233c", "is_reserved": 0}, {"is_disabled": 0, "fusion_lon": 0.0, "fusion_lat": 0.0, "lat": 38.922698833333335, "type": "electric_scooter", "lon": -77.04128483333334, "bike_id": "0d43bc233f4c118ff30435f0b9c9c14a", "rental_uris": {"android": "https://dc.lft.to/lastmile_qr_scan", "ios": "https://dc.lft.to/lastmile_qr_scan"}, "name": "0d43bc233f4c118ff30435f0b9c9c14a", "is_reserved": 0}, {"is_disabled": 0, "fusion_lon": 0.0, "fusion_lat": 0.0, "lat": 38.89234366666667, "type": "electric_scooter", "lon": -77.0259095, "bike_id": "3ab819a6b28344955cd4ea74f4d5fa9c", "rental_uris": {"android": "https://dc.lft.to/lastmile_qr_scan", "ios": "https://dc.lft.to/lastmile_qr_scan"}, "name": "3ab819a6b28344955cd4ea74f4d5fa9c", "is_reserved": 0},