{"data": {"bikes": [{"lon": -76.98530516666666, "bike_id": "97b4353c6a1670801e4fa3a21f1f9c56", "lat": 38.90457283333333, "fusion_lon": 0.0, "fusion_lat": 0.0, "type": "electric_scooter", "name": "97b4353c6a1670801e4fa3a21f1f9c56", "is_disabled": 0, "rental_uris": {"ios": "https://dc.lft.to/lastmile_qr_scan", "android": "https://dc.lft.to/lastmile_qr_scan"}, "is_reserved": 0}, {"lon": -77.01200633333333, "bike_id": "31431b81f2c0c9a0bd6317ea76d479fc", "lat": 38.82405766666667, "fusion_lon": 0.0, "fusion_lat": 0.0, "type": "electric_bike", "name": "31431b81f2c0c9a0bd6317ea76d479fc", "is_disabled": 0, "rental_uris": {"ios": "https://dc.lft.to/lastmile_qr_scan", "android": "https://dc.lft.to/lastmile_qr_scan"}, "is_reserved": 0}, {"lon": -76.9575145, "bike_id": "cffa85d0a722f2674b64b45d7f90e0a4", "lat": 38.8842755, "fusion_lon": 0.0, "fusion_lat": 0.0, "type": "electric_scooter", "name": "cffa85d0a722f2674b64b45d7f90e0a4", "is_disabled": 0, "rental_uris": {"ios": "https://dc.lft.to/lastmile_qr_scan", "android": "https://dc.lft.to/lastmile_qr_scan"}, "is_reserved": 0}, {"lon": -77.03215433333334, "bike_id": "83655600db35d914e8a10f209d3e4ab2", "lat": 38.91925883333333, "fusion_lon": 0.0, "fusion_lat": 0.0, "type": "electric_scooter", "name": "83655600db35d914e8a10f209d3e4ab2", "is_disabled": 0, "rental_uris": {"ios": "https://dc.lft.to/lastmile_qr_scan", "android": "https://dc.lft.to/lastmile_qr_scan"}, "is_reserved": 0}, {"lon": -77.023612, "bike_id": "df51e90b01c78693e4e3fec11ea08d6e", "lat": 38.92223516666667, "fusion_lon": 0.0, "fusion_lat": 0.0, "type": "electric_scooter", "name": "df51e90b01c78693e4e3fec11ea08d6e", "is_disabled": 0, "rental_uris": {"ios": "https://dc.lft.to/lastmile_qr_scan", "android": "https://dc.lft.to/lastmile_qr_scan"}, "is_reserved": 0}, {"lon": -77.0033385, "bike_id": "ff8ff267f72a13319b193d203b82b362", "lat": 38.89186483333334, "fusion_lon": 0.0, "fusion_lat": 0.0, "type": "electric_scooter", "name": "ff8ff267f72a13319b193d203b82b362", "is_disabled": 0, "rental_uris": {"ios": "https://dc.lft.to/lastmile_qr_scan", "android": "https://dc.lft.to/lastmile_qr_scan"}, "is_reserved": 0}, {"lon": -77.04588683333333, "bike_id": "4c82b95b0ac0c6d364bb47a57e602afe", "lat": 38.913604166666666, "fusion_lon": 0.0, "fusion_lat": 0.0, "type": "electric_scooter", "name": "4c82b95b0ac0c6d364bb47a57e602afe", "is_disabled": 0, "rental_uris": {"ios": "https://dc.lft.to/lastmile_qr_scan", "android": "https://dc.lft.to/lastmile_qr_scan"}, "is_reserved": 0}, {"lon": -77.11710333333333, "bike_id": "8eafa9e745f57351e5d8a433c392cc4a", "lat": 38.867438166666666, "fusion_lon": 0.0, "fusion_lat": 0.0, "type": "electric_bike", "name": "8eafa9e745f57351e5d8a433c392cc4a", "is_disabled": 0, "rental_uris": {"ios": "https://dc.lft.to/lastmile_qr_scan", "android": "https://dc.lft.to/lastmile_qr_scan"}, "is_reserved": 0}, {"lon": -77.02652416666666, "bike_id": "730d51d16a0cd484d379e30dbd82a8ad", "lat": 38.88112383333333, "fusion_lon": 0.0, "fusion_lat": 0.0, "type": "electric_scooter", "name": "730d51d16a0cd484d379e30dbd82a8ad", "is_disabled": 0, "rental_uris": {"ios": "https://dc.lft.to/lastmile_qr_scan", "android": "https://dc.lft.to/lastmile_qr_scan"}, "is_reserved": 0}, {"lon": -77.03187283333334, "bike_id": "008d46aa6cb3f8986e65235775fbe882", "lat": 38.897647, "fusion_lon": 0.0, "fusion_lat": 0.0, "type": "electric_scooter", "name": "008d46aa6cb3f8986e65235775fbe882", "is_disabled": 0, "rental_uris": {"ios": "https://dc.lft.to/lastmile_qr_scan", "android": "https://dc.lft.to/lastmile_qr_scan"}, "is_reserved": 0}, {"lon": -77.0405295, "bike_id": "069e0c3beae9925f940c8e6451e5f5dd", "lat": 38.9287275, "fusion_lon": 0.0, "fusion_lat": 0.0, "type": "electric_scooter", "name": "069e0c3beae9925f940c8e6451e5f5dd", "is_disabled": 0, "rental_uris": {"ios": "https://dc.lft.to/lastmile_qr_scan", "android": "https://dc.lft.to/lastmile_qr_scan"}, "is_reserved": 0}, {"lon": -77.03214633333333, "bike_id": "4f4fac31b113028d689e107bf5178969", "lat": 38.9072125, "fusion_lon": 0.0, "fusion_lat": 0.0, "type": "electric_scooter", "name": "4f4fac31b113028d689e107bf5178969", "is_disabled": 0, "rental_uris": {"ios": "https://dc.lft.to/lastmile_qr_scan", "android": "https://dc.lft.to/lastmile_qr_scan"}, "is_reserved": 0}, {"lon": -77.03202966666667, "bike_id": "85bf745b76c39f42dd193e9d1ff792d5", "lat": 38.909750333333335, "fusion_lon": 0.0, "fusion_lat": 0.0, "type": "electric_scooter", "name": "85bf745b76c39f42dd193e9d1ff792d5", "is_disabled": 0, "rental_uris": {"ios": "https://dc.lft.to/lastmile_qr_scan", "android": "https://dc.lft.to/lastmile_qr_scan"}, "is_reserved": 0}, {"lon": -76.9808475, "bike_id": "1124067d1f2b6d885dc6d6304e443e66", "lat": 38.87934466666667, "fusion_lon": 0.0, "fusion_lat": 0.0, "type": "electric_bike", "name": "1124067d1f2b6d885dc6d6304e443e66", "is_disabled": 0, "rental_uris": {"ios": "https://dc.lft.to/lastmile_qr_scan", "android": "https://dc.lft.to/lastmile_qr_scan"}, "is_reserved": 0}, {"lon": -77.00045166666666, "bike_id": "1935f6626c4ce85ad0fb200b23cf1702", "lat": 38.923962833333334, "fusion_lon": 0.0, "fusion_lat": 0.0, "type": "electric_scooter", "name": "1935f6626c4ce85ad0fb200b23cf1702", "is_disabled": 0, "rental_uris": {"ios": "https://dc.lft.to/lastmile_qr_scan", "android": "https://dc.lft.to/lastmile_qr_scan"}, "is_reserved": 0}, {"lon": -77.023218, "bike_id": "da84534374776e4baf69ad9cadf489d7", "lat": 38.8945895, "fusion_lon": 0.0, "fusion_lat": 0.0, "type": "electric_scooter", "name": "da84534374776e4baf69ad9cadf489d7", "is_disabled": 0, "rental_uris": {"ios": "https://dc.lft.to/lastmile_qr_scan", "android": "https://dc.lft.to/lastmile_qr_scan"}, "is_reserved": 0}, {"lon": -77.04770683333334, "bike_id": "0b16241fc41742ee332174653b7d2a25", "lat": 38.9174705, "fusion_lon": 0.0, "fusion_lat": 0.0, "type": "electric_scooter", "name": "0b16241fc41742ee332174653b7d2a25", "is_disabled": 0, "rental_uris": {"ios": "https://dc.lft.to/lastmile_qr_scan", "android": "https://dc.lft.to/lastmile_qr_scan"}, "is_reserved": 0}, {"lon": -77.00148383333334, "bike_id": "8a224d6c6a16fe65e4834040f9aad0aa", "lat": 38.910742166666665, "fusion_lon": 0.0, "fusion_lat": 0.0, "type": "electric_scooter", "name": "8a224d6c6a16fe65e4834040f9aad0aa", "is_disabled": 0, "rental_uris": {"ios": "https://dc.lft.to/lastmile_qr_scan", "android": "https://dc.lft.to/lastmile_qr_scan"}, "is_reserved": 0}, {"lon": -76.93737166666666, "bike_id": "934f619dbc816a6d1bd7911ca4d1331d", "lat": 38.89015766666667, "fusion_lon": 0.0, "fusion_lat": 0.0, "type": "electric_scooter", "name": "934f619dbc816a6d1bd7911ca4d1331d", "is_disabled": 0, "rental_uris": {"ios": "https://dc.lft.to/lastmile_qr_scan", "android": "https://dc.lft.to/lastmile_qr_scan"}, "is_reserved": 0}, {"lon": -76.99001233333334, "bike_id": "b4a19900c65487791fa18182c7700dd6", "lat": 38.865058166666664, "fusion_lon": 0.0, "fusion_lat": 0.0, "type": "electric_scooter", "name": "b4a19900c65487791fa18182c7700dd6", "is_disabled": 0, "rental_uris": {"ios": "https://dc.lft.to/lastmile_qr_scan", "android": "https://dc.lft.to/lastmile_qr_scan"}, "is_reserved": 0}, {"lon": -76.98923433333333, "bike_id": "6175795c87e4d3b0e9ca4e0f5ec8095b", "lat": 38.90179666666667, "fusion_lon": 0.0, "fusion_lat": 0.0, "type": "electric_scooter", "name": "6175795c87e4d3b0e9ca4e0f5ec8095b", "is_disabled": 0, "rental_uris": {"ios": "https://dc.lft.to/lastmile_qr_scan", "android": "https://dc.lft.to/lastmile_qr_scan"}, "is_reserved": 0}, {"lon": -77.02720666666667, "bike_id": "f48e0efbdd2bfb551b21ff797cfe8464", "lat": 38.89776233333333, "fusion_lon": 0.0, "fusion_lat": 0.0, "type": "electric_scooter", "name": "f48e0efbdd2bfb551b21ff797cfe8464", "is_disabled": 0, "rental_uris": {"ios": "https://dc.lft.to/lastmile_qr_scan", "android": "https://dc.lft.to/lastmile_qr_scan"}, "is_reserved": 0}, {"lon": -77.02167483333334, "bike_id": "2f713edc0b2a909c2264b380795cd116", "lat": 38.89751416666667, "fusion_lon": 0.0, "fusion_lat": 0.0, "type": "electric_scooter", "name": "2f713edc0b2a909c2264b380795cd116", "is_disabled": 0, "rental_uris": {"ios": "https://dc.lft.to/lastmile_qr_scan", "android": "https://dc.lft.to/lastmile_qr_scan"}, "is_reserved": 0}, {"lon": -77.05263983333333, "bike_id": "029f73555656473a744fbc63996b7f79", "lat": 38.9256505, "fusion_lon": 0.0, "fusion_lat": 0.0, "type": "electric_scooter", "name": "029f73555656473a744fbc63996b7f79", "is_disabled": 0, "rental_uris": {"ios": "https://dc.lft.to/lastmile_qr_scan", "android": "https://dc.lft.to/lastmile_qr_scan"}, "is_reserved": 0}, {"lon": -77.02210383333333, "bike_id": "19a0c2e461ff08abcbf32fd00e77f1f4", "lat": 38.893521, "fusion_lon": 0.0, "fusion_lat": 0.0, "type": "electric_scooter", "name": "19a0c2e461ff08abcbf32fd00e77f1f4", "is_disabled": 0, "rental_uris": {"ios": "https://dc.lft.to/lastmile_qr_scan", "android": "https://dc.lft.to/lastmile_qr_scan"}, "is_reserved": 0}, {"lon": -76.95747483333334, "bike_id": "587d3296708345e35a17a17d5c755d12", "lat": 38.88424966666667, "fusion_lon": 0.0, "fusion_lat": 0.0, "type": "electric_scooter", "name": "587d3296708345e35a17a17d5c755d12", "is_disabled": 0, "rental_uris": {"ios": "https://dc.lft.to/lastmile_qr_scan", "android": "https://dc.lft.to/lastmile_qr_scan"}, "is_reserved": 0}, {"lon": -77.025822, "bike_id": "d07248fe3021f6ea466b615f23b57831", "lat": 38.887368333333335, "fusion_lon": 0.0, "fusion_lat": 0.0, "type": "electric_scooter", "name": "d07248fe3021f6ea466b615f23b57831", "is_disabled": 0, "rental_uris": {"ios": "https://dc.lft.to/lastmile_qr_scan", "android": "https://dc.lft.to/lastmile_qr_scan"}, "is_reserved": 0}, {"lon": -77.050289, "bike_id": "7b65e5d4ebd8ca655c5efed11e010da2", "lat": 38.90166266666667, "fusion_lon": 0.0, "fusion_lat": 0.0, "type": "electric_scooter", "name": "7b65e5d4ebd8ca655c5efed11e010da2", "is_disabled": 0, "rental_uris": {"ios": "https://dc.lft.to/lastmile_qr_scan", "android": "https://dc.lft.to/lastmile_qr_scan"}, "is_reserved": 0}, {"lon": -76.98557683333334, "bike_id": "b5345bd676ba22575564ab91f0a91387", "lat": 38.896150166666665, "fusion_lon": 0.0, "fusion_lat": 0.0, "type": "electric_scooter", "name": "b5345bd676ba22575564ab91f0a91387", "is_disabled": 0, "rental_uris": {"ios": "https://dc.lft.to/lastmile_qr_scan", "android": "https://dc.lft.to/lastmile_qr_scan"}, "is_reserved": 0}, {"lon": -77.01969616666666, "bike_id": "19374ff0fd3293cff6880eebc5a0db9c", "lat": 38.935825, "fusion_lon": 0.0, "fusion_lat": 0.0, "type": "electric_scooter", "name": "19374ff0fd3293cff6880eebc5a0db9c", "is_disabled": 0, "rental_uris": {"ios": "https://dc.lft.to/lastmile_qr_scan", "android": "https://dc.lft.to/lastmile_qr_scan"}, "is_reserved": 0}, {"lon": -77.0258325, "bike_id": "ffb8d1333f4d07d9ed66268b6d8b3218", "lat": 38.90547216666667, "fusion_lon": 0.0, "fusion_lat": 0.0, "type": "electric_scooter", "name": "ffb8d1333f4d07d9ed66268b6d8b3218", "is_disabled": 0, "rental_uris": {"ios": "https://dc.lft.to/lastmile_qr_scan", "android": "https://dc.lft.to/lastmile_qr_scan"}, "is_reserved": 0}, {"lon": -77.0304, "bike_id": "28fbb13f2fce59401bd4b1cd92d82ebb", "lat": 38.8783895, "fusion_lon": 0.0, "fusion_lat": 0.0, "type": "electric_scooter", "name": "28fbb13f2fce59401bd4b1cd92d82ebb", "is_disabled": 0, "rental_uris": {"ios": "https://dc.lft.to/lastmile_qr_scan", "android": "https://dc.lft.to/lastmile_qr_scan"}, "is_reserved": 0}, {"lon": -77.04498933333333, "bike_id": "636293051dd50bdce0e8e899993e424d", "lat": 38.911111, "fusion_lon": 0.0, "fusion_lat": 0.0, "type": "electric_scooter", "name": "636293051dd50bdce0e8e899993e424d", "is_disabled": 0, "rental_uris": {"ios": "https://dc.lft.to/lastmile_qr_scan", "android": "https://dc.lft.to/lastmile_qr_scan"}, "is_reserved": 0}, {"lon": -77.030237, "bike_id": "8edc0babfcf57de07548ecff371f211e", "lat": 38.931054, "fusion_lon": 0.0, "fusion_lat": 0.0, "type": "electric_scooter", "name": "8edc0babfcf57de07548ecff371f211e", "is_disabled": 0, "rental_uris": {"ios": "https://dc.lft.to/lastmile_qr_scan", "android": "https://dc.lft.to/lastmile_qr_scan"}, "is_reserved": 0}, {"lon": -77.04570466666667, "bike_id": "55787f2c1d99322d5fc87a247f8c28ac", "lat": 38.917618833333336, "fusion_lon": 0.0, "fusion_lat": 0.0, "type": "electric_scooter", "name": "55787f2c1d99322d5fc87a247f8c28ac", "is_disabled": 0, "rental_uris": {"ios": "https://dc.lft.to/lastmile_qr_scan", "android": "https://dc.lft.to/lastmile_qr_scan"}, "is_reserved": 0}, {"lon": -76.99273716666667, "bike_id": "f95c5f152c4ea9da91dfaee0fa43813a", "lat": 38.8961325, "fusion_lon": 0.0, "fusion_lat": 0.0, "type": "electric_scooter", "name": "f95c5f152c4ea9da91dfaee0fa43813a", "is_disabled": 0, "rental_uris": {"ios": "https://dc.lft.to/lastmile_qr_scan", "android": "https://dc.lft.to/lastmile_qr_scan"}, "is_reserved": 0}, {"lon": -77.01772183333334, "bike_id": "500c9dc532f705f5bd657ddffd8bce2b", "lat": 38.900782666666665, "fusion_lon": 0.0, "fusion_lat": 0.0, "type": "electric_scooter", "name": "500c9dc532f705f5bd657ddffd8bce2b", "is_disabled": 0, "rental_uris": {"ios": "https://dc.lft.to/lastmile_qr_scan", "android": "https://dc.lft.to/lastmile_qr_scan"}, "is_reserved": 0}, {"lon": -77.0328635, "bike_id": "c460e121e87587974a82c5c053e083e7", "lat": 38.95648966666667, "fusion_lon": 0.0, "fusion_lat": 0.0, "type": "electric_scooter", "name": "c460e121e87587974a82c5c053e083e7", "is_disabled": 0, "rental_uris": {"ios": "https://dc.lft.to/lastmile_qr_scan", "android": "https://dc.lft.to/lastmile_qr_scan"}, "is_reserved": 0}, {"lon": -76.973263, "bike_id": "4b639db5955361cacad9934c4d6de3ec", "lat": 38.9047865, "fusion_lon": 0.0, "fusion_lat": 0.0, "type": "electric_bike", "name": "4b639db5955361cacad9934c4d6de3ec", "is_disabled": 0, "rental_uris": {"ios": "https://dc.lft.to/lastmile_qr_scan", "android": "https://dc.lft.to/lastmile_qr_scan"}, "is_reserved": 0}, {"lon": -76.99794983333334, "bike_id": "e1412ad3729441fd3d78a73378a13510", "lat": 38.956437333333334, "fusion_lon": 0.0, "fusion_lat": 0.0, "type": "electric_bike", "name": "e1412ad3729441fd3d78a73378a13510", "is_disabled": 0, "rental_uris": {"ios": "https://dc.lft.to/lastmile_qr_scan", "android": "https://dc.lft.to/lastmile_qr_scan"}, "is_reserved": 0}, {"lon": -77.00055316666666, "bike_id": "1eed70938bf4d80b9b992069b479c0cc", "lat": 38.874605, "fusion_lon": 0.0, "fusion_lat": 0.0, "type": "electric_scooter", "name": "1eed70938bf4d80b9b992069b479c0cc", "is_disabled": 0, "rental_uris": {"ios": "https://dc.lft.to/lastmile_qr_scan", "android": "https://dc.lft.to/lastmile_qr_scan"}, "is_reserved": 0}, {"lon": -77.03183016666667, "bike_id": "68824a4827a582a9638bb81d69ea3dd3", "lat": 38.8923345, "fusion_lon": 0.0, "fusion_lat": 0.0, "type": "electric_scooter", "name": "68824a4827a582a9638bb81d69ea3dd3", "is_disabled": 0, "rental_uris": {"ios": "https://dc.lft.to/lastmile_qr_scan", "android": "https://dc.lft.to/lastmile_qr_scan"}, "is_reserved": 0}, {"lon": -77.02396083333333, "bike_id": "fa0320f0c826e736daf29075feadb85d", "lat": 38.88136033333333, "fusion_lon": 0.0, "fusion_lat": 0.0, "type": "electric_scooter", "name": "fa0320f0c826e736daf29075feadb85d", "is_disabled": 0, "rental_uris": {"ios": "https://dc.lft.to/lastmile_qr_scan", "android": "https://dc.lft.to/lastmile_qr_scan"}, "is_reserved": 0}, {"lon": -77.04719166666666, "bike_id": "97b21b809ffdc499042186fa59878455", "lat": 38.899693666666664, "fusion_lon": 0.0, "fusion_lat": 0.0, "type": "electric_scooter", "name": "97b21b809ffdc499042186fa59878455", "is_disabled": 0, "rental_uris": {"ios": "https://dc.lft.to/lastmile_qr_scan", "android": "https://dc.lft.to/lastmile_qr_scan"}, "is_reserved": 0}, {"lon": -77.057274, "bike_id": "fa758178160932fa00d6352849048b75", "lat": 38.933623, "fusion_lon": 0.0, "fusion_lat": 0.0, "type": "electric_scooter", "name": "fa758178160932fa00d6352849048b75", "is_disabled": 0, "rental_uris": {"ios": "https://dc.lft.to/lastmile_qr_scan", "android": "https://dc.lft.to/lastmile_qr_scan"}, "is_reserved": 0}, {"lon": -77.0317715, "bike_id": "a2d7bd377043d0ac8c801992560cda40", "lat": 38.89230216666667, "fusion_lon": 0.0, "fusion_lat": 0.0, "type": "electric_scooter", "name": "a2d7bd377043d0ac8c801992560cda40", "is_disabled": 0, "rental_uris": {"ios": "https://dc.lft.to/lastmile_qr_scan", "android": "https://dc.lft.to/lastmile_qr_scan"}, "is_reserved": 0}, {"lon": -77.00882866666667, "bike_id": "98ac619b3536a1a2575361747b436d2c", "lat": 38.912470666666664, "fusion_lon": 0.0, "fusion_lat": 0.0, "type": "electric_bike", "name": "98ac619b3536a1a2575361747b436d2c", "is_disabled": 0, "rental_uris": {"ios": "https://dc.lft.to/lastmile_qr_scan", "android": "https://dc.lft.to/lastmile_qr_scan"}, "is_reserved": 0}, {"lon": -77.18562066666667, "bike_id": "008311d2c595c73b04f276b45622c389", "lat": 39.09974966666667, "fusion_lon": 0.0, "fusion_lat": 0.0, "type": "electric_bike", "name": "008311d2c595c73b04f276b45622c389", "is_disabled": 0, "rental_uris": {"ios": "https://dc.lft.to/lastmile_qr_scan", "android": "https://dc.lft.to/lastmile_qr_scan"}, "is_reserved": 0}, {"lon": -77.0318295, "bike_id": "692be33affaa4a99e0ca870b1a723a0b", "lat": 38.92915166666667, "fusion_lon": 0.0, "fusion_lat": 0.0, "type": "electric_scooter", "name": "692be33affaa4a99e0ca870b1a723a0b", "is_disabled": 0, "rental_uris": {"ios": "https://dc.lft.to/lastmile_qr_scan", "android": "https://dc.lft.to/lastmile_qr_scan"}, "is_reserved": 0}, {"lon": -77.03176166666667, "bike_id": "95775686f72127b11e2b8109afb06ec9", "lat": 38.93608166666667, "fusion_lon": 0.0, "fusion_lat": 0.0, "type": "electric_scooter", "name": "95775686f72127b11e2b8109afb06ec9", "is_disabled": 0, "rental_uris": {"ios": "https://dc.lft.to/lastmile_qr_scan", "android": "https://dc.lft.to/lastmile_qr_scan"}, "is_reserved": 0}, {"lon": -77.00658933333334, "bike_id": "e29dbc7539fc347130522f2a41b7648f", "lat": 38.944631, "fusion_lon": 0.0, "fusion_lat": 0.0, "type": "electric_scooter", "name": "e29dbc7539fc347130522f2a41b7648f", "is_disabled": 0, "rental_uris": {"ios": "https://dc.lft.to/lastmile_qr_scan", "android": "https://dc.lft.to/lastmile_qr_scan"}, "is_reserved": 0}, {"lon": -77.0343375, "bike_id": "fbabc111698b6ef5720c8ab78327e544", "lat": 38.91009483333333, "fusion_lon": 0.0, "fusion_lat": 0.0, "type": "electric_scooter", "name": "fbabc111698b6ef5720c8ab78327e544", "is_disabled": 0, "rental_uris": {"ios": "https://dc.lft.to/lastmile_qr_scan", "android": "https://dc.lft.to/lastmile_qr_scan"}, "is_reserved": 0}, {"lon": -77.02384916666666, "bike_id": "da78a193bbf1478da2b734e6dcefa17f", "lat": 38.91984183333334, "fusion_lon": 0.0, "fusion_lat": 0.0, "type": "electric_scooter", "name": "da78a193bbf1478da2b734e6dcefa17f", "is_disabled": 0, "rental_uris": {"ios": "https://dc.lft.to/lastmile_qr_scan", "android": "https://dc.lft.to/lastmile_qr_scan"}, "is_reserved": 0}, {"lon": -76.96258183333333, "bike_id": "dbabfdc4bc5affe01f53bfcf126ccdca", "lat": 38.882452666666666, "fusion_lon": 0.0, "fusion_lat": 0.0, "type": "electric_bike", "name": "dbabfdc4bc5affe01f53bfcf126ccdca", "is_disabled": 0, "rental_uris": {"ios": "https://dc.lft.to/lastmile_qr_scan", "android": "https://dc.lft.to/lastmile_qr_scan"}, "is_reserved": 0}, {"lon": -77.021374, "bike_id": "dfbb7aadcf0e0096927fcf2a0def0dca", "lat": 38.915437, "fusion_lon": 0.0, "fusion_lat": 0.0, "type": "electric_scooter", "name": "dfbb7aadcf0e0096927fcf2a0def0dca", "is_disabled": 0, "rental_uris": {"ios": "https://dc.lft.to/lastmile_qr_scan", "android": "https://dc.lft.to/lastmile_qr_scan"}, "is_reserved": 0}, {"lon": -77.02281066666667, "bike_id": "cfedfa320177d344e7f66934fe9d636d", "lat": 38.9095755, "fusion_lon": 0.0, "fusion_lat": 0.0, "type": "electric_scooter", "name": "cfedfa320177d344e7f66934fe9d636d", "is_disabled": 0, "rental_uris": {"ios": "https://dc.lft.to/lastmile_qr_scan", "android": "https://dc.lft.to/lastmile_qr_scan"}, "is_reserved": 0}, {"lon": -77.0448515, "bike_id": "9edfca31c0d216ab6b91b2165abb3479", "lat": 38.91933133333333, "fusion_lon": 0.0, "fusion_lat": 0.0, "type": "electric_scooter", "name": "9edfca31c0d216ab6b91b2165abb3479", "is_disabled": 0, "rental_uris": {"ios": "https://dc.lft.to/lastmile_qr_scan", "android": "https://dc.lft.to/lastmile_qr_scan"}, "is_reserved": 0}, {"lon": -77.04661683333333, "bike_id": "bc07691fe522acb8c0a13c146d2f8a2e", "lat": 38.913647833333336, "fusion_lon": 0.0, "fusion_lat": 0.0, "type": "electric_scooter", "name": "bc07691fe522acb8c0a13c146d2f8a2e", "is_disabled": 0, "rental_uris": {"ios": "https://dc.lft.to/lastmile_qr_scan", "android": "https://dc.lft.to/lastmile_qr_scan"}, "is_reserved": 0}, {"lon": -76.99372316666667, "bike_id": "b5a55e4fb7772b54310409d62789ea24", "lat": 38.923973, "fusion_lon": 0.0, "fusion_lat": 0.0, "type": "electric_scooter", "name": "b5a55e4fb7772b54310409d62789ea24", "is_disabled": 0, "rental_uris": {"ios": "https://dc.lft.to/lastmile_qr_scan", "android": "https://dc.lft.to/lastmile_qr_scan"}, "is_reserved": 0}, {"lon": -77.02970716666667, "bike_id": "f0372cf810aac3527bbbac27bb525bfe", "lat": 38.9048745, "fusion_lon": 0.0, "fusion_lat": 0.0, "type": "electric_scooter", "name": "f0372cf810aac3527bbbac27bb525bfe", "is_disabled": 0, "rental_uris": {"ios": "https://dc.lft.to/lastmile_qr_scan", "android": "https://dc.lft.to/lastmile_qr_scan"}, "is_reserved": 0}, {"lon": -77.03403416666667, "bike_id": "5b00b93e486761bc1c5048ce26ee4471", "lat": 38.9056275, "fusion_lon": 0.0, "fusion_lat": 0.0, "type": "electric_scooter", "name": "5b00b93e486761bc1c5048ce26ee4471", "is_disabled": 0, "rental_uris": {"ios": "https://dc.lft.to/lastmile_qr_scan", "android": "https://dc.lft.to/lastmile_qr_scan"}, "is_reserved": 0}, {"lon": -77.02313516666666, "bike_id": "aa96b49dce94fc5592fac5c57e7715f4", "lat": 38.90910233333334, "fusion_lon": 0.0, "fusion_lat": 0.0, "type": "electric_bike", "name": "aa96b49dce94fc5592fac5c57e7715f4", "is_disabled": 0, "rental_uris": {"ios": "https://dc.lft.to/lastmile_qr_scan", "android": "https://dc.lft.to/lastmile_qr_scan"}, "is_reserved": 0}, {"lon": -77.03323083333333, "bike_id": "fd471f4ecb66d54335aae611e1318150", "lat": 38.93898083333333, "fusion_lon": 0.0, "fusion_lat": 0.0, "type": "electric_scooter", "name": "fd471f4ecb66d54335aae611e1318150", "is_disabled": 0, "rental_uris": {"ios": "https://dc.lft.to/lastmile_qr_scan", "android": "https://dc.lft.to/lastmile_qr_scan"}, "is_reserved": 0}, {"lon": -77.0328235, "bike_id": "55ab124ba178d058ba99454c627a93e8", "lat": 38.928414, "fusion_lon": 0.0, "fusion_lat": 0.0, "type": "electric_scooter", "name": "55ab124ba178d058ba99454c627a93e8", "is_disabled": 0, "rental_uris": {"ios": "https://dc.lft.to/lastmile_qr_scan", "android": "https://dc.lft.to/lastmile_qr_scan"}, "is_reserved": 0}, {"lon": -77.0467985, "bike_id": "4561ba2f382cc16d2d0a6a94888664ae", "lat": 38.9071565, "fusion_lon": 0.0, "fusion_lat": 0.0, "type": "electric_scooter", "name": "4561ba2f382cc16d2d0a6a94888664ae", "is_disabled": 0, "rental_uris": {"ios": "https://dc.lft.to/lastmile_qr_scan", "android": "https://dc.lft.to/lastmile_qr_scan"}, "is_reserved": 0}, {"lon": -77.03582733333333, "bike_id": "4ba86446c951fb37f77a43587f7b78b6", "lat": 38.91041533333333, "fusion_lon": 0.0, "fusion_lat": 0.0, "type": "electric_scooter", "name": "4ba86446c951fb37f77a43587f7b78b6", "is_disabled": 0, "rental_uris": {"ios": "https://dc.lft.to/lastmile_qr_scan", "android": "https://dc.lft.to/lastmile_qr_scan"}, "is_reserved": 0}, {"lon": -77.03264033333333, "bike_id": "3a1a9a04358d0ad846d0184d8f93fbb7", "lat": 38.93772666666667, "fusion_lon": 0.0, "fusion_lat": 0.0, "type": "electric_scooter", "name": "3a1a9a04358d0ad846d0184d8f93fbb7", "is_disabled": 0, "rental_uris": {"ios": "https://dc.lft.to/lastmile_qr_scan", "android": "https://dc.lft.to/lastmile_qr_scan"}, "is_reserved": 0}, {"lon": -77.03326583333333, "bike_id": "1089e7f4d16863731b34e08b6590d2f4", "lat": 38.94716583333334, "fusion_lon": 0.0, "fusion_lat": 0.0, "type": "electric_scooter", "name": "1089e7f4d16863731b34e08b6590d2f4", "is_disabled": 0, "rental_uris": {"ios": "https://dc.lft.to/lastmile_qr_scan", "android": "https://dc.lft.to/lastmile_qr_scan"}, "is_reserved": 0}, {"lon": -77.03193533333334, "bike_id": "8feb4b4d497e192b4caa3f58f7501581", "lat": 38.917403, "fusion_lon": 0.0, "fusion_lat": 0.0, "type": "electric_scooter", "name": "8feb4b4d497e192b4caa3f58f7501581", "is_disabled": 0, "rental_uris": {"ios": "https://dc.lft.to/lastmile_qr_scan", "android": "https://dc.lft.to/lastmile_qr_scan"}, "is_reserved": 0}, {"lon": -77.03265566666667, "bike_id": "a8fb9e5f1bec3f7cb5b36281f552f946", "lat": 38.93238783333334, "fusion_lon": 0.0, "fusion_lat": 0.0, "type": "electric_scooter", "name": "a8fb9e5f1bec3f7cb5b36281f552f946", "is_disabled": 0, "rental_uris": {"ios": "https://dc.lft.to/lastmile_qr_scan", "android": "https://dc.lft.to/lastmile_qr_scan"}, "is_reserved": 0}, {"lon": -77.04228383333333, "bike_id": "b497c0e7cefd0db06839b3c399680b42", "lat": 38.9133625, "fusion_lon": 0.0, "fusion_lat": 0.0, "type": "electric_scooter", "name": "b497c0e7cefd0db06839b3c399680b42", "is_disabled": 0, "rental_uris": {"ios": "https://dc.lft.to/lastmile_qr_scan", "android": "https://dc.lft.to/lastmile_qr_scan"}, "is_reserved": 0}, {"lon": -77.044331, "bike_id": "4bdc376f66a4c1bf4ef65ad2c6b684ad", "lat": 38.911268166666666, "fusion_lon": 0.0, "fusion_lat": 0.0, "type": "electric_scooter", "name": "4bdc376f66a4c1bf4ef65ad2c6b684ad", "is_disabled": 0, "rental_uris": {"ios": "https://dc.lft.to/lastmile_qr_scan", "android": "https://dc.lft.to/lastmile_qr_scan"}, "is_reserved": 0}, {"lon": -76.99290983333333, "bike_id": "61295d3e2bf9514d28430d9c798511df", "lat": 38.8988335, "fusion_lon": 0.0, "fusion_lat": 0.0, "type": "electric_scooter", "name": "61295d3e2bf9514d28430d9c798511df", "is_disabled": 0, "rental_uris": {"ios": "https://dc.lft.to/lastmile_qr_scan", "android": "https://dc.lft.to/lastmile_qr_scan"}, "is_reserved": 0}, {"lon": -77.03198666666667, "bike_id": "c5c9d710580e5dd630fdc0afffdbcdad", "lat": 38.927772166666664, "fusion_lon": 0.0, "fusion_lat": 0.0, "type": "electric_scooter", "name": "c5c9d710580e5dd630fdc0afffdbcdad", "is_disabled": 0, "rental_uris": {"ios": "https://dc.lft.to/lastmile_qr_scan", "android": "https://dc.lft.to/lastmile_qr_scan"}, "is_reserved": 0}, {"lon": -77.0275155, "bike_id": "521d97e2d09e57705586bea249c05fbd", "lat": 38.9333165, "fusion_lon": 0.0, "fusion_lat": 0.0, "type": "electric_scooter", "name": "521d97e2d09e57705586bea249c05fbd", "is_disabled": 0, "rental_uris": {"ios": "https://dc.lft.to/lastmile_qr_scan", "android": "https://dc.lft.to/lastmile_qr_scan"}, "is_reserved": 0}, {"lon": -77.04182816666666, "bike_id": "869acce0b053a49c71aa50a38defc422", "lat": 38.905418166666664, "fusion_lon": 0.0, "fusion_lat": 0.0, "type": "electric_scooter", "name": "869acce0b053a49c71aa50a38defc422", "is_disabled": 0, "rental_uris": {"ios": "https://dc.lft.to/lastmile_qr_scan", "android": "https://dc.lft.to/lastmile_qr_scan"}, "is_reserved": 0}, {"lon": -77.0354215, "bike_id": "dd49aa24823d4b32b3cb257b29debf4f", "lat": 38.9257075, "fusion_lon": 0.0, "fusion_lat": 0.0, "type": "electric_scooter", "name": "dd49aa24823d4b32b3cb257b29debf4f", "is_disabled": 0, "rental_uris": {"ios": "https://dc.lft.to/lastmile_qr_scan", "android": "https://dc.lft.to/lastmile_qr_scan"}, "is_reserved": 0}, {"lon": -77.021699, "bike_id": "87c51afa1e95503b6c008339f3188abe", "lat": 38.929975, "fusion_lon": 0.0, "fusion_lat": 0.0, "type": "electric_scooter", "name": "87c51afa1e95503b6c008339f3188abe", "is_disabled": 0, "rental_uris": {"ios": "https://dc.lft.to/lastmile_qr_scan", "android": "https://dc.lft.to/lastmile_qr_scan"}, "is_reserved": 0}, {"lon": -77.00379733333334, "bike_id": "7975042f6d105529e73ffcf78907de3a", "lat": 38.83598116666667, "fusion_lon": 0.0, "fusion_lat": 0.0, "type": "electric_bike", "name": "7975042f6d105529e73ffcf78907de3a", "is_disabled": 0, "rental_uris": {"ios": "https://dc.lft.to/lastmile_qr_scan", "android": "https://dc.lft.to/lastmile_qr_scan"}, "is_reserved": 0}, {"lon": -77.03896266666666, "bike_id": "937e033a35bd0a3f7ffcf91df7382111", "lat": 38.92353083333333, "fusion_lon": 0.0, "fusion_lat": 0.0, "type": "electric_scooter", "name": "937e033a35bd0a3f7ffcf91df7382111", "is_disabled": 0, "rental_uris": {"ios": "https://dc.lft.to/lastmile_qr_scan", "android": "https://dc.lft.to/lastmile_qr_scan"}, "is_reserved": 0}, {"lon": -77.03492083333333, "bike_id": "283079f041c8b49d024f7a3aecfb1e0f", "lat": 38.937528, "fusion_lon": 0.0, "fusion_lat": 0.0, "type": "electric_scooter", "name": "283079f041c8b49d024f7a3aecfb1e0f", "is_disabled": 0, "rental_uris": {"ios": "https://dc.lft.to/lastmile_qr_scan", "android": "https://dc.lft.to/lastmile_qr_scan"}, "is_reserved": 0}, {"lon": -77.02695816666666, "bike_id": "a3508e9f1b332ca74dd93291bb3e7c7b", "lat": 38.897029833333335, "fusion_lon": 0.0, "fusion_lat": 0.0, "type": "electric_scooter", "name": "a3508e9f1b332ca74dd93291bb3e7c7b", "is_disabled": 0, "rental_uris": {"ios": "https://dc.lft.to/lastmile_qr_scan", "android": "https://dc.lft.to/lastmile_qr_scan"}, "is_reserved": 0}, {"lon": -76.94634783333333, "bike_id": "07279e640a8621360272ed32240b8f46", "lat": 38.89831, "fusion_lon": 0.0, "fusion_lat": 0.0, "type": "electric_scooter", "name": "07279e640a8621360272ed32240b8f46", "is_disabled": 0, "rental_uris": {"ios": "https://dc.lft.to/lastmile_qr_scan", "android": "https://dc.lft.to/lastmile_qr_scan"}, "is_reserved": 0}, {"lon": -77.02962066666667, "bike_id": "7f1a0868cc1a70898615b9e2e6ac2b1e", "lat": 38.929341, "fusion_lon": 0.0, "fusion_lat": 0.0, "type": "electric_scooter", "name": "7f1a0868cc1a70898615b9e2e6ac2b1e", "is_disabled": 0, "rental_uris": {"ios": "https://dc.lft.to/lastmile_qr_scan", "android": "https://dc.lft.to/lastmile_qr_scan"}, "is_reserved": 0}, {"lon": -76.9806935, "bike_id": "a61dba254f31b07b76dcbf2ca0d54f0a", "lat": 38.9017265, "fusion_lon": 0.0, "fusion_lat": 0.0, "type": "electric_scooter", "name": "a61dba254f31b07b76dcbf2ca0d54f0a", "is_disabled": 0, "rental_uris": {"ios": "https://dc.lft.to/lastmile_qr_scan", "android": "https://dc.lft.to/lastmile_qr_scan"}, "is_reserved": 0}, {"lon": -77.06344283333334, "bike_id": "2b382f7bfc0bbe7b8373a535199d1cf5", "lat": 38.90683466666667, "fusion_lon": 0.0, "fusion_lat": 0.0, "type": "electric_scooter", "name": "2b382f7bfc0bbe7b8373a535199d1cf5", "is_disabled": 0, "rental_uris": {"ios": "https://dc.lft.to/lastmile_qr_scan", "android": "https://dc.lft.to/lastmile_qr_scan"}, "is_reserved": 0}, {"lon": -77.0553495, "bike_id": "17ebcb72fd9c59f6287d673aec430c17", "lat": 38.934318, "fusion_lon": 0.0, "fusion_lat": 0.0, "type": "electric_scooter", "name": "17ebcb72fd9c59f6287d673aec430c17", "is_disabled": 0, "rental_uris": {"ios": "https://dc.lft.to/lastmile_qr_scan", "android": "https://dc.lft.to/lastmile_qr_scan"}, "is_reserved": 0}, {"lon": -77.08457833333334, "bike_id": "b8baad5ce6d7bb064adf146d29a3d960", "lat": 38.84818766666667, "fusion_lon": 0.0, "fusion_lat": 0.0, "type": "electric_bike", "name": "b8baad5ce6d7bb064adf146d29a3d960", "is_disabled": 0, "rental_uris": {"ios": "https://dc.lft.to/lastmile_qr_scan", "android": "https://dc.lft.to/lastmile_qr_scan"}, "is_reserved": 0}, {"lon": -77.00349833333334, "bike_id": "386e5d0d55ac1233ea64025074305b78", "lat": 38.899497833333335, "fusion_lon": 0.0, "fusion_lat": 0.0, "type": "electric_scooter", "name": "386e5d0d55ac1233ea64025074305b78", "is_disabled": 0, "rental_uris": {"ios": "https://dc.lft.to/lastmile_qr_scan", "android": "https://dc.lft.to/lastmile_qr_scan"}, "is_reserved": 0}, {"lon": -77.0422865, "bike_id": "53ad4f72aa684680a0241387310ef08b", "lat": 38.907421666666664, "fusion_lon": 0.0, "fusion_lat": 0.0, "type": "electric_scooter", "name": "53ad4f72aa684680a0241387310ef08b", "is_disabled": 0, "rental_uris": {"ios": "https://dc.lft.to/lastmile_qr_scan", "android": "https://dc.lft.to/lastmile_qr_scan"}, "is_reserved": 0}, {"lon": -76.97391033333334, "bike_id": "a6accd06f27da27386e15ed39bf3f51f", "lat": 38.9055705, "fusion_lon": 0.0, "fusion_lat": 0.0, "type": "electric_scooter", "name": "a6accd06f27da27386e15ed39bf3f51f", "is_disabled": 0, "rental_uris": {"ios": "https://dc.lft.to/lastmile_qr_scan", "android": "https://dc.lft.to/lastmile_qr_scan"}, "is_reserved": 0}, {"lon": -77.03184483333334, "bike_id": "a983f4a94967dd3f77895c72ae4f8574", "lat": 38.903729166666665, "fusion_lon": 0.0, "fusion_lat": 0.0, "type": "electric_scooter", "name": "a983f4a94967dd3f77895c72ae4f8574", "is_disabled": 0, "rental_uris": {"ios": "https://dc.lft.to/lastmile_qr_scan", "android": "https://dc.lft.to/lastmile_qr_scan"}, "is_reserved": 0}, {"lon": -77.03424683333333, "bike_id": "f8bc288fe05cc9835f908a00c7d94fc3", "lat": 38.92244783333334, "fusion_lon": 0.0, "fusion_lat": 0.0, "type": "electric_scooter", "name": "f8bc288fe05cc9835f908a00c7d94fc3", "is_disabled": 0, "rental_uris": {"ios": "https://dc.lft.to/lastmile_qr_scan", "android": "https://dc.lft.to/lastmile_qr_scan"}, "is_reserved": 0}, {"lon": -77.03265666666667, "bike_id": "2b6cbe715c20626fb1a62b2b79a79c06", "lat": 38.93399816666667, "fusion_lon": 0.0, "fusion_lat": 0.0, "type": "electric_scooter", "name": "2b6cbe715c20626fb1a62b2b79a79c06", "is_disabled": 0, "rental_uris": {"ios": "https://dc.lft.to/lastmile_qr_scan", "android": "https://dc.lft.to/lastmile_qr_scan"}, "is_reserved": 0}, {"lon": -77.03853633333334, "bike_id": "b231bc107cbfd9b27b166847c8900ac9", "lat": 38.916645, "fusion_lon": 0.0, "fusion_lat": 0.0, "type": "electric_scooter", "name": "b231bc107cbfd9b27b166847c8900ac9", "is_disabled": 0, "rental_uris": {"ios": "https://dc.lft.to/lastmile_qr_scan", "android": "https://dc.lft.to/lastmile_qr_scan"}, "is_reserved": 0}, {"lon": -77.03176616666667, "bike_id": "f1dc07b223b9f274dbc5c9da9b5867a8", "lat": 38.89220816666667, "fusion_lon": 0.0, "fusion_lat": 0.0, "type": "electric_scooter", "name": "f1dc07b223b9f274dbc5c9da9b5867a8", "is_disabled": 0, "rental_uris": {"ios": "https://dc.lft.to/lastmile_qr_scan", "android": "https://dc.lft.to/lastmile_qr_scan"}, "is_reserved": 0}, {"lon": -77.01629, "bike_id": "8310846c0d9019da0bbfd445094d956a", "lat": 38.905726, "fusion_lon": 0.0, "fusion_lat": 0.0, "type": "electric_scooter", "name": "8310846c0d9019da0bbfd445094d956a", "is_disabled": 0, "rental_uris": {"ios": "https://dc.lft.to/lastmile_qr_scan", "android": "https://dc.lft.to/lastmile_qr_scan"}, "is_reserved": 0}, {"lon": -77.02703066666666, "bike_id": "756a403e5656db90d650df4056294974", "lat": 38.9177475, "fusion_lon": 0.0, "fusion_lat": 0.0, "type": "electric_scooter", "name": "756a403e5656db90d650df4056294974", "is_disabled": 0, "rental_uris": {"ios": "https://dc.lft.to/lastmile_qr_scan", "android": "https://dc.lft.to/lastmile_qr_scan"}, "is_reserved": 0}, {"lon": -77.035638, "bike_id": "bdf92497fe35e43717fc096c7324c532", "lat": 38.90834016666667, "fusion_lon": 0.0, "fusion_lat": 0.0, "type": "electric_scooter", "name": "bdf92497fe35e43717fc096c7324c532", "is_disabled": 0, "rental_uris": {"ios": "https://dc.lft.to/lastmile_qr_scan", "android": "https://dc.lft.to/lastmile_qr_scan"}, "is_reserved": 0}, {"lon": -76.9885165, "bike_id": "76228d13126d403f62e1d381b5648ec8", "lat": 38.9002985, "fusion_lon": 0.0, "fusion_lat": 0.0, "type": "electric_scooter", "name": "76228d13126d403f62e1d381b5648ec8", "is_disabled": 0, "rental_uris": {"ios": "https://dc.lft.to/lastmile_qr_scan", "android": "https://dc.lft.to/lastmile_qr_scan"}, "is_reserved": 0}, {"lon": -77.0124205, "bike_id": "07213c2c611fd21b263c5850b4d7a054", "lat": 38.892896666666665, "fusion_lon": 0.0, "fusion_lat": 0.0, "type": "electric_scooter", "name": "07213c2c611fd21b263c5850b4d7a054", "is_disabled": 0, "rental_uris": {"ios": "https://dc.lft.to/lastmile_qr_scan", "android": "https://dc.lft.to/lastmile_qr_scan"}, "is_reserved": 0}, {"lon": -77.03897266666667, "bike_id": "9ad27a65b0efee3b3c011887aae8b137", "lat": 38.91846366666667, "fusion_lon": 0.0, "fusion_lat": 0.0, "type": "electric_scooter", "name": "9ad27a65b0efee3b3c011887aae8b137", "is_disabled": 0, "rental_uris": {"ios": "https://dc.lft.to/lastmile_qr_scan", "android": "https://dc.lft.to/lastmile_qr_scan"}, "is_reserved": 0}, {"lon": -76.98138716666666, "bike_id": "e168b967d7d2d7d12ae28aa944cc4379", "lat": 38.9056265, "fusion_lon": 0.0, "fusion_lat": 0.0, "type": "electric_scooter", "name": "e168b967d7d2d7d12ae28aa944cc4379", "is_disabled": 0, "rental_uris": {"ios": "https://dc.lft.to/lastmile_qr_scan", "android": "https://dc.lft.to/lastmile_qr_scan"}, "is_reserved": 0}, {"lon": -77.03356266666667, "bike_id": "99fe31f7bbc1057c9909561f2518d393", "lat": 38.90561233333333, "fusion_lon": 0.0, "fusion_lat": 0.0, "type": "electric_scooter", "name": "99fe31f7bbc1057c9909561f2518d393", "is_disabled": 0, "rental_uris": {"ios": "https://dc.lft.to/lastmile_qr_scan", "android": "https://dc.lft.to/lastmile_qr_scan"}, "is_reserved": 0}, {"lon": -77.02705166666667, "bike_id": "1794edad814d9ecf9f4403e339ec11a6", "lat": 38.906634833333335, "fusion_lon": 0.0, "fusion_lat": 0.0, "type": "electric_scooter", "name": "1794edad814d9ecf9f4403e339ec11a6", "is_disabled": 0, "rental_uris": {"ios": "https://dc.lft.to/lastmile_qr_scan", "android": "https://dc.lft.to/lastmile_qr_scan"}, "is_reserved": 0}, {"lon": -77.03230733333334, "bike_id": "d8d39c2a685fd3558382409517b0a3f2", "lat": 38.9298965, "fusion_lon": 0.0, "fusion_lat": 0.0, "type": "electric_scooter", "name": "d8d39c2a685fd3558382409517b0a3f2", "is_disabled": 0, "rental_uris": {"ios": "https://dc.lft.to/lastmile_qr_scan", "android": "https://dc.lft.to/lastmile_qr_scan"}, "is_reserved": 0}, {"lon": -77.05918133333333, "bike_id": "3d3aefb4cff7094e98da6bf859d63498", "lat": 38.906278666666665, "fusion_lon": 0.0, "fusion_lat": 0.0, "type": "electric_scooter", "name": "3d3aefb4cff7094e98da6bf859d63498", "is_disabled": 0, "rental_uris": {"ios": "https://dc.lft.to/lastmile_qr_scan", "android": "https://dc.lft.to/lastmile_qr_scan"}, "is_reserved": 0}, {"lon": -77.0366505, "bike_id": "262af3a92ec8132f2a3de057a98037cd", "lat": 38.91812866666667, "fusion_lon": 0.0, "fusion_lat": 0.0, "type": "electric_scooter", "name": "262af3a92ec8132f2a3de057a98037cd", "is_disabled": 0, "rental_uris": {"ios": "https://dc.lft.to/lastmile_qr_scan", "android": "https://dc.lft.to/lastmile_qr_scan"}, "is_reserved": 0}, {"lon": -77.00580783333334, "bike_id": "71e1304a69b7923c545ff294fd6214e6", "lat": 38.829990333333335, "fusion_lon": 0.0, "fusion_lat": 0.0, "type": "electric_scooter", "name": "71e1304a69b7923c545ff294fd6214e6", "is_disabled": 0, "rental_uris": {"ios": "https://dc.lft.to/lastmile_qr_scan", "android": "https://dc.lft.to/lastmile_qr_scan"}, "is_reserved": 0}, {"lon": -77.0279895, "bike_id": "ebd8b693fdd8b5cd789c8005458d146e", "lat": 38.922866166666665, "fusion_lon": 0.0, "fusion_lat": 0.0, "type": "electric_scooter", "name": "ebd8b693fdd8b5cd789c8005458d146e", "is_disabled": 0, "rental_uris": {"ios": "https://dc.lft.to/lastmile_qr_scan", "android": "https://dc.lft.to/lastmile_qr_scan"}, "is_reserved": 0}, {"lon": -77.05566116666667, "bike_id": "e9f38f86e16cfd656b72d1573fdbb029", "lat": 38.930417, "fusion_lon": 0.0, "fusion_lat": 0.0, "type": "electric_scooter", "name": "e9f38f86e16cfd656b72d1573fdbb029", "is_disabled": 0, "rental_uris": {"ios": "https://dc.lft.to/lastmile_qr_scan", "android": "https://dc.lft.to/lastmile_qr_scan"}, "is_reserved": 0}, {"lon": -76.98082916666667, "bike_id": "f3c6f1891184f2dfd351625445327fcc", "lat": 38.87935083333333, "fusion_lon": 0.0, "fusion_lat": 0.0, "type": "electric_bike", "name": "f3c6f1891184f2dfd351625445327fcc", "is_disabled": 0, "rental_uris": {"ios": "https://dc.lft.to/lastmile_qr_scan", "android": "https://dc.lft.to/lastmile_qr_scan"}, "is_reserved": 0}, {"lon": -77.10525433333333, "bike_id": "b286904d893a37e64fa89b655944d74c", "lat": 38.87372233333333, "fusion_lon": 0.0, "fusion_lat": 0.0, "type": "electric_bike", "name": "b286904d893a37e64fa89b655944d74c", "is_disabled": 0, "rental_uris": {"ios": "https://dc.lft.to/lastmile_qr_scan", "android": "https://dc.lft.to/lastmile_qr_scan"}, "is_reserved": 0}, {"lon": -77.07819933333333, "bike_id": "2e741186c2dea2dd03db4fa7e89515bd", "lat": 38.92373883333333, "fusion_lon": 0.0, "fusion_lat": 0.0, "type": "electric_scooter", "name": "2e741186c2dea2dd03db4fa7e89515bd", "is_disabled": 0, "rental_uris": {"ios": "https://dc.lft.to/lastmile_qr_scan", "android": "https://dc.lft.to/lastmile_qr_scan"}, "is_reserved": 0}, {"lon": -77.03409833333333, "bike_id": "b773a1ea19959f01ec174b03fd98f2ec", "lat": 38.905392166666665, "fusion_lon": 0.0, "fusion_lat": 0.0, "type": "electric_scooter", "name": "b773a1ea19959f01ec174b03fd98f2ec", "is_disabled": 0, "rental_uris": {"ios": "https://dc.lft.to/lastmile_qr_scan", "android": "https://dc.lft.to/lastmile_qr_scan"}, "is_reserved": 0}, {"lon": -76.98800116666666, "bike_id": "2256937852ff31dffdacf666cb088e54", "lat": 38.89235333333333, "fusion_lon": 0.0, "fusion_lat": 0.0, "type": "electric_scooter", "name": "2256937852ff31dffdacf666cb088e54", "is_disabled": 0, "rental_uris": {"ios": "https://dc.lft.to/lastmile_qr_scan", "android": "https://dc.lft.to/lastmile_qr_scan"}, "is_reserved": 0}, {"lon": -77.02289583333334, "bike_id": "0734c5f6758b57b9f467a70e55348968", "lat": 38.93295716666667, "fusion_lon": 0.0, "fusion_lat": 0.0, "type": "electric_scooter", "name": "0734c5f6758b57b9f467a70e55348968", "is_disabled": 0, "rental_uris": {"ios": "https://dc.lft.to/lastmile_qr_scan", "android": "https://dc.lft.to/lastmile_qr_scan"}, "is_reserved": 0}, {"lon": -77.01890533333334, "bike_id": "1907c795547350c032f692b31b642835", "lat": 38.90614, "fusion_lon": 0.0, "fusion_lat": 0.0, "type": "electric_scooter", "name": "1907c795547350c032f692b31b642835", "is_disabled": 0, "rental_uris": {"ios": "https://dc.lft.to/lastmile_qr_scan", "android": "https://dc.lft.to/lastmile_qr_scan"}, "is_reserved": 0}, {"lon": -77.04110016666667, "bike_id": "068b60a5f83238b6a68199101af5cc59", "lat": 38.915509166666666, "fusion_lon": 0.0, "fusion_lat": 0.0, "type": "electric_scooter", "name": "068b60a5f83238b6a68199101af5cc59", "is_disabled": 0, "rental_uris": {"ios": "https://dc.lft.to/lastmile_qr_scan", "android": "https://dc.lft.to/lastmile_qr_scan"}, "is_reserved": 0}, {"lon": -77.023547, "bike_id": "6eea977bda87b8311255e05f42ddb03b", "lat": 38.89609766666667, "fusion_lon": 0.0, "fusion_lat": 0.0, "type": "electric_scooter", "name": "6eea977bda87b8311255e05f42ddb03b", "is_disabled": 0, "rental_uris": {"ios": "https://dc.lft.to/lastmile_qr_scan", "android": "https://dc.lft.to/lastmile_qr_scan"}, "is_reserved": 0}, {"lon": -77.03220766666666, "bike_id": "771bc15e30182e3989fa10918eaa1b19", "lat": 38.90726166666666, "fusion_lon": 0.0, "fusion_lat": 0.0, "type": "electric_scooter", "name": "771bc15e30182e3989fa10918eaa1b19", "is_disabled": 0, "rental_uris": {"ios": "https://dc.lft.to/lastmile_qr_scan", "android": "https://dc.lft.to/lastmile_qr_scan"}, "is_reserved": 0}, {"lon": -76.98307983333333, "bike_id": "40bb54b8a001ca1d57a4ea62daba0638", "lat": 38.89975866666666, "fusion_lon": 0.0, "fusion_lat": 0.0, "type": "electric_scooter", "name": "40bb54b8a001ca1d57a4ea62daba0638", "is_disabled": 0, "rental_uris": {"ios": "https://dc.lft.to/lastmile_qr_scan", "android": "https://dc.lft.to/lastmile_qr_scan"}, "is_reserved": 0}, {"lon": -76.99268733333334, "bike_id": "fa4a7b691d4ad5f71831bbbd608d1c88", "lat": 38.903886666666665, "fusion_lon": 0.0, "fusion_lat": 0.0, "type": "electric_scooter", "name": "fa4a7b691d4ad5f71831bbbd608d1c88", "is_disabled": 0, "rental_uris": {"ios": "https://dc.lft.to/lastmile_qr_scan", "android": "https://dc.lft.to/lastmile_qr_scan"}, "is_reserved": 0}, {"lon": -77.04341766666667, "bike_id": "7b9e648bd33f7e4efbebd278ce4a158d", "lat": 38.92964283333333, "fusion_lon": 0.0, "fusion_lat": 0.0, "type": "electric_scooter", "name": "7b9e648bd33f7e4efbebd278ce4a158d", "is_disabled": 0, "rental_uris": {"ios": "https://dc.lft.to/lastmile_qr_scan", "android": "https://dc.lft.to/lastmile_qr_scan"}, "is_reserved": 0}, {"lon": -77.02813866666666, "bike_id": "28e8874361c02e2e63e7096995540872", "lat": 38.9023475, "fusion_lon": 0.0, "fusion_lat": 0.0, "type": "electric_scooter", "name": "28e8874361c02e2e63e7096995540872", "is_disabled": 0, "rental_uris": {"ios": "https://dc.lft.to/lastmile_qr_scan", "android": "https://dc.lft.to/lastmile_qr_scan"}, "is_reserved": 0}, {"lon": -77.03187233333334, "bike_id": "4a0d0ee3758657a77468de360ee25699", "lat": 38.8873535, "fusion_lon": 0.0, "fusion_lat": 0.0, "type": "electric_scooter", "name": "4a0d0ee3758657a77468de360ee25699", "is_disabled": 0, "rental_uris": {"ios": "https://dc.lft.to/lastmile_qr_scan", "android": "https://dc.lft.to/lastmile_qr_scan"}, "is_reserved": 0}, {"lon": -76.98371183333333, "bike_id": "379f752d47adeef95cd4f13eb1da396d", "lat": 38.89977116666667, "fusion_lon": 0.0, "fusion_lat": 0.0, "type": "electric_scooter", "name": "379f752d47adeef95cd4f13eb1da396d", "is_disabled": 0, "rental_uris": {"ios": "https://dc.lft.to/lastmile_qr_scan", "android": "https://dc.lft.to/lastmile_qr_scan"}, "is_reserved": 0}, {"lon": -77.02289216666667, "bike_id": "a9b12bb54c5848c83a6a9fbc665f7191", "lat": 38.909763833333336, "fusion_lon": 0.0, "fusion_lat": 0.0, "type": "electric_scooter", "name": "a9b12bb54c5848c83a6a9fbc665f7191", "is_disabled": 0, "rental_uris": {"ios": "https://dc.lft.to/lastmile_qr_scan", "android": "https://dc.lft.to/lastmile_qr_scan"}, "is_reserved": 0}, {"lon": -77.07323516666666, "bike_id": "4e065f09121a495ae8d13ea59e254d6d", "lat": 38.925055666666665, "fusion_lon": 0.0, "fusion_lat": 0.0, "type": "electric_bike", "name": "4e065f09121a495ae8d13ea59e254d6d", "is_disabled": 0, "rental_uris": {"ios": "https://dc.lft.to/lastmile_qr_scan", "android": "https://dc.lft.to/lastmile_qr_scan"}, "is_reserved": 0}, {"lon": -77.06752983333334, "bike_id": "2cfb3a1d3550467c67e699e426371a3f", "lat": 38.90335183333333, "fusion_lon": 0.0, "fusion_lat": 0.0, "type": "electric_scooter", "name": "2cfb3a1d3550467c67e699e426371a3f", "is_disabled": 0, "rental_uris": {"ios": "https://dc.lft.to/lastmile_qr_scan", "android": "https://dc.lft.to/lastmile_qr_scan"}, "is_reserved": 0}, {"lon": -76.93360516666667, "bike_id": "be7de7d0ec73a2a4e0418da56540b31b", "lat": 38.899126833333334, "fusion_lon": 0.0, "fusion_lat": 0.0, "type": "electric_scooter", "name": "be7de7d0ec73a2a4e0418da56540b31b", "is_disabled": 0, "rental_uris": {"ios": "https://dc.lft.to/lastmile_qr_scan", "android": "https://dc.lft.to/lastmile_qr_scan"}, "is_reserved": 0}, {"lon": -77.0297975, "bike_id": "9847c8e05055ae672b35c8cbf5ff702d", "lat": 38.93280583333333, "fusion_lon": 0.0, "fusion_lat": 0.0, "type": "electric_scooter", "name": "9847c8e05055ae672b35c8cbf5ff702d", "is_disabled": 0, "rental_uris": {"ios": "https://dc.lft.to/lastmile_qr_scan", "android": "https://dc.lft.to/lastmile_qr_scan"}, "is_reserved": 0}, {"lon": -77.03663016666667, "bike_id": "c8ea95b01185f6bc5f07014bee5d3dc1", "lat": 38.92258833333333, "fusion_lon": 0.0, "fusion_lat": 0.0, "type": "electric_scooter", "name": "c8ea95b01185f6bc5f07014bee5d3dc1", "is_disabled": 0, "rental_uris": {"ios": "https://dc.lft.to/lastmile_qr_scan", "android": "https://dc.lft.to/lastmile_qr_scan"}, "is_reserved": 0}, {"lon": -77.0237765, "bike_id": "9711ead3f3adf62562883c5773343557", "lat": 38.90724566666667, "fusion_lon": 0.0, "fusion_lat": 0.0, "type": "electric_scooter", "name": "9711ead3f3adf62562883c5773343557", "is_disabled": 0, "rental_uris": {"ios": "https://dc.lft.to/lastmile_qr_scan", "android": "https://dc.lft.to/lastmile_qr_scan"}, "is_reserved": 0}, {"lon": -77.039444, "bike_id": "6bf128e0fc2cfdc543bf3200a803bb48", "lat": 38.930595333333336, "fusion_lon": 0.0, "fusion_lat": 0.0, "type": "electric_scooter", "name": "6bf128e0fc2cfdc543bf3200a803bb48", "is_disabled": 0, "rental_uris": {"ios": "https://dc.lft.to/lastmile_qr_scan", "android": "https://dc.lft.to/lastmile_qr_scan"}, "is_reserved": 0}, {"lon": -77.042154, "bike_id": "2ed9b39c4625e37cb1cb17cc4a0a8247", "lat": 38.9078895, "fusion_lon": 0.0, "fusion_lat": 0.0, "type": "electric_scooter", "name": "2ed9b39c4625e37cb1cb17cc4a0a8247", "is_disabled": 0, "rental_uris": {"ios": "https://dc.lft.to/lastmile_qr_scan", "android": "https://dc.lft.to/lastmile_qr_scan"}, "is_reserved": 0}, {"lon": -77.02979, "bike_id": "47948e949e97fdf11dc3df831b62b97c", "lat": 38.90491083333333, "fusion_lon": 0.0, "fusion_lat": 0.0, "type": "electric_scooter", "name": "47948e949e97fdf11dc3df831b62b97c", "is_disabled": 0, "rental_uris": {"ios": "https://dc.lft.to/lastmile_qr_scan", "android": "https://dc.lft.to/lastmile_qr_scan"}, "is_reserved": 0}, {"lon": -77.04418483333333, "bike_id": "a33bb8a0bd6db784c04defb43596f190", "lat": 38.921095666666666, "fusion_lon": 0.0, "fusion_lat": 0.0, "type": "electric_scooter", "name": "a33bb8a0bd6db784c04defb43596f190", "is_disabled": 0, "rental_uris": {"ios": "https://dc.lft.to/lastmile_qr_scan", "android": "https://dc.lft.to/lastmile_qr_scan"}, "is_reserved": 0}, {"lon": -76.895389, "bike_id": "4be3296657285fb8205dda9b03ac0c92", "lat": 38.945523, "fusion_lon": 0.0, "fusion_lat": 0.0, "type": "electric_bike", "name": "4be3296657285fb8205dda9b03ac0c92", "is_disabled": 0, "rental_uris": {"ios": "https://dc.lft.to/lastmile_qr_scan", "android": "https://dc.lft.to/lastmile_qr_scan"}, "is_reserved": 0}, {"lon": -77.071172, "bike_id": "30049196049c09834ce114e680a49cc5", "lat": 38.9196655, "fusion_lon": 0.0, "fusion_lat": 0.0, "type": "electric_scooter", "name": "30049196049c09834ce114e680a49cc5", "is_disabled": 0, "rental_uris": {"ios": "https://dc.lft.to/lastmile_qr_scan", "android": "https://dc.lft.to/lastmile_qr_scan"}, "is_reserved": 0}, {"lon": -77.03454733333334, "bike_id": "ba44e965eaf6f2bbfa209eec3fbeb490", "lat": 38.919867833333335, "fusion_lon": 0.0, "fusion_lat": 0.0, "type": "electric_scooter", "name": "ba44e965eaf6f2bbfa209eec3fbeb490", "is_disabled": 0, "rental_uris": {"ios": "https://dc.lft.to/lastmile_qr_scan", "android": "https://dc.lft.to/lastmile_qr_scan"}, "is_reserved": 0}, {"lon": -77.040119, "bike_id": "b3585381cf26b9edab4c8cdc84492ac5", "lat": 38.90998883333334, "fusion_lon": 0.0, "fusion_lat": 0.0, "type": "electric_scooter", "name": "b3585381cf26b9edab4c8cdc84492ac5", "is_disabled": 0, "rental_uris": {"ios": "https://dc.lft.to/lastmile_qr_scan", "android": "https://dc.lft.to/lastmile_qr_scan"}, "is_reserved": 0}, {"lon": -77.025689, "bike_id": "736e27185e4fefebdea8f413087b17d5", "lat": 38.91480116666666, "fusion_lon": 0.0, "fusion_lat": 0.0, "type": "electric_scooter", "name": "736e27185e4fefebdea8f413087b17d5", "is_disabled": 0, "rental_uris": {"ios": "https://dc.lft.to/lastmile_qr_scan", "android": "https://dc.lft.to/lastmile_qr_scan"}, "is_reserved": 0}, {"lon": -77.02215133333333, "bike_id": "3dcd18cbe94bab850a671329be1c6e65", "lat": 38.90573333333333, "fusion_lon": 0.0, "fusion_lat": 0.0, "type": "electric_scooter", "name": "3dcd18cbe94bab850a671329be1c6e65", "is_disabled": 0, "rental_uris": {"ios": "https://dc.lft.to/lastmile_qr_scan", "android": "https://dc.lft.to/lastmile_qr_scan"}, "is_reserved": 0}, {"lon": -77.036217, "bike_id": "c9775b0789acad28b1918f5dc5b307b9", "lat": 38.93161466666667, "fusion_lon": 0.0, "fusion_lat": 0.0, "type": "electric_scooter", "name": "c9775b0789acad28b1918f5dc5b307b9", "is_disabled": 0, "rental_uris": {"ios": "https://dc.lft.to/lastmile_qr_scan", "android": "https://dc.lft.to/lastmile_qr_scan"}, "is_reserved": 0}, {"lon": -77.00266283333333, "bike_id": "5b3ba37e5a350e100bbb4d08af7685d6", "lat": 38.9520605, "fusion_lon": 0.0, "fusion_lat": 0.0, "type": "electric_bike", "name": "5b3ba37e5a350e100bbb4d08af7685d6", "is_disabled": 0, "rental_uris": {"ios": "https://dc.lft.to/lastmile_qr_scan", "android": "https://dc.lft.to/lastmile_qr_scan"}, "is_reserved": 0}, {"lon": -76.99182116666667, "bike_id": "4fd19ff3a40eac4861c62945dc2f3e2b", "lat": 38.905099666666665, "fusion_lon": 0.0, "fusion_lat": 0.0, "type": "electric_scooter", "name": "4fd19ff3a40eac4861c62945dc2f3e2b", "is_disabled": 0, "rental_uris": {"ios": "https://dc.lft.to/lastmile_qr_scan", "android": "https://dc.lft.to/lastmile_qr_scan"}, "is_reserved": 0}, {"lon": -76.97811, "bike_id": "cf20d88237ad03b4b8c4a62877fe1f5a", "lat": 38.90672466666667, "fusion_lon": 0.0, "fusion_lat": 0.0, "type": "electric_scooter", "name": "cf20d88237ad03b4b8c4a62877fe1f5a", "is_disabled": 0, "rental_uris": {"ios": "https://dc.lft.to/lastmile_qr_scan", "android": "https://dc.lft.to/lastmile_qr_scan"}, "is_reserved": 0}, {"lon": -77.01452566666667, "bike_id": "78178b443f63bbe1fe93f896a7b0b88e", "lat": 38.917724, "fusion_lon": 0.0, "fusion_lat": 0.0, "type": "electric_scooter", "name": "78178b443f63bbe1fe93f896a7b0b88e", "is_disabled": 0, "rental_uris": {"ios": "https://dc.lft.to/lastmile_qr_scan", "android": "https://dc.lft.to/lastmile_qr_scan"}, "is_reserved": 0}, {"lon": -77.1084175, "bike_id": "32c4f3ce28b8a68141e660a9b04171ea", "lat": 38.81200483333333, "fusion_lon": 0.0, "fusion_lat": 0.0, "type": "electric_bike", "name": "32c4f3ce28b8a68141e660a9b04171ea", "is_disabled": 0, "rental_uris": {"ios": "https://dc.lft.to/lastmile_qr_scan", "android": "https://dc.lft.to/lastmile_qr_scan"}, "is_reserved": 0}, {"lon": -77.02947566666667, "bike_id": "c8c3e37418986cd72e95e62bbce3899d", "lat": 38.896569666666664, "fusion_lon": 0.0, "fusion_lat": 0.0, "type": "electric_scooter", "name": "c8c3e37418986cd72e95e62bbce3899d", "is_disabled": 0, "rental_uris": {"ios": "https://dc.lft.to/lastmile_qr_scan", "android": "https://dc.lft.to/lastmile_qr_scan"}, "is_reserved": 0}, {"lon": -77.03579116666667, "bike_id": "eb3254ff08287c68c287ef2140b849e4", "lat": 38.9347575, "fusion_lon": 0.0, "fusion_lat": 0.0, "type": "electric_scooter", "name": "eb3254ff08287c68c287ef2140b849e4", "is_disabled": 0, "rental_uris": {"ios": "https://dc.lft.to/lastmile_qr_scan", "android": "https://dc.lft.to/lastmile_qr_scan"}, "is_reserved": 0}, {"lon": -77.014644, "bike_id": "b7456266a2b42a11a5a62f6fe8739ce7", "lat": 38.914736833333336, "fusion_lon": 0.0, "fusion_lat": 0.0, "type": "electric_scooter", "name": "b7456266a2b42a11a5a62f6fe8739ce7", "is_disabled": 0, "rental_uris": {"ios": "https://dc.lft.to/lastmile_qr_scan", "android": "https://dc.lft.to/lastmile_qr_scan"}, "is_reserved": 0}, {"lon": -77.03296466666667, "bike_id": "173281c954145ba3019c4198e53bd436", "lat": 38.956510333333334, "fusion_lon": 0.0, "fusion_lat": 0.0, "type": "electric_scooter", "name": "173281c954145ba3019c4198e53bd436", "is_disabled": 0, "rental_uris": {"ios": "https://dc.lft.to/lastmile_qr_scan", "android": "https://dc.lft.to/lastmile_qr_scan"}, "is_reserved": 0}, {"lon": -77.0328575, "bike_id": "3bd57c6254795814f3e53160c07fa0ea", "lat": 38.9293095, "fusion_lon": 0.0, "fusion_lat": 0.0, "type": "electric_scooter", "name": "3bd57c6254795814f3e53160c07fa0ea", "is_disabled": 0, "rental_uris": {"ios": "https://dc.lft.to/lastmile_qr_scan", "android": "https://dc.lft.to/lastmile_qr_scan"}, "is_reserved": 0}, {"lon": -77.11782716666667, "bike_id": "8b365f409d006d16cdca7b5d80d3b189", "lat": 39.054922, "fusion_lon": 0.0, "fusion_lat": 0.0, "type": "electric_bike", "name": "8b365f409d006d16cdca7b5d80d3b189", "is_disabled": 0, "rental_uris": {"ios": "https://dc.lft.to/lastmile_qr_scan", "android": "https://dc.lft.to/lastmile_qr_scan"}, "is_reserved": 0}, {"lon": -76.990538, "bike_id": "fcf8bc87a6bb9e19060f58899d786a67", "lat": 38.8637675, "fusion_lon": 0.0, "fusion_lat": 0.0, "type": "electric_scooter", "name": "fcf8bc87a6bb9e19060f58899d786a67", "is_disabled": 0, "rental_uris": {"ios": "https://dc.lft.to/lastmile_qr_scan", "android": "https://dc.lft.to/lastmile_qr_scan"}, "is_reserved": 0}, {"lon": -77.05604933333333, "bike_id": "24e4e6b1bb007a40d6ae68fae80c6ec5", "lat": 38.937057333333335, "fusion_lon": 0.0, "fusion_lat": 0.0, "type": "electric_bike", "name": "24e4e6b1bb007a40d6ae68fae80c6ec5", "is_disabled": 0, "rental_uris": {"ios": "https://dc.lft.to/lastmile_qr_scan", "android": "https://dc.lft.to/lastmile_qr_scan"}, "is_reserved": 0}, {"lon": -77.02630633333334, "bike_id": "57b510e50bc77929ba0ab3c2a5ed6e2e", "lat": 38.938624, "fusion_lon": 0.0, "fusion_lat": 0.0, "type": "electric_scooter", "name": "57b510e50bc77929ba0ab3c2a5ed6e2e", "is_disabled": 0, "rental_uris": {"ios": "https://dc.lft.to/lastmile_qr_scan", "android": "https://dc.lft.to/lastmile_qr_scan"}, "is_reserved": 0}, {"lon": -77.03178233333334, "bike_id": "c1db7776ba59ee191a8b6b5de96ff4b0", "lat": 38.8995765, "fusion_lon": 0.0, "fusion_lat": 0.0, "type": "electric_scooter", "name": "c1db7776ba59ee191a8b6b5de96ff4b0", "is_disabled": 0, "rental_uris": {"ios": "https://dc.lft.to/lastmile_qr_scan", "android": "https://dc.lft.to/lastmile_qr_scan"}, "is_reserved": 0}, {"lon": -77.04480966666667, "bike_id": "d34dde5e14473bfc966639a9f2e657ce", "lat": 38.924267666666665, "fusion_lon": 0.0, "fusion_lat": 0.0, "type": "electric_scooter", "name": "d34dde5e14473bfc966639a9f2e657ce", "is_disabled": 0, "rental_uris": {"ios": "https://dc.lft.to/lastmile_qr_scan", "android": "https://dc.lft.to/lastmile_qr_scan"}, "is_reserved": 0}, {"lon": -77.05201866666667, "bike_id": "87a2800e9d59daffd005b100fb692015", "lat": 38.899534333333335, "fusion_lon": 0.0, "fusion_lat": 0.0, "type": "electric_scooter", "name": "87a2800e9d59daffd005b100fb692015", "is_disabled": 0, "rental_uris": {"ios": "https://dc.lft.to/lastmile_qr_scan", "android": "https://dc.lft.to/lastmile_qr_scan"}, "is_reserved": 0}, {"lon": -77.0324105, "bike_id": "0ccd1034a26434f7d0b293f1222f3d25", "lat": 38.91483616666667, "fusion_lon": 0.0, "fusion_lat": 0.0, "type": "electric_scooter", "name": "0ccd1034a26434f7d0b293f1222f3d25", "is_disabled": 0, "rental_uris": {"ios": "https://dc.lft.to/lastmile_qr_scan", "android": "https://dc.lft.to/lastmile_qr_scan"}, "is_reserved": 0}, {"lon": -77.00199633333334, "bike_id": "6d0226d81b106589bc47e95d679c8ba8", "lat": 38.902362833333335, "fusion_lon": 0.0, "fusion_lat": 0.0, "type": "electric_scooter", "name": "6d0226d81b106589bc47e95d679c8ba8", "is_disabled": 0, "rental_uris": {"ios": "https://dc.lft.to/lastmile_qr_scan", "android": "https://dc.lft.to/lastmile_qr_scan"}, "is_reserved": 0}, {"lon": -77.02746716666667, "bike_id": "a594d5b14354638e131f020672233617", "lat": 38.941766666666666, "fusion_lon": 0.0, "fusion_lat": 0.0, "type": "electric_scooter", "name": "a594d5b14354638e131f020672233617", "is_disabled": 0, "rental_uris": {"ios": "https://dc.lft.to/lastmile_qr_scan", "android": "https://dc.lft.to/lastmile_qr_scan"}, "is_reserved": 0}, {"lon": -77.008097, "bike_id": "bf8a0694a9a6c2356c2f52a7e9f0273e", "lat": 38.905669333333336, "fusion_lon": 0.0, "fusion_lat": 0.0, "type": "electric_scooter", "name": "bf8a0694a9a6c2356c2f52a7e9f0273e", "is_disabled": 0, "rental_uris": {"ios": "https://dc.lft.to/lastmile_qr_scan", "android": "https://dc.lft.to/lastmile_qr_scan"}, "is_reserved": 0}, {"lon": -77.02626366666667, "bike_id": "bb51d4339447b01880873ae01f775731", "lat": 38.91712733333333, "fusion_lon": 0.0, "fusion_lat": 0.0, "type": "electric_scooter", "name": "bb51d4339447b01880873ae01f775731", "is_disabled": 0, "rental_uris": {"ios": "https://dc.lft.to/lastmile_qr_scan", "android": "https://dc.lft.to/lastmile_qr_scan"}, "is_reserved": 0}, {"lon": -77.02877333333333, "bike_id": "5754a535511740fcf1c87f87b4b6a631", "lat": 38.898504, "fusion_lon": 0.0, "fusion_lat": 0.0, "type": "electric_scooter", "name": "5754a535511740fcf1c87f87b4b6a631", "is_disabled": 0, "rental_uris": {"ios": "https://dc.lft.to/lastmile_qr_scan", "android": "https://dc.lft.to/lastmile_qr_scan"}, "is_reserved": 0}, {"lon": -77.03422183333333, "bike_id": "bfbf08f867346851aab977eb2e0e40b5", "lat": 38.902713, "fusion_lon": 0.0, "fusion_lat": 0.0, "type": "electric_scooter", "name": "bfbf08f867346851aab977eb2e0e40b5", "is_disabled": 0, "rental_uris": {"ios": "https://dc.lft.to/lastmile_qr_scan", "android": "https://dc.lft.to/lastmile_qr_scan"}, "is_reserved": 0}, {"lon": -77.0386435, "bike_id": "6d21ae122d6e93bd637bf0c51fe7ca5a", "lat": 38.945009666666664, "fusion_lon": 0.0, "fusion_lat": 0.0, "type": "electric_scooter", "name": "6d21ae122d6e93bd637bf0c51fe7ca5a", "is_disabled": 0, "rental_uris": {"ios": "https://dc.lft.to/lastmile_qr_scan", "android": "https://dc.lft.to/lastmile_qr_scan"}, "is_reserved": 0}, {"lon": -76.93533983333333, "bike_id": "7b487e3023777e8aaa30ab3bb2bc7fa1", "lat": 38.89680933333333, "fusion_lon": 0.0, "fusion_lat": 0.0, "type": "electric_scooter", "name": "7b487e3023777e8aaa30ab3bb2bc7fa1", "is_disabled": 0, "rental_uris": {"ios": "https://dc.lft.to/lastmile_qr_scan", "android": "https://dc.lft.to/lastmile_qr_scan"}, "is_reserved": 0}, {"lon": -76.9810045, "bike_id": "8e924df7b8bf5ebc2849ecb4eccc6dc1", "lat": 38.895463666666664, "fusion_lon": 0.0, "fusion_lat": 0.0, "type": "electric_scooter", "name": "8e924df7b8bf5ebc2849ecb4eccc6dc1", "is_disabled": 0, "rental_uris": {"ios": "https://dc.lft.to/lastmile_qr_scan", "android": "https://dc.lft.to/lastmile_qr_scan"}, "is_reserved": 0}, {"lon": -77.027144, "bike_id": "c2d1e3ebb0ebc9d22e8953d6b2417f0b", "lat": 38.92463933333333, "fusion_lon": 0.0, "fusion_lat": 0.0, "type": "electric_scooter", "name": "c2d1e3ebb0ebc9d22e8953d6b2417f0b", "is_disabled": 0, "rental_uris": {"ios": "https://dc.lft.to/lastmile_qr_scan", "android": "https://dc.lft.to/lastmile_qr_scan"}, "is_reserved": 0}, {"lon": -76.96153166666667, "bike_id": "7e894563b6ab04db8ad1d069a2ff11d3", "lat": 38.883559166666664, "fusion_lon": 0.0, "fusion_lat": 0.0, "type": "electric_scooter", "name": "7e894563b6ab04db8ad1d069a2ff11d3", "is_disabled": 0, "rental_uris": {"ios": "https://dc.lft.to/lastmile_qr_scan", "android": "https://dc.lft.to/lastmile_qr_scan"}, "is_reserved": 0}, {"lon": -76.9678675, "bike_id": "de224a80631995d94ed33f6561287c45", "lat": 38.868483, "fusion_lon": 0.0, "fusion_lat": 0.0, "type": "electric_scooter", "name": "de224a80631995d94ed33f6561287c45", "is_disabled": 0, "rental_uris": {"ios": "https://dc.lft.to/lastmile_qr_scan", "android": "https://dc.lft.to/lastmile_qr_scan"}, "is_reserved": 0}, {"lon": -76.990499, "bike_id": "2f8ab20958550385be68e0a80bd88659", "lat": 38.8875455, "fusion_lon": 0.0, "fusion_lat": 0.0, "type": "electric_scooter", "name": "2f8ab20958550385be68e0a80bd88659", "is_disabled": 0, "rental_uris": {"ios": "https://dc.lft.to/lastmile_qr_scan", "android": "https://dc.lft.to/lastmile_qr_scan"}, "is_reserved": 0}, {"lon": -77.03610316666666, "bike_id": "ff6a1c61c9a2150383639afdb48fc2ac", "lat": 38.93152966666667, "fusion_lon": 0.0, "fusion_lat": 0.0, "type": "electric_scooter", "name": "ff6a1c61c9a2150383639afdb48fc2ac", "is_disabled": 0, "rental_uris": {"ios": "https://dc.lft.to/lastmile_qr_scan", "android": "https://dc.lft.to/lastmile_qr_scan"}, "is_reserved": 0}, {"lon": -77.02346983333334, "bike_id": "512d9d79a6aab657f4e3988e459c6497", "lat": 38.922488666666666, "fusion_lon": 0.0, "fusion_lat": 0.0, "type": "electric_scooter", "name": "512d9d79a6aab657f4e3988e459c6497", "is_disabled": 0, "rental_uris": {"ios": "https://dc.lft.to/lastmile_qr_scan", "android": "https://dc.lft.to/lastmile_qr_scan"}, "is_reserved": 0}, {"lon": -76.986985, "bike_id": "8dce744817427cc17a1e2039423c6a54", "lat": 38.912188, "fusion_lon": 0.0, "fusion_lat": 0.0, "type": "electric_scooter", "name": "8dce744817427cc17a1e2039423c6a54", "is_disabled": 0, "rental_uris": {"ios": "https://dc.lft.to/lastmile_qr_scan", "android": "https://dc.lft.to/lastmile_qr_scan"}, "is_reserved": 0}, {"lon": -77.00495083333334, "bike_id": "4237f298379dfcc85275ab9332175730", "lat": 38.9057495, "fusion_lon": 0.0, "fusion_lat": 0.0, "type": "electric_scooter", "name": "4237f298379dfcc85275ab9332175730", "is_disabled": 0, "rental_uris": {"ios": "https://dc.lft.to/lastmile_qr_scan", "android": "https://dc.lft.to/lastmile_qr_scan"}, "is_reserved": 0}, {"lon": -77.01497066666667, "bike_id": "59ef218760ed52675369033b84f04409", "lat": 38.9001035, "fusion_lon": 0.0, "fusion_lat": 0.0, "type": "electric_scooter", "name": "59ef218760ed52675369033b84f04409", "is_disabled": 0, "rental_uris": {"ios": "https://dc.lft.to/lastmile_qr_scan", "android": "https://dc.lft.to/lastmile_qr_scan"}, "is_reserved": 0}, {"lon": -76.995254, "bike_id": "44938b8ad1e1a2183f0af21ce13174f9", "lat": 38.89172883333333, "fusion_lon": 0.0, "fusion_lat": 0.0, "type": "electric_scooter", "name": "44938b8ad1e1a2183f0af21ce13174f9", "is_disabled": 0, "rental_uris": {"ios": "https://dc.lft.to/lastmile_qr_scan", "android": "https://dc.lft.to/lastmile_qr_scan"}, "is_reserved": 0}, {"lon": -77.026226, "bike_id": "819ae526bb4440e8e3032ac5b99ba422", "lat": 38.91707383333333, "fusion_lon": 0.0, "fusion_lat": 0.0, "type": "electric_scooter", "name": "819ae526bb4440e8e3032ac5b99ba422", "is_disabled": 0, "rental_uris": {"ios": "https://dc.lft.to/lastmile_qr_scan", "android": "https://dc.lft.to/lastmile_qr_scan"}, "is_reserved": 0}, {"lon": -77.03444866666666, "bike_id": "0e94e31ceae95bb893130ca3e6be986a", "lat": 38.93427366666667, "fusion_lon": 0.0, "fusion_lat": 0.0, "type": "electric_scooter", "name": "0e94e31ceae95bb893130ca3e6be986a", "is_disabled": 0, "rental_uris": {"ios": "https://dc.lft.to/lastmile_qr_scan", "android": "https://dc.lft.to/lastmile_qr_scan"}, "is_reserved": 0}, {"lon": -77.02046583333333, "bike_id": "d6f4f9c7384fbf2c26be514051946e85", "lat": 38.92331433333333, "fusion_lon": 0.0, "fusion_lat": 0.0, "type": "electric_scooter", "name": "d6f4f9c7384fbf2c26be514051946e85", "is_disabled": 0, "rental_uris": {"ios": "https://dc.lft.to/lastmile_qr_scan", "android": "https://dc.lft.to/lastmile_qr_scan"}, "is_reserved": 0}, {"lon": -77.03174233333333, "bike_id": "1fd438b979be2b79ccfa6ebccaf11f1a", "lat": 38.91414183333333, "fusion_lon": 0.0, "fusion_lat": 0.0, "type": "electric_scooter", "name": "1fd438b979be2b79ccfa6ebccaf11f1a", "is_disabled": 0, "rental_uris": {"ios": "https://dc.lft.to/lastmile_qr_scan", "android": "https://dc.lft.to/lastmile_qr_scan"}, "is_reserved": 0}, {"lon": -77.046556, "bike_id": "7fbc5bbc8101e81753ec6bcab4ef807f", "lat": 38.913658166666664, "fusion_lon": 0.0, "fusion_lat": 0.0, "type": "electric_scooter", "name": "7fbc5bbc8101e81753ec6bcab4ef807f", "is_disabled": 0, "rental_uris": {"ios": "https://dc.lft.to/lastmile_qr_scan", "android": "https://dc.lft.to/lastmile_qr_scan"}, "is_reserved": 0}, {"lon": -77.03274233333333, "bike_id": "801591b4ac625dfb13f06ef1437cc603", "lat": 38.94089533333333, "fusion_lon": 0.0, "fusion_lat": 0.0, "type": "electric_scooter", "name": "801591b4ac625dfb13f06ef1437cc603", "is_disabled": 0, "rental_uris": {"ios": "https://dc.lft.to/lastmile_qr_scan", "android": "https://dc.lft.to/lastmile_qr_scan"}, "is_reserved": 0}, {"lon": -77.03752316666667, "bike_id": "1dd72461e151f359b624343f7fa61cd4", "lat": 38.928955333333334, "fusion_lon": 0.0, "fusion_lat": 0.0, "type": "electric_scooter", "name": "1dd72461e151f359b624343f7fa61cd4", "is_disabled": 0, "rental_uris": {"ios": "https://dc.lft.to/lastmile_qr_scan", "android": "https://dc.lft.to/lastmile_qr_scan"}, "is_reserved": 0}, {"lon": -77.02498233333333, "bike_id": "4d76894447fdabe3f5841daed81ce380", "lat": 38.92591633333333, "fusion_lon": 0.0, "fusion_lat": 0.0, "type": "electric_scooter", "name": "4d76894447fdabe3f5841daed81ce380", "is_disabled": 0, "rental_uris": {"ios": "https://dc.lft.to/lastmile_qr_scan", "android": "https://dc.lft.to/lastmile_qr_scan"}, "is_reserved": 0}, {"lon": -76.996139, "bike_id": "19d5058e33580e2db8b46db96ba8512c", "lat": 38.930829833333334, "fusion_lon": 0.0, "fusion_lat": 0.0, "type": "electric_scooter", "name": "19d5058e33580e2db8b46db96ba8512c", "is_disabled": 0, "rental_uris": {"ios": "https://dc.lft.to/lastmile_qr_scan", "android": "https://dc.lft.to/lastmile_qr_scan"}, "is_reserved": 0}, {"lon": -77.16625283333333, "bike_id": "fb9c7ee07714ee890dbfabb7dce97db5", "lat": 38.888381833333334, "fusion_lon": 0.0, "fusion_lat": 0.0, "type": "electric_bike", "name": "fb9c7ee07714ee890dbfabb7dce97db5", "is_disabled": 0, "rental_uris": {"ios": "https://dc.lft.to/lastmile_qr_scan", "android": "https://dc.lft.to/lastmile_qr_scan"}, "is_reserved": 0}, {"lon": -77.0465905, "bike_id": "c78d8fdfb7d654b316c4b25519291b25", "lat": 38.90780766666666, "fusion_lon": 0.0, "fusion_lat": 0.0, "type": "electric_scooter", "name": "c78d8fdfb7d654b316c4b25519291b25", "is_disabled": 0, "rental_uris": {"ios": "https://dc.lft.to/lastmile_qr_scan", "android": "https://dc.lft.to/lastmile_qr_scan"}, "is_reserved": 0}, {"lon": -76.98667583333334, "bike_id": "036939f1b9c9dc76bd50fe34b20ed64e", "lat": 38.867344, "fusion_lon": 0.0, "fusion_lat": 0.0, "type": "electric_scooter", "name": "036939f1b9c9dc76bd50fe34b20ed64e", "is_disabled": 0, "rental_uris": {"ios": "https://dc.lft.to/lastmile_qr_scan", "android": "https://dc.lft.to/lastmile_qr_scan"}, "is_reserved": 0}, {"lon": -77.03869266666666, "bike_id": "8ca7998419013e960cf0e4aec3ec78dc", "lat": 38.9080865, "fusion_lon": 0.0, "fusion_lat": 0.0, "type": "electric_scooter", "name": "8ca7998419013e960cf0e4aec3ec78dc", "is_disabled": 0, "rental_uris": {"ios": "https://dc.lft.to/lastmile_qr_scan", "android": "https://dc.lft.to/lastmile_qr_scan"}, "is_reserved": 0}, {"lon": -77.03183716666666, "bike_id": "6edf719392aa4cbea5a7a0c5ea9663f5", "lat": 38.91821066666667, "fusion_lon": 0.0, "fusion_lat": 0.0, "type": "electric_scooter", "name": "6edf719392aa4cbea5a7a0c5ea9663f5", "is_disabled": 0, "rental_uris": {"ios": "https://dc.lft.to/lastmile_qr_scan", "android": "https://dc.lft.to/lastmile_qr_scan"}, "is_reserved": 0}, {"lon": -77.02195933333333, "bike_id": "205233a38dfc282cc918d285c102db6f", "lat": 38.90938083333333, "fusion_lon": 0.0, "fusion_lat": 0.0, "type": "electric_scooter", "name": "205233a38dfc282cc918d285c102db6f", "is_disabled": 0, "rental_uris": {"ios": "https://dc.lft.to/lastmile_qr_scan", "android": "https://dc.lft.to/lastmile_qr_scan"}, "is_reserved": 0}, {"lon": -77.04670666666667, "bike_id": "42de1c224bdab8f8bd8a4caab7be15e2", "lat": 38.9054425, "fusion_lon": 0.0, "fusion_lat": 0.0, "type": "electric_scooter", "name": "42de1c224bdab8f8bd8a4caab7be15e2", "is_disabled": 0, "rental_uris": {"ios": "https://dc.lft.to/lastmile_qr_scan", "android": "https://dc.lft.to/lastmile_qr_scan"}, "is_reserved": 0}, {"lon": -77.03790966666666, "bike_id": "1174795504b6f44f0fb7bc621cf49c41", "lat": 38.9360395, "fusion_lon": 0.0, "fusion_lat": 0.0, "type": "electric_scooter", "name": "1174795504b6f44f0fb7bc621cf49c41", "is_disabled": 0, "rental_uris": {"ios": "https://dc.lft.to/lastmile_qr_scan", "android": "https://dc.lft.to/lastmile_qr_scan"}, "is_reserved": 0}, {"lon": -77.03668066666667, "bike_id": "3d84c16084e38743ab98e23288d3524a", "lat": 38.91812383333333, "fusion_lon": 0.0, "fusion_lat": 0.0, "type": "electric_scooter", "name": "3d84c16084e38743ab98e23288d3524a", "is_disabled": 0, "rental_uris": {"ios": "https://dc.lft.to/lastmile_qr_scan", "android": "https://dc.lft.to/lastmile_qr_scan"}, "is_reserved": 0}, {"lon": -77.02405333333333, "bike_id": "e8b7831a51a29f9d992a6fb8a0d18511", "lat": 38.8828625, "fusion_lon": 0.0, "fusion_lat": 0.0, "type": "electric_scooter", "name": "e8b7831a51a29f9d992a6fb8a0d18511", "is_disabled": 0, "rental_uris": {"ios": "https://dc.lft.to/lastmile_qr_scan", "android": "https://dc.lft.to/lastmile_qr_scan"}, "is_reserved": 0}, {"lon": -77.03663916666666, "bike_id": "ad5f1ed5f8586edd165142269bcabac2", "lat": 38.90834133333333, "fusion_lon": 0.0, "fusion_lat": 0.0, "type": "electric_scooter", "name": "ad5f1ed5f8586edd165142269bcabac2", "is_disabled": 0, "rental_uris": {"ios": "https://dc.lft.to/lastmile_qr_scan", "android": "https://dc.lft.to/lastmile_qr_scan"}, "is_reserved": 0}, {"lon": -77.01039316666666, "bike_id": "c96cccd66e15fbfa652185d3d1187145", "lat": 38.92119733333333, "fusion_lon": 0.0, "fusion_lat": 0.0, "type": "electric_scooter", "name": "c96cccd66e15fbfa652185d3d1187145", "is_disabled": 0, "rental_uris": {"ios": "https://dc.lft.to/lastmile_qr_scan", "android": "https://dc.lft.to/lastmile_qr_scan"}, "is_reserved": 0}, {"lon": -76.96602683333333, "bike_id": "c4b3f50f900d43fdefb039c0e9e396da", "lat": 38.871089, "fusion_lon": 0.0, "fusion_lat": 0.0, "type": "electric_scooter", "name": "c4b3f50f900d43fdefb039c0e9e396da", "is_disabled": 0, "rental_uris": {"ios": "https://dc.lft.to/lastmile_qr_scan", "android": "https://dc.lft.to/lastmile_qr_scan"}, "is_reserved": 0}, {"lon": -77.02172066666667, "bike_id": "4e9bc37433b4ce34f829c82e4844477e", "lat": 38.89741033333333, "fusion_lon": 0.0, "fusion_lat": 0.0, "type": "electric_scooter", "name": "4e9bc37433b4ce34f829c82e4844477e", "is_disabled": 0, "rental_uris": {"ios": "https://dc.lft.to/lastmile_qr_scan", "android": "https://dc.lft.to/lastmile_qr_scan"}, "is_reserved": 0}, {"lon": -77.03217466666666, "bike_id": "813bda4e4cd9313fbd79ae6d327f9bc0", "lat": 38.90726866666667, "fusion_lon": 0.0, "fusion_lat": 0.0, "type": "electric_scooter", "name": "813bda4e4cd9313fbd79ae6d327f9bc0", "is_disabled": 0, "rental_uris": {"ios": "https://dc.lft.to/lastmile_qr_scan", "android": "https://dc.lft.to/lastmile_qr_scan"}, "is_reserved": 0}, {"lon": -77.04224133333334, "bike_id": "ccfbffd83dc75449ac29e97d307dbc76", "lat": 38.90757683333333, "fusion_lon": 0.0, "fusion_lat": 0.0, "type": "electric_scooter", "name": "ccfbffd83dc75449ac29e97d307dbc76", "is_disabled": 0, "rental_uris": {"ios": "https://dc.lft.to/lastmile_qr_scan", "android": "https://dc.lft.to/lastmile_qr_scan"}, "is_reserved": 0}, {"lon": -77.03138516666667, "bike_id": "a88de361c850a9ad0cbd936ae3471fa5", "lat": 38.9156415, "fusion_lon": 0.0, "fusion_lat": 0.0, "type": "electric_scooter", "name": "a88de361c850a9ad0cbd936ae3471fa5", "is_disabled": 0, "rental_uris": {"ios": "https://dc.lft.to/lastmile_qr_scan", "android": "https://dc.lft.to/lastmile_qr_scan"}, "is_reserved": 0}, {"lon": -77.04994866666667, "bike_id": "b8af3b2ef7ac4fae2fb136f270a81a78", "lat": 38.900168, "fusion_lon": 0.0, "fusion_lat": 0.0, "type": "electric_scooter", "name": "b8af3b2ef7ac4fae2fb136f270a81a78", "is_disabled": 0, "rental_uris": {"ios": "https://dc.lft.to/lastmile_qr_scan", "android": "https://dc.lft.to/lastmile_qr_scan"}, "is_reserved": 0}, {"lon": -77.00129583333333, "bike_id": "af05d35bdb7d1b944b9f1f85c67d8337", "lat": 38.8852405, "fusion_lon": 0.0, "fusion_lat": 0.0, "type": "electric_scooter", "name": "af05d35bdb7d1b944b9f1f85c67d8337", "is_disabled": 0, "rental_uris": {"ios": "https://dc.lft.to/lastmile_qr_scan", "android": "https://dc.lft.to/lastmile_qr_scan"}, "is_reserved": 0}, {"lon": -76.9777535, "bike_id": "970fc6b32c87923519b09f2b06fde6b6", "lat": 38.89896916666667, "fusion_lon": 0.0, "fusion_lat": 0.0, "type": "electric_scooter", "name": "970fc6b32c87923519b09f2b06fde6b6", "is_disabled": 0, "rental_uris": {"ios": "https://dc.lft.to/lastmile_qr_scan", "android": "https://dc.lft.to/lastmile_qr_scan"}, "is_reserved": 0}, {"lon": -77.03670766666667, "bike_id": "edf3f17ae26c8bc0e0b3575c9f3f24f5", "lat": 38.92328233333333, "fusion_lon": 0.0, "fusion_lat": 0.0, "type": "electric_scooter", "name": "edf3f17ae26c8bc0e0b3575c9f3f24f5", "is_disabled": 0, "rental_uris": {"ios": "https://dc.lft.to/lastmile_qr_scan", "android": "https://dc.lft.to/lastmile_qr_scan"}, "is_reserved": 0}, {"lon": -77.0253135, "bike_id": "3e779e6c119e405d9f7b53aa2a45b149", "lat": 38.94304783333333, "fusion_lon": 0.0, "fusion_lat": 0.0, "type": "electric_scooter", "name": "3e779e6c119e405d9f7b53aa2a45b149", "is_disabled": 0, "rental_uris": {"ios": "https://dc.lft.to/lastmile_qr_scan", "android": "https://dc.lft.to/lastmile_qr_scan"}, "is_reserved": 0}, {"lon": -77.07794166666666, "bike_id": "02919545863bc37b38b500769b857879", "lat": 38.996017333333334, "fusion_lon": 0.0, "fusion_lat": 0.0, "type": "electric_bike", "name": "02919545863bc37b38b500769b857879", "is_disabled": 0, "rental_uris": {"ios": "https://dc.lft.to/lastmile_qr_scan", "android": "https://dc.lft.to/lastmile_qr_scan"}, "is_reserved": 0}, {"lon": -76.97492283333334, "bike_id": "ef4e5a62af2c54ca363fb5fcfdb8edf0", "lat": 38.89064066666667, "fusion_lon": 0.0, "fusion_lat": 0.0, "type": "electric_bike", "name": "ef4e5a62af2c54ca363fb5fcfdb8edf0", "is_disabled": 0, "rental_uris": {"ios": "https://dc.lft.to/lastmile_qr_scan", "android": "https://dc.lft.to/lastmile_qr_scan"}, "is_reserved": 0}, {"lon": -77.0246715, "bike_id": "be622e92af7f0d8a550fdbeeac0a8ac4", "lat": 38.884483, "fusion_lon": 0.0, "fusion_lat": 0.0, "type": "electric_scooter", "name": "be622e92af7f0d8a550fdbeeac0a8ac4", "is_disabled": 0, "rental_uris": {"ios": "https://dc.lft.to/lastmile_qr_scan", "android": "https://dc.lft.to/lastmile_qr_scan"}, "is_reserved": 0}, {"lon": -76.96995183333334, "bike_id": "a08aedd39a2f6219ad1f7489995db74a", "lat": 38.87371483333333, "fusion_lon": 0.0, "fusion_lat": 0.0, "type": "electric_scooter", "name": "a08aedd39a2f6219ad1f7489995db74a", "is_disabled": 0, "rental_uris": {"ios": "https://dc.lft.to/lastmile_qr_scan", "android": "https://dc.lft.to/lastmile_qr_scan"}, "is_reserved": 0}, {"lon": -77.06134366666667, "bike_id": "a2da01ef273532331666fc4a26b8cd2e", "lat": 38.943599166666665, "fusion_lon": 0.0, "fusion_lat": 0.0, "type": "electric_scooter", "name": "a2da01ef273532331666fc4a26b8cd2e", "is_disabled": 0, "rental_uris": {"ios": "https://dc.lft.to/lastmile_qr_scan", "android": "https://dc.lft.to/lastmile_qr_scan"}, "is_reserved": 0}, {"lon": -77.03475483333334, "bike_id": "69bfb09ac55a2269fab110a691efeda7", "lat": 38.9274385, "fusion_lon": 0.0, "fusion_lat": 0.0, "type": "electric_scooter", "name": "69bfb09ac55a2269fab110a691efeda7", "is_disabled": 0, "rental_uris": {"ios": "https://dc.lft.to/lastmile_qr_scan", "android": "https://dc.lft.to/lastmile_qr_scan"}, "is_reserved": 0}, {"lon": -77.03859733333333, "bike_id": "e558eab13292d569353ec4260a655df5", "lat": 38.9168, "fusion_lon": 0.0, "fusion_lat": 0.0, "type": "electric_scooter", "name": "e558eab13292d569353ec4260a655df5", "is_disabled": 0, "rental_uris": {"ios": "https://dc.lft.to/lastmile_qr_scan", "android": "https://dc.lft.to/lastmile_qr_scan"}, "is_reserved": 0}, {"lon": -77.02535833333333, "bike_id": "0542096d17268e49876a36259177f82a", "lat": 38.90406616666667, "fusion_lon": 0.0, "fusion_lat": 0.0, "type": "electric_scooter", "name": "0542096d17268e49876a36259177f82a", "is_disabled": 0, "rental_uris": {"ios": "https://dc.lft.to/lastmile_qr_scan", "android": "https://dc.lft.to/lastmile_qr_scan"}, "is_reserved": 0}, {"lon": -76.9889865, "bike_id": "707bc367c0f80115e6136431ecbf6697", "lat": 38.9134295, "fusion_lon": 0.0, "fusion_lat": 0.0, "type": "electric_scooter", "name": "707bc367c0f80115e6136431ecbf6697", "is_disabled": 0, "rental_uris": {"ios": "https://dc.lft.to/lastmile_qr_scan", "android": "https://dc.lft.to/lastmile_qr_scan"}, "is_reserved": 0}, {"lon": -77.0083945, "bike_id": "8a309bbe6b89b38ec48dfd4dd7fd2b04", "lat": 38.916244666666664, "fusion_lon": 0.0, "fusion_lat": 0.0, "type": "electric_scooter", "name": "8a309bbe6b89b38ec48dfd4dd7fd2b04", "is_disabled": 0, "rental_uris": {"ios": "https://dc.lft.to/lastmile_qr_scan", "android": "https://dc.lft.to/lastmile_qr_scan"}, "is_reserved": 0}, {"lon": -77.02713466666667, "bike_id": "69770df69e493268b60e51f3a7f432f6", "lat": 38.912169666666664, "fusion_lon": 0.0, "fusion_lat": 0.0, "type": "electric_scooter", "name": "69770df69e493268b60e51f3a7f432f6", "is_disabled": 0, "rental_uris": {"ios": "https://dc.lft.to/lastmile_qr_scan", "android": "https://dc.lft.to/lastmile_qr_scan"}, "is_reserved": 0}, {"lon": -77.04420166666667, "bike_id": "16294eaabb77b39bc28e16677f525e75", "lat": 38.91750733333333, "fusion_lon": 0.0, "fusion_lat": 0.0, "type": "electric_scooter", "name": "16294eaabb77b39bc28e16677f525e75", "is_disabled": 0, "rental_uris": {"ios": "https://dc.lft.to/lastmile_qr_scan", "android": "https://dc.lft.to/lastmile_qr_scan"}, "is_reserved": 0}, {"lon": -77.05322366666667, "bike_id": "847a59ea5c6c1cac98dc113d3317af6a", "lat": 38.901965833333335, "fusion_lon": 0.0, "fusion_lat": 0.0, "type": "electric_scooter", "name": "847a59ea5c6c1cac98dc113d3317af6a", "is_disabled": 0, "rental_uris": {"ios": "https://dc.lft.to/lastmile_qr_scan", "android": "https://dc.lft.to/lastmile_qr_scan"}, "is_reserved": 0}, {"lon": -77.03445, "bike_id": "b802536f0452abcbda48f784bed6185f", "lat": 38.91494766666667, "fusion_lon": 0.0, "fusion_lat": 0.0, "type": "electric_scooter", "name": "b802536f0452abcbda48f784bed6185f", "is_disabled": 0, "rental_uris": {"ios": "https://dc.lft.to/lastmile_qr_scan", "android": "https://dc.lft.to/lastmile_qr_scan"}, "is_reserved": 0}, {"lon": -77.03853583333333, "bike_id": "40b0c9f2d5217bd545504f8ce5abcf79", "lat": 38.91664433333333, "fusion_lon": 0.0, "fusion_lat": 0.0, "type": "electric_scooter", "name": "40b0c9f2d5217bd545504f8ce5abcf79", "is_disabled": 0, "rental_uris": {"ios": "https://dc.lft.to/lastmile_qr_scan", "android": "https://dc.lft.to/lastmile_qr_scan"}, "is_reserved": 0}, {"lon": -77.00541366666667, "bike_id": "dfb6640899f757fe0ef699f1b62fff5e", "lat": 38.9003945, "fusion_lon": 0.0, "fusion_lat": 0.0, "type": "electric_scooter", "name": "dfb6640899f757fe0ef699f1b62fff5e", "is_disabled": 0, "rental_uris": {"ios": "https://dc.lft.to/lastmile_qr_scan", "android": "https://dc.lft.to/lastmile_qr_scan"}, "is_reserved": 0}, {"lon": -77.03830133333334, "bike_id": "367bbb8269e4c2bed174b0014052a10a", "lat": 38.906719, "fusion_lon": 0.0, "fusion_lat": 0.0, "type": "electric_scooter", "name": "367bbb8269e4c2bed174b0014052a10a", "is_disabled": 0, "rental_uris": {"ios": "https://dc.lft.to/lastmile_qr_scan", "android": "https://dc.lft.to/lastmile_qr_scan"}, "is_reserved": 0}, {"lon": -77.03195966666667, "bike_id": "0f81af531f9bb333ea6e5c563d593b79", "lat": 38.91899866666667, "fusion_lon": 0.0, "fusion_lat": 0.0, "type": "electric_scooter", "name": "0f81af531f9bb333ea6e5c563d593b79", "is_disabled": 0, "rental_uris": {"ios": "https://dc.lft.to/lastmile_qr_scan", "android": "https://dc.lft.to/lastmile_qr_scan"}, "is_reserved": 0}, {"lon": -77.015958, "bike_id": "0fa330327e33b129bfae6eb0e3511d1c", "lat": 38.91061933333334, "fusion_lon": 0.0, "fusion_lat": 0.0, "type": "electric_scooter", "name": "0fa330327e33b129bfae6eb0e3511d1c", "is_disabled": 0, "rental_uris": {"ios": "https://dc.lft.to/lastmile_qr_scan", "android": "https://dc.lft.to/lastmile_qr_scan"}, "is_reserved": 0}, {"lon": -76.9317475, "bike_id": "2b1e586f5bb6c4740ec1a10850d45557", "lat": 38.898832666666664, "fusion_lon": 0.0, "fusion_lat": 0.0, "type": "electric_scooter", "name": "2b1e586f5bb6c4740ec1a10850d45557", "is_disabled": 0, "rental_uris": {"ios": "https://dc.lft.to/lastmile_qr_scan", "android": "https://dc.lft.to/lastmile_qr_scan"}, "is_reserved": 0}, {"lon": -76.997516, "bike_id": "1ada07854dbfd4fee0420b780033fb2d", "lat": 38.909691, "fusion_lon": 0.0, "fusion_lat": 0.0, "type": "electric_scooter", "name": "1ada07854dbfd4fee0420b780033fb2d", "is_disabled": 0, "rental_uris": {"ios": "https://dc.lft.to/lastmile_qr_scan", "android": "https://dc.lft.to/lastmile_qr_scan"}, "is_reserved": 0}, {"lon": -76.99611416666667, "bike_id": "33be7a12b834692bf02f1eb3bfe8397a", "lat": 38.88309433333333, "fusion_lon": 0.0, "fusion_lat": 0.0, "type": "electric_scooter", "name": "33be7a12b834692bf02f1eb3bfe8397a", "is_disabled": 0, "rental_uris": {"ios": "https://dc.lft.to/lastmile_qr_scan", "android": "https://dc.lft.to/lastmile_qr_scan"}, "is_reserved": 0}, {"lon": -77.04097233333333, "bike_id": "173bba6568138d6766d0611accb5ec77", "lat": 38.920405333333335, "fusion_lon": 0.0, "fusion_lat": 0.0, "type": "electric_scooter", "name": "173bba6568138d6766d0611accb5ec77", "is_disabled": 0, "rental_uris": {"ios": "https://dc.lft.to/lastmile_qr_scan", "android": "https://dc.lft.to/lastmile_qr_scan"}, "is_reserved": 0}, {"lon": -77.0444675, "bike_id": "108c2dd7d640b97dbc5aac6f63366e2b", "lat": 38.919355, "fusion_lon": 0.0, "fusion_lat": 0.0, "type": "electric_scooter", "name": "108c2dd7d640b97dbc5aac6f63366e2b", "is_disabled": 0, "rental_uris": {"ios": "https://dc.lft.to/lastmile_qr_scan", "android": "https://dc.lft.to/lastmile_qr_scan"}, "is_reserved": 0}, {"lon": -77.0449645, "bike_id": "ef0f3dec845987954154459bf3b26a47", "lat": 38.91931916666667, "fusion_lon": 0.0, "fusion_lat": 0.0, "type": "electric_scooter", "name": "ef0f3dec845987954154459bf3b26a47", "is_disabled": 0, "rental_uris": {"ios": "https://dc.lft.to/lastmile_qr_scan", "android": "https://dc.lft.to/lastmile_qr_scan"}, "is_reserved": 0}, {"lon": -76.95197983333334, "bike_id": "35f17b0d59ff52aae4637a5f38da607e", "lat": 38.9000375, "fusion_lon": 0.0, "fusion_lat": 0.0, "type": "electric_scooter", "name": "35f17b0d59ff52aae4637a5f38da607e", "is_disabled": 0, "rental_uris": {"ios": "https://dc.lft.to/lastmile_qr_scan", "android": "https://dc.lft.to/lastmile_qr_scan"}, "is_reserved": 0}, {"lon": -77.02495066666667, "bike_id": "e0190f1e07b9b2943afd38e41b029641", "lat": 38.919177833333336, "fusion_lon": 0.0, "fusion_lat": 0.0, "type": "electric_scooter", "name": "e0190f1e07b9b2943afd38e41b029641", "is_disabled": 0, "rental_uris": {"ios": "https://dc.lft.to/lastmile_qr_scan", "android": "https://dc.lft.to/lastmile_qr_scan"}, "is_reserved": 0}, {"lon": -77.0334815, "bike_id": "f44ee53f977cec7e668b4343dd503600", "lat": 38.94712916666667, "fusion_lon": 0.0, "fusion_lat": 0.0, "type": "electric_scooter", "name": "f44ee53f977cec7e668b4343dd503600", "is_disabled": 0, "rental_uris": {"ios": "https://dc.lft.to/lastmile_qr_scan", "android": "https://dc.lft.to/lastmile_qr_scan"}, "is_reserved": 0}, {"lon": -77.015783, "bike_id": "5c655e76dc1aa05a2ab2f16548b98c1a", "lat": 38.894653, "fusion_lon": 0.0, "fusion_lat": 0.0, "type": "electric_scooter", "name": "5c655e76dc1aa05a2ab2f16548b98c1a", "is_disabled": 0, "rental_uris": {"ios": "https://dc.lft.to/lastmile_qr_scan", "android": "https://dc.lft.to/lastmile_qr_scan"}, "is_reserved": 0}, {"lon": -76.983649, "bike_id": "0e8378945dbee0ae8d95d413a6b847c5", "lat": 38.86106683333333, "fusion_lon": 0.0, "fusion_lat": 0.0, "type": "electric_scooter", "name": "0e8378945dbee0ae8d95d413a6b847c5", "is_disabled": 0, "rental_uris": {"ios": "https://dc.lft.to/lastmile_qr_scan", "android": "https://dc.lft.to/lastmile_qr_scan"}, "is_reserved": 0}, {"lon": -76.99837216666667, "bike_id": "5bdbd311be795f89500b9bd318801d34", "lat": 38.900387, "fusion_lon": 0.0, "fusion_lat": 0.0, "type": "electric_scooter", "name": "5bdbd311be795f89500b9bd318801d34", "is_disabled": 0, "rental_uris": {"ios": "https://dc.lft.to/lastmile_qr_scan", "android": "https://dc.lft.to/lastmile_qr_scan"}, "is_reserved": 0}, {"lon": -77.02378233333333, "bike_id": "ddab7525e378146e37b4b0fce9eb0a95", "lat": 38.9095895, "fusion_lon": 0.0, "fusion_lat": 0.0, "type": "electric_scooter", "name": "ddab7525e378146e37b4b0fce9eb0a95", "is_disabled": 0, "rental_uris": {"ios": "https://dc.lft.to/lastmile_qr_scan", "android": "https://dc.lft.to/lastmile_qr_scan"}, "is_reserved": 0}, {"lon": -77.024878, "bike_id": "bde09e1697601d84e0a33d18c51f51a7", "lat": 38.9310005, "fusion_lon": 0.0, "fusion_lat": 0.0, "type": "electric_scooter", "name": "bde09e1697601d84e0a33d18c51f51a7", "is_disabled": 0, "rental_uris": {"ios": "https://dc.lft.to/lastmile_qr_scan", "android": "https://dc.lft.to/lastmile_qr_scan"}, "is_reserved": 0}, {"lon": -77.03880366666667, "bike_id": "3a927eddc93689c767eb3d2cf05fbcc8", "lat": 38.911003666666666, "fusion_lon": 0.0, "fusion_lat": 0.0, "type": "electric_scooter", "name": "3a927eddc93689c767eb3d2cf05fbcc8", "is_disabled": 0, "rental_uris": {"ios": "https://dc.lft.to/lastmile_qr_scan", "android": "https://dc.lft.to/lastmile_qr_scan"}, "is_reserved": 0}, {"lon": -77.03761, "bike_id": "3dcf4242f1d93d2e445998d64e6a2f04", "lat": 38.907812666666665, "fusion_lon": 0.0, "fusion_lat": 0.0, "type": "electric_scooter", "name": "3dcf4242f1d93d2e445998d64e6a2f04", "is_disabled": 0, "rental_uris": {"ios": "https://dc.lft.to/lastmile_qr_scan", "android": "https://dc.lft.to/lastmile_qr_scan"}, "is_reserved": 0}, {"lon": -77.00812016666667, "bike_id": "c85610b4d487554e38b4e2e2aaddcc2a", "lat": 38.916957833333335, "fusion_lon": 0.0, "fusion_lat": 0.0, "type": "electric_scooter", "name": "c85610b4d487554e38b4e2e2aaddcc2a", "is_disabled": 0, "rental_uris": {"ios": "https://dc.lft.to/lastmile_qr_scan", "android": "https://dc.lft.to/lastmile_qr_scan"}, "is_reserved": 0}, {"lon": -77.03192183333333, "bike_id": "8783f6652e2ab692d68d8db6a04ee44c", "lat": 38.91418, "fusion_lon": 0.0, "fusion_lat": 0.0, "type": "electric_scooter", "name": "8783f6652e2ab692d68d8db6a04ee44c", "is_disabled": 0, "rental_uris": {"ios": "https://dc.lft.to/lastmile_qr_scan", "android": "https://dc.lft.to/lastmile_qr_scan"}, "is_reserved": 0}, {"lon": -77.029612, "bike_id": "9aeefef3e6574b82d1a42488d903c58d", "lat": 38.90497033333333, "fusion_lon": 0.0, "fusion_lat": 0.0, "type": "electric_scooter", "name": "9aeefef3e6574b82d1a42488d903c58d", "is_disabled": 0, "rental_uris": {"ios": "https://dc.lft.to/lastmile_qr_scan", "android": "https://dc.lft.to/lastmile_qr_scan"}, "is_reserved": 0}, {"lon": -76.99569083333333, "bike_id": "d4a6e295f8b56cb94d1894bdeed52aa1", "lat": 38.85180866666666, "fusion_lon": 0.0, "fusion_lat": 0.0, "type": "electric_bike", "name": "d4a6e295f8b56cb94d1894bdeed52aa1", "is_disabled": 0, "rental_uris": {"ios": "https://dc.lft.to/lastmile_qr_scan", "android": "https://dc.lft.to/lastmile_qr_scan"}, "is_reserved": 0}, {"lon": -76.93367533333333, "bike_id": "83941fdb539190c651001d46a7f89199", "lat": 38.89914566666667, "fusion_lon": 0.0, "fusion_lat": 0.0, "type": "electric_scooter", "name": "83941fdb539190c651001d46a7f89199", "is_disabled": 0, "rental_uris": {"ios": "https://dc.lft.to/lastmile_qr_scan", "android": "https://dc.lft.to/lastmile_qr_scan"}, "is_reserved": 0}, {"lon": -77.00207116666667, "bike_id": "470b4a3eb78444e778e6a2f4e6adbbf4", "lat": 38.90040166666667, "fusion_lon": 0.0, "fusion_lat": 0.0, "type": "electric_scooter", "name": "470b4a3eb78444e778e6a2f4e6adbbf4", "is_disabled": 0, "rental_uris": {"ios": "https://dc.lft.to/lastmile_qr_scan", "android": "https://dc.lft.to/lastmile_qr_scan"}, "is_reserved": 0}, {"lon": -76.97478133333334, "bike_id": "159b5f5d99bf487a86bbc3e3bd32a0cb", "lat": 38.903447666666665, "fusion_lon": 0.0, "fusion_lat": 0.0, "type": "electric_scooter", "name": "159b5f5d99bf487a86bbc3e3bd32a0cb", "is_disabled": 0, "rental_uris": {"ios": "https://dc.lft.to/lastmile_qr_scan", "android": "https://dc.lft.to/lastmile_qr_scan"}, "is_reserved": 0}, {"lon": -77.08069383333333, "bike_id": "bc30f6af55a4b390533e96ea42d68d46", "lat": 39.052782, "fusion_lon": 0.0, "fusion_lat": 0.0, "type": "electric_bike", "name": "bc30f6af55a4b390533e96ea42d68d46", "is_disabled": 0, "rental_uris": {"ios": "https://dc.lft.to/lastmile_qr_scan", "android": "https://dc.lft.to/lastmile_qr_scan"}, "is_reserved": 0}, {"lon": -77.00648566666666, "bike_id": "82ff4cf4225306ff2e0d3803c331ed3d", "lat": 38.92618, "fusion_lon": 0.0, "fusion_lat": 0.0, "type": "electric_scooter", "name": "82ff4cf4225306ff2e0d3803c331ed3d", "is_disabled": 0, "rental_uris": {"ios": "https://dc.lft.to/lastmile_qr_scan", "android": "https://dc.lft.to/lastmile_qr_scan"}, "is_reserved": 0}, {"lon": -77.03405733333334, "bike_id": "db73887a802409d5a44dbbfaa55d3843", "lat": 38.905584, "fusion_lon": 0.0, "fusion_lat": 0.0, "type": "electric_scooter", "name": "db73887a802409d5a44dbbfaa55d3843", "is_disabled": 0, "rental_uris": {"ios": "https://dc.lft.to/lastmile_qr_scan", "android": "https://dc.lft.to/lastmile_qr_scan"}, "is_reserved": 0}, {"lon": -77.0651825, "bike_id": "6d763f5f81ae2a5d4f47a78a4dc91f51", "lat": 38.903905333333334, "fusion_lon": 0.0, "fusion_lat": 0.0, "type": "electric_scooter", "name": "6d763f5f81ae2a5d4f47a78a4dc91f51", "is_disabled": 0, "rental_uris": {"ios": "https://dc.lft.to/lastmile_qr_scan", "android": "https://dc.lft.to/lastmile_qr_scan"}, "is_reserved": 0}, {"lon": -77.0129145, "bike_id": "9aab8e1611e40e8c534fb9f2db75e382", "lat": 38.92015683333333, "fusion_lon": 0.0, "fusion_lat": 0.0, "type": "electric_scooter", "name": "9aab8e1611e40e8c534fb9f2db75e382", "is_disabled": 0, "rental_uris": {"ios": "https://dc.lft.to/lastmile_qr_scan", "android": "https://dc.lft.to/lastmile_qr_scan"}, "is_reserved": 0}, {"lon": -76.99019516666667, "bike_id": "ec549d4a18a6dfa9bea4a66e5105438d", "lat": 38.86641783333334, "fusion_lon": 0.0, "fusion_lat": 0.0, "type": "electric_scooter", "name": "ec549d4a18a6dfa9bea4a66e5105438d", "is_disabled": 0, "rental_uris": {"ios": "https://dc.lft.to/lastmile_qr_scan", "android": "https://dc.lft.to/lastmile_qr_scan"}, "is_reserved": 0}, {"lon": -76.99087333333334, "bike_id": "483f86458398fc7247e4da6d23166645", "lat": 38.8623665, "fusion_lon": 0.0, "fusion_lat": 0.0, "type": "electric_bike", "name": "483f86458398fc7247e4da6d23166645", "is_disabled": 0, "rental_uris": {"ios": "https://dc.lft.to/lastmile_qr_scan", "android": "https://dc.lft.to/lastmile_qr_scan"}, "is_reserved": 0}, {"lon": -77.03869783333333, "bike_id": "9c15a882c6d559c22996950108059d6b", "lat": 38.915529, "fusion_lon": 0.0, "fusion_lat": 0.0, "type": "electric_scooter", "name": "9c15a882c6d559c22996950108059d6b", "is_disabled": 0, "rental_uris": {"ios": "https://dc.lft.to/lastmile_qr_scan", "android": "https://dc.lft.to/lastmile_qr_scan"}, "is_reserved": 0}, {"lon": -77.01937933333333, "bike_id": "2cde3d20bd265fdf3c009cc70f1b25ec", "lat": 38.93519466666667, "fusion_lon": 0.0, "fusion_lat": 0.0, "type": "electric_scooter", "name": "2cde3d20bd265fdf3c009cc70f1b25ec", "is_disabled": 0, "rental_uris": {"ios": "https://dc.lft.to/lastmile_qr_scan", "android": "https://dc.lft.to/lastmile_qr_scan"}, "is_reserved": 0}, {"lon": -76.99534766666666, "bike_id": "a59c5ddb88b15e8ef9744523c015ed5e", "lat": 38.88367016666667, "fusion_lon": 0.0, "fusion_lat": 0.0, "type": "electric_scooter", "name": "a59c5ddb88b15e8ef9744523c015ed5e", "is_disabled": 0, "rental_uris": {"ios": "https://dc.lft.to/lastmile_qr_scan", "android": "https://dc.lft.to/lastmile_qr_scan"}, "is_reserved": 0}, {"lon": -77.04869383333333, "bike_id": "a30ddc79f801f436a079fc77257bbeec", "lat": 38.89222916666667, "fusion_lon": 0.0, "fusion_lat": 0.0, "type": "electric_scooter", "name": "a30ddc79f801f436a079fc77257bbeec", "is_disabled": 0, "rental_uris": {"ios": "https://dc.lft.to/lastmile_qr_scan", "android": "https://dc.lft.to/lastmile_qr_scan"}, "is_reserved": 0}, {"lon": -77.03433866666667, "bike_id": "9ab50ac94f1d3bd0298ac20ae96880de", "lat": 38.90970866666667, "fusion_lon": 0.0, "fusion_lat": 0.0, "type": "electric_scooter", "name": "9ab50ac94f1d3bd0298ac20ae96880de", "is_disabled": 0, "rental_uris": {"ios": "https://dc.lft.to/lastmile_qr_scan", "android": "https://dc.lft.to/lastmile_qr_scan"}, "is_reserved": 0}, {"lon": -77.01647516666667, "bike_id": "9cd9ddd682d91c4edd7215f00024ea2b", "lat": 38.88112266666667, "fusion_lon": 0.0, "fusion_lat": 0.0, "type": "electric_scooter", "name": "9cd9ddd682d91c4edd7215f00024ea2b", "is_disabled": 0, "rental_uris": {"ios": "https://dc.lft.to/lastmile_qr_scan", "android": "https://dc.lft.to/lastmile_qr_scan"}, "is_reserved": 0}, {"lon": -76.98091483333333, "bike_id": "0702c741e72ce2aa403d3b36c62892ef", "lat": 38.953529, "fusion_lon": 0.0, "fusion_lat": 0.0, "type": "electric_bike", "name": "0702c741e72ce2aa403d3b36c62892ef", "is_disabled": 0, "rental_uris": {"ios": "https://dc.lft.to/lastmile_qr_scan", "android": "https://dc.lft.to/lastmile_qr_scan"}, "is_reserved": 0}, {"lon": -77.02093133333334, "bike_id": "d9df8b5ea52fabd9a531e99f22c295b7", "lat": 38.9574855, "fusion_lon": 0.0, "fusion_lat": 0.0, "type": "electric_scooter", "name": "d9df8b5ea52fabd9a531e99f22c295b7", "is_disabled": 0, "rental_uris": {"ios": "https://dc.lft.to/lastmile_qr_scan", "android": "https://dc.lft.to/lastmile_qr_scan"}, "is_reserved": 0}, {"lon": -77.05573716666666, "bike_id": "237cba3844131ef9d2040bf8c97ce1f8", "lat": 38.915983, "fusion_lon": 0.0, "fusion_lat": 0.0, "type": "electric_scooter", "name": "237cba3844131ef9d2040bf8c97ce1f8", "is_disabled": 0, "rental_uris": {"ios": "https://dc.lft.to/lastmile_qr_scan", "android": "https://dc.lft.to/lastmile_qr_scan"}, "is_reserved": 0}, {"lon": -77.0318505, "bike_id": "736e958c199747e376ca3ac6f0de5c5d", "lat": 38.913451, "fusion_lon": 0.0, "fusion_lat": 0.0, "type": "electric_scooter", "name": "736e958c199747e376ca3ac6f0de5c5d", "is_disabled": 0, "rental_uris": {"ios": "https://dc.lft.to/lastmile_qr_scan", "android": "https://dc.lft.to/lastmile_qr_scan"}, "is_reserved": 0}, {"lon": -76.99003333333333, "bike_id": "648a81c9278b2cfcfdc5069a6562c1e1", "lat": 38.8650395, "fusion_lon": 0.0, "fusion_lat": 0.0, "type": "electric_scooter", "name": "648a81c9278b2cfcfdc5069a6562c1e1", "is_disabled": 0, "rental_uris": {"ios": "https://dc.lft.to/lastmile_qr_scan", "android": "https://dc.lft.to/lastmile_qr_scan"}, "is_reserved": 0}, {"lon": -77.04393316666666, "bike_id": "294b4f95e846d044d1c1b72e16496562", "lat": 38.908904166666666, "fusion_lon": 0.0, "fusion_lat": 0.0, "type": "electric_scooter", "name": "294b4f95e846d044d1c1b72e16496562", "is_disabled": 0, "rental_uris": {"ios": "https://dc.lft.to/lastmile_qr_scan", "android": "https://dc.lft.to/lastmile_qr_scan"}, "is_reserved": 0}, {"lon": -76.99333566666667, "bike_id": "4664ed9e98c0e52932285150a58ffaf1", "lat": 38.87140633333333, "fusion_lon": 0.0, "fusion_lat": 0.0, "type": "electric_scooter", "name": "4664ed9e98c0e52932285150a58ffaf1", "is_disabled": 0, "rental_uris": {"ios": "https://dc.lft.to/lastmile_qr_scan", "android": "https://dc.lft.to/lastmile_qr_scan"}, "is_reserved": 0}, {"lon": -76.98710433333333, "bike_id": "b4480d45b1b4c872bc28fb05bd0d7c4b", "lat": 38.8653715, "fusion_lon": 0.0, "fusion_lat": 0.0, "type": "electric_scooter", "name": "b4480d45b1b4c872bc28fb05bd0d7c4b", "is_disabled": 0, "rental_uris": {"ios": "https://dc.lft.to/lastmile_qr_scan", "android": "https://dc.lft.to/lastmile_qr_scan"}, "is_reserved": 0}, {"lon": -77.03337533333334, "bike_id": "244bcb637318e84c9aed64255fca8f4e", "lat": 38.93639783333333, "fusion_lon": 0.0, "fusion_lat": 0.0, "type": "electric_scooter", "name": "244bcb637318e84c9aed64255fca8f4e", "is_disabled": 0, "rental_uris": {"ios": "https://dc.lft.to/lastmile_qr_scan", "android": "https://dc.lft.to/lastmile_qr_scan"}, "is_reserved": 0}, {"lon": -77.02718733333333, "bike_id": "9c476686ed00bc5d1b0d6d3f461ee0b0", "lat": 38.910725, "fusion_lon": 0.0, "fusion_lat": 0.0, "type": "electric_scooter", "name": "9c476686ed00bc5d1b0d6d3f461ee0b0", "is_disabled": 0, "rental_uris": {"ios": "https://dc.lft.to/lastmile_qr_scan", "android": "https://dc.lft.to/lastmile_qr_scan"}, "is_reserved": 0}, {"lon": -77.03311866666667, "bike_id": "d991472c2c4b9cc5a590ec56a857d8c9", "lat": 38.90374033333333, "fusion_lon": 0.0, "fusion_lat": 0.0, "type": "electric_scooter", "name": "d991472c2c4b9cc5a590ec56a857d8c9", "is_disabled": 0, "rental_uris": {"ios": "https://dc.lft.to/lastmile_qr_scan", "android": "https://dc.lft.to/lastmile_qr_scan"}, "is_reserved": 0}, {"lon": -77.02688183333333, "bike_id": "36ff05b0c114a6621e4e2231ce3c32c7", "lat": 38.924777, "fusion_lon": 0.0, "fusion_lat": 0.0, "type": "electric_scooter", "name": "36ff05b0c114a6621e4e2231ce3c32c7", "is_disabled": 0, "rental_uris": {"ios": "https://dc.lft.to/lastmile_qr_scan", "android": "https://dc.lft.to/lastmile_qr_scan"}, "is_reserved": 0}, {"lon": -76.98725366666666, "bike_id": "bf570952dee582296235d529e7f9c0e2", "lat": 38.867043833333334, "fusion_lon": 0.0, "fusion_lat": 0.0, "type": "electric_scooter", "name": "bf570952dee582296235d529e7f9c0e2", "is_disabled": 0, "rental_uris": {"ios": "https://dc.lft.to/lastmile_qr_scan", "android": "https://dc.lft.to/lastmile_qr_scan"}, "is_reserved": 0}, {"lon": -77.02334033333334, "bike_id": "654de1d6f93f123011694fe135697b5b", "lat": 38.92217216666667, "fusion_lon": 0.0, "fusion_lat": 0.0, "type": "electric_scooter", "name": "654de1d6f93f123011694fe135697b5b", "is_disabled": 0, "rental_uris": {"ios": "https://dc.lft.to/lastmile_qr_scan", "android": "https://dc.lft.to/lastmile_qr_scan"}, "is_reserved": 0},