{"data": {"bikes": [{"rental_uris": {"android": "https://dc.lft.to/lastmile_qr_scan", "ios": "https://dc.lft.to/lastmile_qr_scan"}, "lon": -77.023486, "name": "397483f39b414055df3b179bcc6bdfcd", "lat": 38.935347, "is_reserved": 0, "fusion_lat": 0.0, "bike_id": "397483f39b414055df3b179bcc6bdfcd", "type": "electric_scooter", "is_disabled": 0, "fusion_lon": 0.0}, {"rental_uris": {"android": "https://dc.lft.to/lastmile_qr_scan", "ios": "https://dc.lft.to/lastmile_qr_scan"}, "lon": -77.03478083333333, "name": "6b6f311eba2eb7c3604adab5fc9fd8b5", "lat": 38.90573933333334, "is_reserved": 0, "fusion_lat": 0.0, "bike_id": "6b6f311eba2eb7c3604adab5fc9fd8b5", "type": "electric_scooter", "is_disabled": 0, "fusion_lon": 0.0}, {"rental_uris": {"android": "https://dc.lft.to/lastmile_qr_scan", "ios": "https://dc.lft.to/lastmile_qr_scan"}, "lon": -77.023049, "name": "21a526ad7f4e0a52cb49a8f301b9f338", "lat": 38.9265855, "is_reserved": 0, "fusion_lat": 0.0, "bike_id": "21a526ad7f4e0a52cb49a8f301b9f338", "type": "electric_scooter", "is_disabled": 0, "fusion_lon": 0.0}, {"rental_uris": {"android": "https://dc.lft.to/lastmile_qr_scan", "ios": "https://dc.lft.to/lastmile_qr_scan"}, "lon": -77.04353683333333, "name": "47f8a8176a4fe9828cc8964318e185f3", "lat": 38.90402383333333, "is_reserved": 0, "fusion_lat": 0.0, "bike_id": "47f8a8176a4fe9828cc8964318e185f3", "type": "electric_scooter", "is_disabled": 0, "fusion_lon": 0.0}, {"rental_uris": {"android": "https://dc.lft.to/lastmile_qr_scan", "ios": "https://dc.lft.to/lastmile_qr_scan"}, "lon": -77.04170533333334, "name": "3e0f2afefb19b69e7d2072a71c9d65ca", "lat": 38.906364833333335, "is_reserved": 0, "fusion_lat": 0.0, "bike_id": "3e0f2afefb19b69e7d2072a71c9d65ca", "type": "electric_scooter", "is_disabled": 0, "fusion_lon": 0.0}, {"rental_uris": {"android": "https://dc.lft.to/lastmile_qr_scan", "ios": "https://dc.lft.to/lastmile_qr_scan"}, "lon": -77.03300833333333, "name": "34937fffd896375330014200f28969d3", "lat": 38.924601, "is_reserved": 0, "fusion_lat": 0.0, "bike_id": "34937fffd896375330014200f28969d3", "type": "electric_scooter", "is_disabled": 0, "fusion_lon": 0.0}, {"rental_uris": {"android": "https://dc.lft.to/lastmile_qr_scan", "ios": "https://dc.lft.to/lastmile_qr_scan"}, "lon": -77.03797466666667, "name": "6bcd53567f9065e6bd599c107377a4ee", "lat": 38.99687133333333, "is_reserved": 0, "fusion_lat": 0.0, "bike_id": "6bcd53567f9065e6bd599c107377a4ee", "type": "electric_bike", "is_disabled": 0, "fusion_lon": 0.0}, {"rental_uris": {"android": "https://dc.lft.to/lastmile_qr_scan", "ios": "https://dc.lft.to/lastmile_qr_scan"}, "lon": -77.03496683333333, "name": "e859289ba10ca60631e1eea4367fdfb9", "lat": 38.90957216666666, "is_reserved": 0, "fusion_lat": 0.0, "bike_id": "e859289ba10ca60631e1eea4367fdfb9", "type": "electric_scooter", "is_disabled": 0, "fusion_lon": 0.0}, {"rental_uris": {"android": "https://dc.lft.to/lastmile_qr_scan", "ios": "https://dc.lft.to/lastmile_qr_scan"}, "lon": -76.98021166666666, "name": "c4b0cc0bac98be74036ec65d75408694", "lat": 38.901182, "is_reserved": 0, "fusion_lat": 0.0, "bike_id": "c4b0cc0bac98be74036ec65d75408694", "type": "electric_scooter", "is_disabled": 0, "fusion_lon": 0.0}, {"rental_uris": {"android": "https://dc.lft.to/lastmile_qr_scan", "ios": "https://dc.lft.to/lastmile_qr_scan"}, "lon": -77.0422905, "name": "9e050ea174c7ae0bc041337125877a08", "lat": 38.911097166666664, "is_reserved": 0, "fusion_lat": 0.0, "bike_id": "9e050ea174c7ae0bc041337125877a08", "type": "electric_scooter", "is_disabled": 0, "fusion_lon": 0.0}, {"rental_uris": {"android": "https://dc.lft.to/lastmile_qr_scan", "ios": "https://dc.lft.to/lastmile_qr_scan"}, "lon": -77.04196666666667, "name": "e21e275858ea0f1ffe42bf18b012a275", "lat": 38.892242833333334, "is_reserved": 0, "fusion_lat": 0.0, "bike_id": "e21e275858ea0f1ffe42bf18b012a275", "type": "electric_scooter", "is_disabled": 0, "fusion_lon": 0.0}, {"rental_uris": {"android": "https://dc.lft.to/lastmile_qr_scan", "ios": "https://dc.lft.to/lastmile_qr_scan"}, "lon": -77.0116645, "name": "4e17a7aad841d10546568b136654ab2f", "lat": 38.91341716666667, "is_reserved": 0, "fusion_lat": 0.0, "bike_id": "4e17a7aad841d10546568b136654ab2f", "type": "electric_scooter", "is_disabled": 0, "fusion_lon": 0.0}, {"rental_uris": {"android": "https://dc.lft.to/lastmile_qr_scan", "ios": "https://dc.lft.to/lastmile_qr_scan"}, "lon": -77.04503983333333, "name": "fd06cc8e357d065fa1445749cfcabc4c", "lat": 38.9111085, "is_reserved": 0, "fusion_lat": 0.0, "bike_id": "fd06cc8e357d065fa1445749cfcabc4c", "type": "electric_scooter", "is_disabled": 0, "fusion_lon": 0.0}, {"rental_uris": {"android": "https://dc.lft.to/lastmile_qr_scan", "ios": "https://dc.lft.to/lastmile_qr_scan"}, "lon": -77.02983366666666, "name": "205bfdb1b014b43abf024bb6e37b90da", "lat": 38.90736316666667, "is_reserved": 0, "fusion_lat": 0.0, "bike_id": "205bfdb1b014b43abf024bb6e37b90da", "type": "electric_scooter", "is_disabled": 0, "fusion_lon": 0.0}, {"rental_uris": {"android": "https://dc.lft.to/lastmile_qr_scan", "ios": "https://dc.lft.to/lastmile_qr_scan"}, "lon": -77.03058066666667, "name": "1889788c326997bb037553c23fdf7a9d", "lat": 38.90249816666667, "is_reserved": 0, "fusion_lat": 0.0, "bike_id": "1889788c326997bb037553c23fdf7a9d", "type": "electric_scooter", "is_disabled": 0, "fusion_lon": 0.0}, {"rental_uris": {"android": "https://dc.lft.to/lastmile_qr_scan", "ios": "https://dc.lft.to/lastmile_qr_scan"}, "lon": -76.96375383333333, "name": "28b556016d4182c78a6b7b0b55f68c58", "lat": 38.94904116666667, "is_reserved": 0, "fusion_lat": 0.0, "bike_id": "28b556016d4182c78a6b7b0b55f68c58", "type": "electric_bike", "is_disabled": 0, "fusion_lon": 0.0}, {"rental_uris": {"android": "https://dc.lft.to/lastmile_qr_scan", "ios": "https://dc.lft.to/lastmile_qr_scan"}, "lon": -77.02685233333334, "name": "ce7f9cfd03afbaa7c02d5c6201b90764", "lat": 38.897546166666665, "is_reserved": 0, "fusion_lat": 0.0, "bike_id": "ce7f9cfd03afbaa7c02d5c6201b90764", "type": "electric_scooter", "is_disabled": 0, "fusion_lon": 0.0}, {"rental_uris": {"android": "https://dc.lft.to/lastmile_qr_scan", "ios": "https://dc.lft.to/lastmile_qr_scan"}, "lon": -77.02376783333334, "name": "014329ab2902f73a0fd53e707eed67ae", "lat": 38.931922666666665, "is_reserved": 0, "fusion_lat": 0.0, "bike_id": "014329ab2902f73a0fd53e707eed67ae", "type": "electric_scooter", "is_disabled": 0, "fusion_lon": 0.0}, {"rental_uris": {"android": "https://dc.lft.to/lastmile_qr_scan", "ios": "https://dc.lft.to/lastmile_qr_scan"}, "lon": -77.013909, "name": "80903bfecd8e8518b5a651e451b4d648", "lat": 38.94229833333333, "is_reserved": 0, "fusion_lat": 0.0, "bike_id": "80903bfecd8e8518b5a651e451b4d648", "type": "electric_scooter", "is_disabled": 0, "fusion_lon": 0.0}, {"rental_uris": {"android": "https://dc.lft.to/lastmile_qr_scan", "ios": "https://dc.lft.to/lastmile_qr_scan"}, "lon": -77.01068066666667, "name": "49eefd1092451b960a15ca184b53ccd4", "lat": 38.920325166666665, "is_reserved": 0, "fusion_lat": 0.0, "bike_id": "49eefd1092451b960a15ca184b53ccd4", "type": "electric_scooter", "is_disabled": 0, "fusion_lon": 0.0}, {"rental_uris": {"android": "https://dc.lft.to/lastmile_qr_scan", "ios": "https://dc.lft.to/lastmile_qr_scan"}, "lon": -76.95418916666667, "name": "2e9d98779830b41508c57d6fd05812d9", "lat": 38.889975166666666, "is_reserved": 0, "fusion_lat": 0.0, "bike_id": "2e9d98779830b41508c57d6fd05812d9", "type": "electric_scooter", "is_disabled": 0, "fusion_lon": 0.0}, {"rental_uris": {"android": "https://dc.lft.to/lastmile_qr_scan", "ios": "https://dc.lft.to/lastmile_qr_scan"}, "lon": -77.046765, "name": "5beef8dea0ab9285da73809bc0ccb495", "lat": 38.895667833333334, "is_reserved": 0, "fusion_lat": 0.0, "bike_id": "5beef8dea0ab9285da73809bc0ccb495", "type": "electric_scooter", "is_disabled": 0, "fusion_lon": 0.0}, {"rental_uris": {"android": "https://dc.lft.to/lastmile_qr_scan", "ios": "https://dc.lft.to/lastmile_qr_scan"}, "lon": -77.02049216666667, "name": "2ca9952db094e423cf886acae5ec364e", "lat": 38.915592, "is_reserved": 0, "fusion_lat": 0.0, "bike_id": "2ca9952db094e423cf886acae5ec364e", "type": "electric_scooter", "is_disabled": 0, "fusion_lon": 0.0}, {"rental_uris": {"android": "https://dc.lft.to/lastmile_qr_scan", "ios": "https://dc.lft.to/lastmile_qr_scan"}, "lon": -76.97666933333333, "name": "9a702a1bff27d2c75fcac561fe479103", "lat": 38.84053883333333, "is_reserved": 0, "fusion_lat": 0.0, "bike_id": "9a702a1bff27d2c75fcac561fe479103", "type": "electric_scooter", "is_disabled": 0, "fusion_lon": 0.0}, {"rental_uris": {"android": "https://dc.lft.to/lastmile_qr_scan", "ios": "https://dc.lft.to/lastmile_qr_scan"}, "lon": -77.014129, "name": "59a1d08126a5333bef02d63e5073d283", "lat": 38.928157666666664, "is_reserved": 0, "fusion_lat": 0.0, "bike_id": "59a1d08126a5333bef02d63e5073d283", "type": "electric_scooter", "is_disabled": 0, "fusion_lon": 0.0}, {"rental_uris": {"android": "https://dc.lft.to/lastmile_qr_scan", "ios": "https://dc.lft.to/lastmile_qr_scan"}, "lon": -77.03967916666667, "name": "a656adc32040662b93ba02247af58675", "lat": 38.9198125, "is_reserved": 0, "fusion_lat": 0.0, "bike_id": "a656adc32040662b93ba02247af58675", "type": "electric_scooter", "is_disabled": 0, "fusion_lon": 0.0}, {"rental_uris": {"android": "https://dc.lft.to/lastmile_qr_scan", "ios": "https://dc.lft.to/lastmile_qr_scan"}, "lon": -77.0052895, "name": "554b23db0aa764d37a82394240754050", "lat": 38.846505, "is_reserved": 0, "fusion_lat": 0.0, "bike_id": "554b23db0aa764d37a82394240754050", "type": "electric_scooter", "is_disabled": 0, "fusion_lon": 0.0}, {"rental_uris": {"android": "https://dc.lft.to/lastmile_qr_scan", "ios": "https://dc.lft.to/lastmile_qr_scan"}, "lon": -76.93181283333334, "name": "6e0349267d1d7b6ad45352605f42e395", "lat": 38.8983185, "is_reserved": 0, "fusion_lat": 0.0, "bike_id": "6e0349267d1d7b6ad45352605f42e395", "type": "electric_scooter", "is_disabled": 0, "fusion_lon": 0.0}, {"rental_uris": {"android": "https://dc.lft.to/lastmile_qr_scan", "ios": "https://dc.lft.to/lastmile_qr_scan"}, "lon": -77.04130616666667, "name": "416af03c2ebbaa839bc11bc1f9e06a23", "lat": 38.9036545, "is_reserved": 0, "fusion_lat": 0.0, "bike_id": "416af03c2ebbaa839bc11bc1f9e06a23", "type": "electric_scooter", "is_disabled": 0, "fusion_lon": 0.0}, {"rental_uris": {"android": "https://dc.lft.to/lastmile_qr_scan", "ios": "https://dc.lft.to/lastmile_qr_scan"}, "lon": -77.031822, "name": "20152a5b865d525a0bc49a5ab7de25f0", "lat": 38.9135315, "is_reserved": 0, "fusion_lat": 0.0, "bike_id": "20152a5b865d525a0bc49a5ab7de25f0", "type": "electric_scooter", "is_disabled": 0, "fusion_lon": 0.0}, {"rental_uris": {"android": "https://dc.lft.to/lastmile_qr_scan", "ios": "https://dc.lft.to/lastmile_qr_scan"}, "lon": -77.00253333333333, "name": "f0ca1550d37427149fd93de157c10734", "lat": 38.894984666666666, "is_reserved": 0, "fusion_lat": 0.0, "bike_id": "f0ca1550d37427149fd93de157c10734", "type": "electric_scooter", "is_disabled": 0, "fusion_lon": 0.0}, {"rental_uris": {"android": "https://dc.lft.to/lastmile_qr_scan", "ios": "https://dc.lft.to/lastmile_qr_scan"}, "lon": -77.046274, "name": "a11e602db71f9543fa0af8b1c847b627", "lat": 38.897412333333335, "is_reserved": 0, "fusion_lat": 0.0, "bike_id": "a11e602db71f9543fa0af8b1c847b627", "type": "electric_scooter", "is_disabled": 0, "fusion_lon": 0.0}, {"rental_uris": {"android": "https://dc.lft.to/lastmile_qr_scan", "ios": "https://dc.lft.to/lastmile_qr_scan"}, "lon": -77.021691, "name": "d7a42f5901071ba68f65b635d7795a91", "lat": 38.9200125, "is_reserved": 0, "fusion_lat": 0.0, "bike_id": "d7a42f5901071ba68f65b635d7795a91", "type": "electric_scooter", "is_disabled": 0, "fusion_lon": 0.0}, {"rental_uris": {"android": "https://dc.lft.to/lastmile_qr_scan", "ios": "https://dc.lft.to/lastmile_qr_scan"}, "lon": -77.03265433333333, "name": "c90b2ebf2c436e5b0fda8a4b1cb28b6b", "lat": 38.939839, "is_reserved": 0, "fusion_lat": 0.0, "bike_id": "c90b2ebf2c436e5b0fda8a4b1cb28b6b", "type": "electric_scooter", "is_disabled": 0, "fusion_lon": 0.0}, {"rental_uris": {"android": "https://dc.lft.to/lastmile_qr_scan", "ios": "https://dc.lft.to/lastmile_qr_scan"}, "lon": -77.01979416666667, "name": "48c8f83fdfe5fcbf72c314beeb2123d5", "lat": 38.96383866666667, "is_reserved": 0, "fusion_lat": 0.0, "bike_id": "48c8f83fdfe5fcbf72c314beeb2123d5", "type": "electric_bike", "is_disabled": 0, "fusion_lon": 0.0}, {"rental_uris": {"android": "https://dc.lft.to/lastmile_qr_scan", "ios": "https://dc.lft.to/lastmile_qr_scan"}, "lon": -77.0161775, "name": "d9e73f20b1ff64303dba412f4e41cf63", "lat": 38.95638916666667, "is_reserved": 0, "fusion_lat": 0.0, "bike_id": "d9e73f20b1ff64303dba412f4e41cf63", "type": "electric_scooter", "is_disabled": 0, "fusion_lon": 0.0}, {"rental_uris": {"android": "https://dc.lft.to/lastmile_qr_scan", "ios": "https://dc.lft.to/lastmile_qr_scan"}, "lon": -77.05110483333333, "name": "864ca77150215a8c28123fcb04ca6ceb", "lat": 38.8133565, "is_reserved": 0, "fusion_lat": 0.0, "bike_id": "864ca77150215a8c28123fcb04ca6ceb", "type": "electric_bike", "is_disabled": 0, "fusion_lon": 0.0}, {"rental_uris": {"android": "https://dc.lft.to/lastmile_qr_scan", "ios": "https://dc.lft.to/lastmile_qr_scan"}, "lon": -77.01463433333333, "name": "910c6d3f0017cb6875ea69e9fbce64f2", "lat": 38.8793565, "is_reserved": 0, "fusion_lat": 0.0, "bike_id": "910c6d3f0017cb6875ea69e9fbce64f2", "type": "electric_scooter", "is_disabled": 0, "fusion_lon": 0.0}, {"rental_uris": {"android": "https://dc.lft.to/lastmile_qr_scan", "ios": "https://dc.lft.to/lastmile_qr_scan"}, "lon": -77.00934016666666, "name": "368a1658e12ccf24900cc404d1ea810f", "lat": 38.876220833333335, "is_reserved": 0, "fusion_lat": 0.0, "bike_id": "368a1658e12ccf24900cc404d1ea810f", "type": "electric_scooter", "is_disabled": 0, "fusion_lon": 0.0}, {"rental_uris": {"android": "https://dc.lft.to/lastmile_qr_scan", "ios": "https://dc.lft.to/lastmile_qr_scan"}, "lon": -77.02280783333333, "name": "5e833957be9b1df1f2fb27090fee9b26", "lat": 38.916578666666666, "is_reserved": 0, "fusion_lat": 0.0, "bike_id": "5e833957be9b1df1f2fb27090fee9b26", "type": "electric_scooter", "is_disabled": 0, "fusion_lon": 0.0}, {"rental_uris": {"android": "https://dc.lft.to/lastmile_qr_scan", "ios": "https://dc.lft.to/lastmile_qr_scan"}, "lon": -77.04444383333333, "name": "45b01a40b56b44d6513a263a8200eb32", "lat": 38.9125885, "is_reserved": 0, "fusion_lat": 0.0, "bike_id": "45b01a40b56b44d6513a263a8200eb32", "type": "electric_scooter", "is_disabled": 0, "fusion_lon": 0.0}, {"rental_uris": {"android": "https://dc.lft.to/lastmile_qr_scan", "ios": "https://dc.lft.to/lastmile_qr_scan"}, "lon": -77.02283733333333, "name": "7dddc7c01671ed333cef2d887d4efd55", "lat": 38.9170895, "is_reserved": 0, "fusion_lat": 0.0, "bike_id": "7dddc7c01671ed333cef2d887d4efd55", "type": "electric_scooter", "is_disabled": 0, "fusion_lon": 0.0}, {"rental_uris": {"android": "https://dc.lft.to/lastmile_qr_scan", "ios": "https://dc.lft.to/lastmile_qr_scan"}, "lon": -77.02301616666666, "name": "720a4992d487b8047008ad5e4be25c00", "lat": 38.89509616666667, "is_reserved": 0, "fusion_lat": 0.0, "bike_id": "720a4992d487b8047008ad5e4be25c00", "type": "electric_scooter", "is_disabled": 0, "fusion_lon": 0.0}, {"rental_uris": {"android": "https://dc.lft.to/lastmile_qr_scan", "ios": "https://dc.lft.to/lastmile_qr_scan"}, "lon": -76.96902333333334, "name": "67fada335d6d74fc18042888c556ea5a", "lat": 38.873112, "is_reserved": 0, "fusion_lat": 0.0, "bike_id": "67fada335d6d74fc18042888c556ea5a", "type": "electric_scooter", "is_disabled": 0, "fusion_lon": 0.0}, {"rental_uris": {"android": "https://dc.lft.to/lastmile_qr_scan", "ios": "https://dc.lft.to/lastmile_qr_scan"}, "lon": -77.025242, "name": "07d03d57917b22f629dd250d0fbe87e8", "lat": 38.92080083333333, "is_reserved": 0, "fusion_lat": 0.0, "bike_id": "07d03d57917b22f629dd250d0fbe87e8", "type": "electric_scooter", "is_disabled": 0, "fusion_lon": 0.0}, {"rental_uris": {"android": "https://dc.lft.to/lastmile_qr_scan", "ios": "https://dc.lft.to/lastmile_qr_scan"}, "lon": -77.01860516666666, "name": "bafcb8e1cf53bc458d572f642615ea3e", "lat": 38.898858, "is_reserved": 0, "fusion_lat": 0.0, "bike_id": "bafcb8e1cf53bc458d572f642615ea3e", "type": "electric_scooter", "is_disabled": 0, "fusion_lon": 0.0}, {"rental_uris": {"android": "https://dc.lft.to/lastmile_qr_scan", "ios": "https://dc.lft.to/lastmile_qr_scan"}, "lon": -76.9763305, "name": "14883a6277a0cc50d090bea50e5c7ca0", "lat": 38.90163033333333, "is_reserved": 0, "fusion_lat": 0.0, "bike_id": "14883a6277a0cc50d090bea50e5c7ca0", "type": "electric_scooter", "is_disabled": 0, "fusion_lon": 0.0}, {"rental_uris": {"android": "https://dc.lft.to/lastmile_qr_scan", "ios": "https://dc.lft.to/lastmile_qr_scan"}, "lon": -77.0227835, "name": "ce6f172f07ac50139c9d525c650c0326", "lat": 38.916566333333336, "is_reserved": 0, "fusion_lat": 0.0, "bike_id": "ce6f172f07ac50139c9d525c650c0326", "type": "electric_scooter", "is_disabled": 0, "fusion_lon": 0.0}, {"rental_uris": {"android": "https://dc.lft.to/lastmile_qr_scan", "ios": "https://dc.lft.to/lastmile_qr_scan"}, "lon": -77.0466065, "name": "ea0968014739dd0286c8c807e4ad93d8", "lat": 38.9030235, "is_reserved": 0, "fusion_lat": 0.0, "bike_id": "ea0968014739dd0286c8c807e4ad93d8", "type": "electric_scooter", "is_disabled": 0, "fusion_lon": 0.0}, {"rental_uris": {"android": "https://dc.lft.to/lastmile_qr_scan", "ios": "https://dc.lft.to/lastmile_qr_scan"}, "lon": -77.01219666666667, "name": "4ca70698eb36b364441c046664852920", "lat": 38.9134515, "is_reserved": 0, "fusion_lat": 0.0, "bike_id": "4ca70698eb36b364441c046664852920", "type": "electric_scooter", "is_disabled": 0, "fusion_lon": 0.0}, {"rental_uris": {"android": "https://dc.lft.to/lastmile_qr_scan", "ios": "https://dc.lft.to/lastmile_qr_scan"}, "lon": -77.0031865, "name": "8dab6cd81c0da396ae23b35b9f7dd268", "lat": 38.877306833333336, "is_reserved": 0, "fusion_lat": 0.0, "bike_id": "8dab6cd81c0da396ae23b35b9f7dd268", "type": "electric_scooter", "is_disabled": 0, "fusion_lon": 0.0}, {"rental_uris": {"android": "https://dc.lft.to/lastmile_qr_scan", "ios": "https://dc.lft.to/lastmile_qr_scan"}, "lon": -77.044771, "name": "9a254a165f4f48535e91397983068b89", "lat": 38.918799166666666, "is_reserved": 0, "fusion_lat": 0.0, "bike_id": "9a254a165f4f48535e91397983068b89", "type": "electric_scooter", "is_disabled": 0, "fusion_lon": 0.0}, {"rental_uris": {"android": "https://dc.lft.to/lastmile_qr_scan", "ios": "https://dc.lft.to/lastmile_qr_scan"}, "lon": -76.96261116666666, "name": "4b8337398a5a53c3fc5c78ebcdd9cb15", "lat": 38.882470833333336, "is_reserved": 0, "fusion_lat": 0.0, "bike_id": "4b8337398a5a53c3fc5c78ebcdd9cb15", "type": "electric_bike", "is_disabled": 0, "fusion_lon": 0.0}, {"rental_uris": {"android": "https://dc.lft.to/lastmile_qr_scan", "ios": "https://dc.lft.to/lastmile_qr_scan"}, "lon": -77.0602735, "name": "ac4111f19db495a0edd26964aa421061", "lat": 38.978806, "is_reserved": 0, "fusion_lat": 0.0, "bike_id": "ac4111f19db495a0edd26964aa421061", "type": "electric_bike", "is_disabled": 0, "fusion_lon": 0.0}, {"rental_uris": {"android": "https://dc.lft.to/lastmile_qr_scan", "ios": "https://dc.lft.to/lastmile_qr_scan"}, "lon": -77.0344095, "name": "9f51377427b6cc3a355337bae0b649a4", "lat": 38.9204725, "is_reserved": 0, "fusion_lat": 0.0, "bike_id": "9f51377427b6cc3a355337bae0b649a4", "type": "electric_scooter", "is_disabled": 0, "fusion_lon": 0.0}, {"rental_uris": {"android": "https://dc.lft.to/lastmile_qr_scan", "ios": "https://dc.lft.to/lastmile_qr_scan"}, "lon": -77.0074295, "name": "6259d89a76ec02c3f31ce46fbd8a9a77", "lat": 38.897716333333335, "is_reserved": 0, "fusion_lat": 0.0, "bike_id": "6259d89a76ec02c3f31ce46fbd8a9a77", "type": "electric_scooter", "is_disabled": 0, "fusion_lon": 0.0}, {"rental_uris": {"android": "https://dc.lft.to/lastmile_qr_scan", "ios": "https://dc.lft.to/lastmile_qr_scan"}, "lon": -77.0344765, "name": "0f2065c6882fbfe9417ea062101d0b44", "lat": 38.907172833333334, "is_reserved": 0, "fusion_lat": 0.0, "bike_id": "0f2065c6882fbfe9417ea062101d0b44", "type": "electric_scooter", "is_disabled": 0, "fusion_lon": 0.0}, {"rental_uris": {"android": "https://dc.lft.to/lastmile_qr_scan", "ios": "https://dc.lft.to/lastmile_qr_scan"}, "lon": -77.05033416666667, "name": "e16a52c8ad79edfa7bd861581f0f67a4", "lat": 38.8965645, "is_reserved": 0, "fusion_lat": 0.0, "bike_id": "e16a52c8ad79edfa7bd861581f0f67a4", "type": "electric_scooter", "is_disabled": 0, "fusion_lon": 0.0}, {"rental_uris": {"android": "https://dc.lft.to/lastmile_qr_scan", "ios": "https://dc.lft.to/lastmile_qr_scan"}, "lon": -77.035191, "name": "c82a40e7a1c60f51495a733a32c7118b", "lat": 38.91840883333333, "is_reserved": 0, "fusion_lat": 0.0, "bike_id": "c82a40e7a1c60f51495a733a32c7118b", "type": "electric_scooter", "is_disabled": 0, "fusion_lon": 0.0}, {"rental_uris": {"android": "https://dc.lft.to/lastmile_qr_scan", "ios": "https://dc.lft.to/lastmile_qr_scan"}, "lon": -76.99406766666667, "name": "1fcb75351ff949f16e929db90b88153e", "lat": 38.877822, "is_reserved": 0, "fusion_lat": 0.0, "bike_id": "1fcb75351ff949f16e929db90b88153e", "type": "electric_scooter", "is_disabled": 0, "fusion_lon": 0.0}, {"rental_uris": {"android": "https://dc.lft.to/lastmile_qr_scan", "ios": "https://dc.lft.to/lastmile_qr_scan"}, "lon": -77.00181216666667, "name": "ec9504a2d4e01e49a61dee1130456477", "lat": 38.906925333333334, "is_reserved": 0, "fusion_lat": 0.0, "bike_id": "ec9504a2d4e01e49a61dee1130456477", "type": "electric_scooter", "is_disabled": 0, "fusion_lon": 0.0}, {"rental_uris": {"android": "https://dc.lft.to/lastmile_qr_scan", "ios": "https://dc.lft.to/lastmile_qr_scan"}, "lon": -77.02898166666667, "name": "3bb32a22d92f1f1be783ef1dc11626ba", "lat": 38.92321233333333, "is_reserved": 0, "fusion_lat": 0.0, "bike_id": "3bb32a22d92f1f1be783ef1dc11626ba", "type": "electric_scooter", "is_disabled": 0, "fusion_lon": 0.0}, {"rental_uris": {"android": "https://dc.lft.to/lastmile_qr_scan", "ios": "https://dc.lft.to/lastmile_qr_scan"}, "lon": -77.03356233333334, "name": "0f834ba8bb5d99ee753f2910e63d9d6a", "lat": 38.925376, "is_reserved": 0, "fusion_lat": 0.0, "bike_id": "0f834ba8bb5d99ee753f2910e63d9d6a", "type": "electric_scooter", "is_disabled": 0, "fusion_lon": 0.0}, {"rental_uris": {"android": "https://dc.lft.to/lastmile_qr_scan", "ios": "https://dc.lft.to/lastmile_qr_scan"}, "lon": -76.97329816666667, "name": "69641db5fc7a3cf23b3ded6640b9d213", "lat": 38.90409183333333, "is_reserved": 0, "fusion_lat": 0.0, "bike_id": "69641db5fc7a3cf23b3ded6640b9d213", "type": "electric_scooter", "is_disabled": 0, "fusion_lon": 0.0}, {"rental_uris": {"android": "https://dc.lft.to/lastmile_qr_scan", "ios": "https://dc.lft.to/lastmile_qr_scan"}, "lon": -77.03860166666666, "name": "1652a7f461b4d2a548752adc7480b431", "lat": 38.915459, "is_reserved": 0, "fusion_lat": 0.0, "bike_id": "1652a7f461b4d2a548752adc7480b431", "type": "electric_scooter", "is_disabled": 0, "fusion_lon": 0.0}, {"rental_uris": {"android": "https://dc.lft.to/lastmile_qr_scan", "ios": "https://dc.lft.to/lastmile_qr_scan"}, "lon": -77.028252, "name": "106f3b5598da1bd2341494c1c3c4afd5", "lat": 38.899142166666664, "is_reserved": 0, "fusion_lat": 0.0, "bike_id": "106f3b5598da1bd2341494c1c3c4afd5", "type": "electric_scooter", "is_disabled": 0, "fusion_lon": 0.0}, {"rental_uris": {"android": "https://dc.lft.to/lastmile_qr_scan", "ios": "https://dc.lft.to/lastmile_qr_scan"}, "lon": -77.02978783333333, "name": "86270e36af98698b634bfd29524252cf", "lat": 38.90507233333334, "is_reserved": 0, "fusion_lat": 0.0, "bike_id": "86270e36af98698b634bfd29524252cf", "type": "electric_scooter", "is_disabled": 0, "fusion_lon": 0.0}, {"rental_uris": {"android": "https://dc.lft.to/lastmile_qr_scan", "ios": "https://dc.lft.to/lastmile_qr_scan"}, "lon": -77.01687, "name": "e1f70b49096c176850bfacde90629d6a", "lat": 38.9205475, "is_reserved": 0, "fusion_lat": 0.0, "bike_id": "e1f70b49096c176850bfacde90629d6a", "type": "electric_scooter", "is_disabled": 0, "fusion_lon": 0.0}, {"rental_uris": {"android": "https://dc.lft.to/lastmile_qr_scan", "ios": "https://dc.lft.to/lastmile_qr_scan"}, "lon": -77.05745216666666, "name": "0777d3f082d37ff0bad3edfd7c15906c", "lat": 38.93401983333333, "is_reserved": 0, "fusion_lat": 0.0, "bike_id": "0777d3f082d37ff0bad3edfd7c15906c", "type": "electric_scooter", "is_disabled": 0, "fusion_lon": 0.0}, {"rental_uris": {"android": "https://dc.lft.to/lastmile_qr_scan", "ios": "https://dc.lft.to/lastmile_qr_scan"}, "lon": -77.027982, "name": "35e657154ee0b7e49550d68c0f34adeb", "lat": 38.9175675, "is_reserved": 0, "fusion_lat": 0.0, "bike_id": "35e657154ee0b7e49550d68c0f34adeb", "type": "electric_scooter", "is_disabled": 0, "fusion_lon": 0.0}, {"rental_uris": {"android": "https://dc.lft.to/lastmile_qr_scan", "ios": "https://dc.lft.to/lastmile_qr_scan"}, "lon": -77.00110966666666, "name": "dca2f6e736b1f85ccd50c75bbbc26525", "lat": 38.873766833333335, "is_reserved": 0, "fusion_lat": 0.0, "bike_id": "dca2f6e736b1f85ccd50c75bbbc26525", "type": "electric_scooter", "is_disabled": 0, "fusion_lon": 0.0}, {"rental_uris": {"android": "https://dc.lft.to/lastmile_qr_scan", "ios": "https://dc.lft.to/lastmile_qr_scan"}, "lon": -77.035229, "name": "5d4df1b5999802978779efe053d59f3a", "lat": 38.9253875, "is_reserved": 0, "fusion_lat": 0.0, "bike_id": "5d4df1b5999802978779efe053d59f3a", "type": "electric_scooter", "is_disabled": 0, "fusion_lon": 0.0}, {"rental_uris": {"android": "https://dc.lft.to/lastmile_qr_scan", "ios": "https://dc.lft.to/lastmile_qr_scan"}, "lon": -77.0318535, "name": "589ef58cf7dbfc6e048bff689aa64fb8", "lat": 38.909764, "is_reserved": 0, "fusion_lat": 0.0, "bike_id": "589ef58cf7dbfc6e048bff689aa64fb8", "type": "electric_scooter", "is_disabled": 0, "fusion_lon": 0.0}, {"rental_uris": {"android": "https://dc.lft.to/lastmile_qr_scan", "ios": "https://dc.lft.to/lastmile_qr_scan"}, "lon": -77.02329766666666, "name": "194e4ce121a4acb5ded00ce9cd66bce8", "lat": 38.91416733333333, "is_reserved": 0, "fusion_lat": 0.0, "bike_id": "194e4ce121a4acb5ded00ce9cd66bce8", "type": "electric_scooter", "is_disabled": 0, "fusion_lon": 0.0}, {"rental_uris": {"android": "https://dc.lft.to/lastmile_qr_scan", "ios": "https://dc.lft.to/lastmile_qr_scan"}, "lon": -77.061082, "name": "ab40d8081969c05bc2ece0db82f049c5", "lat": 38.943715166666664, "is_reserved": 0, "fusion_lat": 0.0, "bike_id": "ab40d8081969c05bc2ece0db82f049c5", "type": "electric_scooter", "is_disabled": 0, "fusion_lon": 0.0}, {"rental_uris": {"android": "https://dc.lft.to/lastmile_qr_scan", "ios": "https://dc.lft.to/lastmile_qr_scan"}, "lon": -77.04659666666667, "name": "afe42eca925875b2e53b98746c9dd1c1", "lat": 38.89965183333333, "is_reserved": 0, "fusion_lat": 0.0, "bike_id": "afe42eca925875b2e53b98746c9dd1c1", "type": "electric_scooter", "is_disabled": 0, "fusion_lon": 0.0}, {"rental_uris": {"android": "https://dc.lft.to/lastmile_qr_scan", "ios": "https://dc.lft.to/lastmile_qr_scan"}, "lon": -77.0086835, "name": "8778971d3ba884c1b421744ad0101af9", "lat": 38.96462866666667, "is_reserved": 0, "fusion_lat": 0.0, "bike_id": "8778971d3ba884c1b421744ad0101af9", "type": "electric_bike", "is_disabled": 0, "fusion_lon": 0.0}, {"rental_uris": {"android": "https://dc.lft.to/lastmile_qr_scan", "ios": "https://dc.lft.to/lastmile_qr_scan"}, "lon": -77.02158583333333, "name": "153d582d696cfa70919d59d8a13b7067", "lat": 38.92461733333333, "is_reserved": 0, "fusion_lat": 0.0, "bike_id": "153d582d696cfa70919d59d8a13b7067", "type": "electric_scooter", "is_disabled": 0, "fusion_lon": 0.0}, {"rental_uris": {"android": "https://dc.lft.to/lastmile_qr_scan", "ios": "https://dc.lft.to/lastmile_qr_scan"}, "lon": -76.946545, "name": "8e2bfa4bcf4a28b66871c52ba2b01c31", "lat": 38.89826566666667, "is_reserved": 0, "fusion_lat": 0.0, "bike_id": "8e2bfa4bcf4a28b66871c52ba2b01c31", "type": "electric_scooter", "is_disabled": 0, "fusion_lon": 0.0}, {"rental_uris": {"android": "https://dc.lft.to/lastmile_qr_scan", "ios": "https://dc.lft.to/lastmile_qr_scan"}, "lon": -77.03252083333334, "name": "d8a62846631c195337e49f02af7c8780", "lat": 38.928162666666665, "is_reserved": 0, "fusion_lat": 0.0, "bike_id": "d8a62846631c195337e49f02af7c8780", "type": "electric_scooter", "is_disabled": 0, "fusion_lon": 0.0}, {"rental_uris": {"android": "https://dc.lft.to/lastmile_qr_scan", "ios": "https://dc.lft.to/lastmile_qr_scan"}, "lon": -77.028369, "name": "047611c74fa730d9cc25052949f2e9a9", "lat": 38.93188083333333, "is_reserved": 0, "fusion_lat": 0.0, "bike_id": "047611c74fa730d9cc25052949f2e9a9", "type": "electric_scooter", "is_disabled": 0, "fusion_lon": 0.0}, {"rental_uris": {"android": "https://dc.lft.to/lastmile_qr_scan", "ios": "https://dc.lft.to/lastmile_qr_scan"}, "lon": -77.02000783333334, "name": "50f45739eb25a01e345d0170eac82520", "lat": 38.91360533333334, "is_reserved": 0, "fusion_lat": 0.0, "bike_id": "50f45739eb25a01e345d0170eac82520", "type": "electric_scooter", "is_disabled": 0, "fusion_lon": 0.0}, {"rental_uris": {"android": "https://dc.lft.to/lastmile_qr_scan", "ios": "https://dc.lft.to/lastmile_qr_scan"}, "lon": -76.957555, "name": "dcada8dc3f07c41f57685d8f0d03a91e", "lat": 38.884288, "is_reserved": 0, "fusion_lat": 0.0, "bike_id": "dcada8dc3f07c41f57685d8f0d03a91e", "type": "electric_scooter", "is_disabled": 0, "fusion_lon": 0.0}, {"rental_uris": {"android": "https://dc.lft.to/lastmile_qr_scan", "ios": "https://dc.lft.to/lastmile_qr_scan"}, "lon": -77.0354765, "name": "1e97ea4cce8c81dca87b199ce4948faa", "lat": 38.92474633333333, "is_reserved": 0, "fusion_lat": 0.0, "bike_id": "1e97ea4cce8c81dca87b199ce4948faa", "type": "electric_scooter", "is_disabled": 0, "fusion_lon": 0.0}, {"rental_uris": {"android": "https://dc.lft.to/lastmile_qr_scan", "ios": "https://dc.lft.to/lastmile_qr_scan"}, "lon": -77.03189666666667, "name": "21496b1ce7bf83a5eb27b3b738ad64d7", "lat": 38.90977866666667, "is_reserved": 0, "fusion_lat": 0.0, "bike_id": "21496b1ce7bf83a5eb27b3b738ad64d7", "type": "electric_scooter", "is_disabled": 0, "fusion_lon": 0.0}, {"rental_uris": {"android": "https://dc.lft.to/lastmile_qr_scan", "ios": "https://dc.lft.to/lastmile_qr_scan"}, "lon": -77.02476783333333, "name": "368048e5d3fddb6ac1264dde096ee21c", "lat": 38.93099933333333, "is_reserved": 0, "fusion_lat": 0.0, "bike_id": "368048e5d3fddb6ac1264dde096ee21c", "type": "electric_scooter", "is_disabled": 0, "fusion_lon": 0.0}, {"rental_uris": {"android": "https://dc.lft.to/lastmile_qr_scan", "ios": "https://dc.lft.to/lastmile_qr_scan"}, "lon": -77.019562, "name": "22f8bd67219eb180e77185e440347e37", "lat": 38.902437666666664, "is_reserved": 0, "fusion_lat": 0.0, "bike_id": "22f8bd67219eb180e77185e440347e37", "type": "electric_scooter", "is_disabled": 0, "fusion_lon": 0.0}, {"rental_uris": {"android": "https://dc.lft.to/lastmile_qr_scan", "ios": "https://dc.lft.to/lastmile_qr_scan"}, "lon": -77.01973366666667, "name": "ad627f47e62a0a0c8773f25ed1d579dd", "lat": 38.898898333333335, "is_reserved": 0, "fusion_lat": 0.0, "bike_id": "ad627f47e62a0a0c8773f25ed1d579dd", "type": "electric_scooter", "is_disabled": 0, "fusion_lon": 0.0}, {"rental_uris": {"android": "https://dc.lft.to/lastmile_qr_scan", "ios": "https://dc.lft.to/lastmile_qr_scan"}, "lon": -77.0058305, "name": "61f275e005730eb7f26307a11151d5b0", "lat": 38.929389, "is_reserved": 0, "fusion_lat": 0.0, "bike_id": "61f275e005730eb7f26307a11151d5b0", "type": "electric_scooter", "is_disabled": 0, "fusion_lon": 0.0}, {"rental_uris": {"android": "https://dc.lft.to/lastmile_qr_scan", "ios": "https://dc.lft.to/lastmile_qr_scan"}, "lon": -77.02557016666667, "name": "0fc68409e78c2e2d49a9d0107ad4b73a", "lat": 38.92396566666667, "is_reserved": 0, "fusion_lat": 0.0, "bike_id": "0fc68409e78c2e2d49a9d0107ad4b73a", "type": "electric_scooter", "is_disabled": 0, "fusion_lon": 0.0}, {"rental_uris": {"android": "https://dc.lft.to/lastmile_qr_scan", "ios": "https://dc.lft.to/lastmile_qr_scan"}, "lon": -77.04394283333333, "name": "37241e3c530d1a5d62c9f0b32c1cdc34", "lat": 38.8974225, "is_reserved": 0, "fusion_lat": 0.0, "bike_id": "37241e3c530d1a5d62c9f0b32c1cdc34", "type": "electric_scooter", "is_disabled": 0, "fusion_lon": 0.0}, {"rental_uris": {"android": "https://dc.lft.to/lastmile_qr_scan", "ios": "https://dc.lft.to/lastmile_qr_scan"}, "lon": -77.03640866666667, "name": "acf67fab4e193d636d9a38999dc8cbcc", "lat": 38.91650333333333, "is_reserved": 0, "fusion_lat": 0.0, "bike_id": "acf67fab4e193d636d9a38999dc8cbcc", "type": "electric_scooter", "is_disabled": 0, "fusion_lon": 0.0}, {"rental_uris": {"android": "https://dc.lft.to/lastmile_qr_scan", "ios": "https://dc.lft.to/lastmile_qr_scan"}, "lon": -77.01023883333333, "name": "ee517a60b9fe52e3b8a43d8342032c09", "lat": 38.908534, "is_reserved": 0, "fusion_lat": 0.0, "bike_id": "ee517a60b9fe52e3b8a43d8342032c09", "type": "electric_scooter", "is_disabled": 0, "fusion_lon": 0.0}, {"rental_uris": {"android": "https://dc.lft.to/lastmile_qr_scan", "ios": "https://dc.lft.to/lastmile_qr_scan"}, "lon": -77.024158, "name": "194f04b1f0b3ef9e6ca0abd888e80797", "lat": 38.89680083333333, "is_reserved": 0, "fusion_lat": 0.0, "bike_id": "194f04b1f0b3ef9e6ca0abd888e80797", "type": "electric_bike", "is_disabled": 0, "fusion_lon": 0.0}, {"rental_uris": {"android": "https://dc.lft.to/lastmile_qr_scan", "ios": "https://dc.lft.to/lastmile_qr_scan"}, "lon": -77.02508216666666, "name": "8ffbb14642eaca0e4b6755bf1ac936c1", "lat": 38.918118, "is_reserved": 0, "fusion_lat": 0.0, "bike_id": "8ffbb14642eaca0e4b6755bf1ac936c1", "type": "electric_scooter", "is_disabled": 0, "fusion_lon": 0.0}, {"rental_uris": {"android": "https://dc.lft.to/lastmile_qr_scan", "ios": "https://dc.lft.to/lastmile_qr_scan"}, "lon": -77.0163555, "name": "4d80b3825c8f46c6a0063cbdb9a29dff", "lat": 38.90376166666667, "is_reserved": 0, "fusion_lat": 0.0, "bike_id": "4d80b3825c8f46c6a0063cbdb9a29dff", "type": "electric_scooter", "is_disabled": 0, "fusion_lon": 0.0}, {"rental_uris": {"android": "https://dc.lft.to/lastmile_qr_scan", "ios": "https://dc.lft.to/lastmile_qr_scan"}, "lon": -77.02429266666667, "name": "41258efe930c6bdd425544094a1d2d37", "lat": 38.920368, "is_reserved": 0, "fusion_lat": 0.0, "bike_id": "41258efe930c6bdd425544094a1d2d37", "type": "electric_scooter", "is_disabled": 0, "fusion_lon": 0.0}, {"rental_uris": {"android": "https://dc.lft.to/lastmile_qr_scan", "ios": "https://dc.lft.to/lastmile_qr_scan"}, "lon": -76.90420966666667, "name": "b97046f519b9e6733793e6c9c5ca9119", "lat": 38.940577833333336, "is_reserved": 0, "fusion_lat": 0.0, "bike_id": "b97046f519b9e6733793e6c9c5ca9119", "type": "electric_bike", "is_disabled": 0, "fusion_lon": 0.0}, {"rental_uris": {"android": "https://dc.lft.to/lastmile_qr_scan", "ios": "https://dc.lft.to/lastmile_qr_scan"}, "lon": -77.03835266666667, "name": "a16c71cf6e4e13834327f08d3a4234de", "lat": 38.903247, "is_reserved": 0, "fusion_lat": 0.0, "bike_id": "a16c71cf6e4e13834327f08d3a4234de", "type": "electric_scooter", "is_disabled": 0, "fusion_lon": 0.0}, {"rental_uris": {"android": "https://dc.lft.to/lastmile_qr_scan", "ios": "https://dc.lft.to/lastmile_qr_scan"}, "lon": -77.039551, "name": "c5b574af660b71b78202de149981b872", "lat": 38.892427166666664, "is_reserved": 0, "fusion_lat": 0.0, "bike_id": "c5b574af660b71b78202de149981b872", "type": "electric_scooter", "is_disabled": 0, "fusion_lon": 0.0}, {"rental_uris": {"android": "https://dc.lft.to/lastmile_qr_scan", "ios": "https://dc.lft.to/lastmile_qr_scan"}, "lon": -77.04529883333333, "name": "21545a05056ab83801bddf1a1c1671a2", "lat": 38.89470416666666, "is_reserved": 0, "fusion_lat": 0.0, "bike_id": "21545a05056ab83801bddf1a1c1671a2", "type": "electric_scooter", "is_disabled": 0, "fusion_lon": 0.0}, {"rental_uris": {"android": "https://dc.lft.to/lastmile_qr_scan", "ios": "https://dc.lft.to/lastmile_qr_scan"}, "lon": -77.04588266666667, "name": "f4a0c8716582b68074c3617319d8bb85", "lat": 38.921478, "is_reserved": 0, "fusion_lat": 0.0, "bike_id": "f4a0c8716582b68074c3617319d8bb85", "type": "electric_scooter", "is_disabled": 0, "fusion_lon": 0.0}, {"rental_uris": {"android": "https://dc.lft.to/lastmile_qr_scan", "ios": "https://dc.lft.to/lastmile_qr_scan"}, "lon": -77.04080483333334, "name": "485594354d2b499203a4c58b08768161", "lat": 38.9148785, "is_reserved": 0, "fusion_lat": 0.0, "bike_id": "485594354d2b499203a4c58b08768161", "type": "electric_scooter", "is_disabled": 0, "fusion_lon": 0.0}, {"rental_uris": {"android": "https://dc.lft.to/lastmile_qr_scan", "ios": "https://dc.lft.to/lastmile_qr_scan"}, "lon": -77.02411533333333, "name": "fb4e2e07a9a47ed360f3306ae4117b7a", "lat": 38.8922315, "is_reserved": 0, "fusion_lat": 0.0, "bike_id": "fb4e2e07a9a47ed360f3306ae4117b7a", "type": "electric_scooter", "is_disabled": 0, "fusion_lon": 0.0}, {"rental_uris": {"android": "https://dc.lft.to/lastmile_qr_scan", "ios": "https://dc.lft.to/lastmile_qr_scan"}, "lon": -77.03668016666667, "name": "e289233fd336f523f1867b9853384d9e", "lat": 38.93915166666667, "is_reserved": 0, "fusion_lat": 0.0, "bike_id": "e289233fd336f523f1867b9853384d9e", "type": "electric_scooter", "is_disabled": 0, "fusion_lon": 0.0}, {"rental_uris": {"android": "https://dc.lft.to/lastmile_qr_scan", "ios": "https://dc.lft.to/lastmile_qr_scan"}, "lon": -77.02280766666667, "name": "af8ffd3573d066b3e7a0be7ca6568a97", "lat": 38.92713083333334, "is_reserved": 0, "fusion_lat": 0.0, "bike_id": "af8ffd3573d066b3e7a0be7ca6568a97", "type": "electric_scooter", "is_disabled": 0, "fusion_lon": 0.0}, {"rental_uris": {"android": "https://dc.lft.to/lastmile_qr_scan", "ios": "https://dc.lft.to/lastmile_qr_scan"}, "lon": -77.017184, "name": "c3b0af5a2670e4d204a959b297484ab2", "lat": 38.87938783333333, "is_reserved": 0, "fusion_lat": 0.0, "bike_id": "c3b0af5a2670e4d204a959b297484ab2", "type": "electric_scooter", "is_disabled": 0, "fusion_lon": 0.0}, {"rental_uris": {"android": "https://dc.lft.to/lastmile_qr_scan", "ios": "https://dc.lft.to/lastmile_qr_scan"}, "lon": -77.201446, "name": "67ae5e3cf27672c5c4da30f7cece0c93", "lat": 38.922204666666666, "is_reserved": 0, "fusion_lat": 0.0, "bike_id": "67ae5e3cf27672c5c4da30f7cece0c93", "type": "electric_bike", "is_disabled": 0, "fusion_lon": 0.0}, {"rental_uris": {"android": "https://dc.lft.to/lastmile_qr_scan", "ios": "https://dc.lft.to/lastmile_qr_scan"}, "lon": -77.05261566666667, "name": "bce90d140a6afa1f98aab400c61e70e9", "lat": 38.92353633333333, "is_reserved": 0, "fusion_lat": 0.0, "bike_id": "bce90d140a6afa1f98aab400c61e70e9", "type": "electric_scooter", "is_disabled": 0, "fusion_lon": 0.0}, {"rental_uris": {"android": "https://dc.lft.to/lastmile_qr_scan", "ios": "https://dc.lft.to/lastmile_qr_scan"}, "lon": -76.9525775, "name": "f801c08139f0b110c066e507e2244c9a", "lat": 38.90692033333333, "is_reserved": 0, "fusion_lat": 0.0, "bike_id": "f801c08139f0b110c066e507e2244c9a", "type": "electric_bike", "is_disabled": 0, "fusion_lon": 0.0}, {"rental_uris": {"android": "https://dc.lft.to/lastmile_qr_scan", "ios": "https://dc.lft.to/lastmile_qr_scan"}, "lon": -77.02596083333333, "name": "c5dff5c0bc39054eb40ce9e0159df13a", "lat": 38.94313916666667, "is_reserved": 0, "fusion_lat": 0.0, "bike_id": "c5dff5c0bc39054eb40ce9e0159df13a", "type": "electric_scooter", "is_disabled": 0, "fusion_lon": 0.0}, {"rental_uris": {"android": "https://dc.lft.to/lastmile_qr_scan", "ios": "https://dc.lft.to/lastmile_qr_scan"}, "lon": -77.02410866666666, "name": "0f2a7726052452556593a0ac02e83f50", "lat": 38.89225916666667, "is_reserved": 0, "fusion_lat": 0.0, "bike_id": "0f2a7726052452556593a0ac02e83f50", "type": "electric_scooter", "is_disabled": 0, "fusion_lon": 0.0}, {"rental_uris": {"android": "https://dc.lft.to/lastmile_qr_scan", "ios": "https://dc.lft.to/lastmile_qr_scan"}, "lon": -77.031889, "name": "e59eb5a069796314d126c1a415e29967", "lat": 38.913538833333334, "is_reserved": 0, "fusion_lat": 0.0, "bike_id": "e59eb5a069796314d126c1a415e29967", "type": "electric_scooter", "is_disabled": 0, "fusion_lon": 0.0}, {"rental_uris": {"android": "https://dc.lft.to/lastmile_qr_scan", "ios": "https://dc.lft.to/lastmile_qr_scan"}, "lon": -77.03451183333334, "name": "c5cbcbc1dd14cab302b4ec4fb647c854", "lat": 38.908066, "is_reserved": 0, "fusion_lat": 0.0, "bike_id": "c5cbcbc1dd14cab302b4ec4fb647c854", "type": "electric_scooter", "is_disabled": 0, "fusion_lon": 0.0}, {"rental_uris": {"android": "https://dc.lft.to/lastmile_qr_scan", "ios": "https://dc.lft.to/lastmile_qr_scan"}, "lon": -77.03844316666667, "name": "d0f83a8615989492cc0e141f74d713c3", "lat": 38.90147616666667, "is_reserved": 0, "fusion_lat": 0.0, "bike_id": "d0f83a8615989492cc0e141f74d713c3", "type": "electric_scooter", "is_disabled": 0, "fusion_lon": 0.0}, {"rental_uris": {"android": "https://dc.lft.to/lastmile_qr_scan", "ios": "https://dc.lft.to/lastmile_qr_scan"}, "lon": -76.93131216666667, "name": "c2b3f5ebed05d0e8c872888720c60cac", "lat": 38.898163, "is_reserved": 0, "fusion_lat": 0.0, "bike_id": "c2b3f5ebed05d0e8c872888720c60cac", "type": "electric_scooter", "is_disabled": 0, "fusion_lon": 0.0}, {"rental_uris": {"android": "https://dc.lft.to/lastmile_qr_scan", "ios": "https://dc.lft.to/lastmile_qr_scan"}, "lon": -77.07706183333333, "name": "71adba3d0bde019cd50c271c597206fc", "lat": 38.94384066666667, "is_reserved": 0, "fusion_lat": 0.0, "bike_id": "71adba3d0bde019cd50c271c597206fc", "type": "electric_scooter", "is_disabled": 0, "fusion_lon": 0.0}, {"rental_uris": {"android": "https://dc.lft.to/lastmile_qr_scan", "ios": "https://dc.lft.to/lastmile_qr_scan"}, "lon": -77.03619866666666, "name": "93adb544b86b4a4dc27c76c29012c5e6", "lat": 38.93739266666667, "is_reserved": 0, "fusion_lat": 0.0, "bike_id": "93adb544b86b4a4dc27c76c29012c5e6", "type": "electric_scooter", "is_disabled": 0, "fusion_lon": 0.0}, {"rental_uris": {"android": "https://dc.lft.to/lastmile_qr_scan", "ios": "https://dc.lft.to/lastmile_qr_scan"}, "lon": -77.03209733333334, "name": "ed181c9857c46731d9c9a35fab15d7be", "lat": 38.927891833333334, "is_reserved": 0, "fusion_lat": 0.0, "bike_id": "ed181c9857c46731d9c9a35fab15d7be", "type": "electric_scooter", "is_disabled": 0, "fusion_lon": 0.0}, {"rental_uris": {"android": "https://dc.lft.to/lastmile_qr_scan", "ios": "https://dc.lft.to/lastmile_qr_scan"}, "lon": -76.98904966666667, "name": "7d1ff1d3a7b3d2337dfe33c238e5cfa8", "lat": 38.900341166666664, "is_reserved": 0, "fusion_lat": 0.0, "bike_id": "7d1ff1d3a7b3d2337dfe33c238e5cfa8", "type": "electric_scooter", "is_disabled": 0, "fusion_lon": 0.0}, {"rental_uris": {"android": "https://dc.lft.to/lastmile_qr_scan", "ios": "https://dc.lft.to/lastmile_qr_scan"}, "lon": -77.02693883333333, "name": "0b7d170e58233509556670399109dd5f", "lat": 38.906816166666665, "is_reserved": 0, "fusion_lat": 0.0, "bike_id": "0b7d170e58233509556670399109dd5f", "type": "electric_scooter", "is_disabled": 0, "fusion_lon": 0.0}, {"rental_uris": {"android": "https://dc.lft.to/lastmile_qr_scan", "ios": "https://dc.lft.to/lastmile_qr_scan"}, "lon": -77.01178883333333, "name": "6dd1bbf1261fe33d6c91023ee8916cd9", "lat": 38.90036033333333, "is_reserved": 0, "fusion_lat": 0.0, "bike_id": "6dd1bbf1261fe33d6c91023ee8916cd9", "type": "electric_scooter", "is_disabled": 0, "fusion_lon": 0.0}, {"rental_uris": {"android": "https://dc.lft.to/lastmile_qr_scan", "ios": "https://dc.lft.to/lastmile_qr_scan"}, "lon": -77.0512765, "name": "0b12b49ca208f6302b13574ea6e7cbb4", "lat": 38.9251805, "is_reserved": 0, "fusion_lat": 0.0, "bike_id": "0b12b49ca208f6302b13574ea6e7cbb4", "type": "electric_scooter", "is_disabled": 0, "fusion_lon": 0.0}, {"rental_uris": {"android": "https://dc.lft.to/lastmile_qr_scan", "ios": "https://dc.lft.to/lastmile_qr_scan"}, "lon": -77.0281805, "name": "1343a1d4eb72a42bb2a7cad51e5f9d4b", "lat": 38.909471833333335, "is_reserved": 0, "fusion_lat": 0.0, "bike_id": "1343a1d4eb72a42bb2a7cad51e5f9d4b", "type": "electric_scooter", "is_disabled": 0, "fusion_lon": 0.0}, {"rental_uris": {"android": "https://dc.lft.to/lastmile_qr_scan", "ios": "https://dc.lft.to/lastmile_qr_scan"}, "lon": -76.965589, "name": "0bc11795e9dbd8923543e4e8ff4f9b00", "lat": 38.91842366666667, "is_reserved": 0, "fusion_lat": 0.0, "bike_id": "0bc11795e9dbd8923543e4e8ff4f9b00", "type": "electric_scooter", "is_disabled": 0, "fusion_lon": 0.0}, {"rental_uris": {"android": "https://dc.lft.to/lastmile_qr_scan", "ios": "https://dc.lft.to/lastmile_qr_scan"}, "lon": -77.0021755, "name": "d27a015e1aa05fa99ded5baf01710e64", "lat": 38.91199183333333, "is_reserved": 0, "fusion_lat": 0.0, "bike_id": "d27a015e1aa05fa99ded5baf01710e64", "type": "electric_scooter", "is_disabled": 0, "fusion_lon": 0.0}, {"rental_uris": {"android": "https://dc.lft.to/lastmile_qr_scan", "ios": "https://dc.lft.to/lastmile_qr_scan"}, "lon": -77.01184933333333, "name": "51222ce8a0581cd218f6fda73c9b0afe", "lat": 38.900182666666666, "is_reserved": 0, "fusion_lat": 0.0, "bike_id": "51222ce8a0581cd218f6fda73c9b0afe", "type": "electric_scooter", "is_disabled": 0, "fusion_lon": 0.0}, {"rental_uris": {"android": "https://dc.lft.to/lastmile_qr_scan", "ios": "https://dc.lft.to/lastmile_qr_scan"}, "lon": -77.0317485, "name": "9ab00840f566a4c3496b21fa895ae3f4", "lat": 38.919647166666664, "is_reserved": 0, "fusion_lat": 0.0, "bike_id": "9ab00840f566a4c3496b21fa895ae3f4", "type": "electric_scooter", "is_disabled": 0, "fusion_lon": 0.0}, {"rental_uris": {"android": "https://dc.lft.to/lastmile_qr_scan", "ios": "https://dc.lft.to/lastmile_qr_scan"}, "lon": -76.99902483333334, "name": "e8b132e954b7e704591eb024228fee57", "lat": 38.92457233333333, "is_reserved": 0, "fusion_lat": 0.0, "bike_id": "e8b132e954b7e704591eb024228fee57", "type": "electric_scooter", "is_disabled": 0, "fusion_lon": 0.0}, {"rental_uris": {"android": "https://dc.lft.to/lastmile_qr_scan", "ios": "https://dc.lft.to/lastmile_qr_scan"}, "lon": -77.03947933333333, "name": "9161532abc7a030db6f6be37caa559c7", "lat": 38.92461316666667, "is_reserved": 0, "fusion_lat": 0.0, "bike_id": "9161532abc7a030db6f6be37caa559c7", "type": "electric_scooter", "is_disabled": 0, "fusion_lon": 0.0}, {"rental_uris": {"android": "https://dc.lft.to/lastmile_qr_scan", "ios": "https://dc.lft.to/lastmile_qr_scan"}, "lon": -77.02678583333334, "name": "e66771b60eb020a40cf9a53e779c1a37", "lat": 38.89723866666667, "is_reserved": 0, "fusion_lat": 0.0, "bike_id": "e66771b60eb020a40cf9a53e779c1a37", "type": "electric_scooter", "is_disabled": 0, "fusion_lon": 0.0}, {"rental_uris": {"android": "https://dc.lft.to/lastmile_qr_scan", "ios": "https://dc.lft.to/lastmile_qr_scan"}, "lon": -77.0333065, "name": "aabd72ff4c413c5d3e3404d2ad3e3b25", "lat": 38.91403833333333, "is_reserved": 0, "fusion_lat": 0.0, "bike_id": "aabd72ff4c413c5d3e3404d2ad3e3b25", "type": "electric_scooter", "is_disabled": 0, "fusion_lon": 0.0}, {"rental_uris": {"android": "https://dc.lft.to/lastmile_qr_scan", "ios": "https://dc.lft.to/lastmile_qr_scan"}, "lon": -77.03013833333333, "name": "d2f772790c042dd4a8f26479e23964ab", "lat": 38.931173, "is_reserved": 0, "fusion_lat": 0.0, "bike_id": "d2f772790c042dd4a8f26479e23964ab", "type": "electric_scooter", "is_disabled": 0, "fusion_lon": 0.0}, {"rental_uris": {"android": "https://dc.lft.to/lastmile_qr_scan", "ios": "https://dc.lft.to/lastmile_qr_scan"}, "lon": -76.93478366666666, "name": "032d91237e97bf12980b3f7f79c1c06a", "lat": 38.89507866666667, "is_reserved": 0, "fusion_lat": 0.0, "bike_id": "032d91237e97bf12980b3f7f79c1c06a", "type": "electric_scooter", "is_disabled": 0, "fusion_lon": 0.0}, {"rental_uris": {"android": "https://dc.lft.to/lastmile_qr_scan", "ios": "https://dc.lft.to/lastmile_qr_scan"}, "lon": -77.0328335, "name": "a9cf045c06f30670b720e140fe37db58", "lat": 38.94055216666667, "is_reserved": 0, "fusion_lat": 0.0, "bike_id": "a9cf045c06f30670b720e140fe37db58", "type": "electric_scooter", "is_disabled": 0, "fusion_lon": 0.0}, {"rental_uris": {"android": "https://dc.lft.to/lastmile_qr_scan", "ios": "https://dc.lft.to/lastmile_qr_scan"}, "lon": -77.02479616666666, "name": "bbb4fb4c98589f87686f9966411b1030", "lat": 38.92067566666667, "is_reserved": 0, "fusion_lat": 0.0, "bike_id": "bbb4fb4c98589f87686f9966411b1030", "type": "electric_scooter", "is_disabled": 0, "fusion_lon": 0.0}, {"rental_uris": {"android": "https://dc.lft.to/lastmile_qr_scan", "ios": "https://dc.lft.to/lastmile_qr_scan"}, "lon": -76.94641166666666, "name": "b20e86bb32c728904149ef28ad0a62c3", "lat": 38.898730666666665, "is_reserved": 0, "fusion_lat": 0.0, "bike_id": "b20e86bb32c728904149ef28ad0a62c3", "type": "electric_scooter", "is_disabled": 0, "fusion_lon": 0.0}, {"rental_uris": {"android": "https://dc.lft.to/lastmile_qr_scan", "ios": "https://dc.lft.to/lastmile_qr_scan"}, "lon": -77.03806566666667, "name": "1ca1fb5d7ffd65dcd687db87cbf47291", "lat": 38.920606166666666, "is_reserved": 0, "fusion_lat": 0.0, "bike_id": "1ca1fb5d7ffd65dcd687db87cbf47291", "type": "electric_scooter", "is_disabled": 0, "fusion_lon": 0.0}, {"rental_uris": {"android": "https://dc.lft.to/lastmile_qr_scan", "ios": "https://dc.lft.to/lastmile_qr_scan"}, "lon": -77.03708266666666, "name": "64eedfc71ffb9e0df8a16558a4c74396", "lat": 38.927742, "is_reserved": 0, "fusion_lat": 0.0, "bike_id": "64eedfc71ffb9e0df8a16558a4c74396", "type": "electric_scooter", "is_disabled": 0, "fusion_lon": 0.0}, {"rental_uris": {"android": "https://dc.lft.to/lastmile_qr_scan", "ios": "https://dc.lft.to/lastmile_qr_scan"}, "lon": -77.07658566666667, "name": "ea189507576aeb9f5a0bb2bd46c74b17", "lat": 38.935251666666666, "is_reserved": 0, "fusion_lat": 0.0, "bike_id": "ea189507576aeb9f5a0bb2bd46c74b17", "type": "electric_scooter", "is_disabled": 0, "fusion_lon": 0.0}, {"rental_uris": {"android": "https://dc.lft.to/lastmile_qr_scan", "ios": "https://dc.lft.to/lastmile_qr_scan"}, "lon": -77.0307955, "name": "69c04e97f546dba54965011dcbda9233", "lat": 38.92667766666667, "is_reserved": 0, "fusion_lat": 0.0, "bike_id": "69c04e97f546dba54965011dcbda9233", "type": "electric_scooter", "is_disabled": 0, "fusion_lon": 0.0}, {"rental_uris": {"android": "https://dc.lft.to/lastmile_qr_scan", "ios": "https://dc.lft.to/lastmile_qr_scan"}, "lon": -77.0390545, "name": "91949e63d400f03cc6d872a677ad4bd7", "lat": 38.914059333333334, "is_reserved": 0, "fusion_lat": 0.0, "bike_id": "91949e63d400f03cc6d872a677ad4bd7", "type": "electric_scooter", "is_disabled": 0, "fusion_lon": 0.0}, {"rental_uris": {"android": "https://dc.lft.to/lastmile_qr_scan", "ios": "https://dc.lft.to/lastmile_qr_scan"}, "lon": -77.01505983333334, "name": "eede5e885c71c6b0beb3602b77536c2e", "lat": 38.91006616666667, "is_reserved": 0, "fusion_lat": 0.0, "bike_id": "eede5e885c71c6b0beb3602b77536c2e", "type": "electric_scooter", "is_disabled": 0, "fusion_lon": 0.0}, {"rental_uris": {"android": "https://dc.lft.to/lastmile_qr_scan", "ios": "https://dc.lft.to/lastmile_qr_scan"}, "lon": -77.0310165, "name": "360c1da7342f14ec308c17ae79f34c34", "lat": 38.931866166666666, "is_reserved": 0, "fusion_lat": 0.0, "bike_id": "360c1da7342f14ec308c17ae79f34c34", "type": "electric_scooter", "is_disabled": 0, "fusion_lon": 0.0}, {"rental_uris": {"android": "https://dc.lft.to/lastmile_qr_scan", "ios": "https://dc.lft.to/lastmile_qr_scan"}, "lon": -77.04238833333334, "name": "c1bd3c972d1c50977d0d527870dbece1", "lat": 38.922270833333336, "is_reserved": 0, "fusion_lat": 0.0, "bike_id": "c1bd3c972d1c50977d0d527870dbece1", "type": "electric_scooter", "is_disabled": 0, "fusion_lon": 0.0}, {"rental_uris": {"android": "https://dc.lft.to/lastmile_qr_scan", "ios": "https://dc.lft.to/lastmile_qr_scan"}, "lon": -77.00208983333333, "name": "66c996096ab2b9987c5b764cb2d43834", "lat": 38.91998616666667, "is_reserved": 0, "fusion_lat": 0.0, "bike_id": "66c996096ab2b9987c5b764cb2d43834", "type": "electric_scooter", "is_disabled": 0, "fusion_lon": 0.0}, {"rental_uris": {"android": "https://dc.lft.to/lastmile_qr_scan", "ios": "https://dc.lft.to/lastmile_qr_scan"}, "lon": -77.00208216666667, "name": "90f9681e5a3340b31e43ad60403b1430", "lat": 38.91234566666667, "is_reserved": 0, "fusion_lat": 0.0, "bike_id": "90f9681e5a3340b31e43ad60403b1430", "type": "electric_scooter", "is_disabled": 0, "fusion_lon": 0.0}, {"rental_uris": {"android": "https://dc.lft.to/lastmile_qr_scan", "ios": "https://dc.lft.to/lastmile_qr_scan"}, "lon": -77.0219025, "name": "476e59f339d5aa5bf0963faece5e71fb", "lat": 38.8949975, "is_reserved": 0, "fusion_lat": 0.0, "bike_id": "476e59f339d5aa5bf0963faece5e71fb", "type": "electric_scooter", "is_disabled": 0, "fusion_lon": 0.0}, {"rental_uris": {"android": "https://dc.lft.to/lastmile_qr_scan", "ios": "https://dc.lft.to/lastmile_qr_scan"}, "lon": -77.02827416666666, "name": "008043aa824170f33d00e0a4eac86f57", "lat": 38.917054666666665, "is_reserved": 0, "fusion_lat": 0.0, "bike_id": "008043aa824170f33d00e0a4eac86f57", "type": "electric_scooter", "is_disabled": 0, "fusion_lon": 0.0}, {"rental_uris": {"android": "https://dc.lft.to/lastmile_qr_scan", "ios": "https://dc.lft.to/lastmile_qr_scan"}, "lon": -77.045204, "name": "4f23f2b69d5061ac083ebab227a9d9fe", "lat": 38.89605383333333, "is_reserved": 0, "fusion_lat": 0.0, "bike_id": "4f23f2b69d5061ac083ebab227a9d9fe", "type": "electric_scooter", "is_disabled": 0, "fusion_lon": 0.0}, {"rental_uris": {"android": "https://dc.lft.to/lastmile_qr_scan", "ios": "https://dc.lft.to/lastmile_qr_scan"}, "lon": -76.9809175, "name": "e76095a1bdc073b32e29509b2df8e90f", "lat": 38.957490166666666, "is_reserved": 0, "fusion_lat": 0.0, "bike_id": "e76095a1bdc073b32e29509b2df8e90f", "type": "electric_bike", "is_disabled": 0, "fusion_lon": 0.0}, {"rental_uris": {"android": "https://dc.lft.to/lastmile_qr_scan", "ios": "https://dc.lft.to/lastmile_qr_scan"}, "lon": -77.04255733333333, "name": "ce7a4e9e0ee373e06ffd1a6d45ae0df6", "lat": 38.922042833333336, "is_reserved": 0, "fusion_lat": 0.0, "bike_id": "ce7a4e9e0ee373e06ffd1a6d45ae0df6", "type": "electric_scooter", "is_disabled": 0, "fusion_lon": 0.0}, {"rental_uris": {"android": "https://dc.lft.to/lastmile_qr_scan", "ios": "https://dc.lft.to/lastmile_qr_scan"}, "lon": -76.9693565, "name": "0a73dd26e267564ce45eeee87217f2e5", "lat": 38.959871666666665, "is_reserved": 0, "fusion_lat": 0.0, "bike_id": "0a73dd26e267564ce45eeee87217f2e5", "type": "electric_bike", "is_disabled": 0, "fusion_lon": 0.0}, {"rental_uris": {"android": "https://dc.lft.to/lastmile_qr_scan", "ios": "https://dc.lft.to/lastmile_qr_scan"}, "lon": -77.0386145, "name": "fa31f5f6470062e5131c7ca548c02c3e", "lat": 38.91562583333334, "is_reserved": 0, "fusion_lat": 0.0, "bike_id": "fa31f5f6470062e5131c7ca548c02c3e", "type": "electric_scooter", "is_disabled": 0, "fusion_lon": 0.0}, {"rental_uris": {"android": "https://dc.lft.to/lastmile_qr_scan", "ios": "https://dc.lft.to/lastmile_qr_scan"}, "lon": -77.03280583333333, "name": "97f39707530564aa4acbceae66609717", "lat": 38.940938833333334, "is_reserved": 0, "fusion_lat": 0.0, "bike_id": "97f39707530564aa4acbceae66609717", "type": "electric_scooter", "is_disabled": 0, "fusion_lon": 0.0}, {"rental_uris": {"android": "https://dc.lft.to/lastmile_qr_scan", "ios": "https://dc.lft.to/lastmile_qr_scan"}, "lon": -77.016041, "name": "9ec76f94c3dc126cf31ab632edaf8fb2", "lat": 38.89974316666667, "is_reserved": 0, "fusion_lat": 0.0, "bike_id": "9ec76f94c3dc126cf31ab632edaf8fb2", "type": "electric_scooter", "is_disabled": 0, "fusion_lon": 0.0}, {"rental_uris": {"android": "https://dc.lft.to/lastmile_qr_scan", "ios": "https://dc.lft.to/lastmile_qr_scan"}, "lon": -77.035597, "name": "60352febedab3cc0f2a7b44e9d331b16", "lat": 38.901462, "is_reserved": 0, "fusion_lat": 0.0, "bike_id": "60352febedab3cc0f2a7b44e9d331b16", "type": "electric_scooter", "is_disabled": 0, "fusion_lon": 0.0}, {"rental_uris": {"android": "https://dc.lft.to/lastmile_qr_scan", "ios": "https://dc.lft.to/lastmile_qr_scan"}, "lon": -77.02098516666666, "name": "e0a3e6d4fae081e9be9a57e7abdd92bd", "lat": 38.9019205, "is_reserved": 0, "fusion_lat": 0.0, "bike_id": "e0a3e6d4fae081e9be9a57e7abdd92bd", "type": "electric_scooter", "is_disabled": 0, "fusion_lon": 0.0}, {"rental_uris": {"android": "https://dc.lft.to/lastmile_qr_scan", "ios": "https://dc.lft.to/lastmile_qr_scan"}, "lon": -77.0362255, "name": "87e44d2aed2db54d6239cd92a40ad986", "lat": 38.93679983333333, "is_reserved": 0, "fusion_lat": 0.0, "bike_id": "87e44d2aed2db54d6239cd92a40ad986", "type": "electric_scooter", "is_disabled": 0, "fusion_lon": 0.0}, {"rental_uris": {"android": "https://dc.lft.to/lastmile_qr_scan", "ios": "https://dc.lft.to/lastmile_qr_scan"}, "lon": -77.0546595, "name": "2bc3783a7726d4f1fd9c4643206a5f4e", "lat": 38.908673, "is_reserved": 0, "fusion_lat": 0.0, "bike_id": "2bc3783a7726d4f1fd9c4643206a5f4e", "type": "electric_scooter", "is_disabled": 0, "fusion_lon": 0.0}, {"rental_uris": {"android": "https://dc.lft.to/lastmile_qr_scan", "ios": "https://dc.lft.to/lastmile_qr_scan"}, "lon": -77.00411716666666, "name": "87e8dca2aba952266494a20cb95c839b", "lat": 38.877128666666664, "is_reserved": 0, "fusion_lat": 0.0, "bike_id": "87e8dca2aba952266494a20cb95c839b", "type": "electric_scooter", "is_disabled": 0, "fusion_lon": 0.0}, {"rental_uris": {"android": "https://dc.lft.to/lastmile_qr_scan", "ios": "https://dc.lft.to/lastmile_qr_scan"}, "lon": -77.03572283333334, "name": "ef355bbcb7de7e2293cac2b1c4b3a890", "lat": 38.9096145, "is_reserved": 0, "fusion_lat": 0.0, "bike_id": "ef355bbcb7de7e2293cac2b1c4b3a890", "type": "electric_scooter", "is_disabled": 0, "fusion_lon": 0.0}, {"rental_uris": {"android": "https://dc.lft.to/lastmile_qr_scan", "ios": "https://dc.lft.to/lastmile_qr_scan"}, "lon": -77.09165716666666, "name": "8e1369d28dc14def85b64cafba06b180", "lat": 38.93964783333333, "is_reserved": 0, "fusion_lat": 0.0, "bike_id": "8e1369d28dc14def85b64cafba06b180", "type": "electric_scooter", "is_disabled": 0, "fusion_lon": 0.0}, {"rental_uris": {"android": "https://dc.lft.to/lastmile_qr_scan", "ios": "https://dc.lft.to/lastmile_qr_scan"}, "lon": -77.05154133333333, "name": "6f2d09d0a2e3e65aa4e5a3ba2bf2b2a4", "lat": 38.8974845, "is_reserved": 0, "fusion_lat": 0.0, "bike_id": "6f2d09d0a2e3e65aa4e5a3ba2bf2b2a4", "type": "electric_scooter", "is_disabled": 0, "fusion_lon": 0.0}, {"rental_uris": {"android": "https://dc.lft.to/lastmile_qr_scan", "ios": "https://dc.lft.to/lastmile_qr_scan"}, "lon": -77.00539683333334, "name": "1e6573fc8104cc973d4f7fe873703207", "lat": 38.912668333333336, "is_reserved": 0, "fusion_lat": 0.0, "bike_id": "1e6573fc8104cc973d4f7fe873703207", "type": "electric_scooter", "is_disabled": 0, "fusion_lon": 0.0}, {"rental_uris": {"android": "https://dc.lft.to/lastmile_qr_scan", "ios": "https://dc.lft.to/lastmile_qr_scan"}, "lon": -77.00933083333334, "name": "b9676bed9c41c0379bd80157b3847c8f", "lat": 38.896446833333336, "is_reserved": 0, "fusion_lat": 0.0, "bike_id": "b9676bed9c41c0379bd80157b3847c8f", "type": "electric_scooter", "is_disabled": 0, "fusion_lon": 0.0}, {"rental_uris": {"android": "https://dc.lft.to/lastmile_qr_scan", "ios": "https://dc.lft.to/lastmile_qr_scan"}, "lon": -76.98571816666667, "name": "a8250ab770a9a4cec23014a57d04410a", "lat": 38.866825666666664, "is_reserved": 0, "fusion_lat": 0.0, "bike_id": "a8250ab770a9a4cec23014a57d04410a", "type": "electric_scooter", "is_disabled": 0, "fusion_lon": 0.0}, {"rental_uris": {"android": "https://dc.lft.to/lastmile_qr_scan", "ios": "https://dc.lft.to/lastmile_qr_scan"}, "lon": -76.97970116666667, "name": "2647c52515555d1349e82798b605468b", "lat": 38.89742583333334, "is_reserved": 0, "fusion_lat": 0.0, "bike_id": "2647c52515555d1349e82798b605468b", "type": "electric_scooter", "is_disabled": 0, "fusion_lon": 0.0}, {"rental_uris": {"android": "https://dc.lft.to/lastmile_qr_scan", "ios": "https://dc.lft.to/lastmile_qr_scan"}, "lon": -77.04512933333334, "name": "7c83e2a5a09839781fed08ad8f2030d6", "lat": 38.892231333333335, "is_reserved": 0, "fusion_lat": 0.0, "bike_id": "7c83e2a5a09839781fed08ad8f2030d6", "type": "electric_scooter", "is_disabled": 0, "fusion_lon": 0.0}, {"rental_uris": {"android": "https://dc.lft.to/lastmile_qr_scan", "ios": "https://dc.lft.to/lastmile_qr_scan"}, "lon": -77.03268266666667, "name": "382387782bccbb77e31199df2f8a232e", "lat": 38.919110333333336, "is_reserved": 0, "fusion_lat": 0.0, "bike_id": "382387782bccbb77e31199df2f8a232e", "type": "electric_scooter", "is_disabled": 0, "fusion_lon": 0.0}, {"rental_uris": {"android": "https://dc.lft.to/lastmile_qr_scan", "ios": "https://dc.lft.to/lastmile_qr_scan"}, "lon": -77.00197283333334, "name": "02a34d5fdee4fdda2abc85c41a4dd60a", "lat": 38.90040716666667, "is_reserved": 0, "fusion_lat": 0.0, "bike_id": "02a34d5fdee4fdda2abc85c41a4dd60a", "type": "electric_scooter", "is_disabled": 0, "fusion_lon": 0.0}, {"rental_uris": {"android": "https://dc.lft.to/lastmile_qr_scan", "ios": "https://dc.lft.to/lastmile_qr_scan"}, "lon": -76.99601716666666, "name": "eaad04ab673e52dbb6d34a2892f890f6", "lat": 38.856880833333335, "is_reserved": 0, "fusion_lat": 0.0, "bike_id": "eaad04ab673e52dbb6d34a2892f890f6", "type": "electric_scooter", "is_disabled": 0, "fusion_lon": 0.0}, {"rental_uris": {"android": "https://dc.lft.to/lastmile_qr_scan", "ios": "https://dc.lft.to/lastmile_qr_scan"}, "lon": -76.994997, "name": "7758f5739d90b244b79b21b03d3d8325", "lat": 38.90980416666667, "is_reserved": 0, "fusion_lat": 0.0, "bike_id": "7758f5739d90b244b79b21b03d3d8325", "type": "electric_scooter", "is_disabled": 0, "fusion_lon": 0.0}, {"rental_uris": {"android": "https://dc.lft.to/lastmile_qr_scan", "ios": "https://dc.lft.to/lastmile_qr_scan"}, "lon": -76.980824, "name": "f0f98e52ec07575dd0c0a1e7e2815981", "lat": 38.92248033333333, "is_reserved": 0, "fusion_lat": 0.0, "bike_id": "f0f98e52ec07575dd0c0a1e7e2815981", "type": "electric_scooter", "is_disabled": 0, "fusion_lon": 0.0}, {"rental_uris": {"android": "https://dc.lft.to/lastmile_qr_scan", "ios": "https://dc.lft.to/lastmile_qr_scan"}, "lon": -77.05144316666667, "name": "f46eda8cc06e93784042ff8409c1f834", "lat": 38.905100833333336, "is_reserved": 0, "fusion_lat": 0.0, "bike_id": "f46eda8cc06e93784042ff8409c1f834", "type": "electric_scooter", "is_disabled": 0, "fusion_lon": 0.0}, {"rental_uris": {"android": "https://dc.lft.to/lastmile_qr_scan", "ios": "https://dc.lft.to/lastmile_qr_scan"}, "lon": -77.04146666666666, "name": "9386fe16423423e015ecb28eb143193e", "lat": 38.91624066666667, "is_reserved": 0, "fusion_lat": 0.0, "bike_id": "9386fe16423423e015ecb28eb143193e", "type": "electric_scooter", "is_disabled": 0, "fusion_lon": 0.0}, {"rental_uris": {"android": "https://dc.lft.to/lastmile_qr_scan", "ios": "https://dc.lft.to/lastmile_qr_scan"}, "lon": -77.00786516666666, "name": "f4d9bb8348696969965c83c6ace2e7f6", "lat": 38.9073115, "is_reserved": 0, "fusion_lat": 0.0, "bike_id": "f4d9bb8348696969965c83c6ace2e7f6", "type": "electric_scooter", "is_disabled": 0, "fusion_lon": 0.0}, {"rental_uris": {"android": "https://dc.lft.to/lastmile_qr_scan", "ios": "https://dc.lft.to/lastmile_qr_scan"}, "lon": -77.0403805, "name": "4eceb1016b11a2d6d33099207bc471a6", "lat": 38.9025165, "is_reserved": 0, "fusion_lat": 0.0, "bike_id": "4eceb1016b11a2d6d33099207bc471a6", "type": "electric_scooter", "is_disabled": 0, "fusion_lon": 0.0}, {"rental_uris": {"android": "https://dc.lft.to/lastmile_qr_scan", "ios": "https://dc.lft.to/lastmile_qr_scan"}, "lon": -77.04559416666666, "name": "6adeb0a2f3e338c44577e332ff4d8590", "lat": 38.898784166666665, "is_reserved": 0, "fusion_lat": 0.0, "bike_id": "6adeb0a2f3e338c44577e332ff4d8590", "type": "electric_scooter", "is_disabled": 0, "fusion_lon": 0.0}, {"rental_uris": {"android": "https://dc.lft.to/lastmile_qr_scan", "ios": "https://dc.lft.to/lastmile_qr_scan"}, "lon": -77.034329, "name": "45b548086d5925fbaf6e7104c268789f", "lat": 38.965295833333336, "is_reserved": 0, "fusion_lat": 0.0, "bike_id": "45b548086d5925fbaf6e7104c268789f", "type": "electric_bike", "is_disabled": 0, "fusion_lon": 0.0}, {"rental_uris": {"android": "https://dc.lft.to/lastmile_qr_scan", "ios": "https://dc.lft.to/lastmile_qr_scan"}, "lon": -77.043415, "name": "b4eb1031e9618c4e5029e6f7b3de681e", "lat": 38.923459333333334, "is_reserved": 0, "fusion_lat": 0.0, "bike_id": "b4eb1031e9618c4e5029e6f7b3de681e", "type": "electric_scooter", "is_disabled": 0, "fusion_lon": 0.0}, {"rental_uris": {"android": "https://dc.lft.to/lastmile_qr_scan", "ios": "https://dc.lft.to/lastmile_qr_scan"}, "lon": -77.03652166666667, "name": "7312dabd80a212be4098688865a4df1e", "lat": 38.91868233333334, "is_reserved": 0, "fusion_lat": 0.0, "bike_id": "7312dabd80a212be4098688865a4df1e", "type": "electric_scooter", "is_disabled": 0, "fusion_lon": 0.0}, {"rental_uris": {"android": "https://dc.lft.to/lastmile_qr_scan", "ios": "https://dc.lft.to/lastmile_qr_scan"}, "lon": -77.064687, "name": "0302355882cde945137295351f8359c9", "lat": 38.973808166666664, "is_reserved": 0, "fusion_lat": 0.0, "bike_id": "0302355882cde945137295351f8359c9", "type": "electric_bike", "is_disabled": 0, "fusion_lon": 0.0}, {"rental_uris": {"android": "https://dc.lft.to/lastmile_qr_scan", "ios": "https://dc.lft.to/lastmile_qr_scan"}, "lon": -77.05526233333333, "name": "9c9d73a9d669dc4344252a45c3f4c03c", "lat": 38.89727116666667, "is_reserved": 0, "fusion_lat": 0.0, "bike_id": "9c9d73a9d669dc4344252a45c3f4c03c", "type": "electric_scooter", "is_disabled": 0, "fusion_lon": 0.0}, {"rental_uris": {"android": "https://dc.lft.to/lastmile_qr_scan", "ios": "https://dc.lft.to/lastmile_qr_scan"}, "lon": -76.9856645, "name": "1be39359dc797b02a0695994466fb326", "lat": 38.88377333333333, "is_reserved": 0, "fusion_lat": 0.0, "bike_id": "1be39359dc797b02a0695994466fb326", "type": "electric_scooter", "is_disabled": 0, "fusion_lon": 0.0}, {"rental_uris": {"android": "https://dc.lft.to/lastmile_qr_scan", "ios": "https://dc.lft.to/lastmile_qr_scan"}, "lon": -77.03211333333333, "name": "0dd563e56b640cbea1dc251d5077b8e7", "lat": 38.91644383333333, "is_reserved": 0, "fusion_lat": 0.0, "bike_id": "0dd563e56b640cbea1dc251d5077b8e7", "type": "electric_scooter", "is_disabled": 0, "fusion_lon": 0.0}, {"rental_uris": {"android": "https://dc.lft.to/lastmile_qr_scan", "ios": "https://dc.lft.to/lastmile_qr_scan"}, "lon": -77.0384665, "name": "31427fb1ca2d83c83138e2c87b962980", "lat": 38.902868166666664, "is_reserved": 0, "fusion_lat": 0.0, "bike_id": "31427fb1ca2d83c83138e2c87b962980", "type": "electric_scooter", "is_disabled": 0, "fusion_lon": 0.0}, {"rental_uris": {"android": "https://dc.lft.to/lastmile_qr_scan", "ios": "https://dc.lft.to/lastmile_qr_scan"}, "lon": -76.97778533333333, "name": "48a8b010f5d0f83b810dcceebe270fab", "lat": 38.89189116666667, "is_reserved": 0, "fusion_lat": 0.0, "bike_id": "48a8b010f5d0f83b810dcceebe270fab", "type": "electric_bike", "is_disabled": 0, "fusion_lon": 0.0}, {"rental_uris": {"android": "https://dc.lft.to/lastmile_qr_scan", "ios": "https://dc.lft.to/lastmile_qr_scan"}, "lon": -76.94635766666667, "name": "cbf6925ab81840e955d85ba8b82d74ec", "lat": 38.898660666666665, "is_reserved": 0, "fusion_lat": 0.0, "bike_id": "cbf6925ab81840e955d85ba8b82d74ec", "type": "electric_scooter", "is_disabled": 0, "fusion_lon": 0.0}, {"rental_uris": {"android": "https://dc.lft.to/lastmile_qr_scan", "ios": "https://dc.lft.to/lastmile_qr_scan"}, "lon": -77.03105516666666, "name": "950965460feace3856ca5b29b0c44981", "lat": 38.919259, "is_reserved": 0, "fusion_lat": 0.0, "bike_id": "950965460feace3856ca5b29b0c44981", "type": "electric_scooter", "is_disabled": 0, "fusion_lon": 0.0}, {"rental_uris": {"android": "https://dc.lft.to/lastmile_qr_scan", "ios": "https://dc.lft.to/lastmile_qr_scan"}, "lon": -77.04863433333334, "name": "354eebb18b4ae732cd1de6bb42eeb863", "lat": 38.916200333333336, "is_reserved": 0, "fusion_lat": 0.0, "bike_id": "354eebb18b4ae732cd1de6bb42eeb863", "type": "electric_scooter", "is_disabled": 0, "fusion_lon": 0.0}, {"rental_uris": {"android": "https://dc.lft.to/lastmile_qr_scan", "ios": "https://dc.lft.to/lastmile_qr_scan"}, "lon": -77.02696933333333, "name": "acf85485e8826b95fd10f5c0004c0dbe", "lat": 38.91628633333333, "is_reserved": 0, "fusion_lat": 0.0, "bike_id": "acf85485e8826b95fd10f5c0004c0dbe", "type": "electric_scooter", "is_disabled": 0, "fusion_lon": 0.0}, {"rental_uris": {"android": "https://dc.lft.to/lastmile_qr_scan", "ios": "https://dc.lft.to/lastmile_qr_scan"}, "lon": -76.99005, "name": "1cd816d8199652af2b9ac8a9f1b477c8", "lat": 38.865086833333336, "is_reserved": 0, "fusion_lat": 0.0, "bike_id": "1cd816d8199652af2b9ac8a9f1b477c8", "type": "electric_scooter", "is_disabled": 0, "fusion_lon": 0.0}, {"rental_uris": {"android": "https://dc.lft.to/lastmile_qr_scan", "ios": "https://dc.lft.to/lastmile_qr_scan"}, "lon": -77.033338, "name": "b06ba6f922b2f6e98e2f52cf29a1c2e4", "lat": 38.9613535, "is_reserved": 0, "fusion_lat": 0.0, "bike_id": "b06ba6f922b2f6e98e2f52cf29a1c2e4", "type": "electric_bike", "is_disabled": 0, "fusion_lon": 0.0}, {"rental_uris": {"android": "https://dc.lft.to/lastmile_qr_scan", "ios": "https://dc.lft.to/lastmile_qr_scan"}, "lon": -77.04217866666667, "name": "e0ceaaa91a576685bc473c840734f70f", "lat": 38.921567333333336, "is_reserved": 0, "fusion_lat": 0.0, "bike_id": "e0ceaaa91a576685bc473c840734f70f", "type": "electric_scooter", "is_disabled": 0, "fusion_lon": 0.0}, {"rental_uris": {"android": "https://dc.lft.to/lastmile_qr_scan", "ios": "https://dc.lft.to/lastmile_qr_scan"}, "lon": -76.9747155, "name": "98cbd1f6520d9e418a52eb9db97e17bb", "lat": 38.86377383333333, "is_reserved": 0, "fusion_lat": 0.0, "bike_id": "98cbd1f6520d9e418a52eb9db97e17bb", "type": "electric_bike", "is_disabled": 0, "fusion_lon": 0.0}, {"rental_uris": {"android": "https://dc.lft.to/lastmile_qr_scan", "ios": "https://dc.lft.to/lastmile_qr_scan"}, "lon": -77.02817433333334, "name": "d4f06ee7d98e0e714d70557b5b3c82bd", "lat": 38.917634166666666, "is_reserved": 0, "fusion_lat": 0.0, "bike_id": "d4f06ee7d98e0e714d70557b5b3c82bd", "type": "electric_scooter", "is_disabled": 0, "fusion_lon": 0.0}, {"rental_uris": {"android": "https://dc.lft.to/lastmile_qr_scan", "ios": "https://dc.lft.to/lastmile_qr_scan"}, "lon": -77.01981383333333, "name": "ce4690ebaee1dd0befa9359f06e3f73c", "lat": 38.898923, "is_reserved": 0, "fusion_lat": 0.0, "bike_id": "ce4690ebaee1dd0befa9359f06e3f73c", "type": "electric_scooter", "is_disabled": 0, "fusion_lon": 0.0}, {"rental_uris": {"android": "https://dc.lft.to/lastmile_qr_scan", "ios": "https://dc.lft.to/lastmile_qr_scan"}, "lon": -77.04499716666666, "name": "c9395bb5e308da09ef15fe44f230f1b8", "lat": 38.9111255, "is_reserved": 0, "fusion_lat": 0.0, "bike_id": "c9395bb5e308da09ef15fe44f230f1b8", "type": "electric_scooter", "is_disabled": 0, "fusion_lon": 0.0}, {"rental_uris": {"android": "https://dc.lft.to/lastmile_qr_scan", "ios": "https://dc.lft.to/lastmile_qr_scan"}, "lon": -76.98277866666666, "name": "ef5054bf2d80f050b8b1ec4ebcdc5e73", "lat": 38.9084875, "is_reserved": 0, "fusion_lat": 0.0, "bike_id": "ef5054bf2d80f050b8b1ec4ebcdc5e73", "type": "electric_bike", "is_disabled": 0, "fusion_lon": 0.0}, {"rental_uris": {"android": "https://dc.lft.to/lastmile_qr_scan", "ios": "https://dc.lft.to/lastmile_qr_scan"}, "lon": -76.99409466666667, "name": "3887102b022a2fc053455671b9f145da", "lat": 38.9217455, "is_reserved": 0, "fusion_lat": 0.0, "bike_id": "3887102b022a2fc053455671b9f145da", "type": "electric_bike", "is_disabled": 0, "fusion_lon": 0.0}, {"rental_uris": {"android": "https://dc.lft.to/lastmile_qr_scan", "ios": "https://dc.lft.to/lastmile_qr_scan"}, "lon": -77.02713366666667, "name": "a7284a2f82e279fdc7c32771ea366086", "lat": 38.9036405, "is_reserved": 0, "fusion_lat": 0.0, "bike_id": "a7284a2f82e279fdc7c32771ea366086", "type": "electric_scooter", "is_disabled": 0, "fusion_lon": 0.0}, {"rental_uris": {"android": "https://dc.lft.to/lastmile_qr_scan", "ios": "https://dc.lft.to/lastmile_qr_scan"}, "lon": -76.98535283333334, "name": "8ddcdf3a5b85e91a6b7261f88917a839", "lat": 38.9041665, "is_reserved": 0, "fusion_lat": 0.0, "bike_id": "8ddcdf3a5b85e91a6b7261f88917a839", "type": "electric_scooter", "is_disabled": 0, "fusion_lon": 0.0}, {"rental_uris": {"android": "https://dc.lft.to/lastmile_qr_scan", "ios": "https://dc.lft.to/lastmile_qr_scan"}, "lon": -77.02204333333333, "name": "19f4ef7163d7cccfd0c06b66313a45ea", "lat": 38.901556166666666, "is_reserved": 0, "fusion_lat": 0.0, "bike_id": "19f4ef7163d7cccfd0c06b66313a45ea", "type": "electric_scooter", "is_disabled": 0, "fusion_lon": 0.0}, {"rental_uris": {"android": "https://dc.lft.to/lastmile_qr_scan", "ios": "https://dc.lft.to/lastmile_qr_scan"}, "lon": -77.03233683333333, "name": "45187e3961a2f9abe4423a181ae8a4f7", "lat": 38.937096333333336, "is_reserved": 0, "fusion_lat": 0.0, "bike_id": "45187e3961a2f9abe4423a181ae8a4f7", "type": "electric_scooter", "is_disabled": 0, "fusion_lon": 0.0}, {"rental_uris": {"android": "https://dc.lft.to/lastmile_qr_scan", "ios": "https://dc.lft.to/lastmile_qr_scan"}, "lon": -77.03262333333333, "name": "4c98f7d53bdf99b4c1bcec783656de19", "lat": 38.93216016666667, "is_reserved": 0, "fusion_lat": 0.0, "bike_id": "4c98f7d53bdf99b4c1bcec783656de19", "type": "electric_scooter", "is_disabled": 0, "fusion_lon": 0.0}, {"rental_uris": {"android": "https://dc.lft.to/lastmile_qr_scan", "ios": "https://dc.lft.to/lastmile_qr_scan"}, "lon": -77.04158866666667, "name": "4dbcf5ad1bcfa9746a861de8173d0f95", "lat": 38.908379833333335, "is_reserved": 0, "fusion_lat": 0.0, "bike_id": "4dbcf5ad1bcfa9746a861de8173d0f95", "type": "electric_scooter", "is_disabled": 0, "fusion_lon": 0.0}, {"rental_uris": {"android": "https://dc.lft.to/lastmile_qr_scan", "ios": "https://dc.lft.to/lastmile_qr_scan"}, "lon": -77.023656, "name": "35e2c4a1146b143939d53537e5bfd499", "lat": 38.932696166666666, "is_reserved": 0, "fusion_lat": 0.0, "bike_id": "35e2c4a1146b143939d53537e5bfd499", "type": "electric_scooter", "is_disabled": 0, "fusion_lon": 0.0}, {"rental_uris": {"android": "https://dc.lft.to/lastmile_qr_scan", "ios": "https://dc.lft.to/lastmile_qr_scan"}, "lon": -77.04689816666667, "name": "99368a62370d804f0fa27f1c153e0f09", "lat": 38.8922705, "is_reserved": 0, "fusion_lat": 0.0, "bike_id": "99368a62370d804f0fa27f1c153e0f09", "type": "electric_scooter", "is_disabled": 0, "fusion_lon": 0.0}, {"rental_uris": {"android": "https://dc.lft.to/lastmile_qr_scan", "ios": "https://dc.lft.to/lastmile_qr_scan"}, "lon": -77.03142083333333, "name": "5bdceb134f900e711ea93064fea3529e", "lat": 38.94178766666667, "is_reserved": 0, "fusion_lat": 0.0, "bike_id": "5bdceb134f900e711ea93064fea3529e", "type": "electric_scooter", "is_disabled": 0, "fusion_lon": 0.0}, {"rental_uris": {"android": "https://dc.lft.to/lastmile_qr_scan", "ios": "https://dc.lft.to/lastmile_qr_scan"}, "lon": -77.01470883333333, "name": "915a3b986e43a58870bbe4e1c182b20b", "lat": 38.918551666666666, "is_reserved": 0, "fusion_lat": 0.0, "bike_id": "915a3b986e43a58870bbe4e1c182b20b", "type": "electric_scooter", "is_disabled": 0, "fusion_lon": 0.0}, {"rental_uris": {"android": "https://dc.lft.to/lastmile_qr_scan", "ios": "https://dc.lft.to/lastmile_qr_scan"}, "lon": -77.023058, "name": "0ffe923b8131ceb066e7a51f69af6c9c", "lat": 38.895891166666665, "is_reserved": 0, "fusion_lat": 0.0, "bike_id": "0ffe923b8131ceb066e7a51f69af6c9c", "type": "electric_scooter", "is_disabled": 0, "fusion_lon": 0.0}, {"rental_uris": {"android": "https://dc.lft.to/lastmile_qr_scan", "ios": "https://dc.lft.to/lastmile_qr_scan"}, "lon": -77.02210633333333, "name": "2e929456256a14db60f9e85dc85c4c8a", "lat": 38.89585916666667, "is_reserved": 0, "fusion_lat": 0.0, "bike_id": "2e929456256a14db60f9e85dc85c4c8a", "type": "electric_scooter", "is_disabled": 0, "fusion_lon": 0.0}, {"rental_uris": {"android": "https://dc.lft.to/lastmile_qr_scan", "ios": "https://dc.lft.to/lastmile_qr_scan"}, "lon": -76.94721083333333, "name": "fe95faa9a699fd4c368dc279db8cdc4d", "lat": 38.897443333333335, "is_reserved": 0, "fusion_lat": 0.0, "bike_id": "fe95faa9a699fd4c368dc279db8cdc4d", "type": "electric_scooter", "is_disabled": 0, "fusion_lon": 0.0}, {"rental_uris": {"android": "https://dc.lft.to/lastmile_qr_scan", "ios": "https://dc.lft.to/lastmile_qr_scan"}, "lon": -77.01209966666667, "name": "31df627d129bf3cd501b7ffc89adfa44", "lat": 38.9182645, "is_reserved": 0, "fusion_lat": 0.0, "bike_id": "31df627d129bf3cd501b7ffc89adfa44", "type": "electric_scooter", "is_disabled": 0, "fusion_lon": 0.0}, {"rental_uris": {"android": "https://dc.lft.to/lastmile_qr_scan", "ios": "https://dc.lft.to/lastmile_qr_scan"}, "lon": -77.02200866666666, "name": "2b669053f02b1f2c9b1fac9e102b8077", "lat": 38.892763333333335, "is_reserved": 0, "fusion_lat": 0.0, "bike_id": "2b669053f02b1f2c9b1fac9e102b8077", "type": "electric_scooter", "is_disabled": 0, "fusion_lon": 0.0}, {"rental_uris": {"android": "https://dc.lft.to/lastmile_qr_scan", "ios": "https://dc.lft.to/lastmile_qr_scan"}, "lon": -77.0433655, "name": "7501f18ae6526ceb4eb445a9dd7cca86", "lat": 38.913283666666665, "is_reserved": 0, "fusion_lat": 0.0, "bike_id": "7501f18ae6526ceb4eb445a9dd7cca86", "type": "electric_scooter", "is_disabled": 0, "fusion_lon": 0.0}, {"rental_uris": {"android": "https://dc.lft.to/lastmile_qr_scan", "ios": "https://dc.lft.to/lastmile_qr_scan"}, "lon": -77.02946816666666, "name": "811f262343dafadd500946820939d0ae", "lat": 38.90508366666667, "is_reserved": 0, "fusion_lat": 0.0, "bike_id": "811f262343dafadd500946820939d0ae", "type": "electric_scooter", "is_disabled": 0, "fusion_lon": 0.0}, {"rental_uris": {"android": "https://dc.lft.to/lastmile_qr_scan", "ios": "https://dc.lft.to/lastmile_qr_scan"}, "lon": -77.011486, "name": "f8bd3b321a8f47090cc3bb3fc9937bdd", "lat": 38.90027533333333, "is_reserved": 0, "fusion_lat": 0.0, "bike_id": "f8bd3b321a8f47090cc3bb3fc9937bdd", "type": "electric_scooter", "is_disabled": 0, "fusion_lon": 0.0}, {"rental_uris": {"android": "https://dc.lft.to/lastmile_qr_scan", "ios": "https://dc.lft.to/lastmile_qr_scan"}, "lon": -77.04557983333333, "name": "98ab27e1a839928625cac97ac2d5e01d", "lat": 38.902366, "is_reserved": 0, "fusion_lat": 0.0, "bike_id": "98ab27e1a839928625cac97ac2d5e01d", "type": "electric_scooter", "is_disabled": 0, "fusion_lon": 0.0}, {"rental_uris": {"android": "https://dc.lft.to/lastmile_qr_scan", "ios": "https://dc.lft.to/lastmile_qr_scan"}, "lon": -77.0336315, "name": "af80b92396d2d598215ed368ca34891b", "lat": 38.91264816666666, "is_reserved": 0, "fusion_lat": 0.0, "bike_id": "af80b92396d2d598215ed368ca34891b", "type": "electric_scooter", "is_disabled": 0, "fusion_lon": 0.0}, {"rental_uris": {"android": "https://dc.lft.to/lastmile_qr_scan", "ios": "https://dc.lft.to/lastmile_qr_scan"}, "lon": -76.973346, "name": "3e1c62646242ef20c67294d9140a2615", "lat": 38.904131666666665, "is_reserved": 0, "fusion_lat": 0.0, "bike_id": "3e1c62646242ef20c67294d9140a2615", "type": "electric_scooter", "is_disabled": 0, "fusion_lon": 0.0}, {"rental_uris": {"android": "https://dc.lft.to/lastmile_qr_scan", "ios": "https://dc.lft.to/lastmile_qr_scan"}, "lon": -77.05923683333333, "name": "04b4e30fbda35db978da308ba9bd2622", "lat": 38.904542166666666, "is_reserved": 0, "fusion_lat": 0.0, "bike_id": "04b4e30fbda35db978da308ba9bd2622", "type": "electric_scooter", "is_disabled": 0, "fusion_lon": 0.0}, {"rental_uris": {"android": "https://dc.lft.to/lastmile_qr_scan", "ios": "https://dc.lft.to/lastmile_qr_scan"}, "lon": -77.06120533333333, "name": "353784d8a5605312db429e2d89abae2a", "lat": 38.90484383333333, "is_reserved": 0, "fusion_lat": 0.0, "bike_id": "353784d8a5605312db429e2d89abae2a", "type": "electric_scooter", "is_disabled": 0, "fusion_lon": 0.0}, {"rental_uris": {"android": "https://dc.lft.to/lastmile_qr_scan", "ios": "https://dc.lft.to/lastmile_qr_scan"}, "lon": -77.03862883333333, "name": "d77e81aff3667501aac425c18c4cfcea", "lat": 38.907824166666664, "is_reserved": 0, "fusion_lat": 0.0, "bike_id": "d77e81aff3667501aac425c18c4cfcea", "type": "electric_scooter", "is_disabled": 0, "fusion_lon": 0.0}, {"rental_uris": {"android": "https://dc.lft.to/lastmile_qr_scan", "ios": "https://dc.lft.to/lastmile_qr_scan"}, "lon": -77.01671033333334, "name": "d9694ded7178a084f0639eeb0df74e08", "lat": 38.900426333333336, "is_reserved": 0, "fusion_lat": 0.0, "bike_id": "d9694ded7178a084f0639eeb0df74e08", "type": "electric_scooter", "is_disabled": 0, "fusion_lon": 0.0}, {"rental_uris": {"android": "https://dc.lft.to/lastmile_qr_scan", "ios": "https://dc.lft.to/lastmile_qr_scan"}, "lon": -76.99499883333333, "name": "17a30483a0b359a277ec2338c6226746", "lat": 38.901113333333335, "is_reserved": 0, "fusion_lat": 0.0, "bike_id": "17a30483a0b359a277ec2338c6226746", "type": "electric_scooter", "is_disabled": 0, "fusion_lon": 0.0}, {"rental_uris": {"android": "https://dc.lft.to/lastmile_qr_scan", "ios": "https://dc.lft.to/lastmile_qr_scan"}, "lon": -77.034364, "name": "6cef27699ee330a120b9e068993ad6df", "lat": 38.933259666666665, "is_reserved": 0, "fusion_lat": 0.0, "bike_id": "6cef27699ee330a120b9e068993ad6df", "type": "electric_scooter", "is_disabled": 0, "fusion_lon": 0.0}, {"rental_uris": {"android": "https://dc.lft.to/lastmile_qr_scan", "ios": "https://dc.lft.to/lastmile_qr_scan"}, "lon": -76.97371966666667, "name": "0ab2101120c9503e0b84a08a75045b6f", "lat": 38.85744183333333, "is_reserved": 0, "fusion_lat": 0.0, "bike_id": "0ab2101120c9503e0b84a08a75045b6f", "type": "electric_scooter", "is_disabled": 0, "fusion_lon": 0.0}, {"rental_uris": {"android": "https://dc.lft.to/lastmile_qr_scan", "ios": "https://dc.lft.to/lastmile_qr_scan"}, "lon": -77.12739833333333, "name": "31f8a1ecbd0b7ad90b9a3bcd2ceccc65", "lat": 38.895698833333334, "is_reserved": 0, "fusion_lat": 0.0, "bike_id": "31f8a1ecbd0b7ad90b9a3bcd2ceccc65", "type": "electric_bike", "is_disabled": 0, "fusion_lon": 0.0}, {"rental_uris": {"android": "https://dc.lft.to/lastmile_qr_scan", "ios": "https://dc.lft.to/lastmile_qr_scan"}, "lon": -77.04839383333334, "name": "89657ffdb24575943b6f39193217a017", "lat": 38.9161475, "is_reserved": 0, "fusion_lat": 0.0, "bike_id": "89657ffdb24575943b6f39193217a017", "type": "electric_scooter", "is_disabled": 0, "fusion_lon": 0.0}, {"rental_uris": {"android": "https://dc.lft.to/lastmile_qr_scan", "ios": "https://dc.lft.to/lastmile_qr_scan"}, "lon": -76.99661566666667, "name": "29c4af31c0cc62f404535af46059cb24", "lat": 38.81612333333333, "is_reserved": 0, "fusion_lat": 0.0, "bike_id": "29c4af31c0cc62f404535af46059cb24", "type": "electric_bike", "is_disabled": 0, "fusion_lon": 0.0}, {"rental_uris": {"android": "https://dc.lft.to/lastmile_qr_scan", "ios": "https://dc.lft.to/lastmile_qr_scan"}, "lon": -76.97239266666666, "name": "38905f52a3e28c09bbd4cfb624461dc8", "lat": 38.90426183333334, "is_reserved": 0, "fusion_lat": 0.0, "bike_id": "38905f52a3e28c09bbd4cfb624461dc8", "type": "electric_bike", "is_disabled": 0, "fusion_lon": 0.0}, {"rental_uris": {"android": "https://dc.lft.to/lastmile_qr_scan", "ios": "https://dc.lft.to/lastmile_qr_scan"}, "lon": -76.98764433333334, "name": "abecf9f58468ba027adb105c04e33d63", "lat": 38.900298166666666, "is_reserved": 0, "fusion_lat": 0.0, "bike_id": "abecf9f58468ba027adb105c04e33d63", "type": "electric_scooter", "is_disabled": 0, "fusion_lon": 0.0}, {"rental_uris": {"android": "https://dc.lft.to/lastmile_qr_scan", "ios": "https://dc.lft.to/lastmile_qr_scan"}, "lon": -77.03253, "name": "e2c650d50f3d02904c902c3cf393c987", "lat": 38.914255, "is_reserved": 0, "fusion_lat": 0.0, "bike_id": "e2c650d50f3d02904c902c3cf393c987", "type": "electric_scooter", "is_disabled": 0, "fusion_lon": 0.0}, {"rental_uris": {"android": "https://dc.lft.to/lastmile_qr_scan", "ios": "https://dc.lft.to/lastmile_qr_scan"}, "lon": -76.95837216666666, "name": "d5ef96214261072628e16535a4af0e39", "lat": 38.930487666666664, "is_reserved": 0, "fusion_lat": 0.0, "bike_id": "d5ef96214261072628e16535a4af0e39", "type": "electric_bike", "is_disabled": 0, "fusion_lon": 0.0}, {"rental_uris": {"android": "https://dc.lft.to/lastmile_qr_scan", "ios": "https://dc.lft.to/lastmile_qr_scan"}, "lon": -77.02488833333334, "name": "bc95863b8000857a37d3a662a9070672", "lat": 38.919327833333334, "is_reserved": 0, "fusion_lat": 0.0, "bike_id": "bc95863b8000857a37d3a662a9070672", "type": "electric_scooter", "is_disabled": 0, "fusion_lon": 0.0}, {"rental_uris": {"android": "https://dc.lft.to/lastmile_qr_scan", "ios": "https://dc.lft.to/lastmile_qr_scan"}, "lon": -77.04500233333333, "name": "7d64dc25dc40038b0e6c6e9d4ead1efd", "lat": 39.014192, "is_reserved": 0, "fusion_lat": 0.0, "bike_id": "7d64dc25dc40038b0e6c6e9d4ead1efd", "type": "electric_bike", "is_disabled": 0, "fusion_lon": 0.0}, {"rental_uris": {"android": "https://dc.lft.to/lastmile_qr_scan", "ios": "https://dc.lft.to/lastmile_qr_scan"}, "lon": -77.0443775, "name": "8a80e395f3880c1ea61e002072bc6f0d", "lat": 38.922317666666665, "is_reserved": 0, "fusion_lat": 0.0, "bike_id": "8a80e395f3880c1ea61e002072bc6f0d", "type": "electric_scooter", "is_disabled": 0, "fusion_lon": 0.0}, {"rental_uris": {"android": "https://dc.lft.to/lastmile_qr_scan", "ios": "https://dc.lft.to/lastmile_qr_scan"}, "lon": -77.0223835, "name": "efeeebf722eb027b4b8cd1529f1f8c12", "lat": 38.981082, "is_reserved": 0, "fusion_lat": 0.0, "bike_id": "efeeebf722eb027b4b8cd1529f1f8c12", "type": "electric_scooter", "is_disabled": 0, "fusion_lon": 0.0}, {"rental_uris": {"android": "https://dc.lft.to/lastmile_qr_scan", "ios": "https://dc.lft.to/lastmile_qr_scan"}, "lon": -77.02838433333334, "name": "7d650a3bacfa63732dad2060e853416f", "lat": 38.8937785, "is_reserved": 0, "fusion_lat": 0.0, "bike_id": "7d650a3bacfa63732dad2060e853416f", "type": "electric_scooter", "is_disabled": 0, "fusion_lon": 0.0}, {"rental_uris": {"android": "https://dc.lft.to/lastmile_qr_scan", "ios": "https://dc.lft.to/lastmile_qr_scan"}, "lon": -77.09961166666666, "name": "bda37bf384f4067b7fad18fd9ff3e3e3", "lat": 38.857903, "is_reserved": 0, "fusion_lat": 0.0, "bike_id": "bda37bf384f4067b7fad18fd9ff3e3e3", "type": "electric_bike", "is_disabled": 0, "fusion_lon": 0.0}, {"rental_uris": {"android": "https://dc.lft.to/lastmile_qr_scan", "ios": "https://dc.lft.to/lastmile_qr_scan"}, "lon": -77.05386433333334, "name": "445aed759d83e35ad062263588cb991b", "lat": 38.9106535, "is_reserved": 0, "fusion_lat": 0.0, "bike_id": "445aed759d83e35ad062263588cb991b", "type": "electric_scooter", "is_disabled": 0, "fusion_lon": 0.0}, {"rental_uris": {"android": "https://dc.lft.to/lastmile_qr_scan", "ios": "https://dc.lft.to/lastmile_qr_scan"}, "lon": -77.02177766666667, "name": "9000d6c0aadf1622526a61f0f7b45b1f", "lat": 38.892996833333335, "is_reserved": 0, "fusion_lat": 0.0, "bike_id": "9000d6c0aadf1622526a61f0f7b45b1f", "type": "electric_scooter", "is_disabled": 0, "fusion_lon": 0.0}, {"rental_uris": {"android": "https://dc.lft.to/lastmile_qr_scan", "ios": "https://dc.lft.to/lastmile_qr_scan"}, "lon": -77.03665883333333, "name": "7d08991f34606c28b4336c551895dabf", "lat": 38.92282216666667, "is_reserved": 0, "fusion_lat": 0.0, "bike_id": "7d08991f34606c28b4336c551895dabf", "type": "electric_scooter", "is_disabled": 0, "fusion_lon": 0.0}, {"rental_uris": {"android": "https://dc.lft.to/lastmile_qr_scan", "ios": "https://dc.lft.to/lastmile_qr_scan"}, "lon": -77.04504933333334, "name": "a8c57a0cba433ed164146aaaf9d227e4", "lat": 38.91597683333333, "is_reserved": 0, "fusion_lat": 0.0, "bike_id": "a8c57a0cba433ed164146aaaf9d227e4", "type": "electric_scooter", "is_disabled": 0, "fusion_lon": 0.0}, {"rental_uris": {"android": "https://dc.lft.to/lastmile_qr_scan", "ios": "https://dc.lft.to/lastmile_qr_scan"}, "lon": -77.02202633333333, "name": "d4e8b8e4820f8d664a68e6e690cd3217", "lat": 38.90572566666667, "is_reserved": 0, "fusion_lat": 0.0, "bike_id": "d4e8b8e4820f8d664a68e6e690cd3217", "type": "electric_scooter", "is_disabled": 0, "fusion_lon": 0.0}, {"rental_uris": {"android": "https://dc.lft.to/lastmile_qr_scan", "ios": "https://dc.lft.to/lastmile_qr_scan"}, "lon": -77.02735566666667, "name": "535afffbdad4e8e55fc2c068c7acf350", "lat": 38.90275583333333, "is_reserved": 0, "fusion_lat": 0.0, "bike_id": "535afffbdad4e8e55fc2c068c7acf350", "type": "electric_scooter", "is_disabled": 0, "fusion_lon": 0.0}, {"rental_uris": {"android": "https://dc.lft.to/lastmile_qr_scan", "ios": "https://dc.lft.to/lastmile_qr_scan"}, "lon": -77.02741783333333, "name": "89bd0dc37f0ca1b3c7aec3428782cf08", "lat": 38.89984666666667, "is_reserved": 0, "fusion_lat": 0.0, "bike_id": "89bd0dc37f0ca1b3c7aec3428782cf08", "type": "electric_scooter", "is_disabled": 0, "fusion_lon": 0.0}, {"rental_uris": {"android": "https://dc.lft.to/lastmile_qr_scan", "ios": "https://dc.lft.to/lastmile_qr_scan"}, "lon": -77.02534416666667, "name": "1648ef70b43ab6815533261be12d6f62", "lat": 38.92063733333333, "is_reserved": 0, "fusion_lat": 0.0, "bike_id": "1648ef70b43ab6815533261be12d6f62", "type": "electric_scooter", "is_disabled": 0, "fusion_lon": 0.0}, {"rental_uris": {"android": "https://dc.lft.to/lastmile_qr_scan", "ios": "https://dc.lft.to/lastmile_qr_scan"}, "lon": -77.027247, "name": "98bb151c15f73bf9b68c5fc26b650528", "lat": 38.926713166666666, "is_reserved": 0, "fusion_lat": 0.0, "bike_id": "98bb151c15f73bf9b68c5fc26b650528", "type": "electric_scooter", "is_disabled": 0, "fusion_lon": 0.0}, {"rental_uris": {"android": "https://dc.lft.to/lastmile_qr_scan", "ios": "https://dc.lft.to/lastmile_qr_scan"}, "lon": -77.01846683333333, "name": "b95d6bc0ab160677463526afdc281585", "lat": 38.93099133333333, "is_reserved": 0, "fusion_lat": 0.0, "bike_id": "b95d6bc0ab160677463526afdc281585", "type": "electric_bike", "is_disabled": 0, "fusion_lon": 0.0}, {"rental_uris": {"android": "https://dc.lft.to/lastmile_qr_scan", "ios": "https://dc.lft.to/lastmile_qr_scan"}, "lon": -77.0473485, "name": "bd6571273328efe109e7b623e257fb17", "lat": 38.90865566666667, "is_reserved": 0, "fusion_lat": 0.0, "bike_id": "bd6571273328efe109e7b623e257fb17", "type": "electric_scooter", "is_disabled": 0, "fusion_lon": 0.0}, {"rental_uris": {"android": "https://dc.lft.to/lastmile_qr_scan", "ios": "https://dc.lft.to/lastmile_qr_scan"}, "lon": -77.038343, "name": "0c0e32c79bd5d6ffa9a2211651193f63", "lat": 38.941948, "is_reserved": 0, "fusion_lat": 0.0, "bike_id": "0c0e32c79bd5d6ffa9a2211651193f63", "type": "electric_scooter", "is_disabled": 0, "fusion_lon": 0.0}, {"rental_uris": {"android": "https://dc.lft.to/lastmile_qr_scan", "ios": "https://dc.lft.to/lastmile_qr_scan"}, "lon": -77.02839416666667, "name": "7662211dcc1775d3f4d7538ea8418233", "lat": 38.893721166666666, "is_reserved": 0, "fusion_lat": 0.0, "bike_id": "7662211dcc1775d3f4d7538ea8418233", "type": "electric_scooter", "is_disabled": 0, "fusion_lon": 0.0}, {"rental_uris": {"android": "https://dc.lft.to/lastmile_qr_scan", "ios": "https://dc.lft.to/lastmile_qr_scan"}, "lon": -77.00821133333334, "name": "86575af997c21aaa52167884961fc8f2", "lat": 38.90262466666667, "is_reserved": 0, "fusion_lat": 0.0, "bike_id": "86575af997c21aaa52167884961fc8f2", "type": "electric_scooter", "is_disabled": 0, "fusion_lon": 0.0}, {"rental_uris": {"android": "https://dc.lft.to/lastmile_qr_scan", "ios": "https://dc.lft.to/lastmile_qr_scan"}, "lon": -77.04703066666667, "name": "cfd860aa67a1fa9c05cde273f750080a", "lat": 38.92185766666667, "is_reserved": 0, "fusion_lat": 0.0, "bike_id": "cfd860aa67a1fa9c05cde273f750080a", "type": "electric_scooter", "is_disabled": 0, "fusion_lon": 0.0}, {"rental_uris": {"android": "https://dc.lft.to/lastmile_qr_scan", "ios": "https://dc.lft.to/lastmile_qr_scan"}, "lon": -77.00603866666667, "name": "0126d4b54561d67d615556db595b398c", "lat": 38.87794566666667, "is_reserved": 0, "fusion_lat": 0.0, "bike_id": "0126d4b54561d67d615556db595b398c", "type": "electric_scooter", "is_disabled": 0, "fusion_lon": 0.0}, {"rental_uris": {"android": "https://dc.lft.to/lastmile_qr_scan", "ios": "https://dc.lft.to/lastmile_qr_scan"}, "lon": -77.001874, "name": "3b97eeb0f7e7ac30c6d96aa0df93bed4", "lat": 38.87389983333333, "is_reserved": 0, "fusion_lat": 0.0, "bike_id": "3b97eeb0f7e7ac30c6d96aa0df93bed4", "type": "electric_scooter", "is_disabled": 0, "fusion_lon": 0.0}, {"rental_uris": {"android": "https://dc.lft.to/lastmile_qr_scan", "ios": "https://dc.lft.to/lastmile_qr_scan"}, "lon": -76.97345583333333, "name": "88efb4aa16efbf6e1535948e949f4f3f", "lat": 38.86517633333333, "is_reserved": 0, "fusion_lat": 0.0, "bike_id": "88efb4aa16efbf6e1535948e949f4f3f", "type": "electric_scooter", "is_disabled": 0, "fusion_lon": 0.0}, {"rental_uris": {"android": "https://dc.lft.to/lastmile_qr_scan", "ios": "https://dc.lft.to/lastmile_qr_scan"}, "lon": -77.0424985, "name": "5894e0f46ed59efb985d919ea64e8474", "lat": 38.92430916666667, "is_reserved": 0, "fusion_lat": 0.0, "bike_id": "5894e0f46ed59efb985d919ea64e8474", "type": "electric_scooter", "is_disabled": 0, "fusion_lon": 0.0}, {"rental_uris": {"android": "https://dc.lft.to/lastmile_qr_scan", "ios": "https://dc.lft.to/lastmile_qr_scan"}, "lon": -77.000683, "name": "8dba6a6258cfc68c4ada63a94c99f6a6", "lat": 38.8744755, "is_reserved": 0, "fusion_lat": 0.0, "bike_id": "8dba6a6258cfc68c4ada63a94c99f6a6", "type": "electric_scooter", "is_disabled": 0, "fusion_lon": 0.0}, {"rental_uris": {"android": "https://dc.lft.to/lastmile_qr_scan", "ios": "https://dc.lft.to/lastmile_qr_scan"}, "lon": -77.03123466666666, "name": "7d934d2e64742d1f3c978482d9a64d57", "lat": 38.905295333333335, "is_reserved": 0, "fusion_lat": 0.0, "bike_id": "7d934d2e64742d1f3c978482d9a64d57", "type": "electric_scooter", "is_disabled": 0, "fusion_lon": 0.0}, {"rental_uris": {"android": "https://dc.lft.to/lastmile_qr_scan", "ios": "https://dc.lft.to/lastmile_qr_scan"}, "lon": -76.9973905, "name": "bf4c25f17608e64c56e32ada7e546ae0", "lat": 39.04234533333333, "is_reserved": 0, "fusion_lat": 0.0, "bike_id": "bf4c25f17608e64c56e32ada7e546ae0", "type": "electric_bike", "is_disabled": 0, "fusion_lon": 0.0}, {"rental_uris": {"android": "https://dc.lft.to/lastmile_qr_scan", "ios": "https://dc.lft.to/lastmile_qr_scan"}, "lon": -77.01360916666667, "name": "4d13cea056316f4817489bd65c442608", "lat": 38.91949416666667, "is_reserved": 0, "fusion_lat": 0.0, "bike_id": "4d13cea056316f4817489bd65c442608", "type": "electric_scooter", "is_disabled": 0, "fusion_lon": 0.0}, {"rental_uris": {"android": "https://dc.lft.to/lastmile_qr_scan", "ios": "https://dc.lft.to/lastmile_qr_scan"}, "lon": -76.98430933333333, "name": "eb513dd4deba326a7bd2ab6ae32c3d74", "lat": 38.90578516666667, "is_reserved": 0, "fusion_lat": 0.0, "bike_id": "eb513dd4deba326a7bd2ab6ae32c3d74", "type": "electric_scooter", "is_disabled": 0, "fusion_lon": 0.0}, {"rental_uris": {"android": "https://dc.lft.to/lastmile_qr_scan", "ios": "https://dc.lft.to/lastmile_qr_scan"}, "lon": -77.0176285, "name": "1e5ee75e8f0f927bff459ba54747fb9f", "lat": 38.90269633333333, "is_reserved": 0, "fusion_lat": 0.0, "bike_id": "1e5ee75e8f0f927bff459ba54747fb9f", "type": "electric_scooter", "is_disabled": 0, "fusion_lon": 0.0}, {"rental_uris": {"android": "https://dc.lft.to/lastmile_qr_scan", "ios": "https://dc.lft.to/lastmile_qr_scan"}, "lon": -77.056725, "name": "6c71ac56b224af8207c3c792cee7c59d", "lat": 38.90489383333333, "is_reserved": 0, "fusion_lat": 0.0, "bike_id": "6c71ac56b224af8207c3c792cee7c59d", "type": "electric_scooter", "is_disabled": 0, "fusion_lon": 0.0}, {"rental_uris": {"android": "https://dc.lft.to/lastmile_qr_scan", "ios": "https://dc.lft.to/lastmile_qr_scan"}, "lon": -77.038045, "name": "ea38f70e5a4ff8c7a61ade38a814cea0", "lat": 38.925053166666665, "is_reserved": 0, "fusion_lat": 0.0, "bike_id": "ea38f70e5a4ff8c7a61ade38a814cea0", "type": "electric_scooter", "is_disabled": 0, "fusion_lon": 0.0}, {"rental_uris": {"android": "https://dc.lft.to/lastmile_qr_scan", "ios": "https://dc.lft.to/lastmile_qr_scan"}, "lon": -77.02375166666667, "name": "49cc364adbe216f04f9339dd018a776f", "lat": 38.95304983333333, "is_reserved": 0, "fusion_lat": 0.0, "bike_id": "49cc364adbe216f04f9339dd018a776f", "type": "electric_scooter", "is_disabled": 0, "fusion_lon": 0.0}, {"rental_uris": {"android": "https://dc.lft.to/lastmile_qr_scan", "ios": "https://dc.lft.to/lastmile_qr_scan"}, "lon": -77.02836116666667, "name": "c86a0a4911880549ce27302af7d10187", "lat": 38.92470216666667, "is_reserved": 0, "fusion_lat": 0.0, "bike_id": "c86a0a4911880549ce27302af7d10187", "type": "electric_scooter", "is_disabled": 0, "fusion_lon": 0.0}, {"rental_uris": {"android": "https://dc.lft.to/lastmile_qr_scan", "ios": "https://dc.lft.to/lastmile_qr_scan"}, "lon": -76.9995975, "name": "5aa98f8b71eab6a9715d2e2f17b802de", "lat": 38.9083295, "is_reserved": 0, "fusion_lat": 0.0, "bike_id": "5aa98f8b71eab6a9715d2e2f17b802de", "type": "electric_scooter", "is_disabled": 0, "fusion_lon": 0.0}, {"rental_uris": {"android": "https://dc.lft.to/lastmile_qr_scan", "ios": "https://dc.lft.to/lastmile_qr_scan"}, "lon": -76.94654433333334, "name": "ae61d63d10818fbbadba2d5588e33738", "lat": 38.89828, "is_reserved": 0, "fusion_lat": 0.0, "bike_id": "ae61d63d10818fbbadba2d5588e33738", "type": "electric_scooter", "is_disabled": 0, "fusion_lon": 0.0}, {"rental_uris": {"android": "https://dc.lft.to/lastmile_qr_scan", "ios": "https://dc.lft.to/lastmile_qr_scan"}, "lon": -77.0471895, "name": "75b3ca19dc37cca2f13d67ccd73d1d57", "lat": 38.90243733333333, "is_reserved": 0, "fusion_lat": 0.0, "bike_id": "75b3ca19dc37cca2f13d67ccd73d1d57", "type": "electric_scooter", "is_disabled": 0, "fusion_lon": 0.0}, {"rental_uris": {"android": "https://dc.lft.to/lastmile_qr_scan", "ios": "https://dc.lft.to/lastmile_qr_scan"}, "lon": -76.99844166666666, "name": "c97a8abe2270f302c6573b65a5993814", "lat": 38.90033116666667, "is_reserved": 0, "fusion_lat": 0.0, "bike_id": "c97a8abe2270f302c6573b65a5993814", "type": "electric_scooter", "is_disabled": 0, "fusion_lon": 0.0}, {"rental_uris": {"android": "https://dc.lft.to/lastmile_qr_scan", "ios": "https://dc.lft.to/lastmile_qr_scan"}, "lon": -77.0178, "name": "c54380079491f5c87e7477370efc9097", "lat": 38.92044466666667, "is_reserved": 0, "fusion_lat": 0.0, "bike_id": "c54380079491f5c87e7477370efc9097", "type": "electric_scooter", "is_disabled": 0, "fusion_lon": 0.0}, {"rental_uris": {"android": "https://dc.lft.to/lastmile_qr_scan", "ios": "https://dc.lft.to/lastmile_qr_scan"}, "lon": -77.032814, "name": "f2807434c2bd14a503295aae2ab38344", "lat": 38.9325865, "is_reserved": 0, "fusion_lat": 0.0, "bike_id": "f2807434c2bd14a503295aae2ab38344", "type": "electric_scooter", "is_disabled": 0, "fusion_lon": 0.0}, {"rental_uris": {"android": "https://dc.lft.to/lastmile_qr_scan", "ios": "https://dc.lft.to/lastmile_qr_scan"}, "lon": -76.995474, "name": "329236dbaf333c80ca0f83a21e442bc0", "lat": 38.83159466666667, "is_reserved": 0, "fusion_lat": 0.0, "bike_id": "329236dbaf333c80ca0f83a21e442bc0", "type": "electric_bike", "is_disabled": 0, "fusion_lon": 0.0}, {"rental_uris": {"android": "https://dc.lft.to/lastmile_qr_scan", "ios": "https://dc.lft.to/lastmile_qr_scan"}, "lon": -77.03165433333334, "name": "bbec91bcf0bb58e482fa4879cfedafc0", "lat": 38.9009705, "is_reserved": 0, "fusion_lat": 0.0, "bike_id": "bbec91bcf0bb58e482fa4879cfedafc0", "type": "electric_scooter", "is_disabled": 0, "fusion_lon": 0.0}, {"rental_uris": {"android": "https://dc.lft.to/lastmile_qr_scan", "ios": "https://dc.lft.to/lastmile_qr_scan"}, "lon": -77.01974533333333, "name": "2b546de916816fe2db0b7014e829e295", "lat": 38.911663, "is_reserved": 0, "fusion_lat": 0.0, "bike_id": "2b546de916816fe2db0b7014e829e295", "type": "electric_scooter", "is_disabled": 0, "fusion_lon": 0.0}, {"rental_uris": {"android": "https://dc.lft.to/lastmile_qr_scan", "ios": "https://dc.lft.to/lastmile_qr_scan"}, "lon": -77.02354633333333, "name": "fe308e6ff69fe52eab2f42040ab477a3", "lat": 38.90242283333333, "is_reserved": 0, "fusion_lat": 0.0, "bike_id": "fe308e6ff69fe52eab2f42040ab477a3", "type": "electric_scooter", "is_disabled": 0, "fusion_lon": 0.0}, {"rental_uris": {"android": "https://dc.lft.to/lastmile_qr_scan", "ios": "https://dc.lft.to/lastmile_qr_scan"}, "lon": -77.0349745, "name": "ddeeb49cde15fd81feadfa7f926e08c9", "lat": 38.9002565, "is_reserved": 0, "fusion_lat": 0.0, "bike_id": "ddeeb49cde15fd81feadfa7f926e08c9", "type": "electric_scooter", "is_disabled": 0, "fusion_lon": 0.0},