{"data": {"bikes": [{"is_disabled": 0, "fusion_lon": 0.0, "fusion_lat": 0.0, "lat": 38.91418483333333, "type": "electric_scooter", "lon": -77.02970883333333, "bike_id": "eb5d8ee9eb552f195ce1a7901b1dcb1a", "rental_uris": {"android": "https://dc.lft.to/lastmile_qr_scan", "ios": "https://dc.lft.to/lastmile_qr_scan"}, "name": "eb5d8ee9eb552f195ce1a7901b1dcb1a", "is_reserved": 0}, {"is_disabled": 0, "fusion_lon": 0.0, "fusion_lat": 0.0, "lat": 38.9177975, "type": "electric_scooter", "lon": -77.04151283333333, "bike_id": "879af9fc6d3fd313341a802f6aa25c65", "rental_uris": {"android": "https://dc.lft.to/lastmile_qr_scan", "ios": "https://dc.lft.to/lastmile_qr_scan"}, "name": "879af9fc6d3fd313341a802f6aa25c65", "is_reserved": 0}, {"is_disabled": 0, "fusion_lon": 0.0, "fusion_lat": 0.0, "lat": 38.900158, "type": "electric_scooter", "lon": -77.03368633333334, "bike_id": "53f7a5689ce4252d28e2986167119e30", "rental_uris": {"android": "https://dc.lft.to/lastmile_qr_scan", "ios": "https://dc.lft.to/lastmile_qr_scan"}, "name": "53f7a5689ce4252d28e2986167119e30", "is_reserved": 0}, {"is_disabled": 0, "fusion_lon": 0.0, "fusion_lat": 0.0, "lat": 38.92133883333333, "type": "electric_scooter", "lon": -77.04437966666667, "bike_id": "43842929cefb00728f2b64f479cd612b", "rental_uris": {"android": "https://dc.lft.to/lastmile_qr_scan", "ios": "https://dc.lft.to/lastmile_qr_scan"}, "name": "43842929cefb00728f2b64f479cd612b", "is_reserved": 0}, {"is_disabled": 0, "fusion_lon": 0.0, "fusion_lat": 0.0, "lat": 38.921292333333334, "type": "electric_scooter", "lon": -77.043871, "bike_id": "8c472fda037d124af0c236e0a1616fd0", "rental_uris": {"android": "https://dc.lft.to/lastmile_qr_scan", "ios": "https://dc.lft.to/lastmile_qr_scan"}, "name": "8c472fda037d124af0c236e0a1616fd0", "is_reserved": 0}, {"is_disabled": 0, "fusion_lon": 0.0, "fusion_lat": 0.0, "lat": 38.904747666666665, "type": "electric_bike", "lon": -76.929477, "bike_id": "084bb2ba548f1628f5993ffdc1dcaa4a", "rental_uris": {"android": "https://dc.lft.to/lastmile_qr_scan", "ios": "https://dc.lft.to/lastmile_qr_scan"}, "name": "084bb2ba548f1628f5993ffdc1dcaa4a", "is_reserved": 0}, {"is_disabled": 0, "fusion_lon": 0.0, "fusion_lat": 0.0, "lat": 38.85785033333333, "type": "electric_bike", "lon": -76.98754816666667, "bike_id": "6676e85d316bffe460d76163403cbe57", "rental_uris": {"android": "https://dc.lft.to/lastmile_qr_scan", "ios": "https://dc.lft.to/lastmile_qr_scan"}, "name": "6676e85d316bffe460d76163403cbe57", "is_reserved": 0}, {"is_disabled": 0, "fusion_lon": 0.0, "fusion_lat": 0.0, "lat": 38.85284983333333, "type": "electric_bike", "lon": -76.98153433333333, "bike_id": "9eed124229cc594007eff4f3fcb51e6c", "rental_uris": {"android": "https://dc.lft.to/lastmile_qr_scan", "ios": "https://dc.lft.to/lastmile_qr_scan"}, "name": "9eed124229cc594007eff4f3fcb51e6c", "is_reserved": 0}, {"is_disabled": 0, "fusion_lon": 0.0, "fusion_lat": 0.0, "lat": 38.90579066666667, "type": "electric_scooter", "lon": -77.05590016666666, "bike_id": "05b6c65fb53434a321bee33b617b2bc8", "rental_uris": {"android": "https://dc.lft.to/lastmile_qr_scan", "ios": "https://dc.lft.to/lastmile_qr_scan"}, "name": "05b6c65fb53434a321bee33b617b2bc8", "is_reserved": 0}, {"is_disabled": 0, "fusion_lon": 0.0, "fusion_lat": 0.0, "lat": 38.9046045, "type": "electric_scooter", "lon": -77.02408066666666, "bike_id": "5a8fa7302849a5559bded5712f39695c", "rental_uris": {"android": "https://dc.lft.to/lastmile_qr_scan", "ios": "https://dc.lft.to/lastmile_qr_scan"}, "name": "5a8fa7302849a5559bded5712f39695c", "is_reserved": 0}, {"is_disabled": 0, "fusion_lon": 0.0, "fusion_lat": 0.0, "lat": 38.94333183333333, "type": "electric_bike", "lon": -77.01476916666667, "bike_id": "0ea4f3148dfca9941a271346b956c7ee", "rental_uris": {"android": "https://dc.lft.to/lastmile_qr_scan", "ios": "https://dc.lft.to/lastmile_qr_scan"}, "name": "0ea4f3148dfca9941a271346b956c7ee", "is_reserved": 0}, {"is_disabled": 0, "fusion_lon": 0.0, "fusion_lat": 0.0, "lat": 38.83612016666667, "type": "electric_bike", "lon": -77.00380283333334, "bike_id": "c2e52191812a19ecc1e6776136b8586b", "rental_uris": {"android": "https://dc.lft.to/lastmile_qr_scan", "ios": "https://dc.lft.to/lastmile_qr_scan"}, "name": "c2e52191812a19ecc1e6776136b8586b", "is_reserved": 0}, {"is_disabled": 0, "fusion_lon": 0.0, "fusion_lat": 0.0, "lat": 38.888809, "type": "electric_scooter", "lon": -77.02856083333333, "bike_id": "29bfbdfcb25d02e34f5e91518f936e9f", "rental_uris": {"android": "https://dc.lft.to/lastmile_qr_scan", "ios": "https://dc.lft.to/lastmile_qr_scan"}, "name": "29bfbdfcb25d02e34f5e91518f936e9f", "is_reserved": 0}, {"is_disabled": 0, "fusion_lon": 0.0, "fusion_lat": 0.0, "lat": 38.9165435, "type": "electric_scooter", "lon": -77.034456, "bike_id": "3a1bcda455a346976efa312ea531b787", "rental_uris": {"android": "https://dc.lft.to/lastmile_qr_scan", "ios": "https://dc.lft.to/lastmile_qr_scan"}, "name": "3a1bcda455a346976efa312ea531b787", "is_reserved": 0}, {"is_disabled": 0, "fusion_lon": 0.0, "fusion_lat": 0.0, "lat": 38.905582333333335, "type": "electric_scooter", "lon": -77.02001383333334, "bike_id": "4e33eb28b175d8f606386650f2ccf753", "rental_uris": {"android": "https://dc.lft.to/lastmile_qr_scan", "ios": "https://dc.lft.to/lastmile_qr_scan"}, "name": "4e33eb28b175d8f606386650f2ccf753", "is_reserved": 0}, {"is_disabled": 0, "fusion_lon": 0.0, "fusion_lat": 0.0, "lat": 38.91286816666667, "type": "electric_scooter", "lon": -76.98685116666667, "bike_id": "250b2913678b294fe79ee2842d8117d1", "rental_uris": {"android": "https://dc.lft.to/lastmile_qr_scan", "ios": "https://dc.lft.to/lastmile_qr_scan"}, "name": "250b2913678b294fe79ee2842d8117d1", "is_reserved": 0}, {"is_disabled": 0, "fusion_lon": 0.0, "fusion_lat": 0.0, "lat": 38.905395666666664, "type": "electric_scooter", "lon": -77.05695783333333, "bike_id": "6bff630ec8e238b05f9f2081f5ee171c", "rental_uris": {"android": "https://dc.lft.to/lastmile_qr_scan", "ios": "https://dc.lft.to/lastmile_qr_scan"}, "name": "6bff630ec8e238b05f9f2081f5ee171c", "is_reserved": 0}, {"is_disabled": 0, "fusion_lon": 0.0, "fusion_lat": 0.0, "lat": 38.911876, "type": "electric_scooter", "lon": -77.03921016666666, "bike_id": "12a723a0dd2615ee9f632b8bcdb66856", "rental_uris": {"android": "https://dc.lft.to/lastmile_qr_scan", "ios": "https://dc.lft.to/lastmile_qr_scan"}, "name": "12a723a0dd2615ee9f632b8bcdb66856", "is_reserved": 0}, {"is_disabled": 0, "fusion_lon": 0.0, "fusion_lat": 0.0, "lat": 38.89909333333333, "type": "electric_scooter", "lon": -76.93391816666667, "bike_id": "83cf48f874fade76e514d1b8ef1c904f", "rental_uris": {"android": "https://dc.lft.to/lastmile_qr_scan", "ios": "https://dc.lft.to/lastmile_qr_scan"}, "name": "83cf48f874fade76e514d1b8ef1c904f", "is_reserved": 0}, {"is_disabled": 0, "fusion_lon": 0.0, "fusion_lat": 0.0, "lat": 38.89207583333334, "type": "electric_scooter", "lon": -76.98801666666667, "bike_id": "4181f81b764cf6041d94f26d501ffe6f", "rental_uris": {"android": "https://dc.lft.to/lastmile_qr_scan", "ios": "https://dc.lft.to/lastmile_qr_scan"}, "name": "4181f81b764cf6041d94f26d501ffe6f", "is_reserved": 0}, {"is_disabled": 0, "fusion_lon": 0.0, "fusion_lat": 0.0, "lat": 38.89818183333333, "type": "electric_scooter", "lon": -77.0313915, "bike_id": "140239e9ca3aab1052a1bf7b85b6dd97", "rental_uris": {"android": "https://dc.lft.to/lastmile_qr_scan", "ios": "https://dc.lft.to/lastmile_qr_scan"}, "name": "140239e9ca3aab1052a1bf7b85b6dd97", "is_reserved": 0}, {"is_disabled": 0, "fusion_lon": 0.0, "fusion_lat": 0.0, "lat": 38.92422766666667, "type": "electric_scooter", "lon": -77.05618316666667, "bike_id": "951157fed376063a49ef47587e0bfd05", "rental_uris": {"android": "https://dc.lft.to/lastmile_qr_scan", "ios": "https://dc.lft.to/lastmile_qr_scan"}, "name": "951157fed376063a49ef47587e0bfd05", "is_reserved": 0}, {"is_disabled": 0, "fusion_lon": 0.0, "fusion_lat": 0.0, "lat": 38.9693435, "type": "electric_bike", "lon": -77.02627816666667, "bike_id": "ca0885b8be819bbea985753b62a019f8", "rental_uris": {"android": "https://dc.lft.to/lastmile_qr_scan", "ios": "https://dc.lft.to/lastmile_qr_scan"}, "name": "ca0885b8be819bbea985753b62a019f8", "is_reserved": 0}, {"is_disabled": 0, "fusion_lon": 0.0, "fusion_lat": 0.0, "lat": 38.91856033333333, "type": "electric_scooter", "lon": -77.02955933333334, "bike_id": "97b393fc6311851a6a104d4e7dd1efbe", "rental_uris": {"android": "https://dc.lft.to/lastmile_qr_scan", "ios": "https://dc.lft.to/lastmile_qr_scan"}, "name": "97b393fc6311851a6a104d4e7dd1efbe", "is_reserved": 0}, {"is_disabled": 0, "fusion_lon": 0.0, "fusion_lat": 0.0, "lat": 38.916995166666666, "type": "electric_scooter", "lon": -77.02181416666667, "bike_id": "cbf046bce1adbf17218894c1f7602a8b", "rental_uris": {"android": "https://dc.lft.to/lastmile_qr_scan", "ios": "https://dc.lft.to/lastmile_qr_scan"}, "name": "cbf046bce1adbf17218894c1f7602a8b", "is_reserved": 0}, {"is_disabled": 0, "fusion_lon": 0.0, "fusion_lat": 0.0, "lat": 38.914733, "type": "electric_scooter", "lon": -77.04391133333333, "bike_id": "53e8753ed8ac4f66f6dd25ba538cd968", "rental_uris": {"android": "https://dc.lft.to/lastmile_qr_scan", "ios": "https://dc.lft.to/lastmile_qr_scan"}, "name": "53e8753ed8ac4f66f6dd25ba538cd968", "is_reserved": 0}, {"is_disabled": 0, "fusion_lon": 0.0, "fusion_lat": 0.0, "lat": 38.98662916666667, "type": "electric_scooter", "lon": -77.0264305, "bike_id": "508c1abaa2926e78f8a86973af8a793c", "rental_uris": {"android": "https://dc.lft.to/lastmile_qr_scan", "ios": "https://dc.lft.to/lastmile_qr_scan"}, "name": "508c1abaa2926e78f8a86973af8a793c", "is_reserved": 0}, {"is_disabled": 0, "fusion_lon": 0.0, "fusion_lat": 0.0, "lat": 38.827304166666664, "type": "electric_bike", "lon": -77.0085925, "bike_id": "3f5fdf3983e1de588af646e7b505c3eb", "rental_uris": {"android": "https://dc.lft.to/lastmile_qr_scan", "ios": "https://dc.lft.to/lastmile_qr_scan"}, "name": "3f5fdf3983e1de588af646e7b505c3eb", "is_reserved": 0}, {"is_disabled": 0, "fusion_lon": 0.0, "fusion_lat": 0.0, "lat": 38.92082816666667, "type": "electric_bike", "lon": -77.003415, "bike_id": "e48a4f3dd72dc1aea4eef6489fb0a410", "rental_uris": {"android": "https://dc.lft.to/lastmile_qr_scan", "ios": "https://dc.lft.to/lastmile_qr_scan"}, "name": "e48a4f3dd72dc1aea4eef6489fb0a410", "is_reserved": 0}, {"is_disabled": 0, "fusion_lon": 0.0, "fusion_lat": 0.0, "lat": 38.89365683333333, "type": "electric_scooter", "lon": -77.02265183333333, "bike_id": "ae19b58f47317ef730e2a3caf52df4b9", "rental_uris": {"android": "https://dc.lft.to/lastmile_qr_scan", "ios": "https://dc.lft.to/lastmile_qr_scan"}, "name": "ae19b58f47317ef730e2a3caf52df4b9", "is_reserved": 0}, {"is_disabled": 0, "fusion_lon": 0.0, "fusion_lat": 0.0, "lat": 38.90574733333333, "type": "electric_scooter", "lon": -77.03010583333334, "bike_id": "4edbad48c83e329cff2fad3c412e9f50", "rental_uris": {"android": "https://dc.lft.to/lastmile_qr_scan", "ios": "https://dc.lft.to/lastmile_qr_scan"}, "name": "4edbad48c83e329cff2fad3c412e9f50", "is_reserved": 0}, {"is_disabled": 0, "fusion_lon": 0.0, "fusion_lat": 0.0, "lat": 38.907331166666665, "type": "electric_scooter", "lon": -77.03072183333333, "bike_id": "24b41a6c2791f28e7de28bb4063471c0", "rental_uris": {"android": "https://dc.lft.to/lastmile_qr_scan", "ios": "https://dc.lft.to/lastmile_qr_scan"}, "name": "24b41a6c2791f28e7de28bb4063471c0", "is_reserved": 0}, {"is_disabled": 0, "fusion_lon": 0.0, "fusion_lat": 0.0, "lat": 38.888659, "type": "electric_scooter", "lon": -76.97737133333334, "bike_id": "04e601d0b4420e5b8db0c94a89aa0067", "rental_uris": {"android": "https://dc.lft.to/lastmile_qr_scan", "ios": "https://dc.lft.to/lastmile_qr_scan"}, "name": "04e601d0b4420e5b8db0c94a89aa0067", "is_reserved": 0}, {"is_disabled": 0, "fusion_lon": 0.0, "fusion_lat": 0.0, "lat": 38.90558383333333, "type": "electric_scooter", "lon": -77.0005695, "bike_id": "4374214bad81ff29f83fcd6069f2e767", "rental_uris": {"android": "https://dc.lft.to/lastmile_qr_scan", "ios": "https://dc.lft.to/lastmile_qr_scan"}, "name": "4374214bad81ff29f83fcd6069f2e767", "is_reserved": 0}, {"is_disabled": 0, "fusion_lon": 0.0, "fusion_lat": 0.0, "lat": 38.93127066666667, "type": "electric_scooter", "lon": -77.0570425, "bike_id": "b06834215baf0c9a688fa06e606f1d46", "rental_uris": {"android": "https://dc.lft.to/lastmile_qr_scan", "ios": "https://dc.lft.to/lastmile_qr_scan"}, "name": "b06834215baf0c9a688fa06e606f1d46", "is_reserved": 0}, {"is_disabled": 0, "fusion_lon": 0.0, "fusion_lat": 0.0, "lat": 38.935229166666666, "type": "electric_scooter", "lon": -77.0238295, "bike_id": "9c3bafee0c797d0c754d7453172ab007", "rental_uris": {"android": "https://dc.lft.to/lastmile_qr_scan", "ios": "https://dc.lft.to/lastmile_qr_scan"}, "name": "9c3bafee0c797d0c754d7453172ab007", "is_reserved": 0}, {"is_disabled": 0, "fusion_lon": 0.0, "fusion_lat": 0.0, "lat": 38.896543666666666, "type": "electric_scooter", "lon": -77.04336033333334, "bike_id": "f9fa66818b3ba86e95c9883dc0e55403", "rental_uris": {"android": "https://dc.lft.to/lastmile_qr_scan", "ios": "https://dc.lft.to/lastmile_qr_scan"}, "name": "f9fa66818b3ba86e95c9883dc0e55403", "is_reserved": 0}, {"is_disabled": 0, "fusion_lon": 0.0, "fusion_lat": 0.0, "lat": 38.911979, "type": "electric_scooter", "lon": -77.0121115, "bike_id": "a6519202dabf63d36b58dfa2c3c7d84f", "rental_uris": {"android": "https://dc.lft.to/lastmile_qr_scan", "ios": "https://dc.lft.to/lastmile_qr_scan"}, "name": "a6519202dabf63d36b58dfa2c3c7d84f", "is_reserved": 0}, {"is_disabled": 0, "fusion_lon": 0.0, "fusion_lat": 0.0, "lat": 38.906793666666665, "type": "electric_scooter", "lon": -77.02707833333334, "bike_id": "0f5afdeba127f35ae6608f1fedfa5e95", "rental_uris": {"android": "https://dc.lft.to/lastmile_qr_scan", "ios": "https://dc.lft.to/lastmile_qr_scan"}, "name": "0f5afdeba127f35ae6608f1fedfa5e95", "is_reserved": 0}, {"is_disabled": 0, "fusion_lon": 0.0, "fusion_lat": 0.0, "lat": 38.906263, "type": "electric_scooter", "lon": -77.02818733333334, "bike_id": "5932c7b876b18d55c870f4f70664f391", "rental_uris": {"android": "https://dc.lft.to/lastmile_qr_scan", "ios": "https://dc.lft.to/lastmile_qr_scan"}, "name": "5932c7b876b18d55c870f4f70664f391", "is_reserved": 0}, {"is_disabled": 0, "fusion_lon": 0.0, "fusion_lat": 0.0, "lat": 38.8984115, "type": "electric_scooter", "lon": -77.04344233333333, "bike_id": "c5c944015e14375f4d048a0b6e1af2b3", "rental_uris": {"android": "https://dc.lft.to/lastmile_qr_scan", "ios": "https://dc.lft.to/lastmile_qr_scan"}, "name": "c5c944015e14375f4d048a0b6e1af2b3", "is_reserved": 0}, {"is_disabled": 0, "fusion_lon": 0.0, "fusion_lat": 0.0, "lat": 38.919868, "type": "electric_scooter", "lon": -77.03263966666667, "bike_id": "bbd31307b2d25a7443f6b938a28c3093", "rental_uris": {"android": "https://dc.lft.to/lastmile_qr_scan", "ios": "https://dc.lft.to/lastmile_qr_scan"}, "name": "bbd31307b2d25a7443f6b938a28c3093", "is_reserved": 0}, {"is_disabled": 0, "fusion_lon": 0.0, "fusion_lat": 0.0, "lat": 38.8953765, "type": "electric_bike", "lon": -77.0405485, "bike_id": "b66b55dca1795e2036adc03e2accac0e", "rental_uris": {"android": "https://dc.lft.to/lastmile_qr_scan", "ios": "https://dc.lft.to/lastmile_qr_scan"}, "name": "b66b55dca1795e2036adc03e2accac0e", "is_reserved": 0}, {"is_disabled": 0, "fusion_lon": 0.0, "fusion_lat": 0.0, "lat": 38.9325605, "type": "electric_scooter", "lon": -77.03280033333333, "bike_id": "28146d6883e9bb23b8c39f59757b0f2a", "rental_uris": {"android": "https://dc.lft.to/lastmile_qr_scan", "ios": "https://dc.lft.to/lastmile_qr_scan"}, "name": "28146d6883e9bb23b8c39f59757b0f2a", "is_reserved": 0}, {"is_disabled": 0, "fusion_lon": 0.0, "fusion_lat": 0.0, "lat": 38.863548, "type": "electric_scooter", "lon": -76.99066016666667, "bike_id": "977ad13091a1c19e18053b85f139482d", "rental_uris": {"android": "https://dc.lft.to/lastmile_qr_scan", "ios": "https://dc.lft.to/lastmile_qr_scan"}, "name": "977ad13091a1c19e18053b85f139482d", "is_reserved": 0}, {"is_disabled": 0, "fusion_lon": 0.0, "fusion_lat": 0.0, "lat": 38.920224, "type": "electric_scooter", "lon": -77.018686, "bike_id": "fda7f6e47ee257e354c06542bf4ae5df", "rental_uris": {"android": "https://dc.lft.to/lastmile_qr_scan", "ios": "https://dc.lft.to/lastmile_qr_scan"}, "name": "fda7f6e47ee257e354c06542bf4ae5df", "is_reserved": 0}, {"is_disabled": 0, "fusion_lon": 0.0, "fusion_lat": 0.0, "lat": 38.937093, "type": "electric_scooter", "lon": -77.06106683333333, "bike_id": "c3bd2da70ebffaf37a40d2fe48dbea9b", "rental_uris": {"android": "https://dc.lft.to/lastmile_qr_scan", "ios": "https://dc.lft.to/lastmile_qr_scan"}, "name": "c3bd2da70ebffaf37a40d2fe48dbea9b", "is_reserved": 0}, {"is_disabled": 0, "fusion_lon": 0.0, "fusion_lat": 0.0, "lat": 38.901906833333335, "type": "electric_scooter", "lon": -77.05017366666667, "bike_id": "1271c4aed86b15782d43144bbd5d1a4d", "rental_uris": {"android": "https://dc.lft.to/lastmile_qr_scan", "ios": "https://dc.lft.to/lastmile_qr_scan"}, "name": "1271c4aed86b15782d43144bbd5d1a4d", "is_reserved": 0}, {"is_disabled": 0, "fusion_lon": 0.0, "fusion_lat": 0.0, "lat": 38.83155883333333, "type": "electric_bike", "lon": -76.99694183333334, "bike_id": "d19d6df41265e59e8453f4e0ac00232c", "rental_uris": {"android": "https://dc.lft.to/lastmile_qr_scan", "ios": "https://dc.lft.to/lastmile_qr_scan"}, "name": "d19d6df41265e59e8453f4e0ac00232c", "is_reserved": 0}, {"is_disabled": 0, "fusion_lon": 0.0, "fusion_lat": 0.0, "lat": 38.988239666666665, "type": "electric_bike", "lon": -77.02651033333333, "bike_id": "ca432785d6fcdf8615b468913470654b", "rental_uris": {"android": "https://dc.lft.to/lastmile_qr_scan", "ios": "https://dc.lft.to/lastmile_qr_scan"}, "name": "ca432785d6fcdf8615b468913470654b", "is_reserved": 0}, {"is_disabled": 0, "fusion_lon": 0.0, "fusion_lat": 0.0, "lat": 38.942492333333334, "type": "electric_scooter", "lon": -77.02167333333334, "bike_id": "4d52aeefe031e232ba672e09e92012dd", "rental_uris": {"android": "https://dc.lft.to/lastmile_qr_scan", "ios": "https://dc.lft.to/lastmile_qr_scan"}, "name": "4d52aeefe031e232ba672e09e92012dd", "is_reserved": 0}, {"is_disabled": 0, "fusion_lon": 0.0, "fusion_lat": 0.0, "lat": 38.89797883333333, "type": "electric_scooter", "lon": -76.93051416666667, "bike_id": "b19ceeb94fc9dc862dca11ec0ae9d648", "rental_uris": {"android": "https://dc.lft.to/lastmile_qr_scan", "ios": "https://dc.lft.to/lastmile_qr_scan"}, "name": "b19ceeb94fc9dc862dca11ec0ae9d648", "is_reserved": 0}, {"is_disabled": 0, "fusion_lon": 0.0, "fusion_lat": 0.0, "lat": 38.867330833333334, "type": "electric_scooter", "lon": -76.98850383333334, "bike_id": "92502e4894ca9561698c10b6f5fd060b", "rental_uris": {"android": "https://dc.lft.to/lastmile_qr_scan", "ios": "https://dc.lft.to/lastmile_qr_scan"}, "name": "92502e4894ca9561698c10b6f5fd060b", "is_reserved": 0}, {"is_disabled": 0, "fusion_lon": 0.0, "fusion_lat": 0.0, "lat": 38.94984433333333, "type": "electric_scooter", "lon": -77.027017, "bike_id": "959454824d871505743c97ac63431e78", "rental_uris": {"android": "https://dc.lft.to/lastmile_qr_scan", "ios": "https://dc.lft.to/lastmile_qr_scan"}, "name": "959454824d871505743c97ac63431e78", "is_reserved": 0}, {"is_disabled": 0, "fusion_lon": 0.0, "fusion_lat": 0.0, "lat": 38.9266, "type": "electric_scooter", "lon": -77.0230245, "bike_id": "ba022faaee335fd3a4003e98794eb5b2", "rental_uris": {"android": "https://dc.lft.to/lastmile_qr_scan", "ios": "https://dc.lft.to/lastmile_qr_scan"}, "name": "ba022faaee335fd3a4003e98794eb5b2", "is_reserved": 0}, {"is_disabled": 0, "fusion_lon": 0.0, "fusion_lat": 0.0, "lat": 38.91334116666667, "type": "electric_scooter", "lon": -77.03241216666666, "bike_id": "c7926bc629400f6249b9bb23a63ec0f6", "rental_uris": {"android": "https://dc.lft.to/lastmile_qr_scan", "ios": "https://dc.lft.to/lastmile_qr_scan"}, "name": "c7926bc629400f6249b9bb23a63ec0f6", "is_reserved": 0}, {"is_disabled": 0, "fusion_lon": 0.0, "fusion_lat": 0.0, "lat": 38.905569166666666, "type": "electric_scooter", "lon": -77.033949, "bike_id": "4000de62ddac7273bf49fafce988be3e", "rental_uris": {"android": "https://dc.lft.to/lastmile_qr_scan", "ios": "https://dc.lft.to/lastmile_qr_scan"}, "name": "4000de62ddac7273bf49fafce988be3e", "is_reserved": 0}, {"is_disabled": 0, "fusion_lon": 0.0, "fusion_lat": 0.0, "lat": 38.8859765, "type": "electric_scooter", "lon": -77.02203116666666, "bike_id": "5ddff2fd5d779a092fe72ed1f36fd025", "rental_uris": {"android": "https://dc.lft.to/lastmile_qr_scan", "ios": "https://dc.lft.to/lastmile_qr_scan"}, "name": "5ddff2fd5d779a092fe72ed1f36fd025", "is_reserved": 0}, {"is_disabled": 0, "fusion_lon": 0.0, "fusion_lat": 0.0, "lat": 38.891929833333336, "type": "electric_scooter", "lon": -76.98829633333334, "bike_id": "1eeac32106b32063f4377ac6a996e702", "rental_uris": {"android": "https://dc.lft.to/lastmile_qr_scan", "ios": "https://dc.lft.to/lastmile_qr_scan"}, "name": "1eeac32106b32063f4377ac6a996e702", "is_reserved": 0}, {"is_disabled": 0, "fusion_lon": 0.0, "fusion_lat": 0.0, "lat": 38.90021566666667, "type": "electric_scooter", "lon": -77.02601416666667, "bike_id": "8bad6290b0a0160c6e58e4567c6babaf", "rental_uris": {"android": "https://dc.lft.to/lastmile_qr_scan", "ios": "https://dc.lft.to/lastmile_qr_scan"}, "name": "8bad6290b0a0160c6e58e4567c6babaf", "is_reserved": 0}, {"is_disabled": 0, "fusion_lon": 0.0, "fusion_lat": 0.0, "lat": 38.93505233333333, "type": "electric_scooter", "lon": -77.02414066666667, "bike_id": "77ec8cef8271ca803c1b2df048d177b6", "rental_uris": {"android": "https://dc.lft.to/lastmile_qr_scan", "ios": "https://dc.lft.to/lastmile_qr_scan"}, "name": "77ec8cef8271ca803c1b2df048d177b6", "is_reserved": 0}, {"is_disabled": 0, "fusion_lon": 0.0, "fusion_lat": 0.0, "lat": 38.9267035, "type": "electric_scooter", "lon": -77.06628216666667, "bike_id": "0e5318b794b010f6cd6d67aca2d0f5c1", "rental_uris": {"android": "https://dc.lft.to/lastmile_qr_scan", "ios": "https://dc.lft.to/lastmile_qr_scan"}, "name": "0e5318b794b010f6cd6d67aca2d0f5c1", "is_reserved": 0}, {"is_disabled": 0, "fusion_lon": 0.0, "fusion_lat": 0.0, "lat": 38.905188333333335, "type": "electric_scooter", "lon": -77.03199916666667, "bike_id": "bf2cecbe2419f92452951474c845b3e6", "rental_uris": {"android": "https://dc.lft.to/lastmile_qr_scan", "ios": "https://dc.lft.to/lastmile_qr_scan"}, "name": "bf2cecbe2419f92452951474c845b3e6", "is_reserved": 0}, {"is_disabled": 0, "fusion_lon": 0.0, "fusion_lat": 0.0, "lat": 38.93030066666667, "type": "electric_scooter", "lon": -77.03457333333333, "bike_id": "e435b7e46436091406b9c240648b26b2", "rental_uris": {"android": "https://dc.lft.to/lastmile_qr_scan", "ios": "https://dc.lft.to/lastmile_qr_scan"}, "name": "e435b7e46436091406b9c240648b26b2", "is_reserved": 0}, {"is_disabled": 0, "fusion_lon": 0.0, "fusion_lat": 0.0, "lat": 38.89835033333333, "type": "electric_scooter", "lon": -76.9463265, "bike_id": "f2b8f160f3f88cec1c0acf415d6deadc", "rental_uris": {"android": "https://dc.lft.to/lastmile_qr_scan", "ios": "https://dc.lft.to/lastmile_qr_scan"}, "name": "f2b8f160f3f88cec1c0acf415d6deadc", "is_reserved": 0}, {"is_disabled": 0, "fusion_lon": 0.0, "fusion_lat": 0.0, "lat": 38.82785416666667, "type": "electric_bike", "lon": -77.1108245, "bike_id": "8f3a9b6f1f1a3b7da16abae4785217f0", "rental_uris": {"android": "https://dc.lft.to/lastmile_qr_scan", "ios": "https://dc.lft.to/lastmile_qr_scan"}, "name": "8f3a9b6f1f1a3b7da16abae4785217f0", "is_reserved": 0}, {"is_disabled": 0, "fusion_lon": 0.0, "fusion_lat": 0.0, "lat": 38.9626465, "type": "electric_scooter", "lon": -77.0289435, "bike_id": "82add872326838d6a9699a2a8fb643e2", "rental_uris": {"android": "https://dc.lft.to/lastmile_qr_scan", "ios": "https://dc.lft.to/lastmile_qr_scan"}, "name": "82add872326838d6a9699a2a8fb643e2", "is_reserved": 0}, {"is_disabled": 0, "fusion_lon": 0.0, "fusion_lat": 0.0, "lat": 38.923839666666666, "type": "electric_scooter", "lon": -77.030219, "bike_id": "0cc6c32570eb43c211cf39d5d1a78bf4", "rental_uris": {"android": "https://dc.lft.to/lastmile_qr_scan", "ios": "https://dc.lft.to/lastmile_qr_scan"}, "name": "0cc6c32570eb43c211cf39d5d1a78bf4", "is_reserved": 0}, {"is_disabled": 0, "fusion_lon": 0.0, "fusion_lat": 0.0, "lat": 38.90787316666667, "type": "electric_scooter", "lon": -77.03040033333333, "bike_id": "198ac41a747606ca78f0517557f30926", "rental_uris": {"android": "https://dc.lft.to/lastmile_qr_scan", "ios": "https://dc.lft.to/lastmile_qr_scan"}, "name": "198ac41a747606ca78f0517557f30926", "is_reserved": 0}, {"is_disabled": 0, "fusion_lon": 0.0, "fusion_lat": 0.0, "lat": 38.88533016666667, "type": "electric_scooter", "lon": -76.92689183333333, "bike_id": "2a11a393bbc00bc034a03ac7cd83988d", "rental_uris": {"android": "https://dc.lft.to/lastmile_qr_scan", "ios": "https://dc.lft.to/lastmile_qr_scan"}, "name": "2a11a393bbc00bc034a03ac7cd83988d", "is_reserved": 0}, {"is_disabled": 0, "fusion_lon": 0.0, "fusion_lat": 0.0, "lat": 38.9047855, "type": "electric_bike", "lon": -76.950535, "bike_id": "2f79f97cf7231b3de4c98266aae06e15", "rental_uris": {"android": "https://dc.lft.to/lastmile_qr_scan", "ios": "https://dc.lft.to/lastmile_qr_scan"}, "name": "2f79f97cf7231b3de4c98266aae06e15", "is_reserved": 0}, {"is_disabled": 0, "fusion_lon": 0.0, "fusion_lat": 0.0, "lat": 38.90536633333333, "type": "electric_scooter", "lon": -77.05648933333333, "bike_id": "0d63a52eed4dda2b9f93b3b5dcae86ce", "rental_uris": {"android": "https://dc.lft.to/lastmile_qr_scan", "ios": "https://dc.lft.to/lastmile_qr_scan"}, "name": "0d63a52eed4dda2b9f93b3b5dcae86ce", "is_reserved": 0}, {"is_disabled": 0, "fusion_lon": 0.0, "fusion_lat": 0.0, "lat": 38.93970183333333, "type": "electric_scooter", "lon": -77.032783, "bike_id": "e783abf7f9239492491203bf5557f4fe", "rental_uris": {"android": "https://dc.lft.to/lastmile_qr_scan", "ios": "https://dc.lft.to/lastmile_qr_scan"}, "name": "e783abf7f9239492491203bf5557f4fe", "is_reserved": 0}, {"is_disabled": 0, "fusion_lon": 0.0, "fusion_lat": 0.0, "lat": 38.923702, "type": "electric_scooter", "lon": -77.05031816666667, "bike_id": "9b730eb44895d34997cbf18d8fdb883d", "rental_uris": {"android": "https://dc.lft.to/lastmile_qr_scan", "ios": "https://dc.lft.to/lastmile_qr_scan"}, "name": "9b730eb44895d34997cbf18d8fdb883d", "is_reserved": 0}, {"is_disabled": 0, "fusion_lon": 0.0, "fusion_lat": 0.0, "lat": 38.91268816666667, "type": "electric_scooter", "lon": -77.025627, "bike_id": "7aaca3d0f72bcc28f07aae99885e1b40", "rental_uris": {"android": "https://dc.lft.to/lastmile_qr_scan", "ios": "https://dc.lft.to/lastmile_qr_scan"}, "name": "7aaca3d0f72bcc28f07aae99885e1b40", "is_reserved": 0}, {"is_disabled": 0, "fusion_lon": 0.0, "fusion_lat": 0.0, "lat": 38.87791283333333, "type": "electric_scooter", "lon": -77.01362683333333, "bike_id": "8bf822991bd4e2e6ff6927b9a4157eeb", "rental_uris": {"android": "https://dc.lft.to/lastmile_qr_scan", "ios": "https://dc.lft.to/lastmile_qr_scan"}, "name": "8bf822991bd4e2e6ff6927b9a4157eeb", "is_reserved": 0}, {"is_disabled": 0, "fusion_lon": 0.0, "fusion_lat": 0.0, "lat": 38.938875333333336, "type": "electric_scooter", "lon": -77.02827266666667, "bike_id": "3981058f354d8f0985bbd9d8dc0ca637", "rental_uris": {"android": "https://dc.lft.to/lastmile_qr_scan", "ios": "https://dc.lft.to/lastmile_qr_scan"}, "name": "3981058f354d8f0985bbd9d8dc0ca637", "is_reserved": 0}, {"is_disabled": 0, "fusion_lon": 0.0, "fusion_lat": 0.0, "lat": 38.86729116666667, "type": "electric_scooter", "lon": -76.979162, "bike_id": "96de1aaf1564689bffe5790c302e7127", "rental_uris": {"android": "https://dc.lft.to/lastmile_qr_scan", "ios": "https://dc.lft.to/lastmile_qr_scan"}, "name": "96de1aaf1564689bffe5790c302e7127", "is_reserved": 0}, {"is_disabled": 0, "fusion_lon": 0.0, "fusion_lat": 0.0, "lat": 38.95745933333333, "type": "electric_scooter", "lon": -77.02430833333334, "bike_id": "1339de458ea43527f792d9c4857c5a26", "rental_uris": {"android": "https://dc.lft.to/lastmile_qr_scan", "ios": "https://dc.lft.to/lastmile_qr_scan"}, "name": "1339de458ea43527f792d9c4857c5a26", "is_reserved": 0}, {"is_disabled": 0, "fusion_lon": 0.0, "fusion_lat": 0.0, "lat": 38.933400666666664, "type": "electric_scooter", "lon": -77.0413, "bike_id": "625fdd87510d3cdcf886fd6333a33bac", "rental_uris": {"android": "https://dc.lft.to/lastmile_qr_scan", "ios": "https://dc.lft.to/lastmile_qr_scan"}, "name": "625fdd87510d3cdcf886fd6333a33bac", "is_reserved": 0}, {"is_disabled": 0, "fusion_lon": 0.0, "fusion_lat": 0.0, "lat": 38.92737733333333, "type": "electric_bike", "lon": -76.99365166666666, "bike_id": "35dae46fc135ffcce1c4f94df6247b20", "rental_uris": {"android": "https://dc.lft.to/lastmile_qr_scan", "ios": "https://dc.lft.to/lastmile_qr_scan"}, "name": "35dae46fc135ffcce1c4f94df6247b20", "is_reserved": 0}, {"is_disabled": 0, "fusion_lon": 0.0, "fusion_lat": 0.0, "lat": 38.9282605, "type": "electric_scooter", "lon": -77.022612, "bike_id": "59e47651ad75fea4728bc8218016543c", "rental_uris": {"android": "https://dc.lft.to/lastmile_qr_scan", "ios": "https://dc.lft.to/lastmile_qr_scan"}, "name": "59e47651ad75fea4728bc8218016543c", "is_reserved": 0}, {"is_disabled": 0, "fusion_lon": 0.0, "fusion_lat": 0.0, "lat": 38.928739666666665, "type": "electric_scooter", "lon": -76.9902715, "bike_id": "81327056c665867525c30c4c2281a7f8", "rental_uris": {"android": "https://dc.lft.to/lastmile_qr_scan", "ios": "https://dc.lft.to/lastmile_qr_scan"}, "name": "81327056c665867525c30c4c2281a7f8", "is_reserved": 0}, {"is_disabled": 0, "fusion_lon": 0.0, "fusion_lat": 0.0, "lat": 38.913421666666665, "type": "electric_scooter", "lon": -77.05217783333333, "bike_id": "868307dad35a599caa3661b240293279", "rental_uris": {"android": "https://dc.lft.to/lastmile_qr_scan", "ios": "https://dc.lft.to/lastmile_qr_scan"}, "name": "868307dad35a599caa3661b240293279", "is_reserved": 0}, {"is_disabled": 0, "fusion_lon": 0.0, "fusion_lat": 0.0, "lat": 38.98476566666667, "type": "electric_scooter", "lon": -77.02648066666667, "bike_id": "2a9b110f76d10aa2b1c459ef70a95e6d", "rental_uris": {"android": "https://dc.lft.to/lastmile_qr_scan", "ios": "https://dc.lft.to/lastmile_qr_scan"}, "name": "2a9b110f76d10aa2b1c459ef70a95e6d", "is_reserved": 0}, {"is_disabled": 0, "fusion_lon": 0.0, "fusion_lat": 0.0, "lat": 38.8935875, "type": "electric_scooter", "lon": -76.93988433333334, "bike_id": "99fdf30b788f40f87d12b8a9f4b60d54", "rental_uris": {"android": "https://dc.lft.to/lastmile_qr_scan", "ios": "https://dc.lft.to/lastmile_qr_scan"}, "name": "99fdf30b788f40f87d12b8a9f4b60d54", "is_reserved": 0}, {"is_disabled": 0, "fusion_lon": 0.0, "fusion_lat": 0.0, "lat": 38.89393866666666, "type": "electric_scooter", "lon": -76.94999733333333, "bike_id": "3072f6552d6ac26cb1f793065e198fff", "rental_uris": {"android": "https://dc.lft.to/lastmile_qr_scan", "ios": "https://dc.lft.to/lastmile_qr_scan"}, "name": "3072f6552d6ac26cb1f793065e198fff", "is_reserved": 0}, {"is_disabled": 0, "fusion_lon": 0.0, "fusion_lat": 0.0, "lat": 38.90554733333333, "type": "electric_scooter", "lon": -76.98142016666667, "bike_id": "c0e6f2e5b50ee2edf2febe447230df79", "rental_uris": {"android": "https://dc.lft.to/lastmile_qr_scan", "ios": "https://dc.lft.to/lastmile_qr_scan"}, "name": "c0e6f2e5b50ee2edf2febe447230df79", "is_reserved": 0}, {"is_disabled": 0, "fusion_lon": 0.0, "fusion_lat": 0.0, "lat": 38.945972166666664, "type": "electric_bike", "lon": -77.3440695, "bike_id": "06dd8cb5d75ba93755474f6e2cae4aa1", "rental_uris": {"android": "https://dc.lft.to/lastmile_qr_scan", "ios": "https://dc.lft.to/lastmile_qr_scan"}, "name": "06dd8cb5d75ba93755474f6e2cae4aa1", "is_reserved": 0}, {"is_disabled": 0, "fusion_lon": 0.0, "fusion_lat": 0.0, "lat": 38.900336833333334, "type": "electric_scooter", "lon": -77.04680933333333, "bike_id": "ea028e1688f9af79ba5f22773b994d2a", "rental_uris": {"android": "https://dc.lft.to/lastmile_qr_scan", "ios": "https://dc.lft.to/lastmile_qr_scan"}, "name": "ea028e1688f9af79ba5f22773b994d2a", "is_reserved": 0}, {"is_disabled": 0, "fusion_lon": 0.0, "fusion_lat": 0.0, "lat": 38.92480066666667, "type": "electric_scooter", "lon": -77.03784033333334, "bike_id": "b7582cff75d84366b05b9cd8edf3da47", "rental_uris": {"android": "https://dc.lft.to/lastmile_qr_scan", "ios": "https://dc.lft.to/lastmile_qr_scan"}, "name": "b7582cff75d84366b05b9cd8edf3da47", "is_reserved": 0}, {"is_disabled": 0, "fusion_lon": 0.0, "fusion_lat": 0.0, "lat": 39.05458083333333, "type": "electric_bike", "lon": -77.14324966666666, "bike_id": "74892084410a307b8f7b4fad4e751753", "rental_uris": {"android": "https://dc.lft.to/lastmile_qr_scan", "ios": "https://dc.lft.to/lastmile_qr_scan"}, "name": "74892084410a307b8f7b4fad4e751753", "is_reserved": 0}, {"is_disabled": 0, "fusion_lon": 0.0, "fusion_lat": 0.0, "lat": 38.896091166666665, "type": "electric_scooter", "lon": -77.00926016666666, "bike_id": "f253de551df5aa29655852f30e3ce1a7", "rental_uris": {"android": "https://dc.lft.to/lastmile_qr_scan", "ios": "https://dc.lft.to/lastmile_qr_scan"}, "name": "f253de551df5aa29655852f30e3ce1a7", "is_reserved": 0}, {"is_disabled": 0, "fusion_lon": 0.0, "fusion_lat": 0.0, "lat": 38.9085425, "type": "electric_scooter", "lon": -77.05510983333333, "bike_id": "05fbcf4e97b8b5de13b2468816700fcf", "rental_uris": {"android": "https://dc.lft.to/lastmile_qr_scan", "ios": "https://dc.lft.to/lastmile_qr_scan"}, "name": "05fbcf4e97b8b5de13b2468816700fcf", "is_reserved": 0}, {"is_disabled": 0, "fusion_lon": 0.0, "fusion_lat": 0.0, "lat": 38.888513, "type": "electric_bike", "lon": -76.977018, "bike_id": "fc8740406e8542a9a199bbc66ec0789a", "rental_uris": {"android": "https://dc.lft.to/lastmile_qr_scan", "ios": "https://dc.lft.to/lastmile_qr_scan"}, "name": "fc8740406e8542a9a199bbc66ec0789a", "is_reserved": 0}, {"is_disabled": 0, "fusion_lon": 0.0, "fusion_lat": 0.0, "lat": 38.902631166666666, "type": "electric_scooter", "lon": -77.0032955, "bike_id": "55f58ae684053a2edec3b5e592a00c4a", "rental_uris": {"android": "https://dc.lft.to/lastmile_qr_scan", "ios": "https://dc.lft.to/lastmile_qr_scan"}, "name": "55f58ae684053a2edec3b5e592a00c4a", "is_reserved": 0}, {"is_disabled": 0, "fusion_lon": 0.0, "fusion_lat": 0.0, "lat": 38.887464333333334, "type": "electric_scooter", "lon": -77.014322, "bike_id": "e3c85c1ffb1c5718761649e10b478392", "rental_uris": {"android": "https://dc.lft.to/lastmile_qr_scan", "ios": "https://dc.lft.to/lastmile_qr_scan"}, "name": "e3c85c1ffb1c5718761649e10b478392", "is_reserved": 0}, {"is_disabled": 0, "fusion_lon": 0.0, "fusion_lat": 0.0, "lat": 38.884362833333334, "type": "electric_scooter", "lon": -77.02966566666667, "bike_id": "e497e3848ab5a425d1a596a624743b36", "rental_uris": {"android": "https://dc.lft.to/lastmile_qr_scan", "ios": "https://dc.lft.to/lastmile_qr_scan"}, "name": "e497e3848ab5a425d1a596a624743b36", "is_reserved": 0}, {"is_disabled": 0, "fusion_lon": 0.0, "fusion_lat": 0.0, "lat": 38.95645116666667, "type": "electric_scooter", "lon": -77.014949, "bike_id": "a14f23a70f233e6865197fad595d2699", "rental_uris": {"android": "https://dc.lft.to/lastmile_qr_scan", "ios": "https://dc.lft.to/lastmile_qr_scan"}, "name": "a14f23a70f233e6865197fad595d2699", "is_reserved": 0}, {"is_disabled": 0, "fusion_lon": 0.0, "fusion_lat": 0.0, "lat": 38.92912833333333, "type": "electric_scooter", "lon": -77.03190883333333, "bike_id": "aedd6d90b05873d6e7c4c7197823b155", "rental_uris": {"android": "https://dc.lft.to/lastmile_qr_scan", "ios": "https://dc.lft.to/lastmile_qr_scan"}, "name": "aedd6d90b05873d6e7c4c7197823b155", "is_reserved": 0}, {"is_disabled": 0, "fusion_lon": 0.0, "fusion_lat": 0.0, "lat": 38.8767255, "type": "electric_bike", "lon": -77.01455566666667, "bike_id": "8e8f7a4ae1fc718f5ddfcb9526f80bae", "rental_uris": {"android": "https://dc.lft.to/lastmile_qr_scan", "ios": "https://dc.lft.to/lastmile_qr_scan"}, "name": "8e8f7a4ae1fc718f5ddfcb9526f80bae", "is_reserved": 0}, {"is_disabled": 0, "fusion_lon": 0.0, "fusion_lat": 0.0, "lat": 38.896681666666666, "type": "electric_scooter", "lon": -77.04340766666667, "bike_id": "f2fe9ce4a6d432adcb01448c70565391", "rental_uris": {"android": "https://dc.lft.to/lastmile_qr_scan", "ios": "https://dc.lft.to/lastmile_qr_scan"}, "name": "f2fe9ce4a6d432adcb01448c70565391", "is_reserved": 0}, {"is_disabled": 0, "fusion_lon": 0.0, "fusion_lat": 0.0, "lat": 38.92901366666667, "type": "electric_scooter", "lon": -77.02402766666667, "bike_id": "40b1bf757525713f0db7a1b5869a46f3", "rental_uris": {"android": "https://dc.lft.to/lastmile_qr_scan", "ios": "https://dc.lft.to/lastmile_qr_scan"}, "name": "40b1bf757525713f0db7a1b5869a46f3", "is_reserved": 0}, {"is_disabled": 0, "fusion_lon": 0.0, "fusion_lat": 0.0, "lat": 38.925324333333336, "type": "electric_scooter", "lon": -77.07331266666667, "bike_id": "e70d6baebd7b19b9590db91b97c944cd", "rental_uris": {"android": "https://dc.lft.to/lastmile_qr_scan", "ios": "https://dc.lft.to/lastmile_qr_scan"}, "name": "e70d6baebd7b19b9590db91b97c944cd", "is_reserved": 0}, {"is_disabled": 0, "fusion_lon": 0.0, "fusion_lat": 0.0, "lat": 38.89758166666667, "type": "electric_scooter", "lon": -77.024801, "bike_id": "6d389ca57242208b10df451d1af1ee57", "rental_uris": {"android": "https://dc.lft.to/lastmile_qr_scan", "ios": "https://dc.lft.to/lastmile_qr_scan"}, "name": "6d389ca57242208b10df451d1af1ee57", "is_reserved": 0}, {"is_disabled": 0, "fusion_lon": 0.0, "fusion_lat": 0.0, "lat": 38.905429, "type": "electric_scooter", "lon": -77.043366, "bike_id": "4367f941bfff2cc796b4010ca44514dc", "rental_uris": {"android": "https://dc.lft.to/lastmile_qr_scan", "ios": "https://dc.lft.to/lastmile_qr_scan"}, "name": "4367f941bfff2cc796b4010ca44514dc", "is_reserved": 0}, {"is_disabled": 0, "fusion_lon": 0.0, "fusion_lat": 0.0, "lat": 38.9568945, "type": "electric_scooter", "lon": -77.02400883333334, "bike_id": "0f783c65a6a799d7742a3c09894526c8", "rental_uris": {"android": "https://dc.lft.to/lastmile_qr_scan", "ios": "https://dc.lft.to/lastmile_qr_scan"}, "name": "0f783c65a6a799d7742a3c09894526c8", "is_reserved": 0}, {"is_disabled": 0, "fusion_lon": 0.0, "fusion_lat": 0.0, "lat": 38.918207833333334, "type": "electric_scooter", "lon": -77.03803583333334, "bike_id": "e45e8ec66918117545fef540b64c5678", "rental_uris": {"android": "https://dc.lft.to/lastmile_qr_scan", "ios": "https://dc.lft.to/lastmile_qr_scan"}, "name": "e45e8ec66918117545fef540b64c5678", "is_reserved": 0}, {"is_disabled": 0, "fusion_lon": 0.0, "fusion_lat": 0.0, "lat": 38.941790833333336, "type": "electric_scooter", "lon": -77.0365455, "bike_id": "093d91e8ef7dc8d41a6d3f96613dd6b1", "rental_uris": {"android": "https://dc.lft.to/lastmile_qr_scan", "ios": "https://dc.lft.to/lastmile_qr_scan"}, "name": "093d91e8ef7dc8d41a6d3f96613dd6b1", "is_reserved": 0}, {"is_disabled": 0, "fusion_lon": 0.0, "fusion_lat": 0.0, "lat": 38.90754416666667, "type": "electric_scooter", "lon": -77.0075965, "bike_id": "a2b60d9b21d1c273bd19077ccc71aeb0", "rental_uris": {"android": "https://dc.lft.to/lastmile_qr_scan", "ios": "https://dc.lft.to/lastmile_qr_scan"}, "name": "a2b60d9b21d1c273bd19077ccc71aeb0", "is_reserved": 0}, {"is_disabled": 0, "fusion_lon": 0.0, "fusion_lat": 0.0, "lat": 38.94618216666667, "type": "electric_scooter", "lon": -77.03627233333333, "bike_id": "158980b9c68b63e4d2501d880291d592", "rental_uris": {"android": "https://dc.lft.to/lastmile_qr_scan", "ios": "https://dc.lft.to/lastmile_qr_scan"}, "name": "158980b9c68b63e4d2501d880291d592", "is_reserved": 0}, {"is_disabled": 0, "fusion_lon": 0.0, "fusion_lat": 0.0, "lat": 38.934393666666665, "type": "electric_scooter", "lon": -77.02592533333333, "bike_id": "4eda94e20a648a32b7a3eb4657f5a031", "rental_uris": {"android": "https://dc.lft.to/lastmile_qr_scan", "ios": "https://dc.lft.to/lastmile_qr_scan"}, "name": "4eda94e20a648a32b7a3eb4657f5a031", "is_reserved": 0}, {"is_disabled": 0, "fusion_lon": 0.0, "fusion_lat": 0.0, "lat": 38.913078, "type": "electric_scooter", "lon": -77.00846333333334, "bike_id": "a2b6aafd06b9a4f2c2bbb0038a9c25f5", "rental_uris": {"android": "https://dc.lft.to/lastmile_qr_scan", "ios": "https://dc.lft.to/lastmile_qr_scan"}, "name": "a2b6aafd06b9a4f2c2bbb0038a9c25f5", "is_reserved": 0}, {"is_disabled": 0, "fusion_lon": 0.0, "fusion_lat": 0.0, "lat": 38.912647166666666, "type": "electric_scooter", "lon": -77.03366166666666, "bike_id": "6399abc3bc168d4d3ae70ab179380c4e", "rental_uris": {"android": "https://dc.lft.to/lastmile_qr_scan", "ios": "https://dc.lft.to/lastmile_qr_scan"}, "name": "6399abc3bc168d4d3ae70ab179380c4e", "is_reserved": 0}, {"is_disabled": 0, "fusion_lon": 0.0, "fusion_lat": 0.0, "lat": 38.951739, "type": "electric_scooter", "lon": -77.0333245, "bike_id": "402c1eacc303f6fffa2eb46fd2aa7053", "rental_uris": {"android": "https://dc.lft.to/lastmile_qr_scan", "ios": "https://dc.lft.to/lastmile_qr_scan"}, "name": "402c1eacc303f6fffa2eb46fd2aa7053", "is_reserved": 0}, {"is_disabled": 0, "fusion_lon": 0.0, "fusion_lat": 0.0, "lat": 38.929664, "type": "electric_scooter", "lon": -77.041978, "bike_id": "3c9e5894dbf90f00545ef08dd4f1f255", "rental_uris": {"android": "https://dc.lft.to/lastmile_qr_scan", "ios": "https://dc.lft.to/lastmile_qr_scan"}, "name": "3c9e5894dbf90f00545ef08dd4f1f255", "is_reserved": 0}, {"is_disabled": 0, "fusion_lon": 0.0, "fusion_lat": 0.0, "lat": 38.9662365, "type": "electric_scooter", "lon": -77.03534366666666, "bike_id": "466c9a8081018683b427460f2d22cf74", "rental_uris": {"android": "https://dc.lft.to/lastmile_qr_scan", "ios": "https://dc.lft.to/lastmile_qr_scan"}, "name": "466c9a8081018683b427460f2d22cf74", "is_reserved": 0}, {"is_disabled": 0, "fusion_lon": 0.0, "fusion_lat": 0.0, "lat": 38.9154095, "type": "electric_scooter", "lon": -77.03799466666666, "bike_id": "af8a2fc174fcfb370a56aa87e84b2ab7", "rental_uris": {"android": "https://dc.lft.to/lastmile_qr_scan", "ios": "https://dc.lft.to/lastmile_qr_scan"}, "name": "af8a2fc174fcfb370a56aa87e84b2ab7", "is_reserved": 0}, {"is_disabled": 0, "fusion_lon": 0.0, "fusion_lat": 0.0, "lat": 38.90548116666667, "type": "electric_scooter", "lon": -77.00582066666666, "bike_id": "0b672ada7dd3d90f344eac608bffabb8", "rental_uris": {"android": "https://dc.lft.to/lastmile_qr_scan", "ios": "https://dc.lft.to/lastmile_qr_scan"}, "name": "0b672ada7dd3d90f344eac608bffabb8", "is_reserved": 0}, {"is_disabled": 0, "fusion_lon": 0.0, "fusion_lat": 0.0, "lat": 38.911134833333335, "type": "electric_scooter", "lon": -77.03555566666667, "bike_id": "9f76122a80cf611ad6cffd574ad94ff4", "rental_uris": {"android": "https://dc.lft.to/lastmile_qr_scan", "ios": "https://dc.lft.to/lastmile_qr_scan"}, "name": "9f76122a80cf611ad6cffd574ad94ff4", "is_reserved": 0}, {"is_disabled": 0, "fusion_lon": 0.0, "fusion_lat": 0.0, "lat": 38.900604333333334, "type": "electric_scooter", "lon": -77.04929533333333, "bike_id": "66c927e1125454c16f0dbb2525e1a5bf", "rental_uris": {"android": "https://dc.lft.to/lastmile_qr_scan", "ios": "https://dc.lft.to/lastmile_qr_scan"}, "name": "66c927e1125454c16f0dbb2525e1a5bf", "is_reserved": 0}, {"is_disabled": 0, "fusion_lon": 0.0, "fusion_lat": 0.0, "lat": 38.9066455, "type": "electric_scooter", "lon": -77.0453, "bike_id": "dfe663806bbdffa1a96d4e1bc667433b", "rental_uris": {"android": "https://dc.lft.to/lastmile_qr_scan", "ios": "https://dc.lft.to/lastmile_qr_scan"}, "name": "dfe663806bbdffa1a96d4e1bc667433b", "is_reserved": 0}, {"is_disabled": 0, "fusion_lon": 0.0, "fusion_lat": 0.0, "lat": 38.919153333333334, "type": "electric_scooter", "lon": -77.031021, "bike_id": "3650654e210aaa3bf2e91560619119a8", "rental_uris": {"android": "https://dc.lft.to/lastmile_qr_scan", "ios": "https://dc.lft.to/lastmile_qr_scan"}, "name": "3650654e210aaa3bf2e91560619119a8", "is_reserved": 0}, {"is_disabled": 0, "fusion_lon": 0.0, "fusion_lat": 0.0, "lat": 38.90516316666667, "type": "electric_scooter", "lon": -76.98251033333334, "bike_id": "1fdeb76690403b0c1de62af3bdd1e071", "rental_uris": {"android": "https://dc.lft.to/lastmile_qr_scan", "ios": "https://dc.lft.to/lastmile_qr_scan"}, "name": "1fdeb76690403b0c1de62af3bdd1e071", "is_reserved": 0}, {"is_disabled": 0, "fusion_lon": 0.0, "fusion_lat": 0.0, "lat": 39.007823333333334, "type": "electric_bike", "lon": -76.995675, "bike_id": "586fef4557086fea3d2135a8d61b99fb", "rental_uris": {"android": "https://dc.lft.to/lastmile_qr_scan", "ios": "https://dc.lft.to/lastmile_qr_scan"}, "name": "586fef4557086fea3d2135a8d61b99fb", "is_reserved": 0}, {"is_disabled": 0, "fusion_lon": 0.0, "fusion_lat": 0.0, "lat": 38.92332483333333, "type": "electric_scooter", "lon": -77.03576566666666, "bike_id": "563725cdbe98a48219a6aeeeda78effb", "rental_uris": {"android": "https://dc.lft.to/lastmile_qr_scan", "ios": "https://dc.lft.to/lastmile_qr_scan"}, "name": "563725cdbe98a48219a6aeeeda78effb", "is_reserved": 0}, {"is_disabled": 0, "fusion_lon": 0.0, "fusion_lat": 0.0, "lat": 38.834366, "type": "electric_bike", "lon": -77.10351016666667, "bike_id": "6d2411d672038ac043612229e6db1dcc", "rental_uris": {"android": "https://dc.lft.to/lastmile_qr_scan", "ios": "https://dc.lft.to/lastmile_qr_scan"}, "name": "6d2411d672038ac043612229e6db1dcc", "is_reserved": 0}, {"is_disabled": 0, "fusion_lon": 0.0, "fusion_lat": 0.0, "lat": 38.931227666666665, "type": "electric_scooter", "lon": -77.01985433333333, "bike_id": "cecd9f32fafdad2df8098c6f5f4f4f6b", "rental_uris": {"android": "https://dc.lft.to/lastmile_qr_scan", "ios": "https://dc.lft.to/lastmile_qr_scan"}, "name": "cecd9f32fafdad2df8098c6f5f4f4f6b", "is_reserved": 0}, {"is_disabled": 0, "fusion_lon": 0.0, "fusion_lat": 0.0, "lat": 38.90828916666667, "type": "electric_scooter", "lon": -77.04166516666666, "bike_id": "3591f51793c381c86f92d92f1881d14e", "rental_uris": {"android": "https://dc.lft.to/lastmile_qr_scan", "ios": "https://dc.lft.to/lastmile_qr_scan"}, "name": "3591f51793c381c86f92d92f1881d14e", "is_reserved": 0}, {"is_disabled": 0, "fusion_lon": 0.0, "fusion_lat": 0.0, "lat": 38.896275833333334, "type": "electric_scooter", "lon": -77.02922083333333, "bike_id": "37715396e90c2534358db6275fe9ae06", "rental_uris": {"android": "https://dc.lft.to/lastmile_qr_scan", "ios": "https://dc.lft.to/lastmile_qr_scan"}, "name": "37715396e90c2534358db6275fe9ae06", "is_reserved": 0}, {"is_disabled": 0, "fusion_lon": 0.0, "fusion_lat": 0.0, "lat": 38.90498783333334, "type": "electric_scooter", "lon": -77.02951483333334, "bike_id": "4977c65ebe93c71113c25b989cb09a25", "rental_uris": {"android": "https://dc.lft.to/lastmile_qr_scan", "ios": "https://dc.lft.to/lastmile_qr_scan"}, "name": "4977c65ebe93c71113c25b989cb09a25", "is_reserved": 0}, {"is_disabled": 0, "fusion_lon": 0.0, "fusion_lat": 0.0, "lat": 38.9210435, "type": "electric_scooter", "lon": -77.030492, "bike_id": "c688479bd4c20bb83349b4d6d76e2a1b", "rental_uris": {"android": "https://dc.lft.to/lastmile_qr_scan", "ios": "https://dc.lft.to/lastmile_qr_scan"}, "name": "c688479bd4c20bb83349b4d6d76e2a1b", "is_reserved": 0}, {"is_disabled": 0, "fusion_lon": 0.0, "fusion_lat": 0.0, "lat": 38.928813833333336, "type": "electric_scooter", "lon": -77.0412855, "bike_id": "51519eb9871946c530d68b45b18baa6f", "rental_uris": {"android": "https://dc.lft.to/lastmile_qr_scan", "ios": "https://dc.lft.to/lastmile_qr_scan"}, "name": "51519eb9871946c530d68b45b18baa6f", "is_reserved": 0}, {"is_disabled": 0, "fusion_lon": 0.0, "fusion_lat": 0.0, "lat": 38.897317, "type": "electric_scooter", "lon": -77.00934633333334, "bike_id": "c55aa44236bed97fa818f572bb45ffce", "rental_uris": {"android": "https://dc.lft.to/lastmile_qr_scan", "ios": "https://dc.lft.to/lastmile_qr_scan"}, "name": "c55aa44236bed97fa818f572bb45ffce", "is_reserved": 0}, {"is_disabled": 0, "fusion_lon": 0.0, "fusion_lat": 0.0, "lat": 38.93141883333333, "type": "electric_scooter", "lon": -77.03454716666667, "bike_id": "cd24edd26da9ca17332410474b14efcb", "rental_uris": {"android": "https://dc.lft.to/lastmile_qr_scan", "ios": "https://dc.lft.to/lastmile_qr_scan"}, "name": "cd24edd26da9ca17332410474b14efcb", "is_reserved": 0}, {"is_disabled": 0, "fusion_lon": 0.0, "fusion_lat": 0.0, "lat": 38.941332, "type": "electric_scooter", "lon": -77.01819583333334, "bike_id": "c8ff75f3b3bf01d4b23f52292eeb7ef3", "rental_uris": {"android": "https://dc.lft.to/lastmile_qr_scan", "ios": "https://dc.lft.to/lastmile_qr_scan"}, "name": "c8ff75f3b3bf01d4b23f52292eeb7ef3", "is_reserved": 0}, {"is_disabled": 0, "fusion_lon": 0.0, "fusion_lat": 0.0, "lat": 38.890044, "type": "electric_scooter", "lon": -77.04896883333333, "bike_id": "ad930b0071119908a66872cd1e0a449c", "rental_uris": {"android": "https://dc.lft.to/lastmile_qr_scan", "ios": "https://dc.lft.to/lastmile_qr_scan"}, "name": "ad930b0071119908a66872cd1e0a449c", "is_reserved": 0}, {"is_disabled": 0, "fusion_lon": 0.0, "fusion_lat": 0.0, "lat": 38.860594166666665, "type": "electric_scooter", "lon": -76.9851215, "bike_id": "c2c963b104aa98b917081fd62f37327d", "rental_uris": {"android": "https://dc.lft.to/lastmile_qr_scan", "ios": "https://dc.lft.to/lastmile_qr_scan"}, "name": "c2c963b104aa98b917081fd62f37327d", "is_reserved": 0}, {"is_disabled": 0, "fusion_lon": 0.0, "fusion_lat": 0.0, "lat": 38.9007095, "type": "electric_scooter", "lon": -77.013051, "bike_id": "153f68f6b651dd437bc53f68a5cf9e1c", "rental_uris": {"android": "https://dc.lft.to/lastmile_qr_scan", "ios": "https://dc.lft.to/lastmile_qr_scan"}, "name": "153f68f6b651dd437bc53f68a5cf9e1c", "is_reserved": 0}, {"is_disabled": 0, "fusion_lon": 0.0, "fusion_lat": 0.0, "lat": 38.8947335, "type": "electric_scooter", "lon": -76.93305066666667, "bike_id": "7017cfddd3b8426030da69e145bdf44e", "rental_uris": {"android": "https://dc.lft.to/lastmile_qr_scan", "ios": "https://dc.lft.to/lastmile_qr_scan"}, "name": "7017cfddd3b8426030da69e145bdf44e", "is_reserved": 0}, {"is_disabled": 0, "fusion_lon": 0.0, "fusion_lat": 0.0, "lat": 38.905175666666665, "type": "electric_scooter", "lon": -77.02529316666667, "bike_id": "4bdac953bdfa51b9f5a727c4ce5828b2", "rental_uris": {"android": "https://dc.lft.to/lastmile_qr_scan", "ios": "https://dc.lft.to/lastmile_qr_scan"}, "name": "4bdac953bdfa51b9f5a727c4ce5828b2", "is_reserved": 0}, {"is_disabled": 0, "fusion_lon": 0.0, "fusion_lat": 0.0, "lat": 38.91562, "type": "electric_scooter", "lon": -77.010259, "bike_id": "fbb49b9e7796543563cc6f3e8da077b8", "rental_uris": {"android": "https://dc.lft.to/lastmile_qr_scan", "ios": "https://dc.lft.to/lastmile_qr_scan"}, "name": "fbb49b9e7796543563cc6f3e8da077b8", "is_reserved": 0}, {"is_disabled": 0, "fusion_lon": 0.0, "fusion_lat": 0.0, "lat": 38.9182175, "type": "electric_scooter", "lon": -77.0321885, "bike_id": "708fb7017066281f55dfd4b74e99e34c", "rental_uris": {"android": "https://dc.lft.to/lastmile_qr_scan", "ios": "https://dc.lft.to/lastmile_qr_scan"}, "name": "708fb7017066281f55dfd4b74e99e34c", "is_reserved": 0}, {"is_disabled": 0, "fusion_lon": 0.0, "fusion_lat": 0.0, "lat": 38.9850425, "type": "electric_bike", "lon": -76.98192733333333, "bike_id": "2fd44773944e68294b162b06a369cfba", "rental_uris": {"android": "https://dc.lft.to/lastmile_qr_scan", "ios": "https://dc.lft.to/lastmile_qr_scan"}, "name": "2fd44773944e68294b162b06a369cfba", "is_reserved": 0}, {"is_disabled": 0, "fusion_lon": 0.0, "fusion_lat": 0.0, "lat": 38.876835166666666, "type": "electric_scooter", "lon": -77.00884166666667, "bike_id": "a2739954285f2880aff2564b0de11632", "rental_uris": {"android": "https://dc.lft.to/lastmile_qr_scan", "ios": "https://dc.lft.to/lastmile_qr_scan"}, "name": "a2739954285f2880aff2564b0de11632", "is_reserved": 0}, {"is_disabled": 0, "fusion_lon": 0.0, "fusion_lat": 0.0, "lat": 38.91706966666667, "type": "electric_scooter", "lon": -77.00114716666667, "bike_id": "e2c5b2b5ee3c9835f0c67efd87073ee2", "rental_uris": {"android": "https://dc.lft.to/lastmile_qr_scan", "ios": "https://dc.lft.to/lastmile_qr_scan"}, "name": "e2c5b2b5ee3c9835f0c67efd87073ee2", "is_reserved": 0}, {"is_disabled": 0, "fusion_lon": 0.0, "fusion_lat": 0.0, "lat": 38.909207333333335, "type": "electric_scooter", "lon": -77.02291366666667, "bike_id": "95783e4f3ca6c0277c5e47bab04e8b97", "rental_uris": {"android": "https://dc.lft.to/lastmile_qr_scan", "ios": "https://dc.lft.to/lastmile_qr_scan"}, "name": "95783e4f3ca6c0277c5e47bab04e8b97", "is_reserved": 0}, {"is_disabled": 0, "fusion_lon": 0.0, "fusion_lat": 0.0, "lat": 38.9180185, "type": "electric_scooter", "lon": -77.02392233333333, "bike_id": "2c0c16a7b40038091af5f0b74c540346", "rental_uris": {"android": "https://dc.lft.to/lastmile_qr_scan", "ios": "https://dc.lft.to/lastmile_qr_scan"}, "name": "2c0c16a7b40038091af5f0b74c540346", "is_reserved": 0}, {"is_disabled": 0, "fusion_lon": 0.0, "fusion_lat": 0.0, "lat": 38.90486033333333, "type": "electric_scooter", "lon": -76.97333883333333, "bike_id": "2f4524d8a11d4a54750aa75f0aa72613", "rental_uris": {"android": "https://dc.lft.to/lastmile_qr_scan", "ios": "https://dc.lft.to/lastmile_qr_scan"}, "name": "2f4524d8a11d4a54750aa75f0aa72613", "is_reserved": 0}, {"is_disabled": 0, "fusion_lon": 0.0, "fusion_lat": 0.0, "lat": 38.95378483333333, "type": "electric_scooter", "lon": -77.02552633333333, "bike_id": "b4be85e888486a863d8b881bada2e712", "rental_uris": {"android": "https://dc.lft.to/lastmile_qr_scan", "ios": "https://dc.lft.to/lastmile_qr_scan"}, "name": "b4be85e888486a863d8b881bada2e712", "is_reserved": 0}, {"is_disabled": 0, "fusion_lon": 0.0, "fusion_lat": 0.0, "lat": 38.873113833333335, "type": "electric_bike", "lon": -76.9710365, "bike_id": "5c1b057371bd8fbb0d27af113feffb6a", "rental_uris": {"android": "https://dc.lft.to/lastmile_qr_scan", "ios": "https://dc.lft.to/lastmile_qr_scan"}, "name": "5c1b057371bd8fbb0d27af113feffb6a", "is_reserved": 0}, {"is_disabled": 0, "fusion_lon": 0.0, "fusion_lat": 0.0, "lat": 38.96503583333333, "type": "electric_scooter", "lon": -77.02485133333333, "bike_id": "6d4d192f1baccf778819cf2a5223eb90", "rental_uris": {"android": "https://dc.lft.to/lastmile_qr_scan", "ios": "https://dc.lft.to/lastmile_qr_scan"}, "name": "6d4d192f1baccf778819cf2a5223eb90", "is_reserved": 0}, {"is_disabled": 0, "fusion_lon": 0.0, "fusion_lat": 0.0, "lat": 38.87982566666667, "type": "electric_bike", "lon": -76.9160005, "bike_id": "e52aeb1fd5638f56640557cc4d0d98a3", "rental_uris": {"android": "https://dc.lft.to/lastmile_qr_scan", "ios": "https://dc.lft.to/lastmile_qr_scan"}, "name": "e52aeb1fd5638f56640557cc4d0d98a3", "is_reserved": 0}, {"is_disabled": 0, "fusion_lon": 0.0, "fusion_lat": 0.0, "lat": 38.892255666666664, "type": "electric_scooter", "lon": -77.03337683333334, "bike_id": "a8a0ec570c4663487626ef1b4607a47e", "rental_uris": {"android": "https://dc.lft.to/lastmile_qr_scan", "ios": "https://dc.lft.to/lastmile_qr_scan"}, "name": "a8a0ec570c4663487626ef1b4607a47e", "is_reserved": 0}, {"is_disabled": 0, "fusion_lon": 0.0, "fusion_lat": 0.0, "lat": 38.966482, "type": "electric_bike", "lon": -76.93028566666666, "bike_id": "a429a65bc0ab9095496fbc6771e1cdd5", "rental_uris": {"android": "https://dc.lft.to/lastmile_qr_scan", "ios": "https://dc.lft.to/lastmile_qr_scan"}, "name": "a429a65bc0ab9095496fbc6771e1cdd5", "is_reserved": 0}, {"is_disabled": 0, "fusion_lon": 0.0, "fusion_lat": 0.0, "lat": 38.924241333333335, "type": "electric_scooter", "lon": -77.04159933333334, "bike_id": "312f523de03740d6b175dc3f808fb1bb", "rental_uris": {"android": "https://dc.lft.to/lastmile_qr_scan", "ios": "https://dc.lft.to/lastmile_qr_scan"}, "name": "312f523de03740d6b175dc3f808fb1bb", "is_reserved": 0}, {"is_disabled": 0, "fusion_lon": 0.0, "fusion_lat": 0.0, "lat": 38.930096166666665, "type": "electric_scooter", "lon": -77.07800016666667, "bike_id": "a7e29beeb424d9cd770b7deaac2cae33", "rental_uris": {"android": "https://dc.lft.to/lastmile_qr_scan", "ios": "https://dc.lft.to/lastmile_qr_scan"}, "name": "a7e29beeb424d9cd770b7deaac2cae33", "is_reserved": 0}, {"is_disabled": 0, "fusion_lon": 0.0, "fusion_lat": 0.0, "lat": 38.90729666666667, "type": "electric_scooter", "lon": -77.03862933333333, "bike_id": "13c420b417a888ceffb0e358cff36f67", "rental_uris": {"android": "https://dc.lft.to/lastmile_qr_scan", "ios": "https://dc.lft.to/lastmile_qr_scan"}, "name": "13c420b417a888ceffb0e358cff36f67", "is_reserved": 0}, {"is_disabled": 0, "fusion_lon": 0.0, "fusion_lat": 0.0, "lat": 38.908338666666666, "type": "electric_scooter", "lon": -77.002217, "bike_id": "543264cfe5964b09c03e67a2065d8d37", "rental_uris": {"android": "https://dc.lft.to/lastmile_qr_scan", "ios": "https://dc.lft.to/lastmile_qr_scan"}, "name": "543264cfe5964b09c03e67a2065d8d37", "is_reserved": 0}, {"is_disabled": 0, "fusion_lon": 0.0, "fusion_lat": 0.0, "lat": 38.911745, "type": "electric_scooter", "lon": -77.0045535, "bike_id": "9b2ece3df2009821c875b7de90bdf2ec", "rental_uris": {"android": "https://dc.lft.to/lastmile_qr_scan", "ios": "https://dc.lft.to/lastmile_qr_scan"}, "name": "9b2ece3df2009821c875b7de90bdf2ec", "is_reserved": 0}, {"is_disabled": 0, "fusion_lon": 0.0, "fusion_lat": 0.0, "lat": 38.90371616666667, "type": "electric_scooter", "lon": -77.05018733333333, "bike_id": "1330213e8e45cd4a2fe624849de20608", "rental_uris": {"android": "https://dc.lft.to/lastmile_qr_scan", "ios": "https://dc.lft.to/lastmile_qr_scan"}, "name": "1330213e8e45cd4a2fe624849de20608", "is_reserved": 0}, {"is_disabled": 0, "fusion_lon": 0.0, "fusion_lat": 0.0, "lat": 38.916236833333336, "type": "electric_scooter", "lon": -77.04595483333334, "bike_id": "429e45ea5d6242e47ea5ad76829e9631", "rental_uris": {"android": "https://dc.lft.to/lastmile_qr_scan", "ios": "https://dc.lft.to/lastmile_qr_scan"}, "name": "429e45ea5d6242e47ea5ad76829e9631", "is_reserved": 0}, {"is_disabled": 0, "fusion_lon": 0.0, "fusion_lat": 0.0, "lat": 38.916283666666665, "type": "electric_bike", "lon": -77.01358083333334, "bike_id": "2661542eb7624606f83ca3f6a77e7373", "rental_uris": {"android": "https://dc.lft.to/lastmile_qr_scan", "ios": "https://dc.lft.to/lastmile_qr_scan"}, "name": "2661542eb7624606f83ca3f6a77e7373", "is_reserved": 0}, {"is_disabled": 0, "fusion_lon": 0.0, "fusion_lat": 0.0, "lat": 38.902703, "type": "electric_scooter", "lon": -77.034363, "bike_id": "4e7473e22577ce87492a0a5b9bfecfe3", "rental_uris": {"android": "https://dc.lft.to/lastmile_qr_scan", "ios": "https://dc.lft.to/lastmile_qr_scan"}, "name": "4e7473e22577ce87492a0a5b9bfecfe3", "is_reserved": 0}, {"is_disabled": 0, "fusion_lon": 0.0, "fusion_lat": 0.0, "lat": 38.897371666666665, "type": "electric_scooter", "lon": -77.04801866666666, "bike_id": "dc0599dc427c06d89f23e0de3a3783dc", "rental_uris": {"android": "https://dc.lft.to/lastmile_qr_scan", "ios": "https://dc.lft.to/lastmile_qr_scan"}, "name": "dc0599dc427c06d89f23e0de3a3783dc", "is_reserved": 0}, {"is_disabled": 0, "fusion_lon": 0.0, "fusion_lat": 0.0, "lat": 38.9190075, "type": "electric_scooter", "lon": -77.023939, "bike_id": "f7659850de25bfcacf552314a4329be5", "rental_uris": {"android": "https://dc.lft.to/lastmile_qr_scan", "ios": "https://dc.lft.to/lastmile_qr_scan"}, "name": "f7659850de25bfcacf552314a4329be5", "is_reserved": 0}, {"is_disabled": 0, "fusion_lon": 0.0, "fusion_lat": 0.0, "lat": 38.909992, "type": "electric_scooter", "lon": -77.032062, "bike_id": "e0f84e3d34e229e25da30f4397382952", "rental_uris": {"android": "https://dc.lft.to/lastmile_qr_scan", "ios": "https://dc.lft.to/lastmile_qr_scan"}, "name": "e0f84e3d34e229e25da30f4397382952", "is_reserved": 0}, {"is_disabled": 0, "fusion_lon": 0.0, "fusion_lat": 0.0, "lat": 38.880602, "type": "electric_scooter", "lon": -77.01676816666667, "bike_id": "049e5bb81a7ea3aee37d36d23d5dc06b", "rental_uris": {"android": "https://dc.lft.to/lastmile_qr_scan", "ios": "https://dc.lft.to/lastmile_qr_scan"}, "name": "049e5bb81a7ea3aee37d36d23d5dc06b", "is_reserved": 0}, {"is_disabled": 0, "fusion_lon": 0.0, "fusion_lat": 0.0, "lat": 38.92247033333334, "type": "electric_scooter", "lon": -77.03079416666667, "bike_id": "d67280bd920148a47926f22c2dd30b8b", "rental_uris": {"android": "https://dc.lft.to/lastmile_qr_scan", "ios": "https://dc.lft.to/lastmile_qr_scan"}, "name": "d67280bd920148a47926f22c2dd30b8b", "is_reserved": 0}, {"is_disabled": 0, "fusion_lon": 0.0, "fusion_lat": 0.0, "lat": 38.91826783333333, "type": "electric_scooter", "lon": -77.0325015, "bike_id": "63af47094f3a0b5dabd208c18049138b", "rental_uris": {"android": "https://dc.lft.to/lastmile_qr_scan", "ios": "https://dc.lft.to/lastmile_qr_scan"}, "name": "63af47094f3a0b5dabd208c18049138b", "is_reserved": 0}, {"is_disabled": 0, "fusion_lon": 0.0, "fusion_lat": 0.0, "lat": 38.85841683333334, "type": "electric_bike", "lon": -76.99283616666666, "bike_id": "d3d51bca8016087a6b5825990d70b8be", "rental_uris": {"android": "https://dc.lft.to/lastmile_qr_scan", "ios": "https://dc.lft.to/lastmile_qr_scan"}, "name": "d3d51bca8016087a6b5825990d70b8be", "is_reserved": 0}, {"is_disabled": 0, "fusion_lon": 0.0, "fusion_lat": 0.0, "lat": 38.92372066666667, "type": "electric_scooter", "lon": -77.02812283333333, "bike_id": "cff984bfd7e6148c89172bdeff679ec7", "rental_uris": {"android": "https://dc.lft.to/lastmile_qr_scan", "ios": "https://dc.lft.to/lastmile_qr_scan"}, "name": "cff984bfd7e6148c89172bdeff679ec7", "is_reserved": 0}, {"is_disabled": 0, "fusion_lon": 0.0, "fusion_lat": 0.0, "lat": 38.92314916666667, "type": "electric_scooter", "lon": -77.045206, "bike_id": "466348424f77048e1f9d43752e6026e7", "rental_uris": {"android": "https://dc.lft.to/lastmile_qr_scan", "ios": "https://dc.lft.to/lastmile_qr_scan"}, "name": "466348424f77048e1f9d43752e6026e7", "is_reserved": 0}, {"is_disabled": 0, "fusion_lon": 0.0, "fusion_lat": 0.0, "lat": 38.85917216666667, "type": "electric_scooter", "lon": -76.9878475, "bike_id": "66bcb022e04dc6ead6e3f02b223b5447", "rental_uris": {"android": "https://dc.lft.to/lastmile_qr_scan", "ios": "https://dc.lft.to/lastmile_qr_scan"}, "name": "66bcb022e04dc6ead6e3f02b223b5447", "is_reserved": 0}, {"is_disabled": 0, "fusion_lon": 0.0, "fusion_lat": 0.0, "lat": 38.9260745, "type": "electric_scooter", "lon": -77.02154783333333, "bike_id": "646acb6de6b50ff5f9bc1894376d1972", "rental_uris": {"android": "https://dc.lft.to/lastmile_qr_scan", "ios": "https://dc.lft.to/lastmile_qr_scan"}, "name": "646acb6de6b50ff5f9bc1894376d1972", "is_reserved": 0}, {"is_disabled": 0, "fusion_lon": 0.0, "fusion_lat": 0.0, "lat": 38.88388366666667, "type": "electric_scooter", "lon": -77.017479, "bike_id": "6a4c9d703ba6fae0896a7055f2f53fb3", "rental_uris": {"android": "https://dc.lft.to/lastmile_qr_scan", "ios": "https://dc.lft.to/lastmile_qr_scan"}, "name": "6a4c9d703ba6fae0896a7055f2f53fb3", "is_reserved": 0}, {"is_disabled": 0, "fusion_lon": 0.0, "fusion_lat": 0.0, "lat": 38.92828766666667, "type": "electric_scooter", "lon": -77.01419216666666, "bike_id": "496549c82b8ce05c4c67c39b2d45672c", "rental_uris": {"android": "https://dc.lft.to/lastmile_qr_scan", "ios": "https://dc.lft.to/lastmile_qr_scan"}, "name": "496549c82b8ce05c4c67c39b2d45672c", "is_reserved": 0}, {"is_disabled": 0, "fusion_lon": 0.0, "fusion_lat": 0.0, "lat": 38.934932, "type": "electric_scooter", "lon": -77.02602766666666, "bike_id": "14f9b31729b31a14bc9e63ff98f0bd22", "rental_uris": {"android": "https://dc.lft.to/lastmile_qr_scan", "ios": "https://dc.lft.to/lastmile_qr_scan"}, "name": "14f9b31729b31a14bc9e63ff98f0bd22", "is_reserved": 0}, {"is_disabled": 0, "fusion_lon": 0.0, "fusion_lat": 0.0, "lat": 38.923342166666664, "type": "electric_scooter", "lon": -77.0419325, "bike_id": "faf0631541ef21e8a8ef65232e6fe109", "rental_uris": {"android": "https://dc.lft.to/lastmile_qr_scan", "ios": "https://dc.lft.to/lastmile_qr_scan"}, "name": "faf0631541ef21e8a8ef65232e6fe109", "is_reserved": 0}, {"is_disabled": 0, "fusion_lon": 0.0, "fusion_lat": 0.0, "lat": 38.869574, "type": "electric_scooter", "lon": -76.9602885, "bike_id": "924aab6cea9fc260dab0efef256c3d92", "rental_uris": {"android": "https://dc.lft.to/lastmile_qr_scan", "ios": "https://dc.lft.to/lastmile_qr_scan"}, "name": "924aab6cea9fc260dab0efef256c3d92", "is_reserved": 0}, {"is_disabled": 0, "fusion_lon": 0.0, "fusion_lat": 0.0, "lat": 38.90010083333333, "type": "electric_scooter", "lon": -77.0328645, "bike_id": "f3bf52f61cde0833dfc39db157ca465a", "rental_uris": {"android": "https://dc.lft.to/lastmile_qr_scan", "ios": "https://dc.lft.to/lastmile_qr_scan"}, "name": "f3bf52f61cde0833dfc39db157ca465a", "is_reserved": 0}, {"is_disabled": 0, "fusion_lon": 0.0, "fusion_lat": 0.0, "lat": 38.909603833333335, "type": "electric_scooter", "lon": -77.02375383333333, "bike_id": "e275fe6a36cc446165a1ee3e3d8c1a0f", "rental_uris": {"android": "https://dc.lft.to/lastmile_qr_scan", "ios": "https://dc.lft.to/lastmile_qr_scan"}, "name": "e275fe6a36cc446165a1ee3e3d8c1a0f", "is_reserved": 0}, {"is_disabled": 0, "fusion_lon": 0.0, "fusion_lat": 0.0, "lat": 38.81031, "type": "electric_bike", "lon": -77.084359, "bike_id": "dfe238c1c4ff3b67fb30330cbae667e0", "rental_uris": {"android": "https://dc.lft.to/lastmile_qr_scan", "ios": "https://dc.lft.to/lastmile_qr_scan"}, "name": "dfe238c1c4ff3b67fb30330cbae667e0", "is_reserved": 0}, {"is_disabled": 0, "fusion_lon": 0.0, "fusion_lat": 0.0, "lat": 38.9189285, "type": "electric_scooter", "lon": -77.0711305, "bike_id": "8ae59a17963dbf2de1e81e6f76fec1c3", "rental_uris": {"android": "https://dc.lft.to/lastmile_qr_scan", "ios": "https://dc.lft.to/lastmile_qr_scan"}, "name": "8ae59a17963dbf2de1e81e6f76fec1c3", "is_reserved": 0}, {"is_disabled": 0, "fusion_lon": 0.0, "fusion_lat": 0.0, "lat": 38.91938433333333, "type": "electric_bike", "lon": -76.97503483333334, "bike_id": "925d61c926263e7ec6e816468a76625f", "rental_uris": {"android": "https://dc.lft.to/lastmile_qr_scan", "ios": "https://dc.lft.to/lastmile_qr_scan"}, "name": "925d61c926263e7ec6e816468a76625f", "is_reserved": 0}, {"is_disabled": 0, "fusion_lon": 0.0, "fusion_lat": 0.0, "lat": 38.9430435, "type": "electric_scooter", "lon": -77.02761816666667, "bike_id": "f9b972c9ae3e7064358c8da69349dfe2", "rental_uris": {"android": "https://dc.lft.to/lastmile_qr_scan", "ios": "https://dc.lft.to/lastmile_qr_scan"}, "name": "f9b972c9ae3e7064358c8da69349dfe2", "is_reserved": 0}, {"is_disabled": 0, "fusion_lon": 0.0, "fusion_lat": 0.0, "lat": 38.910079833333334, "type": "electric_scooter", "lon": -77.0808555, "bike_id": "a74ea4ecbd8d0563cd7b72ff87d452a2", "rental_uris": {"android": "https://dc.lft.to/lastmile_qr_scan", "ios": "https://dc.lft.to/lastmile_qr_scan"}, "name": "a74ea4ecbd8d0563cd7b72ff87d452a2", "is_reserved": 0}, {"is_disabled": 0, "fusion_lon": 0.0, "fusion_lat": 0.0, "lat": 38.90523866666667, "type": "electric_scooter", "lon": -77.05324583333334, "bike_id": "9a60c4f802995443794eccb43bd5b687", "rental_uris": {"android": "https://dc.lft.to/lastmile_qr_scan", "ios": "https://dc.lft.to/lastmile_qr_scan"}, "name": "9a60c4f802995443794eccb43bd5b687", "is_reserved": 0}, {"is_disabled": 0, "fusion_lon": 0.0, "fusion_lat": 0.0, "lat": 38.894115166666666, "type": "electric_scooter", "lon": -77.0108595, "bike_id": "e5af73ffae3bbaf7a95c0bd4efde4746", "rental_uris": {"android": "https://dc.lft.to/lastmile_qr_scan", "ios": "https://dc.lft.to/lastmile_qr_scan"}, "name": "e5af73ffae3bbaf7a95c0bd4efde4746", "is_reserved": 0}, {"is_disabled": 0, "fusion_lon": 0.0, "fusion_lat": 0.0, "lat": 38.9207225, "type": "electric_scooter", "lon": -77.04380133333333, "bike_id": "8603955dba6a18ff005966dfbf79164f", "rental_uris": {"android": "https://dc.lft.to/lastmile_qr_scan", "ios": "https://dc.lft.to/lastmile_qr_scan"}, "name": "8603955dba6a18ff005966dfbf79164f", "is_reserved": 0}, {"is_disabled": 0, "fusion_lon": 0.0, "fusion_lat": 0.0, "lat": 38.919254333333335, "type": "electric_scooter", "lon": -77.03183416666667, "bike_id": "c6c08b2ed03c00f4008155013fd79af3", "rental_uris": {"android": "https://dc.lft.to/lastmile_qr_scan", "ios": "https://dc.lft.to/lastmile_qr_scan"}, "name": "c6c08b2ed03c00f4008155013fd79af3", "is_reserved": 0}, {"is_disabled": 0, "fusion_lon": 0.0, "fusion_lat": 0.0, "lat": 38.908607833333335, "type": "electric_scooter", "lon": -77.00365866666667, "bike_id": "a6bc9d7cef3f606bfd9abb49b45b7083", "rental_uris": {"android": "https://dc.lft.to/lastmile_qr_scan", "ios": "https://dc.lft.to/lastmile_qr_scan"}, "name": "a6bc9d7cef3f606bfd9abb49b45b7083", "is_reserved": 0}, {"is_disabled": 0, "fusion_lon": 0.0, "fusion_lat": 0.0, "lat": 38.90597483333333, "type": "electric_scooter", "lon": -77.07311083333333, "bike_id": "87667ec9460011430c8af0211eb3dd9b", "rental_uris": {"android": "https://dc.lft.to/lastmile_qr_scan", "ios": "https://dc.lft.to/lastmile_qr_scan"}, "name": "87667ec9460011430c8af0211eb3dd9b", "is_reserved": 0}, {"is_disabled": 0, "fusion_lon": 0.0, "fusion_lat": 0.0, "lat": 39.000207833333334, "type": "electric_bike", "lon": -76.87283433333333, "bike_id": "7d4b9329e8338f6040308dbf2d39819b", "rental_uris": {"android": "https://dc.lft.to/lastmile_qr_scan", "ios": "https://dc.lft.to/lastmile_qr_scan"}, "name": "7d4b9329e8338f6040308dbf2d39819b", "is_reserved": 0}, {"is_disabled": 0, "fusion_lon": 0.0, "fusion_lat": 0.0, "lat": 38.82875133333334, "type": "electric_bike", "lon": -77.11218133333334, "bike_id": "d3ecf066bcad3bcaa8461147e41d5bc3", "rental_uris": {"android": "https://dc.lft.to/lastmile_qr_scan", "ios": "https://dc.lft.to/lastmile_qr_scan"}, "name": "d3ecf066bcad3bcaa8461147e41d5bc3", "is_reserved": 0}, {"is_disabled": 0, "fusion_lon": 0.0, "fusion_lat": 0.0, "lat": 38.912908, "type": "electric_scooter", "lon": -77.02073016666667, "bike_id": "968560fd8734b676e34f938af52b0ff8", "rental_uris": {"android": "https://dc.lft.to/lastmile_qr_scan", "ios": "https://dc.lft.to/lastmile_qr_scan"}, "name": "968560fd8734b676e34f938af52b0ff8", "is_reserved": 0}, {"is_disabled": 0, "fusion_lon": 0.0, "fusion_lat": 0.0, "lat": 38.90576983333333, "type": "electric_scooter", "lon": -77.04698416666666, "bike_id": "6a9fc55182d5417047145e4d0876bf4f", "rental_uris": {"android": "https://dc.lft.to/lastmile_qr_scan", "ios": "https://dc.lft.to/lastmile_qr_scan"}, "name": "6a9fc55182d5417047145e4d0876bf4f", "is_reserved": 0}, {"is_disabled": 0, "fusion_lon": 0.0, "fusion_lat": 0.0, "lat": 38.9067135, "type": "electric_scooter", "lon": -77.0272245, "bike_id": "20d300c2cd9f425ac1dcfc305609107e", "rental_uris": {"android": "https://dc.lft.to/lastmile_qr_scan", "ios": "https://dc.lft.to/lastmile_qr_scan"}, "name": "20d300c2cd9f425ac1dcfc305609107e", "is_reserved": 0}, {"is_disabled": 0, "fusion_lon": 0.0, "fusion_lat": 0.0, "lat": 38.94925166666667, "type": "electric_scooter", "lon": -77.02294766666667, "bike_id": "bb5e989e03b85a40f473aa41dd3fc5b5", "rental_uris": {"android": "https://dc.lft.to/lastmile_qr_scan", "ios": "https://dc.lft.to/lastmile_qr_scan"}, "name": "bb5e989e03b85a40f473aa41dd3fc5b5", "is_reserved": 0}, {"is_disabled": 0, "fusion_lon": 0.0, "fusion_lat": 0.0, "lat": 38.88047983333333, "type": "electric_scooter", "lon": -77.00371133333333, "bike_id": "bc16f633f256a179a2cc27ac9e03907e", "rental_uris": {"android": "https://dc.lft.to/lastmile_qr_scan", "ios": "https://dc.lft.to/lastmile_qr_scan"}, "name": "bc16f633f256a179a2cc27ac9e03907e", "is_reserved": 0}, {"is_disabled": 0, "fusion_lon": 0.0, "fusion_lat": 0.0, "lat": 38.93079566666667, "type": "electric_scooter", "lon": -77.05816783333333, "bike_id": "2bc2df866f031ab4c896216f54650141", "rental_uris": {"android": "https://dc.lft.to/lastmile_qr_scan", "ios": "https://dc.lft.to/lastmile_qr_scan"}, "name": "2bc2df866f031ab4c896216f54650141", "is_reserved": 0}, {"is_disabled": 0, "fusion_lon": 0.0, "fusion_lat": 0.0, "lat": 38.93397183333333, "type": "electric_scooter", "lon": -77.03997833333334, "bike_id": "ce3a6a7dde9203f2b5804f822fa312d5", "rental_uris": {"android": "https://dc.lft.to/lastmile_qr_scan", "ios": "https://dc.lft.to/lastmile_qr_scan"}, "name": "ce3a6a7dde9203f2b5804f822fa312d5", "is_reserved": 0}, {"is_disabled": 0, "fusion_lon": 0.0, "fusion_lat": 0.0, "lat": 38.8999645, "type": "electric_scooter", "lon": -77.03959616666667, "bike_id": "67b16c6ff8bb43e611f5a89e1797afed", "rental_uris": {"android": "https://dc.lft.to/lastmile_qr_scan", "ios": "https://dc.lft.to/lastmile_qr_scan"}, "name": "67b16c6ff8bb43e611f5a89e1797afed", "is_reserved": 0}, {"is_disabled": 0, "fusion_lon": 0.0, "fusion_lat": 0.0, "lat": 38.9052965, "type": "electric_scooter", "lon": -77.05029166666667, "bike_id": "fdabc928f8176abb7d17842fb027c3d2", "rental_uris": {"android": "https://dc.lft.to/lastmile_qr_scan", "ios": "https://dc.lft.to/lastmile_qr_scan"}, "name": "fdabc928f8176abb7d17842fb027c3d2", "is_reserved": 0}, {"is_disabled": 0, "fusion_lon": 0.0, "fusion_lat": 0.0, "lat": 38.886326, "type": "electric_scooter", "lon": -76.9551095, "bike_id": "e1c8a86a3a1877d6d5704edf2ee3d8ff", "rental_uris": {"android": "https://dc.lft.to/lastmile_qr_scan", "ios": "https://dc.lft.to/lastmile_qr_scan"}, "name": "e1c8a86a3a1877d6d5704edf2ee3d8ff", "is_reserved": 0}, {"is_disabled": 0, "fusion_lon": 0.0, "fusion_lat": 0.0, "lat": 38.91591366666667, "type": "electric_scooter", "lon": -77.02127933333334, "bike_id": "e89d226d1f34edc19bec766c33b7123d", "rental_uris": {"android": "https://dc.lft.to/lastmile_qr_scan", "ios": "https://dc.lft.to/lastmile_qr_scan"}, "name": "e89d226d1f34edc19bec766c33b7123d", "is_reserved": 0}, {"is_disabled": 0, "fusion_lon": 0.0, "fusion_lat": 0.0, "lat": 38.900212, "type": "electric_scooter", "lon": -77.03939666666666, "bike_id": "af65da10e5491c0c39943308d0a34930", "rental_uris": {"android": "https://dc.lft.to/lastmile_qr_scan", "ios": "https://dc.lft.to/lastmile_qr_scan"}, "name": "af65da10e5491c0c39943308d0a34930", "is_reserved": 0}, {"is_disabled": 0, "fusion_lon": 0.0, "fusion_lat": 0.0, "lat": 38.924819666666664, "type": "electric_scooter", "lon": -77.03783883333334, "bike_id": "5ee5754488ed83afd5ed6fba5e027639", "rental_uris": {"android": "https://dc.lft.to/lastmile_qr_scan", "ios": "https://dc.lft.to/lastmile_qr_scan"}, "name": "5ee5754488ed83afd5ed6fba5e027639", "is_reserved": 0}, {"is_disabled": 0, "fusion_lon": 0.0, "fusion_lat": 0.0, "lat": 38.9161105, "type": "electric_scooter", "lon": -77.046002, "bike_id": "2bac1be941137e05be57a15e66e55cc9", "rental_uris": {"android": "https://dc.lft.to/lastmile_qr_scan", "ios": "https://dc.lft.to/lastmile_qr_scan"}, "name": "2bac1be941137e05be57a15e66e55cc9", "is_reserved": 0}, {"is_disabled": 0, "fusion_lon": 0.0, "fusion_lat": 0.0, "lat": 38.868946666666666, "type": "electric_scooter", "lon": -76.98312566666667, "bike_id": "49251ed8b99521b946aa9fcc79193325", "rental_uris": {"android": "https://dc.lft.to/lastmile_qr_scan", "ios": "https://dc.lft.to/lastmile_qr_scan"}, "name": "49251ed8b99521b946aa9fcc79193325", "is_reserved": 0}, {"is_disabled": 0, "fusion_lon": 0.0, "fusion_lat": 0.0, "lat": 38.917062666666666, "type": "electric_scooter", "lon": -77.04172333333334, "bike_id": "1149cb3b49732e73d5f20353b40d75bf", "rental_uris": {"android": "https://dc.lft.to/lastmile_qr_scan", "ios": "https://dc.lft.to/lastmile_qr_scan"}, "name": "1149cb3b49732e73d5f20353b40d75bf", "is_reserved": 0}, {"is_disabled": 0, "fusion_lon": 0.0, "fusion_lat": 0.0, "lat": 38.914696166666666, "type": "electric_scooter", "lon": -77.02792716666667, "bike_id": "3e49de7a3262cf68c5c604bea088be68", "rental_uris": {"android": "https://dc.lft.to/lastmile_qr_scan", "ios": "https://dc.lft.to/lastmile_qr_scan"}, "name": "3e49de7a3262cf68c5c604bea088be68", "is_reserved": 0}, {"is_disabled": 0, "fusion_lon": 0.0, "fusion_lat": 0.0, "lat": 38.8837545, "type": "electric_scooter", "lon": -76.98570266666667, "bike_id": "5b21948f2e8b43137800dcda811d1b56", "rental_uris": {"android": "https://dc.lft.to/lastmile_qr_scan", "ios": "https://dc.lft.to/lastmile_qr_scan"}, "name": "5b21948f2e8b43137800dcda811d1b56", "is_reserved": 0}, {"is_disabled": 0, "fusion_lon": 0.0, "fusion_lat": 0.0, "lat": 38.8598855, "type": "electric_bike", "lon": -76.9705105, "bike_id": "b31e5f549c89860b46125686f338f3d2", "rental_uris": {"android": "https://dc.lft.to/lastmile_qr_scan", "ios": "https://dc.lft.to/lastmile_qr_scan"}, "name": "b31e5f549c89860b46125686f338f3d2", "is_reserved": 0}, {"is_disabled": 0, "fusion_lon": 0.0, "fusion_lat": 0.0, "lat": 38.9256235, "type": "electric_scooter", "lon": -77.02278283333334, "bike_id": "39742d12ded64c69b344d04f6bc461cd", "rental_uris": {"android": "https://dc.lft.to/lastmile_qr_scan", "ios": "https://dc.lft.to/lastmile_qr_scan"}, "name": "39742d12ded64c69b344d04f6bc461cd", "is_reserved": 0}, {"is_disabled": 0, "fusion_lon": 0.0, "fusion_lat": 0.0, "lat": 38.994577666666665, "type": "electric_bike", "lon": -76.90817433333333, "bike_id": "8b1ef7c68a340bc33000cb5797a9fae1", "rental_uris": {"android": "https://dc.lft.to/lastmile_qr_scan", "ios": "https://dc.lft.to/lastmile_qr_scan"}, "name": "8b1ef7c68a340bc33000cb5797a9fae1", "is_reserved": 0}, {"is_disabled": 0, "fusion_lon": 0.0, "fusion_lat": 0.0, "lat": 38.93534566666666, "type": "electric_scooter", "lon": -77.02069266666666, "bike_id": "1caef35ab6d9812e8ad327fa64cffd4b", "rental_uris": {"android": "https://dc.lft.to/lastmile_qr_scan", "ios": "https://dc.lft.to/lastmile_qr_scan"}, "name": "1caef35ab6d9812e8ad327fa64cffd4b", "is_reserved": 0}, {"is_disabled": 0, "fusion_lon": 0.0, "fusion_lat": 0.0, "lat": 39.000069833333335, "type": "electric_bike", "lon": -76.9180335, "bike_id": "d8de34b76e331e4ad1c28810c63dc416", "rental_uris": {"android": "https://dc.lft.to/lastmile_qr_scan", "ios": "https://dc.lft.to/lastmile_qr_scan"}, "name": "d8de34b76e331e4ad1c28810c63dc416", "is_reserved": 0}, {"is_disabled": 0, "fusion_lon": 0.0, "fusion_lat": 0.0, "lat": 38.919174166666664, "type": "electric_scooter", "lon": -77.024193, "bike_id": "025d2479f30a08b633dd0d50adbb5416", "rental_uris": {"android": "https://dc.lft.to/lastmile_qr_scan", "ios": "https://dc.lft.to/lastmile_qr_scan"}, "name": "025d2479f30a08b633dd0d50adbb5416", "is_reserved": 0}, {"is_disabled": 0, "fusion_lon": 0.0, "fusion_lat": 0.0, "lat": 38.92458666666667, "type": "electric_scooter", "lon": -76.99900516666666, "bike_id": "6b6c387067aae931844be9cd78f1dd33", "rental_uris": {"android": "https://dc.lft.to/lastmile_qr_scan", "ios": "https://dc.lft.to/lastmile_qr_scan"}, "name": "6b6c387067aae931844be9cd78f1dd33", "is_reserved": 0}, {"is_disabled": 0, "fusion_lon": 0.0, "fusion_lat": 0.0, "lat": 38.941993333333336, "type": "electric_scooter", "lon": -77.02579666666666, "bike_id": "ef05f334a35a78c6a81b64f944ec86b4", "rental_uris": {"android": "https://dc.lft.to/lastmile_qr_scan", "ios": "https://dc.lft.to/lastmile_qr_scan"}, "name": "ef05f334a35a78c6a81b64f944ec86b4", "is_reserved": 0}, {"is_disabled": 0, "fusion_lon": 0.0, "fusion_lat": 0.0, "lat": 38.9141695, "type": "electric_scooter", "lon": -77.043262, "bike_id": "b236b725a019df1de388bc3e2db03ed3", "rental_uris": {"android": "https://dc.lft.to/lastmile_qr_scan", "ios": "https://dc.lft.to/lastmile_qr_scan"}, "name": "b236b725a019df1de388bc3e2db03ed3", "is_reserved": 0}, {"is_disabled": 0, "fusion_lon": 0.0, "fusion_lat": 0.0, "lat": 38.91115083333333, "type": "electric_scooter", "lon": -77.037241, "bike_id": "8387d5947ca54952d0a03d17b78e6346", "rental_uris": {"android": "https://dc.lft.to/lastmile_qr_scan", "ios": "https://dc.lft.to/lastmile_qr_scan"}, "name": "8387d5947ca54952d0a03d17b78e6346", "is_reserved": 0}, {"is_disabled": 0, "fusion_lon": 0.0, "fusion_lat": 0.0, "lat": 38.94973366666667, "type": "electric_scooter", "lon": -77.06762066666667, "bike_id": "12d679b5de44f9d2f854fbd16bf15073", "rental_uris": {"android": "https://dc.lft.to/lastmile_qr_scan", "ios": "https://dc.lft.to/lastmile_qr_scan"}, "name": "12d679b5de44f9d2f854fbd16bf15073", "is_reserved": 0}, {"is_disabled": 0, "fusion_lon": 0.0, "fusion_lat": 0.0, "lat": 38.9332305, "type": "electric_scooter", "lon": -77.02924466666667, "bike_id": "5b583cab07af671bd8fcd0551ad66cb4", "rental_uris": {"android": "https://dc.lft.to/lastmile_qr_scan", "ios": "https://dc.lft.to/lastmile_qr_scan"}, "name": "5b583cab07af671bd8fcd0551ad66cb4", "is_reserved": 0}, {"is_disabled": 0, "fusion_lon": 0.0, "fusion_lat": 0.0, "lat": 38.968324, "type": "electric_scooter", "lon": -77.0151605, "bike_id": "a1524c287534c5a2962743a95ab7f163", "rental_uris": {"android": "https://dc.lft.to/lastmile_qr_scan", "ios": "https://dc.lft.to/lastmile_qr_scan"}, "name": "a1524c287534c5a2962743a95ab7f163", "is_reserved": 0}, {"is_disabled": 0, "fusion_lon": 0.0, "fusion_lat": 0.0, "lat": 38.924100833333334, "type": "electric_scooter", "lon": -77.05166966666667, "bike_id": "7a76eafdb06fd5a441378693c9b17622", "rental_uris": {"android": "https://dc.lft.to/lastmile_qr_scan", "ios": "https://dc.lft.to/lastmile_qr_scan"}, "name": "7a76eafdb06fd5a441378693c9b17622", "is_reserved": 0}, {"is_disabled": 0, "fusion_lon": 0.0, "fusion_lat": 0.0, "lat": 38.85550283333333, "type": "electric_bike", "lon": -77.107337, "bike_id": "f612aa943bf7fe5b7276d6b3679b87aa", "rental_uris": {"android": "https://dc.lft.to/lastmile_qr_scan", "ios": "https://dc.lft.to/lastmile_qr_scan"}, "name": "f612aa943bf7fe5b7276d6b3679b87aa", "is_reserved": 0}, {"is_disabled": 0, "fusion_lon": 0.0, "fusion_lat": 0.0, "lat": 38.91622983333333, "type": "electric_scooter", "lon": -77.04865016666666, "bike_id": "9832412520fe5c71561542d5da0559a7", "rental_uris": {"android": "https://dc.lft.to/lastmile_qr_scan", "ios": "https://dc.lft.to/lastmile_qr_scan"}, "name": "9832412520fe5c71561542d5da0559a7", "is_reserved": 0}, {"is_disabled": 0, "fusion_lon": 0.0, "fusion_lat": 0.0, "lat": 38.90636516666667, "type": "electric_scooter", "lon": -77.02501916666667, "bike_id": "63426f1bac4131c9e01538f0d8b2492c", "rental_uris": {"android": "https://dc.lft.to/lastmile_qr_scan", "ios": "https://dc.lft.to/lastmile_qr_scan"}, "name": "63426f1bac4131c9e01538f0d8b2492c", "is_reserved": 0}, {"is_disabled": 0, "fusion_lon": 0.0, "fusion_lat": 0.0, "lat": 38.8984755, "type": "electric_scooter", "lon": -76.945579, "bike_id": "ed4b5476a91192d80444f1bfcd53d03a", "rental_uris": {"android": "https://dc.lft.to/lastmile_qr_scan", "ios": "https://dc.lft.to/lastmile_qr_scan"}, "name": "ed4b5476a91192d80444f1bfcd53d03a", "is_reserved": 0}, {"is_disabled": 0, "fusion_lon": 0.0, "fusion_lat": 0.0, "lat": 38.895055166666666, "type": "electric_scooter", "lon": -76.94881566666666, "bike_id": "2c06ceaad1e2fdee814784f09913c01f", "rental_uris": {"android": "https://dc.lft.to/lastmile_qr_scan", "ios": "https://dc.lft.to/lastmile_qr_scan"}, "name": "2c06ceaad1e2fdee814784f09913c01f", "is_reserved": 0}, {"is_disabled": 0, "fusion_lon": 0.0, "fusion_lat": 0.0, "lat": 38.8603525, "type": "electric_scooter", "lon": -76.996919, "bike_id": "4b24cfaa8e044dc43a174242b2ff4a15", "rental_uris": {"android": "https://dc.lft.to/lastmile_qr_scan", "ios": "https://dc.lft.to/lastmile_qr_scan"}, "name": "4b24cfaa8e044dc43a174242b2ff4a15", "is_reserved": 0}, {"is_disabled": 0, "fusion_lon": 0.0, "fusion_lat": 0.0, "lat": 38.9193855, "type": "electric_scooter", "lon": -77.08129816666667, "bike_id": "5ce6b739d2ff18e8985cfd7b3690b71c", "rental_uris": {"android": "https://dc.lft.to/lastmile_qr_scan", "ios": "https://dc.lft.to/lastmile_qr_scan"}, "name": "5ce6b739d2ff18e8985cfd7b3690b71c", "is_reserved": 0}, {"is_disabled": 0, "fusion_lon": 0.0, "fusion_lat": 0.0, "lat": 39.09588566666667, "type": "electric_bike", "lon": -77.1477785, "bike_id": "7ce9293734d08f5633dcaa07b7dc17b4", "rental_uris": {"android": "https://dc.lft.to/lastmile_qr_scan", "ios": "https://dc.lft.to/lastmile_qr_scan"}, "name": "7ce9293734d08f5633dcaa07b7dc17b4", "is_reserved": 0}, {"is_disabled": 0, "fusion_lon": 0.0, "fusion_lat": 0.0, "lat": 38.99935516666667, "type": "electric_bike", "lon": -77.00119, "bike_id": "72b0f54c013123f360a2ba41505d15ae", "rental_uris": {"android": "https://dc.lft.to/lastmile_qr_scan", "ios": "https://dc.lft.to/lastmile_qr_scan"}, "name": "72b0f54c013123f360a2ba41505d15ae", "is_reserved": 0}, {"is_disabled": 0, "fusion_lon": 0.0, "fusion_lat": 0.0, "lat": 38.99259383333333, "type": "electric_bike", "lon": -77.0499605, "bike_id": "a4afb62ad23070d213e08fd1c065a12b", "rental_uris": {"android": "https://dc.lft.to/lastmile_qr_scan", "ios": "https://dc.lft.to/lastmile_qr_scan"}, "name": "a4afb62ad23070d213e08fd1c065a12b", "is_reserved": 0}, {"is_disabled": 0, "fusion_lon": 0.0, "fusion_lat": 0.0, "lat": 38.912839166666664, "type": "electric_scooter", "lon": -77.03846416666667, "bike_id": "115b728d6e4800243724e1f04a8e545e", "rental_uris": {"android": "https://dc.lft.to/lastmile_qr_scan", "ios": "https://dc.lft.to/lastmile_qr_scan"}, "name": "115b728d6e4800243724e1f04a8e545e", "is_reserved": 0}, {"is_disabled": 0, "fusion_lon": 0.0, "fusion_lat": 0.0, "lat": 38.914738, "type": "electric_bike", "lon": -77.00925533333333, "bike_id": "461bc27dc784027ea29426740f010a35", "rental_uris": {"android": "https://dc.lft.to/lastmile_qr_scan", "ios": "https://dc.lft.to/lastmile_qr_scan"}, "name": "461bc27dc784027ea29426740f010a35", "is_reserved": 0}, {"is_disabled": 0, "fusion_lon": 0.0, "fusion_lat": 0.0, "lat": 38.897654333333335, "type": "electric_scooter", "lon": -77.02673683333333, "bike_id": "c81cbfeb36a7b2d7eaab4309b27ba455", "rental_uris": {"android": "https://dc.lft.to/lastmile_qr_scan", "ios": "https://dc.lft.to/lastmile_qr_scan"}, "name": "c81cbfeb36a7b2d7eaab4309b27ba455", "is_reserved": 0}, {"is_disabled": 0, "fusion_lon": 0.0, "fusion_lat": 0.0, "lat": 38.91757233333333, "type": "electric_scooter", "lon": -77.036, "bike_id": "965c6cf99d4623a621c85015201a3850", "rental_uris": {"android": "https://dc.lft.to/lastmile_qr_scan", "ios": "https://dc.lft.to/lastmile_qr_scan"}, "name": "965c6cf99d4623a621c85015201a3850", "is_reserved": 0}, {"is_disabled": 0, "fusion_lon": 0.0, "fusion_lat": 0.0, "lat": 38.8962315, "type": "electric_scooter", "lon": -76.9563985, "bike_id": "6d6fe2ceab3c95e51cbf68e07a7006ce", "rental_uris": {"android": "https://dc.lft.to/lastmile_qr_scan", "ios": "https://dc.lft.to/lastmile_qr_scan"}, "name": "6d6fe2ceab3c95e51cbf68e07a7006ce", "is_reserved": 0}, {"is_disabled": 0, "fusion_lon": 0.0, "fusion_lat": 0.0, "lat": 38.91883416666667, "type": "electric_scooter", "lon": -77.01592633333334, "bike_id": "4bf1a9209e999dd2a467f867d0c32956", "rental_uris": {"android": "https://dc.lft.to/lastmile_qr_scan", "ios": "https://dc.lft.to/lastmile_qr_scan"}, "name": "4bf1a9209e999dd2a467f867d0c32956", "is_reserved": 0}, {"is_disabled": 0, "fusion_lon": 0.0, "fusion_lat": 0.0, "lat": 38.9507845, "type": "electric_scooter", "lon": -77.02871183333333, "bike_id": "455f6d4e725582fe406273f4110297cd", "rental_uris": {"android": "https://dc.lft.to/lastmile_qr_scan", "ios": "https://dc.lft.to/lastmile_qr_scan"}, "name": "455f6d4e725582fe406273f4110297cd", "is_reserved": 0}, {"is_disabled": 0, "fusion_lon": 0.0, "fusion_lat": 0.0, "lat": 38.92054683333333, "type": "electric_scooter", "lon": -76.9987715, "bike_id": "c7639acf02c27bec31cbb4c665f9f119", "rental_uris": {"android": "https://dc.lft.to/lastmile_qr_scan", "ios": "https://dc.lft.to/lastmile_qr_scan"}, "name": "c7639acf02c27bec31cbb4c665f9f119", "is_reserved": 0}, {"is_disabled": 0, "fusion_lon": 0.0, "fusion_lat": 0.0, "lat": 38.9319625, "type": "electric_bike", "lon": -77.22933566666667, "bike_id": "06713560673c51b4e12a55995f86995b", "rental_uris": {"android": "https://dc.lft.to/lastmile_qr_scan", "ios": "https://dc.lft.to/lastmile_qr_scan"}, "name": "06713560673c51b4e12a55995f86995b", "is_reserved": 0}, {"is_disabled": 0, "fusion_lon": 0.0, "fusion_lat": 0.0, "lat": 38.883736999999996, "type": "electric_scooter", "lon": -76.926455, "bike_id": "b28eb0ed33c39617e84c4d96c219f518", "rental_uris": {"android": "https://dc.lft.to/lastmile_qr_scan", "ios": "https://dc.lft.to/lastmile_qr_scan"}, "name": "b28eb0ed33c39617e84c4d96c219f518", "is_reserved": 0}, {"is_disabled": 0, "fusion_lon": 0.0, "fusion_lat": 0.0, "lat": 38.864657666666666, "type": "electric_scooter", "lon": -76.99614716666666, "bike_id": "a4b9016714c0499ad803dc28860e0261", "rental_uris": {"android": "https://dc.lft.to/lastmile_qr_scan", "ios": "https://dc.lft.to/lastmile_qr_scan"}, "name": "a4b9016714c0499ad803dc28860e0261", "is_reserved": 0}, {"is_disabled": 0, "fusion_lon": 0.0, "fusion_lat": 0.0, "lat": 38.875018833333336, "type": "electric_scooter", "lon": -76.99795283333333, "bike_id": "01ff22ef9ec9444c0b2a8065b7a0ddc8", "rental_uris": {"android": "https://dc.lft.to/lastmile_qr_scan", "ios": "https://dc.lft.to/lastmile_qr_scan"}, "name": "01ff22ef9ec9444c0b2a8065b7a0ddc8", "is_reserved": 0}, {"is_disabled": 0, "fusion_lon": 0.0, "fusion_lat": 0.0, "lat": 38.92142066666667, "type": "electric_scooter", "lon": -77.00917583333333, "bike_id": "b354c8ea693096cc2a0e4fcb695bd921", "rental_uris": {"android": "https://dc.lft.to/lastmile_qr_scan", "ios": "https://dc.lft.to/lastmile_qr_scan"}, "name": "b354c8ea693096cc2a0e4fcb695bd921", "is_reserved": 0}, {"is_disabled": 0, "fusion_lon": 0.0, "fusion_lat": 0.0, "lat": 38.90732716666667, "type": "electric_scooter", "lon": -77.02413833333334, "bike_id": "7a039eda5ecf6efdb8379dc5c0a54b5a", "rental_uris": {"android": "https://dc.lft.to/lastmile_qr_scan", "ios": "https://dc.lft.to/lastmile_qr_scan"}, "name": "7a039eda5ecf6efdb8379dc5c0a54b5a", "is_reserved": 0}, {"is_disabled": 0, "fusion_lon": 0.0, "fusion_lat": 0.0, "lat": 38.91918416666667, "type": "electric_scooter", "lon": -77.0447155, "bike_id": "3af472ee4ca04f06a8cd1a2752e92656", "rental_uris": {"android": "https://dc.lft.to/lastmile_qr_scan", "ios": "https://dc.lft.to/lastmile_qr_scan"}, "name": "3af472ee4ca04f06a8cd1a2752e92656", "is_reserved": 0}, {"is_disabled": 0, "fusion_lon": 0.0, "fusion_lat": 0.0, "lat": 38.93103, "type": "electric_scooter", "lon": -77.02447483333333, "bike_id": "253cd92fb4b818445709d2587ed19d2d", "rental_uris": {"android": "https://dc.lft.to/lastmile_qr_scan", "ios": "https://dc.lft.to/lastmile_qr_scan"}, "name": "253cd92fb4b818445709d2587ed19d2d", "is_reserved": 0}, {"is_disabled": 0, "fusion_lon": 0.0, "fusion_lat": 0.0, "lat": 38.913383833333334, "type": "electric_scooter", "lon": -77.04223283333333, "bike_id": "10b1cf61da30f2c7b467f3b20176ff87", "rental_uris": {"android": "https://dc.lft.to/lastmile_qr_scan", "ios": "https://dc.lft.to/lastmile_qr_scan"}, "name": "10b1cf61da30f2c7b467f3b20176ff87", "is_reserved": 0}, {"is_disabled": 0, "fusion_lon": 0.0, "fusion_lat": 0.0, "lat": 38.887216333333335, "type": "electric_scooter", "lon": -77.02206683333333, "bike_id": "60de1f62393fad3bb365f87e1722ea3c", "rental_uris": {"android": "https://dc.lft.to/lastmile_qr_scan", "ios": "https://dc.lft.to/lastmile_qr_scan"}, "name": "60de1f62393fad3bb365f87e1722ea3c", "is_reserved": 0}, {"is_disabled": 0, "fusion_lon": 0.0, "fusion_lat": 0.0, "lat": 38.929191333333335, "type": "electric_scooter", "lon": -77.02148383333333, "bike_id": "641c8b8f31f9a8ab5baa23de07f6e107", "rental_uris": {"android": "https://dc.lft.to/lastmile_qr_scan", "ios": "https://dc.lft.to/lastmile_qr_scan"}, "name": "641c8b8f31f9a8ab5baa23de07f6e107", "is_reserved": 0}, {"is_disabled": 0, "fusion_lon": 0.0, "fusion_lat": 0.0, "lat": 38.902599, "type": "electric_scooter", "lon": -77.0001455, "bike_id": "ea2d8cb7a092f427b27c4079e4073f81", "rental_uris": {"android": "https://dc.lft.to/lastmile_qr_scan", "ios": "https://dc.lft.to/lastmile_qr_scan"}, "name": "ea2d8cb7a092f427b27c4079e4073f81", "is_reserved": 0}, {"is_disabled": 0, "fusion_lon": 0.0, "fusion_lat": 0.0, "lat": 38.93048116666667, "type": "electric_scooter", "lon": -77.00415666666666, "bike_id": "943c29f1f8d5c9e6dee4dbef226fa8f1", "rental_uris": {"android": "https://dc.lft.to/lastmile_qr_scan", "ios": "https://dc.lft.to/lastmile_qr_scan"}, "name": "943c29f1f8d5c9e6dee4dbef226fa8f1", "is_reserved": 0}, {"is_disabled": 0, "fusion_lon": 0.0, "fusion_lat": 0.0, "lat": 38.938815166666664, "type": "electric_scooter", "lon": -77.0333615, "bike_id": "37d54564ede9421131a16c1d27c7fe9c", "rental_uris": {"android": "https://dc.lft.to/lastmile_qr_scan", "ios": "https://dc.lft.to/lastmile_qr_scan"}, "name": "37d54564ede9421131a16c1d27c7fe9c", "is_reserved": 0}, {"is_disabled": 0, "fusion_lon": 0.0, "fusion_lat": 0.0, "lat": 39.115064, "type": "electric_bike", "lon": -77.195448, "bike_id": "59891da1d53555f223e5443acf1157d2", "rental_uris": {"android": "https://dc.lft.to/lastmile_qr_scan", "ios": "https://dc.lft.to/lastmile_qr_scan"}, "name": "59891da1d53555f223e5443acf1157d2", "is_reserved": 0}, {"is_disabled": 0, "fusion_lon": 0.0, "fusion_lat": 0.0, "lat": 38.99253433333333, "type": "electric_bike", "lon": -77.05001283333333, "bike_id": "fd167742c914c4b9ac3f39ee31151776", "rental_uris": {"android": "https://dc.lft.to/lastmile_qr_scan", "ios": "https://dc.lft.to/lastmile_qr_scan"}, "name": "fd167742c914c4b9ac3f39ee31151776", "is_reserved": 0}, {"is_disabled": 0, "fusion_lon": 0.0, "fusion_lat": 0.0, "lat": 38.83813766666667, "type": "electric_scooter", "lon": -77.00430566666667, "bike_id": "ef56672f343ec9a33d4cd29fc953f0d0", "rental_uris": {"android": "https://dc.lft.to/lastmile_qr_scan", "ios": "https://dc.lft.to/lastmile_qr_scan"}, "name": "ef56672f343ec9a33d4cd29fc953f0d0", "is_reserved": 0}, {"is_disabled": 0, "fusion_lon": 0.0, "fusion_lat": 0.0, "lat": 38.990818166666664, "type": "electric_bike", "lon": -77.00182033333333, "bike_id": "d46cbea3520d194d78e3dd2503b3c831", "rental_uris": {"android": "https://dc.lft.to/lastmile_qr_scan", "ios": "https://dc.lft.to/lastmile_qr_scan"}, "name": "d46cbea3520d194d78e3dd2503b3c831", "is_reserved": 0}, {"is_disabled": 0, "fusion_lon": 0.0, "fusion_lat": 0.0, "lat": 38.85716933333333, "type": "electric_bike", "lon": -76.98116466666667, "bike_id": "fea0c30841d5771c8d1eaece56103ac4", "rental_uris": {"android": "https://dc.lft.to/lastmile_qr_scan", "ios": "https://dc.lft.to/lastmile_qr_scan"}, "name": "fea0c30841d5771c8d1eaece56103ac4", "is_reserved": 0}, {"is_disabled": 0, "fusion_lon": 0.0, "fusion_lat": 0.0, "lat": 38.83121283333333, "type": "electric_bike", "lon": -77.043264, "bike_id": "8b6e6fa8d483386e013a1616bd48c0d3", "rental_uris": {"android": "https://dc.lft.to/lastmile_qr_scan", "ios": "https://dc.lft.to/lastmile_qr_scan"}, "name": "8b6e6fa8d483386e013a1616bd48c0d3", "is_reserved": 0}, {"is_disabled": 0, "fusion_lon": 0.0, "fusion_lat": 0.0, "lat": 38.943037833333335, "type": "electric_scooter", "lon": -77.02349083333333, "bike_id": "12214f7a273505c95a88ea73a476afb2", "rental_uris": {"android": "https://dc.lft.to/lastmile_qr_scan", "ios": "https://dc.lft.to/lastmile_qr_scan"}, "name": "12214f7a273505c95a88ea73a476afb2", "is_reserved": 0}, {"is_disabled": 0, "fusion_lon": 0.0, "fusion_lat": 0.0, "lat": 38.96125116666666, "type": "electric_scooter", "lon": -77.08519266666667, "bike_id": "89e102bf12201998f75604102bc6124c", "rental_uris": {"android": "https://dc.lft.to/lastmile_qr_scan", "ios": "https://dc.lft.to/lastmile_qr_scan"}, "name": "89e102bf12201998f75604102bc6124c", "is_reserved": 0}, {"is_disabled": 0, "fusion_lon": 0.0, "fusion_lat": 0.0, "lat": 38.887522833333335, "type": "electric_scooter", "lon": -77.01541733333333, "bike_id": "7573a48a7b96049a0beb2b687dc40afc", "rental_uris": {"android": "https://dc.lft.to/lastmile_qr_scan", "ios": "https://dc.lft.to/lastmile_qr_scan"}, "name": "7573a48a7b96049a0beb2b687dc40afc", "is_reserved": 0}, {"is_disabled": 0, "fusion_lon": 0.0, "fusion_lat": 0.0, "lat": 38.9162475, "type": "electric_scooter", "lon": -77.04860566666666, "bike_id": "fc26915fd28c707b1223b803cdcad134", "rental_uris": {"android": "https://dc.lft.to/lastmile_qr_scan", "ios": "https://dc.lft.to/lastmile_qr_scan"}, "name": "fc26915fd28c707b1223b803cdcad134", "is_reserved": 0}, {"is_disabled": 0, "fusion_lon": 0.0, "fusion_lat": 0.0, "lat": 38.895664, "type": "electric_bike", "lon": -77.12739383333333, "bike_id": "bb12d3d6ce47157fcf08753934f98786", "rental_uris": {"android": "https://dc.lft.to/lastmile_qr_scan", "ios": "https://dc.lft.to/lastmile_qr_scan"}, "name": "bb12d3d6ce47157fcf08753934f98786", "is_reserved": 0}, {"is_disabled": 0, "fusion_lon": 0.0, "fusion_lat": 0.0, "lat": 38.9083745, "type": "electric_scooter", "lon": -76.99693433333333, "bike_id": "f72ab79c690717d0a9d11b85352a1e53", "rental_uris": {"android": "https://dc.lft.to/lastmile_qr_scan", "ios": "https://dc.lft.to/lastmile_qr_scan"}, "name": "f72ab79c690717d0a9d11b85352a1e53", "is_reserved": 0}, {"is_disabled": 0, "fusion_lon": 0.0, "fusion_lat": 0.0, "lat": 38.90565433333333, "type": "electric_scooter", "lon": -77.03472716666667, "bike_id": "7688fbcc5bfd5d73c81fd800eedf906e", "rental_uris": {"android": "https://dc.lft.to/lastmile_qr_scan", "ios": "https://dc.lft.to/lastmile_qr_scan"}, "name": "7688fbcc5bfd5d73c81fd800eedf906e", "is_reserved": 0}, {"is_disabled": 0, "fusion_lon": 0.0, "fusion_lat": 0.0, "lat": 38.894860333333334, "type": "electric_bike", "lon": -76.9952095, "bike_id": "6d7febed24c0511c46493c0f01bff271", "rental_uris": {"android": "https://dc.lft.to/lastmile_qr_scan", "ios": "https://dc.lft.to/lastmile_qr_scan"}, "name": "6d7febed24c0511c46493c0f01bff271", "is_reserved": 0}, {"is_disabled": 0, "fusion_lon": 0.0, "fusion_lat": 0.0, "lat": 38.922526833333336, "type": "electric_scooter", "lon": -77.0413125, "bike_id": "4f22e1ebc7a246218ab6b9aefc48a2ac", "rental_uris": {"android": "https://dc.lft.to/lastmile_qr_scan", "ios": "https://dc.lft.to/lastmile_qr_scan"}, "name": "4f22e1ebc7a246218ab6b9aefc48a2ac", "is_reserved": 0}, {"is_disabled": 0, "fusion_lon": 0.0, "fusion_lat": 0.0, "lat": 38.93785116666667, "type": "electric_scooter", "lon": -77.01882416666666, "bike_id": "5968e791b302272d5abc8d762747a482", "rental_uris": {"android": "https://dc.lft.to/lastmile_qr_scan", "ios": "https://dc.lft.to/lastmile_qr_scan"}, "name": "5968e791b302272d5abc8d762747a482", "is_reserved": 0}, {"is_disabled": 0, "fusion_lon": 0.0, "fusion_lat": 0.0, "lat": 38.92214933333333, "type": "electric_scooter", "lon": -77.03291666666667, "bike_id": "00668be95eed3e6231cfdb2117434a35", "rental_uris": {"android": "https://dc.lft.to/lastmile_qr_scan", "ios": "https://dc.lft.to/lastmile_qr_scan"}, "name": "00668be95eed3e6231cfdb2117434a35", "is_reserved": 0}, {"is_disabled": 0, "fusion_lon": 0.0, "fusion_lat": 0.0, "lat": 38.915016666666666, "type": "electric_scooter", "lon": -77.00935633333333, "bike_id": "70748be5ff6c661717be34229a4f87e5", "rental_uris": {"android": "https://dc.lft.to/lastmile_qr_scan", "ios": "https://dc.lft.to/lastmile_qr_scan"}, "name": "70748be5ff6c661717be34229a4f87e5", "is_reserved": 0}, {"is_disabled": 0, "fusion_lon": 0.0, "fusion_lat": 0.0, "lat": 38.91660133333333, "type": "electric_scooter", "lon": -77.04650583333333, "bike_id": "6652672b9298096064fd9f21bdd6830a", "rental_uris": {"android": "https://dc.lft.to/lastmile_qr_scan", "ios": "https://dc.lft.to/lastmile_qr_scan"}, "name": "6652672b9298096064fd9f21bdd6830a", "is_reserved": 0}, {"is_disabled": 0, "fusion_lon": 0.0, "fusion_lat": 0.0, "lat": 38.904458, "type": "electric_scooter", "lon": -77.03176216666667, "bike_id": "a450ad83d1dd5512146a1cff5840c1e4", "rental_uris": {"android": "https://dc.lft.to/lastmile_qr_scan", "ios": "https://dc.lft.to/lastmile_qr_scan"}, "name": "a450ad83d1dd5512146a1cff5840c1e4", "is_reserved": 0}, {"is_disabled": 0, "fusion_lon": 0.0, "fusion_lat": 0.0, "lat": 38.939093666666665, "type": "electric_scooter", "lon": -77.077941, "bike_id": "f499db1cc511a44e13380d43ae414dd2", "rental_uris": {"android": "https://dc.lft.to/lastmile_qr_scan", "ios": "https://dc.lft.to/lastmile_qr_scan"}, "name": "f499db1cc511a44e13380d43ae414dd2", "is_reserved": 0}, {"is_disabled": 0, "fusion_lon": 0.0, "fusion_lat": 0.0, "lat": 38.886915333333334, "type": "electric_scooter", "lon": -77.01383683333333, "bike_id": "35ae87a94d4175cb8cb957154f651970", "rental_uris": {"android": "https://dc.lft.to/lastmile_qr_scan", "ios": "https://dc.lft.to/lastmile_qr_scan"}, "name": "35ae87a94d4175cb8cb957154f651970", "is_reserved": 0}, {"is_disabled": 0, "fusion_lon": 0.0, "fusion_lat": 0.0, "lat": 38.901856333333335, "type": "electric_scooter", "lon": -77.050195, "bike_id": "8b3730ca3f5bcf867dcc15443980074a", "rental_uris": {"android": "https://dc.lft.to/lastmile_qr_scan", "ios": "https://dc.lft.to/lastmile_qr_scan"}, "name": "8b3730ca3f5bcf867dcc15443980074a", "is_reserved": 0},