{"data": {"bikes": [{"is_reserved": 0, "type": "electric_scooter", "bike_id": "d0f7b4ba8fb5e27c76d7451525816e8e", "lat": 38.92045316666667, "lon": -77.04195116666666, "rental_uris": {"android": "https://dc.lft.to/lastmile_qr_scan", "ios": "https://dc.lft.to/lastmile_qr_scan"}, "is_disabled": 0, "fusion_lat": 0.0, "name": "d0f7b4ba8fb5e27c76d7451525816e8e", "fusion_lon": 0.0}, {"is_reserved": 0, "type": "electric_scooter", "bike_id": "c9bd34ec8909bf02239b7fdd9bb089b2", "lat": 38.91882233333333, "lon": -76.96546966666666, "rental_uris": {"android": "https://dc.lft.to/lastmile_qr_scan", "ios": "https://dc.lft.to/lastmile_qr_scan"}, "is_disabled": 0, "fusion_lat": 0.0, "name": "c9bd34ec8909bf02239b7fdd9bb089b2", "fusion_lon": 0.0}, {"is_reserved": 0, "type": "electric_scooter", "bike_id": "35aa13428def3febb37aa8faaa07e5f9", "lat": 38.935365, "lon": -77.0235575, "rental_uris": {"android": "https://dc.lft.to/lastmile_qr_scan", "ios": "https://dc.lft.to/lastmile_qr_scan"}, "is_disabled": 0, "fusion_lat": 0.0, "name": "35aa13428def3febb37aa8faaa07e5f9", "fusion_lon": 0.0}, {"is_reserved": 0, "type": "electric_scooter", "bike_id": "80116e90daae015131af639191d095dc", "lat": 38.919828333333335, "lon": -77.0414695, "rental_uris": {"android": "https://dc.lft.to/lastmile_qr_scan", "ios": "https://dc.lft.to/lastmile_qr_scan"}, "is_disabled": 0, "fusion_lat": 0.0, "name": "80116e90daae015131af639191d095dc", "fusion_lon": 0.0}, {"is_reserved": 0, "type": "electric_bike", "bike_id": "1997a0b3302467bdd1828d8efdc66ca2", "lat": 38.929744, "lon": -77.03765, "rental_uris": {"android": "https://dc.lft.to/lastmile_qr_scan", "ios": "https://dc.lft.to/lastmile_qr_scan"}, "is_disabled": 0, "fusion_lat": 0.0, "name": "1997a0b3302467bdd1828d8efdc66ca2", "fusion_lon": 0.0}, {"is_reserved": 0, "type": "electric_scooter", "bike_id": "98f59050ab8079f53476c02e30fc2394", "lat": 38.918082, "lon": -77.02706416666666, "rental_uris": {"android": "https://dc.lft.to/lastmile_qr_scan", "ios": "https://dc.lft.to/lastmile_qr_scan"}, "is_disabled": 0, "fusion_lat": 0.0, "name": "98f59050ab8079f53476c02e30fc2394", "fusion_lon": 0.0}, {"is_reserved": 0, "type": "electric_scooter", "bike_id": "bd39aa33e2da8b2b978329a50fe1bd39", "lat": 38.88637383333333, "lon": -76.99635283333333, "rental_uris": {"android": "https://dc.lft.to/lastmile_qr_scan", "ios": "https://dc.lft.to/lastmile_qr_scan"}, "is_disabled": 0, "fusion_lat": 0.0, "name": "bd39aa33e2da8b2b978329a50fe1bd39", "fusion_lon": 0.0}, {"is_reserved": 0, "type": "electric_scooter", "bike_id": "f371a9499f53b99ffd25f2068eb6a5cf", "lat": 38.92769766666667, "lon": -77.02790783333333, "rental_uris": {"android": "https://dc.lft.to/lastmile_qr_scan", "ios": "https://dc.lft.to/lastmile_qr_scan"}, "is_disabled": 0, "fusion_lat": 0.0, "name": "f371a9499f53b99ffd25f2068eb6a5cf", "fusion_lon": 0.0}, {"is_reserved": 0, "type": "electric_scooter", "bike_id": "27c28ce9c65c2dcf548dfd88e61efc83", "lat": 38.89437566666667, "lon": -76.980839, "rental_uris": {"android": "https://dc.lft.to/lastmile_qr_scan", "ios": "https://dc.lft.to/lastmile_qr_scan"}, "is_disabled": 0, "fusion_lat": 0.0, "name": "27c28ce9c65c2dcf548dfd88e61efc83", "fusion_lon": 0.0}, {"is_reserved": 0, "type": "electric_scooter", "bike_id": "39580b757ca779d3c39449753a5ad5dd", "lat": 38.90528833333333, "lon": -77.06706666666666, "rental_uris": {"android": "https://dc.lft.to/lastmile_qr_scan", "ios": "https://dc.lft.to/lastmile_qr_scan"}, "is_disabled": 0, "fusion_lat": 0.0, "name": "39580b757ca779d3c39449753a5ad5dd", "fusion_lon": 0.0}, {"is_reserved": 0, "type": "electric_scooter", "bike_id": "51b27601afd7fbe41ba50580378c87bb", "lat": 38.913986333333334, "lon": -77.03320783333334, "rental_uris": {"android": "https://dc.lft.to/lastmile_qr_scan", "ios": "https://dc.lft.to/lastmile_qr_scan"}, "is_disabled": 0, "fusion_lat": 0.0, "name": "51b27601afd7fbe41ba50580378c87bb", "fusion_lon": 0.0}, {"is_reserved": 0, "type": "electric_scooter", "bike_id": "4d5cca39cacf8fbcfba84dbddfab6801", "lat": 38.887704166666666, "lon": -76.93264683333334, "rental_uris": {"android": "https://dc.lft.to/lastmile_qr_scan", "ios": "https://dc.lft.to/lastmile_qr_scan"}, "is_disabled": 0, "fusion_lat": 0.0, "name": "4d5cca39cacf8fbcfba84dbddfab6801", "fusion_lon": 0.0}, {"is_reserved": 0, "type": "electric_scooter", "bike_id": "f7181566058835e2ddbb8a1bc683cf6f", "lat": 38.90518933333333, "lon": -76.99560533333333, "rental_uris": {"android": "https://dc.lft.to/lastmile_qr_scan", "ios": "https://dc.lft.to/lastmile_qr_scan"}, "is_disabled": 0, "fusion_lat": 0.0, "name": "f7181566058835e2ddbb8a1bc683cf6f", "fusion_lon": 0.0}, {"is_reserved": 0, "type": "electric_scooter", "bike_id": "caf57580a01502d6d161fe524e4f6067", "lat": 38.902593, "lon": -77.01755016666667, "rental_uris": {"android": "https://dc.lft.to/lastmile_qr_scan", "ios": "https://dc.lft.to/lastmile_qr_scan"}, "is_disabled": 0, "fusion_lat": 0.0, "name": "caf57580a01502d6d161fe524e4f6067", "fusion_lon": 0.0}, {"is_reserved": 0, "type": "electric_scooter", "bike_id": "e738bef1810b65d749ce84f2e56634bb", "lat": 38.910943833333334, "lon": -77.03642716666667, "rental_uris": {"android": "https://dc.lft.to/lastmile_qr_scan", "ios": "https://dc.lft.to/lastmile_qr_scan"}, "is_disabled": 0, "fusion_lat": 0.0, "name": "e738bef1810b65d749ce84f2e56634bb", "fusion_lon": 0.0}, {"is_reserved": 0, "type": "electric_scooter", "bike_id": "bec6536066f002f2f52af6bd1791d7ed", "lat": 38.9077245, "lon": -77.04197166666667, "rental_uris": {"android": "https://dc.lft.to/lastmile_qr_scan", "ios": "https://dc.lft.to/lastmile_qr_scan"}, "is_disabled": 0, "fusion_lat": 0.0, "name": "bec6536066f002f2f52af6bd1791d7ed", "fusion_lon": 0.0}, {"is_reserved": 0, "type": "electric_scooter", "bike_id": "2b8aae277bda09244ceee499ee4fd0a5", "lat": 38.92367216666667, "lon": -77.02799016666667, "rental_uris": {"android": "https://dc.lft.to/lastmile_qr_scan", "ios": "https://dc.lft.to/lastmile_qr_scan"}, "is_disabled": 0, "fusion_lat": 0.0, "name": "2b8aae277bda09244ceee499ee4fd0a5", "fusion_lon": 0.0}, {"is_reserved": 0, "type": "electric_scooter", "bike_id": "bc4f84fb8b308835a96c637322de3c8c", "lat": 38.887846833333334, "lon": -76.97712133333333, "rental_uris": {"android": "https://dc.lft.to/lastmile_qr_scan", "ios": "https://dc.lft.to/lastmile_qr_scan"}, "is_disabled": 0, "fusion_lat": 0.0, "name": "bc4f84fb8b308835a96c637322de3c8c", "fusion_lon": 0.0}, {"is_reserved": 0, "type": "electric_scooter", "bike_id": "68556b146a3c5ef8302c3105289b6a98", "lat": 38.91346383333333, "lon": -77.031894, "rental_uris": {"android": "https://dc.lft.to/lastmile_qr_scan", "ios": "https://dc.lft.to/lastmile_qr_scan"}, "is_disabled": 0, "fusion_lat": 0.0, "name": "68556b146a3c5ef8302c3105289b6a98", "fusion_lon": 0.0}, {"is_reserved": 0, "type": "electric_scooter", "bike_id": "2f8b0c9e30543e5208f1dcc8c813a34e", "lat": 38.872956, "lon": -77.015592, "rental_uris": {"android": "https://dc.lft.to/lastmile_qr_scan", "ios": "https://dc.lft.to/lastmile_qr_scan"}, "is_disabled": 0, "fusion_lat": 0.0, "name": "2f8b0c9e30543e5208f1dcc8c813a34e", "fusion_lon": 0.0}, {"is_reserved": 0, "type": "electric_scooter", "bike_id": "bfcf74c9689fc44fbad9c66c21abfa84", "lat": 38.9109135, "lon": -77.0424155, "rental_uris": {"android": "https://dc.lft.to/lastmile_qr_scan", "ios": "https://dc.lft.to/lastmile_qr_scan"}, "is_disabled": 0, "fusion_lat": 0.0, "name": "bfcf74c9689fc44fbad9c66c21abfa84", "fusion_lon": 0.0}, {"is_reserved": 0, "type": "electric_scooter", "bike_id": "6509d9749b6b65ad6b19b6461306925e", "lat": 38.919788833333335, "lon": -77.0321965, "rental_uris": {"android": "https://dc.lft.to/lastmile_qr_scan", "ios": "https://dc.lft.to/lastmile_qr_scan"}, "is_disabled": 0, "fusion_lat": 0.0, "name": "6509d9749b6b65ad6b19b6461306925e", "fusion_lon": 0.0}, {"is_reserved": 0, "type": "electric_scooter", "bike_id": "76b2ca9a100b04af9b0e1bf1a850d954", "lat": 38.91751816666667, "lon": -77.041669, "rental_uris": {"android": "https://dc.lft.to/lastmile_qr_scan", "ios": "https://dc.lft.to/lastmile_qr_scan"}, "is_disabled": 0, "fusion_lat": 0.0, "name": "76b2ca9a100b04af9b0e1bf1a850d954", "fusion_lon": 0.0}, {"is_reserved": 0, "type": "electric_scooter", "bike_id": "6cc08034299e991f7218d39a7747a116", "lat": 38.88608583333333, "lon": -76.99655583333333, "rental_uris": {"android": "https://dc.lft.to/lastmile_qr_scan", "ios": "https://dc.lft.to/lastmile_qr_scan"}, "is_disabled": 0, "fusion_lat": 0.0, "name": "6cc08034299e991f7218d39a7747a116", "fusion_lon": 0.0}, {"is_reserved": 0, "type": "electric_scooter", "bike_id": "da35816597ee4dd7d508cca287dabe50", "lat": 38.93143283333333, "lon": -77.03828683333333, "rental_uris": {"android": "https://dc.lft.to/lastmile_qr_scan", "ios": "https://dc.lft.to/lastmile_qr_scan"}, "is_disabled": 0, "fusion_lat": 0.0, "name": "da35816597ee4dd7d508cca287dabe50", "fusion_lon": 0.0}, {"is_reserved": 0, "type": "electric_scooter", "bike_id": "ac56ee2684fbaaee9e8e148d18fb1308", "lat": 38.895449, "lon": -76.983348, "rental_uris": {"android": "https://dc.lft.to/lastmile_qr_scan", "ios": "https://dc.lft.to/lastmile_qr_scan"}, "is_disabled": 0, "fusion_lat": 0.0, "name": "ac56ee2684fbaaee9e8e148d18fb1308", "fusion_lon": 0.0}, {"is_reserved": 0, "type": "electric_scooter", "bike_id": "68318f4ea0cbf61c9db98c6f397021b9", "lat": 38.908605666666666, "lon": -77.04653333333333, "rental_uris": {"android": "https://dc.lft.to/lastmile_qr_scan", "ios": "https://dc.lft.to/lastmile_qr_scan"}, "is_disabled": 0, "fusion_lat": 0.0, "name": "68318f4ea0cbf61c9db98c6f397021b9", "fusion_lon": 0.0}, {"is_reserved": 0, "type": "electric_scooter", "bike_id": "5396b72f4f8f528860ddce781a040f37", "lat": 38.907625, "lon": -77.000377, "rental_uris": {"android": "https://dc.lft.to/lastmile_qr_scan", "ios": "https://dc.lft.to/lastmile_qr_scan"}, "is_disabled": 0, "fusion_lat": 0.0, "name": "5396b72f4f8f528860ddce781a040f37", "fusion_lon": 0.0}, {"is_reserved": 0, "type": "electric_scooter", "bike_id": "b56bc24c9e1794f22d5641c7873a9869", "lat": 38.916678166666664, "lon": -77.0279025, "rental_uris": {"android": "https://dc.lft.to/lastmile_qr_scan", "ios": "https://dc.lft.to/lastmile_qr_scan"}, "is_disabled": 0, "fusion_lat": 0.0, "name": "b56bc24c9e1794f22d5641c7873a9869", "fusion_lon": 0.0}, {"is_reserved": 0, "type": "electric_scooter", "bike_id": "932dc802aa7f1cb1035d5425ffc4f7e9", "lat": 38.920652833333335, "lon": -77.02415716666667, "rental_uris": {"android": "https://dc.lft.to/lastmile_qr_scan", "ios": "https://dc.lft.to/lastmile_qr_scan"}, "is_disabled": 0, "fusion_lat": 0.0, "name": "932dc802aa7f1cb1035d5425ffc4f7e9", "fusion_lon": 0.0}, {"is_reserved": 0, "type": "electric_scooter", "bike_id": "e991f320b001a3b9ab46de5e758b9e53", "lat": 38.90479716666667, "lon": -77.06270483333333, "rental_uris": {"android": "https://dc.lft.to/lastmile_qr_scan", "ios": "https://dc.lft.to/lastmile_qr_scan"}, "is_disabled": 0, "fusion_lat": 0.0, "name": "e991f320b001a3b9ab46de5e758b9e53", "fusion_lon": 0.0}, {"is_reserved": 0, "type": "electric_scooter", "bike_id": "89e3d8b6784e65dcb38823e08a365ece", "lat": 38.9130795, "lon": -77.020274, "rental_uris": {"android": "https://dc.lft.to/lastmile_qr_scan", "ios": "https://dc.lft.to/lastmile_qr_scan"}, "is_disabled": 0, "fusion_lat": 0.0, "name": "89e3d8b6784e65dcb38823e08a365ece", "fusion_lon": 0.0}, {"is_reserved": 0, "type": "electric_scooter", "bike_id": "f8a2632888c632f55da42cefeea90589", "lat": 38.937638666666665, "lon": -77.03245416666667, "rental_uris": {"android": "https://dc.lft.to/lastmile_qr_scan", "ios": "https://dc.lft.to/lastmile_qr_scan"}, "is_disabled": 0, "fusion_lat": 0.0, "name": "f8a2632888c632f55da42cefeea90589", "fusion_lon": 0.0}, {"is_reserved": 0, "type": "electric_scooter", "bike_id": "2c95b5d2cf354b0ce5aed3768591db57", "lat": 38.93887216666667, "lon": -77.03224616666667, "rental_uris": {"android": "https://dc.lft.to/lastmile_qr_scan", "ios": "https://dc.lft.to/lastmile_qr_scan"}, "is_disabled": 0, "fusion_lat": 0.0, "name": "2c95b5d2cf354b0ce5aed3768591db57", "fusion_lon": 0.0}, {"is_reserved": 0, "type": "electric_scooter", "bike_id": "c9d0ec1ff1f2fe6ffa4fea32f64e3385", "lat": 38.914133, "lon": -77.02211016666666, "rental_uris": {"android": "https://dc.lft.to/lastmile_qr_scan", "ios": "https://dc.lft.to/lastmile_qr_scan"}, "is_disabled": 0, "fusion_lat": 0.0, "name": "c9d0ec1ff1f2fe6ffa4fea32f64e3385", "fusion_lon": 0.0}, {"is_reserved": 0, "type": "electric_scooter", "bike_id": "0bac66abf8bb78a08f5e6b23ba955dd5", "lat": 38.914523833333334, "lon": -77.0296065, "rental_uris": {"android": "https://dc.lft.to/lastmile_qr_scan", "ios": "https://dc.lft.to/lastmile_qr_scan"}, "is_disabled": 0, "fusion_lat": 0.0, "name": "0bac66abf8bb78a08f5e6b23ba955dd5", "fusion_lon": 0.0}, {"is_reserved": 0, "type": "electric_scooter", "bike_id": "8c6edb901b660c2470a101640b6a6c77", "lat": 38.935340833333335, "lon": -77.02353433333333, "rental_uris": {"android": "https://dc.lft.to/lastmile_qr_scan", "ios": "https://dc.lft.to/lastmile_qr_scan"}, "is_disabled": 0, "fusion_lat": 0.0, "name": "8c6edb901b660c2470a101640b6a6c77", "fusion_lon": 0.0}, {"is_reserved": 0, "type": "electric_scooter", "bike_id": "6e72e81353a7b0047ceb32cd044ea4d7", "lat": 38.91835533333333, "lon": -77.0230955, "rental_uris": {"android": "https://dc.lft.to/lastmile_qr_scan", "ios": "https://dc.lft.to/lastmile_qr_scan"}, "is_disabled": 0, "fusion_lat": 0.0, "name": "6e72e81353a7b0047ceb32cd044ea4d7", "fusion_lon": 0.0}, {"is_reserved": 0, "type": "electric_scooter", "bike_id": "3ae1acdf6e057fa4f2a112b066d294a0", "lat": 38.89850466666667, "lon": -76.92753233333333, "rental_uris": {"android": "https://dc.lft.to/lastmile_qr_scan", "ios": "https://dc.lft.to/lastmile_qr_scan"}, "is_disabled": 0, "fusion_lat": 0.0, "name": "3ae1acdf6e057fa4f2a112b066d294a0", "fusion_lon": 0.0}, {"is_reserved": 0, "type": "electric_bike", "bike_id": "925214381f976948504d197722f206cb", "lat": 38.981832, "lon": -76.98210366666666, "rental_uris": {"android": "https://dc.lft.to/lastmile_qr_scan", "ios": "https://dc.lft.to/lastmile_qr_scan"}, "is_disabled": 0, "fusion_lat": 0.0, "name": "925214381f976948504d197722f206cb", "fusion_lon": 0.0}, {"is_reserved": 0, "type": "electric_scooter", "bike_id": "60a634812bc5df17041da7a972550bd0", "lat": 38.931104500000004, "lon": -77.030285, "rental_uris": {"android": "https://dc.lft.to/lastmile_qr_scan", "ios": "https://dc.lft.to/lastmile_qr_scan"}, "is_disabled": 0, "fusion_lat": 0.0, "name": "60a634812bc5df17041da7a972550bd0", "fusion_lon": 0.0}, {"is_reserved": 0, "type": "electric_bike", "bike_id": "ae1e17414e2a64b195253fbfc899a81b", "lat": 38.92238916666667, "lon": -77.038939, "rental_uris": {"android": "https://dc.lft.to/lastmile_qr_scan", "ios": "https://dc.lft.to/lastmile_qr_scan"}, "is_disabled": 0, "fusion_lat": 0.0, "name": "ae1e17414e2a64b195253fbfc899a81b", "fusion_lon": 0.0}, {"is_reserved": 0, "type": "electric_scooter", "bike_id": "6a6a72f8fdf43897a257db384a963456", "lat": 38.8998875, "lon": -76.994894, "rental_uris": {"android": "https://dc.lft.to/lastmile_qr_scan", "ios": "https://dc.lft.to/lastmile_qr_scan"}, "is_disabled": 0, "fusion_lat": 0.0, "name": "6a6a72f8fdf43897a257db384a963456", "fusion_lon": 0.0}, {"is_reserved": 0, "type": "electric_scooter", "bike_id": "65326914cb02018c26adc98627325ccc", "lat": 38.9170605, "lon": -77.03212366666666, "rental_uris": {"android": "https://dc.lft.to/lastmile_qr_scan", "ios": "https://dc.lft.to/lastmile_qr_scan"}, "is_disabled": 0, "fusion_lat": 0.0, "name": "65326914cb02018c26adc98627325ccc", "fusion_lon": 0.0}, {"is_reserved": 0, "type": "electric_scooter", "bike_id": "dd3f6d09fc66b9c56412b69ef8793a41", "lat": 38.92021833333333, "lon": -77.03123966666666, "rental_uris": {"android": "https://dc.lft.to/lastmile_qr_scan", "ios": "https://dc.lft.to/lastmile_qr_scan"}, "is_disabled": 0, "fusion_lat": 0.0, "name": "dd3f6d09fc66b9c56412b69ef8793a41", "fusion_lon": 0.0}, {"is_reserved": 0, "type": "electric_scooter", "bike_id": "7348c1cfe5e70c9b6be9d6f13269963f", "lat": 38.871600666666666, "lon": -77.01353316666666, "rental_uris": {"android": "https://dc.lft.to/lastmile_qr_scan", "ios": "https://dc.lft.to/lastmile_qr_scan"}, "is_disabled": 0, "fusion_lat": 0.0, "name": "7348c1cfe5e70c9b6be9d6f13269963f", "fusion_lon": 0.0}, {"is_reserved": 0, "type": "electric_scooter", "bike_id": "553cc54d81fd9930866f8096ffcc763d", "lat": 38.9256515, "lon": -76.96999233333334, "rental_uris": {"android": "https://dc.lft.to/lastmile_qr_scan", "ios": "https://dc.lft.to/lastmile_qr_scan"}, "is_disabled": 0, "fusion_lat": 0.0, "name": "553cc54d81fd9930866f8096ffcc763d", "fusion_lon": 0.0}, {"is_reserved": 0, "type": "electric_scooter", "bike_id": "933955b9130692d278e3d36e4bb72580", "lat": 38.90104916666667, "lon": -77.03358133333333, "rental_uris": {"android": "https://dc.lft.to/lastmile_qr_scan", "ios": "https://dc.lft.to/lastmile_qr_scan"}, "is_disabled": 0, "fusion_lat": 0.0, "name": "933955b9130692d278e3d36e4bb72580", "fusion_lon": 0.0}, {"is_reserved": 0, "type": "electric_scooter", "bike_id": "daadde6681e39e0d49205a846fe4eae8", "lat": 38.892238, "lon": -77.03183966666667, "rental_uris": {"android": "https://dc.lft.to/lastmile_qr_scan", "ios": "https://dc.lft.to/lastmile_qr_scan"}, "is_disabled": 0, "fusion_lat": 0.0, "name": "daadde6681e39e0d49205a846fe4eae8", "fusion_lon": 0.0}, {"is_reserved": 0, "type": "electric_scooter", "bike_id": "78cec4c63d6cfd4cb4092ea06dacd641", "lat": 38.905701, "lon": -77.0347915, "rental_uris": {"android": "https://dc.lft.to/lastmile_qr_scan", "ios": "https://dc.lft.to/lastmile_qr_scan"}, "is_disabled": 0, "fusion_lat": 0.0, "name": "78cec4c63d6cfd4cb4092ea06dacd641", "fusion_lon": 0.0}, {"is_reserved": 0, "type": "electric_scooter", "bike_id": "2d3a9f86159f23359a89aa98dd56cec2", "lat": 38.91811383333334, "lon": -77.03567966666667, "rental_uris": {"android": "https://dc.lft.to/lastmile_qr_scan", "ios": "https://dc.lft.to/lastmile_qr_scan"}, "is_disabled": 0, "fusion_lat": 0.0, "name": "2d3a9f86159f23359a89aa98dd56cec2", "fusion_lon": 0.0}, {"is_reserved": 0, "type": "electric_scooter", "bike_id": "67032c4a28affd901725bd95f6240188", "lat": 38.935327666666666, "lon": -77.02354683333333, "rental_uris": {"android": "https://dc.lft.to/lastmile_qr_scan", "ios": "https://dc.lft.to/lastmile_qr_scan"}, "is_disabled": 0, "fusion_lat": 0.0, "name": "67032c4a28affd901725bd95f6240188", "fusion_lon": 0.0}, {"is_reserved": 0, "type": "electric_bike", "bike_id": "669b952eeaa8bd43118000be3d7054b9", "lat": 38.85873733333333, "lon": -77.09554266666666, "rental_uris": {"android": "https://dc.lft.to/lastmile_qr_scan", "ios": "https://dc.lft.to/lastmile_qr_scan"}, "is_disabled": 0, "fusion_lat": 0.0, "name": "669b952eeaa8bd43118000be3d7054b9", "fusion_lon": 0.0}, {"is_reserved": 0, "type": "electric_scooter", "bike_id": "1c3b0065354b315497b6fde4f91ff89e", "lat": 38.953243, "lon": -77.06931866666666, "rental_uris": {"android": "https://dc.lft.to/lastmile_qr_scan", "ios": "https://dc.lft.to/lastmile_qr_scan"}, "is_disabled": 0, "fusion_lat": 0.0, "name": "1c3b0065354b315497b6fde4f91ff89e", "fusion_lon": 0.0}, {"is_reserved": 0, "type": "electric_scooter", "bike_id": "192ac15e014d3d66d39a1841c6dce883", "lat": 38.921546666666664, "lon": -77.07217166666666, "rental_uris": {"android": "https://dc.lft.to/lastmile_qr_scan", "ios": "https://dc.lft.to/lastmile_qr_scan"}, "is_disabled": 0, "fusion_lat": 0.0, "name": "192ac15e014d3d66d39a1841c6dce883", "fusion_lon": 0.0}, {"is_reserved": 0, "type": "electric_scooter", "bike_id": "ebbf68bf66430693e97a524a09a5985c", "lat": 38.91709016666667, "lon": -77.0241315, "rental_uris": {"android": "https://dc.lft.to/lastmile_qr_scan", "ios": "https://dc.lft.to/lastmile_qr_scan"}, "is_disabled": 0, "fusion_lat": 0.0, "name": "ebbf68bf66430693e97a524a09a5985c", "fusion_lon": 0.0}, {"is_reserved": 0, "type": "electric_scooter", "bike_id": "74baf0be8fd8124ec59324f9a8bf480f", "lat": 38.9018305, "lon": -76.93002233333333, "rental_uris": {"android": "https://dc.lft.to/lastmile_qr_scan", "ios": "https://dc.lft.to/lastmile_qr_scan"}, "is_disabled": 0, "fusion_lat": 0.0, "name": "74baf0be8fd8124ec59324f9a8bf480f", "fusion_lon": 0.0}, {"is_reserved": 0, "type": "electric_scooter", "bike_id": "e020df66315dfd77fd2512b922c61f8c", "lat": 38.92737433333333, "lon": -77.024957, "rental_uris": {"android": "https://dc.lft.to/lastmile_qr_scan", "ios": "https://dc.lft.to/lastmile_qr_scan"}, "is_disabled": 0, "fusion_lat": 0.0, "name": "e020df66315dfd77fd2512b922c61f8c", "fusion_lon": 0.0}, {"is_reserved": 0, "type": "electric_scooter", "bike_id": "acc8de2032fed930db9905cd6c1f0cbf", "lat": 38.93122816666666, "lon": -77.03877266666667, "rental_uris": {"android": "https://dc.lft.to/lastmile_qr_scan", "ios": "https://dc.lft.to/lastmile_qr_scan"}, "is_disabled": 0, "fusion_lat": 0.0, "name": "acc8de2032fed930db9905cd6c1f0cbf", "fusion_lon": 0.0}, {"is_reserved": 0, "type": "electric_bike", "bike_id": "d339edebf711a05b4adb432fb81e297c", "lat": 38.929891, "lon": -77.02307266666666, "rental_uris": {"android": "https://dc.lft.to/lastmile_qr_scan", "ios": "https://dc.lft.to/lastmile_qr_scan"}, "is_disabled": 0, "fusion_lat": 0.0, "name": "d339edebf711a05b4adb432fb81e297c", "fusion_lon": 0.0}, {"is_reserved": 0, "type": "electric_bike", "bike_id": "d206933bca0033e57d5f9719565023dd", "lat": 38.90559866666667, "lon": -76.99788766666667, "rental_uris": {"android": "https://dc.lft.to/lastmile_qr_scan", "ios": "https://dc.lft.to/lastmile_qr_scan"}, "is_disabled": 0, "fusion_lat": 0.0, "name": "d206933bca0033e57d5f9719565023dd", "fusion_lon": 0.0}, {"is_reserved": 0, "type": "electric_scooter", "bike_id": "48ded5f9f14953595450412e1f631293", "lat": 38.91399, "lon": -77.031829, "rental_uris": {"android": "https://dc.lft.to/lastmile_qr_scan", "ios": "https://dc.lft.to/lastmile_qr_scan"}, "is_disabled": 0, "fusion_lat": 0.0, "name": "48ded5f9f14953595450412e1f631293", "fusion_lon": 0.0}, {"is_reserved": 0, "type": "electric_scooter", "bike_id": "7be65ad1489d09e4edea17061831ba47", "lat": 38.9087085, "lon": -77.06402216666666, "rental_uris": {"android": "https://dc.lft.to/lastmile_qr_scan", "ios": "https://dc.lft.to/lastmile_qr_scan"}, "is_disabled": 0, "fusion_lat": 0.0, "name": "7be65ad1489d09e4edea17061831ba47", "fusion_lon": 0.0}, {"is_reserved": 0, "type": "electric_scooter", "bike_id": "ad131fa3fb9a2f1fc49e160577088b5c", "lat": 38.93638166666667, "lon": -77.0832205, "rental_uris": {"android": "https://dc.lft.to/lastmile_qr_scan", "ios": "https://dc.lft.to/lastmile_qr_scan"}, "is_disabled": 0, "fusion_lat": 0.0, "name": "ad131fa3fb9a2f1fc49e160577088b5c", "fusion_lon": 0.0}, {"is_reserved": 0, "type": "electric_scooter", "bike_id": "dc226242954bc0c2594fb8e9e0f59728", "lat": 38.905332666666666, "lon": -77.0580295, "rental_uris": {"android": "https://dc.lft.to/lastmile_qr_scan", "ios": "https://dc.lft.to/lastmile_qr_scan"}, "is_disabled": 0, "fusion_lat": 0.0, "name": "dc226242954bc0c2594fb8e9e0f59728", "fusion_lon": 0.0}, {"is_reserved": 0, "type": "electric_scooter", "bike_id": "1160f83e93f2e59832ca20cf858ce1eb", "lat": 38.92061366666667, "lon": -77.02418616666667, "rental_uris": {"android": "https://dc.lft.to/lastmile_qr_scan", "ios": "https://dc.lft.to/lastmile_qr_scan"}, "is_disabled": 0, "fusion_lat": 0.0, "name": "1160f83e93f2e59832ca20cf858ce1eb", "fusion_lon": 0.0}, {"is_reserved": 0, "type": "electric_scooter", "bike_id": "b89c4f89216a706e0a9d32fe09a7d1d2", "lat": 38.928714666666664, "lon": -77.053709, "rental_uris": {"android": "https://dc.lft.to/lastmile_qr_scan", "ios": "https://dc.lft.to/lastmile_qr_scan"}, "is_disabled": 0, "fusion_lat": 0.0, "name": "b89c4f89216a706e0a9d32fe09a7d1d2", "fusion_lon": 0.0}, {"is_reserved": 0, "type": "electric_scooter", "bike_id": "0501eb8527b2234967b0a635a1f28ede", "lat": 38.9112005, "lon": -77.04361316666666, "rental_uris": {"android": "https://dc.lft.to/lastmile_qr_scan", "ios": "https://dc.lft.to/lastmile_qr_scan"}, "is_disabled": 0, "fusion_lat": 0.0, "name": "0501eb8527b2234967b0a635a1f28ede", "fusion_lon": 0.0}, {"is_reserved": 0, "type": "electric_scooter", "bike_id": "bae99c52f1303cc5c803415c9df5f374", "lat": 38.905437166666665, "lon": -77.05921083333334, "rental_uris": {"android": "https://dc.lft.to/lastmile_qr_scan", "ios": "https://dc.lft.to/lastmile_qr_scan"}, "is_disabled": 0, "fusion_lat": 0.0, "name": "bae99c52f1303cc5c803415c9df5f374", "fusion_lon": 0.0}, {"is_reserved": 0, "type": "electric_scooter", "bike_id": "0d24445b579f08877f0a5ef786bea11b", "lat": 38.91708, "lon": -77.04072766666667, "rental_uris": {"android": "https://dc.lft.to/lastmile_qr_scan", "ios": "https://dc.lft.to/lastmile_qr_scan"}, "is_disabled": 0, "fusion_lat": 0.0, "name": "0d24445b579f08877f0a5ef786bea11b", "fusion_lon": 0.0}, {"is_reserved": 0, "type": "electric_scooter", "bike_id": "5f1eb1f561184f1efbb87564372c7ce0", "lat": 38.917764, "lon": -77.041026, "rental_uris": {"android": "https://dc.lft.to/lastmile_qr_scan", "ios": "https://dc.lft.to/lastmile_qr_scan"}, "is_disabled": 0, "fusion_lat": 0.0, "name": "5f1eb1f561184f1efbb87564372c7ce0", "fusion_lon": 0.0}, {"is_reserved": 0, "type": "electric_scooter", "bike_id": "1edf638d5dca49a21bc21bf8365ce49f", "lat": 38.9014865, "lon": -77.02982266666666, "rental_uris": {"android": "https://dc.lft.to/lastmile_qr_scan", "ios": "https://dc.lft.to/lastmile_qr_scan"}, "is_disabled": 0, "fusion_lat": 0.0, "name": "1edf638d5dca49a21bc21bf8365ce49f", "fusion_lon": 0.0}, {"is_reserved": 0, "type": "electric_scooter", "bike_id": "1cd39c81593f84d8025af056869756a3", "lat": 38.93479716666667, "lon": -77.05649116666666, "rental_uris": {"android": "https://dc.lft.to/lastmile_qr_scan", "ios": "https://dc.lft.to/lastmile_qr_scan"}, "is_disabled": 0, "fusion_lat": 0.0, "name": "1cd39c81593f84d8025af056869756a3", "fusion_lon": 0.0}, {"is_reserved": 0, "type": "electric_bike", "bike_id": "cfc5d057ab945cbaeade30f2d5a281a2", "lat": 38.849181, "lon": -77.07931033333334, "rental_uris": {"android": "https://dc.lft.to/lastmile_qr_scan", "ios": "https://dc.lft.to/lastmile_qr_scan"}, "is_disabled": 0, "fusion_lat": 0.0, "name": "cfc5d057ab945cbaeade30f2d5a281a2", "fusion_lon": 0.0}, {"is_reserved": 0, "type": "electric_scooter", "bike_id": "d0fe357f89998e19349b9ea45db755d9", "lat": 38.92672966666667, "lon": -77.00752933333334, "rental_uris": {"android": "https://dc.lft.to/lastmile_qr_scan", "ios": "https://dc.lft.to/lastmile_qr_scan"}, "is_disabled": 0, "fusion_lat": 0.0, "name": "d0fe357f89998e19349b9ea45db755d9", "fusion_lon": 0.0}, {"is_reserved": 0, "type": "electric_scooter", "bike_id": "063b7b58b0a47933a6bf08f0cd5c7d00", "lat": 38.92273933333333, "lon": -77.04024266666667, "rental_uris": {"android": "https://dc.lft.to/lastmile_qr_scan", "ios": "https://dc.lft.to/lastmile_qr_scan"}, "is_disabled": 0, "fusion_lat": 0.0, "name": "063b7b58b0a47933a6bf08f0cd5c7d00", "fusion_lon": 0.0}, {"is_reserved": 0, "type": "electric_scooter", "bike_id": "293fc35c29fa761e29c84383224adafe", "lat": 38.90022033333333, "lon": -76.97400883333333, "rental_uris": {"android": "https://dc.lft.to/lastmile_qr_scan", "ios": "https://dc.lft.to/lastmile_qr_scan"}, "is_disabled": 0, "fusion_lat": 0.0, "name": "293fc35c29fa761e29c84383224adafe", "fusion_lon": 0.0}, {"is_reserved": 0, "type": "electric_scooter", "bike_id": "b01ccbf1dd4933d59efdd6a06e6be8e4", "lat": 38.89892916666667, "lon": -77.01616316666667, "rental_uris": {"android": "https://dc.lft.to/lastmile_qr_scan", "ios": "https://dc.lft.to/lastmile_qr_scan"}, "is_disabled": 0, "fusion_lat": 0.0, "name": "b01ccbf1dd4933d59efdd6a06e6be8e4", "fusion_lon": 0.0}, {"is_reserved": 0, "type": "electric_scooter", "bike_id": "263db1a04f1aa3204e5ba9256cfe9d68", "lat": 38.900376666666666, "lon": -77.040918, "rental_uris": {"android": "https://dc.lft.to/lastmile_qr_scan", "ios": "https://dc.lft.to/lastmile_qr_scan"}, "is_disabled": 0, "fusion_lat": 0.0, "name": "263db1a04f1aa3204e5ba9256cfe9d68", "fusion_lon": 0.0}, {"is_reserved": 0, "type": "electric_scooter", "bike_id": "ac71213d9849181acfc74b4c3b7c8ba6", "lat": 38.886917833333335, "lon": -77.020086, "rental_uris": {"android": "https://dc.lft.to/lastmile_qr_scan", "ios": "https://dc.lft.to/lastmile_qr_scan"}, "is_disabled": 0, "fusion_lat": 0.0, "name": "ac71213d9849181acfc74b4c3b7c8ba6", "fusion_lon": 0.0}, {"is_reserved": 0, "type": "electric_scooter", "bike_id": "c34e05fb3bbef0716267d096897aabfe", "lat": 38.92108733333333, "lon": -77.039239, "rental_uris": {"android": "https://dc.lft.to/lastmile_qr_scan", "ios": "https://dc.lft.to/lastmile_qr_scan"}, "is_disabled": 0, "fusion_lat": 0.0, "name": "c34e05fb3bbef0716267d096897aabfe", "fusion_lon": 0.0}, {"is_reserved": 0, "type": "electric_scooter", "bike_id": "39a693241694b1fbaae3aa5e9522cc74", "lat": 38.8766745, "lon": -77.00436216666667, "rental_uris": {"android": "https://dc.lft.to/lastmile_qr_scan", "ios": "https://dc.lft.to/lastmile_qr_scan"}, "is_disabled": 0, "fusion_lat": 0.0, "name": "39a693241694b1fbaae3aa5e9522cc74", "fusion_lon": 0.0}, {"is_reserved": 0, "type": "electric_scooter", "bike_id": "281c9106fe4d698a15be0669a5c99508", "lat": 38.89647716666666, "lon": -77.03306516666666, "rental_uris": {"android": "https://dc.lft.to/lastmile_qr_scan", "ios": "https://dc.lft.to/lastmile_qr_scan"}, "is_disabled": 0, "fusion_lat": 0.0, "name": "281c9106fe4d698a15be0669a5c99508", "fusion_lon": 0.0}, {"is_reserved": 0, "type": "electric_scooter", "bike_id": "2282432f5e9a55c23af2dfcc8793dc27", "lat": 38.95956416666667, "lon": -77.07262516666667, "rental_uris": {"android": "https://dc.lft.to/lastmile_qr_scan", "ios": "https://dc.lft.to/lastmile_qr_scan"}, "is_disabled": 0, "fusion_lat": 0.0, "name": "2282432f5e9a55c23af2dfcc8793dc27", "fusion_lon": 0.0}, {"is_reserved": 0, "type": "electric_scooter", "bike_id": "0abdcf826d80ce2744e65b872bee7f52", "lat": 38.881911333333335, "lon": -77.0060235, "rental_uris": {"android": "https://dc.lft.to/lastmile_qr_scan", "ios": "https://dc.lft.to/lastmile_qr_scan"}, "is_disabled": 0, "fusion_lat": 0.0, "name": "0abdcf826d80ce2744e65b872bee7f52", "fusion_lon": 0.0}, {"is_reserved": 0, "type": "electric_scooter", "bike_id": "22eef301a0b945ea1b574dd3de984009", "lat": 38.919136333333334, "lon": -76.99856533333333, "rental_uris": {"android": "https://dc.lft.to/lastmile_qr_scan", "ios": "https://dc.lft.to/lastmile_qr_scan"}, "is_disabled": 0, "fusion_lat": 0.0, "name": "22eef301a0b945ea1b574dd3de984009", "fusion_lon": 0.0}, {"is_reserved": 0, "type": "electric_bike", "bike_id": "5660ae6978d31f703dc8bc58fceb6d1a", "lat": 38.9320975, "lon": -77.02246216666667, "rental_uris": {"android": "https://dc.lft.to/lastmile_qr_scan", "ios": "https://dc.lft.to/lastmile_qr_scan"}, "is_disabled": 0, "fusion_lat": 0.0, "name": "5660ae6978d31f703dc8bc58fceb6d1a", "fusion_lon": 0.0}, {"is_reserved": 0, "type": "electric_scooter", "bike_id": "22ff5e5512dfe1ecb8706270554761f4", "lat": 38.920688, "lon": -77.0319385, "rental_uris": {"android": "https://dc.lft.to/lastmile_qr_scan", "ios": "https://dc.lft.to/lastmile_qr_scan"}, "is_disabled": 0, "fusion_lat": 0.0, "name": "22ff5e5512dfe1ecb8706270554761f4", "fusion_lon": 0.0}, {"is_reserved": 0, "type": "electric_scooter", "bike_id": "994c005a5718a6332cf52c4781fc3704", "lat": 38.909720166666666, "lon": -77.00771433333334, "rental_uris": {"android": "https://dc.lft.to/lastmile_qr_scan", "ios": "https://dc.lft.to/lastmile_qr_scan"}, "is_disabled": 0, "fusion_lat": 0.0, "name": "994c005a5718a6332cf52c4781fc3704", "fusion_lon": 0.0}, {"is_reserved": 0, "type": "electric_scooter", "bike_id": "71c12ffe83982ae33e5396a9863b12ae", "lat": 38.89815016666667, "lon": -77.0248345, "rental_uris": {"android": "https://dc.lft.to/lastmile_qr_scan", "ios": "https://dc.lft.to/lastmile_qr_scan"}, "is_disabled": 0, "fusion_lat": 0.0, "name": "71c12ffe83982ae33e5396a9863b12ae", "fusion_lon": 0.0}, {"is_reserved": 0, "type": "electric_scooter", "bike_id": "4a65362e623189c0bd808a3a2dd96542", "lat": 38.92643983333333, "lon": -77.02698483333333, "rental_uris": {"android": "https://dc.lft.to/lastmile_qr_scan", "ios": "https://dc.lft.to/lastmile_qr_scan"}, "is_disabled": 0, "fusion_lat": 0.0, "name": "4a65362e623189c0bd808a3a2dd96542", "fusion_lon": 0.0}, {"is_reserved": 0, "type": "electric_scooter", "bike_id": "42b903361a311411b8fbc30e6de1c659", "lat": 38.918662166666664, "lon": -77.0356235, "rental_uris": {"android": "https://dc.lft.to/lastmile_qr_scan", "ios": "https://dc.lft.to/lastmile_qr_scan"}, "is_disabled": 0, "fusion_lat": 0.0, "name": "42b903361a311411b8fbc30e6de1c659", "fusion_lon": 0.0}, {"is_reserved": 0, "type": "electric_bike", "bike_id": "f2b53dac83c456a0867970c6e276fde2", "lat": 38.862626666666664, "lon": -76.98352916666667, "rental_uris": {"android": "https://dc.lft.to/lastmile_qr_scan", "ios": "https://dc.lft.to/lastmile_qr_scan"}, "is_disabled": 0, "fusion_lat": 0.0, "name": "f2b53dac83c456a0867970c6e276fde2", "fusion_lon": 0.0}, {"is_reserved": 0, "type": "electric_scooter", "bike_id": "1e42a1b6311c99b1e7cd340e03ec6719", "lat": 38.9056565, "lon": -77.06271433333333, "rental_uris": {"android": "https://dc.lft.to/lastmile_qr_scan", "ios": "https://dc.lft.to/lastmile_qr_scan"}, "is_disabled": 0, "fusion_lat": 0.0, "name": "1e42a1b6311c99b1e7cd340e03ec6719", "fusion_lon": 0.0}, {"is_reserved": 0, "type": "electric_scooter", "bike_id": "710e6e4780ae8d217171830e57dc3fc7", "lat": 38.91116483333333, "lon": -77.04759083333333, "rental_uris": {"android": "https://dc.lft.to/lastmile_qr_scan", "ios": "https://dc.lft.to/lastmile_qr_scan"}, "is_disabled": 0, "fusion_lat": 0.0, "name": "710e6e4780ae8d217171830e57dc3fc7", "fusion_lon": 0.0}, {"is_reserved": 0, "type": "electric_scooter", "bike_id": "6412bbdc6808f6daa59b758764b308d0", "lat": 38.887277, "lon": -76.9837755, "rental_uris": {"android": "https://dc.lft.to/lastmile_qr_scan", "ios": "https://dc.lft.to/lastmile_qr_scan"}, "is_disabled": 0, "fusion_lat": 0.0, "name": "6412bbdc6808f6daa59b758764b308d0", "fusion_lon": 0.0}, {"is_reserved": 0, "type": "electric_scooter", "bike_id": "16596d79e95adb40dfddad5f8826976f", "lat": 38.900602166666665, "lon": -77.04535033333333, "rental_uris": {"android": "https://dc.lft.to/lastmile_qr_scan", "ios": "https://dc.lft.to/lastmile_qr_scan"}, "is_disabled": 0, "fusion_lat": 0.0, "name": "16596d79e95adb40dfddad5f8826976f", "fusion_lon": 0.0}, {"is_reserved": 0, "type": "electric_scooter", "bike_id": "ee5f1ee9022ae07adbf497849633e485", "lat": 38.90239533333333, "lon": -77.05896166666666, "rental_uris": {"android": "https://dc.lft.to/lastmile_qr_scan", "ios": "https://dc.lft.to/lastmile_qr_scan"}, "is_disabled": 0, "fusion_lat": 0.0, "name": "ee5f1ee9022ae07adbf497849633e485", "fusion_lon": 0.0}, {"is_reserved": 0, "type": "electric_bike", "bike_id": "e2dbb8e80b15fe6c6e58c864d39e4cf6", "lat": 38.915538166666664, "lon": -77.02046083333333, "rental_uris": {"android": "https://dc.lft.to/lastmile_qr_scan", "ios": "https://dc.lft.to/lastmile_qr_scan"}, "is_disabled": 0, "fusion_lat": 0.0, "name": "e2dbb8e80b15fe6c6e58c864d39e4cf6", "fusion_lon": 0.0}, {"is_reserved": 0, "type": "electric_scooter", "bike_id": "965814ced555e15eb8f83984634b5dfe", "lat": 38.912867, "lon": -77.02382083333333, "rental_uris": {"android": "https://dc.lft.to/lastmile_qr_scan", "ios": "https://dc.lft.to/lastmile_qr_scan"}, "is_disabled": 0, "fusion_lat": 0.0, "name": "965814ced555e15eb8f83984634b5dfe", "fusion_lon": 0.0}, {"is_reserved": 0, "type": "electric_scooter", "bike_id": "84c0c239848c976dfe82fc7bd3b80d5c", "lat": 38.90238883333333, "lon": -77.0533265, "rental_uris": {"android": "https://dc.lft.to/lastmile_qr_scan", "ios": "https://dc.lft.to/lastmile_qr_scan"}, "is_disabled": 0, "fusion_lat": 0.0, "name": "84c0c239848c976dfe82fc7bd3b80d5c", "fusion_lon": 0.0}, {"is_reserved": 0, "type": "electric_scooter", "bike_id": "c94522d2aeb97b2ee9c06435ad7d560a", "lat": 38.91331683333333, "lon": -77.0479905, "rental_uris": {"android": "https://dc.lft.to/lastmile_qr_scan", "ios": "https://dc.lft.to/lastmile_qr_scan"}, "is_disabled": 0, "fusion_lat": 0.0, "name": "c94522d2aeb97b2ee9c06435ad7d560a", "fusion_lon": 0.0}, {"is_reserved": 0, "type": "electric_scooter", "bike_id": "823c0e7aecd5c8a481c1fd7e56df2960", "lat": 38.91498133333333, "lon": -77.01222733333333, "rental_uris": {"android": "https://dc.lft.to/lastmile_qr_scan", "ios": "https://dc.lft.to/lastmile_qr_scan"}, "is_disabled": 0, "fusion_lat": 0.0, "name": "823c0e7aecd5c8a481c1fd7e56df2960", "fusion_lon": 0.0}, {"is_reserved": 0, "type": "electric_bike", "bike_id": "3e813e6e9033a74c90563b30036f3d72", "lat": 38.887871833333335, "lon": -76.92344033333333, "rental_uris": {"android": "https://dc.lft.to/lastmile_qr_scan", "ios": "https://dc.lft.to/lastmile_qr_scan"}, "is_disabled": 0, "fusion_lat": 0.0, "name": "3e813e6e9033a74c90563b30036f3d72", "fusion_lon": 0.0}, {"is_reserved": 0, "type": "electric_scooter", "bike_id": "291926a7732c28a55376d6b84291f9a3", "lat": 38.911925333333336, "lon": -77.04524133333334, "rental_uris": {"android": "https://dc.lft.to/lastmile_qr_scan", "ios": "https://dc.lft.to/lastmile_qr_scan"}, "is_disabled": 0, "fusion_lat": 0.0, "name": "291926a7732c28a55376d6b84291f9a3", "fusion_lon": 0.0}, {"is_reserved": 0, "type": "electric_scooter", "bike_id": "80f6cb17928673b3ff8f79e468442a07", "lat": 38.899059666666666, "lon": -77.03971216666666, "rental_uris": {"android": "https://dc.lft.to/lastmile_qr_scan", "ios": "https://dc.lft.to/lastmile_qr_scan"}, "is_disabled": 0, "fusion_lat": 0.0, "name": "80f6cb17928673b3ff8f79e468442a07", "fusion_lon": 0.0}, {"is_reserved": 0, "type": "electric_scooter", "bike_id": "1cb097abaf95d8ec165afa9f7d23f270", "lat": 38.91616833333333, "lon": -77.031824, "rental_uris": {"android": "https://dc.lft.to/lastmile_qr_scan", "ios": "https://dc.lft.to/lastmile_qr_scan"}, "is_disabled": 0, "fusion_lat": 0.0, "name": "1cb097abaf95d8ec165afa9f7d23f270", "fusion_lon": 0.0}, {"is_reserved": 0, "type": "electric_bike", "bike_id": "60bb949b8cabd884ab7c42711927bcc0", "lat": 38.97307933333333, "lon": -76.99482183333333, "rental_uris": {"android": "https://dc.lft.to/lastmile_qr_scan", "ios": "https://dc.lft.to/lastmile_qr_scan"}, "is_disabled": 0, "fusion_lat": 0.0, "name": "60bb949b8cabd884ab7c42711927bcc0", "fusion_lon": 0.0}, {"is_reserved": 0, "type": "electric_scooter", "bike_id": "2497ca924b81b56ad23e450f31577008", "lat": 38.914158666666665, "lon": -77.02247466666667, "rental_uris": {"android": "https://dc.lft.to/lastmile_qr_scan", "ios": "https://dc.lft.to/lastmile_qr_scan"}, "is_disabled": 0, "fusion_lat": 0.0, "name": "2497ca924b81b56ad23e450f31577008", "fusion_lon": 0.0}, {"is_reserved": 0, "type": "electric_scooter", "bike_id": "01c7271883e8bf751f842f97b18d01db", "lat": 38.89769116666667, "lon": -77.03176133333334, "rental_uris": {"android": "https://dc.lft.to/lastmile_qr_scan", "ios": "https://dc.lft.to/lastmile_qr_scan"}, "is_disabled": 0, "fusion_lat": 0.0, "name": "01c7271883e8bf751f842f97b18d01db", "fusion_lon": 0.0}, {"is_reserved": 0, "type": "electric_scooter", "bike_id": "46a7488dcbb4aee586a73cdd566eff5d", "lat": 38.896569, "lon": -77.01184866666667, "rental_uris": {"android": "https://dc.lft.to/lastmile_qr_scan", "ios": "https://dc.lft.to/lastmile_qr_scan"}, "is_disabled": 0, "fusion_lat": 0.0, "name": "46a7488dcbb4aee586a73cdd566eff5d", "fusion_lon": 0.0}, {"is_reserved": 0, "type": "electric_scooter", "bike_id": "45357f47155fcdd31efa89046a76afac", "lat": 38.92009633333333, "lon": -77.041911, "rental_uris": {"android": "https://dc.lft.to/lastmile_qr_scan", "ios": "https://dc.lft.to/lastmile_qr_scan"}, "is_disabled": 0, "fusion_lat": 0.0, "name": "45357f47155fcdd31efa89046a76afac", "fusion_lon": 0.0}, {"is_reserved": 0, "type": "electric_scooter", "bike_id": "3b4ab154b610c628e3bced01c26ce07c", "lat": 38.93590183333333, "lon": -77.033713, "rental_uris": {"android": "https://dc.lft.to/lastmile_qr_scan", "ios": "https://dc.lft.to/lastmile_qr_scan"}, "is_disabled": 0, "fusion_lat": 0.0, "name": "3b4ab154b610c628e3bced01c26ce07c", "fusion_lon": 0.0}, {"is_reserved": 0, "type": "electric_scooter", "bike_id": "532cdd2a40db9a7e35d679445abaebf6", "lat": 38.89909133333333, "lon": -76.98002633333333, "rental_uris": {"android": "https://dc.lft.to/lastmile_qr_scan", "ios": "https://dc.lft.to/lastmile_qr_scan"}, "is_disabled": 0, "fusion_lat": 0.0, "name": "532cdd2a40db9a7e35d679445abaebf6", "fusion_lon": 0.0}, {"is_reserved": 0, "type": "electric_scooter", "bike_id": "a0572ccb235137ea71f9a6abde37e954", "lat": 38.931736666666666, "lon": -77.02820216666667, "rental_uris": {"android": "https://dc.lft.to/lastmile_qr_scan", "ios": "https://dc.lft.to/lastmile_qr_scan"}, "is_disabled": 0, "fusion_lat": 0.0, "name": "a0572ccb235137ea71f9a6abde37e954", "fusion_lon": 0.0}, {"is_reserved": 0, "type": "electric_scooter", "bike_id": "77b7fa61da93e6d5d1ab86510f77aa78", "lat": 38.91476083333333, "lon": -77.02493966666667, "rental_uris": {"android": "https://dc.lft.to/lastmile_qr_scan", "ios": "https://dc.lft.to/lastmile_qr_scan"}, "is_disabled": 0, "fusion_lat": 0.0, "name": "77b7fa61da93e6d5d1ab86510f77aa78", "fusion_lon": 0.0}, {"is_reserved": 0, "type": "electric_scooter", "bike_id": "bcd1d81eb46c3d01611c5b744c483d7f", "lat": 38.864842833333334, "lon": -76.977454, "rental_uris": {"android": "https://dc.lft.to/lastmile_qr_scan", "ios": "https://dc.lft.to/lastmile_qr_scan"}, "is_disabled": 0, "fusion_lat": 0.0, "name": "bcd1d81eb46c3d01611c5b744c483d7f", "fusion_lon": 0.0}, {"is_reserved": 0, "type": "electric_scooter", "bike_id": "4af7c71d996b75c10d8d0a71f6311dda", "lat": 38.8971385, "lon": -77.022714, "rental_uris": {"android": "https://dc.lft.to/lastmile_qr_scan", "ios": "https://dc.lft.to/lastmile_qr_scan"}, "is_disabled": 0, "fusion_lat": 0.0, "name": "4af7c71d996b75c10d8d0a71f6311dda", "fusion_lon": 0.0}, {"is_reserved": 0, "type": "electric_bike", "bike_id": "bbec05042458327b081cb49783c0410c", "lat": 38.88932833333333, "lon": -76.91322883333333, "rental_uris": {"android": "https://dc.lft.to/lastmile_qr_scan", "ios": "https://dc.lft.to/lastmile_qr_scan"}, "is_disabled": 0, "fusion_lat": 0.0, "name": "bbec05042458327b081cb49783c0410c", "fusion_lon": 0.0}, {"is_reserved": 0, "type": "electric_scooter", "bike_id": "128b93d8e6746c27a4e800d7c26805cd", "lat": 38.90550733333333, "lon": -77.03467333333333, "rental_uris": {"android": "https://dc.lft.to/lastmile_qr_scan", "ios": "https://dc.lft.to/lastmile_qr_scan"}, "is_disabled": 0, "fusion_lat": 0.0, "name": "128b93d8e6746c27a4e800d7c26805cd", "fusion_lon": 0.0}, {"is_reserved": 0, "type": "electric_scooter", "bike_id": "ae5cb088ce9540633de982eadeb7a091", "lat": 38.89725033333333, "lon": -77.02061183333333, "rental_uris": {"android": "https://dc.lft.to/lastmile_qr_scan", "ios": "https://dc.lft.to/lastmile_qr_scan"}, "is_disabled": 0, "fusion_lat": 0.0, "name": "ae5cb088ce9540633de982eadeb7a091", "fusion_lon": 0.0}, {"is_reserved": 0, "type": "electric_scooter", "bike_id": "ad4bb764980ceeb4ac0918dfacf1250b", "lat": 38.9083625, "lon": -77.03192716666666, "rental_uris": {"android": "https://dc.lft.to/lastmile_qr_scan", "ios": "https://dc.lft.to/lastmile_qr_scan"}, "is_disabled": 0, "fusion_lat": 0.0, "name": "ad4bb764980ceeb4ac0918dfacf1250b", "fusion_lon": 0.0}, {"is_reserved": 0, "type": "electric_scooter", "bike_id": "3b8d5cbe1934e4ee7864c4a667d8be5a", "lat": 38.91703033333334, "lon": -77.029498, "rental_uris": {"android": "https://dc.lft.to/lastmile_qr_scan", "ios": "https://dc.lft.to/lastmile_qr_scan"}, "is_disabled": 0, "fusion_lat": 0.0, "name": "3b8d5cbe1934e4ee7864c4a667d8be5a", "fusion_lon": 0.0}, {"is_reserved": 0, "type": "electric_scooter", "bike_id": "7c4e9da90b75fe25775c179f6d0e1650", "lat": 38.908216333333336, "lon": -77.001158, "rental_uris": {"android": "https://dc.lft.to/lastmile_qr_scan", "ios": "https://dc.lft.to/lastmile_qr_scan"}, "is_disabled": 0, "fusion_lat": 0.0, "name": "7c4e9da90b75fe25775c179f6d0e1650", "fusion_lon": 0.0}, {"is_reserved": 0, "type": "electric_scooter", "bike_id": "36f65e7618cfc0bde43d415640f38e3b", "lat": 38.9006645, "lon": -77.04877333333333, "rental_uris": {"android": "https://dc.lft.to/lastmile_qr_scan", "ios": "https://dc.lft.to/lastmile_qr_scan"}, "is_disabled": 0, "fusion_lat": 0.0, "name": "36f65e7618cfc0bde43d415640f38e3b", "fusion_lon": 0.0}, {"is_reserved": 0, "type": "electric_scooter", "bike_id": "d7146271615ced9aa591ebf8635ed545", "lat": 38.87640733333333, "lon": -77.00749433333333, "rental_uris": {"android": "https://dc.lft.to/lastmile_qr_scan", "ios": "https://dc.lft.to/lastmile_qr_scan"}, "is_disabled": 0, "fusion_lat": 0.0, "name": "d7146271615ced9aa591ebf8635ed545", "fusion_lon": 0.0}, {"is_reserved": 0, "type": "electric_scooter", "bike_id": "65ee18f61b4156f15e8b06bcb3e80721", "lat": 38.94978, "lon": -77.024472, "rental_uris": {"android": "https://dc.lft.to/lastmile_qr_scan", "ios": "https://dc.lft.to/lastmile_qr_scan"}, "is_disabled": 0, "fusion_lat": 0.0, "name": "65ee18f61b4156f15e8b06bcb3e80721", "fusion_lon": 0.0}, {"is_reserved": 0, "type": "electric_scooter", "bike_id": "23d8132041d0656d55c656c4f17769d3", "lat": 38.91758633333333, "lon": -77.00452866666667, "rental_uris": {"android": "https://dc.lft.to/lastmile_qr_scan", "ios": "https://dc.lft.to/lastmile_qr_scan"}, "is_disabled": 0, "fusion_lat": 0.0, "name": "23d8132041d0656d55c656c4f17769d3", "fusion_lon": 0.0}, {"is_reserved": 0, "type": "electric_scooter", "bike_id": "612524a9541437b86df5287ea61cf2e8", "lat": 38.905262, "lon": -77.05992133333334, "rental_uris": {"android": "https://dc.lft.to/lastmile_qr_scan", "ios": "https://dc.lft.to/lastmile_qr_scan"}, "is_disabled": 0, "fusion_lat": 0.0, "name": "612524a9541437b86df5287ea61cf2e8", "fusion_lon": 0.0}, {"is_reserved": 0, "type": "electric_scooter", "bike_id": "ffc6846040da043643d44e1d9cb60a80", "lat": 38.9022305, "lon": -77.01636466666666, "rental_uris": {"android": "https://dc.lft.to/lastmile_qr_scan", "ios": "https://dc.lft.to/lastmile_qr_scan"}, "is_disabled": 0, "fusion_lat": 0.0, "name": "ffc6846040da043643d44e1d9cb60a80", "fusion_lon": 0.0}, {"is_reserved": 0, "type": "electric_scooter", "bike_id": "f65f378215351f7ed6ebc9fe84ee4cb5", "lat": 38.909623833333335, "lon": -77.0323185, "rental_uris": {"android": "https://dc.lft.to/lastmile_qr_scan", "ios": "https://dc.lft.to/lastmile_qr_scan"}, "is_disabled": 0, "fusion_lat": 0.0, "name": "f65f378215351f7ed6ebc9fe84ee4cb5", "fusion_lon": 0.0}, {"is_reserved": 0, "type": "electric_bike", "bike_id": "72c4bf158e3a7f24fe4843eedd607abf", "lat": 38.9386245, "lon": -77.026286, "rental_uris": {"android": "https://dc.lft.to/lastmile_qr_scan", "ios": "https://dc.lft.to/lastmile_qr_scan"}, "is_disabled": 0, "fusion_lat": 0.0, "name": "72c4bf158e3a7f24fe4843eedd607abf", "fusion_lon": 0.0}, {"is_reserved": 0, "type": "electric_bike", "bike_id": "7f2d41081219524d544f376cd09cc51d", "lat": 38.87177883333333, "lon": -77.00673116666667, "rental_uris": {"android": "https://dc.lft.to/lastmile_qr_scan", "ios": "https://dc.lft.to/lastmile_qr_scan"}, "is_disabled": 0, "fusion_lat": 0.0, "name": "7f2d41081219524d544f376cd09cc51d", "fusion_lon": 0.0}, {"is_reserved": 0, "type": "electric_bike", "bike_id": "93028ec24b80e18c31728b5b26e2923d", "lat": 38.921353333333336, "lon": -77.00402566666666, "rental_uris": {"android": "https://dc.lft.to/lastmile_qr_scan", "ios": "https://dc.lft.to/lastmile_qr_scan"}, "is_disabled": 0, "fusion_lat": 0.0, "name": "93028ec24b80e18c31728b5b26e2923d", "fusion_lon": 0.0}, {"is_reserved": 0, "type": "electric_scooter", "bike_id": "3e766a38556e2cc9255b8e088030aec0", "lat": 38.933304, "lon": -77.02909183333334, "rental_uris": {"android": "https://dc.lft.to/lastmile_qr_scan", "ios": "https://dc.lft.to/lastmile_qr_scan"}, "is_disabled": 0, "fusion_lat": 0.0, "name": "3e766a38556e2cc9255b8e088030aec0", "fusion_lon": 0.0}, {"is_reserved": 0, "type": "electric_scooter", "bike_id": "1ea1c54ee6bdbae071abd9533ee059fd", "lat": 38.916774833333335, "lon": -77.02966233333333, "rental_uris": {"android": "https://dc.lft.to/lastmile_qr_scan", "ios": "https://dc.lft.to/lastmile_qr_scan"}, "is_disabled": 0, "fusion_lat": 0.0, "name": "1ea1c54ee6bdbae071abd9533ee059fd", "fusion_lon": 0.0}, {"is_reserved": 0, "type": "electric_scooter", "bike_id": "221e9d76a9bc2bb579249c3ea7a6c4fd", "lat": 38.93308566666666, "lon": -76.995955, "rental_uris": {"android": "https://dc.lft.to/lastmile_qr_scan", "ios": "https://dc.lft.to/lastmile_qr_scan"}, "is_disabled": 0, "fusion_lat": 0.0, "name": "221e9d76a9bc2bb579249c3ea7a6c4fd", "fusion_lon": 0.0}, {"is_reserved": 0, "type": "electric_scooter", "bike_id": "de344b7ea56d2faee61c5580354cd95a", "lat": 38.92965916666667, "lon": -77.02337466666667, "rental_uris": {"android": "https://dc.lft.to/lastmile_qr_scan", "ios": "https://dc.lft.to/lastmile_qr_scan"}, "is_disabled": 0, "fusion_lat": 0.0, "name": "de344b7ea56d2faee61c5580354cd95a", "fusion_lon": 0.0}, {"is_reserved": 0, "type": "electric_scooter", "bike_id": "2a0d04e518933e24055432798e5741f7", "lat": 38.89940133333333, "lon": -77.03201966666667, "rental_uris": {"android": "https://dc.lft.to/lastmile_qr_scan", "ios": "https://dc.lft.to/lastmile_qr_scan"}, "is_disabled": 0, "fusion_lat": 0.0, "name": "2a0d04e518933e24055432798e5741f7", "fusion_lon": 0.0}, {"is_reserved": 0, "type": "electric_scooter", "bike_id": "8b503ae078b5ca0655a9a461228c04f1", "lat": 38.916713666666666, "lon": -77.02965983333333, "rental_uris": {"android": "https://dc.lft.to/lastmile_qr_scan", "ios": "https://dc.lft.to/lastmile_qr_scan"}, "is_disabled": 0, "fusion_lat": 0.0, "name": "8b503ae078b5ca0655a9a461228c04f1", "fusion_lon": 0.0}, {"is_reserved": 0, "type": "electric_scooter", "bike_id": "8092fef878b2290a1f40e24a2b4ed4f3", "lat": 38.94733766666667, "lon": -77.0246085, "rental_uris": {"android": "https://dc.lft.to/lastmile_qr_scan", "ios": "https://dc.lft.to/lastmile_qr_scan"}, "is_disabled": 0, "fusion_lat": 0.0, "name": "8092fef878b2290a1f40e24a2b4ed4f3", "fusion_lon": 0.0}, {"is_reserved": 0, "type": "electric_scooter", "bike_id": "27296c5b62ee56bbc6bc6a226a5ae005", "lat": 38.90514133333333, "lon": -77.05990883333334, "rental_uris": {"android": "https://dc.lft.to/lastmile_qr_scan", "ios": "https://dc.lft.to/lastmile_qr_scan"}, "is_disabled": 0, "fusion_lat": 0.0, "name": "27296c5b62ee56bbc6bc6a226a5ae005", "fusion_lon": 0.0}, {"is_reserved": 0, "type": "electric_scooter", "bike_id": "c1cc7112a09e82e401f6c26129353472", "lat": 38.933717666666666, "lon": -77.057315, "rental_uris": {"android": "https://dc.lft.to/lastmile_qr_scan", "ios": "https://dc.lft.to/lastmile_qr_scan"}, "is_disabled": 0, "fusion_lat": 0.0, "name": "c1cc7112a09e82e401f6c26129353472", "fusion_lon": 0.0}, {"is_reserved": 0, "type": "electric_bike", "bike_id": "492844ed2e683d00111f542b1c4a09b9", "lat": 38.91247333333333, "lon": -77.02717783333334, "rental_uris": {"android": "https://dc.lft.to/lastmile_qr_scan", "ios": "https://dc.lft.to/lastmile_qr_scan"}, "is_disabled": 0, "fusion_lat": 0.0, "name": "492844ed2e683d00111f542b1c4a09b9", "fusion_lon": 0.0}, {"is_reserved": 0, "type": "electric_scooter", "bike_id": "9a13ae431bec5088002990de707f3664", "lat": 38.90268116666667, "lon": -77.0298565, "rental_uris": {"android": "https://dc.lft.to/lastmile_qr_scan", "ios": "https://dc.lft.to/lastmile_qr_scan"}, "is_disabled": 0, "fusion_lat": 0.0, "name": "9a13ae431bec5088002990de707f3664", "fusion_lon": 0.0}, {"is_reserved": 0, "type": "electric_scooter", "bike_id": "ec7b4098600881552a09c2dbdd8ef03a", "lat": 38.9256525, "lon": -76.97008116666666, "rental_uris": {"android": "https://dc.lft.to/lastmile_qr_scan", "ios": "https://dc.lft.to/lastmile_qr_scan"}, "is_disabled": 0, "fusion_lat": 0.0, "name": "ec7b4098600881552a09c2dbdd8ef03a", "fusion_lon": 0.0}, {"is_reserved": 0, "type": "electric_scooter", "bike_id": "2a355467f4923b8f26682a957862129a", "lat": 38.922737, "lon": -76.99769166666667, "rental_uris": {"android": "https://dc.lft.to/lastmile_qr_scan", "ios": "https://dc.lft.to/lastmile_qr_scan"}, "is_disabled": 0, "fusion_lat": 0.0, "name": "2a355467f4923b8f26682a957862129a", "fusion_lon": 0.0}, {"is_reserved": 0, "type": "electric_scooter", "bike_id": "75dcbc095355b92832a87f8dd7acf62a", "lat": 38.93179333333333, "lon": -77.02352183333333, "rental_uris": {"android": "https://dc.lft.to/lastmile_qr_scan", "ios": "https://dc.lft.to/lastmile_qr_scan"}, "is_disabled": 0, "fusion_lat": 0.0, "name": "75dcbc095355b92832a87f8dd7acf62a", "fusion_lon": 0.0}, {"is_reserved": 0, "type": "electric_scooter", "bike_id": "c52eaaf876fa1416df5ebe5e593fbb43", "lat": 38.9003645, "lon": -76.99152083333334, "rental_uris": {"android": "https://dc.lft.to/lastmile_qr_scan", "ios": "https://dc.lft.to/lastmile_qr_scan"}, "is_disabled": 0, "fusion_lat": 0.0, "name": "c52eaaf876fa1416df5ebe5e593fbb43", "fusion_lon": 0.0}, {"is_reserved": 0, "type": "electric_scooter", "bike_id": "2a6e2d426a70be4040ac64e0653e813e", "lat": 38.90672133333333, "lon": -77.062463, "rental_uris": {"android": "https://dc.lft.to/lastmile_qr_scan", "ios": "https://dc.lft.to/lastmile_qr_scan"}, "is_disabled": 0, "fusion_lat": 0.0, "name": "2a6e2d426a70be4040ac64e0653e813e", "fusion_lon": 0.0}, {"is_reserved": 0, "type": "electric_scooter", "bike_id": "fe45802aefc90c4a10a06c76cdda9a87", "lat": 38.90394383333334, "lon": -77.01852866666667, "rental_uris": {"android": "https://dc.lft.to/lastmile_qr_scan", "ios": "https://dc.lft.to/lastmile_qr_scan"}, "is_disabled": 0, "fusion_lat": 0.0, "name": "fe45802aefc90c4a10a06c76cdda9a87", "fusion_lon": 0.0}, {"is_reserved": 0, "type": "electric_scooter", "bike_id": "0edb59c0c36db1bed3e6321b7448eb03", "lat": 38.90944183333333, "lon": -77.03207933333333, "rental_uris": {"android": "https://dc.lft.to/lastmile_qr_scan", "ios": "https://dc.lft.to/lastmile_qr_scan"}, "is_disabled": 0, "fusion_lat": 0.0, "name": "0edb59c0c36db1bed3e6321b7448eb03", "fusion_lon": 0.0}, {"is_reserved": 0, "type": "electric_scooter", "bike_id": "ea2b5ce630e6e76694dd57abe4125fdb", "lat": 38.914173166666664, "lon": -77.03176466666666, "rental_uris": {"android": "https://dc.lft.to/lastmile_qr_scan", "ios": "https://dc.lft.to/lastmile_qr_scan"}, "is_disabled": 0, "fusion_lat": 0.0, "name": "ea2b5ce630e6e76694dd57abe4125fdb", "fusion_lon": 0.0}, {"is_reserved": 0, "type": "electric_bike", "bike_id": "566157bd42dd5c93814ebe01137bf230", "lat": 38.949634833333334, "lon": -76.960974, "rental_uris": {"android": "https://dc.lft.to/lastmile_qr_scan", "ios": "https://dc.lft.to/lastmile_qr_scan"}, "is_disabled": 0, "fusion_lat": 0.0, "name": "566157bd42dd5c93814ebe01137bf230", "fusion_lon": 0.0}, {"is_reserved": 0, "type": "electric_scooter", "bike_id": "d36233307b7dd2dfa81d3c65ccf15ea5", "lat": 38.90514133333333, "lon": -77.05662083333333, "rental_uris": {"android": "https://dc.lft.to/lastmile_qr_scan", "ios": "https://dc.lft.to/lastmile_qr_scan"}, "is_disabled": 0, "fusion_lat": 0.0, "name": "d36233307b7dd2dfa81d3c65ccf15ea5", "fusion_lon": 0.0}, {"is_reserved": 0, "type": "electric_scooter", "bike_id": "c7a9e10a5bf7259e3f838cdae7ea801f", "lat": 38.908185333333336, "lon": -77.03649033333333, "rental_uris": {"android": "https://dc.lft.to/lastmile_qr_scan", "ios": "https://dc.lft.to/lastmile_qr_scan"}, "is_disabled": 0, "fusion_lat": 0.0, "name": "c7a9e10a5bf7259e3f838cdae7ea801f", "fusion_lon": 0.0}, {"is_reserved": 0, "type": "electric_scooter", "bike_id": "33bf85f4cf768bf044241fd5da919834", "lat": 38.9112245, "lon": -77.0436305, "rental_uris": {"android": "https://dc.lft.to/lastmile_qr_scan", "ios": "https://dc.lft.to/lastmile_qr_scan"}, "is_disabled": 0, "fusion_lat": 0.0, "name": "33bf85f4cf768bf044241fd5da919834", "fusion_lon": 0.0}, {"is_reserved": 0, "type": "electric_scooter", "bike_id": "abf03a9c622d25e86eb58c2bf135c11f", "lat": 38.90086733333333, "lon": -77.057358, "rental_uris": {"android": "https://dc.lft.to/lastmile_qr_scan", "ios": "https://dc.lft.to/lastmile_qr_scan"}, "is_disabled": 0, "fusion_lat": 0.0, "name": "abf03a9c622d25e86eb58c2bf135c11f", "fusion_lon": 0.0}, {"is_reserved": 0, "type": "electric_scooter", "bike_id": "d43425ea5fdcab0ced6d274a5eaddd65", "lat": 38.87144683333333, "lon": -77.0131865, "rental_uris": {"android": "https://dc.lft.to/lastmile_qr_scan", "ios": "https://dc.lft.to/lastmile_qr_scan"}, "is_disabled": 0, "fusion_lat": 0.0, "name": "d43425ea5fdcab0ced6d274a5eaddd65", "fusion_lon": 0.0}, {"is_reserved": 0, "type": "electric_scooter", "bike_id": "8e91acf4b33f145b38de0c6e43426afb", "lat": 38.906832666666666, "lon": -77.05620766666667, "rental_uris": {"android": "https://dc.lft.to/lastmile_qr_scan", "ios": "https://dc.lft.to/lastmile_qr_scan"}, "is_disabled": 0, "fusion_lat": 0.0, "name": "8e91acf4b33f145b38de0c6e43426afb", "fusion_lon": 0.0}, {"is_reserved": 0, "type": "electric_scooter", "bike_id": "d4e3e1b3345377430db6deaa5e6f39cb", "lat": 38.89357183333333, "lon": -77.02844883333333, "rental_uris": {"android": "https://dc.lft.to/lastmile_qr_scan", "ios": "https://dc.lft.to/lastmile_qr_scan"}, "is_disabled": 0, "fusion_lat": 0.0, "name": "d4e3e1b3345377430db6deaa5e6f39cb", "fusion_lon": 0.0}, {"is_reserved": 0, "type": "electric_scooter", "bike_id": "2544ea90f45ec30d9de48711ab79adc3", "lat": 38.87266233333333, "lon": -77.01707966666666, "rental_uris": {"android": "https://dc.lft.to/lastmile_qr_scan", "ios": "https://dc.lft.to/lastmile_qr_scan"}, "is_disabled": 0, "fusion_lat": 0.0, "name": "2544ea90f45ec30d9de48711ab79adc3", "fusion_lon": 0.0}, {"is_reserved": 0, "type": "electric_bike", "bike_id": "3baeaedaf4efba85908e651f82c16612", "lat": 38.808668, "lon": -77.11255116666666, "rental_uris": {"android": "https://dc.lft.to/lastmile_qr_scan", "ios": "https://dc.lft.to/lastmile_qr_scan"}, "is_disabled": 0, "fusion_lat": 0.0, "name": "3baeaedaf4efba85908e651f82c16612", "fusion_lon": 0.0}, {"is_reserved": 0, "type": "electric_scooter", "bike_id": "300f622bdc39311d09d17dea478fd8ef", "lat": 38.917173166666664, "lon": -77.03857433333333, "rental_uris": {"android": "https://dc.lft.to/lastmile_qr_scan", "ios": "https://dc.lft.to/lastmile_qr_scan"}, "is_disabled": 0, "fusion_lat": 0.0, "name": "300f622bdc39311d09d17dea478fd8ef", "fusion_lon": 0.0}, {"is_reserved": 0, "type": "electric_scooter", "bike_id": "ecdac2a3c3f488567452ca4caeedb275", "lat": 38.90018416666667, "lon": -76.99806916666667, "rental_uris": {"android": "https://dc.lft.to/lastmile_qr_scan", "ios": "https://dc.lft.to/lastmile_qr_scan"}, "is_disabled": 0, "fusion_lat": 0.0, "name": "ecdac2a3c3f488567452ca4caeedb275", "fusion_lon": 0.0}, {"is_reserved": 0, "type": "electric_bike", "bike_id": "ccec80dde3b49522d64115a4da669804", "lat": 38.900441666666666, "lon": -76.977919, "rental_uris": {"android": "https://dc.lft.to/lastmile_qr_scan", "ios": "https://dc.lft.to/lastmile_qr_scan"}, "is_disabled": 0, "fusion_lat": 0.0, "name": "ccec80dde3b49522d64115a4da669804", "fusion_lon": 0.0}, {"is_reserved": 0, "type": "electric_scooter", "bike_id": "679dde231807043849d10aaebfb327fa", "lat": 38.9262985, "lon": -77.04246866666666, "rental_uris": {"android": "https://dc.lft.to/lastmile_qr_scan", "ios": "https://dc.lft.to/lastmile_qr_scan"}, "is_disabled": 0, "fusion_lat": 0.0, "name": "679dde231807043849d10aaebfb327fa", "fusion_lon": 0.0}, {"is_reserved": 0, "type": "electric_scooter", "bike_id": "9f7502f09e5dad4c54cfa6d2103d0a98", "lat": 38.93037966666667, "lon": -77.0553815, "rental_uris": {"android": "https://dc.lft.to/lastmile_qr_scan", "ios": "https://dc.lft.to/lastmile_qr_scan"}, "is_disabled": 0, "fusion_lat": 0.0, "name": "9f7502f09e5dad4c54cfa6d2103d0a98", "fusion_lon": 0.0}, {"is_reserved": 0, "type": "electric_scooter", "bike_id": "2e5156a320199de7760b828ccb7ca191", "lat": 38.90904466666667, "lon": -76.99619283333334, "rental_uris": {"android": "https://dc.lft.to/lastmile_qr_scan", "ios": "https://dc.lft.to/lastmile_qr_scan"}, "is_disabled": 0, "fusion_lat": 0.0, "name": "2e5156a320199de7760b828ccb7ca191", "fusion_lon": 0.0}, {"is_reserved": 0, "type": "electric_scooter", "bike_id": "534be71b7bdb3b0562afd282899e39fd", "lat": 38.92095, "lon": -77.04688, "rental_uris": {"android": "https://dc.lft.to/lastmile_qr_scan", "ios": "https://dc.lft.to/lastmile_qr_scan"}, "is_disabled": 0, "fusion_lat": 0.0, "name": "534be71b7bdb3b0562afd282899e39fd", "fusion_lon": 0.0}, {"is_reserved": 0, "type": "electric_scooter", "bike_id": "8248df556f7a84679410a324c6e69e5b", "lat": 38.95249416666667, "lon": -77.00918366666667, "rental_uris": {"android": "https://dc.lft.to/lastmile_qr_scan", "ios": "https://dc.lft.to/lastmile_qr_scan"}, "is_disabled": 0, "fusion_lat": 0.0, "name": "8248df556f7a84679410a324c6e69e5b", "fusion_lon": 0.0}, {"is_reserved": 0, "type": "electric_scooter", "bike_id": "4ce307295fe5c39b62dfaf69f65d6268", "lat": 38.898667333333336, "lon": -77.02401316666666, "rental_uris": {"android": "https://dc.lft.to/lastmile_qr_scan", "ios": "https://dc.lft.to/lastmile_qr_scan"}, "is_disabled": 0, "fusion_lat": 0.0, "name": "4ce307295fe5c39b62dfaf69f65d6268", "fusion_lon": 0.0}, {"is_reserved": 0, "type": "electric_scooter", "bike_id": "544ad733a6deec45c91e371681c51779", "lat": 38.89533733333333, "lon": -76.97893983333333, "rental_uris": {"android": "https://dc.lft.to/lastmile_qr_scan", "ios": "https://dc.lft.to/lastmile_qr_scan"}, "is_disabled": 0, "fusion_lat": 0.0, "name": "544ad733a6deec45c91e371681c51779", "fusion_lon": 0.0}, {"is_reserved": 0, "type": "electric_scooter", "bike_id": "393837d1a77b681e2fcda732dbf673b8", "lat": 38.9432595, "lon": -77.01255766666667, "rental_uris": {"android": "https://dc.lft.to/lastmile_qr_scan", "ios": "https://dc.lft.to/lastmile_qr_scan"}, "is_disabled": 0, "fusion_lat": 0.0, "name": "393837d1a77b681e2fcda732dbf673b8", "fusion_lon": 0.0}, {"is_reserved": 0, "type": "electric_scooter", "bike_id": "6b8d73eeaa15d962fbc26c009255d182", "lat": 38.876609, "lon": -77.00578233333333, "rental_uris": {"android": "https://dc.lft.to/lastmile_qr_scan", "ios": "https://dc.lft.to/lastmile_qr_scan"}, "is_disabled": 0, "fusion_lat": 0.0, "name": "6b8d73eeaa15d962fbc26c009255d182", "fusion_lon": 0.0}, {"is_reserved": 0, "type": "electric_scooter", "bike_id": "82d9c77ea14fa2275a8bb725ad961dc0", "lat": 38.88605833333333, "lon": -77.01977383333333, "rental_uris": {"android": "https://dc.lft.to/lastmile_qr_scan", "ios": "https://dc.lft.to/lastmile_qr_scan"}, "is_disabled": 0, "fusion_lat": 0.0, "name": "82d9c77ea14fa2275a8bb725ad961dc0", "fusion_lon": 0.0}, {"is_reserved": 0, "type": "electric_scooter", "bike_id": "bd054cd41e01810de0266a93abd9b224", "lat": 38.92844266666667, "lon": -77.05443683333333, "rental_uris": {"android": "https://dc.lft.to/lastmile_qr_scan", "ios": "https://dc.lft.to/lastmile_qr_scan"}, "is_disabled": 0, "fusion_lat": 0.0, "name": "bd054cd41e01810de0266a93abd9b224", "fusion_lon": 0.0}, {"is_reserved": 0, "type": "electric_scooter", "bike_id": "a3e20ef6e4d85c4598599f273751cf78", "lat": 38.927278666666666, "lon": -77.032516, "rental_uris": {"android": "https://dc.lft.to/lastmile_qr_scan", "ios": "https://dc.lft.to/lastmile_qr_scan"}, "is_disabled": 0, "fusion_lat": 0.0, "name": "a3e20ef6e4d85c4598599f273751cf78", "fusion_lon": 0.0}, {"is_reserved": 0, "type": "electric_scooter", "bike_id": "4962d935a77d9cc602310925fb96d4c2", "lat": 38.91877133333333, "lon": -76.96548, "rental_uris": {"android": "https://dc.lft.to/lastmile_qr_scan", "ios": "https://dc.lft.to/lastmile_qr_scan"}, "is_disabled": 0, "fusion_lat": 0.0, "name": "4962d935a77d9cc602310925fb96d4c2", "fusion_lon": 0.0}, {"is_reserved": 0, "type": "electric_scooter", "bike_id": "6ca3af9f0612f2d01d914aadcaafdd54", "lat": 38.87469683333333, "lon": -77.00562566666666, "rental_uris": {"android": "https://dc.lft.to/lastmile_qr_scan", "ios": "https://dc.lft.to/lastmile_qr_scan"}, "is_disabled": 0, "fusion_lat": 0.0, "name": "6ca3af9f0612f2d01d914aadcaafdd54", "fusion_lon": 0.0}, {"is_reserved": 0, "type": "electric_scooter", "bike_id": "6e0f080046089c955d9b3aba6ce87b6b", "lat": 38.91761833333333, "lon": -77.0045805, "rental_uris": {"android": "https://dc.lft.to/lastmile_qr_scan", "ios": "https://dc.lft.to/lastmile_qr_scan"}, "is_disabled": 0, "fusion_lat": 0.0, "name": "6e0f080046089c955d9b3aba6ce87b6b", "fusion_lon": 0.0}, {"is_reserved": 0, "type": "electric_scooter", "bike_id": "75f05fa4cbef548cc1044cbbf4de83a6", "lat": 38.8830795, "lon": -77.0236785, "rental_uris": {"android": "https://dc.lft.to/lastmile_qr_scan", "ios": "https://dc.lft.to/lastmile_qr_scan"}, "is_disabled": 0, "fusion_lat": 0.0, "name": "75f05fa4cbef548cc1044cbbf4de83a6", "fusion_lon": 0.0}, {"is_reserved": 0, "type": "electric_bike", "bike_id": "f2a5996480d50fc8aac04f778fed12a4", "lat": 38.920710666666665, "lon": -76.99588916666667, "rental_uris": {"android": "https://dc.lft.to/lastmile_qr_scan", "ios": "https://dc.lft.to/lastmile_qr_scan"}, "is_disabled": 0, "fusion_lat": 0.0, "name": "f2a5996480d50fc8aac04f778fed12a4", "fusion_lon": 0.0}, {"is_reserved": 0, "type": "electric_bike", "bike_id": "c361006e1b9bd2930ba24d37e986ae3f", "lat": 38.9170725, "lon": -77.0572165, "rental_uris": {"android": "https://dc.lft.to/lastmile_qr_scan", "ios": "https://dc.lft.to/lastmile_qr_scan"}, "is_disabled": 0, "fusion_lat": 0.0, "name": "c361006e1b9bd2930ba24d37e986ae3f", "fusion_lon": 0.0}, {"is_reserved": 0, "type": "electric_scooter", "bike_id": "27a22fcde80754e940404e3962098349", "lat": 38.903616, "lon": -77.04561633333333, "rental_uris": {"android": "https://dc.lft.to/lastmile_qr_scan", "ios": "https://dc.lft.to/lastmile_qr_scan"}, "is_disabled": 0, "fusion_lat": 0.0, "name": "27a22fcde80754e940404e3962098349", "fusion_lon": 0.0}, {"is_reserved": 0, "type": "electric_bike", "bike_id": "106a2308213c419afd385d57d61c73aa", "lat": 38.92038566666667, "lon": -76.9795735, "rental_uris": {"android": "https://dc.lft.to/lastmile_qr_scan", "ios": "https://dc.lft.to/lastmile_qr_scan"}, "is_disabled": 0, "fusion_lat": 0.0, "name": "106a2308213c419afd385d57d61c73aa", "fusion_lon": 0.0}, {"is_reserved": 0, "type": "electric_scooter", "bike_id": "d832d0269f9baf9bff33dc6035516fef", "lat": 38.9170895, "lon": -77.04184983333333, "rental_uris": {"android": "https://dc.lft.to/lastmile_qr_scan", "ios": "https://dc.lft.to/lastmile_qr_scan"}, "is_disabled": 0, "fusion_lat": 0.0, "name": "d832d0269f9baf9bff33dc6035516fef", "fusion_lon": 0.0}, {"is_reserved": 0, "type": "electric_scooter", "bike_id": "4718742712c52c62820fb32e1c5e909a", "lat": 38.91181683333333, "lon": -77.02189533333333, "rental_uris": {"android": "https://dc.lft.to/lastmile_qr_scan", "ios": "https://dc.lft.to/lastmile_qr_scan"}, "is_disabled": 0, "fusion_lat": 0.0, "name": "4718742712c52c62820fb32e1c5e909a", "fusion_lon": 0.0}, {"is_reserved": 0, "type": "electric_scooter", "bike_id": "5ec2edfbc115e4339a7f328836593eef", "lat": 38.92045616666667, "lon": -77.02573683333334, "rental_uris": {"android": "https://dc.lft.to/lastmile_qr_scan", "ios": "https://dc.lft.to/lastmile_qr_scan"}, "is_disabled": 0, "fusion_lat": 0.0, "name": "5ec2edfbc115e4339a7f328836593eef", "fusion_lon": 0.0}, {"is_reserved": 0, "type": "electric_scooter", "bike_id": "94287c1e7d89f138cec9d1d304c41759", "lat": 38.90659216666667, "lon": -77.02712233333334, "rental_uris": {"android": "https://dc.lft.to/lastmile_qr_scan", "ios": "https://dc.lft.to/lastmile_qr_scan"}, "is_disabled": 0, "fusion_lat": 0.0, "name": "94287c1e7d89f138cec9d1d304c41759", "fusion_lon": 0.0}, {"is_reserved": 0, "type": "electric_scooter", "bike_id": "e8b10c970e080513863f7c3d43492820", "lat": 38.93720016666666, "lon": -77.02349483333333, "rental_uris": {"android": "https://dc.lft.to/lastmile_qr_scan", "ios": "https://dc.lft.to/lastmile_qr_scan"}, "is_disabled": 0, "fusion_lat": 0.0, "name": "e8b10c970e080513863f7c3d43492820", "fusion_lon": 0.0}, {"is_reserved": 0, "type": "electric_scooter", "bike_id": "99de609697926e28104aa7ff9804305a", "lat": 38.95088783333333, "lon": -77.02531916666666, "rental_uris": {"android": "https://dc.lft.to/lastmile_qr_scan", "ios": "https://dc.lft.to/lastmile_qr_scan"}, "is_disabled": 0, "fusion_lat": 0.0, "name": "99de609697926e28104aa7ff9804305a", "fusion_lon": 0.0}, {"is_reserved": 0, "type": "electric_scooter", "bike_id": "fe1af266b9bf5b3f2dfa291e7dc7e7f8", "lat": 38.91567633333333, "lon": -77.029683, "rental_uris": {"android": "https://dc.lft.to/lastmile_qr_scan", "ios": "https://dc.lft.to/lastmile_qr_scan"}, "is_disabled": 0, "fusion_lat": 0.0, "name": "fe1af266b9bf5b3f2dfa291e7dc7e7f8", "fusion_lon": 0.0}, {"is_reserved": 0, "type": "electric_scooter", "bike_id": "a10f8771c9edabb079d7fbcf78aa75c4", "lat": 38.885088833333334, "lon": -77.01115983333334, "rental_uris": {"android": "https://dc.lft.to/lastmile_qr_scan", "ios": "https://dc.lft.to/lastmile_qr_scan"}, "is_disabled": 0, "fusion_lat": 0.0, "name": "a10f8771c9edabb079d7fbcf78aa75c4", "fusion_lon": 0.0}, {"is_reserved": 0, "type": "electric_scooter", "bike_id": "3d862e1f0fb01184e229d339a54e550e", "lat": 38.897750333333335, "lon": -77.027031, "rental_uris": {"android": "https://dc.lft.to/lastmile_qr_scan", "ios": "https://dc.lft.to/lastmile_qr_scan"}, "is_disabled": 0, "fusion_lat": 0.0, "name": "3d862e1f0fb01184e229d339a54e550e", "fusion_lon": 0.0}, {"is_reserved": 0, "type": "electric_scooter", "bike_id": "1a7768d9c1aff72033d75059fbc6c02a", "lat": 38.884101333333334, "lon": -77.03045783333333, "rental_uris": {"android": "https://dc.lft.to/lastmile_qr_scan", "ios": "https://dc.lft.to/lastmile_qr_scan"}, "is_disabled": 0, "fusion_lat": 0.0, "name": "1a7768d9c1aff72033d75059fbc6c02a", "fusion_lon": 0.0}, {"is_reserved": 0, "type": "electric_scooter", "bike_id": "f55fae6dc4d63aa9d37d826d5db44e53", "lat": 38.91691733333333, "lon": -77.02522716666667, "rental_uris": {"android": "https://dc.lft.to/lastmile_qr_scan", "ios": "https://dc.lft.to/lastmile_qr_scan"}, "is_disabled": 0, "fusion_lat": 0.0, "name": "f55fae6dc4d63aa9d37d826d5db44e53", "fusion_lon": 0.0}, {"is_reserved": 0, "type": "electric_scooter", "bike_id": "a9c2eeb2a66c5d5bbb41352c97b9a09f", "lat": 38.92952833333333, "lon": -77.00402233333334, "rental_uris": {"android": "https://dc.lft.to/lastmile_qr_scan", "ios": "https://dc.lft.to/lastmile_qr_scan"}, "is_disabled": 0, "fusion_lat": 0.0, "name": "a9c2eeb2a66c5d5bbb41352c97b9a09f", "fusion_lon": 0.0}, {"is_reserved": 0, "type": "electric_scooter", "bike_id": "cd23f1ab243ce16a0d79607c0cd77751", "lat": 38.903896833333334, "lon": -77.03144366666666, "rental_uris": {"android": "https://dc.lft.to/lastmile_qr_scan", "ios": "https://dc.lft.to/lastmile_qr_scan"}, "is_disabled": 0, "fusion_lat": 0.0, "name": "cd23f1ab243ce16a0d79607c0cd77751", "fusion_lon": 0.0}, {"is_reserved": 0, "type": "electric_scooter", "bike_id": "b88e362e4f1fb0ca64add83a5c28ba94", "lat": 38.905558, "lon": -77.04001983333333, "rental_uris": {"android": "https://dc.lft.to/lastmile_qr_scan", "ios": "https://dc.lft.to/lastmile_qr_scan"}, "is_disabled": 0, "fusion_lat": 0.0, "name": "b88e362e4f1fb0ca64add83a5c28ba94", "fusion_lon": 0.0}, {"is_reserved": 0, "type": "electric_scooter", "bike_id": "55d973d062bd25047e568c3a37879dd2", "lat": 38.91395416666667, "lon": -77.01998683333333, "rental_uris": {"android": "https://dc.lft.to/lastmile_qr_scan", "ios": "https://dc.lft.to/lastmile_qr_scan"}, "is_disabled": 0, "fusion_lat": 0.0, "name": "55d973d062bd25047e568c3a37879dd2", "fusion_lon": 0.0}, {"is_reserved": 0, "type": "electric_scooter", "bike_id": "7ea804ed4e24c8034efd6e617227dd21", "lat": 38.92826016666667, "lon": -77.0225755, "rental_uris": {"android": "https://dc.lft.to/lastmile_qr_scan", "ios": "https://dc.lft.to/lastmile_qr_scan"}, "is_disabled": 0, "fusion_lat": 0.0, "name": "7ea804ed4e24c8034efd6e617227dd21", "fusion_lon": 0.0}, {"is_reserved": 0, "type": "electric_scooter", "bike_id": "959c851630d8fe08161b91ee55d309c8", "lat": 38.91214633333333, "lon": -77.02713416666667, "rental_uris": {"android": "https://dc.lft.to/lastmile_qr_scan", "ios": "https://dc.lft.to/lastmile_qr_scan"}, "is_disabled": 0, "fusion_lat": 0.0, "name": "959c851630d8fe08161b91ee55d309c8", "fusion_lon": 0.0}, {"is_reserved": 0, "type": "electric_scooter", "bike_id": "3081e149a49269a70d573350769232c1", "lat": 38.91639766666667, "lon": -77.0478355, "rental_uris": {"android": "https://dc.lft.to/lastmile_qr_scan", "ios": "https://dc.lft.to/lastmile_qr_scan"}, "is_disabled": 0, "fusion_lat": 0.0, "name": "3081e149a49269a70d573350769232c1", "fusion_lon": 0.0}, {"is_reserved": 0, "type": "electric_scooter", "bike_id": "fc737a6b6fcb7efe27d2bc74e251a139", "lat": 38.9117595, "lon": -77.02184766666667, "rental_uris": {"android": "https://dc.lft.to/lastmile_qr_scan", "ios": "https://dc.lft.to/lastmile_qr_scan"}, "is_disabled": 0, "fusion_lat": 0.0, "name": "fc737a6b6fcb7efe27d2bc74e251a139", "fusion_lon": 0.0}, {"is_reserved": 0, "type": "electric_scooter", "bike_id": "324e09ffba802d0bdb5301fe5b9b7eec", "lat": 38.879079833333336, "lon": -77.02199616666667, "rental_uris": {"android": "https://dc.lft.to/lastmile_qr_scan", "ios": "https://dc.lft.to/lastmile_qr_scan"}, "is_disabled": 0, "fusion_lat": 0.0, "name": "324e09ffba802d0bdb5301fe5b9b7eec", "fusion_lon": 0.0}, {"is_reserved": 0, "type": "electric_scooter", "bike_id": "2135501e9d77eeada8f41bebce9083f7", "lat": 38.90576816666667, "lon": -77.04874133333334, "rental_uris": {"android": "https://dc.lft.to/lastmile_qr_scan", "ios": "https://dc.lft.to/lastmile_qr_scan"}, "is_disabled": 0, "fusion_lat": 0.0, "name": "2135501e9d77eeada8f41bebce9083f7", "fusion_lon": 0.0}, {"is_reserved": 0, "type": "electric_scooter", "bike_id": "a0ea642ffdcd06fd58e33d03224a6d06", "lat": 38.911088666666664, "lon": -77.019069, "rental_uris": {"android": "https://dc.lft.to/lastmile_qr_scan", "ios": "https://dc.lft.to/lastmile_qr_scan"}, "is_disabled": 0, "fusion_lat": 0.0, "name": "a0ea642ffdcd06fd58e33d03224a6d06", "fusion_lon": 0.0}, {"is_reserved": 0, "type": "electric_scooter", "bike_id": "3af6a9fb02f4ffcd445b17f4fb196b6f", "lat": 38.92818, "lon": -77.0236585, "rental_uris": {"android": "https://dc.lft.to/lastmile_qr_scan", "ios": "https://dc.lft.to/lastmile_qr_scan"}, "is_disabled": 0, "fusion_lat": 0.0, "name": "3af6a9fb02f4ffcd445b17f4fb196b6f", "fusion_lon": 0.0}, {"is_reserved": 0, "type": "electric_scooter", "bike_id": "d9d75577e669c137934258f0cecf77c6", "lat": 38.901296333333335, "lon": -77.0162255, "rental_uris": {"android": "https://dc.lft.to/lastmile_qr_scan", "ios": "https://dc.lft.to/lastmile_qr_scan"}, "is_disabled": 0, "fusion_lat": 0.0, "name": "d9d75577e669c137934258f0cecf77c6", "fusion_lon": 0.0}, {"is_reserved": 0, "type": "electric_scooter", "bike_id": "620c84f47daa2bd076e8713452fa08f1", "lat": 38.902661, "lon": -77.02787883333333, "rental_uris": {"android": "https://dc.lft.to/lastmile_qr_scan", "ios": "https://dc.lft.to/lastmile_qr_scan"}, "is_disabled": 0, "fusion_lat": 0.0, "name": "620c84f47daa2bd076e8713452fa08f1", "fusion_lon": 0.0}, {"is_reserved": 0, "type": "electric_scooter", "bike_id": "441f2ced1b46681586666de2d30098ef", "lat": 38.898385833333336, "lon": -77.04815483333333, "rental_uris": {"android": "https://dc.lft.to/lastmile_qr_scan", "ios": "https://dc.lft.to/lastmile_qr_scan"}, "is_disabled": 0, "fusion_lat": 0.0, "name": "441f2ced1b46681586666de2d30098ef", "fusion_lon": 0.0}, {"is_reserved": 0, "type": "electric_bike", "bike_id": "aa8d8f69737e6c2dc6ee0dee0c55fe39", "lat": 38.9122295, "lon": -77.06593233333334, "rental_uris": {"android": "https://dc.lft.to/lastmile_qr_scan", "ios": "https://dc.lft.to/lastmile_qr_scan"}, "is_disabled": 0, "fusion_lat": 0.0, "name": "aa8d8f69737e6c2dc6ee0dee0c55fe39", "fusion_lon": 0.0}, {"is_reserved": 0, "type": "electric_scooter", "bike_id": "57f49df39762fa8d93716bf259d460da", "lat": 38.91818266666667, "lon": -77.0258925, "rental_uris": {"android": "https://dc.lft.to/lastmile_qr_scan", "ios": "https://dc.lft.to/lastmile_qr_scan"}, "is_disabled": 0, "fusion_lat": 0.0, "name": "57f49df39762fa8d93716bf259d460da", "fusion_lon": 0.0}, {"is_reserved": 0, "type": "electric_scooter", "bike_id": "a997ec729db115c5c352f3b75ecce43d", "lat": 38.898145166666666, "lon": -77.02939866666667, "rental_uris": {"android": "https://dc.lft.to/lastmile_qr_scan", "ios": "https://dc.lft.to/lastmile_qr_scan"}, "is_disabled": 0, "fusion_lat": 0.0, "name": "a997ec729db115c5c352f3b75ecce43d", "fusion_lon": 0.0}, {"is_reserved": 0, "type": "electric_scooter", "bike_id": "7072b8e55c9d8481fcca3e6f0cf6daf0", "lat": 38.95628766666667, "lon": -77.02783433333333, "rental_uris": {"android": "https://dc.lft.to/lastmile_qr_scan", "ios": "https://dc.lft.to/lastmile_qr_scan"}, "is_disabled": 0, "fusion_lat": 0.0, "name": "7072b8e55c9d8481fcca3e6f0cf6daf0", "fusion_lon": 0.0}, {"is_reserved": 0, "type": "electric_scooter", "bike_id": "9f945694d628810889a85035c3a7d002", "lat": 38.9245015, "lon": -77.04401866666667, "rental_uris": {"android": "https://dc.lft.to/lastmile_qr_scan", "ios": "https://dc.lft.to/lastmile_qr_scan"}, "is_disabled": 0, "fusion_lat": 0.0, "name": "9f945694d628810889a85035c3a7d002", "fusion_lon": 0.0}, {"is_reserved": 0, "type": "electric_scooter", "bike_id": "31550bdfa87da031b965905d9aee1693", "lat": 38.8791805, "lon": -77.00581633333333, "rental_uris": {"android": "https://dc.lft.to/lastmile_qr_scan", "ios": "https://dc.lft.to/lastmile_qr_scan"}, "is_disabled": 0, "fusion_lat": 0.0, "name": "31550bdfa87da031b965905d9aee1693", "fusion_lon": 0.0}, {"is_reserved": 0, "type": "electric_scooter", "bike_id": "c243dd843fb31bf346890311f94d302f", "lat": 38.90266, "lon": -77.02718183333333, "rental_uris": {"android": "https://dc.lft.to/lastmile_qr_scan", "ios": "https://dc.lft.to/lastmile_qr_scan"}, "is_disabled": 0, "fusion_lat": 0.0, "name": "c243dd843fb31bf346890311f94d302f", "fusion_lon": 0.0}, {"is_reserved": 0, "type": "electric_scooter", "bike_id": "e5ed9f95dd70444b809f49d5302d609b", "lat": 38.9072255, "lon": -77.04755033333333, "rental_uris": {"android": "https://dc.lft.to/lastmile_qr_scan", "ios": "https://dc.lft.to/lastmile_qr_scan"}, "is_disabled": 0, "fusion_lat": 0.0, "name": "e5ed9f95dd70444b809f49d5302d609b", "fusion_lon": 0.0}, {"is_reserved": 0, "type": "electric_scooter", "bike_id": "f679de41a590794360d2198b1b0d3390", "lat": 38.914575, "lon": -77.00209916666667, "rental_uris": {"android": "https://dc.lft.to/lastmile_qr_scan", "ios": "https://dc.lft.to/lastmile_qr_scan"}, "is_disabled": 0, "fusion_lat": 0.0, "name": "f679de41a590794360d2198b1b0d3390", "fusion_lon": 0.0}, {"is_reserved": 0, "type": "electric_scooter", "bike_id": "0f41ae48bd8513ea8a1c944b768aafa4", "lat": 38.94033, "lon": -77.02640966666667, "rental_uris": {"android": "https://dc.lft.to/lastmile_qr_scan", "ios": "https://dc.lft.to/lastmile_qr_scan"}, "is_disabled": 0, "fusion_lat": 0.0, "name": "0f41ae48bd8513ea8a1c944b768aafa4", "fusion_lon": 0.0}, {"is_reserved": 0, "type": "electric_scooter", "bike_id": "654b31a3e278b3bd2e6867bab1c706c6", "lat": 38.870824666666664, "lon": -77.00837516666667, "rental_uris": {"android": "https://dc.lft.to/lastmile_qr_scan", "ios": "https://dc.lft.to/lastmile_qr_scan"}, "is_disabled": 0, "fusion_lat": 0.0, "name": "654b31a3e278b3bd2e6867bab1c706c6", "fusion_lon": 0.0}, {"is_reserved": 0, "type": "electric_scooter", "bike_id": "07781a0efc23dabefde41e95b3cea6d7", "lat": 38.903527833333335, "lon": -77.01112966666666, "rental_uris": {"android": "https://dc.lft.to/lastmile_qr_scan", "ios": "https://dc.lft.to/lastmile_qr_scan"}, "is_disabled": 0, "fusion_lat": 0.0, "name": "07781a0efc23dabefde41e95b3cea6d7", "fusion_lon": 0.0}, {"is_reserved": 0, "type": "electric_scooter", "bike_id": "b109746e9ccc4edf281fb5986f379b66", "lat": 38.93758033333334, "lon": -77.03152683333333, "rental_uris": {"android": "https://dc.lft.to/lastmile_qr_scan", "ios": "https://dc.lft.to/lastmile_qr_scan"}, "is_disabled": 0, "fusion_lat": 0.0, "name": "b109746e9ccc4edf281fb5986f379b66", "fusion_lon": 0.0}, {"is_reserved": 0, "type": "electric_bike", "bike_id": "7e35259bec1eec50b03d4f7eb61eb934", "lat": 38.886559, "lon": -77.16230366666667, "rental_uris": {"android": "https://dc.lft.to/lastmile_qr_scan", "ios": "https://dc.lft.to/lastmile_qr_scan"}, "is_disabled": 0, "fusion_lat": 0.0, "name": "7e35259bec1eec50b03d4f7eb61eb934", "fusion_lon": 0.0}, {"is_reserved": 0, "type": "electric_scooter", "bike_id": "d3de1e3619b675b26d91d8192048f0ec", "lat": 38.900574666666664, "lon": -76.98656733333334, "rental_uris": {"android": "https://dc.lft.to/lastmile_qr_scan", "ios": "https://dc.lft.to/lastmile_qr_scan"}, "is_disabled": 0, "fusion_lat": 0.0, "name": "d3de1e3619b675b26d91d8192048f0ec", "fusion_lon": 0.0}, {"is_reserved": 0, "type": "electric_scooter", "bike_id": "46137655f3be9d18fc50eeb094d34c31", "lat": 38.896468, "lon": -77.02597016666667, "rental_uris": {"android": "https://dc.lft.to/lastmile_qr_scan", "ios": "https://dc.lft.to/lastmile_qr_scan"}, "is_disabled": 0, "fusion_lat": 0.0, "name": "46137655f3be9d18fc50eeb094d34c31", "fusion_lon": 0.0}, {"is_reserved": 0, "type": "electric_scooter", "bike_id": "4025b09b0424464a0290f111c4311a47", "lat": 38.879486166666666, "lon": -77.01666133333333, "rental_uris": {"android": "https://dc.lft.to/lastmile_qr_scan", "ios": "https://dc.lft.to/lastmile_qr_scan"}, "is_disabled": 0, "fusion_lat": 0.0, "name": "4025b09b0424464a0290f111c4311a47", "fusion_lon": 0.0}, {"is_reserved": 0, "type": "electric_scooter", "bike_id": "a05c55d68ca59eded1cf409b558e0fd0", "lat": 38.919652666666664, "lon": -77.04137333333334, "rental_uris": {"android": "https://dc.lft.to/lastmile_qr_scan", "ios": "https://dc.lft.to/lastmile_qr_scan"}, "is_disabled": 0, "fusion_lat": 0.0, "name": "a05c55d68ca59eded1cf409b558e0fd0", "fusion_lon": 0.0}, {"is_reserved": 0, "type": "electric_scooter", "bike_id": "75dc1db2a33fdcde0cc3a2813a5ffae2", "lat": 38.90387183333333, "lon": -77.0329275, "rental_uris": {"android": "https://dc.lft.to/lastmile_qr_scan", "ios": "https://dc.lft.to/lastmile_qr_scan"}, "is_disabled": 0, "fusion_lat": 0.0, "name": "75dc1db2a33fdcde0cc3a2813a5ffae2", "fusion_lon": 0.0}, {"is_reserved": 0, "type": "electric_scooter", "bike_id": "e9fa951da2f05ec38a80497a928a3010", "lat": 38.907462333333335, "lon": -76.99881166666667, "rental_uris": {"android": "https://dc.lft.to/lastmile_qr_scan", "ios": "https://dc.lft.to/lastmile_qr_scan"}, "is_disabled": 0, "fusion_lat": 0.0, "name": "e9fa951da2f05ec38a80497a928a3010", "fusion_lon": 0.0}, {"is_reserved": 0, "type": "electric_scooter", "bike_id": "3de456130da74d85309d30efc1e645a0", "lat": 38.9138835, "lon": -77.04605233333334, "rental_uris": {"android": "https://dc.lft.to/lastmile_qr_scan", "ios": "https://dc.lft.to/lastmile_qr_scan"}, "is_disabled": 0, "fusion_lat": 0.0, "name": "3de456130da74d85309d30efc1e645a0", "fusion_lon": 0.0}, {"is_reserved": 0, "type": "electric_scooter", "bike_id": "ee22a9e94f217d4367aa842f46a0824c", "lat": 38.9222295, "lon": -77.02114616666667, "rental_uris": {"android": "https://dc.lft.to/lastmile_qr_scan", "ios": "https://dc.lft.to/lastmile_qr_scan"}, "is_disabled": 0, "fusion_lat": 0.0, "name": "ee22a9e94f217d4367aa842f46a0824c", "fusion_lon": 0.0}, {"is_reserved": 0, "type": "electric_scooter", "bike_id": "4c37d076da85874aa3de0ad3477c9e97", "lat": 38.9024025, "lon": -77.02931533333333, "rental_uris": {"android": "https://dc.lft.to/lastmile_qr_scan", "ios": "https://dc.lft.to/lastmile_qr_scan"}, "is_disabled": 0, "fusion_lat": 0.0, "name": "4c37d076da85874aa3de0ad3477c9e97", "fusion_lon": 0.0}, {"is_reserved": 0, "type": "electric_bike", "bike_id": "2f8741270589bfde906a7aa97d5ea2ff", "lat": 38.989127, "lon": -77.02542833333334, "rental_uris": {"android": "https://dc.lft.to/lastmile_qr_scan", "ios": "https://dc.lft.to/lastmile_qr_scan"}, "is_disabled": 0, "fusion_lat": 0.0, "name": "2f8741270589bfde906a7aa97d5ea2ff", "fusion_lon": 0.0}, {"is_reserved": 0, "type": "electric_scooter", "bike_id": "1687f2551ea3d97d22daa887276100ed", "lat": 38.92803216666667, "lon": -77.04066716666667, "rental_uris": {"android": "https://dc.lft.to/lastmile_qr_scan", "ios": "https://dc.lft.to/lastmile_qr_scan"}, "is_disabled": 0, "fusion_lat": 0.0, "name": "1687f2551ea3d97d22daa887276100ed", "fusion_lon": 0.0}, {"is_reserved": 0, "type": "electric_scooter", "bike_id": "37dbc67ab31580e74bea5dec4bc71c2b", "lat": 38.90259783333333, "lon": -77.03188883333333, "rental_uris": {"android": "https://dc.lft.to/lastmile_qr_scan", "ios": "https://dc.lft.to/lastmile_qr_scan"}, "is_disabled": 0, "fusion_lat": 0.0, "name": "37dbc67ab31580e74bea5dec4bc71c2b", "fusion_lon": 0.0}, {"is_reserved": 0, "type": "electric_scooter", "bike_id": "99000378a5ac38d05f77cad75f7183bb", "lat": 38.9152455, "lon": -77.0034265, "rental_uris": {"android": "https://dc.lft.to/lastmile_qr_scan", "ios": "https://dc.lft.to/lastmile_qr_scan"}, "is_disabled": 0, "fusion_lat": 0.0, "name": "99000378a5ac38d05f77cad75f7183bb", "fusion_lon": 0.0}, {"is_reserved": 0, "type": "electric_scooter", "bike_id": "d3cde37324376fa1e695bb20445d5631", "lat": 38.9010685, "lon": -77.03174766666666, "rental_uris": {"android": "https://dc.lft.to/lastmile_qr_scan", "ios": "https://dc.lft.to/lastmile_qr_scan"}, "is_disabled": 0, "fusion_lat": 0.0, "name": "d3cde37324376fa1e695bb20445d5631", "fusion_lon": 0.0}, {"is_reserved": 0, "type": "electric_scooter", "bike_id": "d15d50ea16699e592d0ba028fa78f96e", "lat": 38.91779966666667, "lon": -77.02977083333333, "rental_uris": {"android": "https://dc.lft.to/lastmile_qr_scan", "ios": "https://dc.lft.to/lastmile_qr_scan"}, "is_disabled": 0, "fusion_lat": 0.0, "name": "d15d50ea16699e592d0ba028fa78f96e", "fusion_lon": 0.0}, {"is_reserved": 0, "type": "electric_scooter", "bike_id": "d6972ecc7ccff0a418ee7bb83cb54273", "lat": 38.921168333333334, "lon": -77.017607, "rental_uris": {"android": "https://dc.lft.to/lastmile_qr_scan", "ios": "https://dc.lft.to/lastmile_qr_scan"}, "is_disabled": 0, "fusion_lat": 0.0, "name": "d6972ecc7ccff0a418ee7bb83cb54273", "fusion_lon": 0.0}, {"is_reserved": 0, "type": "electric_scooter", "bike_id": "2544047234b3a9de91f48145a67d4379", "lat": 38.89964333333333, "lon": -76.990337, "rental_uris": {"android": "https://dc.lft.to/lastmile_qr_scan", "ios": "https://dc.lft.to/lastmile_qr_scan"}, "is_disabled": 0, "fusion_lat": 0.0, "name": "2544047234b3a9de91f48145a67d4379", "fusion_lon": 0.0}, {"is_reserved": 0, "type": "electric_scooter", "bike_id": "a8bfbe8de02aaaf6ee094d5880bd2b33", "lat": 38.92690566666667, "lon": -77.025841, "rental_uris": {"android": "https://dc.lft.to/lastmile_qr_scan", "ios": "https://dc.lft.to/lastmile_qr_scan"}, "is_disabled": 0, "fusion_lat": 0.0, "name": "a8bfbe8de02aaaf6ee094d5880bd2b33", "fusion_lon": 0.0}, {"is_reserved": 0, "type": "electric_bike", "bike_id": "1eaabce58afad86fbba8a9584fecd79f", "lat": 38.845365, "lon": -77.07638616666667, "rental_uris": {"android": "https://dc.lft.to/lastmile_qr_scan", "ios": "https://dc.lft.to/lastmile_qr_scan"}, "is_disabled": 0, "fusion_lat": 0.0, "name": "1eaabce58afad86fbba8a9584fecd79f", "fusion_lon": 0.0}, {"is_reserved": 0, "type": "electric_bike", "bike_id": "3a5841878eb214636cb6899fbfd821b2", "lat": 38.920574333333334, "lon": -77.0331535, "rental_uris": {"android": "https://dc.lft.to/lastmile_qr_scan", "ios": "https://dc.lft.to/lastmile_qr_scan"}, "is_disabled": 0, "fusion_lat": 0.0, "name": "3a5841878eb214636cb6899fbfd821b2", "fusion_lon": 0.0}, {"is_reserved": 0, "type": "electric_scooter", "bike_id": "bb62757f8cc00486d7a81af24b742643", "lat": 38.90070033333333, "lon": -77.04868566666667, "rental_uris": {"android": "https://dc.lft.to/lastmile_qr_scan", "ios": "https://dc.lft.to/lastmile_qr_scan"}, "is_disabled": 0, "fusion_lat": 0.0, "name": "bb62757f8cc00486d7a81af24b742643", "fusion_lon": 0.0}, {"is_reserved": 0, "type": "electric_scooter", "bike_id": "9df59105a51327bef06f914918a657ae", "lat": 38.936394, "lon": -77.02441466666667, "rental_uris": {"android": "https://dc.lft.to/lastmile_qr_scan", "ios": "https://dc.lft.to/lastmile_qr_scan"}, "is_disabled": 0, "fusion_lat": 0.0, "name": "9df59105a51327bef06f914918a657ae", "fusion_lon": 0.0}, {"is_reserved": 0, "type": "electric_scooter", "bike_id": "a70bb6ccbcde7fe86a751fa791d5339b", "lat": 38.89915766666667, "lon": -77.03357983333333, "rental_uris": {"android": "https://dc.lft.to/lastmile_qr_scan", "ios": "https://dc.lft.to/lastmile_qr_scan"}, "is_disabled": 0, "fusion_lat": 0.0, "name": "a70bb6ccbcde7fe86a751fa791d5339b", "fusion_lon": 0.0}, {"is_reserved": 0, "type": "electric_scooter", "bike_id": "ab1fbdf9dbb6c35b9d2fb9b4f31f0dbb", "lat": 38.902743666666666, "lon": -77.03955966666666, "rental_uris": {"android": "https://dc.lft.to/lastmile_qr_scan", "ios": "https://dc.lft.to/lastmile_qr_scan"}, "is_disabled": 0, "fusion_lat": 0.0, "name": "ab1fbdf9dbb6c35b9d2fb9b4f31f0dbb", "fusion_lon": 0.0}, {"is_reserved": 0, "type": "electric_scooter", "bike_id": "2d39fbe55954576571dde39047a6f10b", "lat": 38.904499333333334, "lon": -77.06009533333334, "rental_uris": {"android": "https://dc.lft.to/lastmile_qr_scan", "ios": "https://dc.lft.to/lastmile_qr_scan"}, "is_disabled": 0, "fusion_lat": 0.0, "name": "2d39fbe55954576571dde39047a6f10b", "fusion_lon": 0.0}, {"is_reserved": 0, "type": "electric_scooter", "bike_id": "962c60fb2d606730b873b64cfcaf236c", "lat": 38.90018633333333, "lon": -76.99850716666667, "rental_uris": {"android": "https://dc.lft.to/lastmile_qr_scan", "ios": "https://dc.lft.to/lastmile_qr_scan"}, "is_disabled": 0, "fusion_lat": 0.0, "name": "962c60fb2d606730b873b64cfcaf236c", "fusion_lon": 0.0}, {"is_reserved": 0, "type": "electric_scooter", "bike_id": "fae1e83066a41f315df1236edd401441", "lat": 38.918887833333336, "lon": -76.96552066666666, "rental_uris": {"android": "https://dc.lft.to/lastmile_qr_scan", "ios": "https://dc.lft.to/lastmile_qr_scan"}, "is_disabled": 0, "fusion_lat": 0.0, "name": "fae1e83066a41f315df1236edd401441", "fusion_lon": 0.0}, {"is_reserved": 0, "type": "electric_bike", "bike_id": "09e0bdd5b061cf89e6976ec5e26927f1", "lat": 39.03816533333333, "lon": -77.04254133333333, "rental_uris": {"android": "https://dc.lft.to/lastmile_qr_scan", "ios": "https://dc.lft.to/lastmile_qr_scan"}, "is_disabled": 0, "fusion_lat": 0.0, "name": "09e0bdd5b061cf89e6976ec5e26927f1", "fusion_lon": 0.0}, {"is_reserved": 0, "type": "electric_scooter", "bike_id": "7b674b621e71a94d5edcbde9e89159b7", "lat": 38.88372366666667, "lon": -76.9950755, "rental_uris": {"android": "https://dc.lft.to/lastmile_qr_scan", "ios": "https://dc.lft.to/lastmile_qr_scan"}, "is_disabled": 0, "fusion_lat": 0.0, "name": "7b674b621e71a94d5edcbde9e89159b7", "fusion_lon": 0.0}, {"is_reserved": 0, "type": "electric_scooter", "bike_id": "0a8254f1e7d459e1a6c7400246d7e985", "lat": 38.92490333333333, "lon": -77.0318275, "rental_uris": {"android": "https://dc.lft.to/lastmile_qr_scan", "ios": "https://dc.lft.to/lastmile_qr_scan"}, "is_disabled": 0, "fusion_lat": 0.0, "name": "0a8254f1e7d459e1a6c7400246d7e985", "fusion_lon": 0.0}, {"is_reserved": 0, "type": "electric_bike", "bike_id": "cf7c8db8266720b450b5ba67fe02e6af", "lat": 38.959623, "lon": -76.981455, "rental_uris": {"android": "https://dc.lft.to/lastmile_qr_scan", "ios": "https://dc.lft.to/lastmile_qr_scan"}, "is_disabled": 0, "fusion_lat": 0.0, "name": "cf7c8db8266720b450b5ba67fe02e6af", "fusion_lon": 0.0}, {"is_reserved": 0, "type": "electric_scooter", "bike_id": "4a9643069f7c41c5e71e92c686b968ca", "lat": 38.879202, "lon": -77.002494, "rental_uris": {"android": "https://dc.lft.to/lastmile_qr_scan", "ios": "https://dc.lft.to/lastmile_qr_scan"}, "is_disabled": 0, "fusion_lat": 0.0, "name": "4a9643069f7c41c5e71e92c686b968ca", "fusion_lon": 0.0}, {"is_reserved": 0, "type": "electric_scooter", "bike_id": "19187648cf365053428c1e0df0ae9f30", "lat": 38.906893333333336, "lon": -77.0626255, "rental_uris": {"android": "https://dc.lft.to/lastmile_qr_scan", "ios": "https://dc.lft.to/lastmile_qr_scan"}, "is_disabled": 0, "fusion_lat": 0.0, "name": "19187648cf365053428c1e0df0ae9f30", "fusion_lon": 0.0}, {"is_reserved": 0, "type": "electric_scooter", "bike_id": "8c2fe61d9d120ab187863fe3892db914", "lat": 38.900103, "lon": -77.01117466666666, "rental_uris": {"android": "https://dc.lft.to/lastmile_qr_scan", "ios": "https://dc.lft.to/lastmile_qr_scan"}, "is_disabled": 0, "fusion_lat": 0.0, "name": "8c2fe61d9d120ab187863fe3892db914", "fusion_lon": 0.0}, {"is_reserved": 0, "type": "electric_scooter", "bike_id": "8375ea19c9cf97b85f81784e6863f3ee", "lat": 38.90362116666667, "lon": -77.03206566666667, "rental_uris": {"android": "https://dc.lft.to/lastmile_qr_scan", "ios": "https://dc.lft.to/lastmile_qr_scan"}, "is_disabled": 0, "fusion_lat": 0.0, "name": "8375ea19c9cf97b85f81784e6863f3ee", "fusion_lon": 0.0}, {"is_reserved": 0, "type": "electric_scooter", "bike_id": "bd60e6ada702e45b81ab38989a01fac7", "lat": 38.87672533333333, "lon": -77.007418, "rental_uris": {"android": "https://dc.lft.to/lastmile_qr_scan", "ios": "https://dc.lft.to/lastmile_qr_scan"}, "is_disabled": 0, "fusion_lat": 0.0, "name": "bd60e6ada702e45b81ab38989a01fac7", "fusion_lon": 0.0}, {"is_reserved": 0, "type": "electric_scooter", "bike_id": "315377a1ce7ed3f220ea4f23efc4240b", "lat": 38.918092666666666, "lon": -77.03442783333334, "rental_uris": {"android": "https://dc.lft.to/lastmile_qr_scan", "ios": "https://dc.lft.to/lastmile_qr_scan"}, "is_disabled": 0, "fusion_lat": 0.0, "name": "315377a1ce7ed3f220ea4f23efc4240b", "fusion_lon": 0.0}, {"is_reserved": 0, "type": "electric_scooter", "bike_id": "5e89a78a1a4ba55a46c4f5dba303bc2a", "lat": 38.897527333333336, "lon": -77.02593333333333, "rental_uris": {"android": "https://dc.lft.to/lastmile_qr_scan", "ios": "https://dc.lft.to/lastmile_qr_scan"}, "is_disabled": 0, "fusion_lat": 0.0, "name": "5e89a78a1a4ba55a46c4f5dba303bc2a", "fusion_lon": 0.0}, {"is_reserved": 0, "type": "electric_scooter", "bike_id": "750ceb238755c95462bae95ccee13108", "lat": 38.8989475, "lon": -77.03950766666667, "rental_uris": {"android": "https://dc.lft.to/lastmile_qr_scan", "ios": "https://dc.lft.to/lastmile_qr_scan"}, "is_disabled": 0, "fusion_lat": 0.0, "name": "750ceb238755c95462bae95ccee13108", "fusion_lon": 0.0}, {"is_reserved": 0, "type": "electric_scooter", "bike_id": "8fefb2cdc696bf4604ef73a016141a34", "lat": 38.91076016666667, "lon": -77.01623, "rental_uris": {"android": "https://dc.lft.to/lastmile_qr_scan", "ios": "https://dc.lft.to/lastmile_qr_scan"}, "is_disabled": 0, "fusion_lat": 0.0, "name": "8fefb2cdc696bf4604ef73a016141a34", "fusion_lon": 0.0}, {"is_reserved": 0, "type": "electric_scooter", "bike_id": "ed7282d22415acf78f521a6c621af06f", "lat": 38.936984, "lon": -77.05599916666667, "rental_uris": {"android": "https://dc.lft.to/lastmile_qr_scan", "ios": "https://dc.lft.to/lastmile_qr_scan"}, "is_disabled": 0, "fusion_lat": 0.0, "name": "ed7282d22415acf78f521a6c621af06f", "fusion_lon": 0.0}, {"is_reserved": 0, "type": "electric_scooter", "bike_id": "10d3fd49fb2670cc7fa3b73d25585c37", "lat": 38.89517166666667, "lon": -76.99199116666666, "rental_uris": {"android": "https://dc.lft.to/lastmile_qr_scan", "ios": "https://dc.lft.to/lastmile_qr_scan"}, "is_disabled": 0, "fusion_lat": 0.0, "name": "10d3fd49fb2670cc7fa3b73d25585c37", "fusion_lon": 0.0}, {"is_reserved": 0, "type": "electric_scooter", "bike_id": "20f774e4f791c8440754ecc775292c50", "lat": 38.908705166666664, "lon": -77.03461916666667, "rental_uris": {"android": "https://dc.lft.to/lastmile_qr_scan", "ios": "https://dc.lft.to/lastmile_qr_scan"}, "is_disabled": 0, "fusion_lat": 0.0, "name": "20f774e4f791c8440754ecc775292c50", "fusion_lon": 0.0}, {"is_reserved": 0, "type": "electric_scooter", "bike_id": "5c489c5662f32914bb902d30db5a2dff", "lat": 38.90610916666667, "lon": -77.04156, "rental_uris": {"android": "https://dc.lft.to/lastmile_qr_scan", "ios": "https://dc.lft.to/lastmile_qr_scan"}, "is_disabled": 0, "fusion_lat": 0.0, "name": "5c489c5662f32914bb902d30db5a2dff", "fusion_lon": 0.0}, {"is_reserved": 0, "type": "electric_scooter", "bike_id": "740cc950f2768ddb968ca91de9e7d200", "lat": 38.90528716666667, "lon": -77.05851666666666, "rental_uris": {"android": "https://dc.lft.to/lastmile_qr_scan", "ios": "https://dc.lft.to/lastmile_qr_scan"}, "is_disabled": 0, "fusion_lat": 0.0, "name": "740cc950f2768ddb968ca91de9e7d200", "fusion_lon": 0.0}, {"is_reserved": 0, "type": "electric_scooter", "bike_id": "dbf7e1ed0d7d3e77f584b9273c288367", "lat": 38.926194333333335, "lon": -77.05647133333333, "rental_uris": {"android": "https://dc.lft.to/lastmile_qr_scan", "ios": "https://dc.lft.to/lastmile_qr_scan"}, "is_disabled": 0, "fusion_lat": 0.0, "name": "dbf7e1ed0d7d3e77f584b9273c288367", "fusion_lon": 0.0}, {"is_reserved": 0, "type": "electric_scooter", "bike_id": "7dd95f58fdd79c26637b0d4b163a4f82", "lat": 38.91613983333333, "lon": -77.04867116666667, "rental_uris": {"android": "https://dc.lft.to/lastmile_qr_scan", "ios": "https://dc.lft.to/lastmile_qr_scan"}, "is_disabled": 0, "fusion_lat": 0.0, "name": "7dd95f58fdd79c26637b0d4b163a4f82", "fusion_lon": 0.0}, {"is_reserved": 0, "type": "electric_scooter", "bike_id": "01c0c13081736f93b85c12349be0d86f", "lat": 38.91375033333333, "lon": -77.0269335, "rental_uris": {"android": "https://dc.lft.to/lastmile_qr_scan", "ios": "https://dc.lft.to/lastmile_qr_scan"}, "is_disabled": 0, "fusion_lat": 0.0, "name": "01c0c13081736f93b85c12349be0d86f", "fusion_lon": 0.0}, {"is_reserved": 0, "type": "electric_scooter", "bike_id": "378ebb989c519b61ba30216395598e97", "lat": 38.877603666666666, "lon": -76.99535933333334, "rental_uris": {"android": "https://dc.lft.to/lastmile_qr_scan", "ios": "https://dc.lft.to/lastmile_qr_scan"}, "is_disabled": 0, "fusion_lat": 0.0, "name": "378ebb989c519b61ba30216395598e97", "fusion_lon": 0.0}, {"is_reserved": 0, "type": "electric_scooter", "bike_id": "e0d748583bcdff25057f181aca35d1e3", "lat": 38.95283833333333, "lon": -77.06841683333333, "rental_uris": {"android": "https://dc.lft.to/lastmile_qr_scan", "ios": "https://dc.lft.to/lastmile_qr_scan"}, "is_disabled": 0, "fusion_lat": 0.0, "name": "e0d748583bcdff25057f181aca35d1e3", "fusion_lon": 0.0}, {"is_reserved": 0, "type": "electric_scooter", "bike_id": "058feab74bacb5554dcdd3dcc3c4476d", "lat": 38.92458883333333, "lon": -77.00890766666667, "rental_uris": {"android": "https://dc.lft.to/lastmile_qr_scan", "ios": "https://dc.lft.to/lastmile_qr_scan"}, "is_disabled": 0, "fusion_lat": 0.0, "name": "058feab74bacb5554dcdd3dcc3c4476d", "fusion_lon": 0.0}, {"is_reserved": 0, "type": "electric_scooter", "bike_id": "444c433d1f59e2cf4f2e38b59ed01d63", "lat": 38.893480333333336, "lon": -77.01168433333333, "rental_uris": {"android": "https://dc.lft.to/lastmile_qr_scan", "ios": "https://dc.lft.to/lastmile_qr_scan"}, "is_disabled": 0, "fusion_lat": 0.0, "name": "444c433d1f59e2cf4f2e38b59ed01d63", "fusion_lon": 0.0}, {"is_reserved": 0, "type": "electric_scooter", "bike_id": "6df51f6b5971b49241b3e5ba99e46c41", "lat": 38.9103425, "lon": -77.03084883333334, "rental_uris": {"android": "https://dc.lft.to/lastmile_qr_scan", "ios": "https://dc.lft.to/lastmile_qr_scan"}, "is_disabled": 0, "fusion_lat": 0.0, "name": "6df51f6b5971b49241b3e5ba99e46c41", "fusion_lon": 0.0}, {"is_reserved": 0, "type": "electric_scooter", "bike_id": "20f6002923ce8ac02be2baa6c515df5f", "lat": 38.905996333333334, "lon": -77.06419316666667, "rental_uris": {"android": "https://dc.lft.to/lastmile_qr_scan", "ios": "https://dc.lft.to/lastmile_qr_scan"}, "is_disabled": 0, "fusion_lat": 0.0, "name": "20f6002923ce8ac02be2baa6c515df5f", "fusion_lon": 0.0}, {"is_reserved": 0, "type": "electric_scooter", "bike_id": "4e892e1b564d27509e55f76be1a50f93", "lat": 38.907401, "lon": -77.00273116666666, "rental_uris": {"android": "https://dc.lft.to/lastmile_qr_scan", "ios": "https://dc.lft.to/lastmile_qr_scan"}, "is_disabled": 0, "fusion_lat": 0.0, "name": "4e892e1b564d27509e55f76be1a50f93", "fusion_lon": 0.0}, {"is_reserved": 0, "type": "electric_scooter", "bike_id": "e356fe6db3bb998c822a80b4d557a6ea", "lat": 38.893879166666665, "lon": -77.029767, "rental_uris": {"android": "https://dc.lft.to/lastmile_qr_scan", "ios": "https://dc.lft.to/lastmile_qr_scan"}, "is_disabled": 0, "fusion_lat": 0.0, "name": "e356fe6db3bb998c822a80b4d557a6ea", "fusion_lon": 0.0},