{"data": {"bikes": [{"rental_uris": {"android": "https://dc.lft.to/lastmile_qr_scan", "ios": "https://dc.lft.to/lastmile_qr_scan"}, "fusion_lat": 0.0, "is_reserved": 0, "lat": 38.92173533333333, "name": "cef3102d88c1ef89e31f4024169b0b65", "bike_id": "cef3102d88c1ef89e31f4024169b0b65", "is_disabled": 0, "fusion_lon": 0.0, "type": "electric_scooter", "lon": -77.02664583333333}, {"rental_uris": {"android": "https://dc.lft.to/lastmile_qr_scan", "ios": "https://dc.lft.to/lastmile_qr_scan"}, "fusion_lat": 0.0, "is_reserved": 0, "lat": 38.894862, "name": "41e22e373f70e038a82af62a19b5638b", "bike_id": "41e22e373f70e038a82af62a19b5638b", "is_disabled": 0, "fusion_lon": 0.0, "type": "electric_scooter", "lon": -76.99576466666667}, {"rental_uris": {"android": "https://dc.lft.to/lastmile_qr_scan", "ios": "https://dc.lft.to/lastmile_qr_scan"}, "fusion_lat": 0.0, "is_reserved": 0, "lat": 38.891249333333334, "name": "cf281231b2cda5f67c21a02b95ec826d", "bike_id": "cf281231b2cda5f67c21a02b95ec826d", "is_disabled": 0, "fusion_lon": 0.0, "type": "electric_scooter", "lon": -76.99938366666666}, {"rental_uris": {"android": "https://dc.lft.to/lastmile_qr_scan", "ios": "https://dc.lft.to/lastmile_qr_scan"}, "fusion_lat": 0.0, "is_reserved": 0, "lat": 38.9450465, "name": "22fd5d8ffaaf67611c7315388242b768", "bike_id": "22fd5d8ffaaf67611c7315388242b768", "is_disabled": 0, "fusion_lon": 0.0, "type": "electric_bike", "lon": -77.00505516666666}, {"rental_uris": {"android": "https://dc.lft.to/lastmile_qr_scan", "ios": "https://dc.lft.to/lastmile_qr_scan"}, "fusion_lat": 0.0, "is_reserved": 0, "lat": 38.86490966666667, "name": "e6681d3e735e16c0c59be0c4d0517f97", "bike_id": "e6681d3e735e16c0c59be0c4d0517f97", "is_disabled": 0, "fusion_lon": 0.0, "type": "electric_scooter", "lon": -76.97747166666667}, {"rental_uris": {"android": "https://dc.lft.to/lastmile_qr_scan", "ios": "https://dc.lft.to/lastmile_qr_scan"}, "fusion_lat": 0.0, "is_reserved": 0, "lat": 38.91921683333333, "name": "cdf7fb6b0d75b0230a33c12fdba379c5", "bike_id": "cdf7fb6b0d75b0230a33c12fdba379c5", "is_disabled": 0, "fusion_lon": 0.0, "type": "electric_scooter", "lon": -77.02392766666667}, {"rental_uris": {"android": "https://dc.lft.to/lastmile_qr_scan", "ios": "https://dc.lft.to/lastmile_qr_scan"}, "fusion_lat": 0.0, "is_reserved": 0, "lat": 38.89354933333333, "name": "4fd077d33aaee80c531f532af955b924", "bike_id": "4fd077d33aaee80c531f532af955b924", "is_disabled": 0, "fusion_lon": 0.0, "type": "electric_scooter", "lon": -77.01745816666667}, {"rental_uris": {"android": "https://dc.lft.to/lastmile_qr_scan", "ios": "https://dc.lft.to/lastmile_qr_scan"}, "fusion_lat": 0.0, "is_reserved": 0, "lat": 38.93597616666667, "name": "187f0b45305d45a3141be5087b892ec1", "bike_id": "187f0b45305d45a3141be5087b892ec1", "is_disabled": 0, "fusion_lon": 0.0, "type": "electric_scooter", "lon": -77.03369483333333}, {"rental_uris": {"android": "https://dc.lft.to/lastmile_qr_scan", "ios": "https://dc.lft.to/lastmile_qr_scan"}, "fusion_lat": 0.0, "is_reserved": 0, "lat": 38.9003755, "name": "47397d031ce0dd730dbe9418b6bade14", "bike_id": "47397d031ce0dd730dbe9418b6bade14", "is_disabled": 0, "fusion_lon": 0.0, "type": "electric_scooter", "lon": -76.98828916666666}, {"rental_uris": {"android": "https://dc.lft.to/lastmile_qr_scan", "ios": "https://dc.lft.to/lastmile_qr_scan"}, "fusion_lat": 0.0, "is_reserved": 0, "lat": 38.917616, "name": "0798f7c016d9a523cded4742047fdc83", "bike_id": "0798f7c016d9a523cded4742047fdc83", "is_disabled": 0, "fusion_lon": 0.0, "type": "electric_scooter", "lon": -77.02800383333333}, {"rental_uris": {"android": "https://dc.lft.to/lastmile_qr_scan", "ios": "https://dc.lft.to/lastmile_qr_scan"}, "fusion_lat": 0.0, "is_reserved": 0, "lat": 38.926139166666665, "name": "6559e9211bf47f48cadb47836918ff67", "bike_id": "6559e9211bf47f48cadb47836918ff67", "is_disabled": 0, "fusion_lon": 0.0, "type": "electric_scooter", "lon": -77.02159833333333}, {"rental_uris": {"android": "https://dc.lft.to/lastmile_qr_scan", "ios": "https://dc.lft.to/lastmile_qr_scan"}, "fusion_lat": 0.0, "is_reserved": 0, "lat": 38.89536433333333, "name": "96c4d6e00b067acd516d503ba5d2dace", "bike_id": "96c4d6e00b067acd516d503ba5d2dace", "is_disabled": 0, "fusion_lon": 0.0, "type": "electric_scooter", "lon": -76.92775766666666}, {"rental_uris": {"android": "https://dc.lft.to/lastmile_qr_scan", "ios": "https://dc.lft.to/lastmile_qr_scan"}, "fusion_lat": 0.0, "is_reserved": 0, "lat": 38.92483216666667, "name": "9f6970532026d703283893278d55af45", "bike_id": "9f6970532026d703283893278d55af45", "is_disabled": 0, "fusion_lon": 0.0, "type": "electric_scooter", "lon": -77.03719616666666}, {"rental_uris": {"android": "https://dc.lft.to/lastmile_qr_scan", "ios": "https://dc.lft.to/lastmile_qr_scan"}, "fusion_lat": 0.0, "is_reserved": 0, "lat": 38.9472405, "name": "fd284f3784e345500cca397f51518b8b", "bike_id": "fd284f3784e345500cca397f51518b8b", "is_disabled": 0, "fusion_lon": 0.0, "type": "electric_scooter", "lon": -77.03305833333333}, {"rental_uris": {"android": "https://dc.lft.to/lastmile_qr_scan", "ios": "https://dc.lft.to/lastmile_qr_scan"}, "fusion_lat": 0.0, "is_reserved": 0, "lat": 38.953912, "name": "2198d6d7dda6ab27cb6f5776e241f2aa", "bike_id": "2198d6d7dda6ab27cb6f5776e241f2aa", "is_disabled": 0, "fusion_lon": 0.0, "type": "electric_scooter", "lon": -77.00644216666667}, {"rental_uris": {"android": "https://dc.lft.to/lastmile_qr_scan", "ios": "https://dc.lft.to/lastmile_qr_scan"}, "fusion_lat": 0.0, "is_reserved": 0, "lat": 38.917793333333336, "name": "0afe7dd5af6031e99aa87374cfee0ecf", "bike_id": "0afe7dd5af6031e99aa87374cfee0ecf", "is_disabled": 0, "fusion_lon": 0.0, "type": "electric_scooter", "lon": -77.03191466666667}, {"rental_uris": {"android": "https://dc.lft.to/lastmile_qr_scan", "ios": "https://dc.lft.to/lastmile_qr_scan"}, "fusion_lat": 0.0, "is_reserved": 0, "lat": 38.886618166666665, "name": "453fe009018cb372f508320df7deaba0", "bike_id": "453fe009018cb372f508320df7deaba0", "is_disabled": 0, "fusion_lon": 0.0, "type": "electric_scooter", "lon": -77.03187483333333}, {"rental_uris": {"android": "https://dc.lft.to/lastmile_qr_scan", "ios": "https://dc.lft.to/lastmile_qr_scan"}, "fusion_lat": 0.0, "is_reserved": 0, "lat": 38.914153666666664, "name": "a5d2a1c9818b2f92b7a21c91d0c0b20e", "bike_id": "a5d2a1c9818b2f92b7a21c91d0c0b20e", "is_disabled": 0, "fusion_lon": 0.0, "type": "electric_scooter", "lon": -77.03099383333333}, {"rental_uris": {"android": "https://dc.lft.to/lastmile_qr_scan", "ios": "https://dc.lft.to/lastmile_qr_scan"}, "fusion_lat": 0.0, "is_reserved": 0, "lat": 38.904063666666666, "name": "5eece50ff262b52b459c2b742cd8f235", "bike_id": "5eece50ff262b52b459c2b742cd8f235", "is_disabled": 0, "fusion_lon": 0.0, "type": "electric_scooter", "lon": -76.9735125}, {"rental_uris": {"android": "https://dc.lft.to/lastmile_qr_scan", "ios": "https://dc.lft.to/lastmile_qr_scan"}, "fusion_lat": 0.0, "is_reserved": 0, "lat": 38.91460283333333, "name": "1de153a4a41d1798110ca5e46778488f", "bike_id": "1de153a4a41d1798110ca5e46778488f", "is_disabled": 0, "fusion_lon": 0.0, "type": "electric_scooter", "lon": -77.0417335}, {"rental_uris": {"android": "https://dc.lft.to/lastmile_qr_scan", "ios": "https://dc.lft.to/lastmile_qr_scan"}, "fusion_lat": 0.0, "is_reserved": 0, "lat": 38.96675416666667, "name": "40fa56a1249e0adb7071b6e09082317d", "bike_id": "40fa56a1249e0adb7071b6e09082317d", "is_disabled": 0, "fusion_lon": 0.0, "type": "electric_scooter", "lon": -77.03608183333333}, {"rental_uris": {"android": "https://dc.lft.to/lastmile_qr_scan", "ios": "https://dc.lft.to/lastmile_qr_scan"}, "fusion_lat": 0.0, "is_reserved": 0, "lat": 38.89544333333333, "name": "34df94836d7d97b26426de541a1c4235", "bike_id": "34df94836d7d97b26426de541a1c4235", "is_disabled": 0, "fusion_lon": 0.0, "type": "electric_scooter", "lon": -76.98336266666666}, {"rental_uris": {"android": "https://dc.lft.to/lastmile_qr_scan", "ios": "https://dc.lft.to/lastmile_qr_scan"}, "fusion_lat": 0.0, "is_reserved": 0, "lat": 38.909011, "name": "317e34585e3a98bfbc8f57c068173115", "bike_id": "317e34585e3a98bfbc8f57c068173115", "is_disabled": 0, "fusion_lon": 0.0, "type": "electric_scooter", "lon": -76.99865266666667}, {"rental_uris": {"android": "https://dc.lft.to/lastmile_qr_scan", "ios": "https://dc.lft.to/lastmile_qr_scan"}, "fusion_lat": 0.0, "is_reserved": 0, "lat": 38.9518655, "name": "181f73125c40353f6cbc4fd7f52e3c2e", "bike_id": "181f73125c40353f6cbc4fd7f52e3c2e", "is_disabled": 0, "fusion_lon": 0.0, "type": "electric_scooter", "lon": -77.01268583333334}, {"rental_uris": {"android": "https://dc.lft.to/lastmile_qr_scan", "ios": "https://dc.lft.to/lastmile_qr_scan"}, "fusion_lat": 0.0, "is_reserved": 0, "lat": 38.8602005, "name": "b9d5680792f853447dadde333a87493a", "bike_id": "b9d5680792f853447dadde333a87493a", "is_disabled": 0, "fusion_lon": 0.0, "type": "electric_scooter", "lon": -76.97001216666666}, {"rental_uris": {"android": "https://dc.lft.to/lastmile_qr_scan", "ios": "https://dc.lft.to/lastmile_qr_scan"}, "fusion_lat": 0.0, "is_reserved": 0, "lat": 38.8985795, "name": "e1ee82e9c33ef3ba8496fb9c213b4ed7", "bike_id": "e1ee82e9c33ef3ba8496fb9c213b4ed7", "is_disabled": 0, "fusion_lon": 0.0, "type": "electric_scooter", "lon": -77.0271845}, {"rental_uris": {"android": "https://dc.lft.to/lastmile_qr_scan", "ios": "https://dc.lft.to/lastmile_qr_scan"}, "fusion_lat": 0.0, "is_reserved": 0, "lat": 38.924276166666665, "name": "f535427c7e2e134ba9da8c32d85277d4", "bike_id": "f535427c7e2e134ba9da8c32d85277d4", "is_disabled": 0, "fusion_lon": 0.0, "type": "electric_scooter", "lon": -77.03624533333333}, {"rental_uris": {"android": "https://dc.lft.to/lastmile_qr_scan", "ios": "https://dc.lft.to/lastmile_qr_scan"}, "fusion_lat": 0.0, "is_reserved": 0, "lat": 38.95542833333333, "name": "002dbb90e5e2c0cf142bcfa00a11e483", "bike_id": "002dbb90e5e2c0cf142bcfa00a11e483", "is_disabled": 0, "fusion_lon": 0.0, "type": "electric_scooter", "lon": -76.99572183333333}, {"rental_uris": {"android": "https://dc.lft.to/lastmile_qr_scan", "ios": "https://dc.lft.to/lastmile_qr_scan"}, "fusion_lat": 0.0, "is_reserved": 0, "lat": 38.90047366666667, "name": "1cb80944451404e136ef850880f1db80", "bike_id": "1cb80944451404e136ef850880f1db80", "is_disabled": 0, "fusion_lon": 0.0, "type": "electric_scooter", "lon": -77.00217783333333}, {"rental_uris": {"android": "https://dc.lft.to/lastmile_qr_scan", "ios": "https://dc.lft.to/lastmile_qr_scan"}, "fusion_lat": 0.0, "is_reserved": 0, "lat": 38.9127795, "name": "0ea342526fccc953ed7097285e2ed3cb", "bike_id": "0ea342526fccc953ed7097285e2ed3cb", "is_disabled": 0, "fusion_lon": 0.0, "type": "electric_scooter", "lon": -77.02210183333334}, {"rental_uris": {"android": "https://dc.lft.to/lastmile_qr_scan", "ios": "https://dc.lft.to/lastmile_qr_scan"}, "fusion_lat": 0.0, "is_reserved": 0, "lat": 38.902415500000004, "name": "a89a6909aacc8d69b313b78ab53e7916", "bike_id": "a89a6909aacc8d69b313b78ab53e7916", "is_disabled": 0, "fusion_lon": 0.0, "type": "electric_scooter", "lon": -77.03579916666666}, {"rental_uris": {"android": "https://dc.lft.to/lastmile_qr_scan", "ios": "https://dc.lft.to/lastmile_qr_scan"}, "fusion_lat": 0.0, "is_reserved": 0, "lat": 38.895356, "name": "07909b4419ba7c47447e07081cb949ea", "bike_id": "07909b4419ba7c47447e07081cb949ea", "is_disabled": 0, "fusion_lon": 0.0, "type": "electric_scooter", "lon": -77.03355266666667}, {"rental_uris": {"android": "https://dc.lft.to/lastmile_qr_scan", "ios": "https://dc.lft.to/lastmile_qr_scan"}, "fusion_lat": 0.0, "is_reserved": 0, "lat": 38.85709583333333, "name": "488aa1b96027c33bebab58b146cfce50", "bike_id": "488aa1b96027c33bebab58b146cfce50", "is_disabled": 0, "fusion_lon": 0.0, "type": "electric_scooter", "lon": -76.97167783333333}, {"rental_uris": {"android": "https://dc.lft.to/lastmile_qr_scan", "ios": "https://dc.lft.to/lastmile_qr_scan"}, "fusion_lat": 0.0, "is_reserved": 0, "lat": 38.891027666666666, "name": "c140a8d77eecb17c70a2355e10784848", "bike_id": "c140a8d77eecb17c70a2355e10784848", "is_disabled": 0, "fusion_lon": 0.0, "type": "electric_scooter", "lon": -77.00211583333333}, {"rental_uris": {"android": "https://dc.lft.to/lastmile_qr_scan", "ios": "https://dc.lft.to/lastmile_qr_scan"}, "fusion_lat": 0.0, "is_reserved": 0, "lat": 38.9497975, "name": "fb5ba1fc5c2097fb4082fb56848b4c48", "bike_id": "fb5ba1fc5c2097fb4082fb56848b4c48", "is_disabled": 0, "fusion_lon": 0.0, "type": "electric_scooter", "lon": -77.024535}, {"rental_uris": {"android": "https://dc.lft.to/lastmile_qr_scan", "ios": "https://dc.lft.to/lastmile_qr_scan"}, "fusion_lat": 0.0, "is_reserved": 0, "lat": 38.923460666666664, "name": "5451576bf218f0c4ad3039a92ce431d2", "bike_id": "5451576bf218f0c4ad3039a92ce431d2", "is_disabled": 0, "fusion_lon": 0.0, "type": "electric_scooter", "lon": -77.05091866666666}, {"rental_uris": {"android": "https://dc.lft.to/lastmile_qr_scan", "ios": "https://dc.lft.to/lastmile_qr_scan"}, "fusion_lat": 0.0, "is_reserved": 0, "lat": 38.92463016666667, "name": "d6575770fa9866ff66542dc3e7c6e760", "bike_id": "d6575770fa9866ff66542dc3e7c6e760", "is_disabled": 0, "fusion_lon": 0.0, "type": "electric_scooter", "lon": -77.02694233333334}, {"rental_uris": {"android": "https://dc.lft.to/lastmile_qr_scan", "ios": "https://dc.lft.to/lastmile_qr_scan"}, "fusion_lat": 0.0, "is_reserved": 0, "lat": 38.90591333333333, "name": "add9315121b692ace7489fecc4afbb30", "bike_id": "add9315121b692ace7489fecc4afbb30", "is_disabled": 0, "fusion_lon": 0.0, "type": "electric_scooter", "lon": -77.04550116666667}, {"rental_uris": {"android": "https://dc.lft.to/lastmile_qr_scan", "ios": "https://dc.lft.to/lastmile_qr_scan"}, "fusion_lat": 0.0, "is_reserved": 0, "lat": 38.9397265, "name": "fe70764b282bc3c12c14811511265cdf", "bike_id": "fe70764b282bc3c12c14811511265cdf", "is_disabled": 0, "fusion_lon": 0.0, "type": "electric_scooter", "lon": -77.02518566666667}, {"rental_uris": {"android": "https://dc.lft.to/lastmile_qr_scan", "ios": "https://dc.lft.to/lastmile_qr_scan"}, "fusion_lat": 0.0, "is_reserved": 0, "lat": 38.8867615, "name": "a1c556099ec53f17a5c76093a0396ae9", "bike_id": "a1c556099ec53f17a5c76093a0396ae9", "is_disabled": 0, "fusion_lon": 0.0, "type": "electric_scooter", "lon": -77.0019835}, {"rental_uris": {"android": "https://dc.lft.to/lastmile_qr_scan", "ios": "https://dc.lft.to/lastmile_qr_scan"}, "fusion_lat": 0.0, "is_reserved": 0, "lat": 38.917103166666664, "name": "312c68fb1a67e5ddc4e257dc7bb33f3f", "bike_id": "312c68fb1a67e5ddc4e257dc7bb33f3f", "is_disabled": 0, "fusion_lon": 0.0, "type": "electric_scooter", "lon": -77.03469}, {"rental_uris": {"android": "https://dc.lft.to/lastmile_qr_scan", "ios": "https://dc.lft.to/lastmile_qr_scan"}, "fusion_lat": 0.0, "is_reserved": 0, "lat": 38.9098755, "name": "6cd4cb513d2f323894f19118846f941e", "bike_id": "6cd4cb513d2f323894f19118846f941e", "is_disabled": 0, "fusion_lon": 0.0, "type": "electric_scooter", "lon": -77.02386783333333}, {"rental_uris": {"android": "https://dc.lft.to/lastmile_qr_scan", "ios": "https://dc.lft.to/lastmile_qr_scan"}, "fusion_lat": 0.0, "is_reserved": 0, "lat": 38.896239666666666, "name": "503675b7e8409df713faf1c769814732", "bike_id": "503675b7e8409df713faf1c769814732", "is_disabled": 0, "fusion_lon": 0.0, "type": "electric_scooter", "lon": -76.99854283333333}, {"rental_uris": {"android": "https://dc.lft.to/lastmile_qr_scan", "ios": "https://dc.lft.to/lastmile_qr_scan"}, "fusion_lat": 0.0, "is_reserved": 0, "lat": 38.925072, "name": "de6c60022f1e4d807be98f2c6fd46883", "bike_id": "de6c60022f1e4d807be98f2c6fd46883", "is_disabled": 0, "fusion_lon": 0.0, "type": "electric_scooter", "lon": -77.0227695}, {"rental_uris": {"android": "https://dc.lft.to/lastmile_qr_scan", "ios": "https://dc.lft.to/lastmile_qr_scan"}, "fusion_lat": 0.0, "is_reserved": 0, "lat": 38.9207805, "name": "5ed1c24bed9d39585c76014b30852614", "bike_id": "5ed1c24bed9d39585c76014b30852614", "is_disabled": 0, "fusion_lon": 0.0, "type": "electric_scooter", "lon": -77.02314683333333}, {"rental_uris": {"android": "https://dc.lft.to/lastmile_qr_scan", "ios": "https://dc.lft.to/lastmile_qr_scan"}, "fusion_lat": 0.0, "is_reserved": 0, "lat": 38.91890033333333, "name": "39629f38404d874ccdb5a31480784a0a", "bike_id": "39629f38404d874ccdb5a31480784a0a", "is_disabled": 0, "fusion_lon": 0.0, "type": "electric_scooter", "lon": -77.00335933333334}, {"rental_uris": {"android": "https://dc.lft.to/lastmile_qr_scan", "ios": "https://dc.lft.to/lastmile_qr_scan"}, "fusion_lat": 0.0, "is_reserved": 0, "lat": 38.9245915, "name": "972e36547226f2ffc0a2a87a420b0f83", "bike_id": "972e36547226f2ffc0a2a87a420b0f83", "is_disabled": 0, "fusion_lon": 0.0, "type": "electric_scooter", "lon": -76.99910416666667}, {"rental_uris": {"android": "https://dc.lft.to/lastmile_qr_scan", "ios": "https://dc.lft.to/lastmile_qr_scan"}, "fusion_lat": 0.0, "is_reserved": 0, "lat": 38.868750666666664, "name": "3f479fcf675e0c34cbccd84e998734ac", "bike_id": "3f479fcf675e0c34cbccd84e998734ac", "is_disabled": 0, "fusion_lon": 0.0, "type": "electric_scooter", "lon": -76.98661766666666}, {"rental_uris": {"android": "https://dc.lft.to/lastmile_qr_scan", "ios": "https://dc.lft.to/lastmile_qr_scan"}, "fusion_lat": 0.0, "is_reserved": 0, "lat": 38.875775, "name": "b1318f3b685c182b6165ca09e2dc1a9f", "bike_id": "b1318f3b685c182b6165ca09e2dc1a9f", "is_disabled": 0, "fusion_lon": 0.0, "type": "electric_scooter", "lon": -77.01995383333333}, {"rental_uris": {"android": "https://dc.lft.to/lastmile_qr_scan", "ios": "https://dc.lft.to/lastmile_qr_scan"}, "fusion_lat": 0.0, "is_reserved": 0, "lat": 38.919271333333334, "name": "1f719da5dc5780c72010079ecb531bc1", "bike_id": "1f719da5dc5780c72010079ecb531bc1", "is_disabled": 0, "fusion_lon": 0.0, "type": "electric_scooter", "lon": -77.034203}, {"rental_uris": {"android": "https://dc.lft.to/lastmile_qr_scan", "ios": "https://dc.lft.to/lastmile_qr_scan"}, "fusion_lat": 0.0, "is_reserved": 0, "lat": 38.923912333333334, "name": "bd976ff43a25cb124885816ae72ee333", "bike_id": "bd976ff43a25cb124885816ae72ee333", "is_disabled": 0, "fusion_lon": 0.0, "type": "electric_scooter", "lon": -77.02498266666667}, {"rental_uris": {"android": "https://dc.lft.to/lastmile_qr_scan", "ios": "https://dc.lft.to/lastmile_qr_scan"}, "fusion_lat": 0.0, "is_reserved": 0, "lat": 38.957643, "name": "9edacdaf2ef64b3ad19ff5f24114316b", "bike_id": "9edacdaf2ef64b3ad19ff5f24114316b", "is_disabled": 0, "fusion_lon": 0.0, "type": "electric_scooter", "lon": -77.01493416666666}, {"rental_uris": {"android": "https://dc.lft.to/lastmile_qr_scan", "ios": "https://dc.lft.to/lastmile_qr_scan"}, "fusion_lat": 0.0, "is_reserved": 0, "lat": 38.89223766666667, "name": "34d2289c803b14b9c1e0c5c8f8e85c2a", "bike_id": "34d2289c803b14b9c1e0c5c8f8e85c2a", "is_disabled": 0, "fusion_lon": 0.0, "type": "electric_scooter", "lon": -77.03983516666666}, {"rental_uris": {"android": "https://dc.lft.to/lastmile_qr_scan", "ios": "https://dc.lft.to/lastmile_qr_scan"}, "fusion_lat": 0.0, "is_reserved": 0, "lat": 38.90387116666667, "name": "081b7e92939c7b99cd57a4e40d84e527", "bike_id": "081b7e92939c7b99cd57a4e40d84e527", "is_disabled": 0, "fusion_lon": 0.0, "type": "electric_scooter", "lon": -76.98106766666666}, {"rental_uris": {"android": "https://dc.lft.to/lastmile_qr_scan", "ios": "https://dc.lft.to/lastmile_qr_scan"}, "fusion_lat": 0.0, "is_reserved": 0, "lat": 38.87680733333333, "name": "866a92e5e2580f9ba1e87f493fba3387", "bike_id": "866a92e5e2580f9ba1e87f493fba3387", "is_disabled": 0, "fusion_lon": 0.0, "type": "electric_scooter", "lon": -77.01968833333333}, {"rental_uris": {"android": "https://dc.lft.to/lastmile_qr_scan", "ios": "https://dc.lft.to/lastmile_qr_scan"}, "fusion_lat": 0.0, "is_reserved": 0, "lat": 38.92476716666667, "name": "a85ca7af8524b1c1000e7c3e7dbabd5a", "bike_id": "a85ca7af8524b1c1000e7c3e7dbabd5a", "is_disabled": 0, "fusion_lon": 0.0, "type": "electric_scooter", "lon": -77.0304405}, {"rental_uris": {"android": "https://dc.lft.to/lastmile_qr_scan", "ios": "https://dc.lft.to/lastmile_qr_scan"}, "fusion_lat": 0.0, "is_reserved": 0, "lat": 38.92761183333333, "name": "40329490faaf2856f82c8b9cd0ed1396", "bike_id": "40329490faaf2856f82c8b9cd0ed1396", "is_disabled": 0, "fusion_lon": 0.0, "type": "electric_scooter", "lon": -77.06886533333333}, {"rental_uris": {"android": "https://dc.lft.to/lastmile_qr_scan", "ios": "https://dc.lft.to/lastmile_qr_scan"}, "fusion_lat": 0.0, "is_reserved": 0, "lat": 38.915539, "name": "3cba6bc21ccaec4aea83a5949ddf0878", "bike_id": "3cba6bc21ccaec4aea83a5949ddf0878", "is_disabled": 0, "fusion_lon": 0.0, "type": "electric_scooter", "lon": -77.024395}, {"rental_uris": {"android": "https://dc.lft.to/lastmile_qr_scan", "ios": "https://dc.lft.to/lastmile_qr_scan"}, "fusion_lat": 0.0, "is_reserved": 0, "lat": 38.9074295, "name": "f43b40bfcc5477a033077007f48468d4", "bike_id": "f43b40bfcc5477a033077007f48468d4", "is_disabled": 0, "fusion_lon": 0.0, "type": "electric_scooter", "lon": -76.997386}, {"rental_uris": {"android": "https://dc.lft.to/lastmile_qr_scan", "ios": "https://dc.lft.to/lastmile_qr_scan"}, "fusion_lat": 0.0, "is_reserved": 0, "lat": 38.878403666666664, "name": "7fd0498902eb3901ccb7e99b23e11003", "bike_id": "7fd0498902eb3901ccb7e99b23e11003", "is_disabled": 0, "fusion_lon": 0.0, "type": "electric_scooter", "lon": -77.02244833333333}, {"rental_uris": {"android": "https://dc.lft.to/lastmile_qr_scan", "ios": "https://dc.lft.to/lastmile_qr_scan"}, "fusion_lat": 0.0, "is_reserved": 0, "lat": 38.92639283333333, "name": "63d5b914a33659a4b4257d1a02d2b3b3", "bike_id": "63d5b914a33659a4b4257d1a02d2b3b3", "is_disabled": 0, "fusion_lon": 0.0, "type": "electric_scooter", "lon": -77.03465533333333}, {"rental_uris": {"android": "https://dc.lft.to/lastmile_qr_scan", "ios": "https://dc.lft.to/lastmile_qr_scan"}, "fusion_lat": 0.0, "is_reserved": 0, "lat": 38.9277495, "name": "0efba2f34060fd1aa45cdd8e9ac06e5b", "bike_id": "0efba2f34060fd1aa45cdd8e9ac06e5b", "is_disabled": 0, "fusion_lon": 0.0, "type": "electric_scooter", "lon": -77.02703566666666}, {"rental_uris": {"android": "https://dc.lft.to/lastmile_qr_scan", "ios": "https://dc.lft.to/lastmile_qr_scan"}, "fusion_lat": 0.0, "is_reserved": 0, "lat": 38.902513, "name": "0789d40dd93860346220f40f404cb84a", "bike_id": "0789d40dd93860346220f40f404cb84a", "is_disabled": 0, "fusion_lon": 0.0, "type": "electric_scooter", "lon": -77.00599566666666}, {"rental_uris": {"android": "https://dc.lft.to/lastmile_qr_scan", "ios": "https://dc.lft.to/lastmile_qr_scan"}, "fusion_lat": 0.0, "is_reserved": 0, "lat": 38.8942645, "name": "e75fea0c1a810e79957e7f064024a452", "bike_id": "e75fea0c1a810e79957e7f064024a452", "is_disabled": 0, "fusion_lon": 0.0, "type": "electric_scooter", "lon": -77.020948}, {"rental_uris": {"android": "https://dc.lft.to/lastmile_qr_scan", "ios": "https://dc.lft.to/lastmile_qr_scan"}, "fusion_lat": 0.0, "is_reserved": 0, "lat": 38.904376666666664, "name": "4eba466a735e78562a55c424d260f7bd", "bike_id": "4eba466a735e78562a55c424d260f7bd", "is_disabled": 0, "fusion_lon": 0.0, "type": "electric_scooter", "lon": -77.02599816666667}, {"rental_uris": {"android": "https://dc.lft.to/lastmile_qr_scan", "ios": "https://dc.lft.to/lastmile_qr_scan"}, "fusion_lat": 0.0, "is_reserved": 0, "lat": 38.87339933333333, "name": "8813ce13e451251f595140db78f3b8dc", "bike_id": "8813ce13e451251f595140db78f3b8dc", "is_disabled": 0, "fusion_lon": 0.0, "type": "electric_scooter", "lon": -76.99169366666666}, {"rental_uris": {"android": "https://dc.lft.to/lastmile_qr_scan", "ios": "https://dc.lft.to/lastmile_qr_scan"}, "fusion_lat": 0.0, "is_reserved": 0, "lat": 38.893735, "name": "86590c5709d2bda35d56024aa6ee05ba", "bike_id": "86590c5709d2bda35d56024aa6ee05ba", "is_disabled": 0, "fusion_lon": 0.0, "type": "electric_scooter", "lon": -77.02818933333333}, {"rental_uris": {"android": "https://dc.lft.to/lastmile_qr_scan", "ios": "https://dc.lft.to/lastmile_qr_scan"}, "fusion_lat": 0.0, "is_reserved": 0, "lat": 38.8852935, "name": "0496b7eb57cd280236d46e004f973d81", "bike_id": "0496b7eb57cd280236d46e004f973d81", "is_disabled": 0, "fusion_lon": 0.0, "type": "electric_scooter", "lon": -76.98537566666667}, {"rental_uris": {"android": "https://dc.lft.to/lastmile_qr_scan", "ios": "https://dc.lft.to/lastmile_qr_scan"}, "fusion_lat": 0.0, "is_reserved": 0, "lat": 38.92740416666667, "name": "bc8a67a72a8254602e64398fb0821da1", "bike_id": "bc8a67a72a8254602e64398fb0821da1", "is_disabled": 0, "fusion_lon": 0.0, "type": "electric_scooter", "lon": -77.0326}, {"rental_uris": {"android": "https://dc.lft.to/lastmile_qr_scan", "ios": "https://dc.lft.to/lastmile_qr_scan"}, "fusion_lat": 0.0, "is_reserved": 0, "lat": 38.911093666666666, "name": "12b54604d2337615fde80a212d79026f", "bike_id": "12b54604d2337615fde80a212d79026f", "is_disabled": 0, "fusion_lon": 0.0, "type": "electric_scooter", "lon": -77.01719616666666}, {"rental_uris": {"android": "https://dc.lft.to/lastmile_qr_scan", "ios": "https://dc.lft.to/lastmile_qr_scan"}, "fusion_lat": 0.0, "is_reserved": 0, "lat": 38.91803733333333, "name": "c0ccbc5f225279a561bbb15229623383", "bike_id": "c0ccbc5f225279a561bbb15229623383", "is_disabled": 0, "fusion_lon": 0.0, "type": "electric_scooter", "lon": -77.040136}, {"rental_uris": {"android": "https://dc.lft.to/lastmile_qr_scan", "ios": "https://dc.lft.to/lastmile_qr_scan"}, "fusion_lat": 0.0, "is_reserved": 0, "lat": 38.90961983333333, "name": "def33a1a67cd7916fdf734112e9fa3c2", "bike_id": "def33a1a67cd7916fdf734112e9fa3c2", "is_disabled": 0, "fusion_lon": 0.0, "type": "electric_scooter", "lon": -77.0382585}, {"rental_uris": {"android": "https://dc.lft.to/lastmile_qr_scan", "ios": "https://dc.lft.to/lastmile_qr_scan"}, "fusion_lat": 0.0, "is_reserved": 0, "lat": 38.91127066666667, "name": "c145e454a37c0eb1848618461050d98e", "bike_id": "c145e454a37c0eb1848618461050d98e", "is_disabled": 0, "fusion_lon": 0.0, "type": "electric_scooter", "lon": -77.02194416666667}, {"rental_uris": {"android": "https://dc.lft.to/lastmile_qr_scan", "ios": "https://dc.lft.to/lastmile_qr_scan"}, "fusion_lat": 0.0, "is_reserved": 0, "lat": 38.897800333333336, "name": "0f6451605741f1524f23123614e4d099", "bike_id": "0f6451605741f1524f23123614e4d099", "is_disabled": 0, "fusion_lon": 0.0, "type": "electric_scooter", "lon": -77.03192933333334}, {"rental_uris": {"android": "https://dc.lft.to/lastmile_qr_scan", "ios": "https://dc.lft.to/lastmile_qr_scan"}, "fusion_lat": 0.0, "is_reserved": 0, "lat": 38.87577016666667, "name": "43810f566e5c60baaf8f8c8416fc8106", "bike_id": "43810f566e5c60baaf8f8c8416fc8106", "is_disabled": 0, "fusion_lon": 0.0, "type": "electric_scooter", "lon": -77.005792}, {"rental_uris": {"android": "https://dc.lft.to/lastmile_qr_scan", "ios": "https://dc.lft.to/lastmile_qr_scan"}, "fusion_lat": 0.0, "is_reserved": 0, "lat": 38.893279, "name": "595c3e9abde0633c64d2c5684fceacbe", "bike_id": "595c3e9abde0633c64d2c5684fceacbe", "is_disabled": 0, "fusion_lon": 0.0, "type": "electric_scooter", "lon": -77.03184683333333}, {"rental_uris": {"android": "https://dc.lft.to/lastmile_qr_scan", "ios": "https://dc.lft.to/lastmile_qr_scan"}, "fusion_lat": 0.0, "is_reserved": 0, "lat": 38.926753166666664, "name": "3159bb066b3c695fcc7f0144ae016185", "bike_id": "3159bb066b3c695fcc7f0144ae016185", "is_disabled": 0, "fusion_lon": 0.0, "type": "electric_scooter", "lon": -77.01490716666666}, {"rental_uris": {"android": "https://dc.lft.to/lastmile_qr_scan", "ios": "https://dc.lft.to/lastmile_qr_scan"}, "fusion_lat": 0.0, "is_reserved": 0, "lat": 39.03563416666667, "name": "423f3cc6d89426582621658b9b2befed", "bike_id": "423f3cc6d89426582621658b9b2befed", "is_disabled": 0, "fusion_lon": 0.0, "type": "electric_bike", "lon": -77.0391695}, {"rental_uris": {"android": "https://dc.lft.to/lastmile_qr_scan", "ios": "https://dc.lft.to/lastmile_qr_scan"}, "fusion_lat": 0.0, "is_reserved": 0, "lat": 38.888766833333335, "name": "b68c5787c585ae3731e044c97285af66", "bike_id": "b68c5787c585ae3731e044c97285af66", "is_disabled": 0, "fusion_lon": 0.0, "type": "electric_scooter", "lon": -76.99033666666666}, {"rental_uris": {"android": "https://dc.lft.to/lastmile_qr_scan", "ios": "https://dc.lft.to/lastmile_qr_scan"}, "fusion_lat": 0.0, "is_reserved": 0, "lat": 38.907432, "name": "83c7e5ec08ade3a23603c138c6e4b8cc", "bike_id": "83c7e5ec08ade3a23603c138c6e4b8cc", "is_disabled": 0, "fusion_lon": 0.0, "type": "electric_scooter", "lon": -77.0454055}, {"rental_uris": {"android": "https://dc.lft.to/lastmile_qr_scan", "ios": "https://dc.lft.to/lastmile_qr_scan"}, "fusion_lat": 0.0, "is_reserved": 0, "lat": 38.90407533333333, "name": "3f072bf6d084e9ec400e6c0474c364d8", "bike_id": "3f072bf6d084e9ec400e6c0474c364d8", "is_disabled": 0, "fusion_lon": 0.0, "type": "electric_bike", "lon": -77.02514383333333}, {"rental_uris": {"android": "https://dc.lft.to/lastmile_qr_scan", "ios": "https://dc.lft.to/lastmile_qr_scan"}, "fusion_lat": 0.0, "is_reserved": 0, "lat": 38.9083325, "name": "c7cdc3435019d20fe69d7cf09d0c76e4", "bike_id": "c7cdc3435019d20fe69d7cf09d0c76e4", "is_disabled": 0, "fusion_lon": 0.0, "type": "electric_bike", "lon": -76.98807783333334}, {"rental_uris": {"android": "https://dc.lft.to/lastmile_qr_scan", "ios": "https://dc.lft.to/lastmile_qr_scan"}, "fusion_lat": 0.0, "is_reserved": 0, "lat": 38.904345166666666, "name": "2e274387744c7deada816dacc2ae1ac1", "bike_id": "2e274387744c7deada816dacc2ae1ac1", "is_disabled": 0, "fusion_lon": 0.0, "type": "electric_scooter", "lon": -77.02878516666667}, {"rental_uris": {"android": "https://dc.lft.to/lastmile_qr_scan", "ios": "https://dc.lft.to/lastmile_qr_scan"}, "fusion_lat": 0.0, "is_reserved": 0, "lat": 38.903919, "name": "6e3393f454340aa41dda054e52631f85", "bike_id": "6e3393f454340aa41dda054e52631f85", "is_disabled": 0, "fusion_lon": 0.0, "type": "electric_scooter", "lon": -77.03635066666666}, {"rental_uris": {"android": "https://dc.lft.to/lastmile_qr_scan", "ios": "https://dc.lft.to/lastmile_qr_scan"}, "fusion_lat": 0.0, "is_reserved": 0, "lat": 38.920768333333335, "name": "526520a5ea653c6d1f9c30fdc7443eef", "bike_id": "526520a5ea653c6d1f9c30fdc7443eef", "is_disabled": 0, "fusion_lon": 0.0, "type": "electric_scooter", "lon": -77.02316316666666}, {"rental_uris": {"android": "https://dc.lft.to/lastmile_qr_scan", "ios": "https://dc.lft.to/lastmile_qr_scan"}, "fusion_lat": 0.0, "is_reserved": 0, "lat": 38.9622085, "name": "aa2f40bb0f5d67c6c6e833dad9d8cc33", "bike_id": "aa2f40bb0f5d67c6c6e833dad9d8cc33", "is_disabled": 0, "fusion_lon": 0.0, "type": "electric_bike", "lon": -77.02626666666667}, {"rental_uris": {"android": "https://dc.lft.to/lastmile_qr_scan", "ios": "https://dc.lft.to/lastmile_qr_scan"}, "fusion_lat": 0.0, "is_reserved": 0, "lat": 38.93522316666667, "name": "1f55f221d5c0ecc7c7420fcbd087c045", "bike_id": "1f55f221d5c0ecc7c7420fcbd087c045", "is_disabled": 0, "fusion_lon": 0.0, "type": "electric_scooter", "lon": -77.02853266666666}, {"rental_uris": {"android": "https://dc.lft.to/lastmile_qr_scan", "ios": "https://dc.lft.to/lastmile_qr_scan"}, "fusion_lat": 0.0, "is_reserved": 0, "lat": 38.90732916666666, "name": "8a2cd1c9f3ce33f4d61451eafea9b5a8", "bike_id": "8a2cd1c9f3ce33f4d61451eafea9b5a8", "is_disabled": 0, "fusion_lon": 0.0, "type": "electric_scooter", "lon": -77.00802816666666}, {"rental_uris": {"android": "https://dc.lft.to/lastmile_qr_scan", "ios": "https://dc.lft.to/lastmile_qr_scan"}, "fusion_lat": 0.0, "is_reserved": 0, "lat": 38.865020333333334, "name": "fc4308564f32cc6aab493225b73ddfb2", "bike_id": "fc4308564f32cc6aab493225b73ddfb2", "is_disabled": 0, "fusion_lon": 0.0, "type": "electric_scooter", "lon": -76.98060366666667}, {"rental_uris": {"android": "https://dc.lft.to/lastmile_qr_scan", "ios": "https://dc.lft.to/lastmile_qr_scan"}, "fusion_lat": 0.0, "is_reserved": 0, "lat": 38.90433933333333, "name": "6098a294e226a4bd7d76670ed9b95dfd", "bike_id": "6098a294e226a4bd7d76670ed9b95dfd", "is_disabled": 0, "fusion_lon": 0.0, "type": "electric_scooter", "lon": -77.00591266666666}, {"rental_uris": {"android": "https://dc.lft.to/lastmile_qr_scan", "ios": "https://dc.lft.to/lastmile_qr_scan"}, "fusion_lat": 0.0, "is_reserved": 0, "lat": 38.90540583333333, "name": "7bae297f76dc10f8e9fe805dadca8fe5", "bike_id": "7bae297f76dc10f8e9fe805dadca8fe5", "is_disabled": 0, "fusion_lon": 0.0, "type": "electric_scooter", "lon": -77.04021616666667}, {"rental_uris": {"android": "https://dc.lft.to/lastmile_qr_scan", "ios": "https://dc.lft.to/lastmile_qr_scan"}, "fusion_lat": 0.0, "is_reserved": 0, "lat": 38.88659916666667, "name": "401c6a0e5163c56baf3958c56f3fb90b", "bike_id": "401c6a0e5163c56baf3958c56f3fb90b", "is_disabled": 0, "fusion_lon": 0.0, "type": "electric_scooter", "lon": -76.93673716666666}, {"rental_uris": {"android": "https://dc.lft.to/lastmile_qr_scan", "ios": "https://dc.lft.to/lastmile_qr_scan"}, "fusion_lat": 0.0, "is_reserved": 0, "lat": 38.90844033333333, "name": "167a2ef8f4a8c0954128a8c5c51a94e1", "bike_id": "167a2ef8f4a8c0954128a8c5c51a94e1", "is_disabled": 0, "fusion_lon": 0.0, "type": "electric_scooter", "lon": -77.04494783333334}, {"rental_uris": {"android": "https://dc.lft.to/lastmile_qr_scan", "ios": "https://dc.lft.to/lastmile_qr_scan"}, "fusion_lat": 0.0, "is_reserved": 0, "lat": 38.90989066666667, "name": "e9315001a9618ed4739f5d27d5e05398", "bike_id": "e9315001a9618ed4739f5d27d5e05398", "is_disabled": 0, "fusion_lon": 0.0, "type": "electric_scooter", "lon": -77.02390166666666}, {"rental_uris": {"android": "https://dc.lft.to/lastmile_qr_scan", "ios": "https://dc.lft.to/lastmile_qr_scan"}, "fusion_lat": 0.0, "is_reserved": 0, "lat": 38.91926433333333, "name": "33c232103206bf8c9449a1931ee4ec00", "bike_id": "33c232103206bf8c9449a1931ee4ec00", "is_disabled": 0, "fusion_lon": 0.0, "type": "electric_scooter", "lon": -77.00989233333334}, {"rental_uris": {"android": "https://dc.lft.to/lastmile_qr_scan", "ios": "https://dc.lft.to/lastmile_qr_scan"}, "fusion_lat": 0.0, "is_reserved": 0, "lat": 38.924563, "name": "c16cb0fe8da8d86a205a560ab515d4a4", "bike_id": "c16cb0fe8da8d86a205a560ab515d4a4", "is_disabled": 0, "fusion_lon": 0.0, "type": "electric_scooter", "lon": -77.0215895}, {"rental_uris": {"android": "https://dc.lft.to/lastmile_qr_scan", "ios": "https://dc.lft.to/lastmile_qr_scan"}, "fusion_lat": 0.0, "is_reserved": 0, "lat": 38.921413, "name": "a9d46204a9b75af3712a2eead9fffd4e", "bike_id": "a9d46204a9b75af3712a2eead9fffd4e", "is_disabled": 0, "fusion_lon": 0.0, "type": "electric_scooter", "lon": -77.01806883333333}, {"rental_uris": {"android": "https://dc.lft.to/lastmile_qr_scan", "ios": "https://dc.lft.to/lastmile_qr_scan"}, "fusion_lat": 0.0, "is_reserved": 0, "lat": 38.93754116666667, "name": "23e41be99688429c0eba9204c13981a1", "bike_id": "23e41be99688429c0eba9204c13981a1", "is_disabled": 0, "fusion_lon": 0.0, "type": "electric_bike", "lon": -77.029297}, {"rental_uris": {"android": "https://dc.lft.to/lastmile_qr_scan", "ios": "https://dc.lft.to/lastmile_qr_scan"}, "fusion_lat": 0.0, "is_reserved": 0, "lat": 38.92971933333333, "name": "c3bd4d5857ec9888030353e6ad02b188", "bike_id": "c3bd4d5857ec9888030353e6ad02b188", "is_disabled": 0, "fusion_lon": 0.0, "type": "electric_scooter", "lon": -77.02792866666667}, {"rental_uris": {"android": "https://dc.lft.to/lastmile_qr_scan", "ios": "https://dc.lft.to/lastmile_qr_scan"}, "fusion_lat": 0.0, "is_reserved": 0, "lat": 38.89267683333333, "name": "ba2d51af5c6448715b5161247f0786e9", "bike_id": "ba2d51af5c6448715b5161247f0786e9", "is_disabled": 0, "fusion_lon": 0.0, "type": "electric_scooter", "lon": -77.04208383333334}, {"rental_uris": {"android": "https://dc.lft.to/lastmile_qr_scan", "ios": "https://dc.lft.to/lastmile_qr_scan"}, "fusion_lat": 0.0, "is_reserved": 0, "lat": 38.94540383333333, "name": "13c4ff9c08fe3fe3e4a172f68e63dbfa", "bike_id": "13c4ff9c08fe3fe3e4a172f68e63dbfa", "is_disabled": 0, "fusion_lon": 0.0, "type": "electric_bike", "lon": -77.34454733333334}, {"rental_uris": {"android": "https://dc.lft.to/lastmile_qr_scan", "ios": "https://dc.lft.to/lastmile_qr_scan"}, "fusion_lat": 0.0, "is_reserved": 0, "lat": 38.9055895, "name": "ed552c3e6fb107886cc8709e1c96526b", "bike_id": "ed552c3e6fb107886cc8709e1c96526b", "is_disabled": 0, "fusion_lon": 0.0, "type": "electric_scooter", "lon": -77.02719366666666}, {"rental_uris": {"android": "https://dc.lft.to/lastmile_qr_scan", "ios": "https://dc.lft.to/lastmile_qr_scan"}, "fusion_lat": 0.0, "is_reserved": 0, "lat": 38.887219, "name": "effe901e1e6c579279b805b440c2a7ee", "bike_id": "effe901e1e6c579279b805b440c2a7ee", "is_disabled": 0, "fusion_lon": 0.0, "type": "electric_scooter", "lon": -77.03175433333334}, {"rental_uris": {"android": "https://dc.lft.to/lastmile_qr_scan", "ios": "https://dc.lft.to/lastmile_qr_scan"}, "fusion_lat": 0.0, "is_reserved": 0, "lat": 39.08431983333333, "name": "362ae3d558557f696d279ac250940f20", "bike_id": "362ae3d558557f696d279ac250940f20", "is_disabled": 0, "fusion_lon": 0.0, "type": "electric_bike", "lon": -76.951447}, {"rental_uris": {"android": "https://dc.lft.to/lastmile_qr_scan", "ios": "https://dc.lft.to/lastmile_qr_scan"}, "fusion_lat": 0.0, "is_reserved": 0, "lat": 38.928943333333336, "name": "451bf19d16260ba7ee24cd4e49a6bb62", "bike_id": "451bf19d16260ba7ee24cd4e49a6bb62", "is_disabled": 0, "fusion_lon": 0.0, "type": "electric_scooter", "lon": -77.03269616666667}, {"rental_uris": {"android": "https://dc.lft.to/lastmile_qr_scan", "ios": "https://dc.lft.to/lastmile_qr_scan"}, "fusion_lat": 0.0, "is_reserved": 0, "lat": 38.897247666666665, "name": "b17e7af73c923246f768a676acf1ec3e", "bike_id": "b17e7af73c923246f768a676acf1ec3e", "is_disabled": 0, "fusion_lon": 0.0, "type": "electric_scooter", "lon": -77.02686316666667}, {"rental_uris": {"android": "https://dc.lft.to/lastmile_qr_scan", "ios": "https://dc.lft.to/lastmile_qr_scan"}, "fusion_lat": 0.0, "is_reserved": 0, "lat": 38.90884716666667, "name": "5474aa61831f4b8b18c6960988025787", "bike_id": "5474aa61831f4b8b18c6960988025787", "is_disabled": 0, "fusion_lon": 0.0, "type": "electric_scooter", "lon": -77.07268383333333}, {"rental_uris": {"android": "https://dc.lft.to/lastmile_qr_scan", "ios": "https://dc.lft.to/lastmile_qr_scan"}, "fusion_lat": 0.0, "is_reserved": 0, "lat": 38.92437666666667, "name": "21490dee06b6fa9b1020f87cd4e6d434", "bike_id": "21490dee06b6fa9b1020f87cd4e6d434", "is_disabled": 0, "fusion_lon": 0.0, "type": "electric_scooter", "lon": -77.00068266666666}, {"rental_uris": {"android": "https://dc.lft.to/lastmile_qr_scan", "ios": "https://dc.lft.to/lastmile_qr_scan"}, "fusion_lat": 0.0, "is_reserved": 0, "lat": 38.835400666666665, "name": "2394d0077963a059e07e7de438560aaa", "bike_id": "2394d0077963a059e07e7de438560aaa", "is_disabled": 0, "fusion_lon": 0.0, "type": "electric_bike", "lon": -77.0075145}, {"rental_uris": {"android": "https://dc.lft.to/lastmile_qr_scan", "ios": "https://dc.lft.to/lastmile_qr_scan"}, "fusion_lat": 0.0, "is_reserved": 0, "lat": 38.92793366666667, "name": "5bb56380bc9c8e94e2ff3e7a039578d0", "bike_id": "5bb56380bc9c8e94e2ff3e7a039578d0", "is_disabled": 0, "fusion_lon": 0.0, "type": "electric_scooter", "lon": -77.03084883333334}, {"rental_uris": {"android": "https://dc.lft.to/lastmile_qr_scan", "ios": "https://dc.lft.to/lastmile_qr_scan"}, "fusion_lat": 0.0, "is_reserved": 0, "lat": 38.91053733333333, "name": "411f7c1404592fc3fbdae2833ad4bd26", "bike_id": "411f7c1404592fc3fbdae2833ad4bd26", "is_disabled": 0, "fusion_lon": 0.0, "type": "electric_scooter", "lon": -77.05392116666667}, {"rental_uris": {"android": "https://dc.lft.to/lastmile_qr_scan", "ios": "https://dc.lft.to/lastmile_qr_scan"}, "fusion_lat": 0.0, "is_reserved": 0, "lat": 38.90654966666666, "name": "91871727f607e44409c18f84df81034e", "bike_id": "91871727f607e44409c18f84df81034e", "is_disabled": 0, "fusion_lon": 0.0, "type": "electric_scooter", "lon": -77.05321516666666}, {"rental_uris": {"android": "https://dc.lft.to/lastmile_qr_scan", "ios": "https://dc.lft.to/lastmile_qr_scan"}, "fusion_lat": 0.0, "is_reserved": 0, "lat": 38.90971733333333, "name": "a907584d23d1bfc4bdd63a13a25985c3", "bike_id": "a907584d23d1bfc4bdd63a13a25985c3", "is_disabled": 0, "fusion_lon": 0.0, "type": "electric_scooter", "lon": -77.044449}, {"rental_uris": {"android": "https://dc.lft.to/lastmile_qr_scan", "ios": "https://dc.lft.to/lastmile_qr_scan"}, "fusion_lat": 0.0, "is_reserved": 0, "lat": 38.87778733333333, "name": "44dfef9ef116d3ae47626957f626cfe1", "bike_id": "44dfef9ef116d3ae47626957f626cfe1", "is_disabled": 0, "fusion_lon": 0.0, "type": "electric_scooter", "lon": -76.98372333333333}, {"rental_uris": {"android": "https://dc.lft.to/lastmile_qr_scan", "ios": "https://dc.lft.to/lastmile_qr_scan"}, "fusion_lat": 0.0, "is_reserved": 0, "lat": 38.95032116666667, "name": "5d6eb16da20340b4d07cdf6af72e81bd", "bike_id": "5d6eb16da20340b4d07cdf6af72e81bd", "is_disabled": 0, "fusion_lon": 0.0, "type": "electric_bike", "lon": -76.97098516666667}, {"rental_uris": {"android": "https://dc.lft.to/lastmile_qr_scan", "ios": "https://dc.lft.to/lastmile_qr_scan"}, "fusion_lat": 0.0, "is_reserved": 0, "lat": 38.8978665, "name": "d0d4baa7cabe388e95656729cd352174", "bike_id": "d0d4baa7cabe388e95656729cd352174", "is_disabled": 0, "fusion_lon": 0.0, "type": "electric_scooter", "lon": -77.01665933333334}, {"rental_uris": {"android": "https://dc.lft.to/lastmile_qr_scan", "ios": "https://dc.lft.to/lastmile_qr_scan"}, "fusion_lat": 0.0, "is_reserved": 0, "lat": 38.93365766666667, "name": "9867d0b989b005809c6e8badae3b614c", "bike_id": "9867d0b989b005809c6e8badae3b614c", "is_disabled": 0, "fusion_lon": 0.0, "type": "electric_scooter", "lon": -77.02423416666667}, {"rental_uris": {"android": "https://dc.lft.to/lastmile_qr_scan", "ios": "https://dc.lft.to/lastmile_qr_scan"}, "fusion_lat": 0.0, "is_reserved": 0, "lat": 38.919069666666665, "name": "981a91f4ce49203c8eb2facbffa7d7e7", "bike_id": "981a91f4ce49203c8eb2facbffa7d7e7", "is_disabled": 0, "fusion_lon": 0.0, "type": "electric_scooter", "lon": -77.02053916666667}, {"rental_uris": {"android": "https://dc.lft.to/lastmile_qr_scan", "ios": "https://dc.lft.to/lastmile_qr_scan"}, "fusion_lat": 0.0, "is_reserved": 0, "lat": 38.915446833333334, "name": "b37706c7019874014b0145b984a19caa", "bike_id": "b37706c7019874014b0145b984a19caa", "is_disabled": 0, "fusion_lon": 0.0, "type": "electric_scooter", "lon": -77.02199883333333}, {"rental_uris": {"android": "https://dc.lft.to/lastmile_qr_scan", "ios": "https://dc.lft.to/lastmile_qr_scan"}, "fusion_lat": 0.0, "is_reserved": 0, "lat": 38.927805, "name": "d987992e456a8cfe4b68cc1d50e13872", "bike_id": "d987992e456a8cfe4b68cc1d50e13872", "is_disabled": 0, "fusion_lon": 0.0, "type": "electric_scooter", "lon": -77.0270885}, {"rental_uris": {"android": "https://dc.lft.to/lastmile_qr_scan", "ios": "https://dc.lft.to/lastmile_qr_scan"}, "fusion_lat": 0.0, "is_reserved": 0, "lat": 38.964024333333334, "name": "a558662521524993cda57c0eecdb57a6", "bike_id": "a558662521524993cda57c0eecdb57a6", "is_disabled": 0, "fusion_lon": 0.0, "type": "electric_scooter", "lon": -77.02770416666667}, {"rental_uris": {"android": "https://dc.lft.to/lastmile_qr_scan", "ios": "https://dc.lft.to/lastmile_qr_scan"}, "fusion_lat": 0.0, "is_reserved": 0, "lat": 38.916752333333335, "name": "940f213c7f22ce9a790f1db1e05ab09d", "bike_id": "940f213c7f22ce9a790f1db1e05ab09d", "is_disabled": 0, "fusion_lon": 0.0, "type": "electric_scooter", "lon": -77.04605416666666}, {"rental_uris": {"android": "https://dc.lft.to/lastmile_qr_scan", "ios": "https://dc.lft.to/lastmile_qr_scan"}, "fusion_lat": 0.0, "is_reserved": 0, "lat": 38.94330433333333, "name": "706f75f3b49b6ee37d314af39f01e795", "bike_id": "706f75f3b49b6ee37d314af39f01e795", "is_disabled": 0, "fusion_lon": 0.0, "type": "electric_scooter", "lon": -77.01498716666667}, {"rental_uris": {"android": "https://dc.lft.to/lastmile_qr_scan", "ios": "https://dc.lft.to/lastmile_qr_scan"}, "fusion_lat": 0.0, "is_reserved": 0, "lat": 38.9355495, "name": "5673cc1a72ed995d43365992d600f034", "bike_id": "5673cc1a72ed995d43365992d600f034", "is_disabled": 0, "fusion_lon": 0.0, "type": "electric_scooter", "lon": -77.03478816666667}, {"rental_uris": {"android": "https://dc.lft.to/lastmile_qr_scan", "ios": "https://dc.lft.to/lastmile_qr_scan"}, "fusion_lat": 0.0, "is_reserved": 0, "lat": 39.0746925, "name": "b257cb8c04f93e6c6f76be0a037d1209", "bike_id": "b257cb8c04f93e6c6f76be0a037d1209", "is_disabled": 0, "fusion_lon": 0.0, "type": "electric_bike", "lon": -77.11508916666666}, {"rental_uris": {"android": "https://dc.lft.to/lastmile_qr_scan", "ios": "https://dc.lft.to/lastmile_qr_scan"}, "fusion_lat": 0.0, "is_reserved": 0, "lat": 38.8968925, "name": "0c0bbfb778bc43bec35fd3cf60d0b58c", "bike_id": "0c0bbfb778bc43bec35fd3cf60d0b58c", "is_disabled": 0, "fusion_lon": 0.0, "type": "electric_scooter", "lon": -77.03346816666667}, {"rental_uris": {"android": "https://dc.lft.to/lastmile_qr_scan", "ios": "https://dc.lft.to/lastmile_qr_scan"}, "fusion_lat": 0.0, "is_reserved": 0, "lat": 38.9066435, "name": "d93b6ab34cb5db2376a9504ac37db74b", "bike_id": "d93b6ab34cb5db2376a9504ac37db74b", "is_disabled": 0, "fusion_lon": 0.0, "type": "electric_scooter", "lon": -77.02808566666667}, {"rental_uris": {"android": "https://dc.lft.to/lastmile_qr_scan", "ios": "https://dc.lft.to/lastmile_qr_scan"}, "fusion_lat": 0.0, "is_reserved": 0, "lat": 38.915537666666665, "name": "e95b50f5cd680777042babb7aece05b2", "bike_id": "e95b50f5cd680777042babb7aece05b2", "is_disabled": 0, "fusion_lon": 0.0, "type": "electric_scooter", "lon": -77.01424433333334}, {"rental_uris": {"android": "https://dc.lft.to/lastmile_qr_scan", "ios": "https://dc.lft.to/lastmile_qr_scan"}, "fusion_lat": 0.0, "is_reserved": 0, "lat": 38.899268166666666, "name": "38a27f859bee26bf3d4deed79c90fdf4", "bike_id": "38a27f859bee26bf3d4deed79c90fdf4", "is_disabled": 0, "fusion_lon": 0.0, "type": "electric_scooter", "lon": -77.02679766666667}, {"rental_uris": {"android": "https://dc.lft.to/lastmile_qr_scan", "ios": "https://dc.lft.to/lastmile_qr_scan"}, "fusion_lat": 0.0, "is_reserved": 0, "lat": 38.920306833333335, "name": "35bba5d265e1e0dd8c7a0bf5da9962be", "bike_id": "35bba5d265e1e0dd8c7a0bf5da9962be", "is_disabled": 0, "fusion_lon": 0.0, "type": "electric_scooter", "lon": -77.01034566666667}, {"rental_uris": {"android": "https://dc.lft.to/lastmile_qr_scan", "ios": "https://dc.lft.to/lastmile_qr_scan"}, "fusion_lat": 0.0, "is_reserved": 0, "lat": 38.99682133333334, "name": "8e807d2411c7ef672efb98d9437e5223", "bike_id": "8e807d2411c7ef672efb98d9437e5223", "is_disabled": 0, "fusion_lon": 0.0, "type": "electric_bike", "lon": -77.03791816666667}, {"rental_uris": {"android": "https://dc.lft.to/lastmile_qr_scan", "ios": "https://dc.lft.to/lastmile_qr_scan"}, "fusion_lat": 0.0, "is_reserved": 0, "lat": 38.92612733333333, "name": "aa451b6b06285abe45512ae8a3fcc166", "bike_id": "aa451b6b06285abe45512ae8a3fcc166", "is_disabled": 0, "fusion_lon": 0.0, "type": "electric_scooter", "lon": -77.02205916666666}, {"rental_uris": {"android": "https://dc.lft.to/lastmile_qr_scan", "ios": "https://dc.lft.to/lastmile_qr_scan"}, "fusion_lat": 0.0, "is_reserved": 0, "lat": 38.9217035, "name": "95f57021b1f3f53177ffd3dc13bdd863", "bike_id": "95f57021b1f3f53177ffd3dc13bdd863", "is_disabled": 0, "fusion_lon": 0.0, "type": "electric_scooter", "lon": -77.018651}, {"rental_uris": {"android": "https://dc.lft.to/lastmile_qr_scan", "ios": "https://dc.lft.to/lastmile_qr_scan"}, "fusion_lat": 0.0, "is_reserved": 0, "lat": 38.887167833333336, "name": "d27cf26ad29fa04774104bf767ffe71d", "bike_id": "d27cf26ad29fa04774104bf767ffe71d", "is_disabled": 0, "fusion_lon": 0.0, "type": "electric_scooter", "lon": -77.02167833333333}, {"rental_uris": {"android": "https://dc.lft.to/lastmile_qr_scan", "ios": "https://dc.lft.to/lastmile_qr_scan"}, "fusion_lat": 0.0, "is_reserved": 0, "lat": 38.8973625, "name": "93c44a9b2841513cd2ed88ea14245e5c", "bike_id": "93c44a9b2841513cd2ed88ea14245e5c", "is_disabled": 0, "fusion_lon": 0.0, "type": "electric_scooter", "lon": -77.00755583333333}, {"rental_uris": {"android": "https://dc.lft.to/lastmile_qr_scan", "ios": "https://dc.lft.to/lastmile_qr_scan"}, "fusion_lat": 0.0, "is_reserved": 0, "lat": 38.918098666666666, "name": "1395ed75626e86084818ec9f7c0866ad", "bike_id": "1395ed75626e86084818ec9f7c0866ad", "is_disabled": 0, "fusion_lon": 0.0, "type": "electric_scooter", "lon": -77.031508}, {"rental_uris": {"android": "https://dc.lft.to/lastmile_qr_scan", "ios": "https://dc.lft.to/lastmile_qr_scan"}, "fusion_lat": 0.0, "is_reserved": 0, "lat": 38.92335516666667, "name": "b80647ee0286e9bf628e6a3865a714df", "bike_id": "b80647ee0286e9bf628e6a3865a714df", "is_disabled": 0, "fusion_lon": 0.0, "type": "electric_scooter", "lon": -77.03618016666667}, {"rental_uris": {"android": "https://dc.lft.to/lastmile_qr_scan", "ios": "https://dc.lft.to/lastmile_qr_scan"}, "fusion_lat": 0.0, "is_reserved": 0, "lat": 38.933835, "name": "06627dd0eeb2d25deb886f5570c9532c", "bike_id": "06627dd0eeb2d25deb886f5570c9532c", "is_disabled": 0, "fusion_lon": 0.0, "type": "electric_scooter", "lon": -77.03255566666667}, {"rental_uris": {"android": "https://dc.lft.to/lastmile_qr_scan", "ios": "https://dc.lft.to/lastmile_qr_scan"}, "fusion_lat": 0.0, "is_reserved": 0, "lat": 38.9011, "name": "de98ad0345d25245fd08284120707f29", "bike_id": "de98ad0345d25245fd08284120707f29", "is_disabled": 0, "fusion_lon": 0.0, "type": "electric_scooter", "lon": -77.01964333333333}, {"rental_uris": {"android": "https://dc.lft.to/lastmile_qr_scan", "ios": "https://dc.lft.to/lastmile_qr_scan"}, "fusion_lat": 0.0, "is_reserved": 0, "lat": 38.90453383333333, "name": "39e65d36cd29716f994fb90540329147", "bike_id": "39e65d36cd29716f994fb90540329147", "is_disabled": 0, "fusion_lon": 0.0, "type": "electric_scooter", "lon": -77.06004816666666}, {"rental_uris": {"android": "https://dc.lft.to/lastmile_qr_scan", "ios": "https://dc.lft.to/lastmile_qr_scan"}, "fusion_lat": 0.0, "is_reserved": 0, "lat": 38.9431175, "name": "a363f3b0f9c88da06f084a2c13a4c8f5", "bike_id": "a363f3b0f9c88da06f084a2c13a4c8f5", "is_disabled": 0, "fusion_lon": 0.0, "type": "electric_scooter", "lon": -77.02177683333333}, {"rental_uris": {"android": "https://dc.lft.to/lastmile_qr_scan", "ios": "https://dc.lft.to/lastmile_qr_scan"}, "fusion_lat": 0.0, "is_reserved": 0, "lat": 38.90137466666667, "name": "dde18d46ba113353270a7906db4ee6b5", "bike_id": "dde18d46ba113353270a7906db4ee6b5", "is_disabled": 0, "fusion_lon": 0.0, "type": "electric_scooter", "lon": -77.003202}, {"rental_uris": {"android": "https://dc.lft.to/lastmile_qr_scan", "ios": "https://dc.lft.to/lastmile_qr_scan"}, "fusion_lat": 0.0, "is_reserved": 0, "lat": 38.925408166666664, "name": "6839da2c0bced3db4155e5862e349f52", "bike_id": "6839da2c0bced3db4155e5862e349f52", "is_disabled": 0, "fusion_lon": 0.0, "type": "electric_scooter", "lon": -77.040553}, {"rental_uris": {"android": "https://dc.lft.to/lastmile_qr_scan", "ios": "https://dc.lft.to/lastmile_qr_scan"}, "fusion_lat": 0.0, "is_reserved": 0, "lat": 38.87845333333333, "name": "ffed82622718eeafc6ce4f3a7698c38e", "bike_id": "ffed82622718eeafc6ce4f3a7698c38e", "is_disabled": 0, "fusion_lon": 0.0, "type": "electric_scooter", "lon": -76.9829345}, {"rental_uris": {"android": "https://dc.lft.to/lastmile_qr_scan", "ios": "https://dc.lft.to/lastmile_qr_scan"}, "fusion_lat": 0.0, "is_reserved": 0, "lat": 38.90702616666667, "name": "c40bb494a06c7fa067e9d38485a3c0bc", "bike_id": "c40bb494a06c7fa067e9d38485a3c0bc", "is_disabled": 0, "fusion_lon": 0.0, "type": "electric_scooter", "lon": -77.01119016666667}, {"rental_uris": {"android": "https://dc.lft.to/lastmile_qr_scan", "ios": "https://dc.lft.to/lastmile_qr_scan"}, "fusion_lat": 0.0, "is_reserved": 0, "lat": 38.9025545, "name": "18a19cde02db35e4aca96ba92e4f7d58", "bike_id": "18a19cde02db35e4aca96ba92e4f7d58", "is_disabled": 0, "fusion_lon": 0.0, "type": "electric_scooter", "lon": -77.01742133333333}, {"rental_uris": {"android": "https://dc.lft.to/lastmile_qr_scan", "ios": "https://dc.lft.to/lastmile_qr_scan"}, "fusion_lat": 0.0, "is_reserved": 0, "lat": 38.893645666666664, "name": "3ff753f98cf69764964f49ffc506cf66", "bike_id": "3ff753f98cf69764964f49ffc506cf66", "is_disabled": 0, "fusion_lon": 0.0, "type": "electric_scooter", "lon": -76.9864285}, {"rental_uris": {"android": "https://dc.lft.to/lastmile_qr_scan", "ios": "https://dc.lft.to/lastmile_qr_scan"}, "fusion_lat": 0.0, "is_reserved": 0, "lat": 38.917055166666664, "name": "422d93160550b1b2836a89402a5d7bfa", "bike_id": "422d93160550b1b2836a89402a5d7bfa", "is_disabled": 0, "fusion_lon": 0.0, "type": "electric_scooter", "lon": -77.023027}, {"rental_uris": {"android": "https://dc.lft.to/lastmile_qr_scan", "ios": "https://dc.lft.to/lastmile_qr_scan"}, "fusion_lat": 0.0, "is_reserved": 0, "lat": 38.922601666666665, "name": "6241b651a23e69de7152a6b1174d11f4", "bike_id": "6241b651a23e69de7152a6b1174d11f4", "is_disabled": 0, "fusion_lon": 0.0, "type": "electric_scooter", "lon": -77.03681816666666}, {"rental_uris": {"android": "https://dc.lft.to/lastmile_qr_scan", "ios": "https://dc.lft.to/lastmile_qr_scan"}, "fusion_lat": 0.0, "is_reserved": 0, "lat": 38.932062333333334, "name": "80f9029f908f8a3dc41dcce0af0205ce", "bike_id": "80f9029f908f8a3dc41dcce0af0205ce", "is_disabled": 0, "fusion_lon": 0.0, "type": "electric_scooter", "lon": -77.02396466666667}, {"rental_uris": {"android": "https://dc.lft.to/lastmile_qr_scan", "ios": "https://dc.lft.to/lastmile_qr_scan"}, "fusion_lat": 0.0, "is_reserved": 0, "lat": 38.8716315, "name": "1ccd488dc57557117bfbf055e3ffd501", "bike_id": "1ccd488dc57557117bfbf055e3ffd501", "is_disabled": 0, "fusion_lon": 0.0, "type": "electric_scooter", "lon": -77.01315283333334}, {"rental_uris": {"android": "https://dc.lft.to/lastmile_qr_scan", "ios": "https://dc.lft.to/lastmile_qr_scan"}, "fusion_lat": 0.0, "is_reserved": 0, "lat": 38.927962666666666, "name": "91fd79212d366bb03dedb82f9f8bff9f", "bike_id": "91fd79212d366bb03dedb82f9f8bff9f", "is_disabled": 0, "fusion_lon": 0.0, "type": "electric_scooter", "lon": -77.0260365}, {"rental_uris": {"android": "https://dc.lft.to/lastmile_qr_scan", "ios": "https://dc.lft.to/lastmile_qr_scan"}, "fusion_lat": 0.0, "is_reserved": 0, "lat": 38.93649216666667, "name": "8cb50b57adca0065dfac45722b265d95", "bike_id": "8cb50b57adca0065dfac45722b265d95", "is_disabled": 0, "fusion_lon": 0.0, "type": "electric_bike", "lon": -77.03676183333333}, {"rental_uris": {"android": "https://dc.lft.to/lastmile_qr_scan", "ios": "https://dc.lft.to/lastmile_qr_scan"}, "fusion_lat": 0.0, "is_reserved": 0, "lat": 38.93579316666667, "name": "0bae5e1698419599ffaa7b9d6bd6bf69", "bike_id": "0bae5e1698419599ffaa7b9d6bd6bf69", "is_disabled": 0, "fusion_lon": 0.0, "type": "electric_scooter", "lon": -77.0587535}, {"rental_uris": {"android": "https://dc.lft.to/lastmile_qr_scan", "ios": "https://dc.lft.to/lastmile_qr_scan"}, "fusion_lat": 0.0, "is_reserved": 0, "lat": 38.91566316666667, "name": "57b27317041b6682ae8572210adbfbae", "bike_id": "57b27317041b6682ae8572210adbfbae", "is_disabled": 0, "fusion_lon": 0.0, "type": "electric_scooter", "lon": -77.03130316666666}, {"rental_uris": {"android": "https://dc.lft.to/lastmile_qr_scan", "ios": "https://dc.lft.to/lastmile_qr_scan"}, "fusion_lat": 0.0, "is_reserved": 0, "lat": 38.9236215, "name": "74cd58cf35a3e974848ee15853def309", "bike_id": "74cd58cf35a3e974848ee15853def309", "is_disabled": 0, "fusion_lon": 0.0, "type": "electric_scooter", "lon": -77.0191965}, {"rental_uris": {"android": "https://dc.lft.to/lastmile_qr_scan", "ios": "https://dc.lft.to/lastmile_qr_scan"}, "fusion_lat": 0.0, "is_reserved": 0, "lat": 38.89224083333333, "name": "9295a0742deffeca4529db7b2bf9f898", "bike_id": "9295a0742deffeca4529db7b2bf9f898", "is_disabled": 0, "fusion_lon": 0.0, "type": "electric_scooter", "lon": -77.039767}, {"rental_uris": {"android": "https://dc.lft.to/lastmile_qr_scan", "ios": "https://dc.lft.to/lastmile_qr_scan"}, "fusion_lat": 0.0, "is_reserved": 0, "lat": 38.95757916666667, "name": "ed2b6ea15fe96980bfaca2c02832036d", "bike_id": "ed2b6ea15fe96980bfaca2c02832036d", "is_disabled": 0, "fusion_lon": 0.0, "type": "electric_bike", "lon": -76.967559}, {"rental_uris": {"android": "https://dc.lft.to/lastmile_qr_scan", "ios": "https://dc.lft.to/lastmile_qr_scan"}, "fusion_lat": 0.0, "is_reserved": 0, "lat": 38.94165016666667, "name": "b6d1919fa87c2872f12cb60a99dc23a5", "bike_id": "b6d1919fa87c2872f12cb60a99dc23a5", "is_disabled": 0, "fusion_lon": 0.0, "type": "electric_scooter", "lon": -77.025576}, {"rental_uris": {"android": "https://dc.lft.to/lastmile_qr_scan", "ios": "https://dc.lft.to/lastmile_qr_scan"}, "fusion_lat": 0.0, "is_reserved": 0, "lat": 38.892080166666666, "name": "9e3d96dd4929beebd094101fef408b19", "bike_id": "9e3d96dd4929beebd094101fef408b19", "is_disabled": 0, "fusion_lon": 0.0, "type": "electric_scooter", "lon": -76.92925116666666}, {"rental_uris": {"android": "https://dc.lft.to/lastmile_qr_scan", "ios": "https://dc.lft.to/lastmile_qr_scan"}, "fusion_lat": 0.0, "is_reserved": 0, "lat": 38.90140366666667, "name": "846d00048f152d474db850c41121a01e", "bike_id": "846d00048f152d474db850c41121a01e", "is_disabled": 0, "fusion_lon": 0.0, "type": "electric_scooter", "lon": -77.00067566666667}, {"rental_uris": {"android": "https://dc.lft.to/lastmile_qr_scan", "ios": "https://dc.lft.to/lastmile_qr_scan"}, "fusion_lat": 0.0, "is_reserved": 0, "lat": 38.80864916666667, "name": "146eeb6d839d5d0fa258c49334b5f688", "bike_id": "146eeb6d839d5d0fa258c49334b5f688", "is_disabled": 0, "fusion_lon": 0.0, "type": "electric_bike", "lon": -77.1125655}, {"rental_uris": {"android": "https://dc.lft.to/lastmile_qr_scan", "ios": "https://dc.lft.to/lastmile_qr_scan"}, "fusion_lat": 0.0, "is_reserved": 0, "lat": 38.872705833333335, "name": "10d470410bf237f61933c971e329746e", "bike_id": "10d470410bf237f61933c971e329746e", "is_disabled": 0, "fusion_lon": 0.0, "type": "electric_scooter", "lon": -77.017114}, {"rental_uris": {"android": "https://dc.lft.to/lastmile_qr_scan", "ios": "https://dc.lft.to/lastmile_qr_scan"}, "fusion_lat": 0.0, "is_reserved": 0, "lat": 38.9726055, "name": "0d9df353d9ce0ea16c968286bcc5584b", "bike_id": "0d9df353d9ce0ea16c968286bcc5584b", "is_disabled": 0, "fusion_lon": 0.0, "type": "electric_bike", "lon": -76.99276816666666}, {"rental_uris": {"android": "https://dc.lft.to/lastmile_qr_scan", "ios": "https://dc.lft.to/lastmile_qr_scan"}, "fusion_lat": 0.0, "is_reserved": 0, "lat": 38.900987, "name": "7a7390959d1a7eaa3dfa12b66b0e9190", "bike_id": "7a7390959d1a7eaa3dfa12b66b0e9190", "is_disabled": 0, "fusion_lon": 0.0, "type": "electric_scooter", "lon": -77.04919333333333}, {"rental_uris": {"android": "https://dc.lft.to/lastmile_qr_scan", "ios": "https://dc.lft.to/lastmile_qr_scan"}, "fusion_lat": 0.0, "is_reserved": 0, "lat": 38.936171, "name": "f2ba2023eadb9272316e104822eabad2", "bike_id": "f2ba2023eadb9272316e104822eabad2", "is_disabled": 0, "fusion_lon": 0.0, "type": "electric_scooter", "lon": -77.05588666666667}, {"rental_uris": {"android": "https://dc.lft.to/lastmile_qr_scan", "ios": "https://dc.lft.to/lastmile_qr_scan"}, "fusion_lat": 0.0, "is_reserved": 0, "lat": 38.898521, "name": "74df0b259a20537dfce3eb613399ad7a", "bike_id": "74df0b259a20537dfce3eb613399ad7a", "is_disabled": 0, "fusion_lon": 0.0, "type": "electric_scooter", "lon": -77.02211133333333}, {"rental_uris": {"android": "https://dc.lft.to/lastmile_qr_scan", "ios": "https://dc.lft.to/lastmile_qr_scan"}, "fusion_lat": 0.0, "is_reserved": 0, "lat": 38.894841666666665, "name": "c7329c056152a022e1574ee52f1422ca", "bike_id": "c7329c056152a022e1574ee52f1422ca", "is_disabled": 0, "fusion_lon": 0.0, "type": "electric_scooter", "lon": -77.01932116666667}, {"rental_uris": {"android": "https://dc.lft.to/lastmile_qr_scan", "ios": "https://dc.lft.to/lastmile_qr_scan"}, "fusion_lat": 0.0, "is_reserved": 0, "lat": 38.96487183333333, "name": "86c6c002e424251e5193f7fdcf3e43b2", "bike_id": "86c6c002e424251e5193f7fdcf3e43b2", "is_disabled": 0, "fusion_lon": 0.0, "type": "electric_bike", "lon": -77.02414283333333}, {"rental_uris": {"android": "https://dc.lft.to/lastmile_qr_scan", "ios": "https://dc.lft.to/lastmile_qr_scan"}, "fusion_lat": 0.0, "is_reserved": 0, "lat": 38.95853733333333, "name": "e050b87922a0f170bf87e1b64edf0b50", "bike_id": "e050b87922a0f170bf87e1b64edf0b50", "is_disabled": 0, "fusion_lon": 0.0, "type": "electric_scooter", "lon": -77.0031205}, {"rental_uris": {"android": "https://dc.lft.to/lastmile_qr_scan", "ios": "https://dc.lft.to/lastmile_qr_scan"}, "fusion_lat": 0.0, "is_reserved": 0, "lat": 38.857899833333335, "name": "41300e0af9af3b630792d431a86713ff", "bike_id": "41300e0af9af3b630792d431a86713ff", "is_disabled": 0, "fusion_lon": 0.0, "type": "electric_bike", "lon": -77.099589}, {"rental_uris": {"android": "https://dc.lft.to/lastmile_qr_scan", "ios": "https://dc.lft.to/lastmile_qr_scan"}, "fusion_lat": 0.0, "is_reserved": 0, "lat": 38.887284, "name": "40f075c9dbe065042a8d45c99b6c32bd", "bike_id": "40f075c9dbe065042a8d45c99b6c32bd", "is_disabled": 0, "fusion_lon": 0.0, "type": "electric_scooter", "lon": -76.98377516666666}, {"rental_uris": {"android": "https://dc.lft.to/lastmile_qr_scan", "ios": "https://dc.lft.to/lastmile_qr_scan"}, "fusion_lat": 0.0, "is_reserved": 0, "lat": 38.91881566666667, "name": "5abccb3ae291dd7a67fef494ed01bd4e", "bike_id": "5abccb3ae291dd7a67fef494ed01bd4e", "is_disabled": 0, "fusion_lon": 0.0, "type": "electric_scooter", "lon": -77.04174283333333}, {"rental_uris": {"android": "https://dc.lft.to/lastmile_qr_scan", "ios": "https://dc.lft.to/lastmile_qr_scan"}, "fusion_lat": 0.0, "is_reserved": 0, "lat": 38.9206105, "name": "354e45d16ab2eb90f5e8e335f87b5032", "bike_id": "354e45d16ab2eb90f5e8e335f87b5032", "is_disabled": 0, "fusion_lon": 0.0, "type": "electric_scooter", "lon": -77.02358466666666}, {"rental_uris": {"android": "https://dc.lft.to/lastmile_qr_scan", "ios": "https://dc.lft.to/lastmile_qr_scan"}, "fusion_lat": 0.0, "is_reserved": 0, "lat": 38.928860666666665, "name": "207060ac8ff32180aa97d2a8b25d62e7", "bike_id": "207060ac8ff32180aa97d2a8b25d62e7", "is_disabled": 0, "fusion_lon": 0.0, "type": "electric_scooter", "lon": -77.03221033333334}, {"rental_uris": {"android": "https://dc.lft.to/lastmile_qr_scan", "ios": "https://dc.lft.to/lastmile_qr_scan"}, "fusion_lat": 0.0, "is_reserved": 0, "lat": 38.896144666666665, "name": "752c1953b17ec88742e0fe46f6d351de", "bike_id": "752c1953b17ec88742e0fe46f6d351de", "is_disabled": 0, "fusion_lon": 0.0, "type": "electric_scooter", "lon": -77.044712}, {"rental_uris": {"android": "https://dc.lft.to/lastmile_qr_scan", "ios": "https://dc.lft.to/lastmile_qr_scan"}, "fusion_lat": 0.0, "is_reserved": 0, "lat": 38.905704166666666, "name": "6d6769c1fa29a07d38ef9550f34f6f8d", "bike_id": "6d6769c1fa29a07d38ef9550f34f6f8d", "is_disabled": 0, "fusion_lon": 0.0, "type": "electric_scooter", "lon": -77.042034}, {"rental_uris": {"android": "https://dc.lft.to/lastmile_qr_scan", "ios": "https://dc.lft.to/lastmile_qr_scan"}, "fusion_lat": 0.0, "is_reserved": 0, "lat": 38.923557833333334, "name": "87513a4126bd4e601a7636552e97a773", "bike_id": "87513a4126bd4e601a7636552e97a773", "is_disabled": 0, "fusion_lon": 0.0, "type": "electric_scooter", "lon": -77.02445733333333}, {"rental_uris": {"android": "https://dc.lft.to/lastmile_qr_scan", "ios": "https://dc.lft.to/lastmile_qr_scan"}, "fusion_lat": 0.0, "is_reserved": 0, "lat": 38.907082, "name": "c0a358e55f65c3bc24f0c4dba5c59ab6", "bike_id": "c0a358e55f65c3bc24f0c4dba5c59ab6", "is_disabled": 0, "fusion_lon": 0.0, "type": "electric_scooter", "lon": -77.02388283333333}, {"rental_uris": {"android": "https://dc.lft.to/lastmile_qr_scan", "ios": "https://dc.lft.to/lastmile_qr_scan"}, "fusion_lat": 0.0, "is_reserved": 0, "lat": 38.923122166666666, "name": "bb967ad2e826a7ad6356248624a9896d", "bike_id": "bb967ad2e826a7ad6356248624a9896d", "is_disabled": 0, "fusion_lon": 0.0, "type": "electric_scooter", "lon": -77.02897966666667}, {"rental_uris": {"android": "https://dc.lft.to/lastmile_qr_scan", "ios": "https://dc.lft.to/lastmile_qr_scan"}, "fusion_lat": 0.0, "is_reserved": 0, "lat": 38.9071845, "name": "54477598929d465fed1d19613c4b8853", "bike_id": "54477598929d465fed1d19613c4b8853", "is_disabled": 0, "fusion_lon": 0.0, "type": "electric_scooter", "lon": -77.02797016666666}, {"rental_uris": {"android": "https://dc.lft.to/lastmile_qr_scan", "ios": "https://dc.lft.to/lastmile_qr_scan"}, "fusion_lat": 0.0, "is_reserved": 0, "lat": 38.91119783333333, "name": "9454f70920598dd7906e3e44d45b05dd", "bike_id": "9454f70920598dd7906e3e44d45b05dd", "is_disabled": 0, "fusion_lon": 0.0, "type": "electric_scooter", "lon": -77.038341}, {"rental_uris": {"android": "https://dc.lft.to/lastmile_qr_scan", "ios": "https://dc.lft.to/lastmile_qr_scan"}, "fusion_lat": 0.0, "is_reserved": 0, "lat": 38.90076716666667, "name": "266b643982b9b75e03b572bfc46b95c9", "bike_id": "266b643982b9b75e03b572bfc46b95c9", "is_disabled": 0, "fusion_lon": 0.0, "type": "electric_scooter", "lon": -77.0271625}, {"rental_uris": {"android": "https://dc.lft.to/lastmile_qr_scan", "ios": "https://dc.lft.to/lastmile_qr_scan"}, "fusion_lat": 0.0, "is_reserved": 0, "lat": 38.902605333333334, "name": "f95b28057ce9af4866942148cce9f87e", "bike_id": "f95b28057ce9af4866942148cce9f87e", "is_disabled": 0, "fusion_lon": 0.0, "type": "electric_scooter", "lon": -77.02653016666666}, {"rental_uris": {"android": "https://dc.lft.to/lastmile_qr_scan", "ios": "https://dc.lft.to/lastmile_qr_scan"}, "fusion_lat": 0.0, "is_reserved": 0, "lat": 38.943079833333336, "name": "cd89632c202ec56a5c76e788b4211597", "bike_id": "cd89632c202ec56a5c76e788b4211597", "is_disabled": 0, "fusion_lon": 0.0, "type": "electric_scooter", "lon": -77.021812}, {"rental_uris": {"android": "https://dc.lft.to/lastmile_qr_scan", "ios": "https://dc.lft.to/lastmile_qr_scan"}, "fusion_lat": 0.0, "is_reserved": 0, "lat": 38.94968816666667, "name": "b4365c5f19e0a37f55c77d8942d2604a", "bike_id": "b4365c5f19e0a37f55c77d8942d2604a", "is_disabled": 0, "fusion_lon": 0.0, "type": "electric_scooter", "lon": -77.02343933333333}, {"rental_uris": {"android": "https://dc.lft.to/lastmile_qr_scan", "ios": "https://dc.lft.to/lastmile_qr_scan"}, "fusion_lat": 0.0, "is_reserved": 0, "lat": 38.8988345, "name": "cb36c1498882ef79df46dd5627f8f9ca", "bike_id": "cb36c1498882ef79df46dd5627f8f9ca", "is_disabled": 0, "fusion_lon": 0.0, "type": "electric_scooter", "lon": -77.05287366666667}, {"rental_uris": {"android": "https://dc.lft.to/lastmile_qr_scan", "ios": "https://dc.lft.to/lastmile_qr_scan"}, "fusion_lat": 0.0, "is_reserved": 0, "lat": 38.8991855, "name": "f8c7085933bdaf56ff8ff7652cf9cbc4", "bike_id": "f8c7085933bdaf56ff8ff7652cf9cbc4", "is_disabled": 0, "fusion_lon": 0.0, "type": "electric_scooter", "lon": -76.93359416666667}, {"rental_uris": {"android": "https://dc.lft.to/lastmile_qr_scan", "ios": "https://dc.lft.to/lastmile_qr_scan"}, "fusion_lat": 0.0, "is_reserved": 0, "lat": 38.88545716666667, "name": "8c8d319bf585959aee9971e903c70513", "bike_id": "8c8d319bf585959aee9971e903c70513", "is_disabled": 0, "fusion_lon": 0.0, "type": "electric_scooter", "lon": -77.0219685}, {"rental_uris": {"android": "https://dc.lft.to/lastmile_qr_scan", "ios": "https://dc.lft.to/lastmile_qr_scan"}, "fusion_lat": 0.0, "is_reserved": 0, "lat": 38.929291166666665, "name": "cb9143c003d1227f00e629018122c5ec", "bike_id": "cb9143c003d1227f00e629018122c5ec", "is_disabled": 0, "fusion_lon": 0.0, "type": "electric_scooter", "lon": -77.02964383333334}, {"rental_uris": {"android": "https://dc.lft.to/lastmile_qr_scan", "ios": "https://dc.lft.to/lastmile_qr_scan"}, "fusion_lat": 0.0, "is_reserved": 0, "lat": 38.920665666666665, "name": "8403d2b7f62ac5322b2770d015c8cb1c", "bike_id": "8403d2b7f62ac5322b2770d015c8cb1c", "is_disabled": 0, "fusion_lon": 0.0, "type": "electric_scooter", "lon": -77.03465666666666}, {"rental_uris": {"android": "https://dc.lft.to/lastmile_qr_scan", "ios": "https://dc.lft.to/lastmile_qr_scan"}, "fusion_lat": 0.0, "is_reserved": 0, "lat": 38.9059475, "name": "6cd15fdba6c921dc53bfe24e6d8c87d3", "bike_id": "6cd15fdba6c921dc53bfe24e6d8c87d3", "is_disabled": 0, "fusion_lon": 0.0, "type": "electric_scooter", "lon": -77.0424425}, {"rental_uris": {"android": "https://dc.lft.to/lastmile_qr_scan", "ios": "https://dc.lft.to/lastmile_qr_scan"}, "fusion_lat": 0.0, "is_reserved": 0, "lat": 38.90428716666667, "name": "e5e2f692e5b225e2dae2431516d7795a", "bike_id": "e5e2f692e5b225e2dae2431516d7795a", "is_disabled": 0, "fusion_lon": 0.0, "type": "electric_scooter", "lon": -77.02606133333333}, {"rental_uris": {"android": "https://dc.lft.to/lastmile_qr_scan", "ios": "https://dc.lft.to/lastmile_qr_scan"}, "fusion_lat": 0.0, "is_reserved": 0, "lat": 38.90914083333333, "name": "268d3a8e85f1a0b9eb4130fb5fec4463", "bike_id": "268d3a8e85f1a0b9eb4130fb5fec4463", "is_disabled": 0, "fusion_lon": 0.0, "type": "electric_scooter", "lon": -77.03098633333333}, {"rental_uris": {"android": "https://dc.lft.to/lastmile_qr_scan", "ios": "https://dc.lft.to/lastmile_qr_scan"}, "fusion_lat": 0.0, "is_reserved": 0, "lat": 38.954720333333334, "name": "30f853323fd8a2ded33093f9ff5203c7", "bike_id": "30f853323fd8a2ded33093f9ff5203c7", "is_disabled": 0, "fusion_lon": 0.0, "type": "electric_scooter", "lon": -77.077665}, {"rental_uris": {"android": "https://dc.lft.to/lastmile_qr_scan", "ios": "https://dc.lft.to/lastmile_qr_scan"}, "fusion_lat": 0.0, "is_reserved": 0, "lat": 38.878833166666666, "name": "1c3dd58842bfa2e22f5219f8373d0f17", "bike_id": "1c3dd58842bfa2e22f5219f8373d0f17", "is_disabled": 0, "fusion_lon": 0.0, "type": "electric_scooter", "lon": -77.005972}, {"rental_uris": {"android": "https://dc.lft.to/lastmile_qr_scan", "ios": "https://dc.lft.to/lastmile_qr_scan"}, "fusion_lat": 0.0, "is_reserved": 0, "lat": 38.91272383333333, "name": "35c986ef54ae468c263f7178a3e3946c", "bike_id": "35c986ef54ae468c263f7178a3e3946c", "is_disabled": 0, "fusion_lon": 0.0, "type": "electric_scooter", "lon": -77.03509516666666}, {"rental_uris": {"android": "https://dc.lft.to/lastmile_qr_scan", "ios": "https://dc.lft.to/lastmile_qr_scan"}, "fusion_lat": 0.0, "is_reserved": 0, "lat": 38.93457016666667, "name": "1c11abf9ea848d353ca3a0723f1431f4", "bike_id": "1c11abf9ea848d353ca3a0723f1431f4", "is_disabled": 0, "fusion_lon": 0.0, "type": "electric_scooter", "lon": -77.0272545}, {"rental_uris": {"android": "https://dc.lft.to/lastmile_qr_scan", "ios": "https://dc.lft.to/lastmile_qr_scan"}, "fusion_lat": 0.0, "is_reserved": 0, "lat": 38.913249, "name": "40613612184e4830af1ac1856b14f760", "bike_id": "40613612184e4830af1ac1856b14f760", "is_disabled": 0, "fusion_lon": 0.0, "type": "electric_scooter", "lon": -77.04725383333333}, {"rental_uris": {"android": "https://dc.lft.to/lastmile_qr_scan", "ios": "https://dc.lft.to/lastmile_qr_scan"}, "fusion_lat": 0.0, "is_reserved": 0, "lat": 38.94165616666667, "name": "1647d75f171a8881442f921274a30c2f", "bike_id": "1647d75f171a8881442f921274a30c2f", "is_disabled": 0, "fusion_lon": 0.0, "type": "electric_scooter", "lon": -77.02558133333334}, {"rental_uris": {"android": "https://dc.lft.to/lastmile_qr_scan", "ios": "https://dc.lft.to/lastmile_qr_scan"}, "fusion_lat": 0.0, "is_reserved": 0, "lat": 38.91910883333333, "name": "fcf9fbd424b7329166183988b085b009", "bike_id": "fcf9fbd424b7329166183988b085b009", "is_disabled": 0, "fusion_lon": 0.0, "type": "electric_scooter", "lon": -77.04162166666667}, {"rental_uris": {"android": "https://dc.lft.to/lastmile_qr_scan", "ios": "https://dc.lft.to/lastmile_qr_scan"}, "fusion_lat": 0.0, "is_reserved": 0, "lat": 38.903298166666666, "name": "38848d3668e84ff54ab6e557496bcf4c", "bike_id": "38848d3668e84ff54ab6e557496bcf4c", "is_disabled": 0, "fusion_lon": 0.0, "type": "electric_bike", "lon": -76.975285}, {"rental_uris": {"android": "https://dc.lft.to/lastmile_qr_scan", "ios": "https://dc.lft.to/lastmile_qr_scan"}, "fusion_lat": 0.0, "is_reserved": 0, "lat": 39.01087233333333, "name": "9a5b5c82f2284b4363b8f0f645a82603", "bike_id": "9a5b5c82f2284b4363b8f0f645a82603", "is_disabled": 0, "fusion_lon": 0.0, "type": "electric_bike", "lon": -77.049489}, {"rental_uris": {"android": "https://dc.lft.to/lastmile_qr_scan", "ios": "https://dc.lft.to/lastmile_qr_scan"}, "fusion_lat": 0.0, "is_reserved": 0, "lat": 38.90733216666667, "name": "c1ca0ff0ddc0cfde1314b52073017291", "bike_id": "c1ca0ff0ddc0cfde1314b52073017291", "is_disabled": 0, "fusion_lon": 0.0, "type": "electric_scooter", "lon": -77.0330995}, {"rental_uris": {"android": "https://dc.lft.to/lastmile_qr_scan", "ios": "https://dc.lft.to/lastmile_qr_scan"}, "fusion_lat": 0.0, "is_reserved": 0, "lat": 38.91551716666667, "name": "bb0612c3f7e492eff43fe3a65cc23f0a", "bike_id": "bb0612c3f7e492eff43fe3a65cc23f0a", "is_disabled": 0, "fusion_lon": 0.0, "type": "electric_scooter", "lon": -77.04171116666667}, {"rental_uris": {"android": "https://dc.lft.to/lastmile_qr_scan", "ios": "https://dc.lft.to/lastmile_qr_scan"}, "fusion_lat": 0.0, "is_reserved": 0, "lat": 38.857876, "name": "b630cfb0c8bb3bd7938f5b2e9457652f", "bike_id": "b630cfb0c8bb3bd7938f5b2e9457652f", "is_disabled": 0, "fusion_lon": 0.0, "type": "electric_bike", "lon": -76.9874}, {"rental_uris": {"android": "https://dc.lft.to/lastmile_qr_scan", "ios": "https://dc.lft.to/lastmile_qr_scan"}, "fusion_lat": 0.0, "is_reserved": 0, "lat": 38.92074683333333, "name": "99ca4963ee784547c4d97a48e08ab1be", "bike_id": "99ca4963ee784547c4d97a48e08ab1be", "is_disabled": 0, "fusion_lon": 0.0, "type": "electric_scooter", "lon": -77.024209}, {"rental_uris": {"android": "https://dc.lft.to/lastmile_qr_scan", "ios": "https://dc.lft.to/lastmile_qr_scan"}, "fusion_lat": 0.0, "is_reserved": 0, "lat": 38.8850265, "name": "26bca1095f1801c01ba37532d85658c9", "bike_id": "26bca1095f1801c01ba37532d85658c9", "is_disabled": 0, "fusion_lon": 0.0, "type": "electric_scooter", "lon": -77.002208}, {"rental_uris": {"android": "https://dc.lft.to/lastmile_qr_scan", "ios": "https://dc.lft.to/lastmile_qr_scan"}, "fusion_lat": 0.0, "is_reserved": 0, "lat": 38.9244215, "name": "75e734f32788c975ea0f61e936af1415", "bike_id": "75e734f32788c975ea0f61e936af1415", "is_disabled": 0, "fusion_lon": 0.0, "type": "electric_scooter", "lon": -76.996658}, {"rental_uris": {"android": "https://dc.lft.to/lastmile_qr_scan", "ios": "https://dc.lft.to/lastmile_qr_scan"}, "fusion_lat": 0.0, "is_reserved": 0, "lat": 38.862890666666665, "name": "7f63efc6d1ef5a3a45f222b8e8f8cda4", "bike_id": "7f63efc6d1ef5a3a45f222b8e8f8cda4", "is_disabled": 0, "fusion_lon": 0.0, "type": "electric_bike", "lon": -76.98005566666667}, {"rental_uris": {"android": "https://dc.lft.to/lastmile_qr_scan", "ios": "https://dc.lft.to/lastmile_qr_scan"}, "fusion_lat": 0.0, "is_reserved": 0, "lat": 38.92501016666667, "name": "1157741c0f4e31347a84ede0b11e4b00", "bike_id": "1157741c0f4e31347a84ede0b11e4b00", "is_disabled": 0, "fusion_lon": 0.0, "type": "electric_scooter", "lon": -77.037862}, {"rental_uris": {"android": "https://dc.lft.to/lastmile_qr_scan", "ios": "https://dc.lft.to/lastmile_qr_scan"}, "fusion_lat": 0.0, "is_reserved": 0, "lat": 38.89533133333333, "name": "d92decdda57d56d09354ca659c74907d", "bike_id": "d92decdda57d56d09354ca659c74907d", "is_disabled": 0, "fusion_lon": 0.0, "type": "electric_scooter", "lon": -76.94887716666666}, {"rental_uris": {"android": "https://dc.lft.to/lastmile_qr_scan", "ios": "https://dc.lft.to/lastmile_qr_scan"}, "fusion_lat": 0.0, "is_reserved": 0, "lat": 38.89504683333333, "name": "6b5d218a17a4372742cbbb62e63cfb1f", "bike_id": "6b5d218a17a4372742cbbb62e63cfb1f", "is_disabled": 0, "fusion_lon": 0.0, "type": "electric_scooter", "lon": -76.9347725}, {"rental_uris": {"android": "https://dc.lft.to/lastmile_qr_scan", "ios": "https://dc.lft.to/lastmile_qr_scan"}, "fusion_lat": 0.0, "is_reserved": 0, "lat": 38.893648, "name": "96c6c03924f1e092236d7075d501d2e3", "bike_id": "96c6c03924f1e092236d7075d501d2e3", "is_disabled": 0, "fusion_lon": 0.0, "type": "electric_scooter", "lon": -76.93593066666666}, {"rental_uris": {"android": "https://dc.lft.to/lastmile_qr_scan", "ios": "https://dc.lft.to/lastmile_qr_scan"}, "fusion_lat": 0.0, "is_reserved": 0, "lat": 38.892280166666666, "name": "2dd5e94eaabf6b9a544f3a3ea1011354", "bike_id": "2dd5e94eaabf6b9a544f3a3ea1011354", "is_disabled": 0, "fusion_lon": 0.0, "type": "electric_scooter", "lon": -77.04086516666666}, {"rental_uris": {"android": "https://dc.lft.to/lastmile_qr_scan", "ios": "https://dc.lft.to/lastmile_qr_scan"}, "fusion_lat": 0.0, "is_reserved": 0, "lat": 38.86660083333334, "name": "a90beaec0c9343e70fedb533165af574", "bike_id": "a90beaec0c9343e70fedb533165af574", "is_disabled": 0, "fusion_lon": 0.0, "type": "electric_scooter", "lon": -76.97911716666667}, {"rental_uris": {"android": "https://dc.lft.to/lastmile_qr_scan", "ios": "https://dc.lft.to/lastmile_qr_scan"}, "fusion_lat": 0.0, "is_reserved": 0, "lat": 38.88738816666667, "name": "124fd251890dbba473b7a8c5f81cb15c", "bike_id": "124fd251890dbba473b7a8c5f81cb15c", "is_disabled": 0, "fusion_lon": 0.0, "type": "electric_scooter", "lon": -77.025968}, {"rental_uris": {"android": "https://dc.lft.to/lastmile_qr_scan", "ios": "https://dc.lft.to/lastmile_qr_scan"}, "fusion_lat": 0.0, "is_reserved": 0, "lat": 38.9223605, "name": "cb3d51709938247487d0c586cc7a1e6d", "bike_id": "cb3d51709938247487d0c586cc7a1e6d", "is_disabled": 0, "fusion_lon": 0.0, "type": "electric_scooter", "lon": -77.03513433333333}, {"rental_uris": {"android": "https://dc.lft.to/lastmile_qr_scan", "ios": "https://dc.lft.to/lastmile_qr_scan"}, "fusion_lat": 0.0, "is_reserved": 0, "lat": 38.91333616666667, "name": "236b1b904d720098f007e58ed838f8a5", "bike_id": "236b1b904d720098f007e58ed838f8a5", "is_disabled": 0, "fusion_lon": 0.0, "type": "electric_scooter", "lon": -77.01657466666667}, {"rental_uris": {"android": "https://dc.lft.to/lastmile_qr_scan", "ios": "https://dc.lft.to/lastmile_qr_scan"}, "fusion_lat": 0.0, "is_reserved": 0, "lat": 38.80378983333333, "name": "9c4c246ab1f541e90786e57de24d9add", "bike_id": "9c4c246ab1f541e90786e57de24d9add", "is_disabled": 0, "fusion_lon": 0.0, "type": "electric_bike", "lon": -76.98822383333334}, {"rental_uris": {"android": "https://dc.lft.to/lastmile_qr_scan", "ios": "https://dc.lft.to/lastmile_qr_scan"}, "fusion_lat": 0.0, "is_reserved": 0, "lat": 38.90658166666667, "name": "420c5f3083bfef2392348a2f39528391", "bike_id": "420c5f3083bfef2392348a2f39528391", "is_disabled": 0, "fusion_lon": 0.0, "type": "electric_scooter", "lon": -77.05307483333333}, {"rental_uris": {"android": "https://dc.lft.to/lastmile_qr_scan", "ios": "https://dc.lft.to/lastmile_qr_scan"}, "fusion_lat": 0.0, "is_reserved": 0, "lat": 38.918244666666666, "name": "2f502833ffdb106c68faedc571027e95", "bike_id": "2f502833ffdb106c68faedc571027e95", "is_disabled": 0, "fusion_lon": 0.0, "type": "electric_scooter", "lon": -77.03179366666667}, {"rental_uris": {"android": "https://dc.lft.to/lastmile_qr_scan", "ios": "https://dc.lft.to/lastmile_qr_scan"}, "fusion_lat": 0.0, "is_reserved": 0, "lat": 38.89624583333333, "name": "6c3fd14289fbf6683df5c805be52fe62", "bike_id": "6c3fd14289fbf6683df5c805be52fe62", "is_disabled": 0, "fusion_lon": 0.0, "type": "electric_scooter", "lon": -77.028009}, {"rental_uris": {"android": "https://dc.lft.to/lastmile_qr_scan", "ios": "https://dc.lft.to/lastmile_qr_scan"}, "fusion_lat": 0.0, "is_reserved": 0, "lat": 38.9177715, "name": "d9d6c4643f74b4bc875ba85c3f812cff", "bike_id": "d9d6c4643f74b4bc875ba85c3f812cff", "is_disabled": 0, "fusion_lon": 0.0, "type": "electric_scooter", "lon": -77.04415233333333}, {"rental_uris": {"android": "https://dc.lft.to/lastmile_qr_scan", "ios": "https://dc.lft.to/lastmile_qr_scan"}, "fusion_lat": 0.0, "is_reserved": 0, "lat": 38.91476, "name": "39331f91f00bafb1fda4065e2fe78c85", "bike_id": "39331f91f00bafb1fda4065e2fe78c85", "is_disabled": 0, "fusion_lon": 0.0, "type": "electric_scooter", "lon": -77.03835616666667}, {"rental_uris": {"android": "https://dc.lft.to/lastmile_qr_scan", "ios": "https://dc.lft.to/lastmile_qr_scan"}, "fusion_lat": 0.0, "is_reserved": 0, "lat": 38.83810966666667, "name": "b7452ad2c0c5209c057194f5001622c7", "bike_id": "b7452ad2c0c5209c057194f5001622c7", "is_disabled": 0, "fusion_lon": 0.0, "type": "electric_bike", "lon": -77.095216}, {"rental_uris": {"android": "https://dc.lft.to/lastmile_qr_scan", "ios": "https://dc.lft.to/lastmile_qr_scan"}, "fusion_lat": 0.0, "is_reserved": 0, "lat": 38.894731, "name": "654fe4595a177a3865d77d2fb1a9b60d", "bike_id": "654fe4595a177a3865d77d2fb1a9b60d", "is_disabled": 0, "fusion_lon": 0.0, "type": "electric_scooter", "lon": -77.02667383333333}, {"rental_uris": {"android": "https://dc.lft.to/lastmile_qr_scan", "ios": "https://dc.lft.to/lastmile_qr_scan"}, "fusion_lat": 0.0, "is_reserved": 0, "lat": 38.935042333333335, "name": "7d5e2cf98327d29ba0ddd3e93a59ebf4", "bike_id": "7d5e2cf98327d29ba0ddd3e93a59ebf4", "is_disabled": 0, "fusion_lon": 0.0, "type": "electric_scooter", "lon": -77.02008483333333}, {"rental_uris": {"android": "https://dc.lft.to/lastmile_qr_scan", "ios": "https://dc.lft.to/lastmile_qr_scan"}, "fusion_lat": 0.0, "is_reserved": 0, "lat": 38.93356766666667, "name": "3c718801fd792c05b90a4272dcea24cf", "bike_id": "3c718801fd792c05b90a4272dcea24cf", "is_disabled": 0, "fusion_lon": 0.0, "type": "electric_scooter", "lon": -77.02563033333334}, {"rental_uris": {"android": "https://dc.lft.to/lastmile_qr_scan", "ios": "https://dc.lft.to/lastmile_qr_scan"}, "fusion_lat": 0.0, "is_reserved": 0, "lat": 38.91286733333333, "name": "6e4b1c51544745b7b0dc002904614d2b", "bike_id": "6e4b1c51544745b7b0dc002904614d2b", "is_disabled": 0, "fusion_lon": 0.0, "type": "electric_scooter", "lon": -77.02303316666666}, {"rental_uris": {"android": "https://dc.lft.to/lastmile_qr_scan", "ios": "https://dc.lft.to/lastmile_qr_scan"}, "fusion_lat": 0.0, "is_reserved": 0, "lat": 38.9335495, "name": "37491dd50de0c0c7f58df618c0524ecb", "bike_id": "37491dd50de0c0c7f58df618c0524ecb", "is_disabled": 0, "fusion_lon": 0.0, "type": "electric_scooter", "lon": -77.05696766666667}, {"rental_uris": {"android": "https://dc.lft.to/lastmile_qr_scan", "ios": "https://dc.lft.to/lastmile_qr_scan"}, "fusion_lat": 0.0, "is_reserved": 0, "lat": 38.91473666666667, "name": "17a36ed3d035097f9279008246f2fedc", "bike_id": "17a36ed3d035097f9279008246f2fedc", "is_disabled": 0, "fusion_lon": 0.0, "type": "electric_scooter", "lon": -77.032098}, {"rental_uris": {"android": "https://dc.lft.to/lastmile_qr_scan", "ios": "https://dc.lft.to/lastmile_qr_scan"}, "fusion_lat": 0.0, "is_reserved": 0, "lat": 38.926837666666664, "name": "d9237308b8f034f04b0b57af1708ef3b", "bike_id": "d9237308b8f034f04b0b57af1708ef3b", "is_disabled": 0, "fusion_lon": 0.0, "type": "electric_scooter", "lon": -77.02252683333333}, {"rental_uris": {"android": "https://dc.lft.to/lastmile_qr_scan", "ios": "https://dc.lft.to/lastmile_qr_scan"}, "fusion_lat": 0.0, "is_reserved": 0, "lat": 38.8403255, "name": "d5c51c259fbfc80af35c42ef5b4e8406", "bike_id": "d5c51c259fbfc80af35c42ef5b4e8406", "is_disabled": 0, "fusion_lon": 0.0, "type": "electric_bike", "lon": -76.9761545}, {"rental_uris": {"android": "https://dc.lft.to/lastmile_qr_scan", "ios": "https://dc.lft.to/lastmile_qr_scan"}, "fusion_lat": 0.0, "is_reserved": 0, "lat": 38.920899666666664, "name": "512d2e5547dd708aef44bd81254c52a2", "bike_id": "512d2e5547dd708aef44bd81254c52a2", "is_disabled": 0, "fusion_lon": 0.0, "type": "electric_scooter", "lon": -77.02182783333333}, {"rental_uris": {"android": "https://dc.lft.to/lastmile_qr_scan", "ios": "https://dc.lft.to/lastmile_qr_scan"}, "fusion_lat": 0.0, "is_reserved": 0, "lat": 38.91105783333333, "name": "d7a1aa87d4df59682e7b6503eddb5422", "bike_id": "d7a1aa87d4df59682e7b6503eddb5422", "is_disabled": 0, "fusion_lon": 0.0, "type": "electric_scooter", "lon": -77.044487}, {"rental_uris": {"android": "https://dc.lft.to/lastmile_qr_scan", "ios": "https://dc.lft.to/lastmile_qr_scan"}, "fusion_lat": 0.0, "is_reserved": 0, "lat": 38.91754866666667, "name": "55861a07dd2655ba1733a98428e297f7", "bike_id": "55861a07dd2655ba1733a98428e297f7", "is_disabled": 0, "fusion_lon": 0.0, "type": "electric_scooter", "lon": -77.0476605}, {"rental_uris": {"android": "https://dc.lft.to/lastmile_qr_scan", "ios": "https://dc.lft.to/lastmile_qr_scan"}, "fusion_lat": 0.0, "is_reserved": 0, "lat": 38.8983195, "name": "a3da17131666e63fdfcf1c964a514ec1", "bike_id": "a3da17131666e63fdfcf1c964a514ec1", "is_disabled": 0, "fusion_lon": 0.0, "type": "electric_scooter", "lon": -77.049059}, {"rental_uris": {"android": "https://dc.lft.to/lastmile_qr_scan", "ios": "https://dc.lft.to/lastmile_qr_scan"}, "fusion_lat": 0.0, "is_reserved": 0, "lat": 38.8467335, "name": "7fef50a35fa26fcd78ff883baf1f9541", "bike_id": "7fef50a35fa26fcd78ff883baf1f9541", "is_disabled": 0, "fusion_lon": 0.0, "type": "electric_bike", "lon": -77.13918966666667}, {"rental_uris": {"android": "https://dc.lft.to/lastmile_qr_scan", "ios": "https://dc.lft.to/lastmile_qr_scan"}, "fusion_lat": 0.0, "is_reserved": 0, "lat": 38.920806166666665, "name": "b9d799f745eafdd8aca6d112530473f6", "bike_id": "b9d799f745eafdd8aca6d112530473f6", "is_disabled": 0, "fusion_lon": 0.0, "type": "electric_scooter", "lon": -77.03561033333334}, {"rental_uris": {"android": "https://dc.lft.to/lastmile_qr_scan", "ios": "https://dc.lft.to/lastmile_qr_scan"}, "fusion_lat": 0.0, "is_reserved": 0, "lat": 38.90409866666667, "name": "181671b77cf326688bdd20edc377e7fe", "bike_id": "181671b77cf326688bdd20edc377e7fe", "is_disabled": 0, "fusion_lon": 0.0, "type": "electric_scooter", "lon": -76.97328216666666}, {"rental_uris": {"android": "https://dc.lft.to/lastmile_qr_scan", "ios": "https://dc.lft.to/lastmile_qr_scan"}, "fusion_lat": 0.0, "is_reserved": 0, "lat": 38.91266483333333, "name": "eb6c76bb94a7f2aa92dd85cc1fffef10", "bike_id": "eb6c76bb94a7f2aa92dd85cc1fffef10", "is_disabled": 0, "fusion_lon": 0.0, "type": "electric_scooter", "lon": -77.045534}, {"rental_uris": {"android": "https://dc.lft.to/lastmile_qr_scan", "ios": "https://dc.lft.to/lastmile_qr_scan"}, "fusion_lat": 0.0, "is_reserved": 0, "lat": 38.93049383333334, "name": "da572079dcf07ad2438950df63698b5a", "bike_id": "da572079dcf07ad2438950df63698b5a", "is_disabled": 0, "fusion_lon": 0.0, "type": "electric_scooter", "lon": -76.95835}, {"rental_uris": {"android": "https://dc.lft.to/lastmile_qr_scan", "ios": "https://dc.lft.to/lastmile_qr_scan"}, "fusion_lat": 0.0, "is_reserved": 0, "lat": 38.921361, "name": "65d6684704f65aae1e4a45d1a3d1c34f", "bike_id": "65d6684704f65aae1e4a45d1a3d1c34f", "is_disabled": 0, "fusion_lon": 0.0, "type": "electric_scooter", "lon": -77.03658183333333}, {"rental_uris": {"android": "https://dc.lft.to/lastmile_qr_scan", "ios": "https://dc.lft.to/lastmile_qr_scan"}, "fusion_lat": 0.0, "is_reserved": 0, "lat": 38.876562, "name": "0a7e0c231f461c1d5ab647a5201e4179", "bike_id": "0a7e0c231f461c1d5ab647a5201e4179", "is_disabled": 0, "fusion_lon": 0.0, "type": "electric_scooter", "lon": -76.99326283333333}, {"rental_uris": {"android": "https://dc.lft.to/lastmile_qr_scan", "ios": "https://dc.lft.to/lastmile_qr_scan"}, "fusion_lat": 0.0, "is_reserved": 0, "lat": 38.90070033333333, "name": "6442457f7a5abf2af0c1f8a658903804", "bike_id": "6442457f7a5abf2af0c1f8a658903804", "is_disabled": 0, "fusion_lon": 0.0, "type": "electric_scooter", "lon": -77.026105}, {"rental_uris": {"android": "https://dc.lft.to/lastmile_qr_scan", "ios": "https://dc.lft.to/lastmile_qr_scan"}, "fusion_lat": 0.0, "is_reserved": 0, "lat": 38.899613333333335, "name": "a07ccfd6a4c583d5bf9a6a5b42a90826", "bike_id": "a07ccfd6a4c583d5bf9a6a5b42a90826", "is_disabled": 0, "fusion_lon": 0.0, "type": "electric_scooter", "lon": -77.01603283333333}, {"rental_uris": {"android": "https://dc.lft.to/lastmile_qr_scan", "ios": "https://dc.lft.to/lastmile_qr_scan"}, "fusion_lat": 0.0, "is_reserved": 0, "lat": 38.87534333333333, "name": "5ddfc0a39951beca4741ed84f56fc7ce", "bike_id": "5ddfc0a39951beca4741ed84f56fc7ce", "is_disabled": 0, "fusion_lon": 0.0, "type": "electric_scooter", "lon": -77.01751966666667}, {"rental_uris": {"android": "https://dc.lft.to/lastmile_qr_scan", "ios": "https://dc.lft.to/lastmile_qr_scan"}, "fusion_lat": 0.0, "is_reserved": 0, "lat": 38.97372816666667, "name": "59fe244beded6a41f4e17c80c37b380d", "bike_id": "59fe244beded6a41f4e17c80c37b380d", "is_disabled": 0, "fusion_lon": 0.0, "type": "electric_scooter", "lon": -77.026726}, {"rental_uris": {"android": "https://dc.lft.to/lastmile_qr_scan", "ios": "https://dc.lft.to/lastmile_qr_scan"}, "fusion_lat": 0.0, "is_reserved": 0, "lat": 38.8931985, "name": "b0efe1dd4181602a42b81bdb500b0acb", "bike_id": "b0efe1dd4181602a42b81bdb500b0acb", "is_disabled": 0, "fusion_lon": 0.0, "type": "electric_scooter", "lon": -76.939662}, {"rental_uris": {"android": "https://dc.lft.to/lastmile_qr_scan", "ios": "https://dc.lft.to/lastmile_qr_scan"}, "fusion_lat": 0.0, "is_reserved": 0, "lat": 38.90591383333334, "name": "46cc7714a39e1e2c243870ced81a1a57", "bike_id": "46cc7714a39e1e2c243870ced81a1a57", "is_disabled": 0, "fusion_lon": 0.0, "type": "electric_scooter", "lon": -77.021842}, {"rental_uris": {"android": "https://dc.lft.to/lastmile_qr_scan", "ios": "https://dc.lft.to/lastmile_qr_scan"}, "fusion_lat": 0.0, "is_reserved": 0, "lat": 38.917606, "name": "c6c2d60769f2bba651d17c2b7de62f4e", "bike_id": "c6c2d60769f2bba651d17c2b7de62f4e", "is_disabled": 0, "fusion_lon": 0.0, "type": "electric_scooter", "lon": -77.04741533333333}, {"rental_uris": {"android": "https://dc.lft.to/lastmile_qr_scan", "ios": "https://dc.lft.to/lastmile_qr_scan"}, "fusion_lat": 0.0, "is_reserved": 0, "lat": 38.91270166666666, "name": "885fea496a4c0a0285f22fe2ddea683d", "bike_id": "885fea496a4c0a0285f22fe2ddea683d", "is_disabled": 0, "fusion_lon": 0.0, "type": "electric_scooter", "lon": -77.0220945}, {"rental_uris": {"android": "https://dc.lft.to/lastmile_qr_scan", "ios": "https://dc.lft.to/lastmile_qr_scan"}, "fusion_lat": 0.0, "is_reserved": 0, "lat": 38.91554383333333, "name": "1ea9583c2290626aa2cb58fdef238eda", "bike_id": "1ea9583c2290626aa2cb58fdef238eda", "is_disabled": 0, "fusion_lon": 0.0, "type": "electric_scooter", "lon": -77.03991833333333}, {"rental_uris": {"android": "https://dc.lft.to/lastmile_qr_scan", "ios": "https://dc.lft.to/lastmile_qr_scan"}, "fusion_lat": 0.0, "is_reserved": 0, "lat": 38.928645, "name": "ae64b305108ba23637fb7fd65e5b20ce", "bike_id": "ae64b305108ba23637fb7fd65e5b20ce", "is_disabled": 0, "fusion_lon": 0.0, "type": "electric_scooter", "lon": -77.03416466666667}, {"rental_uris": {"android": "https://dc.lft.to/lastmile_qr_scan", "ios": "https://dc.lft.to/lastmile_qr_scan"}, "fusion_lat": 0.0, "is_reserved": 0, "lat": 38.953562166666664, "name": "23ef0e23d49bd18b4ad099b55cab6c0a", "bike_id": "23ef0e23d49bd18b4ad099b55cab6c0a", "is_disabled": 0, "fusion_lon": 0.0, "type": "electric_bike", "lon": -76.98096216666667}, {"rental_uris": {"android": "https://dc.lft.to/lastmile_qr_scan", "ios": "https://dc.lft.to/lastmile_qr_scan"}, "fusion_lat": 0.0, "is_reserved": 0, "lat": 38.903449, "name": "3d30944dbcec4af2bf099042f5f2e0ae", "bike_id": "3d30944dbcec4af2bf099042f5f2e0ae", "is_disabled": 0, "fusion_lon": 0.0, "type": "electric_scooter", "lon": -76.98611966666667}, {"rental_uris": {"android": "https://dc.lft.to/lastmile_qr_scan", "ios": "https://dc.lft.to/lastmile_qr_scan"}, "fusion_lat": 0.0, "is_reserved": 0, "lat": 38.937548666666665, "name": "ceef4ecc58837c762fe7ba06005e49b0", "bike_id": "ceef4ecc58837c762fe7ba06005e49b0", "is_disabled": 0, "fusion_lon": 0.0, "type": "electric_scooter", "lon": -77.024751}, {"rental_uris": {"android": "https://dc.lft.to/lastmile_qr_scan", "ios": "https://dc.lft.to/lastmile_qr_scan"}, "fusion_lat": 0.0, "is_reserved": 0, "lat": 38.922272, "name": "d3738708fd81f28b73c74eae92839606", "bike_id": "d3738708fd81f28b73c74eae92839606", "is_disabled": 0, "fusion_lon": 0.0, "type": "electric_scooter", "lon": -77.03754633333334}, {"rental_uris": {"android": "https://dc.lft.to/lastmile_qr_scan", "ios": "https://dc.lft.to/lastmile_qr_scan"}, "fusion_lat": 0.0, "is_reserved": 0, "lat": 38.91714616666667, "name": "481ee9f9122442dd9b646f37b61656f1", "bike_id": "481ee9f9122442dd9b646f37b61656f1", "is_disabled": 0, "fusion_lon": 0.0, "type": "electric_scooter", "lon": -77.03342883333333}, {"rental_uris": {"android": "https://dc.lft.to/lastmile_qr_scan", "ios": "https://dc.lft.to/lastmile_qr_scan"}, "fusion_lat": 0.0, "is_reserved": 0, "lat": 38.876580833333335, "name": "c371300f36c86579bb4fdb1ccab98622", "bike_id": "c371300f36c86579bb4fdb1ccab98622", "is_disabled": 0, "fusion_lon": 0.0, "type": "electric_scooter", "lon": -77.00424766666667}, {"rental_uris": {"android": "https://dc.lft.to/lastmile_qr_scan", "ios": "https://dc.lft.to/lastmile_qr_scan"}, "fusion_lat": 0.0, "is_reserved": 0, "lat": 38.92453866666666, "name": "dd61e8d692e29208a94d10b280497fb4", "bike_id": "dd61e8d692e29208a94d10b280497fb4", "is_disabled": 0, "fusion_lon": 0.0, "type": "electric_scooter", "lon": -77.041068}, {"rental_uris": {"android": "https://dc.lft.to/lastmile_qr_scan", "ios": "https://dc.lft.to/lastmile_qr_scan"}, "fusion_lat": 0.0, "is_reserved": 0, "lat": 38.92335716666667, "name": "d875526e694026906637d3957dd2b91b", "bike_id": "d875526e694026906637d3957dd2b91b", "is_disabled": 0, "fusion_lon": 0.0, "type": "electric_scooter", "lon": -77.00891416666667}, {"rental_uris": {"android": "https://dc.lft.to/lastmile_qr_scan", "ios": "https://dc.lft.to/lastmile_qr_scan"}, "fusion_lat": 0.0, "is_reserved": 0, "lat": 38.917878, "name": "ea33a1c53eacb869a2f01dae6e184f2c", "bike_id": "ea33a1c53eacb869a2f01dae6e184f2c", "is_disabled": 0, "fusion_lon": 0.0, "type": "electric_scooter", "lon": -77.03440116666667}, {"rental_uris": {"android": "https://dc.lft.to/lastmile_qr_scan", "ios": "https://dc.lft.to/lastmile_qr_scan"}, "fusion_lat": 0.0, "is_reserved": 0, "lat": 38.9412985, "name": "e458e11e531eaae9c0e5b6279c67d827", "bike_id": "e458e11e531eaae9c0e5b6279c67d827", "is_disabled": 0, "fusion_lon": 0.0, "type": "electric_scooter", "lon": -77.061744}, {"rental_uris": {"android": "https://dc.lft.to/lastmile_qr_scan", "ios": "https://dc.lft.to/lastmile_qr_scan"}, "fusion_lat": 0.0, "is_reserved": 0, "lat": 38.9003015, "name": "9fc9509b1fa0e4233536b75565eff5ad", "bike_id": "9fc9509b1fa0e4233536b75565eff5ad", "is_disabled": 0, "fusion_lon": 0.0, "type": "electric_scooter", "lon": -77.02708633333333}, {"rental_uris": {"android": "https://dc.lft.to/lastmile_qr_scan", "ios": "https://dc.lft.to/lastmile_qr_scan"}, "fusion_lat": 0.0, "is_reserved": 0, "lat": 38.85950533333333, "name": "20d150fb84a3b891425f826b64d9d577", "bike_id": "20d150fb84a3b891425f826b64d9d577", "is_disabled": 0, "fusion_lon": 0.0, "type": "electric_scooter", "lon": -76.99150916666666}, {"rental_uris": {"android": "https://dc.lft.to/lastmile_qr_scan", "ios": "https://dc.lft.to/lastmile_qr_scan"}, "fusion_lat": 0.0, "is_reserved": 0, "lat": 38.93503416666667, "name": "a0173a7d3489314f157d8b46dd237508", "bike_id": "a0173a7d3489314f157d8b46dd237508", "is_disabled": 0, "fusion_lon": 0.0, "type": "electric_scooter", "lon": -77.027282}, {"rental_uris": {"android": "https://dc.lft.to/lastmile_qr_scan", "ios": "https://dc.lft.to/lastmile_qr_scan"}, "fusion_lat": 0.0, "is_reserved": 0, "lat": 38.91976483333333, "name": "e72d66d638e6f3928147e125580def6d", "bike_id": "e72d66d638e6f3928147e125580def6d", "is_disabled": 0, "fusion_lon": 0.0, "type": "electric_scooter", "lon": -77.04129666666667}, {"rental_uris": {"android": "https://dc.lft.to/lastmile_qr_scan", "ios": "https://dc.lft.to/lastmile_qr_scan"}, "fusion_lat": 0.0, "is_reserved": 0, "lat": 38.921801333333335, "name": "8dfbd96a02b8ef1b22104f0f40e4eaff", "bike_id": "8dfbd96a02b8ef1b22104f0f40e4eaff", "is_disabled": 0, "fusion_lon": 0.0, "type": "electric_scooter", "lon": -76.9983605}, {"rental_uris": {"android": "https://dc.lft.to/lastmile_qr_scan", "ios": "https://dc.lft.to/lastmile_qr_scan"}, "fusion_lat": 0.0, "is_reserved": 0, "lat": 38.89957883333334, "name": "95c6f3fd3a854fa0ddaa6dac503f25e4", "bike_id": "95c6f3fd3a854fa0ddaa6dac503f25e4", "is_disabled": 0, "fusion_lon": 0.0, "type": "electric_bike", "lon": -76.98050583333334}, {"rental_uris": {"android": "https://dc.lft.to/lastmile_qr_scan", "ios": "https://dc.lft.to/lastmile_qr_scan"}, "fusion_lat": 0.0, "is_reserved": 0, "lat": 38.885224666666666, "name": "aa1e4be6d80bfb6b8b1567e288bed341", "bike_id": "aa1e4be6d80bfb6b8b1567e288bed341", "is_disabled": 0, "fusion_lon": 0.0, "type": "electric_scooter", "lon": -76.97710116666667}, {"rental_uris": {"android": "https://dc.lft.to/lastmile_qr_scan", "ios": "https://dc.lft.to/lastmile_qr_scan"}, "fusion_lat": 0.0, "is_reserved": 0, "lat": 38.96032183333333, "name": "0b807b14b0e16594b4c7a6997ec16118", "bike_id": "0b807b14b0e16594b4c7a6997ec16118", "is_disabled": 0, "fusion_lon": 0.0, "type": "electric_scooter", "lon": -77.02429183333334}, {"rental_uris": {"android": "https://dc.lft.to/lastmile_qr_scan", "ios": "https://dc.lft.to/lastmile_qr_scan"}, "fusion_lat": 0.0, "is_reserved": 0, "lat": 38.915709, "name": "5b3dde3f95ba663a6752c9d0c93702a6", "bike_id": "5b3dde3f95ba663a6752c9d0c93702a6", "is_disabled": 0, "fusion_lon": 0.0, "type": "electric_scooter", "lon": -77.0471625}, {"rental_uris": {"android": "https://dc.lft.to/lastmile_qr_scan", "ios": "https://dc.lft.to/lastmile_qr_scan"}, "fusion_lat": 0.0, "is_reserved": 0, "lat": 38.91386383333333, "name": "4f295b978b3af98ff7471ef62e5632ba", "bike_id": "4f295b978b3af98ff7471ef62e5632ba", "is_disabled": 0, "fusion_lon": 0.0, "type": "electric_scooter", "lon": -76.98413283333333}, {"rental_uris": {"android": "https://dc.lft.to/lastmile_qr_scan", "ios": "https://dc.lft.to/lastmile_qr_scan"}, "fusion_lat": 0.0, "is_reserved": 0, "lat": 38.909695, "name": "2d761451a055ed5738cc375aa8169eab", "bike_id": "2d761451a055ed5738cc375aa8169eab", "is_disabled": 0, "fusion_lon": 0.0, "type": "electric_scooter", "lon": -77.03216816666666}, {"rental_uris": {"android": "https://dc.lft.to/lastmile_qr_scan", "ios": "https://dc.lft.to/lastmile_qr_scan"}, "fusion_lat": 0.0, "is_reserved": 0, "lat": 38.908481333333334, "name": "ad65888d002996d903b22db4f631cef6", "bike_id": "ad65888d002996d903b22db4f631cef6", "is_disabled": 0, "fusion_lon": 0.0, "type": "electric_scooter", "lon": -77.0036255}, {"rental_uris": {"android": "https://dc.lft.to/lastmile_qr_scan", "ios": "https://dc.lft.to/lastmile_qr_scan"}, "fusion_lat": 0.0, "is_reserved": 0, "lat": 38.935122166666666, "name": "249ac86df6340b3d288bcf6128afeae2", "bike_id": "249ac86df6340b3d288bcf6128afeae2", "is_disabled": 0, "fusion_lon": 0.0, "type": "electric_scooter", "lon": -77.03287533333334}, {"rental_uris": {"android": "https://dc.lft.to/lastmile_qr_scan", "ios": "https://dc.lft.to/lastmile_qr_scan"}, "fusion_lat": 0.0, "is_reserved": 0, "lat": 38.89811866666667, "name": "5d24d0fa54e4fa62fd9a5e0563eba399", "bike_id": "5d24d0fa54e4fa62fd9a5e0563eba399", "is_disabled": 0, "fusion_lon": 0.0, "type": "electric_bike", "lon": -76.990725}, {"rental_uris": {"android": "https://dc.lft.to/lastmile_qr_scan", "ios": "https://dc.lft.to/lastmile_qr_scan"}, "fusion_lat": 0.0, "is_reserved": 0, "lat": 38.915772, "name": "bc649c7e8b9498f584e24f3f21a61d14", "bike_id": "bc649c7e8b9498f584e24f3f21a61d14", "is_disabled": 0, "fusion_lon": 0.0, "type": "electric_scooter", "lon": -77.01234033333333}, {"rental_uris": {"android": "https://dc.lft.to/lastmile_qr_scan", "ios": "https://dc.lft.to/lastmile_qr_scan"}, "fusion_lat": 0.0, "is_reserved": 0, "lat": 38.98433716666667, "name": "9d5dc073e927727955fc364dddb2cba1", "bike_id": "9d5dc073e927727955fc364dddb2cba1", "is_disabled": 0, "fusion_lon": 0.0, "type": "electric_scooter", "lon": -77.026726}, {"rental_uris": {"android": "https://dc.lft.to/lastmile_qr_scan", "ios": "https://dc.lft.to/lastmile_qr_scan"}, "fusion_lat": 0.0, "is_reserved": 0, "lat": 38.919723, "name": "45e8b50ed384a6f506c95a6eda355e7e", "bike_id": "45e8b50ed384a6f506c95a6eda355e7e", "is_disabled": 0, "fusion_lon": 0.0, "type": "electric_scooter", "lon": -77.04228616666667},