{"data": {"bikes": [{"rental_uris": {"ios": "https://dc.lft.to/lastmile_qr_scan", "android": "https://dc.lft.to/lastmile_qr_scan"}, "type": "electric_scooter", "name": "53e15a627705d54a1d72e450d6e130b9", "is_reserved": 0, "lon": -77.01962483333334, "is_disabled": 0, "fusion_lat": 0.0, "lat": 38.9232675, "bike_id": "53e15a627705d54a1d72e450d6e130b9", "fusion_lon": 0.0}, {"rental_uris": {"ios": "https://dc.lft.to/lastmile_qr_scan", "android": "https://dc.lft.to/lastmile_qr_scan"}, "type": "electric_scooter", "name": "01b4f4d139a93803305838d97bd0b57d", "is_reserved": 0, "lon": -76.98035383333334, "is_disabled": 0, "fusion_lat": 0.0, "lat": 38.900039, "bike_id": "01b4f4d139a93803305838d97bd0b57d", "fusion_lon": 0.0}, {"rental_uris": {"ios": "https://dc.lft.to/lastmile_qr_scan", "android": "https://dc.lft.to/lastmile_qr_scan"}, "type": "electric_bike", "name": "9efdf244626b594905e65b9d32fb51ce", "is_reserved": 0, "lon": -76.98018116666667, "is_disabled": 0, "fusion_lat": 0.0, "lat": 38.853176166666664, "bike_id": "9efdf244626b594905e65b9d32fb51ce", "fusion_lon": 0.0}, {"rental_uris": {"ios": "https://dc.lft.to/lastmile_qr_scan", "android": "https://dc.lft.to/lastmile_qr_scan"}, "type": "electric_scooter", "name": "e5a71272fe475077cb5035ea14570274", "is_reserved": 0, "lon": -77.0420265, "is_disabled": 0, "fusion_lat": 0.0, "lat": 38.89266633333333, "bike_id": "e5a71272fe475077cb5035ea14570274", "fusion_lon": 0.0}, {"rental_uris": {"ios": "https://dc.lft.to/lastmile_qr_scan", "android": "https://dc.lft.to/lastmile_qr_scan"}, "type": "electric_scooter", "name": "58074575331eace9c30f6066df522aaf", "is_reserved": 0, "lon": -77.03792716666666, "is_disabled": 0, "fusion_lat": 0.0, "lat": 38.92194216666667, "bike_id": "58074575331eace9c30f6066df522aaf", "fusion_lon": 0.0}, {"rental_uris": {"ios": "https://dc.lft.to/lastmile_qr_scan", "android": "https://dc.lft.to/lastmile_qr_scan"}, "type": "electric_scooter", "name": "e6690ac52cc9393424ef67263950ad7d", "is_reserved": 0, "lon": -77.0449905, "is_disabled": 0, "fusion_lat": 0.0, "lat": 38.89625633333333, "bike_id": "e6690ac52cc9393424ef67263950ad7d", "fusion_lon": 0.0}, {"rental_uris": {"ios": "https://dc.lft.to/lastmile_qr_scan", "android": "https://dc.lft.to/lastmile_qr_scan"}, "type": "electric_scooter", "name": "7c1ac7548a7c0c3515282ce668acf559", "is_reserved": 0, "lon": -77.0520145, "is_disabled": 0, "fusion_lat": 0.0, "lat": 38.902821, "bike_id": "7c1ac7548a7c0c3515282ce668acf559", "fusion_lon": 0.0}, {"rental_uris": {"ios": "https://dc.lft.to/lastmile_qr_scan", "android": "https://dc.lft.to/lastmile_qr_scan"}, "type": "electric_scooter", "name": "49266d32761368a21bbf730161f5d1e9", "is_reserved": 0, "lon": -77.03168883333333, "is_disabled": 0, "fusion_lat": 0.0, "lat": 38.93684566666667, "bike_id": "49266d32761368a21bbf730161f5d1e9", "fusion_lon": 0.0}, {"rental_uris": {"ios": "https://dc.lft.to/lastmile_qr_scan", "android": "https://dc.lft.to/lastmile_qr_scan"}, "type": "electric_scooter", "name": "e4d80b465ce0527534eff6b7911385f5", "is_reserved": 0, "lon": -77.032561, "is_disabled": 0, "fusion_lat": 0.0, "lat": 38.91553616666667, "bike_id": "e4d80b465ce0527534eff6b7911385f5", "fusion_lon": 0.0}, {"rental_uris": {"ios": "https://dc.lft.to/lastmile_qr_scan", "android": "https://dc.lft.to/lastmile_qr_scan"}, "type": "electric_scooter", "name": "54f9f832cbbc317c9062702fa4e94641", "is_reserved": 0, "lon": -77.0152385, "is_disabled": 0, "fusion_lat": 0.0, "lat": 38.91334116666667, "bike_id": "54f9f832cbbc317c9062702fa4e94641", "fusion_lon": 0.0}, {"rental_uris": {"ios": "https://dc.lft.to/lastmile_qr_scan", "android": "https://dc.lft.to/lastmile_qr_scan"}, "type": "electric_scooter", "name": "71912eacf1872f13583f595e0e8976d3", "is_reserved": 0, "lon": -76.99516933333334, "is_disabled": 0, "fusion_lat": 0.0, "lat": 38.877482666666666, "bike_id": "71912eacf1872f13583f595e0e8976d3", "fusion_lon": 0.0}, {"rental_uris": {"ios": "https://dc.lft.to/lastmile_qr_scan", "android": "https://dc.lft.to/lastmile_qr_scan"}, "type": "electric_scooter", "name": "3b07231e1ac8c763255ef273a74cb0ad", "is_reserved": 0, "lon": -77.04083783333333, "is_disabled": 0, "fusion_lat": 0.0, "lat": 38.947884, "bike_id": "3b07231e1ac8c763255ef273a74cb0ad", "fusion_lon": 0.0}, {"rental_uris": {"ios": "https://dc.lft.to/lastmile_qr_scan", "android": "https://dc.lft.to/lastmile_qr_scan"}, "type": "electric_scooter", "name": "95fd49faf1f1f8a5360eda7254d37d8f", "is_reserved": 0, "lon": -77.02465783333334, "is_disabled": 0, "fusion_lat": 0.0, "lat": 38.91710883333333, "bike_id": "95fd49faf1f1f8a5360eda7254d37d8f", "fusion_lon": 0.0}, {"rental_uris": {"ios": "https://dc.lft.to/lastmile_qr_scan", "android": "https://dc.lft.to/lastmile_qr_scan"}, "type": "electric_scooter", "name": "290e0b20ba6d62ddbcb1e0cf03f8c575", "is_reserved": 0, "lon": -77.03858766666667, "is_disabled": 0, "fusion_lat": 0.0, "lat": 38.90366383333333, "bike_id": "290e0b20ba6d62ddbcb1e0cf03f8c575", "fusion_lon": 0.0}, {"rental_uris": {"ios": "https://dc.lft.to/lastmile_qr_scan", "android": "https://dc.lft.to/lastmile_qr_scan"}, "type": "electric_scooter", "name": "e05e406f36e0566530bda6f851ba79e1", "is_reserved": 0, "lon": -77.03258216666667, "is_disabled": 0, "fusion_lat": 0.0, "lat": 38.9118945, "bike_id": "e05e406f36e0566530bda6f851ba79e1", "fusion_lon": 0.0}, {"rental_uris": {"ios": "https://dc.lft.to/lastmile_qr_scan", "android": "https://dc.lft.to/lastmile_qr_scan"}, "type": "electric_bike", "name": "5eebbf6b24d3486683ba529f73b9ee47", "is_reserved": 0, "lon": -77.0200775, "is_disabled": 0, "fusion_lat": 0.0, "lat": 38.96442416666667, "bike_id": "5eebbf6b24d3486683ba529f73b9ee47", "fusion_lon": 0.0}, {"rental_uris": {"ios": "https://dc.lft.to/lastmile_qr_scan", "android": "https://dc.lft.to/lastmile_qr_scan"}, "type": "electric_scooter", "name": "640515662cd2c984365d56f75da7f3fb", "is_reserved": 0, "lon": -77.05367633333333, "is_disabled": 0, "fusion_lat": 0.0, "lat": 38.92799683333333, "bike_id": "640515662cd2c984365d56f75da7f3fb", "fusion_lon": 0.0}, {"rental_uris": {"ios": "https://dc.lft.to/lastmile_qr_scan", "android": "https://dc.lft.to/lastmile_qr_scan"}, "type": "electric_scooter", "name": "81003a793e8b69b6017eef3fa25cec4d", "is_reserved": 0, "lon": -76.98356466666667, "is_disabled": 0, "fusion_lat": 0.0, "lat": 38.887429833333336, "bike_id": "81003a793e8b69b6017eef3fa25cec4d", "fusion_lon": 0.0}, {"rental_uris": {"ios": "https://dc.lft.to/lastmile_qr_scan", "android": "https://dc.lft.to/lastmile_qr_scan"}, "type": "electric_scooter", "name": "3c3c38921e483c553631efb123288b0b", "is_reserved": 0, "lon": -76.9826105, "is_disabled": 0, "fusion_lat": 0.0, "lat": 38.86627983333333, "bike_id": "3c3c38921e483c553631efb123288b0b", "fusion_lon": 0.0}, {"rental_uris": {"ios": "https://dc.lft.to/lastmile_qr_scan", "android": "https://dc.lft.to/lastmile_qr_scan"}, "type": "electric_scooter", "name": "57f07231a6651cfd3331a801f7b25af8", "is_reserved": 0, "lon": -77.02335933333333, "is_disabled": 0, "fusion_lat": 0.0, "lat": 38.922992, "bike_id": "57f07231a6651cfd3331a801f7b25af8", "fusion_lon": 0.0}, {"rental_uris": {"ios": "https://dc.lft.to/lastmile_qr_scan", "android": "https://dc.lft.to/lastmile_qr_scan"}, "type": "electric_scooter", "name": "ad833eb993ab255a690da8996ac4d004", "is_reserved": 0, "lon": -77.00097716666667, "is_disabled": 0, "fusion_lat": 0.0, "lat": 38.88124966666667, "bike_id": "ad833eb993ab255a690da8996ac4d004", "fusion_lon": 0.0}, {"rental_uris": {"ios": "https://dc.lft.to/lastmile_qr_scan", "android": "https://dc.lft.to/lastmile_qr_scan"}, "type": "electric_scooter", "name": "b7039fa0fa6f71ef9bc351249fda02bc", "is_reserved": 0, "lon": -77.052672, "is_disabled": 0, "fusion_lat": 0.0, "lat": 38.92427216666667, "bike_id": "b7039fa0fa6f71ef9bc351249fda02bc", "fusion_lon": 0.0}, {"rental_uris": {"ios": "https://dc.lft.to/lastmile_qr_scan", "android": "https://dc.lft.to/lastmile_qr_scan"}, "type": "electric_scooter", "name": "8086eda5de8206a0f3b8d3a9a9db602f", "is_reserved": 0, "lon": -77.02396433333334, "is_disabled": 0, "fusion_lat": 0.0, "lat": 38.92084466666667, "bike_id": "8086eda5de8206a0f3b8d3a9a9db602f", "fusion_lon": 0.0}, {"rental_uris": {"ios": "https://dc.lft.to/lastmile_qr_scan", "android": "https://dc.lft.to/lastmile_qr_scan"}, "type": "electric_bike", "name": "835c6ca50958566027277c1d6c196eae", "is_reserved": 0, "lon": -77.07939166666667, "is_disabled": 0, "fusion_lat": 0.0, "lat": 38.849077, "bike_id": "835c6ca50958566027277c1d6c196eae", "fusion_lon": 0.0}, {"rental_uris": {"ios": "https://dc.lft.to/lastmile_qr_scan", "android": "https://dc.lft.to/lastmile_qr_scan"}, "type": "electric_scooter", "name": "c88e8d5399a23dbf7176882112f9184e", "is_reserved": 0, "lon": -77.01358983333333, "is_disabled": 0, "fusion_lat": 0.0, "lat": 38.90618466666667, "bike_id": "c88e8d5399a23dbf7176882112f9184e", "fusion_lon": 0.0}, {"rental_uris": {"ios": "https://dc.lft.to/lastmile_qr_scan", "android": "https://dc.lft.to/lastmile_qr_scan"}, "type": "electric_scooter", "name": "6ac9de64a0b5bd65d7eb193a34f200e3", "is_reserved": 0, "lon": -77.0551055, "is_disabled": 0, "fusion_lat": 0.0, "lat": 38.928388, "bike_id": "6ac9de64a0b5bd65d7eb193a34f200e3", "fusion_lon": 0.0}, {"rental_uris": {"ios": "https://dc.lft.to/lastmile_qr_scan", "android": "https://dc.lft.to/lastmile_qr_scan"}, "type": "electric_scooter", "name": "434e837272727b457f27694e1a8448af", "is_reserved": 0, "lon": -77.05691266666666, "is_disabled": 0, "fusion_lat": 0.0, "lat": 38.9048595, "bike_id": "434e837272727b457f27694e1a8448af", "fusion_lon": 0.0}, {"rental_uris": {"ios": "https://dc.lft.to/lastmile_qr_scan", "android": "https://dc.lft.to/lastmile_qr_scan"}, "type": "electric_scooter", "name": "fb22f61ceb81cb7f21082ee486fd4ce2", "is_reserved": 0, "lon": -76.98819033333334, "is_disabled": 0, "fusion_lat": 0.0, "lat": 38.88166283333333, "bike_id": "fb22f61ceb81cb7f21082ee486fd4ce2", "fusion_lon": 0.0}, {"rental_uris": {"ios": "https://dc.lft.to/lastmile_qr_scan", "android": "https://dc.lft.to/lastmile_qr_scan"}, "type": "electric_bike", "name": "dfac33fe5471c5f12a0e9b18d75bdf5d", "is_reserved": 0, "lon": -77.21664266666667, "is_disabled": 0, "fusion_lat": 0.0, "lat": 38.89509733333333, "bike_id": "dfac33fe5471c5f12a0e9b18d75bdf5d", "fusion_lon": 0.0}, {"rental_uris": {"ios": "https://dc.lft.to/lastmile_qr_scan", "android": "https://dc.lft.to/lastmile_qr_scan"}, "type": "electric_scooter", "name": "546c8e324fc089820994ba2403873f50", "is_reserved": 0, "lon": -77.034667, "is_disabled": 0, "fusion_lat": 0.0, "lat": 38.931070166666665, "bike_id": "546c8e324fc089820994ba2403873f50", "fusion_lon": 0.0}, {"rental_uris": {"ios": "https://dc.lft.to/lastmile_qr_scan", "android": "https://dc.lft.to/lastmile_qr_scan"}, "type": "electric_bike", "name": "266203fb9cff13a7acbe851db0b5f3f9", "is_reserved": 0, "lon": -77.0653175, "is_disabled": 0, "fusion_lat": 0.0, "lat": 38.99232383333333, "bike_id": "266203fb9cff13a7acbe851db0b5f3f9", "fusion_lon": 0.0}, {"rental_uris": {"ios": "https://dc.lft.to/lastmile_qr_scan", "android": "https://dc.lft.to/lastmile_qr_scan"}, "type": "electric_scooter", "name": "2fd2bcf01886fc4f5e04e4a553f5f4ec", "is_reserved": 0, "lon": -77.03241333333334, "is_disabled": 0, "fusion_lat": 0.0, "lat": 38.928847, "bike_id": "2fd2bcf01886fc4f5e04e4a553f5f4ec", "fusion_lon": 0.0}, {"rental_uris": {"ios": "https://dc.lft.to/lastmile_qr_scan", "android": "https://dc.lft.to/lastmile_qr_scan"}, "type": "electric_scooter", "name": "cc6a0303a17e324968cd2bee3ad7a65e", "is_reserved": 0, "lon": -77.04087383333334, "is_disabled": 0, "fusion_lat": 0.0, "lat": 38.905549666666666, "bike_id": "cc6a0303a17e324968cd2bee3ad7a65e", "fusion_lon": 0.0}, {"rental_uris": {"ios": "https://dc.lft.to/lastmile_qr_scan", "android": "https://dc.lft.to/lastmile_qr_scan"}, "type": "electric_bike", "name": "671c7c8cf324752569e20e7fae325c95", "is_reserved": 0, "lon": -77.097207, "is_disabled": 0, "fusion_lat": 0.0, "lat": 38.80739033333333, "bike_id": "671c7c8cf324752569e20e7fae325c95", "fusion_lon": 0.0}, {"rental_uris": {"ios": "https://dc.lft.to/lastmile_qr_scan", "android": "https://dc.lft.to/lastmile_qr_scan"}, "type": "electric_scooter", "name": "16d8be8ed4395bdd4e739e1c5c876412", "is_reserved": 0, "lon": -77.02818, "is_disabled": 0, "fusion_lat": 0.0, "lat": 38.91257683333333, "bike_id": "16d8be8ed4395bdd4e739e1c5c876412", "fusion_lon": 0.0}, {"rental_uris": {"ios": "https://dc.lft.to/lastmile_qr_scan", "android": "https://dc.lft.to/lastmile_qr_scan"}, "type": "electric_scooter", "name": "d6d90dad1c3c97d3e53b2105bb1af923", "is_reserved": 0, "lon": -77.0270865, "is_disabled": 0, "fusion_lat": 0.0, "lat": 38.899716166666664, "bike_id": "d6d90dad1c3c97d3e53b2105bb1af923", "fusion_lon": 0.0}, {"rental_uris": {"ios": "https://dc.lft.to/lastmile_qr_scan", "android": "https://dc.lft.to/lastmile_qr_scan"}, "type": "electric_scooter", "name": "7a7c140b6a9aff05f824f8fd5a9c08e2", "is_reserved": 0, "lon": -77.05258266666667, "is_disabled": 0, "fusion_lat": 0.0, "lat": 38.925666166666666, "bike_id": "7a7c140b6a9aff05f824f8fd5a9c08e2", "fusion_lon": 0.0}, {"rental_uris": {"ios": "https://dc.lft.to/lastmile_qr_scan", "android": "https://dc.lft.to/lastmile_qr_scan"}, "type": "electric_scooter", "name": "dd7b394dcd6cd4794f7b7f5876cefbb0", "is_reserved": 0, "lon": -77.03880616666666, "is_disabled": 0, "fusion_lat": 0.0, "lat": 38.93401016666667, "bike_id": "dd7b394dcd6cd4794f7b7f5876cefbb0", "fusion_lon": 0.0}, {"rental_uris": {"ios": "https://dc.lft.to/lastmile_qr_scan", "android": "https://dc.lft.to/lastmile_qr_scan"}, "type": "electric_scooter", "name": "701171970293c68c59e2b602faa7f388", "is_reserved": 0, "lon": -77.0212775, "is_disabled": 0, "fusion_lat": 0.0, "lat": 38.924082, "bike_id": "701171970293c68c59e2b602faa7f388", "fusion_lon": 0.0}, {"rental_uris": {"ios": "https://dc.lft.to/lastmile_qr_scan", "android": "https://dc.lft.to/lastmile_qr_scan"}, "type": "electric_scooter", "name": "26213866d74e9d8b1aa50fd2bb7e5f9b", "is_reserved": 0, "lon": -77.02393083333334, "is_disabled": 0, "fusion_lat": 0.0, "lat": 38.93196483333333, "bike_id": "26213866d74e9d8b1aa50fd2bb7e5f9b", "fusion_lon": 0.0}, {"rental_uris": {"ios": "https://dc.lft.to/lastmile_qr_scan", "android": "https://dc.lft.to/lastmile_qr_scan"}, "type": "electric_scooter", "name": "6daf90f35e80ef9badf1bc1a81f2a687", "is_reserved": 0, "lon": -77.04054366666666, "is_disabled": 0, "fusion_lat": 0.0, "lat": 38.9175005, "bike_id": "6daf90f35e80ef9badf1bc1a81f2a687", "fusion_lon": 0.0}, {"rental_uris": {"ios": "https://dc.lft.to/lastmile_qr_scan", "android": "https://dc.lft.to/lastmile_qr_scan"}, "type": "electric_scooter", "name": "b0b4044716658982ba675d71dc7c3de2", "is_reserved": 0, "lon": -77.038696, "is_disabled": 0, "fusion_lat": 0.0, "lat": 38.91883283333333, "bike_id": "b0b4044716658982ba675d71dc7c3de2", "fusion_lon": 0.0}, {"rental_uris": {"ios": "https://dc.lft.to/lastmile_qr_scan", "android": "https://dc.lft.to/lastmile_qr_scan"}, "type": "electric_scooter", "name": "9d0e6d63de0a319fda05c1aa9c41ab33", "is_reserved": 0, "lon": -76.98096116666666, "is_disabled": 0, "fusion_lat": 0.0, "lat": 38.904023333333335, "bike_id": "9d0e6d63de0a319fda05c1aa9c41ab33", "fusion_lon": 0.0}, {"rental_uris": {"ios": "https://dc.lft.to/lastmile_qr_scan", "android": "https://dc.lft.to/lastmile_qr_scan"}, "type": "electric_scooter", "name": "8418a816921353f428368872dc2db2f4", "is_reserved": 0, "lon": -77.042542, "is_disabled": 0, "fusion_lat": 0.0, "lat": 38.92242816666667, "bike_id": "8418a816921353f428368872dc2db2f4", "fusion_lon": 0.0}, {"rental_uris": {"ios": "https://dc.lft.to/lastmile_qr_scan", "android": "https://dc.lft.to/lastmile_qr_scan"}, "type": "electric_scooter", "name": "da300c355a4eecfb7b4f8263808e0e4b", "is_reserved": 0, "lon": -77.021723, "is_disabled": 0, "fusion_lat": 0.0, "lat": 38.894725, "bike_id": "da300c355a4eecfb7b4f8263808e0e4b", "fusion_lon": 0.0}, {"rental_uris": {"ios": "https://dc.lft.to/lastmile_qr_scan", "android": "https://dc.lft.to/lastmile_qr_scan"}, "type": "electric_scooter", "name": "d2c5c83c9c783afe683a51fdecf06035", "is_reserved": 0, "lon": -77.02336816666667, "is_disabled": 0, "fusion_lat": 0.0, "lat": 38.9307175, "bike_id": "d2c5c83c9c783afe683a51fdecf06035", "fusion_lon": 0.0}, {"rental_uris": {"ios": "https://dc.lft.to/lastmile_qr_scan", "android": "https://dc.lft.to/lastmile_qr_scan"}, "type": "electric_scooter", "name": "0bf2a79561f25732af83bbbe60796b21", "is_reserved": 0, "lon": -77.02660283333333, "is_disabled": 0, "fusion_lat": 0.0, "lat": 38.938634, "bike_id": "0bf2a79561f25732af83bbbe60796b21", "fusion_lon": 0.0}, {"rental_uris": {"ios": "https://dc.lft.to/lastmile_qr_scan", "android": "https://dc.lft.to/lastmile_qr_scan"}, "type": "electric_scooter", "name": "59b64b9551b857553d2a6499bdb6b9ed", "is_reserved": 0, "lon": -76.948626, "is_disabled": 0, "fusion_lat": 0.0, "lat": 38.88299666666666, "bike_id": "59b64b9551b857553d2a6499bdb6b9ed", "fusion_lon": 0.0}, {"rental_uris": {"ios": "https://dc.lft.to/lastmile_qr_scan", "android": "https://dc.lft.to/lastmile_qr_scan"}, "type": "electric_scooter", "name": "36b7f3ecc8419d2a537a4ca56d292f4a", "is_reserved": 0, "lon": -77.02076633333333, "is_disabled": 0, "fusion_lat": 0.0, "lat": 38.9241685, "bike_id": "36b7f3ecc8419d2a537a4ca56d292f4a", "fusion_lon": 0.0}, {"rental_uris": {"ios": "https://dc.lft.to/lastmile_qr_scan", "android": "https://dc.lft.to/lastmile_qr_scan"}, "type": "electric_scooter", "name": "208665845a9a156ce369784734e28094", "is_reserved": 0, "lon": -77.00717216666666, "is_disabled": 0, "fusion_lat": 0.0, "lat": 38.878265166666665, "bike_id": "208665845a9a156ce369784734e28094", "fusion_lon": 0.0}, {"rental_uris": {"ios": "https://dc.lft.to/lastmile_qr_scan", "android": "https://dc.lft.to/lastmile_qr_scan"}, "type": "electric_scooter", "name": "53c954f0e66f819d17f40bc0c2b529f8", "is_reserved": 0, "lon": -77.0212285, "is_disabled": 0, "fusion_lat": 0.0, "lat": 38.92379916666667, "bike_id": "53c954f0e66f819d17f40bc0c2b529f8", "fusion_lon": 0.0}, {"rental_uris": {"ios": "https://dc.lft.to/lastmile_qr_scan", "android": "https://dc.lft.to/lastmile_qr_scan"}, "type": "electric_bike", "name": "0b0085ab5ac2ae7a1c9b77d808b8a42d", "is_reserved": 0, "lon": -77.04759416666667, "is_disabled": 0, "fusion_lat": 0.0, "lat": 38.89951116666667, "bike_id": "0b0085ab5ac2ae7a1c9b77d808b8a42d", "fusion_lon": 0.0}, {"rental_uris": {"ios": "https://dc.lft.to/lastmile_qr_scan", "android": "https://dc.lft.to/lastmile_qr_scan"}, "type": "electric_scooter", "name": "1d7db763b095c3550802e3dd97a35928", "is_reserved": 0, "lon": -77.03966516666667, "is_disabled": 0, "fusion_lat": 0.0, "lat": 38.89352566666667, "bike_id": "1d7db763b095c3550802e3dd97a35928", "fusion_lon": 0.0}, {"rental_uris": {"ios": "https://dc.lft.to/lastmile_qr_scan", "android": "https://dc.lft.to/lastmile_qr_scan"}, "type": "electric_scooter", "name": "d65718c1dfd3ed1a1a7b39703fdcfd22", "is_reserved": 0, "lon": -76.98371016666667, "is_disabled": 0, "fusion_lat": 0.0, "lat": 38.86034183333334, "bike_id": "d65718c1dfd3ed1a1a7b39703fdcfd22", "fusion_lon": 0.0}, {"rental_uris": {"ios": "https://dc.lft.to/lastmile_qr_scan", "android": "https://dc.lft.to/lastmile_qr_scan"}, "type": "electric_scooter", "name": "aef43c3e8eb1415f7303c4d33dca5643", "is_reserved": 0, "lon": -77.00039083333333, "is_disabled": 0, "fusion_lat": 0.0, "lat": 38.873958333333334, "bike_id": "aef43c3e8eb1415f7303c4d33dca5643", "fusion_lon": 0.0}, {"rental_uris": {"ios": "https://dc.lft.to/lastmile_qr_scan", "android": "https://dc.lft.to/lastmile_qr_scan"}, "type": "electric_scooter", "name": "994e3a8bfb90b3dc085769d32a2e9862", "is_reserved": 0, "lon": -77.01642533333333, "is_disabled": 0, "fusion_lat": 0.0, "lat": 38.9003975, "bike_id": "994e3a8bfb90b3dc085769d32a2e9862", "fusion_lon": 0.0}, {"rental_uris": {"ios": "https://dc.lft.to/lastmile_qr_scan", "android": "https://dc.lft.to/lastmile_qr_scan"}, "type": "electric_scooter", "name": "82d13cfe5decb742d99733ed3a154110", "is_reserved": 0, "lon": -77.02375516666666, "is_disabled": 0, "fusion_lat": 0.0, "lat": 38.9206525, "bike_id": "82d13cfe5decb742d99733ed3a154110", "fusion_lon": 0.0}, {"rental_uris": {"ios": "https://dc.lft.to/lastmile_qr_scan", "android": "https://dc.lft.to/lastmile_qr_scan"}, "type": "electric_scooter", "name": "07f4c5b4741d323faf768dff50a22835", "is_reserved": 0, "lon": -77.0477285, "is_disabled": 0, "fusion_lat": 0.0, "lat": 38.897853833333336, "bike_id": "07f4c5b4741d323faf768dff50a22835", "fusion_lon": 0.0}, {"rental_uris": {"ios": "https://dc.lft.to/lastmile_qr_scan", "android": "https://dc.lft.to/lastmile_qr_scan"}, "type": "electric_scooter", "name": "a85ceea32a50e634fe069ba5ac8807e7", "is_reserved": 0, "lon": -77.030717, "is_disabled": 0, "fusion_lat": 0.0, "lat": 38.905754, "bike_id": "a85ceea32a50e634fe069ba5ac8807e7", "fusion_lon": 0.0}, {"rental_uris": {"ios": "https://dc.lft.to/lastmile_qr_scan", "android": "https://dc.lft.to/lastmile_qr_scan"}, "type": "electric_scooter", "name": "3b7e626f831604eac189232a854f008b", "is_reserved": 0, "lon": -77.01610633333334, "is_disabled": 0, "fusion_lat": 0.0, "lat": 38.88523933333333, "bike_id": "3b7e626f831604eac189232a854f008b", "fusion_lon": 0.0}, {"rental_uris": {"ios": "https://dc.lft.to/lastmile_qr_scan", "android": "https://dc.lft.to/lastmile_qr_scan"}, "type": "electric_bike", "name": "68ea12a1cc43d20c9cf1a8a2e0faea25", "is_reserved": 0, "lon": -76.93662216666667, "is_disabled": 0, "fusion_lat": 0.0, "lat": 38.89458966666667, "bike_id": "68ea12a1cc43d20c9cf1a8a2e0faea25", "fusion_lon": 0.0}, {"rental_uris": {"ios": "https://dc.lft.to/lastmile_qr_scan", "android": "https://dc.lft.to/lastmile_qr_scan"}, "type": "electric_scooter", "name": "21b5c770bc6f043428fd963bcb941620", "is_reserved": 0, "lon": -77.0438985, "is_disabled": 0, "fusion_lat": 0.0, "lat": 38.910976, "bike_id": "21b5c770bc6f043428fd963bcb941620", "fusion_lon": 0.0}, {"rental_uris": {"ios": "https://dc.lft.to/lastmile_qr_scan", "android": "https://dc.lft.to/lastmile_qr_scan"}, "type": "electric_scooter", "name": "46af0bf863a7f6a067499a974c2180d4", "is_reserved": 0, "lon": -76.99097816666666, "is_disabled": 0, "fusion_lat": 0.0, "lat": 38.85734816666667, "bike_id": "46af0bf863a7f6a067499a974c2180d4", "fusion_lon": 0.0}, {"rental_uris": {"ios": "https://dc.lft.to/lastmile_qr_scan", "android": "https://dc.lft.to/lastmile_qr_scan"}, "type": "electric_scooter", "name": "ddbc8683749235ee62d1444f00984514", "is_reserved": 0, "lon": -77.0449355, "is_disabled": 0, "fusion_lat": 0.0, "lat": 38.90068083333333, "bike_id": "ddbc8683749235ee62d1444f00984514", "fusion_lon": 0.0}, {"rental_uris": {"ios": "https://dc.lft.to/lastmile_qr_scan", "android": "https://dc.lft.to/lastmile_qr_scan"}, "type": "electric_scooter", "name": "2924e3d97e0266bf8b133bc770d388a2", "is_reserved": 0, "lon": -77.01513816666667, "is_disabled": 0, "fusion_lat": 0.0, "lat": 38.9019255, "bike_id": "2924e3d97e0266bf8b133bc770d388a2", "fusion_lon": 0.0}, {"rental_uris": {"ios": "https://dc.lft.to/lastmile_qr_scan", "android": "https://dc.lft.to/lastmile_qr_scan"}, "type": "electric_scooter", "name": "df549cef665b053553e0c257726d5513", "is_reserved": 0, "lon": -76.9888785, "is_disabled": 0, "fusion_lat": 0.0, "lat": 38.89950666666667, "bike_id": "df549cef665b053553e0c257726d5513", "fusion_lon": 0.0}, {"rental_uris": {"ios": "https://dc.lft.to/lastmile_qr_scan", "android": "https://dc.lft.to/lastmile_qr_scan"}, "type": "electric_scooter", "name": "b1118a90fbc559b2fbeecd4feb8104d2", "is_reserved": 0, "lon": -77.03115616666666, "is_disabled": 0, "fusion_lat": 0.0, "lat": 38.91864183333333, "bike_id": "b1118a90fbc559b2fbeecd4feb8104d2", "fusion_lon": 0.0}, {"rental_uris": {"ios": "https://dc.lft.to/lastmile_qr_scan", "android": "https://dc.lft.to/lastmile_qr_scan"}, "type": "electric_scooter", "name": "4705875b32e86e6ee083165d331a9064", "is_reserved": 0, "lon": -77.04169983333334, "is_disabled": 0, "fusion_lat": 0.0, "lat": 38.9015435, "bike_id": "4705875b32e86e6ee083165d331a9064", "fusion_lon": 0.0}, {"rental_uris": {"ios": "https://dc.lft.to/lastmile_qr_scan", "android": "https://dc.lft.to/lastmile_qr_scan"}, "type": "electric_scooter", "name": "89e3d8fab67fb145e405dd6d1b3b4235", "is_reserved": 0, "lon": -77.03181883333333, "is_disabled": 0, "fusion_lat": 0.0, "lat": 38.924820833333335, "bike_id": "89e3d8fab67fb145e405dd6d1b3b4235", "fusion_lon": 0.0}, {"rental_uris": {"ios": "https://dc.lft.to/lastmile_qr_scan", "android": "https://dc.lft.to/lastmile_qr_scan"}, "type": "electric_scooter", "name": "413b7ccd09377419e84bb225446e842b", "is_reserved": 0, "lon": -77.013575, "is_disabled": 0, "fusion_lat": 0.0, "lat": 38.906178, "bike_id": "413b7ccd09377419e84bb225446e842b", "fusion_lon": 0.0}, {"rental_uris": {"ios": "https://dc.lft.to/lastmile_qr_scan", "android": "https://dc.lft.to/lastmile_qr_scan"}, "type": "electric_scooter", "name": "f044eeda63a7410b7efbea56fcbb24cd", "is_reserved": 0, "lon": -77.02574833333334, "is_disabled": 0, "fusion_lat": 0.0, "lat": 38.8807975, "bike_id": "f044eeda63a7410b7efbea56fcbb24cd", "fusion_lon": 0.0}, {"rental_uris": {"ios": "https://dc.lft.to/lastmile_qr_scan", "android": "https://dc.lft.to/lastmile_qr_scan"}, "type": "electric_scooter", "name": "1e7a28642a7e4db067aabf737e85852b", "is_reserved": 0, "lon": -77.0006065, "is_disabled": 0, "fusion_lat": 0.0, "lat": 38.873818666666665, "bike_id": "1e7a28642a7e4db067aabf737e85852b", "fusion_lon": 0.0}, {"rental_uris": {"ios": "https://dc.lft.to/lastmile_qr_scan", "android": "https://dc.lft.to/lastmile_qr_scan"}, "type": "electric_scooter", "name": "bc8026332f993c7ab346d410dd1fa974", "is_reserved": 0, "lon": -77.0270615, "is_disabled": 0, "fusion_lat": 0.0, "lat": 38.9076735, "bike_id": "bc8026332f993c7ab346d410dd1fa974", "fusion_lon": 0.0}, {"rental_uris": {"ios": "https://dc.lft.to/lastmile_qr_scan", "android": "https://dc.lft.to/lastmile_qr_scan"}, "type": "electric_scooter", "name": "c275515494befc93cc5886b41ab9b6c6", "is_reserved": 0, "lon": -77.0240285, "is_disabled": 0, "fusion_lat": 0.0, "lat": 38.93820616666667, "bike_id": "c275515494befc93cc5886b41ab9b6c6", "fusion_lon": 0.0}, {"rental_uris": {"ios": "https://dc.lft.to/lastmile_qr_scan", "android": "https://dc.lft.to/lastmile_qr_scan"}, "type": "electric_scooter", "name": "62f271251766418628471a5024884e5b", "is_reserved": 0, "lon": -77.00766833333333, "is_disabled": 0, "fusion_lat": 0.0, "lat": 38.8975505, "bike_id": "62f271251766418628471a5024884e5b", "fusion_lon": 0.0}, {"rental_uris": {"ios": "https://dc.lft.to/lastmile_qr_scan", "android": "https://dc.lft.to/lastmile_qr_scan"}, "type": "electric_scooter", "name": "5b0161787c9930c7d8ff52307434adcd", "is_reserved": 0, "lon": -76.98356983333333, "is_disabled": 0, "fusion_lat": 0.0, "lat": 38.887411166666666, "bike_id": "5b0161787c9930c7d8ff52307434adcd", "fusion_lon": 0.0}, {"rental_uris": {"ios": "https://dc.lft.to/lastmile_qr_scan", "android": "https://dc.lft.to/lastmile_qr_scan"}, "type": "electric_scooter", "name": "a61ee7d54364c1318be078583c946da6", "is_reserved": 0, "lon": -77.01802233333333, "is_disabled": 0, "fusion_lat": 0.0, "lat": 38.9214255, "bike_id": "a61ee7d54364c1318be078583c946da6", "fusion_lon": 0.0}, {"rental_uris": {"ios": "https://dc.lft.to/lastmile_qr_scan", "android": "https://dc.lft.to/lastmile_qr_scan"}, "type": "electric_scooter", "name": "1a62fbbb6c7e3b1362e5e2226d3f8b7e", "is_reserved": 0, "lon": -77.0055695, "is_disabled": 0, "fusion_lat": 0.0, "lat": 38.874737333333336, "bike_id": "1a62fbbb6c7e3b1362e5e2226d3f8b7e", "fusion_lon": 0.0}, {"rental_uris": {"ios": "https://dc.lft.to/lastmile_qr_scan", "android": "https://dc.lft.to/lastmile_qr_scan"}, "type": "electric_scooter", "name": "cd7a5a7938ae5dfb06707dbd957c95a7", "is_reserved": 0, "lon": -77.04133483333334, "is_disabled": 0, "fusion_lat": 0.0, "lat": 38.93279366666667, "bike_id": "cd7a5a7938ae5dfb06707dbd957c95a7", "fusion_lon": 0.0}, {"rental_uris": {"ios": "https://dc.lft.to/lastmile_qr_scan", "android": "https://dc.lft.to/lastmile_qr_scan"}, "type": "electric_scooter", "name": "9d2313fcf0468c6c6542c4301a2a4d9d", "is_reserved": 0, "lon": -76.99534766666666, "is_disabled": 0, "fusion_lat": 0.0, "lat": 38.87752183333333, "bike_id": "9d2313fcf0468c6c6542c4301a2a4d9d", "fusion_lon": 0.0}, {"rental_uris": {"ios": "https://dc.lft.to/lastmile_qr_scan", "android": "https://dc.lft.to/lastmile_qr_scan"}, "type": "electric_scooter", "name": "9cd551a67494c099f476734d74f55e26", "is_reserved": 0, "lon": -77.05923766666666, "is_disabled": 0, "fusion_lat": 0.0, "lat": 38.90154783333333, "bike_id": "9cd551a67494c099f476734d74f55e26", "fusion_lon": 0.0}, {"rental_uris": {"ios": "https://dc.lft.to/lastmile_qr_scan", "android": "https://dc.lft.to/lastmile_qr_scan"}, "type": "electric_scooter", "name": "affd15e776a550f8569bfeef1861f8a6", "is_reserved": 0, "lon": -77.03168033333333, "is_disabled": 0, "fusion_lat": 0.0, "lat": 38.914145, "bike_id": "affd15e776a550f8569bfeef1861f8a6", "fusion_lon": 0.0}, {"rental_uris": {"ios": "https://dc.lft.to/lastmile_qr_scan", "android": "https://dc.lft.to/lastmile_qr_scan"}, "type": "electric_scooter", "name": "24eb4cc4b1ea753c411353300384f14c", "is_reserved": 0, "lon": -76.981063, "is_disabled": 0, "fusion_lat": 0.0, "lat": 38.902441833333334, "bike_id": "24eb4cc4b1ea753c411353300384f14c", "fusion_lon": 0.0}, {"rental_uris": {"ios": "https://dc.lft.to/lastmile_qr_scan", "android": "https://dc.lft.to/lastmile_qr_scan"}, "type": "electric_scooter", "name": "4e43e6198ea5aa931351658c26abf68c", "is_reserved": 0, "lon": -77.03855083333333, "is_disabled": 0, "fusion_lat": 0.0, "lat": 38.91103533333333, "bike_id": "4e43e6198ea5aa931351658c26abf68c", "fusion_lon": 0.0}, {"rental_uris": {"ios": "https://dc.lft.to/lastmile_qr_scan", "android": "https://dc.lft.to/lastmile_qr_scan"}, "type": "electric_bike", "name": "9ccbdf7d2891b58f9bf8b6f67fc9263d", "is_reserved": 0, "lon": -77.04311266666667, "is_disabled": 0, "fusion_lat": 0.0, "lat": 39.03426483333333, "bike_id": "9ccbdf7d2891b58f9bf8b6f67fc9263d", "fusion_lon": 0.0}, {"rental_uris": {"ios": "https://dc.lft.to/lastmile_qr_scan", "android": "https://dc.lft.to/lastmile_qr_scan"}, "type": "electric_scooter", "name": "4c40144b2e136b1d981c844529129b1f", "is_reserved": 0, "lon": -77.04397, "is_disabled": 0, "fusion_lat": 0.0, "lat": 38.90889466666667, "bike_id": "4c40144b2e136b1d981c844529129b1f", "fusion_lon": 0.0}, {"rental_uris": {"ios": "https://dc.lft.to/lastmile_qr_scan", "android": "https://dc.lft.to/lastmile_qr_scan"}, "type": "electric_bike", "name": "349fcc7bd195689bb9eab047f3b2c2ca", "is_reserved": 0, "lon": -77.11357766666667, "is_disabled": 0, "fusion_lat": 0.0, "lat": 38.84201816666667, "bike_id": "349fcc7bd195689bb9eab047f3b2c2ca", "fusion_lon": 0.0}, {"rental_uris": {"ios": "https://dc.lft.to/lastmile_qr_scan", "android": "https://dc.lft.to/lastmile_qr_scan"}, "type": "electric_scooter", "name": "204e54b82931b97841415f4b1037598a", "is_reserved": 0, "lon": -77.02182216666667, "is_disabled": 0, "fusion_lat": 0.0, "lat": 38.90684483333333, "bike_id": "204e54b82931b97841415f4b1037598a", "fusion_lon": 0.0}, {"rental_uris": {"ios": "https://dc.lft.to/lastmile_qr_scan", "android": "https://dc.lft.to/lastmile_qr_scan"}, "type": "electric_scooter", "name": "06a8363260f211c99f508eb3ddffe0f8", "is_reserved": 0, "lon": -76.99914733333334, "is_disabled": 0, "fusion_lat": 0.0, "lat": 38.92174833333333, "bike_id": "06a8363260f211c99f508eb3ddffe0f8", "fusion_lon": 0.0}, {"rental_uris": {"ios": "https://dc.lft.to/lastmile_qr_scan", "android": "https://dc.lft.to/lastmile_qr_scan"}, "type": "electric_scooter", "name": "dbdb00efef37a18d2a7d68ac41338d9e", "is_reserved": 0, "lon": -76.93374833333333, "is_disabled": 0, "fusion_lat": 0.0, "lat": 38.899125, "bike_id": "dbdb00efef37a18d2a7d68ac41338d9e", "fusion_lon": 0.0}, {"rental_uris": {"ios": "https://dc.lft.to/lastmile_qr_scan", "android": "https://dc.lft.to/lastmile_qr_scan"}, "type": "electric_scooter", "name": "8439715ccbdedfeb8f4b3c2bc08b393a", "is_reserved": 0, "lon": -77.01779, "is_disabled": 0, "fusion_lat": 0.0, "lat": 38.90036833333333, "bike_id": "8439715ccbdedfeb8f4b3c2bc08b393a", "fusion_lon": 0.0}, {"rental_uris": {"ios": "https://dc.lft.to/lastmile_qr_scan", "android": "https://dc.lft.to/lastmile_qr_scan"}, "type": "electric_scooter", "name": "e835f9ef107f3dc279156921bfc66de7", "is_reserved": 0, "lon": -77.0207745, "is_disabled": 0, "fusion_lat": 0.0, "lat": 38.908667666666666, "bike_id": "e835f9ef107f3dc279156921bfc66de7", "fusion_lon": 0.0}, {"rental_uris": {"ios": "https://dc.lft.to/lastmile_qr_scan", "android": "https://dc.lft.to/lastmile_qr_scan"}, "type": "electric_scooter", "name": "9217d621b05dd81f7654024cd4f6e300", "is_reserved": 0, "lon": -76.9934785, "is_disabled": 0, "fusion_lat": 0.0, "lat": 38.876928666666664, "bike_id": "9217d621b05dd81f7654024cd4f6e300", "fusion_lon": 0.0}, {"rental_uris": {"ios": "https://dc.lft.to/lastmile_qr_scan", "android": "https://dc.lft.to/lastmile_qr_scan"}, "type": "electric_scooter", "name": "0fe22225d9084a4dabdc68621f0e972c", "is_reserved": 0, "lon": -77.031254, "is_disabled": 0, "fusion_lat": 0.0, "lat": 38.915564, "bike_id": "0fe22225d9084a4dabdc68621f0e972c", "fusion_lon": 0.0}, {"rental_uris": {"ios": "https://dc.lft.to/lastmile_qr_scan", "android": "https://dc.lft.to/lastmile_qr_scan"}, "type": "electric_scooter", "name": "d6ad6ad8bf04b07b185e118929dbfcbc", "is_reserved": 0, "lon": -76.98928033333334, "is_disabled": 0, "fusion_lat": 0.0, "lat": 38.878648, "bike_id": "d6ad6ad8bf04b07b185e118929dbfcbc", "fusion_lon": 0.0}, {"rental_uris": {"ios": "https://dc.lft.to/lastmile_qr_scan", "android": "https://dc.lft.to/lastmile_qr_scan"}, "type": "electric_scooter", "name": "3a467eddacb8fe0a381d2a78e39b2afc", "is_reserved": 0, "lon": -77.07448066666667, "is_disabled": 0, "fusion_lat": 0.0, "lat": 38.937872, "bike_id": "3a467eddacb8fe0a381d2a78e39b2afc", "fusion_lon": 0.0}, {"rental_uris": {"ios": "https://dc.lft.to/lastmile_qr_scan", "android": "https://dc.lft.to/lastmile_qr_scan"}, "type": "electric_scooter", "name": "d7f28d949f20d4a0bb61d3cc57c0ecd6", "is_reserved": 0, "lon": -77.03652033333333, "is_disabled": 0, "fusion_lat": 0.0, "lat": 38.954625666666665, "bike_id": "d7f28d949f20d4a0bb61d3cc57c0ecd6", "fusion_lon": 0.0}, {"rental_uris": {"ios": "https://dc.lft.to/lastmile_qr_scan", "android": "https://dc.lft.to/lastmile_qr_scan"}, "type": "electric_scooter", "name": "c69a86f5b25667fcc733d1063a42df09", "is_reserved": 0, "lon": -77.02217166666667, "is_disabled": 0, "fusion_lat": 0.0, "lat": 38.92468233333334, "bike_id": "c69a86f5b25667fcc733d1063a42df09", "fusion_lon": 0.0}, {"rental_uris": {"ios": "https://dc.lft.to/lastmile_qr_scan", "android": "https://dc.lft.to/lastmile_qr_scan"}, "type": "electric_scooter", "name": "dd4cd79547b6149d3c0ad6b9b275ffad", "is_reserved": 0, "lon": -77.05872466666666, "is_disabled": 0, "fusion_lat": 0.0, "lat": 38.94238383333333, "bike_id": "dd4cd79547b6149d3c0ad6b9b275ffad", "fusion_lon": 0.0}, {"rental_uris": {"ios": "https://dc.lft.to/lastmile_qr_scan", "android": "https://dc.lft.to/lastmile_qr_scan"}, "type": "electric_scooter", "name": "5968c3ca6bfdf155e21801f8d62973a3", "is_reserved": 0, "lon": -76.99567016666667, "is_disabled": 0, "fusion_lat": 0.0, "lat": 38.92674566666667, "bike_id": "5968c3ca6bfdf155e21801f8d62973a3", "fusion_lon": 0.0}, {"rental_uris": {"ios": "https://dc.lft.to/lastmile_qr_scan", "android": "https://dc.lft.to/lastmile_qr_scan"}, "type": "electric_scooter", "name": "ab87b8f75b07989851e2b0a0406270cd", "is_reserved": 0, "lon": -77.03152183333333, "is_disabled": 0, "fusion_lat": 0.0, "lat": 38.91694783333333, "bike_id": "ab87b8f75b07989851e2b0a0406270cd", "fusion_lon": 0.0}, {"rental_uris": {"ios": "https://dc.lft.to/lastmile_qr_scan", "android": "https://dc.lft.to/lastmile_qr_scan"}, "type": "electric_scooter", "name": "5dfc4e333e7e0b880bda696b73c44796", "is_reserved": 0, "lon": -77.041961, "is_disabled": 0, "fusion_lat": 0.0, "lat": 38.9220425, "bike_id": "5dfc4e333e7e0b880bda696b73c44796", "fusion_lon": 0.0}, {"rental_uris": {"ios": "https://dc.lft.to/lastmile_qr_scan", "android": "https://dc.lft.to/lastmile_qr_scan"}, "type": "electric_scooter", "name": "caa0652fa20e1a4d62a8f9dbb2d58994", "is_reserved": 0, "lon": -77.0238395, "is_disabled": 0, "fusion_lat": 0.0, "lat": 38.90946616666667, "bike_id": "caa0652fa20e1a4d62a8f9dbb2d58994", "fusion_lon": 0.0}, {"rental_uris": {"ios": "https://dc.lft.to/lastmile_qr_scan", "android": "https://dc.lft.to/lastmile_qr_scan"}, "type": "electric_scooter", "name": "5e78d15feb3364100e959687c16afc0d", "is_reserved": 0, "lon": -77.05006266666666, "is_disabled": 0, "fusion_lat": 0.0, "lat": 38.892318333333336, "bike_id": "5e78d15feb3364100e959687c16afc0d", "fusion_lon": 0.0}, {"rental_uris": {"ios": "https://dc.lft.to/lastmile_qr_scan", "android": "https://dc.lft.to/lastmile_qr_scan"}, "type": "electric_scooter", "name": "cd80b06b513ef372e09d626476951d05", "is_reserved": 0, "lon": -76.98732966666667, "is_disabled": 0, "fusion_lat": 0.0, "lat": 38.8422305, "bike_id": "cd80b06b513ef372e09d626476951d05", "fusion_lon": 0.0}, {"rental_uris": {"ios": "https://dc.lft.to/lastmile_qr_scan", "android": "https://dc.lft.to/lastmile_qr_scan"}, "type": "electric_scooter", "name": "6b062c92a45175f2e93dc139a4ebf44a", "is_reserved": 0, "lon": -76.92919483333333, "is_disabled": 0, "fusion_lat": 0.0, "lat": 38.88657966666667, "bike_id": "6b062c92a45175f2e93dc139a4ebf44a", "fusion_lon": 0.0}, {"rental_uris": {"ios": "https://dc.lft.to/lastmile_qr_scan", "android": "https://dc.lft.to/lastmile_qr_scan"}, "type": "electric_scooter", "name": "100fd306994d02e3ae3d48f8a0bd223c", "is_reserved": 0, "lon": -77.04423166666666, "is_disabled": 0, "fusion_lat": 0.0, "lat": 38.908921, "bike_id": "100fd306994d02e3ae3d48f8a0bd223c", "fusion_lon": 0.0}, {"rental_uris": {"ios": "https://dc.lft.to/lastmile_qr_scan", "android": "https://dc.lft.to/lastmile_qr_scan"}, "type": "electric_scooter", "name": "1b39a008344659909bf71f6ff56227f7", "is_reserved": 0, "lon": -77.0314555, "is_disabled": 0, "fusion_lat": 0.0, "lat": 38.8830025, "bike_id": "1b39a008344659909bf71f6ff56227f7", "fusion_lon": 0.0}, {"rental_uris": {"ios": "https://dc.lft.to/lastmile_qr_scan", "android": "https://dc.lft.to/lastmile_qr_scan"}, "type": "electric_scooter", "name": "f50109daeb453c456cb8c13efe7e59bb", "is_reserved": 0, "lon": -77.05691016666667, "is_disabled": 0, "fusion_lat": 0.0, "lat": 38.90481583333333, "bike_id": "f50109daeb453c456cb8c13efe7e59bb", "fusion_lon": 0.0}, {"rental_uris": {"ios": "https://dc.lft.to/lastmile_qr_scan", "android": "https://dc.lft.to/lastmile_qr_scan"}, "type": "electric_bike", "name": "5198557c6b4e74ebe330435eddeb6aa9", "is_reserved": 0, "lon": -77.00136316666666, "is_disabled": 0, "fusion_lat": 0.0, "lat": 38.9950565, "bike_id": "5198557c6b4e74ebe330435eddeb6aa9", "fusion_lon": 0.0}, {"rental_uris": {"ios": "https://dc.lft.to/lastmile_qr_scan", "android": "https://dc.lft.to/lastmile_qr_scan"}, "type": "electric_scooter", "name": "e10918309e040ef799d24ded3b39921c", "is_reserved": 0, "lon": -76.94653533333333, "is_disabled": 0, "fusion_lat": 0.0, "lat": 38.89829133333333, "bike_id": "e10918309e040ef799d24ded3b39921c", "fusion_lon": 0.0}, {"rental_uris": {"ios": "https://dc.lft.to/lastmile_qr_scan", "android": "https://dc.lft.to/lastmile_qr_scan"}, "type": "electric_scooter", "name": "ee7b3280f446523c7554d7a7035e2d55", "is_reserved": 0, "lon": -77.057931, "is_disabled": 0, "fusion_lat": 0.0, "lat": 38.90512233333333, "bike_id": "ee7b3280f446523c7554d7a7035e2d55", "fusion_lon": 0.0}, {"rental_uris": {"ios": "https://dc.lft.to/lastmile_qr_scan", "android": "https://dc.lft.to/lastmile_qr_scan"}, "type": "electric_scooter", "name": "a277a1f427b53a0e57f453612356db6d", "is_reserved": 0, "lon": -77.001945, "is_disabled": 0, "fusion_lat": 0.0, "lat": 38.893315333333334, "bike_id": "a277a1f427b53a0e57f453612356db6d", "fusion_lon": 0.0}, {"rental_uris": {"ios": "https://dc.lft.to/lastmile_qr_scan", "android": "https://dc.lft.to/lastmile_qr_scan"}, "type": "electric_scooter", "name": "97ee274dc19a720e0a196973c9321e30", "is_reserved": 0, "lon": -77.01667483333334, "is_disabled": 0, "fusion_lat": 0.0, "lat": 38.935174, "bike_id": "97ee274dc19a720e0a196973c9321e30", "fusion_lon": 0.0}, {"rental_uris": {"ios": "https://dc.lft.to/lastmile_qr_scan", "android": "https://dc.lft.to/lastmile_qr_scan"}, "type": "electric_bike", "name": "95968a6e543a46d136044228ca2fe8e2", "is_reserved": 0, "lon": -76.9691985, "is_disabled": 0, "fusion_lat": 0.0, "lat": 38.84618116666667, "bike_id": "95968a6e543a46d136044228ca2fe8e2", "fusion_lon": 0.0}, {"rental_uris": {"ios": "https://dc.lft.to/lastmile_qr_scan", "android": "https://dc.lft.to/lastmile_qr_scan"}, "type": "electric_scooter", "name": "353fa73f1a5af0c96428d97cf5c2bc9c", "is_reserved": 0, "lon": -76.979389, "is_disabled": 0, "fusion_lat": 0.0, "lat": 38.906577166666665, "bike_id": "353fa73f1a5af0c96428d97cf5c2bc9c", "fusion_lon": 0.0}, {"rental_uris": {"ios": "https://dc.lft.to/lastmile_qr_scan", "android": "https://dc.lft.to/lastmile_qr_scan"}, "type": "electric_scooter", "name": "c631754b80e8ce7c682525f45889ae31", "is_reserved": 0, "lon": -77.05153833333334, "is_disabled": 0, "fusion_lat": 0.0, "lat": 38.90473883333333, "bike_id": "c631754b80e8ce7c682525f45889ae31", "fusion_lon": 0.0}, {"rental_uris": {"ios": "https://dc.lft.to/lastmile_qr_scan", "android": "https://dc.lft.to/lastmile_qr_scan"}, "type": "electric_scooter", "name": "4010a58dee147512f0ed425b83bc33b3", "is_reserved": 0, "lon": -77.03515466666667, "is_disabled": 0, "fusion_lat": 0.0, "lat": 38.90961, "bike_id": "4010a58dee147512f0ed425b83bc33b3", "fusion_lon": 0.0}, {"rental_uris": {"ios": "https://dc.lft.to/lastmile_qr_scan", "android": "https://dc.lft.to/lastmile_qr_scan"}, "type": "electric_scooter", "name": "a638cf53e664d3da8a39fd4a3506c593", "is_reserved": 0, "lon": -77.00903616666666, "is_disabled": 0, "fusion_lat": 0.0, "lat": 38.898907666666666, "bike_id": "a638cf53e664d3da8a39fd4a3506c593", "fusion_lon": 0.0}, {"rental_uris": {"ios": "https://dc.lft.to/lastmile_qr_scan", "android": "https://dc.lft.to/lastmile_qr_scan"}, "type": "electric_scooter", "name": "f4fc2e0603c3507ee18e1e3783cf8a6a", "is_reserved": 0, "lon": -77.03480333333333, "is_disabled": 0, "fusion_lat": 0.0, "lat": 38.93534666666667, "bike_id": "f4fc2e0603c3507ee18e1e3783cf8a6a", "fusion_lon": 0.0}, {"rental_uris": {"ios": "https://dc.lft.to/lastmile_qr_scan", "android": "https://dc.lft.to/lastmile_qr_scan"}, "type": "electric_scooter", "name": "464cb028d8343aee0e4bda4c3ee5d2d9", "is_reserved": 0, "lon": -77.02489666666666, "is_disabled": 0, "fusion_lat": 0.0, "lat": 38.923952666666665, "bike_id": "464cb028d8343aee0e4bda4c3ee5d2d9", "fusion_lon": 0.0}, {"rental_uris": {"ios": "https://dc.lft.to/lastmile_qr_scan", "android": "https://dc.lft.to/lastmile_qr_scan"}, "type": "electric_bike", "name": "6c6433efc1ecff5b6fe3a423e5b8aad7", "is_reserved": 0, "lon": -76.939686, "is_disabled": 0, "fusion_lat": 0.0, "lat": 38.962808333333335, "bike_id": "6c6433efc1ecff5b6fe3a423e5b8aad7", "fusion_lon": 0.0}, {"rental_uris": {"ios": "https://dc.lft.to/lastmile_qr_scan", "android": "https://dc.lft.to/lastmile_qr_scan"}, "type": "electric_scooter", "name": "553581d7fdccc54e87039b168bf741af", "is_reserved": 0, "lon": -77.01297566666666, "is_disabled": 0, "fusion_lat": 0.0, "lat": 38.90190666666667, "bike_id": "553581d7fdccc54e87039b168bf741af", "fusion_lon": 0.0}, {"rental_uris": {"ios": "https://dc.lft.to/lastmile_qr_scan", "android": "https://dc.lft.to/lastmile_qr_scan"}, "type": "electric_bike", "name": "be769bf9bb280da318b600985c41fe78", "is_reserved": 0, "lon": -76.98683216666667, "is_disabled": 0, "fusion_lat": 0.0, "lat": 38.94477116666667, "bike_id": "be769bf9bb280da318b600985c41fe78", "fusion_lon": 0.0}, {"rental_uris": {"ios": "https://dc.lft.to/lastmile_qr_scan", "android": "https://dc.lft.to/lastmile_qr_scan"}, "type": "electric_scooter", "name": "07ad614fe1def443cbd8004d32d40cae", "is_reserved": 0, "lon": -77.032607, "is_disabled": 0, "fusion_lat": 0.0, "lat": 38.91271233333333, "bike_id": "07ad614fe1def443cbd8004d32d40cae", "fusion_lon": 0.0}, {"rental_uris": {"ios": "https://dc.lft.to/lastmile_qr_scan", "android": "https://dc.lft.to/lastmile_qr_scan"}, "type": "electric_scooter", "name": "7579b246046b0b4bcf974d1a63d1d3f7", "is_reserved": 0, "lon": -77.03359283333333, "is_disabled": 0, "fusion_lat": 0.0, "lat": 38.93055183333333, "bike_id": "7579b246046b0b4bcf974d1a63d1d3f7", "fusion_lon": 0.0}, {"rental_uris": {"ios": "https://dc.lft.to/lastmile_qr_scan", "android": "https://dc.lft.to/lastmile_qr_scan"}, "type": "electric_scooter", "name": "65e530b034660f17dcbcb81247b8ca0e", "is_reserved": 0, "lon": -77.03056116666667, "is_disabled": 0, "fusion_lat": 0.0, "lat": 38.909632333333334, "bike_id": "65e530b034660f17dcbcb81247b8ca0e", "fusion_lon": 0.0}, {"rental_uris": {"ios": "https://dc.lft.to/lastmile_qr_scan", "android": "https://dc.lft.to/lastmile_qr_scan"}, "type": "electric_scooter", "name": "7e0a39a392312d61568847804e754df9", "is_reserved": 0, "lon": -77.02129966666666, "is_disabled": 0, "fusion_lat": 0.0, "lat": 38.91331816666667, "bike_id": "7e0a39a392312d61568847804e754df9", "fusion_lon": 0.0}, {"rental_uris": {"ios": "https://dc.lft.to/lastmile_qr_scan", "android": "https://dc.lft.to/lastmile_qr_scan"}, "type": "electric_scooter", "name": "1a6b6b3bfaf4023f94eac3379eeb4f35", "is_reserved": 0, "lon": -77.04825783333334, "is_disabled": 0, "fusion_lat": 0.0, "lat": 38.912681, "bike_id": "1a6b6b3bfaf4023f94eac3379eeb4f35", "fusion_lon": 0.0}, {"rental_uris": {"ios": "https://dc.lft.to/lastmile_qr_scan", "android": "https://dc.lft.to/lastmile_qr_scan"}, "type": "electric_scooter", "name": "aab976ba8cef12333009d757ceb099c3", "is_reserved": 0, "lon": -77.05603383333333, "is_disabled": 0, "fusion_lat": 0.0, "lat": 38.89427083333333, "bike_id": "aab976ba8cef12333009d757ceb099c3", "fusion_lon": 0.0}, {"rental_uris": {"ios": "https://dc.lft.to/lastmile_qr_scan", "android": "https://dc.lft.to/lastmile_qr_scan"}, "type": "electric_scooter", "name": "8384bf39e8dcb18559ee68db6ab79a67", "is_reserved": 0, "lon": -77.01527916666667, "is_disabled": 0, "fusion_lat": 0.0, "lat": 38.88736683333333, "bike_id": "8384bf39e8dcb18559ee68db6ab79a67", "fusion_lon": 0.0}, {"rental_uris": {"ios": "https://dc.lft.to/lastmile_qr_scan", "android": "https://dc.lft.to/lastmile_qr_scan"}, "type": "electric_scooter", "name": "2aca73c58bf93de609655bb5689cb0b8", "is_reserved": 0, "lon": -77.00407466666667, "is_disabled": 0, "fusion_lat": 0.0, "lat": 38.9075245, "bike_id": "2aca73c58bf93de609655bb5689cb0b8", "fusion_lon": 0.0}, {"rental_uris": {"ios": "https://dc.lft.to/lastmile_qr_scan", "android": "https://dc.lft.to/lastmile_qr_scan"}, "type": "electric_scooter", "name": "4c4268921104b3f88a96cf3b4d0bd0c4", "is_reserved": 0, "lon": -76.99156633333334, "is_disabled": 0, "fusion_lat": 0.0, "lat": 38.90039083333333, "bike_id": "4c4268921104b3f88a96cf3b4d0bd0c4", "fusion_lon": 0.0}, {"rental_uris": {"ios": "https://dc.lft.to/lastmile_qr_scan", "android": "https://dc.lft.to/lastmile_qr_scan"}, "type": "electric_scooter", "name": "f5559f9fb0179e367f42615a8c23eaa1", "is_reserved": 0, "lon": -77.01017983333334, "is_disabled": 0, "fusion_lat": 0.0, "lat": 38.91412066666667, "bike_id": "f5559f9fb0179e367f42615a8c23eaa1", "fusion_lon": 0.0}, {"rental_uris": {"ios": "https://dc.lft.to/lastmile_qr_scan", "android": "https://dc.lft.to/lastmile_qr_scan"}, "type": "electric_scooter", "name": "29c062818326eca593d4789e395b3b50", "is_reserved": 0, "lon": -77.02693683333334, "is_disabled": 0, "fusion_lat": 0.0, "lat": 38.911520333333335, "bike_id": "29c062818326eca593d4789e395b3b50", "fusion_lon": 0.0}, {"rental_uris": {"ios": "https://dc.lft.to/lastmile_qr_scan", "android": "https://dc.lft.to/lastmile_qr_scan"}, "type": "electric_scooter", "name": "f50b2315fc4a365a2f4150d599d0986b", "is_reserved": 0, "lon": -77.02014633333333, "is_disabled": 0, "fusion_lat": 0.0, "lat": 38.898143, "bike_id": "f50b2315fc4a365a2f4150d599d0986b", "fusion_lon": 0.0}, {"rental_uris": {"ios": "https://dc.lft.to/lastmile_qr_scan", "android": "https://dc.lft.to/lastmile_qr_scan"}, "type": "electric_scooter", "name": "85f78e976ad782b3b1fcecb0be27c887", "is_reserved": 0, "lon": -77.03286166666666, "is_disabled": 0, "fusion_lat": 0.0, "lat": 38.92456416666667, "bike_id": "85f78e976ad782b3b1fcecb0be27c887", "fusion_lon": 0.0}, {"rental_uris": {"ios": "https://dc.lft.to/lastmile_qr_scan", "android": "https://dc.lft.to/lastmile_qr_scan"}, "type": "electric_scooter", "name": "1bad2588b3a1cb3fa46c55b206981955", "is_reserved": 0, "lon": -77.03711466666667, "is_disabled": 0, "fusion_lat": 0.0, "lat": 38.92836716666667, "bike_id": "1bad2588b3a1cb3fa46c55b206981955", "fusion_lon": 0.0}, {"rental_uris": {"ios": "https://dc.lft.to/lastmile_qr_scan", "android": "https://dc.lft.to/lastmile_qr_scan"}, "type": "electric_scooter", "name": "cd9453bcac867f433e261a75d4ce43c9", "is_reserved": 0, "lon": -77.03282966666667, "is_disabled": 0, "fusion_lat": 0.0, "lat": 38.928829, "bike_id": "cd9453bcac867f433e261a75d4ce43c9", "fusion_lon": 0.0}, {"rental_uris": {"ios": "https://dc.lft.to/lastmile_qr_scan", "android": "https://dc.lft.to/lastmile_qr_scan"}, "type": "electric_scooter", "name": "a78f55bf81c6eb6ec1f4cee8e97cf4a7", "is_reserved": 0, "lon": -76.98538566666667, "is_disabled": 0, "fusion_lat": 0.0, "lat": 38.9095615, "bike_id": "a78f55bf81c6eb6ec1f4cee8e97cf4a7", "fusion_lon": 0.0}, {"rental_uris": {"ios": "https://dc.lft.to/lastmile_qr_scan", "android": "https://dc.lft.to/lastmile_qr_scan"}, "type": "electric_scooter", "name": "456dcc5c3722dceda92e47f624ec9bce", "is_reserved": 0, "lon": -77.0654195, "is_disabled": 0, "fusion_lat": 0.0, "lat": 38.90525366666667, "bike_id": "456dcc5c3722dceda92e47f624ec9bce", "fusion_lon": 0.0}, {"rental_uris": {"ios": "https://dc.lft.to/lastmile_qr_scan", "android": "https://dc.lft.to/lastmile_qr_scan"}, "type": "electric_scooter", "name": "b9d6bb5aad395543874e988efc8f545a", "is_reserved": 0, "lon": -77.0412515, "is_disabled": 0, "fusion_lat": 0.0, "lat": 38.92544383333333, "bike_id": "b9d6bb5aad395543874e988efc8f545a", "fusion_lon": 0.0}, {"rental_uris": {"ios": "https://dc.lft.to/lastmile_qr_scan", "android": "https://dc.lft.to/lastmile_qr_scan"}, "type": "electric_scooter", "name": "51eec1af0b9a3b15679c00be6cff6c74", "is_reserved": 0, "lon": -77.027463, "is_disabled": 0, "fusion_lat": 0.0, "lat": 38.95781916666667, "bike_id": "51eec1af0b9a3b15679c00be6cff6c74", "fusion_lon": 0.0}, {"rental_uris": {"ios": "https://dc.lft.to/lastmile_qr_scan", "android": "https://dc.lft.to/lastmile_qr_scan"}, "type": "electric_scooter", "name": "82db41fa03dc8c72f1c089c1821fe32c", "is_reserved": 0, "lon": -77.00586366666667, "is_disabled": 0, "fusion_lat": 0.0, "lat": 38.87569216666667, "bike_id": "82db41fa03dc8c72f1c089c1821fe32c", "fusion_lon": 0.0}, {"rental_uris": {"ios": "https://dc.lft.to/lastmile_qr_scan", "android": "https://dc.lft.to/lastmile_qr_scan"}, "type": "electric_scooter", "name": "cd8cc7a42047e3829605fdf13e873f99", "is_reserved": 0, "lon": -77.04148883333333, "is_disabled": 0, "fusion_lat": 0.0, "lat": 38.923227, "bike_id": "cd8cc7a42047e3829605fdf13e873f99", "fusion_lon": 0.0}, {"rental_uris": {"ios": "https://dc.lft.to/lastmile_qr_scan", "android": "https://dc.lft.to/lastmile_qr_scan"}, "type": "electric_bike", "name": "90d96131a31a5b3f06e248d6436ec4a9", "is_reserved": 0, "lon": -76.97701883333333, "is_disabled": 0, "fusion_lat": 0.0, "lat": 38.822099333333334, "bike_id": "90d96131a31a5b3f06e248d6436ec4a9", "fusion_lon": 0.0}, {"rental_uris": {"ios": "https://dc.lft.to/lastmile_qr_scan", "android": "https://dc.lft.to/lastmile_qr_scan"}, "type": "electric_scooter", "name": "f41f33a4f9d6d54cd1493bd4ea25e068", "is_reserved": 0, "lon": -77.02584466666667, "is_disabled": 0, "fusion_lat": 0.0, "lat": 38.8965895, "bike_id": "f41f33a4f9d6d54cd1493bd4ea25e068", "fusion_lon": 0.0}, {"rental_uris": {"ios": "https://dc.lft.to/lastmile_qr_scan", "android": "https://dc.lft.to/lastmile_qr_scan"}, "type": "electric_scooter", "name": "48b68389e981b83fadad5192cbff51ca", "is_reserved": 0, "lon": -77.04166816666667, "is_disabled": 0, "fusion_lat": 0.0, "lat": 38.915966166666664, "bike_id": "48b68389e981b83fadad5192cbff51ca", "fusion_lon": 0.0}, {"rental_uris": {"ios": "https://dc.lft.to/lastmile_qr_scan", "android": "https://dc.lft.to/lastmile_qr_scan"}, "type": "electric_scooter", "name": "b15afcaca7a384a6fbffeeadd6199e24", "is_reserved": 0, "lon": -77.00054783333333, "is_disabled": 0, "fusion_lat": 0.0, "lat": 38.8763065, "bike_id": "b15afcaca7a384a6fbffeeadd6199e24", "fusion_lon": 0.0}, {"rental_uris": {"ios": "https://dc.lft.to/lastmile_qr_scan", "android": "https://dc.lft.to/lastmile_qr_scan"}, "type": "electric_scooter", "name": "d0ad32a57caecf1373a16a72447780e4", "is_reserved": 0, "lon": -76.965502, "is_disabled": 0, "fusion_lat": 0.0, "lat": 38.878886, "bike_id": "d0ad32a57caecf1373a16a72447780e4", "fusion_lon": 0.0}, {"rental_uris": {"ios": "https://dc.lft.to/lastmile_qr_scan", "android": "https://dc.lft.to/lastmile_qr_scan"}, "type": "electric_scooter", "name": "b1ec1f7eaba2f83c13325796b6977b25", "is_reserved": 0, "lon": -77.0465355, "is_disabled": 0, "fusion_lat": 0.0, "lat": 38.910525666666665, "bike_id": "b1ec1f7eaba2f83c13325796b6977b25", "fusion_lon": 0.0}, {"rental_uris": {"ios": "https://dc.lft.to/lastmile_qr_scan", "android": "https://dc.lft.to/lastmile_qr_scan"}, "type": "electric_bike", "name": "764973ffd96e694f800c382f3d6095f4", "is_reserved": 0, "lon": -77.08368516666667, "is_disabled": 0, "fusion_lat": 0.0, "lat": 38.854184333333336, "bike_id": "764973ffd96e694f800c382f3d6095f4", "fusion_lon": 0.0}, {"rental_uris": {"ios": "https://dc.lft.to/lastmile_qr_scan", "android": "https://dc.lft.to/lastmile_qr_scan"}, "type": "electric_scooter", "name": "74f33480d5c78d9fa9d5c2fb7727f33d", "is_reserved": 0, "lon": -77.02804283333333, "is_disabled": 0, "fusion_lat": 0.0, "lat": 38.8966065, "bike_id": "74f33480d5c78d9fa9d5c2fb7727f33d", "fusion_lon": 0.0}, {"rental_uris": {"ios": "https://dc.lft.to/lastmile_qr_scan", "android": "https://dc.lft.to/lastmile_qr_scan"}, "type": "electric_scooter", "name": "d7d57b1626474a50a58a96c045b6ece3", "is_reserved": 0, "lon": -77.01609, "is_disabled": 0, "fusion_lat": 0.0, "lat": 38.9012415, "bike_id": "d7d57b1626474a50a58a96c045b6ece3", "fusion_lon": 0.0}, {"rental_uris": {"ios": "https://dc.lft.to/lastmile_qr_scan", "android": "https://dc.lft.to/lastmile_qr_scan"}, "type": "electric_scooter", "name": "aeb6baa52dc768664bdf8d7307b57d3c", "is_reserved": 0, "lon": -77.03420333333334, "is_disabled": 0, "fusion_lat": 0.0, "lat": 38.93544833333333, "bike_id": "aeb6baa52dc768664bdf8d7307b57d3c", "fusion_lon": 0.0}, {"rental_uris": {"ios": "https://dc.lft.to/lastmile_qr_scan", "android": "https://dc.lft.to/lastmile_qr_scan"}, "type": "electric_scooter", "name": "1c18894cdb21a266f559e47f3c58418e", "is_reserved": 0, "lon": -76.997399, "is_disabled": 0, "fusion_lat": 0.0, "lat": 38.92047066666667, "bike_id": "1c18894cdb21a266f559e47f3c58418e", "fusion_lon": 0.0}, {"rental_uris": {"ios": "https://dc.lft.to/lastmile_qr_scan", "android": "https://dc.lft.to/lastmile_qr_scan"}, "type": "electric_scooter", "name": "25ab77f669c777ae7f7e19ff049a3bed", "is_reserved": 0, "lon": -77.0270315, "is_disabled": 0, "fusion_lat": 0.0, "lat": 38.918337666666666, "bike_id": "25ab77f669c777ae7f7e19ff049a3bed", "fusion_lon": 0.0}, {"rental_uris": {"ios": "https://dc.lft.to/lastmile_qr_scan", "android": "https://dc.lft.to/lastmile_qr_scan"}, "type": "electric_scooter", "name": "97be1c28bebaa569cc9a59be8db64512", "is_reserved": 0, "lon": -77.0404675, "is_disabled": 0, "fusion_lat": 0.0, "lat": 38.930077, "bike_id": "97be1c28bebaa569cc9a59be8db64512", "fusion_lon": 0.0}, {"rental_uris": {"ios": "https://dc.lft.to/lastmile_qr_scan", "android": "https://dc.lft.to/lastmile_qr_scan"}, "type": "electric_scooter", "name": "60de638c2345cff14a06cf543d18922b", "is_reserved": 0, "lon": -77.04311633333333, "is_disabled": 0, "fusion_lat": 0.0, "lat": 38.9342235, "bike_id": "60de638c2345cff14a06cf543d18922b", "fusion_lon": 0.0}, {"rental_uris": {"ios": "https://dc.lft.to/lastmile_qr_scan", "android": "https://dc.lft.to/lastmile_qr_scan"}, "type": "electric_scooter", "name": "bd06d96743e67b2a8a393ae29e0a6b38", "is_reserved": 0, "lon": -77.06003883333334, "is_disabled": 0, "fusion_lat": 0.0, "lat": 38.90521233333333, "bike_id": "bd06d96743e67b2a8a393ae29e0a6b38", "fusion_lon": 0.0}, {"rental_uris": {"ios": "https://dc.lft.to/lastmile_qr_scan", "android": "https://dc.lft.to/lastmile_qr_scan"}, "type": "electric_scooter", "name": "9a28ffc201f64f2e67bf4d38f89fdbac", "is_reserved": 0, "lon": -77.03446366666667, "is_disabled": 0, "fusion_lat": 0.0, "lat": 38.911994166666666, "bike_id": "9a28ffc201f64f2e67bf4d38f89fdbac", "fusion_lon": 0.0}, {"rental_uris": {"ios": "https://dc.lft.to/lastmile_qr_scan", "android": "https://dc.lft.to/lastmile_qr_scan"}, "type": "electric_scooter", "name": "ebfbaa33736034fdde2d3b24bceeb675", "is_reserved": 0, "lon": -77.0371795, "is_disabled": 0, "fusion_lat": 0.0, "lat": 38.9002825, "bike_id": "ebfbaa33736034fdde2d3b24bceeb675", "fusion_lon": 0.0}, {"rental_uris": {"ios": "https://dc.lft.to/lastmile_qr_scan", "android": "https://dc.lft.to/lastmile_qr_scan"}, "type": "electric_scooter", "name": "78a76b0eb98668d7874f9d715422ae95", "is_reserved": 0, "lon": -77.052195, "is_disabled": 0, "fusion_lat": 0.0, "lat": 38.90973316666667, "bike_id": "78a76b0eb98668d7874f9d715422ae95", "fusion_lon": 0.0}, {"rental_uris": {"ios": "https://dc.lft.to/lastmile_qr_scan", "android": "https://dc.lft.to/lastmile_qr_scan"}, "type": "electric_scooter", "name": "639fdcc77ecdd5bd1bdaa313f2abbed6", "is_reserved": 0, "lon": -76.98377716666667, "is_disabled": 0, "fusion_lat": 0.0, "lat": 38.914791, "bike_id": "639fdcc77ecdd5bd1bdaa313f2abbed6", "fusion_lon": 0.0}, {"rental_uris": {"ios": "https://dc.lft.to/lastmile_qr_scan", "android": "https://dc.lft.to/lastmile_qr_scan"}, "type": "electric_scooter", "name": "b6e256dd212b0a3188f74385b26a3c22", "is_reserved": 0, "lon": -77.02941333333334, "is_disabled": 0, "fusion_lat": 0.0, "lat": 38.91706116666667, "bike_id": "b6e256dd212b0a3188f74385b26a3c22", "fusion_lon": 0.0}, {"rental_uris": {"ios": "https://dc.lft.to/lastmile_qr_scan", "android": "https://dc.lft.to/lastmile_qr_scan"}, "type": "electric_scooter", "name": "77ccbe1df89566f6f5949fbfe0abd815", "is_reserved": 0, "lon": -77.03284233333333, "is_disabled": 0, "fusion_lat": 0.0, "lat": 38.947950666666664, "bike_id": "77ccbe1df89566f6f5949fbfe0abd815", "fusion_lon": 0.0}, {"rental_uris": {"ios": "https://dc.lft.to/lastmile_qr_scan", "android": "https://dc.lft.to/lastmile_qr_scan"}, "type": "electric_scooter", "name": "32987a4c7bac74f60cf5672c7ee85150", "is_reserved": 0, "lon": -77.02548833333333, "is_disabled": 0, "fusion_lat": 0.0, "lat": 38.951721166666665, "bike_id": "32987a4c7bac74f60cf5672c7ee85150", "fusion_lon": 0.0}, {"rental_uris": {"ios": "https://dc.lft.to/lastmile_qr_scan", "android": "https://dc.lft.to/lastmile_qr_scan"}, "type": "electric_scooter", "name": "e74be57147b4b02c5759bed9132e4767", "is_reserved": 0, "lon": -77.04152083333334, "is_disabled": 0, "fusion_lat": 0.0, "lat": 38.9055685, "bike_id": "e74be57147b4b02c5759bed9132e4767", "fusion_lon": 0.0}, {"rental_uris": {"ios": "https://dc.lft.to/lastmile_qr_scan", "android": "https://dc.lft.to/lastmile_qr_scan"}, "type": "electric_scooter", "name": "00feb3c91608ca429f206f5c9e966e4e", "is_reserved": 0, "lon": -76.99163966666667, "is_disabled": 0, "fusion_lat": 0.0, "lat": 38.890191, "bike_id": "00feb3c91608ca429f206f5c9e966e4e", "fusion_lon": 0.0}, {"rental_uris": {"ios": "https://dc.lft.to/lastmile_qr_scan", "android": "https://dc.lft.to/lastmile_qr_scan"}, "type": "electric_scooter", "name": "7e5e5c7fd04a234dec3206af129cfaac", "is_reserved": 0, "lon": -77.05821483333334, "is_disabled": 0, "fusion_lat": 0.0, "lat": 38.90518733333333, "bike_id": "7e5e5c7fd04a234dec3206af129cfaac", "fusion_lon": 0.0}, {"rental_uris": {"ios": "https://dc.lft.to/lastmile_qr_scan", "android": "https://dc.lft.to/lastmile_qr_scan"}, "type": "electric_scooter", "name": "246c6bd88f156a513ae5ec3f2360bb35", "is_reserved": 0, "lon": -77.0371435, "is_disabled": 0, "fusion_lat": 0.0, "lat": 38.900351666666666, "bike_id": "246c6bd88f156a513ae5ec3f2360bb35", "fusion_lon": 0.0}, {"rental_uris": {"ios": "https://dc.lft.to/lastmile_qr_scan", "android": "https://dc.lft.to/lastmile_qr_scan"}, "type": "electric_scooter", "name": "6408656526ff33520a1fe78ea5f38912", "is_reserved": 0, "lon": -77.02483916666667, "is_disabled": 0, "fusion_lat": 0.0, "lat": 38.903516333333336, "bike_id": "6408656526ff33520a1fe78ea5f38912", "fusion_lon": 0.0}, {"rental_uris": {"ios": "https://dc.lft.to/lastmile_qr_scan", "android": "https://dc.lft.to/lastmile_qr_scan"}, "type": "electric_scooter", "name": "058b42659afb77592317a1e8b267ec04", "is_reserved": 0, "lon": -77.0279185, "is_disabled": 0, "fusion_lat": 0.0, "lat": 38.930819, "bike_id": "058b42659afb77592317a1e8b267ec04", "fusion_lon": 0.0}, {"rental_uris": {"ios": "https://dc.lft.to/lastmile_qr_scan", "android": "https://dc.lft.to/lastmile_qr_scan"}, "type": "electric_scooter", "name": "b600bff7a90a690b8bf3bdf968d29710", "is_reserved": 0, "lon": -77.0734275, "is_disabled": 0, "fusion_lat": 0.0, "lat": 38.943286, "bike_id": "b600bff7a90a690b8bf3bdf968d29710", "fusion_lon": 0.0}, {"rental_uris": {"ios": "https://dc.lft.to/lastmile_qr_scan", "android": "https://dc.lft.to/lastmile_qr_scan"}, "type": "electric_scooter", "name": "423bbc60c37990ceb27c292438a8d274", "is_reserved": 0, "lon": -76.97627966666667, "is_disabled": 0, "fusion_lat": 0.0, "lat": 38.905789, "bike_id": "423bbc60c37990ceb27c292438a8d274", "fusion_lon": 0.0}, {"rental_uris": {"ios": "https://dc.lft.to/lastmile_qr_scan", "android": "https://dc.lft.to/lastmile_qr_scan"}, "type": "electric_bike", "name": "798a7dd8ccc1bbdca14828e51c6590d2", "is_reserved": 0, "lon": -77.23408516666667, "is_disabled": 0, "fusion_lat": 0.0, "lat": 38.875778833333335, "bike_id": "798a7dd8ccc1bbdca14828e51c6590d2", "fusion_lon": 0.0}, {"rental_uris": {"ios": "https://dc.lft.to/lastmile_qr_scan", "android": "https://dc.lft.to/lastmile_qr_scan"}, "type": "electric_scooter", "name": "67cb9b67aa240ed9f4e44d760ea21360", "is_reserved": 0, "lon": -77.0729715, "is_disabled": 0, "fusion_lat": 0.0, "lat": 38.9302895, "bike_id": "67cb9b67aa240ed9f4e44d760ea21360", "fusion_lon": 0.0}, {"rental_uris": {"ios": "https://dc.lft.to/lastmile_qr_scan", "android": "https://dc.lft.to/lastmile_qr_scan"}, "type": "electric_scooter", "name": "58b311717a3617bc0cdff71c8cdad6b1", "is_reserved": 0, "lon": -77.0494685, "is_disabled": 0, "fusion_lat": 0.0, "lat": 38.92021583333333, "bike_id": "58b311717a3617bc0cdff71c8cdad6b1", "fusion_lon": 0.0}, {"rental_uris": {"ios": "https://dc.lft.to/lastmile_qr_scan", "android": "https://dc.lft.to/lastmile_qr_scan"}, "type": "electric_scooter", "name": "d971cad36712f37a4a81c920b2215f97", "is_reserved": 0, "lon": -77.02583233333333, "is_disabled": 0, "fusion_lat": 0.0, "lat": 38.89831983333333, "bike_id": "d971cad36712f37a4a81c920b2215f97", "fusion_lon": 0.0}, {"rental_uris": {"ios": "https://dc.lft.to/lastmile_qr_scan", "android": "https://dc.lft.to/lastmile_qr_scan"}, "type": "electric_scooter", "name": "f9053061ea278a7069e49932bc5f98bc", "is_reserved": 0, "lon": -77.01446316666667, "is_disabled": 0, "fusion_lat": 0.0, "lat": 38.9110645, "bike_id": "f9053061ea278a7069e49932bc5f98bc", "fusion_lon": 0.0}, {"rental_uris": {"ios": "https://dc.lft.to/lastmile_qr_scan", "android": "https://dc.lft.to/lastmile_qr_scan"}, "type": "electric_scooter", "name": "b1a93bc917bbd397727f67cf4b3471f1", "is_reserved": 0, "lon": -77.04332383333333, "is_disabled": 0, "fusion_lat": 0.0, "lat": 38.91783216666666, "bike_id": "b1a93bc917bbd397727f67cf4b3471f1", "fusion_lon": 0.0}, {"rental_uris": {"ios": "https://dc.lft.to/lastmile_qr_scan", "android": "https://dc.lft.to/lastmile_qr_scan"}, "type": "electric_scooter", "name": "f4922f7166649b80938e4cb08322b172", "is_reserved": 0, "lon": -77.083988, "is_disabled": 0, "fusion_lat": 0.0, "lat": 38.908099166666666, "bike_id": "f4922f7166649b80938e4cb08322b172", "fusion_lon": 0.0}, {"rental_uris": {"ios": "https://dc.lft.to/lastmile_qr_scan", "android": "https://dc.lft.to/lastmile_qr_scan"}, "type": "electric_bike", "name": "9018dd7cad40526f01731b01e85ace50", "is_reserved": 0, "lon": -76.94540133333334, "is_disabled": 0, "fusion_lat": 0.0, "lat": 38.9828405, "bike_id": "9018dd7cad40526f01731b01e85ace50", "fusion_lon": 0.0}, {"rental_uris": {"ios": "https://dc.lft.to/lastmile_qr_scan", "android": "https://dc.lft.to/lastmile_qr_scan"}, "type": "electric_bike", "name": "fa6d6489ca9fafda1bcf59cb168868ce", "is_reserved": 0, "lon": -77.07384833333333, "is_disabled": 0, "fusion_lat": 0.0, "lat": 38.961648833333335, "bike_id": "fa6d6489ca9fafda1bcf59cb168868ce", "fusion_lon": 0.0}, {"rental_uris": {"ios": "https://dc.lft.to/lastmile_qr_scan", "android": "https://dc.lft.to/lastmile_qr_scan"}, "type": "electric_scooter", "name": "5073920e8726a5d7968dd340e7636e3f", "is_reserved": 0, "lon": -77.02866583333333, "is_disabled": 0, "fusion_lat": 0.0, "lat": 38.9294945, "bike_id": "5073920e8726a5d7968dd340e7636e3f", "fusion_lon": 0.0}, {"rental_uris": {"ios": "https://dc.lft.to/lastmile_qr_scan", "android": "https://dc.lft.to/lastmile_qr_scan"}, "type": "electric_scooter", "name": "ce364b296955f0cc22edf6fb06a01cb4", "is_reserved": 0, "lon": -77.003456, "is_disabled": 0, "fusion_lat": 0.0, "lat": 38.8772445, "bike_id": "ce364b296955f0cc22edf6fb06a01cb4", "fusion_lon": 0.0}, {"rental_uris": {"ios": "https://dc.lft.to/lastmile_qr_scan", "android": "https://dc.lft.to/lastmile_qr_scan"}, "type": "electric_bike", "name": "be39b9b9087d0ab7fd156d3bc3aadeb5", "is_reserved": 0, "lon": -76.95244216666667, "is_disabled": 0, "fusion_lat": 0.0, "lat": 38.8846795, "bike_id": "be39b9b9087d0ab7fd156d3bc3aadeb5", "fusion_lon": 0.0}, {"rental_uris": {"ios": "https://dc.lft.to/lastmile_qr_scan", "android": "https://dc.lft.to/lastmile_qr_scan"}, "type": "electric_bike", "name": "263d8b4c1a32b4e0dd3c165959b76091", "is_reserved": 0, "lon": -76.995827, "is_disabled": 0, "fusion_lat": 0.0, "lat": 38.92077666666667, "bike_id": "263d8b4c1a32b4e0dd3c165959b76091", "fusion_lon": 0.0}, {"rental_uris": {"ios": "https://dc.lft.to/lastmile_qr_scan", "android": "https://dc.lft.to/lastmile_qr_scan"}, "type": "electric_bike", "name": "3a846f215608f151873f6d0585308634", "is_reserved": 0, "lon": -76.94975333333333, "is_disabled": 0, "fusion_lat": 0.0, "lat": 38.8830235, "bike_id": "3a846f215608f151873f6d0585308634", "fusion_lon": 0.0}, {"rental_uris": {"ios": "https://dc.lft.to/lastmile_qr_scan", "android": "https://dc.lft.to/lastmile_qr_scan"}, "type": "electric_scooter", "name": "14b3b1429e6d8fa3be9d634a3e2e5ccc", "is_reserved": 0, "lon": -77.02081366666667, "is_disabled": 0, "fusion_lat": 0.0, "lat": 38.927011666666665, "bike_id": "14b3b1429e6d8fa3be9d634a3e2e5ccc", "fusion_lon": 0.0}, {"rental_uris": {"ios": "https://dc.lft.to/lastmile_qr_scan", "android": "https://dc.lft.to/lastmile_qr_scan"}, "type": "electric_scooter", "name": "7b61d779eccddfb7babbc851240aba4b", "is_reserved": 0, "lon": -77.04252416666667, "is_disabled": 0, "fusion_lat": 0.0, "lat": 38.9224135, "bike_id": "7b61d779eccddfb7babbc851240aba4b", "fusion_lon": 0.0}, {"rental_uris": {"ios": "https://dc.lft.to/lastmile_qr_scan", "android": "https://dc.lft.to/lastmile_qr_scan"}, "type": "electric_scooter", "name": "06d7dcb52b2ba2d5113b00b7241e25e7", "is_reserved": 0, "lon": -77.000336, "is_disabled": 0, "fusion_lat": 0.0, "lat": 38.8739845, "bike_id": "06d7dcb52b2ba2d5113b00b7241e25e7", "fusion_lon": 0.0}, {"rental_uris": {"ios": "https://dc.lft.to/lastmile_qr_scan", "android": "https://dc.lft.to/lastmile_qr_scan"}, "type": "electric_scooter", "name": "ab42f2ff432bcc9082aa4fbf61a937b0", "is_reserved": 0, "lon": -77.0437155, "is_disabled": 0, "fusion_lat": 0.0, "lat": 38.91662616666667, "bike_id": "ab42f2ff432bcc9082aa4fbf61a937b0", "fusion_lon": 0.0}, {"rental_uris": {"ios": "https://dc.lft.to/lastmile_qr_scan", "android": "https://dc.lft.to/lastmile_qr_scan"}, "type": "electric_scooter", "name": "4805bb5166ac4a8d693411f6b4fe800b", "is_reserved": 0, "lon": -77.04499966666667, "is_disabled": 0, "fusion_lat": 0.0, "lat": 38.900212, "bike_id": "4805bb5166ac4a8d693411f6b4fe800b", "fusion_lon": 0.0}, {"rental_uris": {"ios": "https://dc.lft.to/lastmile_qr_scan", "android": "https://dc.lft.to/lastmile_qr_scan"}, "type": "electric_scooter", "name": "090bb07baa627408c2fd76920b2ae09f", "is_reserved": 0, "lon": -77.00919366666666, "is_disabled": 0, "fusion_lat": 0.0, "lat": 38.90558516666667, "bike_id": "090bb07baa627408c2fd76920b2ae09f", "fusion_lon": 0.0}, {"rental_uris": {"ios": "https://dc.lft.to/lastmile_qr_scan", "android": "https://dc.lft.to/lastmile_qr_scan"}, "type": "electric_scooter", "name": "90384e71c071ecc9cf8ba800330893c3", "is_reserved": 0, "lon": -77.04143766666667, "is_disabled": 0, "fusion_lat": 0.0, "lat": 38.92322383333333, "bike_id": "90384e71c071ecc9cf8ba800330893c3", "fusion_lon": 0.0}, {"rental_uris": {"ios": "https://dc.lft.to/lastmile_qr_scan", "android": "https://dc.lft.to/lastmile_qr_scan"}, "type": "electric_scooter", "name": "399b85d368980141dfeb550c7167aa74", "is_reserved": 0, "lon": -77.03576683333333, "is_disabled": 0, "fusion_lat": 0.0, "lat": 38.88184716666667, "bike_id": "399b85d368980141dfeb550c7167aa74", "fusion_lon": 0.0}, {"rental_uris": {"ios": "https://dc.lft.to/lastmile_qr_scan", "android": "https://dc.lft.to/lastmile_qr_scan"}, "type": "electric_scooter", "name": "3b2796af795603c1a3e6e2f9896ae342", "is_reserved": 0, "lon": -76.94065083333334, "is_disabled": 0, "fusion_lat": 0.0, "lat": 38.885898833333336, "bike_id": "3b2796af795603c1a3e6e2f9896ae342", "fusion_lon": 0.0}, {"rental_uris": {"ios": "https://dc.lft.to/lastmile_qr_scan", "android": "https://dc.lft.to/lastmile_qr_scan"}, "type": "electric_scooter", "name": "87f31440099b07b0455674d75c7e95fe", "is_reserved": 0, "lon": -76.99516833333334, "is_disabled": 0, "fusion_lat": 0.0, "lat": 38.90977933333333, "bike_id": "87f31440099b07b0455674d75c7e95fe", "fusion_lon": 0.0}, {"rental_uris": {"ios": "https://dc.lft.to/lastmile_qr_scan", "android": "https://dc.lft.to/lastmile_qr_scan"}, "type": "electric_scooter", "name": "3a939c6e27c15d0ac3dda5da8aa0126d", "is_reserved": 0, "lon": -77.02548983333334, "is_disabled": 0, "fusion_lat": 0.0, "lat": 38.95166016666667, "bike_id": "3a939c6e27c15d0ac3dda5da8aa0126d", "fusion_lon": 0.0}, {"rental_uris": {"ios": "https://dc.lft.to/lastmile_qr_scan", "android": "https://dc.lft.to/lastmile_qr_scan"}, "type": "electric_scooter", "name": "c9de4d3fd7a604632f012604786aa1a2", "is_reserved": 0, "lon": -77.0346625, "is_disabled": 0, "fusion_lat": 0.0, "lat": 38.90236183333333, "bike_id": "c9de4d3fd7a604632f012604786aa1a2", "fusion_lon": 0.0}, {"rental_uris": {"ios": "https://dc.lft.to/lastmile_qr_scan", "android": "https://dc.lft.to/lastmile_qr_scan"}, "type": "electric_scooter", "name": "47f2a4d58705e63b77a2da32f9fd7bb8", "is_reserved": 0, "lon": -77.0046925, "is_disabled": 0, "fusion_lat": 0.0, "lat": 38.88518216666667, "bike_id": "47f2a4d58705e63b77a2da32f9fd7bb8", "fusion_lon": 0.0}, {"rental_uris": {"ios": "https://dc.lft.to/lastmile_qr_scan", "android": "https://dc.lft.to/lastmile_qr_scan"}, "type": "electric_scooter", "name": "47d7b89753f1dc754f7d8a9ce3ac5e5b", "is_reserved": 0, "lon": -77.0393705, "is_disabled": 0, "fusion_lat": 0.0, "lat": 38.909616666666665, "bike_id": "47d7b89753f1dc754f7d8a9ce3ac5e5b", "fusion_lon": 0.0}, {"rental_uris": {"ios": "https://dc.lft.to/lastmile_qr_scan", "android": "https://dc.lft.to/lastmile_qr_scan"}, "type": "electric_scooter", "name": "0186bdaf96c67be3a2245e3ca3c5ca45", "is_reserved": 0, "lon": -77.034531, "is_disabled": 0, "fusion_lat": 0.0, "lat": 38.911978500000004, "bike_id": "0186bdaf96c67be3a2245e3ca3c5ca45", "fusion_lon": 0.0}, {"rental_uris": {"ios": "https://dc.lft.to/lastmile_qr_scan", "android": "https://dc.lft.to/lastmile_qr_scan"}, "type": "electric_bike", "name": "ede738df18b24b24ffdb0dbe90468841", "is_reserved": 0, "lon": -77.00834233333333, "is_disabled": 0, "fusion_lat": 0.0, "lat": 38.8752105, "bike_id": "ede738df18b24b24ffdb0dbe90468841", "fusion_lon": 0.0}, {"rental_uris": {"ios": "https://dc.lft.to/lastmile_qr_scan", "android": "https://dc.lft.to/lastmile_qr_scan"}, "type": "electric_scooter", "name": "08835e491b666b7516808430de5a88f5", "is_reserved": 0, "lon": -77.02506216666667, "is_disabled": 0, "fusion_lat": 0.0, "lat": 38.91967783333333, "bike_id": "08835e491b666b7516808430de5a88f5", "fusion_lon": 0.0}, {"rental_uris": {"ios": "https://dc.lft.to/lastmile_qr_scan", "android": "https://dc.lft.to/lastmile_qr_scan"}, "type": "electric_scooter", "name": "22e4681fbb76ad20646131f93fd79c49", "is_reserved": 0, "lon": -77.01514266666666, "is_disabled": 0, "fusion_lat": 0.0, "lat": 38.887015, "bike_id": "22e4681fbb76ad20646131f93fd79c49", "fusion_lon": 0.0}, {"rental_uris": {"ios": "https://dc.lft.to/lastmile_qr_scan", "android": "https://dc.lft.to/lastmile_qr_scan"}, "type": "electric_bike", "name": "83a59fa3d04601a4257324dc4cb72127", "is_reserved": 0, "lon": -77.1021195, "is_disabled": 0, "fusion_lat": 0.0, "lat": 38.920007166666664, "bike_id": "83a59fa3d04601a4257324dc4cb72127", "fusion_lon": 0.0}, {"rental_uris": {"ios": "https://dc.lft.to/lastmile_qr_scan", "android": "https://dc.lft.to/lastmile_qr_scan"}, "type": "electric_bike", "name": "113cd727c131bbb852d0524fd0560746", "is_reserved": 0, "lon": -76.96264933333333, "is_disabled": 0, "fusion_lat": 0.0, "lat": 38.967870833333336, "bike_id": "113cd727c131bbb852d0524fd0560746", "fusion_lon": 0.0}, {"rental_uris": {"ios": "https://dc.lft.to/lastmile_qr_scan", "android": "https://dc.lft.to/lastmile_qr_scan"}, "type": "electric_scooter", "name": "ce1ad5fbb026fd0da3474b27b8a1be9a", "is_reserved": 0, "lon": -76.996211, "is_disabled": 0, "fusion_lat": 0.0, "lat": 38.889670833333334, "bike_id": "ce1ad5fbb026fd0da3474b27b8a1be9a", "fusion_lon": 0.0}, {"rental_uris": {"ios": "https://dc.lft.to/lastmile_qr_scan", "android": "https://dc.lft.to/lastmile_qr_scan"}, "type": "electric_scooter", "name": "ec6e7137707bac4827042b44a8a6a35f", "is_reserved": 0, "lon": -77.02173366666666, "is_disabled": 0, "fusion_lat": 0.0, "lat": 38.89406266666667, "bike_id": "ec6e7137707bac4827042b44a8a6a35f", "fusion_lon": 0.0}, {"rental_uris": {"ios": "https://dc.lft.to/lastmile_qr_scan", "android": "https://dc.lft.to/lastmile_qr_scan"}, "type": "electric_scooter", "name": "417c60f64d9679921908707cdeab6d1a", "is_reserved": 0, "lon": -77.025887, "is_disabled": 0, "fusion_lat": 0.0, "lat": 38.958286666666666, "bike_id": "417c60f64d9679921908707cdeab6d1a", "fusion_lon": 0.0}, {"rental_uris": {"ios": "https://dc.lft.to/lastmile_qr_scan", "android": "https://dc.lft.to/lastmile_qr_scan"}, "type": "electric_scooter", "name": "4344c3026696167d2e490091622740de", "is_reserved": 0, "lon": -76.98507666666667, "is_disabled": 0, "fusion_lat": 0.0, "lat": 38.879946333333336, "bike_id": "4344c3026696167d2e490091622740de", "fusion_lon": 0.0}, {"rental_uris": {"ios": "https://dc.lft.to/lastmile_qr_scan", "android": "https://dc.lft.to/lastmile_qr_scan"}, "type": "electric_bike", "name": "6e17c037aa5ad519e662a092293d57f9", "is_reserved": 0, "lon": -76.98683533333333, "is_disabled": 0, "fusion_lat": 0.0, "lat": 38.9447605, "bike_id": "6e17c037aa5ad519e662a092293d57f9", "fusion_lon": 0.0}, {"rental_uris": {"ios": "https://dc.lft.to/lastmile_qr_scan", "android": "https://dc.lft.to/lastmile_qr_scan"}, "type": "electric_scooter", "name": "82775502c86129a294d70f328ead2429", "is_reserved": 0, "lon": -77.038525, "is_disabled": 0, "fusion_lat": 0.0, "lat": 38.93173, "bike_id": "82775502c86129a294d70f328ead2429", "fusion_lon": 0.0}, {"rental_uris": {"ios": "https://dc.lft.to/lastmile_qr_scan", "android": "https://dc.lft.to/lastmile_qr_scan"}, "type": "electric_scooter", "name": "ed1a1ae1abe64c6df6b9ec00a4689874", "is_reserved": 0, "lon": -77.061092, "is_disabled": 0, "fusion_lat": 0.0, "lat": 38.91287916666667, "bike_id": "ed1a1ae1abe64c6df6b9ec00a4689874", "fusion_lon": 0.0}, {"rental_uris": {"ios": "https://dc.lft.to/lastmile_qr_scan", "android": "https://dc.lft.to/lastmile_qr_scan"}, "type": "electric_scooter", "name": "d501b76dd6c55ece6b6282a538a6f4ac", "is_reserved": 0, "lon": -76.9959355, "is_disabled": 0, "fusion_lat": 0.0, "lat": 38.90029033333333, "bike_id": "d501b76dd6c55ece6b6282a538a6f4ac", "fusion_lon": 0.0}, {"rental_uris": {"ios": "https://dc.lft.to/lastmile_qr_scan", "android": "https://dc.lft.to/lastmile_qr_scan"}, "type": "electric_scooter", "name": "319f5b058d84281993a07001de939b82", "is_reserved": 0, "lon": -77.0230735, "is_disabled": 0, "fusion_lat": 0.0, "lat": 38.909645166666664, "bike_id": "319f5b058d84281993a07001de939b82", "fusion_lon": 0.0}, {"rental_uris": {"ios": "https://dc.lft.to/lastmile_qr_scan", "android": "https://dc.lft.to/lastmile_qr_scan"}, "type": "electric_scooter", "name": "32d785a688b9696cf98d2089af99d3d0", "is_reserved": 0, "lon": -77.0317835, "is_disabled": 0, "fusion_lat": 0.0, "lat": 38.916051333333336, "bike_id": "32d785a688b9696cf98d2089af99d3d0", "fusion_lon": 0.0}, {"rental_uris": {"ios": "https://dc.lft.to/lastmile_qr_scan", "android": "https://dc.lft.to/lastmile_qr_scan"}, "type": "electric_scooter", "name": "d7e43f1c2d1074b683fdb2fb4a3fea2f", "is_reserved": 0, "lon": -77.03085333333334, "is_disabled": 0, "fusion_lat": 0.0, "lat": 38.922458, "bike_id": "d7e43f1c2d1074b683fdb2fb4a3fea2f", "fusion_lon": 0.0}, {"rental_uris": {"ios": "https://dc.lft.to/lastmile_qr_scan", "android": "https://dc.lft.to/lastmile_qr_scan"}, "type": "electric_scooter", "name": "1ee9ddb462c448f9c68e72fe34b47c52", "is_reserved": 0, "lon": -77.04497783333333, "is_disabled": 0, "fusion_lat": 0.0, "lat": 38.897316000000004, "bike_id": "1ee9ddb462c448f9c68e72fe34b47c52", "fusion_lon": 0.0}, {"rental_uris": {"ios": "https://dc.lft.to/lastmile_qr_scan", "android": "https://dc.lft.to/lastmile_qr_scan"}, "type": "electric_bike", "name": "66f5a6b78a633b4f8dda9505f290c936", "is_reserved": 0, "lon": -76.988145, "is_disabled": 0, "fusion_lat": 0.0, "lat": 38.8427255, "bike_id": "66f5a6b78a633b4f8dda9505f290c936", "fusion_lon": 0.0}, {"rental_uris": {"ios": "https://dc.lft.to/lastmile_qr_scan", "android": "https://dc.lft.to/lastmile_qr_scan"}, "type": "electric_bike", "name": "848824c8323464c26b39213c99d1860c", "is_reserved": 0, "lon": -77.0279855, "is_disabled": 0, "fusion_lat": 0.0, "lat": 38.91104716666667, "bike_id": "848824c8323464c26b39213c99d1860c", "fusion_lon": 0.0}, {"rental_uris": {"ios": "https://dc.lft.to/lastmile_qr_scan", "android": "https://dc.lft.to/lastmile_qr_scan"}, "type": "electric_scooter", "name": "2e2ed5ecb0ae7bc80683b08f6d4aa07e", "is_reserved": 0, "lon": -77.0351755, "is_disabled": 0, "fusion_lat": 0.0, "lat": 38.9096225, "bike_id": "2e2ed5ecb0ae7bc80683b08f6d4aa07e", "fusion_lon": 0.0}, {"rental_uris": {"ios": "https://dc.lft.to/lastmile_qr_scan", "android": "https://dc.lft.to/lastmile_qr_scan"}, "type": "electric_scooter", "name": "2f48dc6ad955ffaab50774ebbd6dde34", "is_reserved": 0, "lon": -77.02605316666667, "is_disabled": 0, "fusion_lat": 0.0, "lat": 38.914568833333334, "bike_id": "2f48dc6ad955ffaab50774ebbd6dde34", "fusion_lon": 0.0}, {"rental_uris": {"ios": "https://dc.lft.to/lastmile_qr_scan", "android": "https://dc.lft.to/lastmile_qr_scan"}, "type": "electric_scooter", "name": "5ee59c0cc4eae40166915d766bf89d65", "is_reserved": 0, "lon": -77.00336816666666, "is_disabled": 0, "fusion_lat": 0.0, "lat": 38.877219833333335, "bike_id": "5ee59c0cc4eae40166915d766bf89d65", "fusion_lon": 0.0}, {"rental_uris": {"ios": "https://dc.lft.to/lastmile_qr_scan", "android": "https://dc.lft.to/lastmile_qr_scan"}, "type": "electric_scooter", "name": "b5d6035d1cc50ec205df6565688534f9", "is_reserved": 0, "lon": -77.02813466666667, "is_disabled": 0, "fusion_lat": 0.0, "lat": 38.923732333333334, "bike_id": "b5d6035d1cc50ec205df6565688534f9", "fusion_lon": 0.0}, {"rental_uris": {"ios": "https://dc.lft.to/lastmile_qr_scan", "android": "https://dc.lft.to/lastmile_qr_scan"}, "type": "electric_scooter", "name": "4d86ca9036390c4e53a0646287df46d7", "is_reserved": 0, "lon": -77.0357745, "is_disabled": 0, "fusion_lat": 0.0, "lat": 38.91046516666667, "bike_id": "4d86ca9036390c4e53a0646287df46d7", "fusion_lon": 0.0}, {"rental_uris": {"ios": "https://dc.lft.to/lastmile_qr_scan", "android": "https://dc.lft.to/lastmile_qr_scan"}, "type": "electric_scooter", "name": "6cb81c16ff43bb3d979d669c59430624", "is_reserved": 0, "lon": -77.04160466666667, "is_disabled": 0, "fusion_lat": 0.0, "lat": 38.906321, "bike_id": "6cb81c16ff43bb3d979d669c59430624", "fusion_lon": 0.0}, {"rental_uris": {"ios": "https://dc.lft.to/lastmile_qr_scan", "android": "https://dc.lft.to/lastmile_qr_scan"}, "type": "electric_scooter", "name": "f74e59a4ca2f0619bdd0db7dbce789bf", "is_reserved": 0, "lon": -77.026116, "is_disabled": 0, "fusion_lat": 0.0, "lat": 38.88406633333334, "bike_id": "f74e59a4ca2f0619bdd0db7dbce789bf", "fusion_lon": 0.0}, {"rental_uris": {"ios": "https://dc.lft.to/lastmile_qr_scan", "android": "https://dc.lft.to/lastmile_qr_scan"}, "type": "electric_bike", "name": "a342611e8dd00823583e832ab468dfd4", "is_reserved": 0, "lon": -77.0406965, "is_disabled": 0, "fusion_lat": 0.0, "lat": 38.993782833333334, "bike_id": "a342611e8dd00823583e832ab468dfd4", "fusion_lon": 0.0}, {"rental_uris": {"ios": "https://dc.lft.to/lastmile_qr_scan", "android": "https://dc.lft.to/lastmile_qr_scan"}, "type": "electric_scooter", "name": "b936f981a9595ac96030023ec5466b4e", "is_reserved": 0, "lon": -77.0081105, "is_disabled": 0, "fusion_lat": 0.0, "lat": 38.9170075, "bike_id": "b936f981a9595ac96030023ec5466b4e", "fusion_lon": 0.0}, {"rental_uris": {"ios": "https://dc.lft.to/lastmile_qr_scan", "android": "https://dc.lft.to/lastmile_qr_scan"}, "type": "electric_scooter", "name": "697a116794e20e9a2d6e30c5ecb80564", "is_reserved": 0, "lon": -77.04443533333334, "is_disabled": 0, "fusion_lat": 0.0, "lat": 38.901203833333334, "bike_id": "697a116794e20e9a2d6e30c5ecb80564", "fusion_lon": 0.0}, {"rental_uris": {"ios": "https://dc.lft.to/lastmile_qr_scan", "android": "https://dc.lft.to/lastmile_qr_scan"}, "type": "electric_scooter", "name": "6a4d222c889c3ad61f4a7c2cfdde04cc", "is_reserved": 0, "lon": -76.99956516666667, "is_disabled": 0, "fusion_lat": 0.0, "lat": 38.908586166666666, "bike_id": "6a4d222c889c3ad61f4a7c2cfdde04cc", "fusion_lon": 0.0}, {"rental_uris": {"ios": "https://dc.lft.to/lastmile_qr_scan", "android": "https://dc.lft.to/lastmile_qr_scan"}, "type": "electric_bike", "name": "3291d3072f43069168a0c5c237b16ec4", "is_reserved": 0, "lon": -76.973102, "is_disabled": 0, "fusion_lat": 0.0, "lat": 38.917603166666666, "bike_id": "3291d3072f43069168a0c5c237b16ec4", "fusion_lon": 0.0}, {"rental_uris": {"ios": "https://dc.lft.to/lastmile_qr_scan", "android": "https://dc.lft.to/lastmile_qr_scan"}, "type": "electric_scooter", "name": "29379d0a83406c361120ab35258ef30c", "is_reserved": 0, "lon": -77.03207783333333, "is_disabled": 0, "fusion_lat": 0.0, "lat": 38.914309333333335, "bike_id": "29379d0a83406c361120ab35258ef30c", "fusion_lon": 0.0}, {"rental_uris": {"ios": "https://dc.lft.to/lastmile_qr_scan", "android": "https://dc.lft.to/lastmile_qr_scan"}, "type": "electric_scooter", "name": "c5338a97700f6f7bef562fe6db12e07f", "is_reserved": 0, "lon": -77.00041566666667, "is_disabled": 0, "fusion_lat": 0.0, "lat": 38.87504466666667, "bike_id": "c5338a97700f6f7bef562fe6db12e07f", "fusion_lon": 0.0}, {"rental_uris": {"ios": "https://dc.lft.to/lastmile_qr_scan", "android": "https://dc.lft.to/lastmile_qr_scan"}, "type": "electric_scooter", "name": "6f4d21b5a205f59b2f9d3e4477d21579", "is_reserved": 0, "lon": -77.02190033333333, "is_disabled": 0, "fusion_lat": 0.0, "lat": 38.895595, "bike_id": "6f4d21b5a205f59b2f9d3e4477d21579", "fusion_lon": 0.0}, {"rental_uris": {"ios": "https://dc.lft.to/lastmile_qr_scan", "android": "https://dc.lft.to/lastmile_qr_scan"}, "type": "electric_scooter", "name": "5b4df4670b9a6ae40367ee3ac36c222d", "is_reserved": 0, "lon": -77.019167, "is_disabled": 0, "fusion_lat": 0.0, "lat": 38.902691, "bike_id": "5b4df4670b9a6ae40367ee3ac36c222d", "fusion_lon": 0.0}, {"rental_uris": {"ios": "https://dc.lft.to/lastmile_qr_scan", "android": "https://dc.lft.to/lastmile_qr_scan"}, "type": "electric_scooter", "name": "6c980c0954dbb5cb49673f5d293fa624", "is_reserved": 0, "lon": -77.03441633333334, "is_disabled": 0, "fusion_lat": 0.0, "lat": 38.918052333333335, "bike_id": "6c980c0954dbb5cb49673f5d293fa624", "fusion_lon": 0.0}, {"rental_uris": {"ios": "https://dc.lft.to/lastmile_qr_scan", "android": "https://dc.lft.to/lastmile_qr_scan"}, "type": "electric_bike", "name": "921a0ba830e2fa12b355567357a70685", "is_reserved": 0, "lon": -76.96085266666667, "is_disabled": 0, "fusion_lat": 0.0, "lat": 38.918624666666666, "bike_id": "921a0ba830e2fa12b355567357a70685", "fusion_lon": 0.0}, {"rental_uris": {"ios": "https://dc.lft.to/lastmile_qr_scan", "android": "https://dc.lft.to/lastmile_qr_scan"}, "type": "electric_scooter", "name": "f73edafe70a424e58a804043ed70c796", "is_reserved": 0, "lon": -77.02980166666667, "is_disabled": 0, "fusion_lat": 0.0, "lat": 38.906513833333335, "bike_id": "f73edafe70a424e58a804043ed70c796", "fusion_lon": 0.0}, {"rental_uris": {"ios": "https://dc.lft.to/lastmile_qr_scan", "android": "https://dc.lft.to/lastmile_qr_scan"}, "type": "electric_scooter", "name": "9c24c78910c1dbeb85dba078989d84e3", "is_reserved": 0, "lon": -77.0324045, "is_disabled": 0, "fusion_lat": 0.0, "lat": 38.905488, "bike_id": "9c24c78910c1dbeb85dba078989d84e3", "fusion_lon": 0.0}, {"rental_uris": {"ios": "https://dc.lft.to/lastmile_qr_scan", "android": "https://dc.lft.to/lastmile_qr_scan"}, "type": "electric_scooter", "name": "d11abfb62b31f55033ce4a65a0388a3b", "is_reserved": 0, "lon": -77.0194285, "is_disabled": 0, "fusion_lat": 0.0, "lat": 38.94704083333333, "bike_id": "d11abfb62b31f55033ce4a65a0388a3b", "fusion_lon": 0.0}, {"rental_uris": {"ios": "https://dc.lft.to/lastmile_qr_scan", "android": "https://dc.lft.to/lastmile_qr_scan"}, "type": "electric_scooter", "name": "95be2e45792e3b98a99621cec0a1ea7c", "is_reserved": 0, "lon": -77.03206633333333, "is_disabled": 0, "fusion_lat": 0.0, "lat": 38.917212666666664, "bike_id": "95be2e45792e3b98a99621cec0a1ea7c", "fusion_lon": 0.0}, {"rental_uris": {"ios": "https://dc.lft.to/lastmile_qr_scan", "android": "https://dc.lft.to/lastmile_qr_scan"}, "type": "electric_scooter", "name": "e89e5815d6d8381352c82bfbb2d0d849", "is_reserved": 0, "lon": -77.00199783333333, "is_disabled": 0, "fusion_lat": 0.0, "lat": 38.90237, "bike_id": "e89e5815d6d8381352c82bfbb2d0d849", "fusion_lon": 0.0}, {"rental_uris": {"ios": "https://dc.lft.to/lastmile_qr_scan", "android": "https://dc.lft.to/lastmile_qr_scan"}, "type": "electric_scooter", "name": "2da762ffac8b3cd5512987318498a610", "is_reserved": 0, "lon": -76.99484716666667, "is_disabled": 0, "fusion_lat": 0.0, "lat": 38.90548183333333, "bike_id": "2da762ffac8b3cd5512987318498a610", "fusion_lon": 0.0}, {"rental_uris": {"ios": "https://dc.lft.to/lastmile_qr_scan", "android": "https://dc.lft.to/lastmile_qr_scan"}, "type": "electric_scooter", "name": "8253ca7b0cd50c8b809d8307527eedac", "is_reserved": 0, "lon": -77.02145033333333, "is_disabled": 0, "fusion_lat": 0.0, "lat": 38.9030995, "bike_id": "8253ca7b0cd50c8b809d8307527eedac", "fusion_lon": 0.0}, {"rental_uris": {"ios": "https://dc.lft.to/lastmile_qr_scan", "android": "https://dc.lft.to/lastmile_qr_scan"}, "type": "electric_scooter", "name": "d5833b82263122b5314cf159a4a099e6", "is_reserved": 0, "lon": -76.94194, "is_disabled": 0, "fusion_lat": 0.0, "lat": 38.90228783333333, "bike_id": "d5833b82263122b5314cf159a4a099e6", "fusion_lon": 0.0}, {"rental_uris": {"ios": "https://dc.lft.to/lastmile_qr_scan", "android": "https://dc.lft.to/lastmile_qr_scan"}, "type": "electric_scooter", "name": "3f8909d9626b04ac4cf6dde99c404222", "is_reserved": 0, "lon": -77.03656766666667, "is_disabled": 0, "fusion_lat": 0.0, "lat": 38.92125133333333, "bike_id": "3f8909d9626b04ac4cf6dde99c404222", "fusion_lon": 0.0}, {"rental_uris": {"ios": "https://dc.lft.to/lastmile_qr_scan", "android": "https://dc.lft.to/lastmile_qr_scan"}, "type": "electric_scooter", "name": "4ae4e1624aa03585268b7e370fb260be", "is_reserved": 0, "lon": -77.07560083333334, "is_disabled": 0, "fusion_lat": 0.0, "lat": 38.9209195, "bike_id": "4ae4e1624aa03585268b7e370fb260be", "fusion_lon": 0.0}, {"rental_uris": {"ios": "https://dc.lft.to/lastmile_qr_scan", "android": "https://dc.lft.to/lastmile_qr_scan"}, "type": "electric_scooter", "name": "586ab16631eac13046734cd82197ff09", "is_reserved": 0, "lon": -77.032702, "is_disabled": 0, "fusion_lat": 0.0, "lat": 38.90558983333333, "bike_id": "586ab16631eac13046734cd82197ff09", "fusion_lon": 0.0}, {"rental_uris": {"ios": "https://dc.lft.to/lastmile_qr_scan", "android": "https://dc.lft.to/lastmile_qr_scan"}, "type": "electric_scooter", "name": "8a34753731c0490162f8ee5fc080ba7a", "is_reserved": 0, "lon": -77.01840233333333, "is_disabled": 0, "fusion_lat": 0.0, "lat": 38.922244, "bike_id": "8a34753731c0490162f8ee5fc080ba7a", "fusion_lon": 0.0}, {"rental_uris": {"ios": "https://dc.lft.to/lastmile_qr_scan", "android": "https://dc.lft.to/lastmile_qr_scan"}, "type": "electric_scooter", "name": "530259f5cb46c6d303cee1a0a4a1ce85", "is_reserved": 0, "lon": -77.026945, "is_disabled": 0, "fusion_lat": 0.0, "lat": 38.972451166666666, "bike_id": "530259f5cb46c6d303cee1a0a4a1ce85", "fusion_lon": 0.0}, {"rental_uris": {"ios": "https://dc.lft.to/lastmile_qr_scan", "android": "https://dc.lft.to/lastmile_qr_scan"}, "type": "electric_scooter", "name": "e0a965fcf4bc274763136a3b27f90979", "is_reserved": 0, "lon": -76.982802, "is_disabled": 0, "fusion_lat": 0.0, "lat": 38.9033865, "bike_id": "e0a965fcf4bc274763136a3b27f90979", "fusion_lon": 0.0}, {"rental_uris": {"ios": "https://dc.lft.to/lastmile_qr_scan", "android": "https://dc.lft.to/lastmile_qr_scan"}, "type": "electric_scooter", "name": "8ee0640a4718d3afd98fb47b1868ad90", "is_reserved": 0, "lon": -77.03147466666667, "is_disabled": 0, "fusion_lat": 0.0, "lat": 38.883018, "bike_id": "8ee0640a4718d3afd98fb47b1868ad90", "fusion_lon": 0.0}, {"rental_uris": {"ios": "https://dc.lft.to/lastmile_qr_scan", "android": "https://dc.lft.to/lastmile_qr_scan"}, "type": "electric_bike", "name": "7e3b186013e5a54488ed5a53e3aa1d82", "is_reserved": 0, "lon": -77.1283945, "is_disabled": 0, "fusion_lat": 0.0, "lat": 38.8005365, "bike_id": "7e3b186013e5a54488ed5a53e3aa1d82", "fusion_lon": 0.0}, {"rental_uris": {"ios": "https://dc.lft.to/lastmile_qr_scan", "android": "https://dc.lft.to/lastmile_qr_scan"}, "type": "electric_scooter", "name": "814f76f9e887d65b82aad45d1d3c0b5b", "is_reserved": 0, "lon": -77.0483215, "is_disabled": 0, "fusion_lat": 0.0, "lat": 38.904801166666665, "bike_id": "814f76f9e887d65b82aad45d1d3c0b5b", "fusion_lon": 0.0}, {"rental_uris": {"ios": "https://dc.lft.to/lastmile_qr_scan", "android": "https://dc.lft.to/lastmile_qr_scan"}, "type": "electric_scooter", "name": "d070bc15a310dadd1854f0f24d2a2846", "is_reserved": 0, "lon": -77.026879, "is_disabled": 0, "fusion_lat": 0.0, "lat": 38.90235766666667, "bike_id": "d070bc15a310dadd1854f0f24d2a2846", "fusion_lon": 0.0}, {"rental_uris": {"ios": "https://dc.lft.to/lastmile_qr_scan", "android": "https://dc.lft.to/lastmile_qr_scan"}, "type": "electric_scooter", "name": "fe733ebeb1b6da51c4c6279bf4aa34ab", "is_reserved": 0, "lon": -76.99704633333333, "is_disabled": 0, "fusion_lat": 0.0, "lat": 38.900036, "bike_id": "fe733ebeb1b6da51c4c6279bf4aa34ab", "fusion_lon": 0.0}, {"rental_uris": {"ios": "https://dc.lft.to/lastmile_qr_scan", "android": "https://dc.lft.to/lastmile_qr_scan"}, "type": "electric_scooter", "name": "777940109dba733bbd35bef7100f7dbb", "is_reserved": 0, "lon": -77.02718833333333, "is_disabled": 0, "fusion_lat": 0.0, "lat": 38.89720833333333, "bike_id": "777940109dba733bbd35bef7100f7dbb", "fusion_lon": 0.0}, {"rental_uris": {"ios": "https://dc.lft.to/lastmile_qr_scan", "android": "https://dc.lft.to/lastmile_qr_scan"}, "type": "electric_bike", "name": "1f56c98e1e8f23c9d20790fc86f95de5", "is_reserved": 0, "lon": -77.0238205, "is_disabled": 0, "fusion_lat": 0.0, "lat": 38.932324666666666, "bike_id": "1f56c98e1e8f23c9d20790fc86f95de5", "fusion_lon": 0.0}, {"rental_uris": {"ios": "https://dc.lft.to/lastmile_qr_scan", "android": "https://dc.lft.to/lastmile_qr_scan"}, "type": "electric_scooter", "name": "4fb4cdd11f18eb3e00c8c197934a5300", "is_reserved": 0, "lon": -77.039585, "is_disabled": 0, "fusion_lat": 0.0, "lat": 38.892438166666665, "bike_id": "4fb4cdd11f18eb3e00c8c197934a5300", "fusion_lon": 0.0}, {"rental_uris": {"ios": "https://dc.lft.to/lastmile_qr_scan", "android": "https://dc.lft.to/lastmile_qr_scan"}, "type": "electric_scooter", "name": "8420c61002de26c70a422b75eb0befd5", "is_reserved": 0, "lon": -77.022975, "is_disabled": 0, "fusion_lat": 0.0, "lat": 38.925221666666665, "bike_id": "8420c61002de26c70a422b75eb0befd5", "fusion_lon": 0.0}, {"rental_uris": {"ios": "https://dc.lft.to/lastmile_qr_scan", "android": "https://dc.lft.to/lastmile_qr_scan"}, "type": "electric_scooter", "name": "1ce5e9299ac531c7f10b37316a240c28", "is_reserved": 0, "lon": -77.04063083333334, "is_disabled": 0, "fusion_lat": 0.0, "lat": 38.90521066666667, "bike_id": "1ce5e9299ac531c7f10b37316a240c28", "fusion_lon": 0.0}, {"rental_uris": {"ios": "https://dc.lft.to/lastmile_qr_scan", "android": "https://dc.lft.to/lastmile_qr_scan"}, "type": "electric_scooter", "name": "79a914ea3e6ea87920a5b02707bdafc2", "is_reserved": 0, "lon": -77.02711716666667, "is_disabled": 0, "fusion_lat": 0.0, "lat": 38.918258, "bike_id": "79a914ea3e6ea87920a5b02707bdafc2", "fusion_lon": 0.0}, {"rental_uris": {"ios": "https://dc.lft.to/lastmile_qr_scan", "android": "https://dc.lft.to/lastmile_qr_scan"}, "type": "electric_scooter", "name": "94bf62dcba6b3a241da66fe3affba9a1", "is_reserved": 0, "lon": -77.03855883333334, "is_disabled": 0, "fusion_lat": 0.0, "lat": 38.93203916666667, "bike_id": "94bf62dcba6b3a241da66fe3affba9a1", "fusion_lon": 0.0}, {"rental_uris": {"ios": "https://dc.lft.to/lastmile_qr_scan", "android": "https://dc.lft.to/lastmile_qr_scan"}, "type": "electric_scooter", "name": "9ed382113fdd90311bfb5e3c4fb75438", "is_reserved": 0, "lon": -77.03653, "is_disabled": 0, "fusion_lat": 0.0, "lat": 38.9161625, "bike_id": "9ed382113fdd90311bfb5e3c4fb75438", "fusion_lon": 0.0}, {"rental_uris": {"ios": "https://dc.lft.to/lastmile_qr_scan", "android": "https://dc.lft.to/lastmile_qr_scan"}, "type": "electric_scooter", "name": "0ac38b56d7044a603c5618626d0f9a49", "is_reserved": 0, "lon": -76.99507516666667, "is_disabled": 0, "fusion_lat": 0.0, "lat": 38.883062333333335, "bike_id": "0ac38b56d7044a603c5618626d0f9a49", "fusion_lon": 0.0}, {"rental_uris": {"ios": "https://dc.lft.to/lastmile_qr_scan", "android": "https://dc.lft.to/lastmile_qr_scan"}, "type": "electric_scooter", "name": "2b9916e1e7bdb68759b65ad459252e6e", "is_reserved": 0, "lon": -77.035195, "is_disabled": 0, "fusion_lat": 0.0, "lat": 38.92238583333334, "bike_id": "2b9916e1e7bdb68759b65ad459252e6e", "fusion_lon": 0.0}, {"rental_uris": {"ios": "https://dc.lft.to/lastmile_qr_scan", "android": "https://dc.lft.to/lastmile_qr_scan"}, "type": "electric_bike", "name": "7d625f9b1b1b671c2ef361a6f3796da6", "is_reserved": 0, "lon": -76.9171715, "is_disabled": 0, "fusion_lat": 0.0, "lat": 38.880319166666666, "bike_id": "7d625f9b1b1b671c2ef361a6f3796da6", "fusion_lon": 0.0}, {"rental_uris": {"ios": "https://dc.lft.to/lastmile_qr_scan", "android": "https://dc.lft.to/lastmile_qr_scan"}, "type": "electric_scooter", "name": "f409506bdfb566a2abdf81362ca7a9ac", "is_reserved": 0, "lon": -77.05030866666667, "is_disabled": 0, "fusion_lat": 0.0, "lat": 38.896791666666665, "bike_id": "f409506bdfb566a2abdf81362ca7a9ac", "fusion_lon": 0.0}, {"rental_uris": {"ios": "https://dc.lft.to/lastmile_qr_scan", "android": "https://dc.lft.to/lastmile_qr_scan"}, "type": "electric_scooter", "name": "7cc43c0e029490d0d042197e89f157f2", "is_reserved": 0, "lon": -77.04130916666666, "is_disabled": 0, "fusion_lat": 0.0, "lat": 38.93356266666667, "bike_id": "7cc43c0e029490d0d042197e89f157f2", "fusion_lon": 0.0}, {"rental_uris": {"ios": "https://dc.lft.to/lastmile_qr_scan", "android": "https://dc.lft.to/lastmile_qr_scan"}, "type": "electric_scooter", "name": "dc8b52c9ddbe013416c77baf9738793a", "is_reserved": 0, "lon": -77.03418833333333, "is_disabled": 0, "fusion_lat": 0.0, "lat": 38.901218, "bike_id": "dc8b52c9ddbe013416c77baf9738793a", "fusion_lon": 0.0}, {"rental_uris": {"ios": "https://dc.lft.to/lastmile_qr_scan", "android": "https://dc.lft.to/lastmile_qr_scan"}, "type": "electric_scooter", "name": "82e5ee0ae9b51872bc8a5e1b6f97cb4f", "is_reserved": 0, "lon": -77.0276005, "is_disabled": 0, "fusion_lat": 0.0, "lat": 38.91346716666666, "bike_id": "82e5ee0ae9b51872bc8a5e1b6f97cb4f", "fusion_lon": 0.0}, {"rental_uris": {"ios": "https://dc.lft.to/lastmile_qr_scan", "android": "https://dc.lft.to/lastmile_qr_scan"}, "type": "electric_bike", "name": "a17afcb4f70017f1980ac6110c68cb1f", "is_reserved": 0, "lon": -77.10293233333333, "is_disabled": 0, "fusion_lat": 0.0, "lat": 38.852523833333336, "bike_id": "a17afcb4f70017f1980ac6110c68cb1f", "fusion_lon": 0.0}, {"rental_uris": {"ios": "https://dc.lft.to/lastmile_qr_scan", "android": "https://dc.lft.to/lastmile_qr_scan"}, "type": "electric_scooter", "name": "ee06f96e41f3eff4540f0a70673687f5", "is_reserved": 0, "lon": -77.04815483333333, "is_disabled": 0, "fusion_lat": 0.0, "lat": 38.904803, "bike_id": "ee06f96e41f3eff4540f0a70673687f5", "fusion_lon": 0.0}, {"rental_uris": {"ios": "https://dc.lft.to/lastmile_qr_scan", "android": "https://dc.lft.to/lastmile_qr_scan"}, "type": "electric_scooter", "name": "9f53bcc664c982465e4e52ed30b6c3ff", "is_reserved": 0, "lon": -77.00579116666667, "is_disabled": 0, "fusion_lat": 0.0, "lat": 38.876655666666665, "bike_id": "9f53bcc664c982465e4e52ed30b6c3ff", "fusion_lon": 0.0}, {"rental_uris": {"ios": "https://dc.lft.to/lastmile_qr_scan", "android": "https://dc.lft.to/lastmile_qr_scan"}, "type": "electric_scooter", "name": "a97a2e2c5947d543a332aebc8634a87a", "is_reserved": 0, "lon": -77.02006, "is_disabled": 0, "fusion_lat": 0.0, "lat": 38.9280555, "bike_id": "a97a2e2c5947d543a332aebc8634a87a", "fusion_lon": 0.0}, {"rental_uris": {"ios": "https://dc.lft.to/lastmile_qr_scan", "android": "https://dc.lft.to/lastmile_qr_scan"}, "type": "electric_scooter", "name": "41b6d14629d8aa5cbc4e3fc518dcf543", "is_reserved": 0, "lon": -76.98647033333333, "is_disabled": 0, "fusion_lat": 0.0, "lat": 38.90542383333333, "bike_id": "41b6d14629d8aa5cbc4e3fc518dcf543", "fusion_lon": 0.0}, {"rental_uris": {"ios": "https://dc.lft.to/lastmile_qr_scan", "android": "https://dc.lft.to/lastmile_qr_scan"}, "type": "electric_scooter", "name": "bc02f2625a573366cec51f19965e4e26", "is_reserved": 0, "lon": -77.02568333333333, "is_disabled": 0, "fusion_lat": 0.0, "lat": 38.94847933333333, "bike_id": "bc02f2625a573366cec51f19965e4e26", "fusion_lon": 0.0}, {"rental_uris": {"ios": "https://dc.lft.to/lastmile_qr_scan", "android": "https://dc.lft.to/lastmile_qr_scan"}, "type": "electric_bike", "name": "506dce0bcba842efd15f675e65c7cdac", "is_reserved": 0, "lon": -77.06484016666667, "is_disabled": 0, "fusion_lat": 0.0, "lat": 38.90979183333334, "bike_id": "506dce0bcba842efd15f675e65c7cdac", "fusion_lon": 0.0}, {"rental_uris": {"ios": "https://dc.lft.to/lastmile_qr_scan", "android": "https://dc.lft.to/lastmile_qr_scan"},