{"data": {"bikes": [{"rental_uris": {"android": "https://dc.lft.to/lastmile_qr_scan", "ios": "https://dc.lft.to/lastmile_qr_scan"}, "is_reserved": 0, "is_disabled": 0, "name": "200ccea0942fe99d2dc465c67175f91c", "bike_id": "200ccea0942fe99d2dc465c67175f91c", "fusion_lat": 0.0, "lon": -77.00201383333334, "type": "electric_scooter", "fusion_lon": 0.0, "lat": 38.900397166666664}, {"rental_uris": {"android": "https://dc.lft.to/lastmile_qr_scan", "ios": "https://dc.lft.to/lastmile_qr_scan"}, "is_reserved": 0, "is_disabled": 0, "name": "573c052019e9835e071688f5ddfe233d", "bike_id": "573c052019e9835e071688f5ddfe233d", "fusion_lat": 0.0, "lon": -77.00557, "type": "electric_scooter", "fusion_lon": 0.0, "lat": 38.88042183333334}, {"rental_uris": {"android": "https://dc.lft.to/lastmile_qr_scan", "ios": "https://dc.lft.to/lastmile_qr_scan"}, "is_reserved": 0, "is_disabled": 0, "name": "7fd6d1e78576340d3656c761931a16d9", "bike_id": "7fd6d1e78576340d3656c761931a16d9", "fusion_lat": 0.0, "lon": -77.000532, "type": "electric_scooter", "fusion_lon": 0.0, "lat": 38.9069425}, {"rental_uris": {"android": "https://dc.lft.to/lastmile_qr_scan", "ios": "https://dc.lft.to/lastmile_qr_scan"}, "is_reserved": 0, "is_disabled": 0, "name": "29dc8aee543e5731de35aeb1a2444669", "bike_id": "29dc8aee543e5731de35aeb1a2444669", "fusion_lat": 0.0, "lon": -77.0468125, "type": "electric_scooter", "fusion_lon": 0.0, "lat": 38.892219}, {"rental_uris": {"android": "https://dc.lft.to/lastmile_qr_scan", "ios": "https://dc.lft.to/lastmile_qr_scan"}, "is_reserved": 0, "is_disabled": 0, "name": "086b1aeb970792e95b2ad8238182660c", "bike_id": "086b1aeb970792e95b2ad8238182660c", "fusion_lat": 0.0, "lon": -77.06451783333333, "type": "electric_scooter", "fusion_lon": 0.0, "lat": 38.948795833333335}, {"rental_uris": {"android": "https://dc.lft.to/lastmile_qr_scan", "ios": "https://dc.lft.to/lastmile_qr_scan"}, "is_reserved": 0, "is_disabled": 0, "name": "1db76fa907e6675af4d3dbfc14dc5d70", "bike_id": "1db76fa907e6675af4d3dbfc14dc5d70", "fusion_lat": 0.0, "lon": -77.06419, "type": "electric_scooter", "fusion_lon": 0.0, "lat": 38.91458266666667}, {"rental_uris": {"android": "https://dc.lft.to/lastmile_qr_scan", "ios": "https://dc.lft.to/lastmile_qr_scan"}, "is_reserved": 0, "is_disabled": 0, "name": "3fa4b20f239626ea9e80bdfc3b41575b", "bike_id": "3fa4b20f239626ea9e80bdfc3b41575b", "fusion_lat": 0.0, "lon": -77.02287216666667, "type": "electric_scooter", "fusion_lon": 0.0, "lat": 38.895111}, {"rental_uris": {"android": "https://dc.lft.to/lastmile_qr_scan", "ios": "https://dc.lft.to/lastmile_qr_scan"}, "is_reserved": 0, "is_disabled": 0, "name": "3edbce087faddca6dbabd177021e1160", "bike_id": "3edbce087faddca6dbabd177021e1160", "fusion_lat": 0.0, "lon": -77.0169045, "type": "electric_scooter", "fusion_lon": 0.0, "lat": 38.90642616666667}, {"rental_uris": {"android": "https://dc.lft.to/lastmile_qr_scan", "ios": "https://dc.lft.to/lastmile_qr_scan"}, "is_reserved": 0, "is_disabled": 0, "name": "b094379767333aa5fbfab1ab805a4831", "bike_id": "b094379767333aa5fbfab1ab805a4831", "fusion_lat": 0.0, "lon": -76.92504, "type": "electric_scooter", "fusion_lon": 0.0, "lat": 38.886007166666666}, {"rental_uris": {"android": "https://dc.lft.to/lastmile_qr_scan", "ios": "https://dc.lft.to/lastmile_qr_scan"}, "is_reserved": 0, "is_disabled": 0, "name": "bfafd5523b02b84ffabe0a9c8949ff32", "bike_id": "bfafd5523b02b84ffabe0a9c8949ff32", "fusion_lat": 0.0, "lon": -77.02200883333333, "type": "electric_scooter", "fusion_lon": 0.0, "lat": 38.90651733333333}, {"rental_uris": {"android": "https://dc.lft.to/lastmile_qr_scan", "ios": "https://dc.lft.to/lastmile_qr_scan"}, "is_reserved": 0, "is_disabled": 0, "name": "6ca3787649b1dda0b29d9c3cd105b190", "bike_id": "6ca3787649b1dda0b29d9c3cd105b190", "fusion_lat": 0.0, "lon": -77.01559116666667, "type": "electric_scooter", "fusion_lon": 0.0, "lat": 38.87646}, {"rental_uris": {"android": "https://dc.lft.to/lastmile_qr_scan", "ios": "https://dc.lft.to/lastmile_qr_scan"}, "is_reserved": 0, "is_disabled": 0, "name": "bc630f22379d33671faba6775bd45a41", "bike_id": "bc630f22379d33671faba6775bd45a41", "fusion_lat": 0.0, "lon": -77.046591, "type": "electric_scooter", "fusion_lon": 0.0, "lat": 38.9094725}, {"rental_uris": {"android": "https://dc.lft.to/lastmile_qr_scan", "ios": "https://dc.lft.to/lastmile_qr_scan"}, "is_reserved": 0, "is_disabled": 0, "name": "97aa2433df426d2545f1d26d8b212901", "bike_id": "97aa2433df426d2545f1d26d8b212901", "fusion_lat": 0.0, "lon": -77.01226316666667, "type": "electric_scooter", "fusion_lon": 0.0, "lat": 38.914026166666666}, {"rental_uris": {"android": "https://dc.lft.to/lastmile_qr_scan", "ios": "https://dc.lft.to/lastmile_qr_scan"}, "is_reserved": 0, "is_disabled": 0, "name": "206b4544ef83b53d165b6314ec2b2b8c", "bike_id": "206b4544ef83b53d165b6314ec2b2b8c", "fusion_lat": 0.0, "lon": -77.02655783333333, "type": "electric_scooter", "fusion_lon": 0.0, "lat": 38.923790333333336}, {"rental_uris": {"android": "https://dc.lft.to/lastmile_qr_scan", "ios": "https://dc.lft.to/lastmile_qr_scan"}, "is_reserved": 0, "is_disabled": 0, "name": "f34e35f57983a10c970131488d97c1f9", "bike_id": "f34e35f57983a10c970131488d97c1f9", "fusion_lat": 0.0, "lon": -77.0450445, "type": "electric_scooter", "fusion_lon": 0.0, "lat": 38.892266166666666}, {"rental_uris": {"android": "https://dc.lft.to/lastmile_qr_scan", "ios": "https://dc.lft.to/lastmile_qr_scan"}, "is_reserved": 0, "is_disabled": 0, "name": "7952b32a7a1b3c4ca0d9413f1bfc4990", "bike_id": "7952b32a7a1b3c4ca0d9413f1bfc4990", "fusion_lat": 0.0, "lon": -76.9897395, "type": "electric_bike", "fusion_lon": 0.0, "lat": 38.93720316666667}, {"rental_uris": {"android": "https://dc.lft.to/lastmile_qr_scan", "ios": "https://dc.lft.to/lastmile_qr_scan"}, "is_reserved": 0, "is_disabled": 0, "name": "4d704be2848aa10e42642f06ab042a13", "bike_id": "4d704be2848aa10e42642f06ab042a13", "fusion_lat": 0.0, "lon": -77.06529466666667, "type": "electric_bike", "fusion_lon": 0.0, "lat": 38.99229783333333}, {"rental_uris": {"android": "https://dc.lft.to/lastmile_qr_scan", "ios": "https://dc.lft.to/lastmile_qr_scan"}, "is_reserved": 0, "is_disabled": 0, "name": "2dec5e91ec4924f0b5d68e3dcc79df8d", "bike_id": "2dec5e91ec4924f0b5d68e3dcc79df8d", "fusion_lat": 0.0, "lon": -77.02955016666667, "type": "electric_bike", "fusion_lon": 0.0, "lat": 38.92671883333333}, {"rental_uris": {"android": "https://dc.lft.to/lastmile_qr_scan", "ios": "https://dc.lft.to/lastmile_qr_scan"}, "is_reserved": 0, "is_disabled": 0, "name": "2ade53b54c1d923a41eb957200bbbfe5", "bike_id": "2ade53b54c1d923a41eb957200bbbfe5", "fusion_lat": 0.0, "lon": -77.03074416666666, "type": "electric_scooter", "fusion_lon": 0.0, "lat": 38.89969633333333}, {"rental_uris": {"android": "https://dc.lft.to/lastmile_qr_scan", "ios": "https://dc.lft.to/lastmile_qr_scan"}, "is_reserved": 0, "is_disabled": 0, "name": "cae253c126d332494427f50880a0a799", "bike_id": "cae253c126d332494427f50880a0a799", "fusion_lat": 0.0, "lon": -76.99105116666667, "type": "electric_scooter", "fusion_lon": 0.0, "lat": 38.85729633333333}, {"rental_uris": {"android": "https://dc.lft.to/lastmile_qr_scan", "ios": "https://dc.lft.to/lastmile_qr_scan"}, "is_reserved": 0, "is_disabled": 0, "name": "e1360fa76e4bd8cb2041ad393f5773b5", "bike_id": "e1360fa76e4bd8cb2041ad393f5773b5", "fusion_lat": 0.0, "lon": -76.99490516666667, "type": "electric_scooter", "fusion_lon": 0.0, "lat": 38.890097}, {"rental_uris": {"android": "https://dc.lft.to/lastmile_qr_scan", "ios": "https://dc.lft.to/lastmile_qr_scan"}, "is_reserved": 0, "is_disabled": 0, "name": "008ef58674a141538c203e0dd2d46da8", "bike_id": "008ef58674a141538c203e0dd2d46da8", "fusion_lat": 0.0, "lon": -77.05699833333334, "type": "electric_bike", "fusion_lon": 0.0, "lat": 38.905649333333336}, {"rental_uris": {"android": "https://dc.lft.to/lastmile_qr_scan", "ios": "https://dc.lft.to/lastmile_qr_scan"}, "is_reserved": 0, "is_disabled": 0, "name": "73457dd77c2740da6d16ff573833dfc0", "bike_id": "73457dd77c2740da6d16ff573833dfc0", "fusion_lat": 0.0, "lon": -77.04137333333334, "type": "electric_scooter", "fusion_lon": 0.0, "lat": 38.908872333333335}, {"rental_uris": {"android": "https://dc.lft.to/lastmile_qr_scan", "ios": "https://dc.lft.to/lastmile_qr_scan"}, "is_reserved": 0, "is_disabled": 0, "name": "40e54a5c2aa69c1d9012a7835e02591a", "bike_id": "40e54a5c2aa69c1d9012a7835e02591a", "fusion_lat": 0.0, "lon": -77.03961916666667, "type": "electric_scooter", "fusion_lon": 0.0, "lat": 38.9027065}, {"rental_uris": {"android": "https://dc.lft.to/lastmile_qr_scan", "ios": "https://dc.lft.to/lastmile_qr_scan"}, "is_reserved": 0, "is_disabled": 0, "name": "231460a136322b0a2d9dc149db75d15c", "bike_id": "231460a136322b0a2d9dc149db75d15c", "fusion_lat": 0.0, "lon": -77.04249766666666, "type": "electric_scooter", "fusion_lon": 0.0, "lat": 38.919614333333335}, {"rental_uris": {"android": "https://dc.lft.to/lastmile_qr_scan", "ios": "https://dc.lft.to/lastmile_qr_scan"}, "is_reserved": 0, "is_disabled": 0, "name": "eb0a685dd87533d195c65025d9180207", "bike_id": "eb0a685dd87533d195c65025d9180207", "fusion_lat": 0.0, "lon": -77.04328683333334, "type": "electric_scooter", "fusion_lon": 0.0, "lat": 38.92221933333333}, {"rental_uris": {"android": "https://dc.lft.to/lastmile_qr_scan", "ios": "https://dc.lft.to/lastmile_qr_scan"}, "is_reserved": 0, "is_disabled": 0, "name": "e09c4958cd1d752deab0d25fd3efb6ee", "bike_id": "e09c4958cd1d752deab0d25fd3efb6ee", "fusion_lat": 0.0, "lon": -77.03418366666666, "type": "electric_scooter", "fusion_lon": 0.0, "lat": 38.90244833333333}, {"rental_uris": {"android": "https://dc.lft.to/lastmile_qr_scan", "ios": "https://dc.lft.to/lastmile_qr_scan"}, "is_reserved": 0, "is_disabled": 0, "name": "3b59497e201fbd271a5a425ff46baee2", "bike_id": "3b59497e201fbd271a5a425ff46baee2", "fusion_lat": 0.0, "lon": -77.04810533333334, "type": "electric_scooter", "fusion_lon": 0.0, "lat": 38.916304333333336}, {"rental_uris": {"android": "https://dc.lft.to/lastmile_qr_scan", "ios": "https://dc.lft.to/lastmile_qr_scan"}, "is_reserved": 0, "is_disabled": 0, "name": "3bd9286c69b4f09911e959c07f4de99b", "bike_id": "3bd9286c69b4f09911e959c07f4de99b", "fusion_lat": 0.0, "lon": -77.0336125, "type": "electric_scooter", "fusion_lon": 0.0, "lat": 38.92534233333333}, {"rental_uris": {"android": "https://dc.lft.to/lastmile_qr_scan", "ios": "https://dc.lft.to/lastmile_qr_scan"}, "is_reserved": 0, "is_disabled": 0, "name": "0f0b88e1e498b5fa44f459eb7683a44e", "bike_id": "0f0b88e1e498b5fa44f459eb7683a44e", "fusion_lat": 0.0, "lon": -76.99022533333333, "type": "electric_scooter", "fusion_lon": 0.0, "lat": 38.86438833333333}, {"rental_uris": {"android": "https://dc.lft.to/lastmile_qr_scan", "ios": "https://dc.lft.to/lastmile_qr_scan"}, "is_reserved": 0, "is_disabled": 0, "name": "5396bd7265cae82f1ab30e2d1a86da64", "bike_id": "5396bd7265cae82f1ab30e2d1a86da64", "fusion_lat": 0.0, "lon": -76.9962575, "type": "electric_scooter", "fusion_lon": 0.0, "lat": 38.931745166666666}, {"rental_uris": {"android": "https://dc.lft.to/lastmile_qr_scan", "ios": "https://dc.lft.to/lastmile_qr_scan"}, "is_reserved": 0, "is_disabled": 0, "name": "ccf931d2b85ffad8f42f045f3ebc2ef8", "bike_id": "ccf931d2b85ffad8f42f045f3ebc2ef8", "fusion_lat": 0.0, "lon": -77.038533, "type": "electric_scooter", "fusion_lon": 0.0, "lat": 38.916655}, {"rental_uris": {"android": "https://dc.lft.to/lastmile_qr_scan", "ios": "https://dc.lft.to/lastmile_qr_scan"}, "is_reserved": 0, "is_disabled": 0, "name": "d117154d9c2fcd40a50b8fcc02c95865", "bike_id": "d117154d9c2fcd40a50b8fcc02c95865", "fusion_lat": 0.0, "lon": -77.0385365, "type": "electric_scooter", "fusion_lon": 0.0, "lat": 38.9172215}, {"rental_uris": {"android": "https://dc.lft.to/lastmile_qr_scan", "ios": "https://dc.lft.to/lastmile_qr_scan"}, "is_reserved": 0, "is_disabled": 0, "name": "cf69d7e9b62df96d2ce1d75a5ad36049", "bike_id": "cf69d7e9b62df96d2ce1d75a5ad36049", "fusion_lat": 0.0, "lon": -77.0238715, "type": "electric_scooter", "fusion_lon": 0.0, "lat": 38.909722333333335}, {"rental_uris": {"android": "https://dc.lft.to/lastmile_qr_scan", "ios": "https://dc.lft.to/lastmile_qr_scan"}, "is_reserved": 0, "is_disabled": 0, "name": "0937599697516edb9d4e8050f8fada8f", "bike_id": "0937599697516edb9d4e8050f8fada8f", "fusion_lat": 0.0, "lon": -76.99754433333334, "type": "electric_scooter", "fusion_lon": 0.0, "lat": 38.885049333333335}, {"rental_uris": {"android": "https://dc.lft.to/lastmile_qr_scan", "ios": "https://dc.lft.to/lastmile_qr_scan"}, "is_reserved": 0, "is_disabled": 0, "name": "68b3682bd0b358eca1db041e65e47143", "bike_id": "68b3682bd0b358eca1db041e65e47143", "fusion_lat": 0.0, "lon": -77.03970233333334, "type": "electric_scooter", "fusion_lon": 0.0, "lat": 38.89536566666666}, {"rental_uris": {"android": "https://dc.lft.to/lastmile_qr_scan", "ios": "https://dc.lft.to/lastmile_qr_scan"}, "is_reserved": 0, "is_disabled": 0, "name": "96617eecccb68795be1488db819022b9", "bike_id": "96617eecccb68795be1488db819022b9", "fusion_lat": 0.0, "lon": -77.04561883333334, "type": "electric_scooter", "fusion_lon": 0.0, "lat": 38.90388083333333}, {"rental_uris": {"android": "https://dc.lft.to/lastmile_qr_scan", "ios": "https://dc.lft.to/lastmile_qr_scan"}, "is_reserved": 0, "is_disabled": 0, "name": "38f54aa3f5e76e7f953750af14f56a01", "bike_id": "38f54aa3f5e76e7f953750af14f56a01", "fusion_lat": 0.0, "lon": -77.025515, "type": "electric_scooter", "fusion_lon": 0.0, "lat": 38.970054}, {"rental_uris": {"android": "https://dc.lft.to/lastmile_qr_scan", "ios": "https://dc.lft.to/lastmile_qr_scan"}, "is_reserved": 0, "is_disabled": 0, "name": "f3dced16acc86efd1e8076bcb3e8a31e", "bike_id": "f3dced16acc86efd1e8076bcb3e8a31e", "fusion_lat": 0.0, "lon": -77.05704616666667, "type": "electric_scooter", "fusion_lon": 0.0, "lat": 38.90539483333333}, {"rental_uris": {"android": "https://dc.lft.to/lastmile_qr_scan", "ios": "https://dc.lft.to/lastmile_qr_scan"}, "is_reserved": 0, "is_disabled": 0, "name": "e71e15c423e4d073d72194653e95f0e8", "bike_id": "e71e15c423e4d073d72194653e95f0e8", "fusion_lat": 0.0, "lon": -77.01838383333333, "type": "electric_scooter", "fusion_lon": 0.0, "lat": 38.9026795}, {"rental_uris": {"android": "https://dc.lft.to/lastmile_qr_scan", "ios": "https://dc.lft.to/lastmile_qr_scan"}, "is_reserved": 0, "is_disabled": 0, "name": "c56918d9750c5244574c93baf1579cdd", "bike_id": "c56918d9750c5244574c93baf1579cdd", "fusion_lat": 0.0, "lon": -77.03300516666667, "type": "electric_scooter", "fusion_lon": 0.0, "lat": 38.909784333333334}, {"rental_uris": {"android": "https://dc.lft.to/lastmile_qr_scan", "ios": "https://dc.lft.to/lastmile_qr_scan"}, "is_reserved": 0, "is_disabled": 0, "name": "4ad01cc43e5d52473057002a10bdbca8", "bike_id": "4ad01cc43e5d52473057002a10bdbca8", "fusion_lat": 0.0, "lon": -77.02605983333333, "type": "electric_scooter", "fusion_lon": 0.0, "lat": 38.982817}, {"rental_uris": {"android": "https://dc.lft.to/lastmile_qr_scan", "ios": "https://dc.lft.to/lastmile_qr_scan"}, "is_reserved": 0, "is_disabled": 0, "name": "37ce41bf80c6b2df9b2829c9fbc8c60a", "bike_id": "37ce41bf80c6b2df9b2829c9fbc8c60a", "fusion_lat": 0.0, "lon": -77.00707366666667, "type": "electric_scooter", "fusion_lon": 0.0, "lat": 38.9058855}, {"rental_uris": {"android": "https://dc.lft.to/lastmile_qr_scan", "ios": "https://dc.lft.to/lastmile_qr_scan"}, "is_reserved": 0, "is_disabled": 0, "name": "806a7b27bd75d627ea93c5a97a2125db", "bike_id": "806a7b27bd75d627ea93c5a97a2125db", "fusion_lat": 0.0, "lon": -76.96149516666667, "type": "electric_bike", "fusion_lon": 0.0, "lat": 38.8561715}, {"rental_uris": {"android": "https://dc.lft.to/lastmile_qr_scan", "ios": "https://dc.lft.to/lastmile_qr_scan"}, "is_reserved": 0, "is_disabled": 0, "name": "f6865f67dd1390e213e96c8c576607db", "bike_id": "f6865f67dd1390e213e96c8c576607db", "fusion_lat": 0.0, "lon": -76.99953083333334, "type": "electric_scooter", "fusion_lon": 0.0, "lat": 38.89904883333333}, {"rental_uris": {"android": "https://dc.lft.to/lastmile_qr_scan", "ios": "https://dc.lft.to/lastmile_qr_scan"}, "is_reserved": 0, "is_disabled": 0, "name": "3deeda553dca44593279f0794a4b1a8d", "bike_id": "3deeda553dca44593279f0794a4b1a8d", "fusion_lat": 0.0, "lon": -77.01506583333334, "type": "electric_scooter", "fusion_lon": 0.0, "lat": 38.89115433333333}, {"rental_uris": {"android": "https://dc.lft.to/lastmile_qr_scan", "ios": "https://dc.lft.to/lastmile_qr_scan"}, "is_reserved": 0, "is_disabled": 0, "name": "f4101f0600978fe95003ea408036373c", "bike_id": "f4101f0600978fe95003ea408036373c", "fusion_lat": 0.0, "lon": -77.02946333333334, "type": "electric_scooter", "fusion_lon": 0.0, "lat": 38.907209333333334}, {"rental_uris": {"android": "https://dc.lft.to/lastmile_qr_scan", "ios": "https://dc.lft.to/lastmile_qr_scan"}, "is_reserved": 0, "is_disabled": 0, "name": "6f75d62641d4c4871c4ec9ee0667fff1", "bike_id": "6f75d62641d4c4871c4ec9ee0667fff1", "fusion_lat": 0.0, "lon": -76.90748066666667, "type": "electric_bike", "fusion_lon": 0.0, "lat": 38.896204166666664}, {"rental_uris": {"android": "https://dc.lft.to/lastmile_qr_scan", "ios": "https://dc.lft.to/lastmile_qr_scan"}, "is_reserved": 0, "is_disabled": 0, "name": "38e06ade9de6096bba73ab1dbfec4d71", "bike_id": "38e06ade9de6096bba73ab1dbfec4d71", "fusion_lat": 0.0, "lon": -77.02774566666666, "type": "electric_scooter", "fusion_lon": 0.0, "lat": 38.90297116666667}, {"rental_uris": {"android": "https://dc.lft.to/lastmile_qr_scan", "ios": "https://dc.lft.to/lastmile_qr_scan"}, "is_reserved": 0, "is_disabled": 0, "name": "e324d4ac445aa420697b3a1f688e7ee8", "bike_id": "e324d4ac445aa420697b3a1f688e7ee8", "fusion_lat": 0.0, "lon": -77.00612783333334, "type": "electric_bike", "fusion_lon": 0.0, "lat": 38.8239885}, {"rental_uris": {"android": "https://dc.lft.to/lastmile_qr_scan", "ios": "https://dc.lft.to/lastmile_qr_scan"}, "is_reserved": 0, "is_disabled": 0, "name": "e7c748d7b03776effeb133106a0a6fd9", "bike_id": "e7c748d7b03776effeb133106a0a6fd9", "fusion_lat": 0.0, "lon": -77.02313633333333, "type": "electric_scooter", "fusion_lon": 0.0, "lat": 38.89662283333333}, {"rental_uris": {"android": "https://dc.lft.to/lastmile_qr_scan", "ios": "https://dc.lft.to/lastmile_qr_scan"}, "is_reserved": 0, "is_disabled": 0, "name": "3b3c2ce4f5b666904d89aebdbcf7b28e", "bike_id": "3b3c2ce4f5b666904d89aebdbcf7b28e", "fusion_lat": 0.0, "lon": -77.01950016666666, "type": "electric_scooter", "fusion_lon": 0.0, "lat": 38.9241615}, {"rental_uris": {"android": "https://dc.lft.to/lastmile_qr_scan", "ios": "https://dc.lft.to/lastmile_qr_scan"}, "is_reserved": 0, "is_disabled": 0, "name": "558acd954fcc22a85d7bad76a4bf3f5e", "bike_id": "558acd954fcc22a85d7bad76a4bf3f5e", "fusion_lat": 0.0, "lon": -77.02767233333333, "type": "electric_scooter", "fusion_lon": 0.0, "lat": 38.9341705}, {"rental_uris": {"android": "https://dc.lft.to/lastmile_qr_scan", "ios": "https://dc.lft.to/lastmile_qr_scan"}, "is_reserved": 0, "is_disabled": 0, "name": "27d8d9296058a3dc9eadd5136909836f", "bike_id": "27d8d9296058a3dc9eadd5136909836f", "fusion_lat": 0.0, "lon": -77.0257, "type": "electric_scooter", "fusion_lon": 0.0, "lat": 38.91259816666667}, {"rental_uris": {"android": "https://dc.lft.to/lastmile_qr_scan", "ios": "https://dc.lft.to/lastmile_qr_scan"}, "is_reserved": 0, "is_disabled": 0, "name": "b806ba83627e175c101df373d241138f", "bike_id": "b806ba83627e175c101df373d241138f", "fusion_lat": 0.0, "lon": -77.00703466666667, "type": "electric_scooter", "fusion_lon": 0.0, "lat": 38.9002175}, {"rental_uris": {"android": "https://dc.lft.to/lastmile_qr_scan", "ios": "https://dc.lft.to/lastmile_qr_scan"}, "is_reserved": 0, "is_disabled": 0, "name": "15dac0dc2b33f224b4cf5faf64f0357d", "bike_id": "15dac0dc2b33f224b4cf5faf64f0357d", "fusion_lat": 0.0, "lon": -77.0296435, "type": "electric_scooter", "fusion_lon": 0.0, "lat": 38.922678166666664}, {"rental_uris": {"android": "https://dc.lft.to/lastmile_qr_scan", "ios": "https://dc.lft.to/lastmile_qr_scan"}, "is_reserved": 0, "is_disabled": 0, "name": "47e03eb00455da39a7574700c72c9d39", "bike_id": "47e03eb00455da39a7574700c72c9d39", "fusion_lat": 0.0, "lon": -77.0551375, "type": "electric_scooter", "fusion_lon": 0.0, "lat": 38.928397833333335}, {"rental_uris": {"android": "https://dc.lft.to/lastmile_qr_scan", "ios": "https://dc.lft.to/lastmile_qr_scan"}, "is_reserved": 0, "is_disabled": 0, "name": "ee489d70eb1d243a4bbc6da61386fb6d", "bike_id": "ee489d70eb1d243a4bbc6da61386fb6d", "fusion_lat": 0.0, "lon": -77.030887, "type": "electric_scooter", "fusion_lon": 0.0, "lat": 38.895423}, {"rental_uris": {"android": "https://dc.lft.to/lastmile_qr_scan", "ios": "https://dc.lft.to/lastmile_qr_scan"}, "is_reserved": 0, "is_disabled": 0, "name": "29cbfcda95ecadc8936471a9dc727ac6", "bike_id": "29cbfcda95ecadc8936471a9dc727ac6", "fusion_lat": 0.0, "lon": -77.0380955, "type": "electric_scooter", "fusion_lon": 0.0, "lat": 38.9310505}, {"rental_uris": {"android": "https://dc.lft.to/lastmile_qr_scan", "ios": "https://dc.lft.to/lastmile_qr_scan"}, "is_reserved": 0, "is_disabled": 0, "name": "933af86e4182f5c116d76ea792fa9a3a", "bike_id": "933af86e4182f5c116d76ea792fa9a3a", "fusion_lat": 0.0, "lon": -76.96542266666667, "type": "electric_scooter", "fusion_lon": 0.0, "lat": 38.9185325}, {"rental_uris": {"android": "https://dc.lft.to/lastmile_qr_scan", "ios": "https://dc.lft.to/lastmile_qr_scan"}, "is_reserved": 0, "is_disabled": 0, "name": "5a7ca2e57ebdc3a4fabe895885c91636", "bike_id": "5a7ca2e57ebdc3a4fabe895885c91636", "fusion_lat": 0.0, "lon": -77.03051683333334, "type": "electric_scooter", "fusion_lon": 0.0, "lat": 38.923739833333336}, {"rental_uris": {"android": "https://dc.lft.to/lastmile_qr_scan", "ios": "https://dc.lft.to/lastmile_qr_scan"}, "is_reserved": 0, "is_disabled": 0, "name": "ba839ab42684650ca090a1be4c77686a", "bike_id": "ba839ab42684650ca090a1be4c77686a", "fusion_lat": 0.0, "lon": -76.99792116666667, "type": "electric_bike", "fusion_lon": 0.0, "lat": 38.956416}, {"rental_uris": {"android": "https://dc.lft.to/lastmile_qr_scan", "ios": "https://dc.lft.to/lastmile_qr_scan"}, "is_reserved": 0, "is_disabled": 0, "name": "362ba06d3491f5651bb2b9a6d1e8bc15", "bike_id": "362ba06d3491f5651bb2b9a6d1e8bc15", "fusion_lat": 0.0, "lon": -77.02170483333333, "type": "electric_scooter", "fusion_lon": 0.0, "lat": 38.94290183333333}, {"rental_uris": {"android": "https://dc.lft.to/lastmile_qr_scan", "ios": "https://dc.lft.to/lastmile_qr_scan"}, "is_reserved": 0, "is_disabled": 0, "name": "6e33ec02b099198888dbca3a1e4d1f45", "bike_id": "6e33ec02b099198888dbca3a1e4d1f45", "fusion_lat": 0.0, "lon": -76.96712366666667, "type": "electric_scooter", "fusion_lon": 0.0, "lat": 38.85971166666667}, {"rental_uris": {"android": "https://dc.lft.to/lastmile_qr_scan", "ios": "https://dc.lft.to/lastmile_qr_scan"}, "is_reserved": 0, "is_disabled": 0, "name": "067988a7eee1a61ca32d13c4c1aac1c8", "bike_id": "067988a7eee1a61ca32d13c4c1aac1c8", "fusion_lat": 0.0, "lon": -77.030708, "type": "electric_scooter", "fusion_lon": 0.0, "lat": 38.89838133333333}, {"rental_uris": {"android": "https://dc.lft.to/lastmile_qr_scan", "ios": "https://dc.lft.to/lastmile_qr_scan"}, "is_reserved": 0, "is_disabled": 0, "name": "a6e0880fa66a36d804b98bab256a73a2", "bike_id": "a6e0880fa66a36d804b98bab256a73a2", "fusion_lat": 0.0, "lon": -76.95160916666667, "type": "electric_bike", "fusion_lon": 0.0, "lat": 39.08439533333333}, {"rental_uris": {"android": "https://dc.lft.to/lastmile_qr_scan", "ios": "https://dc.lft.to/lastmile_qr_scan"}, "is_reserved": 0, "is_disabled": 0, "name": "e6100d46609b67f07a201165f897b2f7", "bike_id": "e6100d46609b67f07a201165f897b2f7", "fusion_lat": 0.0, "lon": -77.03211166666667, "type": "electric_scooter", "fusion_lon": 0.0, "lat": 38.91848783333333}, {"rental_uris": {"android": "https://dc.lft.to/lastmile_qr_scan", "ios": "https://dc.lft.to/lastmile_qr_scan"}, "is_reserved": 0, "is_disabled": 0, "name": "cf09d2bf95b40e967f0017fcd18d49df", "bike_id": "cf09d2bf95b40e967f0017fcd18d49df", "fusion_lat": 0.0, "lon": -77.06431383333333, "type": "electric_scooter", "fusion_lon": 0.0, "lat": 38.93568116666667}, {"rental_uris": {"android": "https://dc.lft.to/lastmile_qr_scan", "ios": "https://dc.lft.to/lastmile_qr_scan"}, "is_reserved": 0, "is_disabled": 0, "name": "b110b14d1a9953f86b672c20066a5940", "bike_id": "b110b14d1a9953f86b672c20066a5940", "fusion_lat": 0.0, "lon": -76.93596366666667, "type": "electric_scooter", "fusion_lon": 0.0, "lat": 38.90946016666667}, {"rental_uris": {"android": "https://dc.lft.to/lastmile_qr_scan", "ios": "https://dc.lft.to/lastmile_qr_scan"}, "is_reserved": 0, "is_disabled": 0, "name": "6575a77e118abfcbfebc7eb771fe188d", "bike_id": "6575a77e118abfcbfebc7eb771fe188d", "fusion_lat": 0.0, "lon": -77.0322375, "type": "electric_scooter", "fusion_lon": 0.0, "lat": 38.925495166666664}, {"rental_uris": {"android": "https://dc.lft.to/lastmile_qr_scan", "ios": "https://dc.lft.to/lastmile_qr_scan"}, "is_reserved": 0, "is_disabled": 0, "name": "143bc8fe2ed9c951fefd09d79c75b149", "bike_id": "143bc8fe2ed9c951fefd09d79c75b149", "fusion_lat": 0.0, "lon": -77.02513016666667, "type": "electric_scooter", "fusion_lon": 0.0, "lat": 38.9192465}, {"rental_uris": {"android": "https://dc.lft.to/lastmile_qr_scan", "ios": "https://dc.lft.to/lastmile_qr_scan"}, "is_reserved": 0, "is_disabled": 0, "name": "c1f61d8a1f1aad3bc5ae66089ab438e0", "bike_id": "c1f61d8a1f1aad3bc5ae66089ab438e0", "fusion_lat": 0.0, "lon": -77.00157583333333, "type": "electric_scooter", "fusion_lon": 0.0, "lat": 38.821315166666665}, {"rental_uris": {"android": "https://dc.lft.to/lastmile_qr_scan", "ios": "https://dc.lft.to/lastmile_qr_scan"}, "is_reserved": 0, "is_disabled": 0, "name": "ced783535baa953ae9841183fb3bfb01", "bike_id": "ced783535baa953ae9841183fb3bfb01", "fusion_lat": 0.0, "lon": -77.03666416666667, "type": "electric_scooter", "fusion_lon": 0.0, "lat": 38.902893666666664}, {"rental_uris": {"android": "https://dc.lft.to/lastmile_qr_scan", "ios": "https://dc.lft.to/lastmile_qr_scan"}, "is_reserved": 0, "is_disabled": 0, "name": "5fbabd0294696d84f24b0586d6137f9d", "bike_id": "5fbabd0294696d84f24b0586d6137f9d", "fusion_lat": 0.0, "lon": -77.023532, "type": "electric_scooter", "fusion_lon": 0.0, "lat": 38.92049466666667}, {"rental_uris": {"android": "https://dc.lft.to/lastmile_qr_scan", "ios": "https://dc.lft.to/lastmile_qr_scan"}, "is_reserved": 0, "is_disabled": 0, "name": "bcfbbcfd7d8f73b45c0fd05853483313", "bike_id": "bcfbbcfd7d8f73b45c0fd05853483313", "fusion_lat": 0.0, "lon": -77.002908, "type": "electric_scooter", "fusion_lon": 0.0, "lat": 38.891986333333335}, {"rental_uris": {"android": "https://dc.lft.to/lastmile_qr_scan", "ios": "https://dc.lft.to/lastmile_qr_scan"}, "is_reserved": 0, "is_disabled": 0, "name": "dd7897a31c9c09edb3353612afe80e04", "bike_id": "dd7897a31c9c09edb3353612afe80e04", "fusion_lat": 0.0, "lon": -76.99820133333333, "type": "electric_scooter", "fusion_lon": 0.0, "lat": 38.90719966666666}, {"rental_uris": {"android": "https://dc.lft.to/lastmile_qr_scan", "ios": "https://dc.lft.to/lastmile_qr_scan"}, "is_reserved": 0, "is_disabled": 0, "name": "0875b136df9e0b8724ee88a2b82d65c7", "bike_id": "0875b136df9e0b8724ee88a2b82d65c7", "fusion_lat": 0.0, "lon": -77.08557866666666, "type": "electric_bike", "fusion_lon": 0.0, "lat": 38.933213}, {"rental_uris": {"android": "https://dc.lft.to/lastmile_qr_scan", "ios": "https://dc.lft.to/lastmile_qr_scan"}, "is_reserved": 0, "is_disabled": 0, "name": "78b95fdd9a833f9bcc90ebf925fb1d5d", "bike_id": "78b95fdd9a833f9bcc90ebf925fb1d5d", "fusion_lat": 0.0, "lon": -77.00919216666667, "type": "electric_scooter", "fusion_lon": 0.0, "lat": 38.895491166666666}, {"rental_uris": {"android": "https://dc.lft.to/lastmile_qr_scan", "ios": "https://dc.lft.to/lastmile_qr_scan"}, "is_reserved": 0, "is_disabled": 0, "name": "0d1c98ccbb641d83248f0387b8e3e210", "bike_id": "0d1c98ccbb641d83248f0387b8e3e210", "fusion_lat": 0.0, "lon": -77.046976, "type": "electric_scooter", "fusion_lon": 0.0, "lat": 38.92111966666667}, {"rental_uris": {"android": "https://dc.lft.to/lastmile_qr_scan", "ios": "https://dc.lft.to/lastmile_qr_scan"}, "is_reserved": 0, "is_disabled": 0, "name": "c66abadef165574eae09f1b03d3025a3", "bike_id": "c66abadef165574eae09f1b03d3025a3", "fusion_lat": 0.0, "lon": -77.03660933333333, "type": "electric_scooter", "fusion_lon": 0.0, "lat": 38.917967}, {"rental_uris": {"android": "https://dc.lft.to/lastmile_qr_scan", "ios": "https://dc.lft.to/lastmile_qr_scan"}, "is_reserved": 0, "is_disabled": 0, "name": "07fc19a771fe34c4d81cc3857ed2466e", "bike_id": "07fc19a771fe34c4d81cc3857ed2466e", "fusion_lat": 0.0, "lon": -77.02810233333334, "type": "electric_scooter", "fusion_lon": 0.0, "lat": 38.930786833333336}, {"rental_uris": {"android": "https://dc.lft.to/lastmile_qr_scan", "ios": "https://dc.lft.to/lastmile_qr_scan"}, "is_reserved": 0, "is_disabled": 0, "name": "2a7a32f2d09d3a65dbac492a9b02dcf6", "bike_id": "2a7a32f2d09d3a65dbac492a9b02dcf6", "fusion_lat": 0.0, "lon": -77.02771833333334, "type": "electric_scooter", "fusion_lon": 0.0, "lat": 38.930069833333334}, {"rental_uris": {"android": "https://dc.lft.to/lastmile_qr_scan", "ios": "https://dc.lft.to/lastmile_qr_scan"}, "is_reserved": 0, "is_disabled": 0, "name": "c70c18f979941e4488de450976592ffc", "bike_id": "c70c18f979941e4488de450976592ffc", "fusion_lat": 0.0, "lon": -77.09655066666667, "type": "electric_bike", "fusion_lon": 0.0, "lat": 38.9521875}, {"rental_uris": {"android": "https://dc.lft.to/lastmile_qr_scan", "ios": "https://dc.lft.to/lastmile_qr_scan"}, "is_reserved": 0, "is_disabled": 0, "name": "8cef59d4efe580332b956e869c6efeac", "bike_id": "8cef59d4efe580332b956e869c6efeac", "fusion_lat": 0.0, "lon": -77.02353716666667, "type": "electric_scooter", "fusion_lon": 0.0, "lat": 38.93534283333334}, {"rental_uris": {"android": "https://dc.lft.to/lastmile_qr_scan", "ios": "https://dc.lft.to/lastmile_qr_scan"}, "is_reserved": 0, "is_disabled": 0, "name": "89fac3d45f94dbb4ee6ec4ceb794f499", "bike_id": "89fac3d45f94dbb4ee6ec4ceb794f499", "fusion_lat": 0.0, "lon": -77.01950716666667, "type": "electric_scooter", "fusion_lon": 0.0, "lat": 38.92330583333333}, {"rental_uris": {"android": "https://dc.lft.to/lastmile_qr_scan", "ios": "https://dc.lft.to/lastmile_qr_scan"}, "is_reserved": 0, "is_disabled": 0, "name": "75e909406c102aed4095ea79223455d9", "bike_id": "75e909406c102aed4095ea79223455d9", "fusion_lat": 0.0, "lon": -77.03300866666666, "type": "electric_scooter", "fusion_lon": 0.0, "lat": 38.911242666666666}, {"rental_uris": {"android": "https://dc.lft.to/lastmile_qr_scan", "ios": "https://dc.lft.to/lastmile_qr_scan"}, "is_reserved": 0, "is_disabled": 0, "name": "7af443d19fbc522d6cd908fbf2ab8f4d", "bike_id": "7af443d19fbc522d6cd908fbf2ab8f4d", "fusion_lat": 0.0, "lon": -77.02025216666667, "type": "electric_scooter", "fusion_lon": 0.0, "lat": 38.894378333333336}, {"rental_uris": {"android": "https://dc.lft.to/lastmile_qr_scan", "ios": "https://dc.lft.to/lastmile_qr_scan"}, "is_reserved": 0, "is_disabled": 0, "name": "09fab6c7848ad8465508ad94a5e5fc0d", "bike_id": "09fab6c7848ad8465508ad94a5e5fc0d", "fusion_lat": 0.0, "lon": -77.03204366666667, "type": "electric_scooter", "fusion_lon": 0.0, "lat": 38.907369}, {"rental_uris": {"android": "https://dc.lft.to/lastmile_qr_scan", "ios": "https://dc.lft.to/lastmile_qr_scan"}, "is_reserved": 0, "is_disabled": 0, "name": "98048c9371fda05d150532255036f024", "bike_id": "98048c9371fda05d150532255036f024", "fusion_lat": 0.0, "lon": -77.00202233333333, "type": "electric_scooter", "fusion_lon": 0.0, "lat": 38.90238033333333}, {"rental_uris": {"android": "https://dc.lft.to/lastmile_qr_scan", "ios": "https://dc.lft.to/lastmile_qr_scan"}, "is_reserved": 0, "is_disabled": 0, "name": "8c64000a95327b74a9644df2f3b8b2fe", "bike_id": "8c64000a95327b74a9644df2f3b8b2fe", "fusion_lat": 0.0, "lon": -77.05044733333334, "type": "electric_scooter", "fusion_lon": 0.0, "lat": 38.92365983333333}, {"rental_uris": {"android": "https://dc.lft.to/lastmile_qr_scan", "ios": "https://dc.lft.to/lastmile_qr_scan"}, "is_reserved": 0, "is_disabled": 0, "name": "926d2a6cd3e7a790a623e0994245abfe", "bike_id": "926d2a6cd3e7a790a623e0994245abfe", "fusion_lat": 0.0, "lon": -76.99080983333333, "type": "electric_scooter", "fusion_lon": 0.0, "lat": 38.8556265}, {"rental_uris": {"android": "https://dc.lft.to/lastmile_qr_scan", "ios": "https://dc.lft.to/lastmile_qr_scan"}, "is_reserved": 0, "is_disabled": 0, "name": "6737715b0ba4472583dc58daf0f37737", "bike_id": "6737715b0ba4472583dc58daf0f37737", "fusion_lat": 0.0, "lon": -76.97894316666667, "type": "electric_scooter", "fusion_lon": 0.0, "lat": 38.885437333333336}, {"rental_uris": {"android": "https://dc.lft.to/lastmile_qr_scan", "ios": "https://dc.lft.to/lastmile_qr_scan"}, "is_reserved": 0, "is_disabled": 0, "name": "6275f4a014d5c18eee2047fc40382e06", "bike_id": "6275f4a014d5c18eee2047fc40382e06", "fusion_lat": 0.0, "lon": -77.02418, "type": "electric_scooter", "fusion_lon": 0.0, "lat": 38.9336425}, {"rental_uris": {"android": "https://dc.lft.to/lastmile_qr_scan", "ios": "https://dc.lft.to/lastmile_qr_scan"}, "is_reserved": 0, "is_disabled": 0, "name": "e82e05e5caf401986500c30658e79d1f", "bike_id": "e82e05e5caf401986500c30658e79d1f", "fusion_lat": 0.0, "lon": -77.0451885, "type": "electric_scooter", "fusion_lon": 0.0, "lat": 38.918155666666664}, {"rental_uris": {"android": "https://dc.lft.to/lastmile_qr_scan", "ios": "https://dc.lft.to/lastmile_qr_scan"}, "is_reserved": 0, "is_disabled": 0, "name": "7354c99e96d81e6d17c40310fd2d46ce", "bike_id": "7354c99e96d81e6d17c40310fd2d46ce", "fusion_lat": 0.0, "lon": -77.03071233333333, "type": "electric_scooter", "fusion_lon": 0.0, "lat": 38.89835}, {"rental_uris": {"android": "https://dc.lft.to/lastmile_qr_scan", "ios": "https://dc.lft.to/lastmile_qr_scan"}, "is_reserved": 0, "is_disabled": 0, "name": "67111472d9c6f21b75696563299a8c36", "bike_id": "67111472d9c6f21b75696563299a8c36", "fusion_lat": 0.0, "lon": -77.0295925, "type": "electric_scooter", "fusion_lon": 0.0, "lat": 38.93561966666667}, {"rental_uris": {"android": "https://dc.lft.to/lastmile_qr_scan", "ios": "https://dc.lft.to/lastmile_qr_scan"}, "is_reserved": 0, "is_disabled": 0, "name": "a1fab64c0c1feba7076d2fb04b2a559c", "bike_id": "a1fab64c0c1feba7076d2fb04b2a559c", "fusion_lat": 0.0, "lon": -77.02643616666667, "type": "electric_scooter", "fusion_lon": 0.0, "lat": 38.90252433333333}, {"rental_uris": {"android": "https://dc.lft.to/lastmile_qr_scan", "ios": "https://dc.lft.to/lastmile_qr_scan"}, "is_reserved": 0, "is_disabled": 0, "name": "355bda366eecefb623bdab83a1d6413f", "bike_id": "355bda366eecefb623bdab83a1d6413f", "fusion_lat": 0.0, "lon": -77.1297805, "type": "electric_bike", "fusion_lon": 0.0, "lat": 38.79981766666667}, {"rental_uris": {"android": "https://dc.lft.to/lastmile_qr_scan", "ios": "https://dc.lft.to/lastmile_qr_scan"}, "is_reserved": 0, "is_disabled": 0, "name": "fcea0a8c1939b51b24104a456d000d26", "bike_id": "fcea0a8c1939b51b24104a456d000d26", "fusion_lat": 0.0, "lon": -76.97959016666667, "type": "electric_scooter", "fusion_lon": 0.0, "lat": 38.8979085}, {"rental_uris": {"android": "https://dc.lft.to/lastmile_qr_scan", "ios": "https://dc.lft.to/lastmile_qr_scan"}, "is_reserved": 0, "is_disabled": 0, "name": "b6aec7e1b7c0bc4b33686a900d3e8a85", "bike_id": "b6aec7e1b7c0bc4b33686a900d3e8a85", "fusion_lat": 0.0, "lon": -77.00010133333333, "type": "electric_scooter", "fusion_lon": 0.0, "lat": 38.87391016666667}, {"rental_uris": {"android": "https://dc.lft.to/lastmile_qr_scan", "ios": "https://dc.lft.to/lastmile_qr_scan"}, "is_reserved": 0, "is_disabled": 0, "name": "53f0761297c985198f7de0db9ba5f899", "bike_id": "53f0761297c985198f7de0db9ba5f899", "fusion_lat": 0.0, "lon": -77.0445185, "type": "electric_scooter", "fusion_lon": 0.0, "lat": 38.90280766666667}, {"rental_uris": {"android": "https://dc.lft.to/lastmile_qr_scan", "ios": "https://dc.lft.to/lastmile_qr_scan"}, "is_reserved": 0, "is_disabled": 0, "name": "94d746d21b3a8e29335d9ef6ad8b7c40", "bike_id": "94d746d21b3a8e29335d9ef6ad8b7c40", "fusion_lat": 0.0, "lon": -77.023137, "type": "electric_scooter", "fusion_lon": 0.0, "lat": 38.907207666666665}, {"rental_uris": {"android": "https://dc.lft.to/lastmile_qr_scan", "ios": "https://dc.lft.to/lastmile_qr_scan"}, "is_reserved": 0, "is_disabled": 0, "name": "7e564666ef349e6a857ca0aecaef3d14", "bike_id": "7e564666ef349e6a857ca0aecaef3d14", "fusion_lat": 0.0, "lon": -76.95244066666666, "type": "electric_bike", "fusion_lon": 0.0, "lat": 38.906957166666665}, {"rental_uris": {"android": "https://dc.lft.to/lastmile_qr_scan", "ios": "https://dc.lft.to/lastmile_qr_scan"}, "is_reserved": 0, "is_disabled": 0, "name": "75cdc13da9c7739f14bf2546c85e6a47", "bike_id": "75cdc13da9c7739f14bf2546c85e6a47", "fusion_lat": 0.0, "lon": -77.02726216666667, "type": "electric_scooter", "fusion_lon": 0.0, "lat": 38.918086333333335}, {"rental_uris": {"android": "https://dc.lft.to/lastmile_qr_scan", "ios": "https://dc.lft.to/lastmile_qr_scan"}, "is_reserved": 0, "is_disabled": 0, "name": "313965657e6a9131788727e501a51608", "bike_id": "313965657e6a9131788727e501a51608", "fusion_lat": 0.0, "lon": -76.98803466666666, "type": "electric_scooter", "fusion_lon": 0.0, "lat": 38.8936205}, {"rental_uris": {"android": "https://dc.lft.to/lastmile_qr_scan", "ios": "https://dc.lft.to/lastmile_qr_scan"}, "is_reserved": 0, "is_disabled": 0, "name": "0433fc4205131ec84bc48abcc28b9150", "bike_id": "0433fc4205131ec84bc48abcc28b9150", "fusion_lat": 0.0, "lon": -77.04045, "type": "electric_scooter", "fusion_lon": 0.0, "lat": 38.905598}, {"rental_uris": {"android": "https://dc.lft.to/lastmile_qr_scan", "ios": "https://dc.lft.to/lastmile_qr_scan"}, "is_reserved": 0, "is_disabled": 0, "name": "22f91343d6715f51453efaf773569113", "bike_id": "22f91343d6715f51453efaf773569113", "fusion_lat": 0.0, "lon": -77.04458, "type": "electric_scooter", "fusion_lon": 0.0, "lat": 38.91880316666666}, {"rental_uris": {"android": "https://dc.lft.to/lastmile_qr_scan", "ios": "https://dc.lft.to/lastmile_qr_scan"}, "is_reserved": 0, "is_disabled": 0, "name": "9911a717fd8295a2a12cf882f0151474", "bike_id": "9911a717fd8295a2a12cf882f0151474", "fusion_lat": 0.0, "lon": -77.029175, "type": "electric_scooter", "fusion_lon": 0.0, "lat": 38.93143966666667}, {"rental_uris": {"android": "https://dc.lft.to/lastmile_qr_scan", "ios": "https://dc.lft.to/lastmile_qr_scan"}, "is_reserved": 0, "is_disabled": 0, "name": "3a34a29e32f34d867fde79adbd6e2bf4", "bike_id": "3a34a29e32f34d867fde79adbd6e2bf4", "fusion_lat": 0.0, "lon": -76.98336566666667, "type": "electric_scooter", "fusion_lon": 0.0, "lat": 38.89544183333334}, {"rental_uris": {"android": "https://dc.lft.to/lastmile_qr_scan", "ios": "https://dc.lft.to/lastmile_qr_scan"}, "is_reserved": 0, "is_disabled": 0, "name": "e9d35b8a02cf00ba12969f4330f2c186", "bike_id": "e9d35b8a02cf00ba12969f4330f2c186", "fusion_lat": 0.0, "lon": -77.0464155, "type": "electric_bike", "fusion_lon": 0.0, "lat": 38.81543883333333}, {"rental_uris": {"android": "https://dc.lft.to/lastmile_qr_scan", "ios": "https://dc.lft.to/lastmile_qr_scan"}, "is_reserved": 0, "is_disabled": 0, "name": "5bf67d72a4cbfcbb269a03de0f71b9c3", "bike_id": "5bf67d72a4cbfcbb269a03de0f71b9c3", "fusion_lat": 0.0, "lon": -77.03332783333333, "type": "electric_scooter", "fusion_lon": 0.0, "lat": 38.899018}, {"rental_uris": {"android": "https://dc.lft.to/lastmile_qr_scan", "ios": "https://dc.lft.to/lastmile_qr_scan"}, "is_reserved": 0, "is_disabled": 0, "name": "daa0eaa92e827ea4a175e9d842610b19", "bike_id": "daa0eaa92e827ea4a175e9d842610b19", "fusion_lat": 0.0, "lon": -77.03138733333333, "type": "electric_scooter", "fusion_lon": 0.0, "lat": 38.92238533333333}, {"rental_uris": {"android": "https://dc.lft.to/lastmile_qr_scan", "ios": "https://dc.lft.to/lastmile_qr_scan"}, "is_reserved": 0, "is_disabled": 0, "name": "895bb2878ba7bdabbd769a0ebda39c1d", "bike_id": "895bb2878ba7bdabbd769a0ebda39c1d", "fusion_lat": 0.0, "lon": -77.0072525, "type": "electric_scooter", "fusion_lon": 0.0, "lat": 38.911894333333336}, {"rental_uris": {"android": "https://dc.lft.to/lastmile_qr_scan", "ios": "https://dc.lft.to/lastmile_qr_scan"}, "is_reserved": 0, "is_disabled": 0, "name": "a974bef5351e68b2dcb02a2d9643c803", "bike_id": "a974bef5351e68b2dcb02a2d9643c803", "fusion_lat": 0.0, "lon": -77.04235833333334, "type": "electric_scooter", "fusion_lon": 0.0, "lat": 38.91114283333334}, {"rental_uris": {"android": "https://dc.lft.to/lastmile_qr_scan", "ios": "https://dc.lft.to/lastmile_qr_scan"}, "is_reserved": 0, "is_disabled": 0, "name": "5e4603f797ac182340158a9e6c86b565", "bike_id": "5e4603f797ac182340158a9e6c86b565", "fusion_lat": 0.0, "lon": -77.01813066666666, "type": "electric_scooter", "fusion_lon": 0.0, "lat": 38.914026166666666}, {"rental_uris": {"android": "https://dc.lft.to/lastmile_qr_scan", "ios": "https://dc.lft.to/lastmile_qr_scan"}, "is_reserved": 0, "is_disabled": 0, "name": "3b0486f06c878edfeef3a45476a65ec4", "bike_id": "3b0486f06c878edfeef3a45476a65ec4", "fusion_lat": 0.0, "lon": -77.02998566666666, "type": "electric_bike", "fusion_lon": 0.0, "lat": 38.90007416666667}, {"rental_uris": {"android": "https://dc.lft.to/lastmile_qr_scan", "ios": "https://dc.lft.to/lastmile_qr_scan"}, "is_reserved": 0, "is_disabled": 0, "name": "3fe448ee6ebea3cebc6b5ac7f83841d5", "bike_id": "3fe448ee6ebea3cebc6b5ac7f83841d5", "fusion_lat": 0.0, "lon": -77.03651483333333, "type": "electric_scooter", "fusion_lon": 0.0, "lat": 38.903220166666664}, {"rental_uris": {"android": "https://dc.lft.to/lastmile_qr_scan", "ios": "https://dc.lft.to/lastmile_qr_scan"}, "is_reserved": 0, "is_disabled": 0, "name": "7a8240df4c5cf9c5eeda9eb6c4441c9a", "bike_id": "7a8240df4c5cf9c5eeda9eb6c4441c9a", "fusion_lat": 0.0, "lon": -77.02501966666667, "type": "electric_scooter", "fusion_lon": 0.0, "lat": 38.92064416666667}, {"rental_uris": {"android": "https://dc.lft.to/lastmile_qr_scan", "ios": "https://dc.lft.to/lastmile_qr_scan"}, "is_reserved": 0, "is_disabled": 0, "name": "944a2dc4c0c9c58474f9fce740677a56", "bike_id": "944a2dc4c0c9c58474f9fce740677a56", "fusion_lat": 0.0, "lon": -77.03452083333333, "type": "electric_scooter", "fusion_lon": 0.0, "lat": 38.9139655}, {"rental_uris": {"android": "https://dc.lft.to/lastmile_qr_scan", "ios": "https://dc.lft.to/lastmile_qr_scan"}, "is_reserved": 0, "is_disabled": 0, "name": "e8cb974f4263b72bcd59b0a86f660a2e", "bike_id": "e8cb974f4263b72bcd59b0a86f660a2e", "fusion_lat": 0.0, "lon": -77.05914483333333, "type": "electric_scooter", "fusion_lon": 0.0, "lat": 38.901514666666664}, {"rental_uris": {"android": "https://dc.lft.to/lastmile_qr_scan", "ios": "https://dc.lft.to/lastmile_qr_scan"}, "is_reserved": 0, "is_disabled": 0, "name": "e6155615f524e78819481e15b94e2e86", "bike_id": "e6155615f524e78819481e15b94e2e86", "fusion_lat": 0.0, "lon": -77.0162865, "type": "electric_scooter", "fusion_lon": 0.0, "lat": 38.8874105}, {"rental_uris": {"android": "https://dc.lft.to/lastmile_qr_scan", "ios": "https://dc.lft.to/lastmile_qr_scan"}, "is_reserved": 0, "is_disabled": 0, "name": "d21d303dbeb238c40d14f9353476efd9", "bike_id": "d21d303dbeb238c40d14f9353476efd9", "fusion_lat": 0.0, "lon": -77.04201783333333, "type": "electric_scooter", "fusion_lon": 0.0, "lat": 38.9187285}, {"rental_uris": {"android": "https://dc.lft.to/lastmile_qr_scan", "ios": "https://dc.lft.to/lastmile_qr_scan"}, "is_reserved": 0, "is_disabled": 0, "name": "2564a1005a0c9ea9a6765640bda16ed9", "bike_id": "2564a1005a0c9ea9a6765640bda16ed9", "fusion_lat": 0.0, "lon": -77.01079283333333, "type": "electric_scooter", "fusion_lon": 0.0, "lat": 38.90330483333334}, {"rental_uris": {"android": "https://dc.lft.to/lastmile_qr_scan", "ios": "https://dc.lft.to/lastmile_qr_scan"}, "is_reserved": 0, "is_disabled": 0, "name": "ff2be37ffbd66c9c5a5c684ac18bd381", "bike_id": "ff2be37ffbd66c9c5a5c684ac18bd381", "fusion_lat": 0.0, "lon": -76.98084466666667, "type": "electric_scooter", "fusion_lon": 0.0, "lat": 38.894438666666666}, {"rental_uris": {"android": "https://dc.lft.to/lastmile_qr_scan", "ios": "https://dc.lft.to/lastmile_qr_scan"}, "is_reserved": 0, "is_disabled": 0, "name": "ce32c3f2e53bee911e340df1fb4e0e62", "bike_id": "ce32c3f2e53bee911e340df1fb4e0e62", "fusion_lat": 0.0, "lon": -77.00917166666666, "type": "electric_scooter", "fusion_lon": 0.0, "lat": 38.895502666666665}, {"rental_uris": {"android": "https://dc.lft.to/lastmile_qr_scan", "ios": "https://dc.lft.to/lastmile_qr_scan"}, "is_reserved": 0, "is_disabled": 0, "name": "ca041778a0c47e9f5c8ebc82ae0c61a2", "bike_id": "ca041778a0c47e9f5c8ebc82ae0c61a2", "fusion_lat": 0.0, "lon": -77.02891116666666, "type": "electric_scooter", "fusion_lon": 0.0, "lat": 38.936082}, {"rental_uris": {"android": "https://dc.lft.to/lastmile_qr_scan", "ios": "https://dc.lft.to/lastmile_qr_scan"}, "is_reserved": 0, "is_disabled": 0, "name": "ed265b8c7bb58618fb9aaf7f980fffc4", "bike_id": "ed265b8c7bb58618fb9aaf7f980fffc4", "fusion_lat": 0.0, "lon": -77.01690883333333, "type": "electric_scooter", "fusion_lon": 0.0, "lat": 38.901340833333336}, {"rental_uris": {"android": "https://dc.lft.to/lastmile_qr_scan", "ios": "https://dc.lft.to/lastmile_qr_scan"}, "is_reserved": 0, "is_disabled": 0, "name": "1dfe956c797a974d6fdb1f3d13181e8e", "bike_id": "1dfe956c797a974d6fdb1f3d13181e8e", "fusion_lat": 0.0, "lon": -77.03653716666666, "type": "electric_scooter", "fusion_lon": 0.0, "lat": 38.93601433333333}, {"rental_uris": {"android": "https://dc.lft.to/lastmile_qr_scan", "ios": "https://dc.lft.to/lastmile_qr_scan"}, "is_reserved": 0, "is_disabled": 0, "name": "9e9b3629c4a94662f8dc47fc424f69c7", "bike_id": "9e9b3629c4a94662f8dc47fc424f69c7", "fusion_lat": 0.0, "lon": -77.02803466666667, "type": "electric_scooter", "fusion_lon": 0.0, "lat": 38.9392025}, {"rental_uris": {"android": "https://dc.lft.to/lastmile_qr_scan", "ios": "https://dc.lft.to/lastmile_qr_scan"}, "is_reserved": 0, "is_disabled": 0, "name": "d217d048aaf4043112da5bce1e487cf2", "bike_id": "d217d048aaf4043112da5bce1e487cf2", "fusion_lat": 0.0, "lon": -77.039084, "type": "electric_scooter", "fusion_lon": 0.0, "lat": 38.91403066666667}, {"rental_uris": {"android": "https://dc.lft.to/lastmile_qr_scan", "ios": "https://dc.lft.to/lastmile_qr_scan"}, "is_reserved": 0, "is_disabled": 0, "name": "bd09e3f0bbc3686ad272a6492099929f", "bike_id": "bd09e3f0bbc3686ad272a6492099929f", "fusion_lat": 0.0, "lon": -77.024762, "type": "electric_scooter", "fusion_lon": 0.0, "lat": 38.902531333333336}, {"rental_uris": {"android": "https://dc.lft.to/lastmile_qr_scan", "ios": "https://dc.lft.to/lastmile_qr_scan"}, "is_reserved": 0, "is_disabled": 0, "name": "512be850cedadd4cac9dbb76923b1e0c", "bike_id": "512be850cedadd4cac9dbb76923b1e0c", "fusion_lat": 0.0, "lon": -77.05731483333334, "type": "electric_scooter", "fusion_lon": 0.0, "lat": 38.933733833333335}, {"rental_uris": {"android": "https://dc.lft.to/lastmile_qr_scan", "ios": "https://dc.lft.to/lastmile_qr_scan"}, "is_reserved": 0, "is_disabled": 0, "name": "8fa8a0ccc94e690fa4889a6cc7b29419", "bike_id": "8fa8a0ccc94e690fa4889a6cc7b29419", "fusion_lat": 0.0, "lon": -77.03627733333333, "type": "electric_scooter", "fusion_lon": 0.0, "lat": 38.936777666666664}, {"rental_uris": {"android": "https://dc.lft.to/lastmile_qr_scan", "ios": "https://dc.lft.to/lastmile_qr_scan"}, "is_reserved": 0, "is_disabled": 0, "name": "69da1b3d413cdec5ced8e30575f72327", "bike_id": "69da1b3d413cdec5ced8e30575f72327", "fusion_lat": 0.0, "lon": -77.03462166666667, "type": "electric_scooter", "fusion_lon": 0.0, "lat": 38.9167065}, {"rental_uris": {"android": "https://dc.lft.to/lastmile_qr_scan", "ios": "https://dc.lft.to/lastmile_qr_scan"}, "is_reserved": 0, "is_disabled": 0, "name": "e310284908b04647d15f27f789cf3f86", "bike_id": "e310284908b04647d15f27f789cf3f86", "fusion_lat": 0.0, "lon": -77.04863033333334, "type": "electric_scooter", "fusion_lon": 0.0, "lat": 38.900182}, {"rental_uris": {"android": "https://dc.lft.to/lastmile_qr_scan", "ios": "https://dc.lft.to/lastmile_qr_scan"}, "is_reserved": 0, "is_disabled": 0, "name": "f06f3e745799d698c99d0e4f37f7860c", "bike_id": "f06f3e745799d698c99d0e4f37f7860c", "fusion_lat": 0.0, "lon": -77.01440616666666, "type": "electric_scooter", "fusion_lon": 0.0, "lat": 38.919522}, {"rental_uris": {"android": "https://dc.lft.to/lastmile_qr_scan", "ios": "https://dc.lft.to/lastmile_qr_scan"}, "is_reserved": 0, "is_disabled": 0, "name": "491086c16e5e15494a43a462276ffc53", "bike_id": "491086c16e5e15494a43a462276ffc53", "fusion_lat": 0.0, "lon": -77.0203215, "type": "electric_bike", "fusion_lon": 0.0, "lat": 38.9655725}, {"rental_uris": {"android": "https://dc.lft.to/lastmile_qr_scan", "ios": "https://dc.lft.to/lastmile_qr_scan"}, "is_reserved": 0, "is_disabled": 0, "name": "43d50772304887cdb1da24d0135cff49", "bike_id": "43d50772304887cdb1da24d0135cff49", "fusion_lat": 0.0, "lon": -77.02070416666666, "type": "electric_scooter", "fusion_lon": 0.0, "lat": 38.9156385}, {"rental_uris": {"android": "https://dc.lft.to/lastmile_qr_scan", "ios": "https://dc.lft.to/lastmile_qr_scan"}, "is_reserved": 0, "is_disabled": 0, "name": "5291aff770966efec90753e2a4abcf66", "bike_id": "5291aff770966efec90753e2a4abcf66", "fusion_lat": 0.0, "lon": -77.00625833333334, "type": "electric_scooter", "fusion_lon": 0.0, "lat": 38.871926333333334}, {"rental_uris": {"android": "https://dc.lft.to/lastmile_qr_scan", "ios": "https://dc.lft.to/lastmile_qr_scan"}, "is_reserved": 0, "is_disabled": 0, "name": "e22026808a5a92a2ea500348ca192680", "bike_id": "e22026808a5a92a2ea500348ca192680", "fusion_lat": 0.0, "lon": -77.00353283333334, "type": "electric_scooter", "fusion_lon": 0.0, "lat": 38.892711}, {"rental_uris": {"android": "https://dc.lft.to/lastmile_qr_scan", "ios": "https://dc.lft.to/lastmile_qr_scan"}, "is_reserved": 0, "is_disabled": 0, "name": "faa5fe07b9d6f5fb3515232d256aa1ee", "bike_id": "faa5fe07b9d6f5fb3515232d256aa1ee", "fusion_lat": 0.0, "lon": -77.03841316666667, "type": "electric_scooter", "fusion_lon": 0.0, "lat": 38.91138733333333}, {"rental_uris": {"android": "https://dc.lft.to/lastmile_qr_scan", "ios": "https://dc.lft.to/lastmile_qr_scan"}, "is_reserved": 0, "is_disabled": 0, "name": "677dd4bf7bcb6bc37826da2bc266e0a1", "bike_id": "677dd4bf7bcb6bc37826da2bc266e0a1", "fusion_lat": 0.0, "lon": -77.03803233333333, "type": "electric_scooter", "fusion_lon": 0.0, "lat": 38.92065483333333}, {"rental_uris": {"android": "https://dc.lft.to/lastmile_qr_scan", "ios": "https://dc.lft.to/lastmile_qr_scan"}, "is_reserved": 0, "is_disabled": 0, "name": "91155a9421d7b9371a68113f2b63ff5d", "bike_id": "91155a9421d7b9371a68113f2b63ff5d", "fusion_lat": 0.0, "lon": -77.044789, "type": "electric_scooter", "fusion_lon": 0.0, "lat": 38.90111383333333}, {"rental_uris": {"android": "https://dc.lft.to/lastmile_qr_scan", "ios": "https://dc.lft.to/lastmile_qr_scan"}, "is_reserved": 0, "is_disabled": 0, "name": "6b5f89043b6b0f5b9515f791f589a7c4", "bike_id": "6b5f89043b6b0f5b9515f791f589a7c4", "fusion_lat": 0.0, "lon": -77.0501885, "type": "electric_scooter", "fusion_lon": 0.0, "lat": 38.90325966666666}, {"rental_uris": {"android": "https://dc.lft.to/lastmile_qr_scan", "ios": "https://dc.lft.to/lastmile_qr_scan"}, "is_reserved": 0, "is_disabled": 0, "name": "f5c32939476d6b98fab8b71f9d2c0ec1", "bike_id": "f5c32939476d6b98fab8b71f9d2c0ec1", "fusion_lat": 0.0, "lon": -77.03184816666666, "type": "electric_scooter", "fusion_lon": 0.0, "lat": 38.914633333333335}, {"rental_uris": {"android": "https://dc.lft.to/lastmile_qr_scan", "ios": "https://dc.lft.to/lastmile_qr_scan"}, "is_reserved": 0, "is_disabled": 0, "name": "1ad549f0a3fc8589f58519d68da0045e", "bike_id": "1ad549f0a3fc8589f58519d68da0045e", "fusion_lat": 0.0, "lon": -77.01994633333334, "type": "electric_scooter", "fusion_lon": 0.0, "lat": 38.91493066666666}, {"rental_uris": {"android": "https://dc.lft.to/lastmile_qr_scan", "ios": "https://dc.lft.to/lastmile_qr_scan"}, "is_reserved": 0, "is_disabled": 0, "name": "e29bf21cf191626d89a0c60e533dfccb", "bike_id": "e29bf21cf191626d89a0c60e533dfccb", "fusion_lat": 0.0, "lon": -77.00722016666667, "type": "electric_scooter", "fusion_lon": 0.0, "lat": 38.9119135}, {"rental_uris": {"android": "https://dc.lft.to/lastmile_qr_scan", "ios": "https://dc.lft.to/lastmile_qr_scan"}, "is_reserved": 0, "is_disabled": 0, "name": "54c4ef57a6bd83d5553e5950cf0ac478", "bike_id": "54c4ef57a6bd83d5553e5950cf0ac478", "fusion_lat": 0.0, "lon": -77.02255566666666, "type": "electric_scooter", "fusion_lon": 0.0, "lat": 38.92824483333333}, {"rental_uris": {"android": "https://dc.lft.to/lastmile_qr_scan", "ios": "https://dc.lft.to/lastmile_qr_scan"}, "is_reserved": 0, "is_disabled": 0, "name": "9c1716345e1ff78090b8a7eb4eac37c1", "bike_id": "9c1716345e1ff78090b8a7eb4eac37c1", "fusion_lat": 0.0, "lon": -77.03459383333333, "type": "electric_scooter", "fusion_lon": 0.0, "lat": 38.915774166666665}, {"rental_uris": {"android": "https://dc.lft.to/lastmile_qr_scan", "ios": "https://dc.lft.to/lastmile_qr_scan"}, "is_reserved": 0, "is_disabled": 0, "name": "22e2be89e2efff281847303aef4d865c", "bike_id": "22e2be89e2efff281847303aef4d865c", "fusion_lat": 0.0, "lon": -77.01998866666666, "type": "electric_scooter", "fusion_lon": 0.0, "lat": 38.885905}, {"rental_uris": {"android": "https://dc.lft.to/lastmile_qr_scan", "ios": "https://dc.lft.to/lastmile_qr_scan"}, "is_reserved": 0, "is_disabled": 0, "name": "795c818974ffaabb33c71d9752254ef0", "bike_id": "795c818974ffaabb33c71d9752254ef0", "fusion_lat": 0.0, "lon": -77.04141083333333, "type": "electric_scooter", "fusion_lon": 0.0, "lat": 38.902816}, {"rental_uris": {"android": "https://dc.lft.to/lastmile_qr_scan", "ios": "https://dc.lft.to/lastmile_qr_scan"}, "is_reserved": 0, "is_disabled": 0, "name": "84a168f9c0b4a0c288b92be0d21e5817", "bike_id": "84a168f9c0b4a0c288b92be0d21e5817", "fusion_lat": 0.0, "lon": -77.04275883333334, "type": "electric_scooter", "fusion_lon": 0.0, "lat": 38.93230916666667}, {"rental_uris": {"android": "https://dc.lft.to/lastmile_qr_scan", "ios": "https://dc.lft.to/lastmile_qr_scan"}, "is_reserved": 0, "is_disabled": 0, "name": "54ca1d608cb6e2c6868b37471bdd2e4f", "bike_id": "54ca1d608cb6e2c6868b37471bdd2e4f", "fusion_lat": 0.0, "lon": -77.01184666666667, "type": "electric_scooter", "fusion_lon": 0.0, "lat": 38.90021866666667}, {"rental_uris": {"android": "https://dc.lft.to/lastmile_qr_scan", "ios": "https://dc.lft.to/lastmile_qr_scan"}, "is_reserved": 0, "is_disabled": 0, "name": "63267175f188b17bf9051c8cf820dd7c", "bike_id": "63267175f188b17bf9051c8cf820dd7c", "fusion_lat": 0.0, "lon": -77.046076, "type": "electric_scooter", "fusion_lon": 0.0, "lat": 38.932913666666664}, {"rental_uris": {"android": "https://dc.lft.to/lastmile_qr_scan", "ios": "https://dc.lft.to/lastmile_qr_scan"}, "is_reserved": 0, "is_disabled": 0, "name": "e196dbf0e3fce866b38e87be8be63fc6", "bike_id": "e196dbf0e3fce866b38e87be8be63fc6", "fusion_lat": 0.0, "lon": -77.02979166666667, "type": "electric_scooter", "fusion_lon": 0.0, "lat": 38.92404333333333}, {"rental_uris": {"android": "https://dc.lft.to/lastmile_qr_scan", "ios": "https://dc.lft.to/lastmile_qr_scan"}, "is_reserved": 0, "is_disabled": 0, "name": "0f9908fa98e07bc964cf60a6f5004be2", "bike_id": "0f9908fa98e07bc964cf60a6f5004be2", "fusion_lat": 0.0, "lon": -77.0260915, "type": "electric_scooter", "fusion_lon": 0.0, "lat": 38.91838166666667}, {"rental_uris": {"android": "https://dc.lft.to/lastmile_qr_scan", "ios": "https://dc.lft.to/lastmile_qr_scan"}, "is_reserved": 0, "is_disabled": 0, "name": "02d3e45be2a611212de7329e065d2e6b", "bike_id": "02d3e45be2a611212de7329e065d2e6b", "fusion_lat": 0.0, "lon": -77.07859033333334, "type": "electric_scooter", "fusion_lon": 0.0, "lat": 38.924649}, {"rental_uris": {"android": "https://dc.lft.to/lastmile_qr_scan", "ios": "https://dc.lft.to/lastmile_qr_scan"}, "is_reserved": 0, "is_disabled": 0, "name": "f87be372ccb99f164268ad32c2bdc31f", "bike_id": "f87be372ccb99f164268ad32c2bdc31f", "fusion_lat": 0.0, "lon": -77.0012185, "type": "electric_scooter", "fusion_lon": 0.0, "lat": 38.8788315}, {"rental_uris": {"android": "https://dc.lft.to/lastmile_qr_scan", "ios": "https://dc.lft.to/lastmile_qr_scan"}, "is_reserved": 0, "is_disabled": 0, "name": "c3b389d7a9e7b6916c48f9265aa0af19", "bike_id": "c3b389d7a9e7b6916c48f9265aa0af19", "fusion_lat": 0.0, "lon": -76.94460766666667, "type": "electric_scooter", "fusion_lon": 0.0, "lat": 38.890298}, {"rental_uris": {"android": "https://dc.lft.to/lastmile_qr_scan", "ios": "https://dc.lft.to/lastmile_qr_scan"}, "is_reserved": 0, "is_disabled": 0, "name": "3dcd1adb4dd2fc85ac2f375362f06334", "bike_id": "3dcd1adb4dd2fc85ac2f375362f06334", "fusion_lat": 0.0, "lon": -77.01211566666667, "type": "electric_scooter", "fusion_lon": 0.0, "lat": 38.92120083333333}, {"rental_uris": {"android": "https://dc.lft.to/lastmile_qr_scan", "ios": "https://dc.lft.to/lastmile_qr_scan"}, "is_reserved": 0, "is_disabled": 0, "name": "ab7abe41d5a18a4b462cd643131f0fed", "bike_id": "ab7abe41d5a18a4b462cd643131f0fed", "fusion_lat": 0.0, "lon": -77.03484366666666, "type": "electric_scooter", "fusion_lon": 0.0, "lat": 38.93573033333333}, {"rental_uris": {"android": "https://dc.lft.to/lastmile_qr_scan", "ios": "https://dc.lft.to/lastmile_qr_scan"}, "is_reserved": 0, "is_disabled": 0, "name": "68f83db28d25e5b05bbc81a86fce9785", "bike_id": "68f83db28d25e5b05bbc81a86fce9785", "fusion_lat": 0.0, "lon": -77.038631, "type": "electric_scooter", "fusion_lon": 0.0, "lat": 38.90975}, {"rental_uris": {"android": "https://dc.lft.to/lastmile_qr_scan", "ios": "https://dc.lft.to/lastmile_qr_scan"}, "is_reserved": 0, "is_disabled": 0, "name": "b253bd90b81f2b538f964b32286e5745", "bike_id": "b253bd90b81f2b538f964b32286e5745", "fusion_lat": 0.0, "lon": -77.053492, "type": "electric_scooter", "fusion_lon": 0.0, "lat": 38.90379566666667}, {"rental_uris": {"android": "https://dc.lft.to/lastmile_qr_scan", "ios": "https://dc.lft.to/lastmile_qr_scan"}, "is_reserved": 0, "is_disabled": 0, "name": "35f1c23510f9066ec807ec247d03f8af", "bike_id": "35f1c23510f9066ec807ec247d03f8af", "fusion_lat": 0.0, "lon": -76.9836, "type": "electric_scooter", "fusion_lon": 0.0, "lat": 38.9219875}, {"rental_uris": {"android": "https://dc.lft.to/lastmile_qr_scan", "ios": "https://dc.lft.to/lastmile_qr_scan"}, "is_reserved": 0, "is_disabled": 0, "name": "65c3746d87d3bdac1f4e68c8dded0a75", "bike_id": "65c3746d87d3bdac1f4e68c8dded0a75", "fusion_lat": 0.0, "lon": -77.0219855, "type": "electric_scooter", "fusion_lon": 0.0, "lat": 38.916473833333335}, {"rental_uris": {"android": "https://dc.lft.to/lastmile_qr_scan", "ios": "https://dc.lft.to/lastmile_qr_scan"}, "is_reserved": 0, "is_disabled": 0, "name": "6600119b313abceeb301eac025d3680f", "bike_id": "6600119b313abceeb301eac025d3680f", "fusion_lat": 0.0, "lon": -76.92367633333333, "type": "electric_scooter", "fusion_lon": 0.0, "lat": 38.89245966666667}, {"rental_uris": {"android": "https://dc.lft.to/lastmile_qr_scan", "ios": "https://dc.lft.to/lastmile_qr_scan"}, "is_reserved": 0, "is_disabled": 0, "name": "1bc3d1240f44acd844d7518b1a12fc07", "bike_id": "1bc3d1240f44acd844d7518b1a12fc07", "fusion_lat": 0.0, "lon": -76.98858266666667, "type": "electric_scooter", "fusion_lon": 0.0, "lat": 38.907013}, {"rental_uris": {"android": "https://dc.lft.to/lastmile_qr_scan", "ios": "https://dc.lft.to/lastmile_qr_scan"}, "is_reserved": 0, "is_disabled": 0, "name": "d88b4e7a7489043716b0f3397471320a", "bike_id": "d88b4e7a7489043716b0f3397471320a", "fusion_lat": 0.0, "lon": -77.0260625, "type": "electric_scooter", "fusion_lon": 0.0, "lat": 38.92035766666667}, {"rental_uris": {"android": "https://dc.lft.to/lastmile_qr_scan", "ios": "https://dc.lft.to/lastmile_qr_scan"}, "is_reserved": 0, "is_disabled": 0, "name": "f1d7ffa78b944403885e59e8a72d8ecc", "bike_id": "f1d7ffa78b944403885e59e8a72d8ecc", "fusion_lat": 0.0, "lon": -77.04172083333333, "type": "electric_scooter", "fusion_lon": 0.0, "lat": 38.917759333333336}, {"rental_uris": {"android": "https://dc.lft.to/lastmile_qr_scan", "ios": "https://dc.lft.to/lastmile_qr_scan"}, "is_reserved": 0, "is_disabled": 0, "name": "50faf1a185162a5a238ab34c518ec3bf", "bike_id": "50faf1a185162a5a238ab34c518ec3bf", "fusion_lat": 0.0, "lon": -77.00880266666667, "type": "electric_scooter", "fusion_lon": 0.0, "lat": 38.876606833333334}, {"rental_uris": {"android": "https://dc.lft.to/lastmile_qr_scan", "ios": "https://dc.lft.to/lastmile_qr_scan"}, "is_reserved": 0, "is_disabled": 0, "name": "0427902f54802271e6a8e2ad603aa7b5", "bike_id": "0427902f54802271e6a8e2ad603aa7b5", "fusion_lat": 0.0, "lon": -77.02128466666667, "type": "electric_scooter", "fusion_lon": 0.0, "lat": 38.927965666666665}, {"rental_uris": {"android": "https://dc.lft.to/lastmile_qr_scan", "ios": "https://dc.lft.to/lastmile_qr_scan"}, "is_reserved": 0, "is_disabled": 0, "name": "88c97cf122499dfd95008e23e0e3f495", "bike_id": "88c97cf122499dfd95008e23e0e3f495", "fusion_lat": 0.0, "lon": -77.02989166666667, "type": "electric_scooter", "fusion_lon": 0.0, "lat": 38.89632183333333}, {"rental_uris": {"android": "https://dc.lft.to/lastmile_qr_scan", "ios": "https://dc.lft.to/lastmile_qr_scan"}, "is_reserved": 0, "is_disabled": 0, "name": "3e26b475f7ad8ec55cc87f31693f836a", "bike_id": "3e26b475f7ad8ec55cc87f31693f836a", "fusion_lat": 0.0, "lon": -77.02966016666667, "type": "electric_scooter", "fusion_lon": 0.0, "lat": 38.925215}, {"rental_uris": {"android": "https://dc.lft.to/lastmile_qr_scan", "ios": "https://dc.lft.to/lastmile_qr_scan"}, "is_reserved": 0, "is_disabled": 0, "name": "76c09f2febd6c75ef79722e4d9b2b1d8", "bike_id": "76c09f2febd6c75ef79722e4d9b2b1d8", "fusion_lat": 0.0, "lon": -77.01974866666667, "type": "electric_scooter", "fusion_lon": 0.0, "lat": 38.912994}, {"rental_uris": {"android": "https://dc.lft.to/lastmile_qr_scan", "ios": "https://dc.lft.to/lastmile_qr_scan"}, "is_reserved": 0, "is_disabled": 0, "name": "7d3cd01c7953bb53442f75d3a93d2db4", "bike_id": "7d3cd01c7953bb53442f75d3a93d2db4", "fusion_lat": 0.0, "lon": -76.94717316666667, "type": "electric_scooter", "fusion_lon": 0.0, "lat": 38.89084483333333}, {"rental_uris": {"android": "https://dc.lft.to/lastmile_qr_scan", "ios": "https://dc.lft.to/lastmile_qr_scan"}, "is_reserved": 0, "is_disabled": 0, "name": "d7613dbe54812a248aa6a121fb0c7b94", "bike_id": "d7613dbe54812a248aa6a121fb0c7b94", "fusion_lat": 0.0, "lon": -77.0249525, "type": "electric_scooter", "fusion_lon": 0.0, "lat": 38.8942595}, {"rental_uris": {"android": "https://dc.lft.to/lastmile_qr_scan", "ios": "https://dc.lft.to/lastmile_qr_scan"}, "is_reserved": 0, "is_disabled": 0, "name": "e821489bb6055ec3a52ef0b736713aea", "bike_id": "e821489bb6055ec3a52ef0b736713aea", "fusion_lat": 0.0, "lon": -77.08952366666666, "type": "electric_bike", "fusion_lon": 0.0, "lat": 38.8410745}, {"rental_uris": {"android": "https://dc.lft.to/lastmile_qr_scan", "ios": "https://dc.lft.to/lastmile_qr_scan"}, "is_reserved": 0, "is_disabled": 0, "name": "10ccaa3fb59ed339ca4713374397412c", "bike_id": "10ccaa3fb59ed339ca4713374397412c", "fusion_lat": 0.0, "lon": -77.02802183333333, "type": "electric_scooter", "fusion_lon": 0.0, "lat": 38.91101833333333}, {"rental_uris": {"android": "https://dc.lft.to/lastmile_qr_scan", "ios": "https://dc.lft.to/lastmile_qr_scan"}, "is_reserved": 0, "is_disabled": 0, "name": "6bc083f1a8c0e5580e359e239245c299", "bike_id": "6bc083f1a8c0e5580e359e239245c299", "fusion_lat": 0.0, "lon": -77.00276066666666, "type": "electric_bike", "fusion_lon": 0.0, "lat": 38.911727166666665}, {"rental_uris": {"android": "https://dc.lft.to/lastmile_qr_scan", "ios": "https://dc.lft.to/lastmile_qr_scan"}, "is_reserved": 0, "is_disabled": 0, "name": "b03005402621ca5d419efe62d6c7e55b", "bike_id": "b03005402621ca5d419efe62d6c7e55b", "fusion_lat": 0.0, "lon": -77.02707516666666, "type": "electric_scooter", "fusion_lon": 0.0, "lat": 38.949371166666666}, {"rental_uris": {"android": "https://dc.lft.to/lastmile_qr_scan", "ios": "https://dc.lft.to/lastmile_qr_scan"}, "is_reserved": 0, "is_disabled": 0, "name": "79312878eaace0c9027b5475eaca3a78", "bike_id": "79312878eaace0c9027b5475eaca3a78", "fusion_lat": 0.0, "lon": -77.04492716666667, "type": "electric_scooter", "fusion_lon": 0.0, "lat": 38.9191575}, {"rental_uris": {"android": "https://dc.lft.to/lastmile_qr_scan", "ios": "https://dc.lft.to/lastmile_qr_scan"}, "is_reserved": 0, "is_disabled": 0, "name": "d48164fd8779d93402a3a0b24b7908f8", "bike_id": "d48164fd8779d93402a3a0b24b7908f8", "fusion_lat": 0.0, "lon": -76.95742616666666, "type": "electric_bike", "fusion_lon": 0.0, "lat": 38.888576}, {"rental_uris": {"android": "https://dc.lft.to/lastmile_qr_scan", "ios": "https://dc.lft.to/lastmile_qr_scan"}, "is_reserved": 0, "is_disabled": 0, "name": "b5c5e3b1f9bf0b707afbd365c3d6b465", "bike_id": "b5c5e3b1f9bf0b707afbd365c3d6b465", "fusion_lat": 0.0, "lon": -77.03838183333333, "type": "electric_scooter", "fusion_lon": 0.0, "lat": 38.91003666666667}, {"rental_uris": {"android": "https://dc.lft.to/lastmile_qr_scan", "ios": "https://dc.lft.to/lastmile_qr_scan"}, "is_reserved": 0, "is_disabled": 0, "name": "f25efa20b27b24682bf64849fe77a3ed", "bike_id": "f25efa20b27b24682bf64849fe77a3ed", "fusion_lat": 0.0, "lon": -77.042226, "type": "electric_scooter", "fusion_lon": 0.0, "lat": 38.921607333333334}, {"rental_uris": {"android": "https://dc.lft.to/lastmile_qr_scan", "ios": "https://dc.lft.to/lastmile_qr_scan"}, "is_reserved": 0, "is_disabled": 0, "name": "d3dbf52d6a7b2f544eaae8f4044edd5f", "bike_id": "d3dbf52d6a7b2f544eaae8f4044edd5f", "fusion_lat": 0.0, "lon": -77.029572, "type": "electric_scooter", "fusion_lon": 0.0, "lat": 38.90659266666667}, {"rental_uris": {"android": "https://dc.lft.to/lastmile_qr_scan", "ios": "https://dc.lft.to/lastmile_qr_scan"}, "is_reserved": 0, "is_disabled": 0, "name": "37eb8e4b4ee79cfa68adfe043f98a5ca", "bike_id": "37eb8e4b4ee79cfa68adfe043f98a5ca", "fusion_lat": 0.0, "lon": -76.99597516666667, "type": "electric_scooter", "fusion_lon": 0.0, "lat": 38.88429216666667}, {"rental_uris": {"android": "https://dc.lft.to/lastmile_qr_scan", "ios": "https://dc.lft.to/lastmile_qr_scan"}, "is_reserved": 0, "is_disabled": 0, "name": "8c7204063d6d2ee6dbe040a3b3e021c0", "bike_id": "8c7204063d6d2ee6dbe040a3b3e021c0", "fusion_lat": 0.0, "lon": -77.01812666666666, "type": "electric_scooter", "fusion_lon": 0.0, "lat": 38.952274}, {"rental_uris": {"android": "https://dc.lft.to/lastmile_qr_scan", "ios": "https://dc.lft.to/lastmile_qr_scan"}, "is_reserved": 0, "is_disabled": 0, "name": "582c12deb5c3b918d0f3ba3cccbbccc9", "bike_id": "582c12deb5c3b918d0f3ba3cccbbccc9", "fusion_lat": 0.0, "lon": -77.05990416666667, "type": "electric_scooter", "fusion_lon": 0.0, "lat": 38.938232666666664}, {"rental_uris": {"android": "https://dc.lft.to/lastmile_qr_scan", "ios": "https://dc.lft.to/lastmile_qr_scan"}, "is_reserved": 0, "is_disabled": 0, "name": "32ef4d0cdcae500dcc5af52276ef960c", "bike_id": "32ef4d0cdcae500dcc5af52276ef960c", "fusion_lat": 0.0, "lon": -76.903036, "type": "electric_bike", "fusion_lon": 0.0, "lat": 39.00298333333333}, {"rental_uris": {"android": "https://dc.lft.to/lastmile_qr_scan", "ios": "https://dc.lft.to/lastmile_qr_scan"}, "is_reserved": 0, "is_disabled": 0, "name": "3d629f20735a60f2f12265056cdf0b16", "bike_id": "3d629f20735a60f2f12265056cdf0b16", "fusion_lat": 0.0, "lon": -77.0298425, "type": "electric_scooter", "fusion_lon": 0.0, "lat": 38.90715766666667}, {"rental_uris": {"android": "https://dc.lft.to/lastmile_qr_scan", "ios": "https://dc.lft.to/lastmile_qr_scan"}, "is_reserved": 0, "is_disabled": 0, "name": "22513366a29d53cf4138f44e1635cd8d", "bike_id": "22513366a29d53cf4138f44e1635cd8d", "fusion_lat": 0.0, "lon": -77.05791783333333, "type": "electric_scooter", "fusion_lon": 0.0, "lat": 38.934809333333334}, {"rental_uris": {"android": "https://dc.lft.to/lastmile_qr_scan", "ios": "https://dc.lft.to/lastmile_qr_scan"}, "is_reserved": 0, "is_disabled": 0, "name": "3106544288d88cce3f211652192e6480", "bike_id": "3106544288d88cce3f211652192e6480", "fusion_lat": 0.0, "lon": -77.02970833333333, "type": "electric_scooter", "fusion_lon": 0.0, "lat": 38.8923095}, {"rental_uris": {"android": "https://dc.lft.to/lastmile_qr_scan", "ios": "https://dc.lft.to/lastmile_qr_scan"}, "is_reserved": 0, "is_disabled": 0, "name": "2e9a2912ba9487a18137971d162c4150", "bike_id": "2e9a2912ba9487a18137971d162c4150", "fusion_lat": 0.0, "lon": -77.0129025, "type": "electric_scooter", "fusion_lon": 0.0, "lat": 38.898376166666665}, {"rental_uris": {"android": "https://dc.lft.to/lastmile_qr_scan", "ios": "https://dc.lft.to/lastmile_qr_scan"}, "is_reserved": 0, "is_disabled": 0, "name": "de00b39959e7bccd3c69b8e4709ae7c4", "bike_id": "de00b39959e7bccd3c69b8e4709ae7c4", "fusion_lat": 0.0, "lon": -77.028988, "type": "electric_bike", "fusion_lon": 0.0, "lat": 38.995578}, {"rental_uris": {"android": "https://dc.lft.to/lastmile_qr_scan", "ios": "https://dc.lft.to/lastmile_qr_scan"}, "is_reserved": 0, "is_disabled": 0, "name": "c932e87eca806f83dc4974d42de5e34d", "bike_id": "c932e87eca806f83dc4974d42de5e34d", "fusion_lat": 0.0, "lon": -76.99849666666667, "type": "electric_scooter", "fusion_lon": 0.0, "lat": 38.90645466666667}, {"rental_uris": {"android": "https://dc.lft.to/lastmile_qr_scan", "ios": "https://dc.lft.to/lastmile_qr_scan"}, "is_reserved": 0, "is_disabled": 0, "name": "deb7bfbaf02efcea32212ab13b94eddf", "bike_id": "deb7bfbaf02efcea32212ab13b94eddf", "fusion_lat": 0.0, "lon": -77.01213816666667, "type": "electric_scooter", "fusion_lon": 0.0, "lat": 38.89802}, {"rental_uris": {"android": "https://dc.lft.to/lastmile_qr_scan", "ios": "https://dc.lft.to/lastmile_qr_scan"}, "is_reserved": 0, "is_disabled": 0, "name": "ddbcb3905df80250c9c4e74693acc753", "bike_id": "ddbcb3905df80250c9c4e74693acc753", "fusion_lat": 0.0, "lon": -77.02509283333333, "type": "electric_scooter", "fusion_lon": 0.0, "lat": 38.92092266666667}, {"rental_uris": {"android": "https://dc.lft.to/lastmile_qr_scan", "ios": "https://dc.lft.to/lastmile_qr_scan"}, "is_reserved": 0, "is_disabled": 0, "name": "c62a03514c9b912c0c81344f5345b837", "bike_id": "c62a03514c9b912c0c81344f5345b837", "fusion_lat": 0.0, "lon": -77.01146333333334, "type": "electric_scooter", "fusion_lon": 0.0, "lat": 38.92962516666667}, {"rental_uris": {"android": "https://dc.lft.to/lastmile_qr_scan", "ios": "https://dc.lft.to/lastmile_qr_scan"}, "is_reserved": 0, "is_disabled": 0, "name": "3dec4c9a2188e1402d407222be49e8f5", "bike_id": "3dec4c9a2188e1402d407222be49e8f5", "fusion_lat": 0.0, "lon": -76.9821095, "type": "electric_bike", "fusion_lon": 0.0, "lat": 38.98506616666667}, {"rental_uris": {"android": "https://dc.lft.to/lastmile_qr_scan", "ios": "https://dc.lft.to/lastmile_qr_scan"}, "is_reserved": 0, "is_disabled": 0, "name": "53fa6ac887b201cd43a95867957a4ddf", "bike_id": "53fa6ac887b201cd43a95867957a4ddf", "fusion_lat": 0.0, "lon": -77.03570133333334, "type": "electric_scooter", "fusion_lon": 0.0, "lat": 38.92475833333334}, {"rental_uris": {"android": "https://dc.lft.to/lastmile_qr_scan", "ios": "https://dc.lft.to/lastmile_qr_scan"}, "is_reserved": 0, "is_disabled": 0, "name": "c7850f0b77f395c1eb2fae47705e9e09", "bike_id": "c7850f0b77f395c1eb2fae47705e9e09", "fusion_lat": 0.0, "lon": -77.02025916666666, "type": "electric_scooter", "fusion_lon": 0.0, "lat": 38.924409}, {"rental_uris": {"android": "https://dc.lft.to/lastmile_qr_scan", "ios": "https://dc.lft.to/lastmile_qr_scan"}, "is_reserved": 0, "is_disabled": 0, "name": "5a89086ff2eac3a072b909bcfcbc711a", "bike_id": "5a89086ff2eac3a072b909bcfcbc711a", "fusion_lat": 0.0, "lon": -77.07104533333333, "type": "electric_scooter", "fusion_lon": 0.0, "lat": 38.919594833333335}, {"rental_uris": {"android": "https://dc.lft.to/lastmile_qr_scan", "ios": "https://dc.lft.to/lastmile_qr_scan"}, "is_reserved": 0, "is_disabled": 0, "name": "b35c72b2774e326fe97b4274a7dbca22", "bike_id": "b35c72b2774e326fe97b4274a7dbca22", "fusion_lat": 0.0, "lon": -77.00311033333334, "type": "electric_scooter", "fusion_lon": 0.0, "lat": 38.8947995}, {"rental_uris": {"android": "https://dc.lft.to/lastmile_qr_scan", "ios": "https://dc.lft.to/lastmile_qr_scan"}, "is_reserved": 0, "is_disabled": 0, "name": "4ee6d7e8126e71e635bd01e80891aacf", "bike_id": "4ee6d7e8126e71e635bd01e80891aacf", "fusion_lat": 0.0, "lon": -77.03375966666667, "type": "electric_scooter", "fusion_lon": 0.0, "lat": 38.900341166666664}, {"rental_uris": {"android": "https://dc.lft.to/lastmile_qr_scan", "ios": "https://dc.lft.to/lastmile_qr_scan"}, "is_reserved": 0, "is_disabled": 0, "name": "6fd8b9f8a0b82ce998a1426636d0a101", "bike_id": "6fd8b9f8a0b82ce998a1426636d0a101", "fusion_lat": 0.0, "lon": -77.0281325, "type": "electric_scooter", "fusion_lon": 0.0, "lat": 38.904653833333334}, {"rental_uris": {"android": "https://dc.lft.to/lastmile_qr_scan", "ios": "https://dc.lft.to/lastmile_qr_scan"}, "is_reserved": 0, "is_disabled": 0, "name": "77c237cae84b79c74998c2df187d5055", "bike_id": "77c237cae84b79c74998c2df187d5055", "fusion_lat": 0.0, "lon": -77.01554766666666, "type": "electric_scooter", "fusion_lon": 0.0, "lat": 38.927898166666665}, {"rental_uris": {"android": "https://dc.lft.to/lastmile_qr_scan", "ios": "https://dc.lft.to/lastmile_qr_scan"}, "is_reserved": 0, "is_disabled": 0, "name": "e61d0738f7d721f9590aa7c8077575cf", "bike_id": "e61d0738f7d721f9590aa7c8077575cf", "fusion_lat": 0.0, "lon": -77.0173925, "type": "electric_scooter", "fusion_lon": 0.0, "lat": 38.90259783333333}, {"rental_uris": {"android": "https://dc.lft.to/lastmile_qr_scan", "ios": "https://dc.lft.to/lastmile_qr_scan"}, "is_reserved": 0, "is_disabled": 0, "name": "219cbcef165488876411f655392ad31a", "bike_id": "219cbcef165488876411f655392ad31a", "fusion_lat": 0.0, "lon": -77.04653216666667, "type": "electric_scooter", "fusion_lon": 0.0, "lat": 38.89742066666667}, {"rental_uris": {"android": "https://dc.lft.to/lastmile_qr_scan", "ios": "https://dc.lft.to/lastmile_qr_scan"}, "is_reserved": 0, "is_disabled": 0, "name": "cda61a3bff6fca3a8781cadadc8a4f5b", "bike_id": "cda61a3bff6fca3a8781cadadc8a4f5b", "fusion_lat": 0.0, "lon": -77.0543225, "type": "electric_scooter", "fusion_lon": 0.0, "lat": 38.92350833333333}, {"rental_uris": {"android": "https://dc.lft.to/lastmile_qr_scan", "ios": "https://dc.lft.to/lastmile_qr_scan"}, "is_reserved": 0, "is_disabled": 0, "name": "a5171d43bcc71ec975d8ffca253d0fb6", "bike_id": "a5171d43bcc71ec975d8ffca253d0fb6", "fusion_lat": 0.0, "lon": -76.96089933333333, "type": "electric_scooter", "fusion_lon": 0.0, "lat": 38.918566166666665}, {"rental_uris": {"android": "https://dc.lft.to/lastmile_qr_scan", "ios": "https://dc.lft.to/lastmile_qr_scan"}, "is_reserved": 0, "is_disabled": 0, "name": "42d9fdd0fafd3677489962e5cd0df470", "bike_id": "42d9fdd0fafd3677489962e5cd0df470", "fusion_lat": 0.0, "lon": -77.04403083333334, "type": "electric_scooter", "fusion_lon": 0.0, "lat": 38.895921}, {"rental_uris": {"android": "https://dc.lft.to/lastmile_qr_scan", "ios": "https://dc.lft.to/lastmile_qr_scan"}, "is_reserved": 0, "is_disabled": 0, "name": "3c754636ca7de6ed722b69ce2934d920", "bike_id": "3c754636ca7de6ed722b69ce2934d920", "fusion_lat": 0.0, "lon": -77.02277833333333, "type": "electric_scooter", "fusion_lon": 0.0, "lat": 38.899818}, {"rental_uris": {"android": "https://dc.lft.to/lastmile_qr_scan", "ios": "https://dc.lft.to/lastmile_qr_scan"}, "is_reserved": 0, "is_disabled": 0, "name": "408fc4462e2f7a5548939efcd892dc99", "bike_id": "408fc4462e2f7a5548939efcd892dc99", "fusion_lat": 0.0, "lon": -77.099618, "type": "electric_bike", "fusion_lon": 0.0, "lat": 38.857887833333336}, {"rental_uris": {"android": "https://dc.lft.to/lastmile_qr_scan", "ios": "https://dc.lft.to/lastmile_qr_scan"}, "is_reserved": 0, "is_disabled": 0, "name": "ddce91017c645096d09c8174c3675326", "bike_id": "ddce91017c645096d09c8174c3675326", "fusion_lat": 0.0, "lon": -77.03436983333333, "type": "electric_scooter", "fusion_lon": 0.0, "lat": 38.91795033333333}, {"rental_uris": {"android": "https://dc.lft.to/lastmile_qr_scan", "ios": "https://dc.lft.to/lastmile_qr_scan"}, "is_reserved": 0, "is_disabled": 0, "name": "e4be103c0b99e5a0f3d8fb7fae88d2bc", "bike_id": "e4be103c0b99e5a0f3d8fb7fae88d2bc", "fusion_lat": 0.0, "lon": -77.01977466666666, "type": "electric_scooter", "fusion_lon": 0.0, "lat": 38.905046666666664}, {"rental_uris": {"android": "https://dc.lft.to/lastmile_qr_scan", "ios": "https://dc.lft.to/lastmile_qr_scan"}, "is_reserved": 0, "is_disabled": 0, "name": "552613d02da5993fb06fc9498319f878", "bike_id": "552613d02da5993fb06fc9498319f878", "fusion_lat": 0.0, "lon": -77.02280366666666, "type": "electric_scooter", "fusion_lon": 0.0, "lat": 38.91776266666667}, {"rental_uris": {"android": "https://dc.lft.to/lastmile_qr_scan", "ios": "https://dc.lft.to/lastmile_qr_scan"}, "is_reserved": 0, "is_disabled": 0, "name": "671ee35bf2ff913f1249b40bd4cc499f", "bike_id": "671ee35bf2ff913f1249b40bd4cc499f", "fusion_lat": 0.0, "lon": -77.04874616666666, "type": "electric_scooter", "fusion_lon": 0.0, "lat": 38.919776666666664}, {"rental_uris": {"android": "https://dc.lft.to/lastmile_qr_scan", "ios": "https://dc.lft.to/lastmile_qr_scan"}, "is_reserved": 0, "is_disabled": 0, "name": "dc68bf4cf164118db1375e7b6f0ba4c8", "bike_id": "dc68bf4cf164118db1375e7b6f0ba4c8", "fusion_lat": 0.0, "lon": -77.0945375, "type": "electric_bike", "fusion_lon": 0.0, "lat": 38.80754833333334}, {"rental_uris": {"android": "https://dc.lft.to/lastmile_qr_scan", "ios": "https://dc.lft.to/lastmile_qr_scan"}, "is_reserved": 0, "is_disabled": 0, "name": "30fec7b33703c2f28b2b331db04a10d5", "bike_id": "30fec7b33703c2f28b2b331db04a10d5", "fusion_lat": 0.0, "lon": -76.92923316666666, "type": "electric_scooter", "fusion_lon": 0.0, "lat": 38.89207366666667}, {"rental_uris": {"android": "https://dc.lft.to/lastmile_qr_scan", "ios": "https://dc.lft.to/lastmile_qr_scan"}, "is_reserved": 0, "is_disabled": 0, "name": "f5fba4e63dda10db08738a4e30487ec3", "bike_id": "f5fba4e63dda10db08738a4e30487ec3", "fusion_lat": 0.0, "lon": -77.0515565, "type": "electric_scooter", "fusion_lon": 0.0, "lat": 38.90619933333333}, {"rental_uris": {"android": "https://dc.lft.to/lastmile_qr_scan", "ios": "https://dc.lft.to/lastmile_qr_scan"}, "is_reserved": 0, "is_disabled": 0, "name": "df5877ee319be22892927158038f9df3", "bike_id": "df5877ee319be22892927158038f9df3", "fusion_lat": 0.0, "lon": -77.02142833333333, "type": "electric_scooter", "fusion_lon": 0.0, "lat": 38.92747383333333}, {"rental_uris": {"android": "https://dc.lft.to/lastmile_qr_scan", "ios": "https://dc.lft.to/lastmile_qr_scan"}, "is_reserved": 0, "is_disabled": 0, "name": "901ca8cd450a3dc8265793f9d8075533", "bike_id": "901ca8cd450a3dc8265793f9d8075533", "fusion_lat": 0.0, "lon": -76.933621, "type": "electric_scooter", "fusion_lon": 0.0, "lat": 38.89837766666667}, {"rental_uris": {"android": "https://dc.lft.to/lastmile_qr_scan", "ios": "https://dc.lft.to/lastmile_qr_scan"}, "is_reserved": 0, "is_disabled": 0, "name": "661cd4d0fad931f466469a0a095528f2", "bike_id": "661cd4d0fad931f466469a0a095528f2", "fusion_lat": 0.0, "lon": -77.03248683333334, "type": "electric_scooter", "fusion_lon": 0.0, "lat": 38.919916666666666}, {"rental_uris": {"android": "https://dc.lft.to/lastmile_qr_scan", "ios": "https://dc.lft.to/lastmile_qr_scan"}, "is_reserved": 0, "is_disabled": 0, "name": "fd297a9806257450be8af454f0808b0a", "bike_id": "fd297a9806257450be8af454f0808b0a", "fusion_lat": 0.0, "lon": -77.03857833333333, "type": "electric_scooter", "fusion_lon": 0.0, "lat": 38.916828333333335}, {"rental_uris": {"android": "https://dc.lft.to/lastmile_qr_scan", "ios": "https://dc.lft.to/lastmile_qr_scan"}, "is_reserved": 0, "is_disabled": 0, "name": "ca11a81482f5c91258cf38878926e1d1", "bike_id": "ca11a81482f5c91258cf38878926e1d1", "fusion_lat": 0.0, "lon": -77.102896, "type": "electric_bike", "fusion_lon": 0.0, "lat": 38.852544333333334}, {"rental_uris": {"android": "https://dc.lft.to/lastmile_qr_scan", "ios": "https://dc.lft.to/lastmile_qr_scan"}, "is_reserved": 0, "is_disabled": 0, "name": "62aa2d4399fcbb6be23e962fb176a3f9", "bike_id": "62aa2d4399fcbb6be23e962fb176a3f9", "fusion_lat": 0.0, "lon": -77.036555, "type": "electric_bike", "fusion_lon": 0.0, "lat": 38.936312}, {"rental_uris": {"android": "https://dc.lft.to/lastmile_qr_scan", "ios": "https://dc.lft.to/lastmile_qr_scan"}, "is_reserved": 0, "is_disabled": 0, "name": "5c39c3a99c78039a4e12ca53d3561112", "bike_id": "5c39c3a99c78039a4e12ca53d3561112", "fusion_lat": 0.0, "lon": -77.01449416666667, "type": "electric_scooter", "fusion_lon": 0.0, "lat": 38.958184333333335}, {"rental_uris": {"android": "https://dc.lft.to/lastmile_qr_scan", "ios": "https://dc.lft.to/lastmile_qr_scan"}, "is_reserved": 0, "is_disabled": 0, "name": "8519be7a6189abbbff8a7c2fab754826", "bike_id": "8519be7a6189abbbff8a7c2fab754826", "fusion_lat": 0.0, "lon": -77.03359733333333, "type": "electric_scooter", "fusion_lon": 0.0, "lat": 38.93586366666667}, {"rental_uris": {"android": "https://dc.lft.to/lastmile_qr_scan", "ios": "https://dc.lft.to/lastmile_qr_scan"}, "is_reserved": 0, "is_disabled": 0, "name": "c99f43d6f6270e5ce63261ed1af93447", "bike_id": "c99f43d6f6270e5ce63261ed1af93447", "fusion_lat": 0.0, "lon": -77.00453116666667, "type": "electric_scooter", "fusion_lon": 0.0, "lat": 38.911493166666666}, {"rental_uris": {"android": "https://dc.lft.to/lastmile_qr_scan", "ios": "https://dc.lft.to/lastmile_qr_scan"}, "is_reserved": 0, "is_disabled": 0, "name": "9c34bc6b91bb1407dcde574d39c1e2a6", "bike_id": "9c34bc6b91bb1407dcde574d39c1e2a6", "fusion_lat": 0.0, "lon": -77.0791945, "type": "electric_bike", "fusion_lon": 0.0, "lat": 38.8382705}, {"rental_uris": {"android": "https://dc.lft.to/lastmile_qr_scan", "ios": "https://dc.lft.to/lastmile_qr_scan"}, "is_reserved": 0, "is_disabled": 0, "name": "c90e300ff7fe168d1f5bb6a964094e08", "bike_id": "c90e300ff7fe168d1f5bb6a964094e08", "fusion_lat": 0.0, "lon": -77.0354885, "type": "electric_scooter", "fusion_lon": 0.0, "lat": 38.91824366666667}, {"rental_uris": {"android": "https://dc.lft.to/lastmile_qr_scan", "ios": "https://dc.lft.to/lastmile_qr_scan"}, "is_reserved": 0, "is_disabled": 0, "name": "bc87f6983a1e7bed1c3e824b961bddec", "bike_id": "bc87f6983a1e7bed1c3e824b961bddec", "fusion_lat": 0.0, "lon": -77.01951, "type": "electric_scooter", "fusion_lon": 0.0, "lat": 38.923316666666665}, {"rental_uris": {"android": "https://dc.lft.to/lastmile_qr_scan", "ios": "https://dc.lft.to/lastmile_qr_scan"}, "is_reserved": 0, "is_disabled": 0, "name": "25441cdcdd8238e2d5ac10b8cf12a583", "bike_id": "25441cdcdd8238e2d5ac10b8cf12a583", "fusion_lat": 0.0, "lon": -77.02570533333333, "type": "electric_scooter", "fusion_lon": 0.0, "lat": 38.948508333333336}, {"rental_uris": {"android": "https://dc.lft.to/lastmile_qr_scan", "ios": "https://dc.lft.to/lastmile_qr_scan"}, "is_reserved": 0, "is_disabled": 0, "name": "669cb1ae5de8224d706e99dcf4728a92", "bike_id": "669cb1ae5de8224d706e99dcf4728a92", "fusion_lat": 0.0, "lon": -77.06529683333333, "type": "electric_scooter", "fusion_lon": 0.0, "lat": 38.905355}, {"rental_uris": {"android": "https://dc.lft.to/lastmile_qr_scan", "ios": "https://dc.lft.to/lastmile_qr_scan"}, "is_reserved": 0, "is_disabled": 0, "name": "1e4192448499e21c06b0b80bab7b98b2", "bike_id": "1e4192448499e21c06b0b80bab7b98b2", "fusion_lat": 0.0, "lon": -77.04519, "type": "electric_scooter", "fusion_lon": 0.0, "lat": 38.91824}, {"rental_uris": {"android": "https://dc.lft.to/lastmile_qr_scan", "ios": "https://dc.lft.to/lastmile_qr_scan"}, "is_reserved": 0, "is_disabled": 0, "name": "9323eb0370f5297f18b4c3640b8229c1", "bike_id": "9323eb0370f5297f18b4c3640b8229c1", "fusion_lat": 0.0, "lon": -77.00652433333333, "type": "electric_scooter", "fusion_lon": 0.0, "lat": 38.90983416666667}, {"rental_uris": {"android": "https://dc.lft.to/lastmile_qr_scan", "ios": "https://dc.lft.to/lastmile_qr_scan"}, "is_reserved": 0, "is_disabled": 0, "name": "a55601e3d22a5d5e2189484077b847a7", "bike_id": "a55601e3d22a5d5e2189484077b847a7", "fusion_lat": 0.0, "lon": -77.02424266666667, "type": "electric_scooter", "fusion_lon": 0.0, "lat": 38.92093916666666}, {"rental_uris": {"android": "https://dc.lft.to/lastmile_qr_scan", "ios": "https://dc.lft.to/lastmile_qr_scan"}, "is_reserved": 0, "is_disabled": 0, "name": "32aea1ba9d4453efbc13baf447d2975f", "bike_id": "32aea1ba9d4453efbc13baf447d2975f", "fusion_lat": 0.0, "lon": -77.02385016666666, "type": "electric_scooter", "fusion_lon": 0.0, "lat": 38.93711883333334}, {"rental_uris": {"android": "https://dc.lft.to/lastmile_qr_scan", "ios": "https://dc.lft.to/lastmile_qr_scan"}, "is_reserved": 0, "is_disabled": 0, "name": "d2213a925125a9a339c37dee5afced66", "bike_id": "d2213a925125a9a339c37dee5afced66", "fusion_lat": 0.0, "lon": -77.23177016666666, "type": "electric_bike", "fusion_lon": 0.0, "lat": 38.92894}, {"rental_uris": {"android": "https://dc.lft.to/lastmile_qr_scan", "ios": "https://dc.lft.to/lastmile_qr_scan"}, "is_reserved": 0, "is_disabled": 0, "name": "a1977a314f305e3c300ba85afe8527c7", "bike_id": "a1977a314f305e3c300ba85afe8527c7", "fusion_lat": 0.0, "lon": -76.97957866666667, "type": "electric_bike", "fusion_lon": 0.0, "lat": 38.92037466666667}, {"rental_uris": {"android": "https://dc.lft.to/lastmile_qr_scan", "ios": "https://dc.lft.to/lastmile_qr_scan"}, "is_reserved": 0, "is_disabled": 0, "name": "e6abd8b183b55abd15b0589c895afb71", "bike_id": "e6abd8b183b55abd15b0589c895afb71", "fusion_lat": 0.0, "lon": -77.0363685, "type": "electric_bike", "fusion_lon": 0.0, "lat": 38.92745133333333}, {"rental_uris": {"android": "https://dc.lft.to/lastmile_qr_scan", "ios": "https://dc.lft.to/lastmile_qr_scan"}, "is_reserved": 0, "is_disabled": 0, "name": "c359aed244de72a6bd5a1f7961e9c438", "bike_id": "c359aed244de72a6bd5a1f7961e9c438", "fusion_lat": 0.0, "lon": -77.02096866666666, "type": "electric_scooter", "fusion_lon": 0.0, "lat": 38.92126283333333}, {"rental_uris": {"android": "https://dc.lft.to/lastmile_qr_scan", "ios": "https://dc.lft.to/lastmile_qr_scan"}, "is_reserved": 0, "is_disabled": 0, "name": "ac465e6269a09caa7690d8ddeb27f85b", "bike_id": "ac465e6269a09caa7690d8ddeb27f85b", "fusion_lat": 0.0, "lon": -77.0342275, "type": "electric_scooter", "fusion_lon": 0.0, "lat": 38.91405133333333}, {"rental_uris": {"android": "https://dc.lft.to/lastmile_qr_scan", "ios": "https://dc.lft.to/lastmile_qr_scan"}, "is_reserved": 0, "is_disabled": 0, "name": "d905b516e515422deb26e1e311be2af7", "bike_id": "d905b516e515422deb26e1e311be2af7", "fusion_lat": 0.0, "lon": -76.99560333333334, "type": "electric_bike", "fusion_lon": 0.0, "lat": 38.86197266666667}, {"rental_uris": {"android": "https://dc.lft.to/lastmile_qr_scan", "ios": "https://dc.lft.to/lastmile_qr_scan"}, "is_reserved": 0, "is_disabled": 0, "name": "57e2412556bb77d7d375e0b88470e263", "bike_id": "57e2412556bb77d7d375e0b88470e263", "fusion_lat": 0.0, "lon": -77.11287583333333, "type": "electric_bike", "fusion_lon": 0.0, "lat": 38.83106433333333}, {"rental_uris": {"android": "https://dc.lft.to/lastmile_qr_scan", "ios": "https://dc.lft.to/lastmile_qr_scan"}, "is_reserved": 0, "is_disabled": 0, "name": "6f4fb5f63ded5373358520de8cb97f04", "bike_id": "6f4fb5f63ded5373358520de8cb97f04", "fusion_lat": 0.0, "lon": -77.02313766666667, "type": "electric_scooter", "fusion_lon": 0.0, "lat": 38.89482566666667}, {"rental_uris": {"android": "https://dc.lft.to/lastmile_qr_scan", "ios": "https://dc.lft.to/lastmile_qr_scan"}, "is_reserved": 0, "is_disabled": 0, "name": "c2c700d30600a3d488096138dd64d047", "bike_id": "c2c700d30600a3d488096138dd64d047", "fusion_lat": 0.0, "lon": -77.02835, "type": "electric_scooter", "fusion_lon": 0.0, "lat": 38.931704833333335}, {"rental_uris": {"android": "https://dc.lft.to/lastmile_qr_scan", "ios": "https://dc.lft.to/lastmile_qr_scan"}, "is_reserved": 0, "is_disabled": 0, "name": "cd3ddb32c5e601f4920f49750c8b9088", "bike_id": "cd3ddb32c5e601f4920f49750c8b9088", "fusion_lat": 0.0, "lon": -77.020056, "type": "electric_bike", "fusion_lon": 0.0, "lat": 39.02624133333333}, {"rental_uris": {"android": "https://dc.lft.to/lastmile_qr_scan", "ios": "https://dc.lft.to/lastmile_qr_scan"}, "is_reserved": 0, "is_disabled": 0, "name": "1e931cce1a4c114fcf74a57ce6c18987", "bike_id": "1e931cce1a4c114fcf74a57ce6c18987", "fusion_lat": 0.0, "lon": -77.02932233333334, "type": "electric_scooter", "fusion_lon": 0.0, "lat": 38.92081816666666}, {"rental_uris": {"android": "https://dc.lft.to/lastmile_qr_scan", "ios": "https://dc.lft.to/lastmile_qr_scan"}, "is_reserved": 0, "is_disabled": 0, "name": "61d537e294b1568bb03c964f16e0e42e", "bike_id": "61d537e294b1568bb03c964f16e0e42e", "fusion_lat": 0.0, "lon": -77.0082045, "type": "electric_scooter", "fusion_lon": 0.0, "lat": 38.915644666666665}, {"rental_uris": {"android": "https://dc.lft.to/lastmile_qr_scan", "ios": "https://dc.lft.to/lastmile_qr_scan"}, "is_reserved": 0, "is_disabled": 0, "name": "abe8be37106451911dfba96c9bf7287d", "bike_id": "abe8be37106451911dfba96c9bf7287d", "fusion_lat": 0.0, "lon": -77.02151516666666, "type": "electric_scooter", "fusion_lon": 0.0, "lat": 38.925012333333335}, {"rental_uris": {"android": "https://dc.lft.to/lastmile_qr_scan", "ios": "https://dc.lft.to/lastmile_qr_scan"}, "is_reserved": 0, "is_disabled": 0, "name": "571045ef0ca8fa081526e4bf4fa5f119", "bike_id": "571045ef0ca8fa081526e4bf4fa5f119", "fusion_lat": 0.0, "lon": -77.02687433333334, "type": "electric_scooter", "fusion_lon": 0.0, "lat": 38.930825}, {"rental_uris": {"android": "https://dc.lft.to/lastmile_qr_scan", "ios": "https://dc.lft.to/lastmile_qr_scan"}, "is_reserved": 0, "is_disabled": 0, "name": "bd5998493487511d2597cf14272ed60b", "bike_id": "bd5998493487511d2597cf14272ed60b", "fusion_lat": 0.0, "lon": -77.0355835, "type": "electric_scooter", "fusion_lon": 0.0, "lat": 38.92750816666667}, {"rental_uris": {"android": "https://dc.lft.to/lastmile_qr_scan", "ios": "https://dc.lft.to/lastmile_qr_scan"}, "is_reserved": 0, "is_disabled": 0, "name": "0f834fd8c851272ee29bb1c43fdc1fe5", "bike_id": "0f834fd8c851272ee29bb1c43fdc1fe5", "fusion_lat": 0.0, "lon": -77.07249766666666, "type": "electric_scooter", "fusion_lon": 0.0, "lat": 38.9077985}, {"rental_uris": {"android": "https://dc.lft.to/lastmile_qr_scan", "ios": "https://dc.lft.to/lastmile_qr_scan"}, "is_reserved": 0, "is_disabled": 0, "name": "21efb1ce53a8b9182526eeb912b96ae3", "bike_id": "21efb1ce53a8b9182526eeb912b96ae3", "fusion_lat": 0.0, "lon": -76.97567883333333, "type": "electric_scooter", "fusion_lon": 0.0, "lat": 38.94421533333333}, {"rental_uris": {"android": "https://dc.lft.to/lastmile_qr_scan", "ios": "https://dc.lft.to/lastmile_qr_scan"}, "is_reserved": 0, "is_disabled": 0, "name": "e3a1ca773430cdfbc64c1cc613c662b5", "bike_id": "e3a1ca773430cdfbc64c1cc613c662b5", "fusion_lat": 0.0, "lon": -77.07337933333334, "type": "electric_scooter", "fusion_lon": 0.0, "lat": 38.96094266666667}, {"rental_uris": {"android": "https://dc.lft.to/lastmile_qr_scan", "ios": "https://dc.lft.to/lastmile_qr_scan"}, "is_reserved": 0, "is_disabled": 0, "name": "cb9aa01aa3c02579dbe345e557be23d8", "bike_id": "cb9aa01aa3c02579dbe345e557be23d8", "fusion_lat": 0.0, "lon": -76.9897435, "type": "electric_bike", "fusion_lon": 0.0, "lat": 38.93067416666667}, {"rental_uris": {"android": "https://dc.lft.to/lastmile_qr_scan", "ios": "https://dc.lft.to/lastmile_qr_scan"}, "is_reserved": 0, "is_disabled": 0, "name": "495869a1bd94a3572c7cca6e8cd5eae6", "bike_id": "495869a1bd94a3572c7cca6e8cd5eae6", "fusion_lat": 0.0, "lon": -77.00133616666666, "type": "electric_bike", "fusion_lon": 0.0, "lat": 38.994983166666664}, {"rental_uris": {"android": "https://dc.lft.to/lastmile_qr_scan", "ios": "https://dc.lft.to/lastmile_qr_scan"}, "is_reserved": 0, "is_disabled": 0, "name": "9e074bca65fac18d2a06b26287e750a7", "bike_id": "9e074bca65fac18d2a06b26287e750a7", "fusion_lat": 0.0, "lon": -76.94929533333334, "type": "electric_scooter", "fusion_lon": 0.0, "lat": 38.89532883333333}, {"rental_uris": {"android": "https://dc.lft.to/lastmile_qr_scan", "ios": "https://dc.lft.to/lastmile_qr_scan"}, "is_reserved": 0, "is_disabled": 0, "name": "adb60c8ee1fa76af3f32f2bd7430a476", "bike_id": "adb60c8ee1fa76af3f32f2bd7430a476", "fusion_lat": 0.0, "lon": -77.0259165, "type": "electric_scooter", "fusion_lon": 0.0, "lat": 38.90433783333334}, {"rental_uris": {"android": "https://dc.lft.to/lastmile_qr_scan", "ios": "https://dc.lft.to/lastmile_qr_scan"}, "is_reserved": 0, "is_disabled": 0, "name": "8ca7238eee95288aef42529731397c3e", "bike_id": "8ca7238eee95288aef42529731397c3e", "fusion_lat": 0.0, "lon": -77.0217215, "type": "electric_scooter", "fusion_lon": 0.0, "lat": 38.899403}, {"rental_uris": {"android": "https://dc.lft.to/lastmile_qr_scan", "ios": "https://dc.lft.to/lastmile_qr_scan"}, "is_reserved": 0, "is_disabled": 0, "name": "09a752c1b5896f2762fca3b6fc8e59ef", "bike_id": "09a752c1b5896f2762fca3b6fc8e59ef", "fusion_lat": 0.0, "lon": -77.04603233333333, "type": "electric_scooter", "fusion_lon": 0.0, "lat": 38.9151425}, {"rental_uris": {"android": "https://dc.lft.to/lastmile_qr_scan", "ios": "https://dc.lft.to/lastmile_qr_scan"}, "is_reserved": 0, "is_disabled": 0, "name": "78949e2dfd701cc0769045f3b5a186fc", "bike_id": "78949e2dfd701cc0769045f3b5a186fc", "fusion_lat": 0.0, "lon": -77.02200216666667, "type": "electric_scooter", "fusion_lon": 0.0, "lat": 38.89951716666667}, {"rental_uris": {"android": "https://dc.lft.to/lastmile_qr_scan", "ios": "https://dc.lft.to/lastmile_qr_scan"}, "is_reserved": 0, "is_disabled": 0, "name": "4b0a833e66b83bf1b77d367c55a6d442", "bike_id": "4b0a833e66b83bf1b77d367c55a6d442", "fusion_lat": 0.0, "lon": -76.95792833333333, "type": "electric_bike", "fusion_lon": 0.0, "lat": 38.98042933333333}, {"rental_uris": {"android": "https://dc.lft.to/lastmile_qr_scan", "ios": "https://dc.lft.to/lastmile_qr_scan"}, "is_reserved": 0, "is_disabled": 0, "name": "b774e247c2df2374e41831a2c43a2314", "bike_id": "b774e247c2df2374e41831a2c43a2314", "fusion_lat": 0.0, "lon": -77.02512483333334, "type": "electric_scooter", "fusion_lon": 0.0, "lat": 38.89953966666667}, {"rental_uris": {"android": "https://dc.lft.to/lastmile_qr_scan", "ios": "https://dc.lft.to/lastmile_qr_scan"}, "is_reserved": 0, "is_disabled": 0, "name": "aa3ee127374fdc5c7340d39ac9f11b28", "bike_id": "aa3ee127374fdc5c7340d39ac9f11b28", "fusion_lat": 0.0, "lon": -76.99503566666667, "type": "electric_scooter", "fusion_lon": 0.0, "lat": 38.88239016666667}, {"rental_uris": {"android": "https://dc.lft.to/lastmile_qr_scan", "ios": "https://dc.lft.to/lastmile_qr_scan"}, "is_reserved": 0, "is_disabled": 0, "name": "423c35ffff1eed28dd0bba4b5e44e253", "bike_id": "423c35ffff1eed28dd0bba4b5e44e253", "fusion_lat": 0.0, "lon": -77.03709666666667, "type": "electric_scooter", "fusion_lon": 0.0, "lat": 38.92636316666667}, {"rental_uris": {"android": "https://dc.lft.to/lastmile_qr_scan", "ios": "https://dc.lft.to/lastmile_qr_scan"}, "is_reserved": 0, "is_disabled": 0, "name": "a62fae75c41adfebd52340106e0e9342", "bike_id": "a62fae75c41adfebd52340106e0e9342", "fusion_lat": 0.0, "lon": -77.02647616666667, "type": "electric_scooter", "fusion_lon": 0.0, "lat": 38.902585}, {"rental_uris": {"android": "https://dc.lft.to/lastmile_qr_scan", "ios": "https://dc.lft.to/lastmile_qr_scan"}, "is_reserved": 0, "is_disabled": 0, "name": "71ae259089f2dd04c63dcf832a056d15", "bike_id": "71ae259089f2dd04c63dcf832a056d15", "fusion_lat": 0.0, "lon": -77.03784816666666, "type": "electric_scooter", "fusion_lon": 0.0, "lat": 38.9243475}, {"rental_uris": {"android": "https://dc.lft.to/lastmile_qr_scan", "ios": "https://dc.lft.to/lastmile_qr_scan"}, "is_reserved": 0, "is_disabled": 0, "name": "0afb360f64d1c4870d9127a6ef56ef76", "bike_id": "0afb360f64d1c4870d9127a6ef56ef76", "fusion_lat": 0.0, "lon": -77.148523, "type": "electric_bike", "fusion_lon": 0.0, "lat": 38.877606166666666}, {"rental_uris": {"android": "https://dc.lft.to/lastmile_qr_scan", "ios": "https://dc.lft.to/lastmile_qr_scan"}, "is_reserved": 0, "is_disabled": 0, "name": "56e9541e761c5105e0874efd8f6cd775", "bike_id": "56e9541e761c5105e0874efd8f6cd775", "fusion_lat": 0.0, "lon": -76.98536, "type": "electric_scooter", "fusion_lon": 0.0, "lat": 38.8585175}, {"rental_uris": {"android": "https://dc.lft.to/lastmile_qr_scan", "ios": "https://dc.lft.to/lastmile_qr_scan"}, "is_reserved": 0, "is_disabled": 0, "name": "c8093e6f77d73688e8fd497cafaeed07", "bike_id": "c8093e6f77d73688e8fd497cafaeed07", "fusion_lat": 0.0, "lon": -77.05260216666667, "type": "electric_scooter", "fusion_lon": 0.0, "lat": 38.92568716666667}, {"rental_uris": {"android": "https://dc.lft.to/lastmile_qr_scan", "ios": "https://dc.lft.to/lastmile_qr_scan"}, "is_reserved": 0, "is_disabled": 0, "name": "abce0f2c4ac465b9fb197fd174a4879f", "bike_id": "abce0f2c4ac465b9fb197fd174a4879f", "fusion_lat": 0.0, "lon": -77.03183833333334, "type": "electric_scooter", "fusion_lon": 0.0, "lat": 38.92912883333333}, {"rental_uris": {"android": "https://dc.lft.to/lastmile_qr_scan", "ios": "https://dc.lft.to/lastmile_qr_scan"}, "is_reserved": 0, "is_disabled": 0, "name": "bcce13b6cc4f435cfa267c479e5c249a", "bike_id": "bcce13b6cc4f435cfa267c479e5c249a", "fusion_lat": 0.0, "lon": -77.04040733333333, "type": "electric_scooter", "fusion_lon": 0.0, "lat": 38.904089666666664}, {"rental_uris": {"android": "https://dc.lft.to/lastmile_qr_scan", "ios": "https://dc.lft.to/lastmile_qr_scan"}, "is_reserved": 0, "is_disabled": 0, "name": "8850b8b7a6a2464d1e0d71635ac82948", "bike_id": "8850b8b7a6a2464d1e0d71635ac82948", "fusion_lat": 0.0, "lon": -77.04142716666667, "type": "electric_scooter", "fusion_lon": 0.0, "lat": 38.9000695}, {"rental_uris": {"android": "https://dc.lft.to/lastmile_qr_scan", "ios": "https://dc.lft.to/lastmile_qr_scan"}, "is_reserved": 0, "is_disabled": 0, "name": "c8ce5bba25f5de6d31dcd5eed863685f", "bike_id": "c8ce5bba25f5de6d31dcd5eed863685f", "fusion_lat": 0.0, "lon": -76.99973833333334, "type": "electric_scooter", "fusion_lon": 0.0, "lat": 38.9084125}, {"rental_uris": {"android": "https://dc.lft.to/lastmile_qr_scan", "ios": "https://dc.lft.to/lastmile_qr_scan"}, "is_reserved": 0, "is_disabled": 0, "name": "44bf14f8390ca307094cf70449c1adab", "bike_id": "44bf14f8390ca307094cf70449c1adab", "fusion_lat": 0.0, "lon": -77.041671, "type": "electric_scooter", "fusion_lon": 0.0, "lat": 38.9015345}, {"rental_uris": {"android": "https://dc.lft.to/lastmile_qr_scan", "ios": "https://dc.lft.to/lastmile_qr_scan"}, "is_reserved": 0, "is_disabled": 0, "name": "01026312f570f70c8640ea80939cef1d", "bike_id": "01026312f570f70c8640ea80939cef1d", "fusion_lat": 0.0, "lon": -77.03699033333334, "type": "electric_bike", "fusion_lon": 0.0, "lat": 38.93557283333333}, {"rental_uris": {"android": "https://dc.lft.to/lastmile_qr_scan", "ios": "https://dc.lft.to/lastmile_qr_scan"}, "is_reserved": 0, "is_disabled": 0, "name": "7ca35600aff6f0fc3225956233a2eebf", "bike_id": "7ca35600aff6f0fc3225956233a2eebf", "fusion_lat": 0.0, "lon": -77.02569283333334, "type": "electric_scooter", "fusion_lon": 0.0, "lat": 38.94194133333333}, {"rental_uris": {"android": "https://dc.lft.to/lastmile_qr_scan", "ios": "https://dc.lft.to/lastmile_qr_scan"}, "is_reserved": 0, "is_disabled": 0, "name": "babfe9c85babec7da0449aaa8e9444f4", "bike_id": "babfe9c85babec7da0449aaa8e9444f4", "fusion_lat": 0.0, "lon": -77.02157166666667, "type": "electric_scooter", "fusion_lon": 0.0, "lat": 38.924985166666666}, {"rental_uris": {"android": "https://dc.lft.to/lastmile_qr_scan", "ios": "https://dc.lft.to/lastmile_qr_scan"}, "is_reserved": 0, "is_disabled": 0, "name": "e325b09484ff52eb77a8cee63811bdf2", "bike_id": "e325b09484ff52eb77a8cee63811bdf2", "fusion_lat": 0.0, "lon": -77.035048, "type": "electric_scooter", "fusion_lon": 0.0, "lat": 38.9188575}, {"rental_uris": {"android": "https://dc.lft.to/lastmile_qr_scan", "ios": "https://dc.lft.to/lastmile_qr_scan"}, "is_reserved": 0, "is_disabled": 0, "name": "5f3f8c13aa23eb5621e1118b0bc9205c", "bike_id": "5f3f8c13aa23eb5621e1118b0bc9205c", "fusion_lat": 0.0, "lon": -77.0532085, "type": "electric_scooter", "fusion_lon": 0.0, "lat": 38.915514},