{"data": {"bikes": [{"bike_id": "29a1c116029aaf3509bfe8c4d865aa48", "lat": 38.9227955, "is_reserved": 0, "fusion_lat": 0.0, "rental_uris": {"android": "https://dc.lft.to/lastmile_qr_scan", "ios": "https://dc.lft.to/lastmile_qr_scan"}, "fusion_lon": 0.0, "name": "29a1c116029aaf3509bfe8c4d865aa48", "lon": -77.03665466666666, "is_disabled": 0, "type": "electric_scooter"}, {"bike_id": "52eddaffcd09fd2ae9da14735b37ddbc", "lat": 38.92480366666667, "is_reserved": 0, "fusion_lat": 0.0, "rental_uris": {"android": "https://dc.lft.to/lastmile_qr_scan", "ios": "https://dc.lft.to/lastmile_qr_scan"}, "fusion_lon": 0.0, "name": "52eddaffcd09fd2ae9da14735b37ddbc", "lon": -77.03182483333333, "is_disabled": 0, "type": "electric_scooter"}, {"bike_id": "4f6e402314b3fb47084f6523098f2744", "lat": 38.911138, "is_reserved": 0, "fusion_lat": 0.0, "rental_uris": {"android": "https://dc.lft.to/lastmile_qr_scan", "ios": "https://dc.lft.to/lastmile_qr_scan"}, "fusion_lon": 0.0, "name": "4f6e402314b3fb47084f6523098f2744", "lon": -77.03148166666666, "is_disabled": 0, "type": "electric_scooter"}, {"bike_id": "c9730c3077b09b9f37c1a440f04bb60c", "lat": 38.90951783333333, "is_reserved": 0, "fusion_lat": 0.0, "rental_uris": {"android": "https://dc.lft.to/lastmile_qr_scan", "ios": "https://dc.lft.to/lastmile_qr_scan"}, "fusion_lon": 0.0, "name": "c9730c3077b09b9f37c1a440f04bb60c", "lon": -77.03186083333334, "is_disabled": 0, "type": "electric_scooter"}, {"bike_id": "5e972756235f6257e7e74230210ef022", "lat": 38.90467266666667, "is_reserved": 0, "fusion_lat": 0.0, "rental_uris": {"android": "https://dc.lft.to/lastmile_qr_scan", "ios": "https://dc.lft.to/lastmile_qr_scan"}, "fusion_lon": 0.0, "name": "5e972756235f6257e7e74230210ef022", "lon": -77.04478366666666, "is_disabled": 0, "type": "electric_scooter"}, {"bike_id": "54ad560e1f03191dc99751c77d5b4d25", "lat": 38.9168315, "is_reserved": 0, "fusion_lat": 0.0, "rental_uris": {"android": "https://dc.lft.to/lastmile_qr_scan", "ios": "https://dc.lft.to/lastmile_qr_scan"}, "fusion_lon": 0.0, "name": "54ad560e1f03191dc99751c77d5b4d25", "lon": -77.023778, "is_disabled": 0, "type": "electric_scooter"}, {"bike_id": "87d87f5ea357aad0f5df7f2b0e20801e", "lat": 38.90314933333333, "is_reserved": 0, "fusion_lat": 0.0, "rental_uris": {"android": "https://dc.lft.to/lastmile_qr_scan", "ios": "https://dc.lft.to/lastmile_qr_scan"}, "fusion_lon": 0.0, "name": "87d87f5ea357aad0f5df7f2b0e20801e", "lon": -76.99132266666666, "is_disabled": 0, "type": "electric_scooter"}, {"bike_id": "b5293142421b9623c5644f4b20d245e7", "lat": 38.92104466666667, "is_reserved": 0, "fusion_lat": 0.0, "rental_uris": {"android": "https://dc.lft.to/lastmile_qr_scan", "ios": "https://dc.lft.to/lastmile_qr_scan"}, "fusion_lon": 0.0, "name": "b5293142421b9623c5644f4b20d245e7", "lon": -77.041557, "is_disabled": 0, "type": "electric_scooter"}, {"bike_id": "16334795d77e94cccb0f6588e3a49ead", "lat": 38.901948166666664, "is_reserved": 0, "fusion_lat": 0.0, "rental_uris": {"android": "https://dc.lft.to/lastmile_qr_scan", "ios": "https://dc.lft.to/lastmile_qr_scan"}, "fusion_lon": 0.0, "name": "16334795d77e94cccb0f6588e3a49ead", "lon": -77.02374333333333, "is_disabled": 0, "type": "electric_scooter"}, {"bike_id": "293b75f7f32c393273f4414056230679", "lat": 38.8922545, "is_reserved": 0, "fusion_lat": 0.0, "rental_uris": {"android": "https://dc.lft.to/lastmile_qr_scan", "ios": "https://dc.lft.to/lastmile_qr_scan"}, "fusion_lon": 0.0, "name": "293b75f7f32c393273f4414056230679", "lon": -77.03025583333333, "is_disabled": 0, "type": "electric_scooter"}, {"bike_id": "80fc6680b6537e8048bfc3e99916c783", "lat": 38.993106, "is_reserved": 0, "fusion_lat": 0.0, "rental_uris": {"android": "https://dc.lft.to/lastmile_qr_scan", "ios": "https://dc.lft.to/lastmile_qr_scan"}, "fusion_lon": 0.0, "name": "80fc6680b6537e8048bfc3e99916c783", "lon": -77.0231435, "is_disabled": 0, "type": "electric_bike"}, {"bike_id": "55e4eda7b96b78512e86749910b7d3ed", "lat": 38.86060283333333, "is_reserved": 0, "fusion_lat": 0.0, "rental_uris": {"android": "https://dc.lft.to/lastmile_qr_scan", "ios": "https://dc.lft.to/lastmile_qr_scan"}, "fusion_lon": 0.0, "name": "55e4eda7b96b78512e86749910b7d3ed", "lon": -76.985129, "is_disabled": 0, "type": "electric_scooter"}, {"bike_id": "b7490672807da45b5ab1395ae93ede46", "lat": 38.8940645, "is_reserved": 0, "fusion_lat": 0.0, "rental_uris": {"android": "https://dc.lft.to/lastmile_qr_scan", "ios": "https://dc.lft.to/lastmile_qr_scan"}, "fusion_lon": 0.0, "name": "b7490672807da45b5ab1395ae93ede46", "lon": -77.02205016666667, "is_disabled": 0, "type": "electric_scooter"}, {"bike_id": "db264201e641d86ce29efa808b101512", "lat": 38.80971183333333, "is_reserved": 0, "fusion_lat": 0.0, "rental_uris": {"android": "https://dc.lft.to/lastmile_qr_scan", "ios": "https://dc.lft.to/lastmile_qr_scan"}, "fusion_lon": 0.0, "name": "db264201e641d86ce29efa808b101512", "lon": -77.086339, "is_disabled": 0, "type": "electric_bike"}, {"bike_id": "21151685767a38ace17f3d59fc05d72b", "lat": 38.88654983333333, "is_reserved": 0, "fusion_lat": 0.0, "rental_uris": {"android": "https://dc.lft.to/lastmile_qr_scan", "ios": "https://dc.lft.to/lastmile_qr_scan"}, "fusion_lon": 0.0, "name": "21151685767a38ace17f3d59fc05d72b", "lon": -77.02824566666666, "is_disabled": 0, "type": "electric_scooter"}, {"bike_id": "d012ebc93410224d86c2dec2ee9b6bd8", "lat": 38.93524716666667, "is_reserved": 0, "fusion_lat": 0.0, "rental_uris": {"android": "https://dc.lft.to/lastmile_qr_scan", "ios": "https://dc.lft.to/lastmile_qr_scan"}, "fusion_lon": 0.0, "name": "d012ebc93410224d86c2dec2ee9b6bd8", "lon": -76.96451366666666, "is_disabled": 0, "type": "electric_bike"}, {"bike_id": "02d43e9de2e2bf186fcf03d77b8371e3", "lat": 38.9171255, "is_reserved": 0, "fusion_lat": 0.0, "rental_uris": {"android": "https://dc.lft.to/lastmile_qr_scan", "ios": "https://dc.lft.to/lastmile_qr_scan"}, "fusion_lon": 0.0, "name": "02d43e9de2e2bf186fcf03d77b8371e3", "lon": -77.02667316666667, "is_disabled": 0, "type": "electric_scooter"}, {"bike_id": "7085c3d7d4bf05335e5b46b12f4b7273", "lat": 38.91765016666667, "is_reserved": 0, "fusion_lat": 0.0, "rental_uris": {"android": "https://dc.lft.to/lastmile_qr_scan", "ios": "https://dc.lft.to/lastmile_qr_scan"}, "fusion_lon": 0.0, "name": "7085c3d7d4bf05335e5b46b12f4b7273", "lon": -77.04766116666667, "is_disabled": 0, "type": "electric_scooter"}, {"bike_id": "f9856f7f9dc9ee0d9008d6ae9f49b2a0", "lat": 38.921664, "is_reserved": 0, "fusion_lat": 0.0, "rental_uris": {"android": "https://dc.lft.to/lastmile_qr_scan", "ios": "https://dc.lft.to/lastmile_qr_scan"}, "fusion_lon": 0.0, "name": "f9856f7f9dc9ee0d9008d6ae9f49b2a0", "lon": -77.032327, "is_disabled": 0, "type": "electric_scooter"}, {"bike_id": "3d2efe7f3dea05a711be7f139e899a62", "lat": 38.8745775, "is_reserved": 0, "fusion_lat": 0.0, "rental_uris": {"android": "https://dc.lft.to/lastmile_qr_scan", "ios": "https://dc.lft.to/lastmile_qr_scan"}, "fusion_lon": 0.0, "name": "3d2efe7f3dea05a711be7f139e899a62", "lon": -77.00930033333333, "is_disabled": 0, "type": "electric_scooter"}, {"bike_id": "94915b0c37a14c834b9cb7757a39b595", "lat": 38.931581666666666, "is_reserved": 0, "fusion_lat": 0.0, "rental_uris": {"android": "https://dc.lft.to/lastmile_qr_scan", "ios": "https://dc.lft.to/lastmile_qr_scan"}, "fusion_lon": 0.0, "name": "94915b0c37a14c834b9cb7757a39b595", "lon": -77.04542766666667, "is_disabled": 0, "type": "electric_scooter"}, {"bike_id": "494959e3573412374381d3ec69dbe646", "lat": 38.9246875, "is_reserved": 0, "fusion_lat": 0.0, "rental_uris": {"android": "https://dc.lft.to/lastmile_qr_scan", "ios": "https://dc.lft.to/lastmile_qr_scan"}, "fusion_lon": 0.0, "name": "494959e3573412374381d3ec69dbe646", "lon": -77.02207033333333, "is_disabled": 0, "type": "electric_scooter"}, {"bike_id": "fe0abc1e01a2d8d21e3f189db29e4ab7", "lat": 38.9035245, "is_reserved": 0, "fusion_lat": 0.0, "rental_uris": {"android": "https://dc.lft.to/lastmile_qr_scan", "ios": "https://dc.lft.to/lastmile_qr_scan"}, "fusion_lon": 0.0, "name": "fe0abc1e01a2d8d21e3f189db29e4ab7", "lon": -76.97478016666666, "is_disabled": 0, "type": "electric_scooter"}, {"bike_id": "596919c956373f7e04a577f6dc8a6d59", "lat": 38.904665333333334, "is_reserved": 0, "fusion_lat": 0.0, "rental_uris": {"android": "https://dc.lft.to/lastmile_qr_scan", "ios": "https://dc.lft.to/lastmile_qr_scan"}, "fusion_lon": 0.0, "name": "596919c956373f7e04a577f6dc8a6d59", "lon": -76.97609583333333, "is_disabled": 0, "type": "electric_scooter"}, {"bike_id": "cd7eecd619952d06a07dcfe6ecbf11ff", "lat": 38.91604316666667, "is_reserved": 0, "fusion_lat": 0.0, "rental_uris": {"android": "https://dc.lft.to/lastmile_qr_scan", "ios": "https://dc.lft.to/lastmile_qr_scan"}, "fusion_lon": 0.0, "name": "cd7eecd619952d06a07dcfe6ecbf11ff", "lon": -77.048792, "is_disabled": 0, "type": "electric_scooter"}, {"bike_id": "76596fc94982490a9c862e82a8670f15", "lat": 38.916892, "is_reserved": 0, "fusion_lat": 0.0, "rental_uris": {"android": "https://dc.lft.to/lastmile_qr_scan", "ios": "https://dc.lft.to/lastmile_qr_scan"}, "fusion_lon": 0.0, "name": "76596fc94982490a9c862e82a8670f15", "lon": -77.02380266666667, "is_disabled": 0, "type": "electric_scooter"}, {"bike_id": "075e879edeb46a8e44a8ad1bd52adce6", "lat": 38.906783833333336, "is_reserved": 0, "fusion_lat": 0.0, "rental_uris": {"android": "https://dc.lft.to/lastmile_qr_scan", "ios": "https://dc.lft.to/lastmile_qr_scan"}, "fusion_lon": 0.0, "name": "075e879edeb46a8e44a8ad1bd52adce6", "lon": -76.9799985, "is_disabled": 0, "type": "electric_scooter"}, {"bike_id": "4cb42689159cddb3d17aefadb0597dad", "lat": 38.912099, "is_reserved": 0, "fusion_lat": 0.0, "rental_uris": {"android": "https://dc.lft.to/lastmile_qr_scan", "ios": "https://dc.lft.to/lastmile_qr_scan"}, "fusion_lon": 0.0, "name": "4cb42689159cddb3d17aefadb0597dad", "lon": -77.04476333333334, "is_disabled": 0, "type": "electric_scooter"}, {"bike_id": "20c5ba3f306570007934c0a4dcb8ff1b", "lat": 38.8848975, "is_reserved": 0, "fusion_lat": 0.0, "rental_uris": {"android": "https://dc.lft.to/lastmile_qr_scan", "ios": "https://dc.lft.to/lastmile_qr_scan"}, "fusion_lon": 0.0, "name": "20c5ba3f306570007934c0a4dcb8ff1b", "lon": -77.00719133333334, "is_disabled": 0, "type": "electric_scooter"}, {"bike_id": "8eb8f859975731323e73ccc3265dfaf8", "lat": 38.9047355, "is_reserved": 0, "fusion_lat": 0.0, "rental_uris": {"android": "https://dc.lft.to/lastmile_qr_scan", "ios": "https://dc.lft.to/lastmile_qr_scan"}, "fusion_lon": 0.0, "name": "8eb8f859975731323e73ccc3265dfaf8", "lon": -77.04366433333334, "is_disabled": 0, "type": "electric_scooter"}, {"bike_id": "48830618877a916a6be4232703655af2", "lat": 38.873704833333335, "is_reserved": 0, "fusion_lat": 0.0, "rental_uris": {"android": "https://dc.lft.to/lastmile_qr_scan", "ios": "https://dc.lft.to/lastmile_qr_scan"}, "fusion_lon": 0.0, "name": "48830618877a916a6be4232703655af2", "lon": -77.00111083333333, "is_disabled": 0, "type": "electric_scooter"}, {"bike_id": "ad9a760b876c5bbdc25dc249371adc18", "lat": 38.9051745, "is_reserved": 0, "fusion_lat": 0.0, "rental_uris": {"android": "https://dc.lft.to/lastmile_qr_scan", "ios": "https://dc.lft.to/lastmile_qr_scan"}, "fusion_lon": 0.0, "name": "ad9a760b876c5bbdc25dc249371adc18", "lon": -77.05832233333334, "is_disabled": 0, "type": "electric_scooter"}, {"bike_id": "364dcad9d9bd5de59490c466fd63404b", "lat": 38.914048666666666, "is_reserved": 0, "fusion_lat": 0.0, "rental_uris": {"android": "https://dc.lft.to/lastmile_qr_scan", "ios": "https://dc.lft.to/lastmile_qr_scan"}, "fusion_lon": 0.0, "name": "364dcad9d9bd5de59490c466fd63404b", "lon": -77.03224366666667, "is_disabled": 0, "type": "electric_scooter"}, {"bike_id": "3904df188bd580cb694394b7fc0c19cf", "lat": 38.8811405, "is_reserved": 0, "fusion_lat": 0.0, "rental_uris": {"android": "https://dc.lft.to/lastmile_qr_scan", "ios": "https://dc.lft.to/lastmile_qr_scan"}, "fusion_lon": 0.0, "name": "3904df188bd580cb694394b7fc0c19cf", "lon": -77.01644366666666, "is_disabled": 0, "type": "electric_scooter"}, {"bike_id": "f7a09dc99745bc01485ea81faf772b51", "lat": 38.8922235, "is_reserved": 0, "fusion_lat": 0.0, "rental_uris": {"android": "https://dc.lft.to/lastmile_qr_scan", "ios": "https://dc.lft.to/lastmile_qr_scan"}, "fusion_lon": 0.0, "name": "f7a09dc99745bc01485ea81faf772b51", "lon": -77.03029183333334, "is_disabled": 0, "type": "electric_scooter"}, {"bike_id": "7010291b17c78844a14827f0baa31670", "lat": 38.928727333333335, "is_reserved": 0, "fusion_lat": 0.0, "rental_uris": {"android": "https://dc.lft.to/lastmile_qr_scan", "ios": "https://dc.lft.to/lastmile_qr_scan"}, "fusion_lon": 0.0, "name": "7010291b17c78844a14827f0baa31670", "lon": -77.027744, "is_disabled": 0, "type": "electric_scooter"}, {"bike_id": "c0c793eb1f53a981338e8cba7e88feb0", "lat": 38.918428, "is_reserved": 0, "fusion_lat": 0.0, "rental_uris": {"android": "https://dc.lft.to/lastmile_qr_scan", "ios": "https://dc.lft.to/lastmile_qr_scan"}, "fusion_lon": 0.0, "name": "c0c793eb1f53a981338e8cba7e88feb0", "lon": -76.96556066666666, "is_disabled": 0, "type": "electric_scooter"}, {"bike_id": "e931c12f50e912874519a7120f52295e", "lat": 38.885133, "is_reserved": 0, "fusion_lat": 0.0, "rental_uris": {"android": "https://dc.lft.to/lastmile_qr_scan", "ios": "https://dc.lft.to/lastmile_qr_scan"}, "fusion_lon": 0.0, "name": "e931c12f50e912874519a7120f52295e", "lon": -76.9564145, "is_disabled": 0, "type": "electric_bike"}, {"bike_id": "f5b7f8ae4236642d44e27f258c37ff44", "lat": 38.93226033333333, "is_reserved": 0, "fusion_lat": 0.0, "rental_uris": {"android": "https://dc.lft.to/lastmile_qr_scan", "ios": "https://dc.lft.to/lastmile_qr_scan"}, "fusion_lon": 0.0, "name": "f5b7f8ae4236642d44e27f258c37ff44", "lon": -77.18125083333334, "is_disabled": 0, "type": "electric_bike"}, {"bike_id": "0f21863a09056033af3c921baf224824", "lat": 38.922465, "is_reserved": 0, "fusion_lat": 0.0, "rental_uris": {"android": "https://dc.lft.to/lastmile_qr_scan", "ios": "https://dc.lft.to/lastmile_qr_scan"}, "fusion_lon": 0.0, "name": "0f21863a09056033af3c921baf224824", "lon": -77.04214183333333, "is_disabled": 0, "type": "electric_scooter"}, {"bike_id": "3d21fe091f3ed68b8a81b8f988636b4e", "lat": 38.89873383333333, "is_reserved": 0, "fusion_lat": 0.0, "rental_uris": {"android": "https://dc.lft.to/lastmile_qr_scan", "ios": "https://dc.lft.to/lastmile_qr_scan"}, "fusion_lon": 0.0, "name": "3d21fe091f3ed68b8a81b8f988636b4e", "lon": -77.04196316666666, "is_disabled": 0, "type": "electric_scooter"}, {"bike_id": "6338ac515d26da9162db7687867c0dea", "lat": 38.878747, "is_reserved": 0, "fusion_lat": 0.0, "rental_uris": {"android": "https://dc.lft.to/lastmile_qr_scan", "ios": "https://dc.lft.to/lastmile_qr_scan"}, "fusion_lon": 0.0, "name": "6338ac515d26da9162db7687867c0dea", "lon": -77.01759183333333, "is_disabled": 0, "type": "electric_scooter"}, {"bike_id": "8c3cfb0a36cd490261bb994ca573cdd5", "lat": 38.9533075, "is_reserved": 0, "fusion_lat": 0.0, "rental_uris": {"android": "https://dc.lft.to/lastmile_qr_scan", "ios": "https://dc.lft.to/lastmile_qr_scan"}, "fusion_lon": 0.0, "name": "8c3cfb0a36cd490261bb994ca573cdd5", "lon": -76.9825245, "is_disabled": 0, "type": "electric_bike"}, {"bike_id": "d4197b3c1e916a6faa68461c7852fae4", "lat": 38.902608, "is_reserved": 0, "fusion_lat": 0.0, "rental_uris": {"android": "https://dc.lft.to/lastmile_qr_scan", "ios": "https://dc.lft.to/lastmile_qr_scan"}, "fusion_lon": 0.0, "name": "d4197b3c1e916a6faa68461c7852fae4", "lon": -77.030006, "is_disabled": 0, "type": "electric_scooter"}, {"bike_id": "78f341a8fb9ffed3394945349d09edc1", "lat": 38.912484166666665, "is_reserved": 0, "fusion_lat": 0.0, "rental_uris": {"android": "https://dc.lft.to/lastmile_qr_scan", "ios": "https://dc.lft.to/lastmile_qr_scan"}, "fusion_lon": 0.0, "name": "78f341a8fb9ffed3394945349d09edc1", "lon": -77.01152633333334, "is_disabled": 0, "type": "electric_scooter"}, {"bike_id": "00273d4e4d6acab16a3548591480d832", "lat": 38.921412, "is_reserved": 0, "fusion_lat": 0.0, "rental_uris": {"android": "https://dc.lft.to/lastmile_qr_scan", "ios": "https://dc.lft.to/lastmile_qr_scan"}, "fusion_lon": 0.0, "name": "00273d4e4d6acab16a3548591480d832", "lon": -77.04363583333334, "is_disabled": 0, "type": "electric_scooter"}, {"bike_id": "4c9402f3329320010456d2c93eb70c8a", "lat": 38.9190625, "is_reserved": 0, "fusion_lat": 0.0, "rental_uris": {"android": "https://dc.lft.to/lastmile_qr_scan", "ios": "https://dc.lft.to/lastmile_qr_scan"}, "fusion_lon": 0.0, "name": "4c9402f3329320010456d2c93eb70c8a", "lon": -77.0021885, "is_disabled": 0, "type": "electric_scooter"}, {"bike_id": "fdf316b251911336e5f14bd16d508991", "lat": 38.935302166666666, "is_reserved": 0, "fusion_lat": 0.0, "rental_uris": {"android": "https://dc.lft.to/lastmile_qr_scan", "ios": "https://dc.lft.to/lastmile_qr_scan"}, "fusion_lon": 0.0, "name": "fdf316b251911336e5f14bd16d508991", "lon": -77.0336425, "is_disabled": 0, "type": "electric_scooter"}, {"bike_id": "917373914d632dac80463859226889c8", "lat": 38.920719, "is_reserved": 0, "fusion_lat": 0.0, "rental_uris": {"android": "https://dc.lft.to/lastmile_qr_scan", "ios": "https://dc.lft.to/lastmile_qr_scan"}, "fusion_lon": 0.0, "name": "917373914d632dac80463859226889c8", "lon": -77.02343033333334, "is_disabled": 0, "type": "electric_scooter"}, {"bike_id": "b055dd75818cb8a0613308b1ebfd404d", "lat": 38.934604666666665, "is_reserved": 0, "fusion_lat": 0.0, "rental_uris": {"android": "https://dc.lft.to/lastmile_qr_scan", "ios": "https://dc.lft.to/lastmile_qr_scan"}, "fusion_lon": 0.0, "name": "b055dd75818cb8a0613308b1ebfd404d", "lon": -77.04539083333333, "is_disabled": 0, "type": "electric_scooter"}, {"bike_id": "6732d1d0862e47f69025740ee3fd48fb", "lat": 38.899503, "is_reserved": 0, "fusion_lat": 0.0, "rental_uris": {"android": "https://dc.lft.to/lastmile_qr_scan", "ios": "https://dc.lft.to/lastmile_qr_scan"}, "fusion_lon": 0.0, "name": "6732d1d0862e47f69025740ee3fd48fb", "lon": -77.0145445, "is_disabled": 0, "type": "electric_scooter"}, {"bike_id": "b6e57546cd27c141bebcfe87c60d0feb", "lat": 38.936859166666665, "is_reserved": 0, "fusion_lat": 0.0, "rental_uris": {"android": "https://dc.lft.to/lastmile_qr_scan", "ios": "https://dc.lft.to/lastmile_qr_scan"}, "fusion_lon": 0.0, "name": "b6e57546cd27c141bebcfe87c60d0feb", "lon": -76.99063466666666, "is_disabled": 0, "type": "electric_bike"}, {"bike_id": "a795ec2f93dd2ddd0daaeee232c96940", "lat": 38.90366866666667, "is_reserved": 0, "fusion_lat": 0.0, "rental_uris": {"android": "https://dc.lft.to/lastmile_qr_scan", "ios": "https://dc.lft.to/lastmile_qr_scan"}, "fusion_lon": 0.0, "name": "a795ec2f93dd2ddd0daaeee232c96940", "lon": -77.03793416666667, "is_disabled": 0, "type": "electric_scooter"}, {"bike_id": "3a59d8e557686aca92fdd5cedb05747a", "lat": 38.8991345, "is_reserved": 0, "fusion_lat": 0.0, "rental_uris": {"android": "https://dc.lft.to/lastmile_qr_scan", "ios": "https://dc.lft.to/lastmile_qr_scan"}, "fusion_lon": 0.0, "name": "3a59d8e557686aca92fdd5cedb05747a", "lon": -76.93376433333333, "is_disabled": 0, "type": "electric_scooter"}, {"bike_id": "9c581d81d99609651bf885095e527839", "lat": 38.90093316666667, "is_reserved": 0, "fusion_lat": 0.0, "rental_uris": {"android": "https://dc.lft.to/lastmile_qr_scan", "ios": "https://dc.lft.to/lastmile_qr_scan"}, "fusion_lon": 0.0, "name": "9c581d81d99609651bf885095e527839", "lon": -77.048679, "is_disabled": 0, "type": "electric_bike"}, {"bike_id": "f60cd12c54a13b2201f0ad5b7d27d7cc", "lat": 38.9156215, "is_reserved": 0, "fusion_lat": 0.0, "rental_uris": {"android": "https://dc.lft.to/lastmile_qr_scan", "ios": "https://dc.lft.to/lastmile_qr_scan"}, "fusion_lon": 0.0, "name": "f60cd12c54a13b2201f0ad5b7d27d7cc", "lon": -77.02596366666667, "is_disabled": 0, "type": "electric_scooter"}, {"bike_id": "f88fe55276accff7eacd7b1206422e83", "lat": 38.893544, "is_reserved": 0, "fusion_lat": 0.0, "rental_uris": {"android": "https://dc.lft.to/lastmile_qr_scan", "ios": "https://dc.lft.to/lastmile_qr_scan"}, "fusion_lon": 0.0, "name": "f88fe55276accff7eacd7b1206422e83", "lon": -77.003405, "is_disabled": 0, "type": "electric_scooter"}, {"bike_id": "1afd77e010ce6dbf8620be72be045698", "lat": 38.9110635, "is_reserved": 0, "fusion_lat": 0.0, "rental_uris": {"android": "https://dc.lft.to/lastmile_qr_scan", "ios": "https://dc.lft.to/lastmile_qr_scan"}, "fusion_lon": 0.0, "name": "1afd77e010ce6dbf8620be72be045698", "lon": -77.0436655, "is_disabled": 0, "type": "electric_scooter"}, {"bike_id": "b899beb827e0e39a7cab44406a188de1", "lat": 38.871119166666666, "is_reserved": 0, "fusion_lat": 0.0, "rental_uris": {"android": "https://dc.lft.to/lastmile_qr_scan", "ios": "https://dc.lft.to/lastmile_qr_scan"}, "fusion_lon": 0.0, "name": "b899beb827e0e39a7cab44406a188de1", "lon": -76.98241766666666, "is_disabled": 0, "type": "electric_scooter"}, {"bike_id": "cab2b9ea8938af7574cb099f40c7b831", "lat": 38.90378283333333, "is_reserved": 0, "fusion_lat": 0.0, "rental_uris": {"android": "https://dc.lft.to/lastmile_qr_scan", "ios": "https://dc.lft.to/lastmile_qr_scan"}, "fusion_lon": 0.0, "name": "cab2b9ea8938af7574cb099f40c7b831", "lon": -77.0178825, "is_disabled": 0, "type": "electric_scooter"}, {"bike_id": "beb08c6e269147d38695edd0c6a880e5", "lat": 38.8953, "is_reserved": 0, "fusion_lat": 0.0, "rental_uris": {"android": "https://dc.lft.to/lastmile_qr_scan", "ios": "https://dc.lft.to/lastmile_qr_scan"}, "fusion_lon": 0.0, "name": "beb08c6e269147d38695edd0c6a880e5", "lon": -77.00346733333333, "is_disabled": 0, "type": "electric_scooter"}, {"bike_id": "f2084aa9763625c0c713740fda5b1a15", "lat": 38.90586533333333, "is_reserved": 0, "fusion_lat": 0.0, "rental_uris": {"android": "https://dc.lft.to/lastmile_qr_scan", "ios": "https://dc.lft.to/lastmile_qr_scan"}, "fusion_lon": 0.0, "name": "f2084aa9763625c0c713740fda5b1a15", "lon": -77.06990216666667, "is_disabled": 0, "type": "electric_bike"}, {"bike_id": "5cf156b9c7a17e52c52936ac1525a545", "lat": 38.81986116666667, "is_reserved": 0, "fusion_lat": 0.0, "rental_uris": {"android": "https://dc.lft.to/lastmile_qr_scan", "ios": "https://dc.lft.to/lastmile_qr_scan"}, "fusion_lon": 0.0, "name": "5cf156b9c7a17e52c52936ac1525a545", "lon": -76.99816083333333, "is_disabled": 0, "type": "electric_bike"}, {"bike_id": "9805fad49a6ffd3d156d43d33c9e7e42", "lat": 38.91419366666667, "is_reserved": 0, "fusion_lat": 0.0, "rental_uris": {"android": "https://dc.lft.to/lastmile_qr_scan", "ios": "https://dc.lft.to/lastmile_qr_scan"}, "fusion_lon": 0.0, "name": "9805fad49a6ffd3d156d43d33c9e7e42", "lon": -77.022141, "is_disabled": 0, "type": "electric_scooter"}, {"bike_id": "ca211649e21bed01993c0f095208bc1f", "lat": 38.91952033333333, "is_reserved": 0, "fusion_lat": 0.0, "rental_uris": {"android": "https://dc.lft.to/lastmile_qr_scan", "ios": "https://dc.lft.to/lastmile_qr_scan"}, "fusion_lon": 0.0, "name": "ca211649e21bed01993c0f095208bc1f", "lon": -77.0236735, "is_disabled": 0, "type": "electric_scooter"}, {"bike_id": "76db861108bd69f815921f6bd972937a", "lat": 38.926955, "is_reserved": 0, "fusion_lat": 0.0, "rental_uris": {"android": "https://dc.lft.to/lastmile_qr_scan", "ios": "https://dc.lft.to/lastmile_qr_scan"}, "fusion_lon": 0.0, "name": "76db861108bd69f815921f6bd972937a", "lon": -77.0150045, "is_disabled": 0, "type": "electric_scooter"}, {"bike_id": "ba452bc42c499466160b20eec93cdb76", "lat": 38.91103666666667, "is_reserved": 0, "fusion_lat": 0.0, "rental_uris": {"android": "https://dc.lft.to/lastmile_qr_scan", "ios": "https://dc.lft.to/lastmile_qr_scan"}, "fusion_lon": 0.0, "name": "ba452bc42c499466160b20eec93cdb76", "lon": -77.04477533333333, "is_disabled": 0, "type": "electric_scooter"}, {"bike_id": "cf59e2b7bb367868d77ac6b9176d8fc3", "lat": 38.857095, "is_reserved": 0, "fusion_lat": 0.0, "rental_uris": {"android": "https://dc.lft.to/lastmile_qr_scan", "ios": "https://dc.lft.to/lastmile_qr_scan"}, "fusion_lon": 0.0, "name": "cf59e2b7bb367868d77ac6b9176d8fc3", "lon": -76.98988966666667, "is_disabled": 0, "type": "electric_scooter"}, {"bike_id": "f4a8287a7a3931a1bfc96c64513d019c", "lat": 38.90560633333333, "is_reserved": 0, "fusion_lat": 0.0, "rental_uris": {"android": "https://dc.lft.to/lastmile_qr_scan", "ios": "https://dc.lft.to/lastmile_qr_scan"}, "fusion_lon": 0.0, "name": "f4a8287a7a3931a1bfc96c64513d019c", "lon": -77.02208916666666, "is_disabled": 0, "type": "electric_scooter"}, {"bike_id": "1dd587046e6faec049075dcc536aec4d", "lat": 38.9001995, "is_reserved": 0, "fusion_lat": 0.0, "rental_uris": {"android": "https://dc.lft.to/lastmile_qr_scan", "ios": "https://dc.lft.to/lastmile_qr_scan"}, "fusion_lon": 0.0, "name": "1dd587046e6faec049075dcc536aec4d", "lon": -76.98663583333334, "is_disabled": 0, "type": "electric_scooter"}, {"bike_id": "b58f9c3d0f8ceebd0f2800cc78ba1e49", "lat": 38.901818666666664, "is_reserved": 0, "fusion_lat": 0.0, "rental_uris": {"android": "https://dc.lft.to/lastmile_qr_scan", "ios": "https://dc.lft.to/lastmile_qr_scan"}, "fusion_lon": 0.0, "name": "b58f9c3d0f8ceebd0f2800cc78ba1e49", "lon": -77.0504765, "is_disabled": 0, "type": "electric_scooter"}, {"bike_id": "c5d2c66ed99d846b864e2d0a66dbb5f2", "lat": 38.8960655, "is_reserved": 0, "fusion_lat": 0.0, "rental_uris": {"android": "https://dc.lft.to/lastmile_qr_scan", "ios": "https://dc.lft.to/lastmile_qr_scan"}, "fusion_lon": 0.0, "name": "c5d2c66ed99d846b864e2d0a66dbb5f2", "lon": -77.05035133333334, "is_disabled": 0, "type": "electric_scooter"}, {"bike_id": "d3ef6d6cbbd48484e6dbbb54c87964af", "lat": 38.918076166666665, "is_reserved": 0, "fusion_lat": 0.0, "rental_uris": {"android": "https://dc.lft.to/lastmile_qr_scan", "ios": "https://dc.lft.to/lastmile_qr_scan"}, "fusion_lon": 0.0, "name": "d3ef6d6cbbd48484e6dbbb54c87964af", "lon": -77.0248575, "is_disabled": 0, "type": "electric_scooter"}, {"bike_id": "832d062190f32f39e94e944017a4a384", "lat": 38.894822, "is_reserved": 0, "fusion_lat": 0.0, "rental_uris": {"android": "https://dc.lft.to/lastmile_qr_scan", "ios": "https://dc.lft.to/lastmile_qr_scan"}, "fusion_lon": 0.0, "name": "832d062190f32f39e94e944017a4a384", "lon": -76.94954433333334, "is_disabled": 0, "type": "electric_scooter"}, {"bike_id": "a6735b052ea0f43dfe48e993dacd4bfb", "lat": 38.883862666666666, "is_reserved": 0, "fusion_lat": 0.0, "rental_uris": {"android": "https://dc.lft.to/lastmile_qr_scan", "ios": "https://dc.lft.to/lastmile_qr_scan"}, "fusion_lon": 0.0, "name": "a6735b052ea0f43dfe48e993dacd4bfb", "lon": -77.01581183333333, "is_disabled": 0, "type": "electric_scooter"}, {"bike_id": "49e06248a15a26bbda52a70daef85f83", "lat": 38.91058116666667, "is_reserved": 0, "fusion_lat": 0.0, "rental_uris": {"android": "https://dc.lft.to/lastmile_qr_scan", "ios": "https://dc.lft.to/lastmile_qr_scan"}, "fusion_lon": 0.0, "name": "49e06248a15a26bbda52a70daef85f83", "lon": -77.02206433333333, "is_disabled": 0, "type": "electric_scooter"}, {"bike_id": "dee2bd0b633b30b688b62ee514998c24", "lat": 38.844315333333334, "is_reserved": 0, "fusion_lat": 0.0, "rental_uris": {"android": "https://dc.lft.to/lastmile_qr_scan", "ios": "https://dc.lft.to/lastmile_qr_scan"}, "fusion_lon": 0.0, "name": "dee2bd0b633b30b688b62ee514998c24", "lon": -76.99881083333334, "is_disabled": 0, "type": "electric_scooter"}, {"bike_id": "0f58b0f6594acaca5e76265204e022da", "lat": 38.90722566666667, "is_reserved": 0, "fusion_lat": 0.0, "rental_uris": {"android": "https://dc.lft.to/lastmile_qr_scan", "ios": "https://dc.lft.to/lastmile_qr_scan"}, "fusion_lon": 0.0, "name": "0f58b0f6594acaca5e76265204e022da", "lon": -77.02378083333333, "is_disabled": 0, "type": "electric_scooter"}, {"bike_id": "d3def2d92e2a8cdbac52a7e557f88841", "lat": 38.9023685, "is_reserved": 0, "fusion_lat": 0.0, "rental_uris": {"android": "https://dc.lft.to/lastmile_qr_scan", "ios": "https://dc.lft.to/lastmile_qr_scan"}, "fusion_lon": 0.0, "name": "d3def2d92e2a8cdbac52a7e557f88841", "lon": -77.00205816666667, "is_disabled": 0, "type": "electric_scooter"}, {"bike_id": "fb7b94020e4f51be126fb566ee827e85", "lat": 38.914757, "is_reserved": 0, "fusion_lat": 0.0, "rental_uris": {"android": "https://dc.lft.to/lastmile_qr_scan", "ios": "https://dc.lft.to/lastmile_qr_scan"}, "fusion_lon": 0.0, "name": "fb7b94020e4f51be126fb566ee827e85", "lon": -77.045592, "is_disabled": 0, "type": "electric_scooter"}, {"bike_id": "1831feaff56f497a1a6359a5a20cc655", "lat": 38.965010666666664, "is_reserved": 0, "fusion_lat": 0.0, "rental_uris": {"android": "https://dc.lft.to/lastmile_qr_scan", "ios": "https://dc.lft.to/lastmile_qr_scan"}, "fusion_lon": 0.0, "name": "1831feaff56f497a1a6359a5a20cc655", "lon": -77.002061, "is_disabled": 0, "type": "electric_scooter"}, {"bike_id": "194497423d2fad38a682503bfe53042c", "lat": 38.902696166666665, "is_reserved": 0, "fusion_lat": 0.0, "rental_uris": {"android": "https://dc.lft.to/lastmile_qr_scan", "ios": "https://dc.lft.to/lastmile_qr_scan"}, "fusion_lon": 0.0, "name": "194497423d2fad38a682503bfe53042c", "lon": -77.03963683333333, "is_disabled": 0, "type": "electric_scooter"}, {"bike_id": "e3de4fbb90e72064774720644e6f4da2", "lat": 38.902240666666664, "is_reserved": 0, "fusion_lat": 0.0, "rental_uris": {"android": "https://dc.lft.to/lastmile_qr_scan", "ios": "https://dc.lft.to/lastmile_qr_scan"}, "fusion_lon": 0.0, "name": "e3de4fbb90e72064774720644e6f4da2", "lon": -77.02213266666666, "is_disabled": 0, "type": "electric_scooter"}, {"bike_id": "03384fbf3bf6cc61e9dca6ef631eebbe", "lat": 38.902729, "is_reserved": 0, "fusion_lat": 0.0, "rental_uris": {"android": "https://dc.lft.to/lastmile_qr_scan", "ios": "https://dc.lft.to/lastmile_qr_scan"}, "fusion_lon": 0.0, "name": "03384fbf3bf6cc61e9dca6ef631eebbe", "lon": -77.0396525, "is_disabled": 0, "type": "electric_scooter"}, {"bike_id": "2e6b0befa421110a9ec04402fbcc2e99", "lat": 38.918048666666664, "is_reserved": 0, "fusion_lat": 0.0, "rental_uris": {"android": "https://dc.lft.to/lastmile_qr_scan", "ios": "https://dc.lft.to/lastmile_qr_scan"}, "fusion_lon": 0.0, "name": "2e6b0befa421110a9ec04402fbcc2e99", "lon": -77.02693783333333, "is_disabled": 0, "type": "electric_scooter"}, {"bike_id": "e5ce786b5cca44615f242c87f74dbcad", "lat": 38.9388475, "is_reserved": 0, "fusion_lat": 0.0, "rental_uris": {"android": "https://dc.lft.to/lastmile_qr_scan", "ios": "https://dc.lft.to/lastmile_qr_scan"}, "fusion_lon": 0.0, "name": "e5ce786b5cca44615f242c87f74dbcad", "lon": -77.06357883333334, "is_disabled": 0, "type": "electric_bike"}, {"bike_id": "4f1afd3475b6a91125652f93024db42a", "lat": 38.89943983333333, "is_reserved": 0, "fusion_lat": 0.0, "rental_uris": {"android": "https://dc.lft.to/lastmile_qr_scan", "ios": "https://dc.lft.to/lastmile_qr_scan"}, "fusion_lon": 0.0, "name": "4f1afd3475b6a91125652f93024db42a", "lon": -77.04509166666666, "is_disabled": 0, "type": "electric_scooter"}, {"bike_id": "01fe88fca26663297f4e2cdcf4273d8f", "lat": 38.914797666666665, "is_reserved": 0, "fusion_lat": 0.0, "rental_uris": {"android": "https://dc.lft.to/lastmile_qr_scan", "ios": "https://dc.lft.to/lastmile_qr_scan"}, "fusion_lon": 0.0, "name": "01fe88fca26663297f4e2cdcf4273d8f", "lon": -77.04583683333334, "is_disabled": 0, "type": "electric_scooter"}, {"bike_id": "e12f434e65793e5d69453691ff1bbb77", "lat": 38.971993833333336, "is_reserved": 0, "fusion_lat": 0.0, "rental_uris": {"android": "https://dc.lft.to/lastmile_qr_scan", "ios": "https://dc.lft.to/lastmile_qr_scan"}, "fusion_lon": 0.0, "name": "e12f434e65793e5d69453691ff1bbb77", "lon": -77.033407, "is_disabled": 0, "type": "electric_bike"}, {"bike_id": "8b6aca21442d11178f9a9308e445b7d3", "lat": 38.901905, "is_reserved": 0, "fusion_lat": 0.0, "rental_uris": {"android": "https://dc.lft.to/lastmile_qr_scan", "ios": "https://dc.lft.to/lastmile_qr_scan"}, "fusion_lon": 0.0, "name": "8b6aca21442d11178f9a9308e445b7d3", "lon": -76.978862, "is_disabled": 0, "type": "electric_scooter"}, {"bike_id": "ab183a2ce9ba438874f1ce698e7cd365", "lat": 38.905723333333334, "is_reserved": 0, "fusion_lat": 0.0, "rental_uris": {"android": "https://dc.lft.to/lastmile_qr_scan", "ios": "https://dc.lft.to/lastmile_qr_scan"}, "fusion_lon": 0.0, "name": "ab183a2ce9ba438874f1ce698e7cd365", "lon": -77.03429683333333, "is_disabled": 0, "type": "electric_scooter"}, {"bike_id": "4f6f5daf9a0997e7abb63153f72f198e", "lat": 38.93237633333333, "is_reserved": 0, "fusion_lat": 0.0, "rental_uris": {"android": "https://dc.lft.to/lastmile_qr_scan", "ios": "https://dc.lft.to/lastmile_qr_scan"}, "fusion_lon": 0.0, "name": "4f6f5daf9a0997e7abb63153f72f198e", "lon": -76.99511466666667, "is_disabled": 0, "type": "electric_scooter"}, {"bike_id": "0f26cbe8f04388250e6b0e466941e868", "lat": 38.883657166666666, "is_reserved": 0, "fusion_lat": 0.0, "rental_uris": {"android": "https://dc.lft.to/lastmile_qr_scan", "ios": "https://dc.lft.to/lastmile_qr_scan"}, "fusion_lon": 0.0, "name": "0f26cbe8f04388250e6b0e466941e868", "lon": -76.99545133333334, "is_disabled": 0, "type": "electric_scooter"}, {"bike_id": "b7394a6d14b72a47aa54c6ffda592fe9", "lat": 38.9004645, "is_reserved": 0, "fusion_lat": 0.0, "rental_uris": {"android": "https://dc.lft.to/lastmile_qr_scan", "ios": "https://dc.lft.to/lastmile_qr_scan"}, "fusion_lon": 0.0, "name": "b7394a6d14b72a47aa54c6ffda592fe9", "lon": -76.982909, "is_disabled": 0, "type": "electric_scooter"}, {"bike_id": "c91ee8015a8cbf720284d4e14993f019", "lat": 38.844677, "is_reserved": 0, "fusion_lat": 0.0, "rental_uris": {"android": "https://dc.lft.to/lastmile_qr_scan", "ios": "https://dc.lft.to/lastmile_qr_scan"}, "fusion_lon": 0.0, "name": "c91ee8015a8cbf720284d4e14993f019", "lon": -76.97860283333333, "is_disabled": 0, "type": "electric_bike"}, {"bike_id": "4de9f37438b99c142bec46fe617dfd85", "lat": 38.92046833333333, "is_reserved": 0, "fusion_lat": 0.0, "rental_uris": {"android": "https://dc.lft.to/lastmile_qr_scan", "ios": "https://dc.lft.to/lastmile_qr_scan"}, "fusion_lon": 0.0, "name": "4de9f37438b99c142bec46fe617dfd85", "lon": -77.01624933333333, "is_disabled": 0, "type": "electric_scooter"}, {"bike_id": "2eb8c7f5330bf8dc1588714c940d8e86", "lat": 38.8848585, "is_reserved": 0, "fusion_lat": 0.0, "rental_uris": {"android": "https://dc.lft.to/lastmile_qr_scan", "ios": "https://dc.lft.to/lastmile_qr_scan"}, "fusion_lon": 0.0, "name": "2eb8c7f5330bf8dc1588714c940d8e86", "lon": -77.03479633333333, "is_disabled": 0, "type": "electric_scooter"}, {"bike_id": "496978b89d145d1dffb732aef93525af", "lat": 38.91750533333333, "is_reserved": 0, "fusion_lat": 0.0, "rental_uris": {"android": "https://dc.lft.to/lastmile_qr_scan", "ios": "https://dc.lft.to/lastmile_qr_scan"}, "fusion_lon": 0.0, "name": "496978b89d145d1dffb732aef93525af", "lon": -77.027242, "is_disabled": 0, "type": "electric_scooter"}, {"bike_id": "e0f4fb0cabb735f0a14588a6c9e24655", "lat": 38.907728, "is_reserved": 0, "fusion_lat": 0.0, "rental_uris": {"android": "https://dc.lft.to/lastmile_qr_scan", "ios": "https://dc.lft.to/lastmile_qr_scan"}, "fusion_lon": 0.0, "name": "e0f4fb0cabb735f0a14588a6c9e24655", "lon": -77.03769583333333, "is_disabled": 0, "type": "electric_scooter"}, {"bike_id": "6f9953f3ad1242862260c00e6a0db77b", "lat": 38.89607933333333, "is_reserved": 0, "fusion_lat": 0.0, "rental_uris": {"android": "https://dc.lft.to/lastmile_qr_scan", "ios": "https://dc.lft.to/lastmile_qr_scan"}, "fusion_lon": 0.0, "name": "6f9953f3ad1242862260c00e6a0db77b", "lon": -77.01212683333334, "is_disabled": 0, "type": "electric_scooter"}, {"bike_id": "e183a12d1c6951c29fbe6c27466c4cb8", "lat": 38.90195216666667, "is_reserved": 0, "fusion_lat": 0.0, "rental_uris": {"android": "https://dc.lft.to/lastmile_qr_scan", "ios": "https://dc.lft.to/lastmile_qr_scan"}, "fusion_lon": 0.0, "name": "e183a12d1c6951c29fbe6c27466c4cb8", "lon": -77.02325333333333, "is_disabled": 0, "type": "electric_scooter"}, {"bike_id": "0c03daa4675d7094591e9df390da38d7", "lat": 38.910172, "is_reserved": 0, "fusion_lat": 0.0, "rental_uris": {"android": "https://dc.lft.to/lastmile_qr_scan", "ios": "https://dc.lft.to/lastmile_qr_scan"}, "fusion_lon": 0.0, "name": "0c03daa4675d7094591e9df390da38d7", "lon": -77.027669, "is_disabled": 0, "type": "electric_scooter"}, {"bike_id": "c3eaaecb00e77c0e8b73afa313ceeb7b", "lat": 38.91709433333333, "is_reserved": 0, "fusion_lat": 0.0, "rental_uris": {"android": "https://dc.lft.to/lastmile_qr_scan", "ios": "https://dc.lft.to/lastmile_qr_scan"}, "fusion_lon": 0.0, "name": "c3eaaecb00e77c0e8b73afa313ceeb7b", "lon": -77.03477533333333, "is_disabled": 0, "type": "electric_scooter"}, {"bike_id": "b74974e38f470ec24fac11d9eeef55c4", "lat": 38.9205695, "is_reserved": 0, "fusion_lat": 0.0, "rental_uris": {"android": "https://dc.lft.to/lastmile_qr_scan", "ios": "https://dc.lft.to/lastmile_qr_scan"}, "fusion_lon": 0.0, "name": "b74974e38f470ec24fac11d9eeef55c4", "lon": -77.0148845, "is_disabled": 0, "type": "electric_scooter"}, {"bike_id": "86ff084292d6918c1f5dc2f59128aa8f", "lat": 38.91744, "is_reserved": 0, "fusion_lat": 0.0, "rental_uris": {"android": "https://dc.lft.to/lastmile_qr_scan", "ios": "https://dc.lft.to/lastmile_qr_scan"}, "fusion_lon": 0.0, "name": "86ff084292d6918c1f5dc2f59128aa8f", "lon": -77.03195666666667, "is_disabled": 0, "type": "electric_scooter"}, {"bike_id": "bff10a767e83fab80d331ffc99be9d6a", "lat": 38.937011166666665, "is_reserved": 0, "fusion_lat": 0.0, "rental_uris": {"android": "https://dc.lft.to/lastmile_qr_scan", "ios": "https://dc.lft.to/lastmile_qr_scan"}, "fusion_lon": 0.0, "name": "bff10a767e83fab80d331ffc99be9d6a", "lon": -77.02401866666666, "is_disabled": 0, "type": "electric_scooter"}, {"bike_id": "ed47eb6d085d67bff19f92e92105caa5", "lat": 38.9054735, "is_reserved": 0, "fusion_lat": 0.0, "rental_uris": {"android": "https://dc.lft.to/lastmile_qr_scan", "ios": "https://dc.lft.to/lastmile_qr_scan"}, "fusion_lon": 0.0, "name": "ed47eb6d085d67bff19f92e92105caa5", "lon": -77.042937, "is_disabled": 0, "type": "electric_scooter"}, {"bike_id": "f6237726c88287385e322a6bfc3d871b", "lat": 38.902590833333335, "is_reserved": 0, "fusion_lat": 0.0, "rental_uris": {"android": "https://dc.lft.to/lastmile_qr_scan", "ios": "https://dc.lft.to/lastmile_qr_scan"}, "fusion_lon": 0.0, "name": "f6237726c88287385e322a6bfc3d871b", "lon": -77.01913816666666, "is_disabled": 0, "type": "electric_scooter"}, {"bike_id": "32b235e5c4e7db59475be874e93b9277", "lat": 38.916202, "is_reserved": 0, "fusion_lat": 0.0, "rental_uris": {"android": "https://dc.lft.to/lastmile_qr_scan", "ios": "https://dc.lft.to/lastmile_qr_scan"}, "fusion_lon": 0.0, "name": "32b235e5c4e7db59475be874e93b9277", "lon": -77.03048033333333, "is_disabled": 0, "type": "electric_scooter"}, {"bike_id": "12e7aa42a3fd5735e95b2ca6c9ae421a", "lat": 38.922015, "is_reserved": 0, "fusion_lat": 0.0, "rental_uris": {"android": "https://dc.lft.to/lastmile_qr_scan", "ios": "https://dc.lft.to/lastmile_qr_scan"}, "fusion_lon": 0.0, "name": "12e7aa42a3fd5735e95b2ca6c9ae421a", "lon": -77.03405083333334, "is_disabled": 0, "type": "electric_scooter"}, {"bike_id": "c9274f980faa3cfe949ee5f5dafb0540", "lat": 38.892337833333336, "is_reserved": 0, "fusion_lat": 0.0, "rental_uris": {"android": "https://dc.lft.to/lastmile_qr_scan", "ios": "https://dc.lft.to/lastmile_qr_scan"}, "fusion_lon": 0.0, "name": "c9274f980faa3cfe949ee5f5dafb0540", "lon": -77.04155266666666, "is_disabled": 0, "type": "electric_scooter"}, {"bike_id": "2e21dc851a4b92f65b931d4fc0a8b31c", "lat": 38.873738333333336, "is_reserved": 0, "fusion_lat": 0.0, "rental_uris": {"android": "https://dc.lft.to/lastmile_qr_scan", "ios": "https://dc.lft.to/lastmile_qr_scan"}, "fusion_lon": 0.0, "name": "2e21dc851a4b92f65b931d4fc0a8b31c", "lon": -77.00067116666666, "is_disabled": 0, "type": "electric_scooter"}, {"bike_id": "752d9e44e54f8bea9f680f2c04da830e", "lat": 38.93309683333333, "is_reserved": 0, "fusion_lat": 0.0, "rental_uris": {"android": "https://dc.lft.to/lastmile_qr_scan", "ios": "https://dc.lft.to/lastmile_qr_scan"}, "fusion_lon": 0.0, "name": "752d9e44e54f8bea9f680f2c04da830e", "lon": -77.03634833333334, "is_disabled": 0, "type": "electric_scooter"}, {"bike_id": "dd9eca8afb27d3839baa1a7d7098c5c8", "lat": 38.923336, "is_reserved": 0, "fusion_lat": 0.0, "rental_uris": {"android": "https://dc.lft.to/lastmile_qr_scan", "ios": "https://dc.lft.to/lastmile_qr_scan"}, "fusion_lon": 0.0, "name": "dd9eca8afb27d3839baa1a7d7098c5c8", "lon": -77.0533885, "is_disabled": 0, "type": "electric_scooter"}, {"bike_id": "1b63bbf178084a5c646b713246384a3f", "lat": 38.90679466666667, "is_reserved": 0, "fusion_lat": 0.0, "rental_uris": {"android": "https://dc.lft.to/lastmile_qr_scan", "ios": "https://dc.lft.to/lastmile_qr_scan"}, "fusion_lon": 0.0, "name": "1b63bbf178084a5c646b713246384a3f", "lon": -77.038222, "is_disabled": 0, "type": "electric_scooter"}, {"bike_id": "1f3581e4defb6291748ce2030956fcd5", "lat": 38.918733, "is_reserved": 0, "fusion_lat": 0.0, "rental_uris": {"android": "https://dc.lft.to/lastmile_qr_scan", "ios": "https://dc.lft.to/lastmile_qr_scan"}, "fusion_lon": 0.0, "name": "1f3581e4defb6291748ce2030956fcd5", "lon": -77.01478716666666, "is_disabled": 0, "type": "electric_scooter"}, {"bike_id": "1620e17d48db403ae34f5d74e38f0ff4", "lat": 38.885285333333336, "is_reserved": 0, "fusion_lat": 0.0, "rental_uris": {"android": "https://dc.lft.to/lastmile_qr_scan", "ios": "https://dc.lft.to/lastmile_qr_scan"}, "fusion_lon": 0.0, "name": "1620e17d48db403ae34f5d74e38f0ff4", "lon": -77.02962516666666, "is_disabled": 0, "type": "electric_scooter"}, {"bike_id": "983139aaa4f455f6ce608a122d7427db", "lat": 38.9056545, "is_reserved": 0, "fusion_lat": 0.0, "rental_uris": {"android": "https://dc.lft.to/lastmile_qr_scan", "ios": "https://dc.lft.to/lastmile_qr_scan"}, "fusion_lon": 0.0, "name": "983139aaa4f455f6ce608a122d7427db", "lon": -77.021787, "is_disabled": 0, "type": "electric_scooter"}, {"bike_id": "61b00312f3e15fd631e5d732250386e2", "lat": 38.92970483333333, "is_reserved": 0, "fusion_lat": 0.0, "rental_uris": {"android": "https://dc.lft.to/lastmile_qr_scan", "ios": "https://dc.lft.to/lastmile_qr_scan"}, "fusion_lon": 0.0, "name": "61b00312f3e15fd631e5d732250386e2", "lon": -77.01303283333333, "is_disabled": 0, "type": "electric_scooter"}, {"bike_id": "b6d434ccfad5d9b857dc7dfcc43ac5d9", "lat": 38.8997205, "is_reserved": 0, "fusion_lat": 0.0, "rental_uris": {"android": "https://dc.lft.to/lastmile_qr_scan", "ios": "https://dc.lft.to/lastmile_qr_scan"}, "fusion_lon": 0.0, "name": "b6d434ccfad5d9b857dc7dfcc43ac5d9", "lon": -76.93777516666667, "is_disabled": 0, "type": "electric_scooter"}, {"bike_id": "c5463e0d61f0e3fd8184625c6a8d5308", "lat": 38.9004955, "is_reserved": 0, "fusion_lat": 0.0, "rental_uris": {"android": "https://dc.lft.to/lastmile_qr_scan", "ios": "https://dc.lft.to/lastmile_qr_scan"}, "fusion_lon": 0.0, "name": "c5463e0d61f0e3fd8184625c6a8d5308", "lon": -77.00070833333334, "is_disabled": 0, "type": "electric_scooter"}, {"bike_id": "2269ce7cac7c6a3a0ba810a2f7a87579", "lat": 38.899422333333334, "is_reserved": 0, "fusion_lat": 0.0, "rental_uris": {"android": "https://dc.lft.to/lastmile_qr_scan", "ios": "https://dc.lft.to/lastmile_qr_scan"}, "fusion_lon": 0.0, "name": "2269ce7cac7c6a3a0ba810a2f7a87579", "lon": -77.01458066666666, "is_disabled": 0, "type": "electric_scooter"}, {"bike_id": "392ba523868be3652e4cfc9ec32dfe16", "lat": 38.90666216666666, "is_reserved": 0, "fusion_lat": 0.0, "rental_uris": {"android": "https://dc.lft.to/lastmile_qr_scan", "ios": "https://dc.lft.to/lastmile_qr_scan"}, "fusion_lon": 0.0, "name": "392ba523868be3652e4cfc9ec32dfe16", "lon": -77.02699916666667, "is_disabled": 0, "type": "electric_scooter"}, {"bike_id": "78c17c3b865ac1b805fcc945d14ebca5", "lat": 38.91419533333333, "is_reserved": 0, "fusion_lat": 0.0, "rental_uris": {"android": "https://dc.lft.to/lastmile_qr_scan", "ios": "https://dc.lft.to/lastmile_qr_scan"}, "fusion_lon": 0.0, "name": "78c17c3b865ac1b805fcc945d14ebca5", "lon": -77.01986633333334, "is_disabled": 0, "type": "electric_scooter"}, {"bike_id": "1524202bdcae35c9be98af4a171d81c6", "lat": 38.9181435, "is_reserved": 0, "fusion_lat": 0.0, "rental_uris": {"android": "https://dc.lft.to/lastmile_qr_scan", "ios": "https://dc.lft.to/lastmile_qr_scan"}, "fusion_lon": 0.0, "name": "1524202bdcae35c9be98af4a171d81c6", "lon": -77.04005833333333, "is_disabled": 0, "type": "electric_scooter"}, {"bike_id": "4208826970b3d7f07bbd0cb0ade6ccf3", "lat": 38.9353145, "is_reserved": 0, "fusion_lat": 0.0, "rental_uris": {"android": "https://dc.lft.to/lastmile_qr_scan", "ios": "https://dc.lft.to/lastmile_qr_scan"}, "fusion_lon": 0.0, "name": "4208826970b3d7f07bbd0cb0ade6ccf3", "lon": -77.02349833333334, "is_disabled": 0, "type": "electric_scooter"}, {"bike_id": "ea5341f54afaaddf5c77a8782b67096a", "lat": 38.89374166666666, "is_reserved": 0, "fusion_lat": 0.0, "rental_uris": {"android": "https://dc.lft.to/lastmile_qr_scan", "ios": "https://dc.lft.to/lastmile_qr_scan"}, "fusion_lon": 0.0, "name": "ea5341f54afaaddf5c77a8782b67096a", "lon": -77.02259633333334, "is_disabled": 0, "type": "electric_scooter"}, {"bike_id": "5046e37fe25bd85f9285fa0d69864c4f", "lat": 38.89528166666667, "is_reserved": 0, "fusion_lat": 0.0, "rental_uris": {"android": "https://dc.lft.to/lastmile_qr_scan", "ios": "https://dc.lft.to/lastmile_qr_scan"}, "fusion_lon": 0.0, "name": "5046e37fe25bd85f9285fa0d69864c4f", "lon": -77.0283285, "is_disabled": 0, "type": "electric_scooter"}, {"bike_id": "108c2d07e2ed456680fddb81ad875159", "lat": 38.9260445, "is_reserved": 0, "fusion_lat": 0.0, "rental_uris": {"android": "https://dc.lft.to/lastmile_qr_scan", "ios": "https://dc.lft.to/lastmile_qr_scan"}, "fusion_lon": 0.0, "name": "108c2d07e2ed456680fddb81ad875159", "lon": -77.0570815, "is_disabled": 0, "type": "electric_scooter"}, {"bike_id": "8236d9c2bf14a4f0b71be2977cdf7e01", "lat": 38.8360685, "is_reserved": 0, "fusion_lat": 0.0, "rental_uris": {"android": "https://dc.lft.to/lastmile_qr_scan", "ios": "https://dc.lft.to/lastmile_qr_scan"}, "fusion_lon": 0.0, "name": "8236d9c2bf14a4f0b71be2977cdf7e01", "lon": -77.00381983333334, "is_disabled": 0, "type": "electric_bike"}, {"bike_id": "78eb1e7753134c1d386358ef37384504", "lat": 38.8974155, "is_reserved": 0, "fusion_lat": 0.0, "rental_uris": {"android": "https://dc.lft.to/lastmile_qr_scan", "ios": "https://dc.lft.to/lastmile_qr_scan"}, "fusion_lon": 0.0, "name": "78eb1e7753134c1d386358ef37384504", "lon": -77.0555925, "is_disabled": 0, "type": "electric_bike"}, {"bike_id": "d503b548d53a5d8bde16bf1bce54e0d4", "lat": 38.89220183333333, "is_reserved": 0, "fusion_lat": 0.0, "rental_uris": {"android": "https://dc.lft.to/lastmile_qr_scan", "ios": "https://dc.lft.to/lastmile_qr_scan"}, "fusion_lon": 0.0, "name": "d503b548d53a5d8bde16bf1bce54e0d4", "lon": -77.048711, "is_disabled": 0, "type": "electric_scooter"}, {"bike_id": "17de0fa1faf8e2e243e273bfc5d3dc8f", "lat": 38.908491166666664, "is_reserved": 0, "fusion_lat": 0.0, "rental_uris": {"android": "https://dc.lft.to/lastmile_qr_scan", "ios": "https://dc.lft.to/lastmile_qr_scan"}, "fusion_lon": 0.0, "name": "17de0fa1faf8e2e243e273bfc5d3dc8f", "lon": -76.99803766666666, "is_disabled": 0, "type": "electric_scooter"}, {"bike_id": "c758e09a36d46706a119ff12adf5e9ff", "lat": 38.913987666666664, "is_reserved": 0, "fusion_lat": 0.0, "rental_uris": {"android": "https://dc.lft.to/lastmile_qr_scan", "ios": "https://dc.lft.to/lastmile_qr_scan"}, "fusion_lon": 0.0, "name": "c758e09a36d46706a119ff12adf5e9ff", "lon": -77.024107, "is_disabled": 0, "type": "electric_scooter"}, {"bike_id": "d1cdcf579702dd86c5a7e4a100ac5401", "lat": 38.9181405, "is_reserved": 0, "fusion_lat": 0.0, "rental_uris": {"android": "https://dc.lft.to/lastmile_qr_scan", "ios": "https://dc.lft.to/lastmile_qr_scan"}, "fusion_lon": 0.0, "name": "d1cdcf579702dd86c5a7e4a100ac5401", "lon": -77.0248085, "is_disabled": 0, "type": "electric_scooter"}, {"bike_id": "e499ae3ad89d534df69c6060e9aa3f56", "lat": 38.893268666666664, "is_reserved": 0, "fusion_lat": 0.0, "rental_uris": {"android": "https://dc.lft.to/lastmile_qr_scan", "ios": "https://dc.lft.to/lastmile_qr_scan"}, "fusion_lon": 0.0, "name": "e499ae3ad89d534df69c6060e9aa3f56", "lon": -77.046763, "is_disabled": 0, "type": "electric_scooter"}, {"bike_id": "5eb652f965b8a9bc3b6fd6cd805887f4", "lat": 38.93227516666666, "is_reserved": 0, "fusion_lat": 0.0, "rental_uris": {"android": "https://dc.lft.to/lastmile_qr_scan", "ios": "https://dc.lft.to/lastmile_qr_scan"}, "fusion_lon": 0.0, "name": "5eb652f965b8a9bc3b6fd6cd805887f4", "lon": -77.03862083333334, "is_disabled": 0, "type": "electric_scooter"}, {"bike_id": "7b926465fb92dd22ea61ea731524bc96", "lat": 38.892398, "is_reserved": 0, "fusion_lat": 0.0, "rental_uris": {"android": "https://dc.lft.to/lastmile_qr_scan", "ios": "https://dc.lft.to/lastmile_qr_scan"}, "fusion_lon": 0.0, "name": "7b926465fb92dd22ea61ea731524bc96", "lon": -77.039685, "is_disabled": 0, "type": "electric_scooter"}, {"bike_id": "417fd15425f7838e30c97164f0ec1b9b", "lat": 38.90800316666667, "is_reserved": 0, "fusion_lat": 0.0, "rental_uris": {"android": "https://dc.lft.to/lastmile_qr_scan", "ios": "https://dc.lft.to/lastmile_qr_scan"}, "fusion_lon": 0.0, "name": "417fd15425f7838e30c97164f0ec1b9b", "lon": -77.03065716666667, "is_disabled": 0, "type": "electric_scooter"}, {"bike_id": "da9d152e71c78d7e39287bb944624d92", "lat": 38.922146, "is_reserved": 0, "fusion_lat": 0.0, "rental_uris": {"android": "https://dc.lft.to/lastmile_qr_scan", "ios": "https://dc.lft.to/lastmile_qr_scan"}, "fusion_lon": 0.0, "name": "da9d152e71c78d7e39287bb944624d92", "lon": -77.20142, "is_disabled": 0, "type": "electric_bike"}, {"bike_id": "fb136022a87be575a12f76cadb91da14", "lat": 38.861573, "is_reserved": 0, "fusion_lat": 0.0, "rental_uris": {"android": "https://dc.lft.to/lastmile_qr_scan", "ios": "https://dc.lft.to/lastmile_qr_scan"}, "fusion_lon": 0.0, "name": "fb136022a87be575a12f76cadb91da14", "lon": -77.09147833333333, "is_disabled": 0, "type": "electric_bike"}, {"bike_id": "b175f3087e884255e022bb79bd2aabf6", "lat": 38.898651666666666, "is_reserved": 0, "fusion_lat": 0.0, "rental_uris": {"android": "https://dc.lft.to/lastmile_qr_scan", "ios": "https://dc.lft.to/lastmile_qr_scan"}, "fusion_lon": 0.0, "name": "b175f3087e884255e022bb79bd2aabf6", "lon": -76.946423, "is_disabled": 0, "type": "electric_scooter"}, {"bike_id": "7573d6482ff592b1c5cad1cbe8dfedff", "lat": 38.8705865, "is_reserved": 0, "fusion_lat": 0.0, "rental_uris": {"android": "https://dc.lft.to/lastmile_qr_scan", "ios": "https://dc.lft.to/lastmile_qr_scan"}, "fusion_lon": 0.0, "name": "7573d6482ff592b1c5cad1cbe8dfedff", "lon": -76.97098316666667, "is_disabled": 0, "type": "electric_scooter"}, {"bike_id": "2f9112af65c99ab86de691fac29df156", "lat": 38.933904, "is_reserved": 0, "fusion_lat": 0.0, "rental_uris": {"android": "https://dc.lft.to/lastmile_qr_scan", "ios": "https://dc.lft.to/lastmile_qr_scan"}, "fusion_lon": 0.0, "name": "2f9112af65c99ab86de691fac29df156", "lon": -77.05743583333333, "is_disabled": 0, "type": "electric_scooter"}, {"bike_id": "1b6ecded0a99861f6560b7d585e2d800", "lat": 38.905048, "is_reserved": 0, "fusion_lat": 0.0, "rental_uris": {"android": "https://dc.lft.to/lastmile_qr_scan", "ios": "https://dc.lft.to/lastmile_qr_scan"}, "fusion_lon": 0.0, "name": "1b6ecded0a99861f6560b7d585e2d800", "lon": -77.06994933333333, "is_disabled": 0, "type": "electric_bike"}, {"bike_id": "6ab35e741f38f12b0c3a074019b3edcc", "lat": 38.907267, "is_reserved": 0, "fusion_lat": 0.0, "rental_uris": {"android": "https://dc.lft.to/lastmile_qr_scan", "ios": "https://dc.lft.to/lastmile_qr_scan"}, "fusion_lon": 0.0, "name": "6ab35e741f38f12b0c3a074019b3edcc", "lon": -77.02379116666667, "is_disabled": 0, "type": "electric_scooter"}, {"bike_id": "c2920e5a8cfdbff6174ac6507a4a34fa", "lat": 38.9027875, "is_reserved": 0, "fusion_lat": 0.0, "rental_uris": {"android": "https://dc.lft.to/lastmile_qr_scan", "ios": "https://dc.lft.to/lastmile_qr_scan"}, "fusion_lon": 0.0, "name": "c2920e5a8cfdbff6174ac6507a4a34fa", "lon": -77.058089, "is_disabled": 0, "type": "electric_scooter"}, {"bike_id": "4816d21e41f77696005c556a7f604b8d", "lat": 38.922783833333334, "is_reserved": 0, "fusion_lat": 0.0, "rental_uris": {"android": "https://dc.lft.to/lastmile_qr_scan", "ios": "https://dc.lft.to/lastmile_qr_scan"}, "fusion_lon": 0.0, "name": "4816d21e41f77696005c556a7f604b8d", "lon": -77.0366685, "is_disabled": 0, "type": "electric_scooter"}, {"bike_id": "aaa37da9d6135efb4565c435234d49f3", "lat": 38.94050583333333, "is_reserved": 0, "fusion_lat": 0.0, "rental_uris": {"android": "https://dc.lft.to/lastmile_qr_scan", "ios": "https://dc.lft.to/lastmile_qr_scan"}, "fusion_lon": 0.0, "name": "aaa37da9d6135efb4565c435234d49f3", "lon": -77.02344266666667, "is_disabled": 0, "type": "electric_scooter"}, {"bike_id": "a85be4e2a296fcfafbb074a0bcb8cf3d", "lat": 38.911056333333335, "is_reserved": 0, "fusion_lat": 0.0, "rental_uris": {"android": "https://dc.lft.to/lastmile_qr_scan", "ios": "https://dc.lft.to/lastmile_qr_scan"}, "fusion_lon": 0.0, "name": "a85be4e2a296fcfafbb074a0bcb8cf3d", "lon": -77.04406133333333, "is_disabled": 0, "type": "electric_scooter"}, {"bike_id": "bd3430676aa4afc00e7ebfad5d9a1aef", "lat": 38.93607933333333, "is_reserved": 0, "fusion_lat": 0.0, "rental_uris": {"android": "https://dc.lft.to/lastmile_qr_scan", "ios": "https://dc.lft.to/lastmile_qr_scan"}, "fusion_lon": 0.0, "name": "bd3430676aa4afc00e7ebfad5d9a1aef", "lon": -77.05901366666667, "is_disabled": 0, "type": "electric_scooter"}, {"bike_id": "1aba49fa99858e698ecd5e81e10fe642", "lat": 38.915986333333336, "is_reserved": 0, "fusion_lat": 0.0, "rental_uris": {"android": "https://dc.lft.to/lastmile_qr_scan", "ios": "https://dc.lft.to/lastmile_qr_scan"}, "fusion_lon": 0.0, "name": "1aba49fa99858e698ecd5e81e10fe642", "lon": -77.00197566666667, "is_disabled": 0, "type": "electric_scooter"}, {"bike_id": "0aca37bc8249f0276d181be0434c35d1", "lat": 38.89220266666667, "is_reserved": 0, "fusion_lat": 0.0, "rental_uris": {"android": "https://dc.lft.to/lastmile_qr_scan", "ios": "https://dc.lft.to/lastmile_qr_scan"}, "fusion_lon": 0.0, "name": "0aca37bc8249f0276d181be0434c35d1", "lon": -77.04871333333334, "is_disabled": 0, "type": "electric_scooter"}, {"bike_id": "17e8d3b9281f3e0b4ccd1ef6da1965f5", "lat": 38.90969066666667, "is_reserved": 0, "fusion_lat": 0.0, "rental_uris": {"android": "https://dc.lft.to/lastmile_qr_scan", "ios": "https://dc.lft.to/lastmile_qr_scan"}, "fusion_lon": 0.0, "name": "17e8d3b9281f3e0b4ccd1ef6da1965f5", "lon": -77.01718716666667, "is_disabled": 0, "type": "electric_scooter"}, {"bike_id": "d0362c0ed87d4eb96070622370adf441", "lat": 38.903937666666664, "is_reserved": 0, "fusion_lat": 0.0, "rental_uris": {"android": "https://dc.lft.to/lastmile_qr_scan", "ios": "https://dc.lft.to/lastmile_qr_scan"}, "fusion_lon": 0.0, "name": "d0362c0ed87d4eb96070622370adf441", "lon": -77.04668983333333, "is_disabled": 0, "type": "electric_scooter"}, {"bike_id": "fdf91cf8f1ee6d3690fbdfa953a197d0", "lat": 38.941080666666664, "is_reserved": 0, "fusion_lat": 0.0, "rental_uris": {"android": "https://dc.lft.to/lastmile_qr_scan", "ios": "https://dc.lft.to/lastmile_qr_scan"}, "fusion_lon": 0.0, "name": "fdf91cf8f1ee6d3690fbdfa953a197d0", "lon": -77.0253675, "is_disabled": 0, "type": "electric_scooter"}, {"bike_id": "5be51df2eca7b087d0380288076318fb", "lat": 38.90255466666667, "is_reserved": 0, "fusion_lat": 0.0, "rental_uris": {"android": "https://dc.lft.to/lastmile_qr_scan", "ios": "https://dc.lft.to/lastmile_qr_scan"}, "fusion_lon": 0.0, "name": "5be51df2eca7b087d0380288076318fb", "lon": -77.04825666666666, "is_disabled": 0, "type": "electric_scooter"}, {"bike_id": "ec251a634192084b4116ad919d9c910e", "lat": 38.9232395, "is_reserved": 0, "fusion_lat": 0.0, "rental_uris": {"android": "https://dc.lft.to/lastmile_qr_scan", "ios": "https://dc.lft.to/lastmile_qr_scan"}, "fusion_lon": 0.0, "name": "ec251a634192084b4116ad919d9c910e", "lon": -77.0296995, "is_disabled": 0, "type": "electric_scooter"}, {"bike_id": "012cef6593262be570fe20b78b2f4c5a", "lat": 38.91553366666667, "is_reserved": 0, "fusion_lat": 0.0, "rental_uris": {"android": "https://dc.lft.to/lastmile_qr_scan", "ios": "https://dc.lft.to/lastmile_qr_scan"}, "fusion_lon": 0.0, "name": "012cef6593262be570fe20b78b2f4c5a", "lon": -77.03328066666667, "is_disabled": 0, "type": "electric_scooter"}, {"bike_id": "f184f0a005017e8742a58655a1d26853", "lat": 38.926979833333334, "is_reserved": 0, "fusion_lat": 0.0, "rental_uris": {"android": "https://dc.lft.to/lastmile_qr_scan", "ios": "https://dc.lft.to/lastmile_qr_scan"}, "fusion_lon": 0.0, "name": "f184f0a005017e8742a58655a1d26853", "lon": -77.03644166666666, "is_disabled": 0, "type": "electric_scooter"}, {"bike_id": "2716fce8e9c9bbc2a7eea17432670ed6", "lat": 38.88302066666667, "is_reserved": 0, "fusion_lat": 0.0, "rental_uris": {"android": "https://dc.lft.to/lastmile_qr_scan", "ios": "https://dc.lft.to/lastmile_qr_scan"}, "fusion_lon": 0.0, "name": "2716fce8e9c9bbc2a7eea17432670ed6", "lon": -76.9420275, "is_disabled": 0, "type": "electric_scooter"}, {"bike_id": "170e05e58ca99c0142ea4e915e8ddf78", "lat": 38.965554166666664, "is_reserved": 0, "fusion_lat": 0.0, "rental_uris": {"android": "https://dc.lft.to/lastmile_qr_scan", "ios": "https://dc.lft.to/lastmile_qr_scan"}, "fusion_lon": 0.0, "name": "170e05e58ca99c0142ea4e915e8ddf78", "lon": -77.00208566666667, "is_disabled": 0, "type": "electric_scooter"}, {"bike_id": "12b512ff229156bbe315c2dd17f0fce5", "lat": 38.892218, "is_reserved": 0, "fusion_lat": 0.0, "rental_uris": {"android": "https://dc.lft.to/lastmile_qr_scan", "ios": "https://dc.lft.to/lastmile_qr_scan"}, "fusion_lon": 0.0, "name": "12b512ff229156bbe315c2dd17f0fce5", "lon": -77.04367866666666, "is_disabled": 0, "type": "electric_scooter"}, {"bike_id": "29b97d4eacd26c120dc8009f54959041", "lat": 38.92300516666667, "is_reserved": 0, "fusion_lat": 0.0, "rental_uris": {"android": "https://dc.lft.to/lastmile_qr_scan", "ios": "https://dc.lft.to/lastmile_qr_scan"}, "fusion_lon": 0.0, "name": "29b97d4eacd26c120dc8009f54959041", "lon": -77.041837, "is_disabled": 0, "type": "electric_scooter"}, {"bike_id": "b761a403afad9633cf5897537cd9b5b4", "lat": 38.921474833333335, "is_reserved": 0, "fusion_lat": 0.0, "rental_uris": {"android": "https://dc.lft.to/lastmile_qr_scan", "ios": "https://dc.lft.to/lastmile_qr_scan"}, "fusion_lon": 0.0, "name": "b761a403afad9633cf5897537cd9b5b4", "lon": -77.03511066666667, "is_disabled": 0, "type": "electric_scooter"}, {"bike_id": "2d21843d97108ca122b261b3772afa65", "lat": 38.89224133333333, "is_reserved": 0, "fusion_lat": 0.0, "rental_uris": {"android": "https://dc.lft.to/lastmile_qr_scan", "ios": "https://dc.lft.to/lastmile_qr_scan"}, "fusion_lon": 0.0, "name": "2d21843d97108ca122b261b3772afa65", "lon": -77.03167983333333, "is_disabled": 0, "type": "electric_scooter"}, {"bike_id": "7ef047ef4f0167bc67f21968521a60b0", "lat": 38.88821, "is_reserved": 0, "fusion_lat": 0.0, "rental_uris": {"android": "https://dc.lft.to/lastmile_qr_scan", "ios": "https://dc.lft.to/lastmile_qr_scan"}, "fusion_lon": 0.0, "name": "7ef047ef4f0167bc67f21968521a60b0", "lon": -76.930129, "is_disabled": 0, "type": "electric_scooter"}, {"bike_id": "e563634e5a34b42fac2aca15f8b5719e", "lat": 38.90723633333333, "is_reserved": 0, "fusion_lat": 0.0, "rental_uris": {"android": "https://dc.lft.to/lastmile_qr_scan", "ios": "https://dc.lft.to/lastmile_qr_scan"}, "fusion_lon": 0.0, "name": "e563634e5a34b42fac2aca15f8b5719e", "lon": -77.02272116666667, "is_disabled": 0, "type": "electric_scooter"}, {"bike_id": "8b6d678295601fc4f9e49ee82464a2a9", "lat": 38.93242733333334, "is_reserved": 0, "fusion_lat": 0.0, "rental_uris": {"android": "https://dc.lft.to/lastmile_qr_scan", "ios": "https://dc.lft.to/lastmile_qr_scan"}, "fusion_lon": 0.0, "name": "8b6d678295601fc4f9e49ee82464a2a9", "lon": -76.995109, "is_disabled": 0, "type": "electric_scooter"}, {"bike_id": "a7ebf02b1a8ba3bc03b0f1bebd4e5d84", "lat": 38.921178833333336, "is_reserved": 0, "fusion_lat": 0.0, "rental_uris": {"android": "https://dc.lft.to/lastmile_qr_scan", "ios": "https://dc.lft.to/lastmile_qr_scan"}, "fusion_lon": 0.0, "name": "a7ebf02b1a8ba3bc03b0f1bebd4e5d84", "lon": -77.03660483333333, "is_disabled": 0, "type": "electric_scooter"}, {"bike_id": "85c470db5242eea0902136329343900e", "lat": 38.922166, "is_reserved": 0, "fusion_lat": 0.0, "rental_uris": {"android": "https://dc.lft.to/lastmile_qr_scan", "ios": "https://dc.lft.to/lastmile_qr_scan"}, "fusion_lon": 0.0, "name": "85c470db5242eea0902136329343900e", "lon": -77.0346865, "is_disabled": 0, "type": "electric_scooter"}, {"bike_id": "2e169f15c5b509bca41cf386b475bb92", "lat": 38.91714016666667, "is_reserved": 0, "fusion_lat": 0.0, "rental_uris": {"android": "https://dc.lft.to/lastmile_qr_scan", "ios": "https://dc.lft.to/lastmile_qr_scan"}, "fusion_lon": 0.0, "name": "2e169f15c5b509bca41cf386b475bb92", "lon": -77.0321285, "is_disabled": 0, "type": "electric_scooter"}, {"bike_id": "9147bded06be879af7d408cc82e78eef", "lat": 38.91611666666667, "is_reserved": 0, "fusion_lat": 0.0, "rental_uris": {"android": "https://dc.lft.to/lastmile_qr_scan", "ios": "https://dc.lft.to/lastmile_qr_scan"}, "fusion_lon": 0.0, "name": "9147bded06be879af7d408cc82e78eef", "lon": -77.04834616666666, "is_disabled": 0, "type": "electric_scooter"}, {"bike_id": "fec9ec8dc0049fd66434fd043caf3eb7", "lat": 38.9029125, "is_reserved": 0, "fusion_lat": 0.0, "rental_uris": {"android": "https://dc.lft.to/lastmile_qr_scan", "ios": "https://dc.lft.to/lastmile_qr_scan"}, "fusion_lon": 0.0, "name": "fec9ec8dc0049fd66434fd043caf3eb7", "lon": -76.97637466666667, "is_disabled": 0, "type": "electric_scooter"}, {"bike_id": "7d86ba55f8f3d7cb7cb40f490506223b", "lat": 38.900682333333336, "is_reserved": 0, "fusion_lat": 0.0, "rental_uris": {"android": "https://dc.lft.to/lastmile_qr_scan", "ios": "https://dc.lft.to/lastmile_qr_scan"}, "fusion_lon": 0.0, "name": "7d86ba55f8f3d7cb7cb40f490506223b", "lon": -77.0364675, "is_disabled": 0, "type": "electric_scooter"}, {"bike_id": "895e5ec5f6ecd3fb6f0257715dae5e4f", "lat": 39.039909333333334, "is_reserved": 0, "fusion_lat": 0.0, "rental_uris": {"android": "https://dc.lft.to/lastmile_qr_scan", "ios": "https://dc.lft.to/lastmile_qr_scan"}, "fusion_lon": 0.0, "name": "895e5ec5f6ecd3fb6f0257715dae5e4f", "lon": -76.99931, "is_disabled": 0, "type": "electric_bike"}, {"bike_id": "96dada9daf237c137e11b3353c449d95", "lat": 38.928568166666665, "is_reserved": 0, "fusion_lat": 0.0, "rental_uris": {"android": "https://dc.lft.to/lastmile_qr_scan", "ios": "https://dc.lft.to/lastmile_qr_scan"}, "fusion_lon": 0.0, "name": "96dada9daf237c137e11b3353c449d95", "lon": -77.00561666666667, "is_disabled": 0, "type": "electric_scooter"}, {"bike_id": "0d25aa3a4780b7b1586521cb7892c0cc", "lat": 38.905696166666665, "is_reserved": 0, "fusion_lat": 0.0, "rental_uris": {"android": "https://dc.lft.to/lastmile_qr_scan", "ios": "https://dc.lft.to/lastmile_qr_scan"}, "fusion_lon": 0.0, "name": "0d25aa3a4780b7b1586521cb7892c0cc", "lon": -76.97784966666667, "is_disabled": 0, "type": "electric_scooter"}, {"bike_id": "2231f63223cf11ecce06ccf68a3b8834", "lat": 38.87754316666667, "is_reserved": 0, "fusion_lat": 0.0, "rental_uris": {"android": "https://dc.lft.to/lastmile_qr_scan", "ios": "https://dc.lft.to/lastmile_qr_scan"}, "fusion_lon": 0.0, "name": "2231f63223cf11ecce06ccf68a3b8834", "lon": -76.9868705, "is_disabled": 0, "type": "electric_scooter"}, {"bike_id": "42a07704b4a8a3cad1f7da7916b4fcc5", "lat": 38.895658, "is_reserved": 0, "fusion_lat": 0.0, "rental_uris": {"android": "https://dc.lft.to/lastmile_qr_scan", "ios": "https://dc.lft.to/lastmile_qr_scan"}, "fusion_lon": 0.0, "name": "42a07704b4a8a3cad1f7da7916b4fcc5", "lon": -76.93029866666667, "is_disabled": 0, "type": "electric_scooter"}, {"bike_id": "8592fcc675028a54a73a5a49ba714e2a", "lat": 38.912653166666665, "is_reserved": 0, "fusion_lat": 0.0, "rental_uris": {"android": "https://dc.lft.to/lastmile_qr_scan", "ios": "https://dc.lft.to/lastmile_qr_scan"}, "fusion_lon": 0.0, "name": "8592fcc675028a54a73a5a49ba714e2a", "lon": -77.032411, "is_disabled": 0, "type": "electric_scooter"}, {"bike_id": "aa8da48e302e1ba9f5aa24dfc93ed1ad", "lat": 38.9210585, "is_reserved": 0, "fusion_lat": 0.0, "rental_uris": {"android": "https://dc.lft.to/lastmile_qr_scan", "ios": "https://dc.lft.to/lastmile_qr_scan"}, "fusion_lon": 0.0, "name": "aa8da48e302e1ba9f5aa24dfc93ed1ad", "lon": -77.01767833333334, "is_disabled": 0, "type": "electric_scooter"}, {"bike_id": "cb3b390e58f192d6b8ef217c61057d20", "lat": 38.914176833333336, "is_reserved": 0, "fusion_lat": 0.0, "rental_uris": {"android": "https://dc.lft.to/lastmile_qr_scan", "ios": "https://dc.lft.to/lastmile_qr_scan"}, "fusion_lon": 0.0, "name": "cb3b390e58f192d6b8ef217c61057d20", "lon": -77.02409966666667, "is_disabled": 0, "type": "electric_scooter"}, {"bike_id": "0a4bd3c4c7d48d0c173d28d51e9b5913", "lat": 38.832432, "is_reserved": 0, "fusion_lat": 0.0, "rental_uris": {"android": "https://dc.lft.to/lastmile_qr_scan", "ios": "https://dc.lft.to/lastmile_qr_scan"}, "fusion_lon": 0.0, "name": "0a4bd3c4c7d48d0c173d28d51e9b5913", "lon": -76.94631366666667, "is_disabled": 0, "type": "electric_bike"}, {"bike_id": "bb79840897358d67000b422dac2bce82", "lat": 38.884355166666666, "is_reserved": 0, "fusion_lat": 0.0, "rental_uris": {"android": "https://dc.lft.to/lastmile_qr_scan", "ios": "https://dc.lft.to/lastmile_qr_scan"}, "fusion_lon": 0.0, "name": "bb79840897358d67000b422dac2bce82", "lon": -76.99626566666667, "is_disabled": 0, "type": "electric_scooter"}, {"bike_id": "56073b28fa40be101d63a79950f915b9", "lat": 39.03420583333333, "is_reserved": 0, "fusion_lat": 0.0, "rental_uris": {"android": "https://dc.lft.to/lastmile_qr_scan", "ios": "https://dc.lft.to/lastmile_qr_scan"}, "fusion_lon": 0.0, "name": "56073b28fa40be101d63a79950f915b9", "lon": -77.0430625, "is_disabled": 0, "type": "electric_bike"}, {"bike_id": "1fd5f6ede513398783f0c117fe3b816e", "lat": 38.89832916666667, "is_reserved": 0, "fusion_lat": 0.0, "rental_uris": {"android": "https://dc.lft.to/lastmile_qr_scan", "ios": "https://dc.lft.to/lastmile_qr_scan"}, "fusion_lon": 0.0, "name": "1fd5f6ede513398783f0c117fe3b816e", "lon": -77.03048516666667, "is_disabled": 0, "type": "electric_scooter"}, {"bike_id": "c0e4fb61d1259c45b387f6fe3511bf67", "lat": 38.92902183333333, "is_reserved": 0, "fusion_lat": 0.0, "rental_uris": {"android": "https://dc.lft.to/lastmile_qr_scan", "ios": "https://dc.lft.to/lastmile_qr_scan"}, "fusion_lon": 0.0, "name": "c0e4fb61d1259c45b387f6fe3511bf67", "lon": -77.03252783333333, "is_disabled": 0, "type": "electric_scooter"}, {"bike_id": "a6f68116b1eda3bb854fd578032457c0", "lat": 38.9039035, "is_reserved": 0, "fusion_lat": 0.0, "rental_uris": {"android": "https://dc.lft.to/lastmile_qr_scan", "ios": "https://dc.lft.to/lastmile_qr_scan"}, "fusion_lon": 0.0, "name": "a6f68116b1eda3bb854fd578032457c0", "lon": -77.04853033333333, "is_disabled": 0, "type": "electric_scooter"}, {"bike_id": "d815153822dd2e08e0860a5e230c1e37", "lat": 38.88466283333333, "is_reserved": 0, "fusion_lat": 0.0, "rental_uris": {"android": "https://dc.lft.to/lastmile_qr_scan", "ios": "https://dc.lft.to/lastmile_qr_scan"}, "fusion_lon": 0.0, "name": "d815153822dd2e08e0860a5e230c1e37", "lon": -76.95664166666667, "is_disabled": 0, "type": "electric_bike"}, {"bike_id": "f77b6286b679a830693793a32e499625", "lat": 38.923221, "is_reserved": 0, "fusion_lat": 0.0, "rental_uris": {"android": "https://dc.lft.to/lastmile_qr_scan", "ios": "https://dc.lft.to/lastmile_qr_scan"}, "fusion_lon": 0.0, "name": "f77b6286b679a830693793a32e499625", "lon": -77.045224, "is_disabled": 0, "type": "electric_scooter"}, {"bike_id": "2ed80f286e203bdc543a0b55a1f7b50c", "lat": 38.921761000000004, "is_reserved": 0, "fusion_lat": 0.0, "rental_uris": {"android": "https://dc.lft.to/lastmile_qr_scan", "ios": "https://dc.lft.to/lastmile_qr_scan"}, "fusion_lon": 0.0, "name": "2ed80f286e203bdc543a0b55a1f7b50c", "lon": -77.02658616666666, "is_disabled": 0, "type": "electric_scooter"}, {"bike_id": "a89b91aac52effa3f4ca74ae5dfea11f", "lat": 38.91982866666667, "is_reserved": 0, "fusion_lat": 0.0, "rental_uris": {"android": "https://dc.lft.to/lastmile_qr_scan", "ios": "https://dc.lft.to/lastmile_qr_scan"}, "fusion_lon": 0.0, "name": "a89b91aac52effa3f4ca74ae5dfea11f", "lon": -77.02508066666667, "is_disabled": 0, "type": "electric_scooter"}, {"bike_id": "c9a235c3265a21512b8d9e894a91e11a", "lat": 38.908517833333335, "is_reserved": 0, "fusion_lat": 0.0, "rental_uris": {"android": "https://dc.lft.to/lastmile_qr_scan", "ios": "https://dc.lft.to/lastmile_qr_scan"}, "fusion_lon": 0.0, "name": "c9a235c3265a21512b8d9e894a91e11a", "lon": -76.99813233333333, "is_disabled": 0, "type": "electric_scooter"}, {"bike_id": "97243bd57e36320c918aa034c966bae3", "lat": 38.906127, "is_reserved": 0, "fusion_lat": 0.0, "rental_uris": {"android": "https://dc.lft.to/lastmile_qr_scan", "ios": "https://dc.lft.to/lastmile_qr_scan"}, "fusion_lon": 0.0, "name": "97243bd57e36320c918aa034c966bae3", "lon": -77.01213666666666, "is_disabled": 0, "type": "electric_scooter"}, {"bike_id": "1e945eada02dc56a1a356bca5c41c39a", "lat": 38.90074966666667, "is_reserved": 0, "fusion_lat": 0.0, "rental_uris": {"android": "https://dc.lft.to/lastmile_qr_scan", "ios": "https://dc.lft.to/lastmile_qr_scan"}, "fusion_lon": 0.0, "name": "1e945eada02dc56a1a356bca5c41c39a", "lon": -77.02715533333334, "is_disabled": 0, "type": "electric_scooter"}, {"bike_id": "8628ff042dde1ea518442ec741172c42", "lat": 38.90779216666667, "is_reserved": 0, "fusion_lat": 0.0, "rental_uris": {"android": "https://dc.lft.to/lastmile_qr_scan", "ios": "https://dc.lft.to/lastmile_qr_scan"}, "fusion_lon": 0.0, "name": "8628ff042dde1ea518442ec741172c42", "lon": -77.032102, "is_disabled": 0, "type": "electric_scooter"}, {"bike_id": "f6de28169434092c4abb9b69b0267acf", "lat": 38.916834, "is_reserved": 0, "fusion_lat": 0.0, "rental_uris": {"android": "https://dc.lft.to/lastmile_qr_scan", "ios": "https://dc.lft.to/lastmile_qr_scan"}, "fusion_lon": 0.0, "name": "f6de28169434092c4abb9b69b0267acf", "lon": -77.0408705, "is_disabled": 0, "type": "electric_scooter"}, {"bike_id": "a98ba89ffaad659bd025e247982b5934", "lat": 38.925395333333334, "is_reserved": 0, "fusion_lat": 0.0, "rental_uris": {"android": "https://dc.lft.to/lastmile_qr_scan", "ios": "https://dc.lft.to/lastmile_qr_scan"}, "fusion_lon": 0.0, "name": "a98ba89ffaad659bd025e247982b5934", "lon": -77.02136633333333, "is_disabled": 0, "type": "electric_scooter"}, {"bike_id": "7ddc59615da6e3dae37eb9363edfa219", "lat": 38.92227583333333, "is_reserved": 0, "fusion_lat": 0.0, "rental_uris": {"android": "https://dc.lft.to/lastmile_qr_scan", "ios": "https://dc.lft.to/lastmile_qr_scan"}, "fusion_lon": 0.0, "name": "7ddc59615da6e3dae37eb9363edfa219", "lon": -77.038978, "is_disabled": 0, "type": "electric_scooter"}, {"bike_id": "3e6d76020ecc13baf342f8353108b60f", "lat": 38.92507716666667, "is_reserved": 0, "fusion_lat": 0.0, "rental_uris": {"android": "https://dc.lft.to/lastmile_qr_scan", "ios": "https://dc.lft.to/lastmile_qr_scan"}, "fusion_lon": 0.0, "name": "3e6d76020ecc13baf342f8353108b60f", "lon": -77.02332066666666, "is_disabled": 0, "type": "electric_scooter"}, {"bike_id": "cb023279162ab50e78fbb042faac2db4", "lat": 38.9322375, "is_reserved": 0, "fusion_lat": 0.0, "rental_uris": {"android": "https://dc.lft.to/lastmile_qr_scan", "ios": "https://dc.lft.to/lastmile_qr_scan"}, "fusion_lon": 0.0, "name": "cb023279162ab50e78fbb042faac2db4", "lon": -77.0386675, "is_disabled": 0, "type": "electric_scooter"}, {"bike_id": "e3fde715448fdc9cc7b93d51ca570b4c", "lat": 38.900065166666664, "is_reserved": 0, "fusion_lat": 0.0, "rental_uris": {"android": "https://dc.lft.to/lastmile_qr_scan", "ios": "https://dc.lft.to/lastmile_qr_scan"}, "fusion_lon": 0.0, "name": "e3fde715448fdc9cc7b93d51ca570b4c", "lon": -77.011964, "is_disabled": 0, "type": "electric_scooter"}, {"bike_id": "0edf7a28ee9da8fac434c81ca4460b28", "lat": 38.90060866666666, "is_reserved": 0, "fusion_lat": 0.0, "rental_uris": {"android": "https://dc.lft.to/lastmile_qr_scan", "ios": "https://dc.lft.to/lastmile_qr_scan"}, "fusion_lon": 0.0, "name": "0edf7a28ee9da8fac434c81ca4460b28", "lon": -77.0272665, "is_disabled": 0, "type": "electric_scooter"}, {"bike_id": "bb436c65f8a29da611b380ac9dc429bc", "lat": 38.86679183333333, "is_reserved": 0, "fusion_lat": 0.0, "rental_uris": {"android": "https://dc.lft.to/lastmile_qr_scan", "ios": "https://dc.lft.to/lastmile_qr_scan"}, "fusion_lon": 0.0, "name": "bb436c65f8a29da611b380ac9dc429bc", "lon": -76.98572983333334, "is_disabled": 0, "type": "electric_scooter"}, {"bike_id": "3eb2637754e15e5920c964799dbb0901", "lat": 38.922652, "is_reserved": 0, "fusion_lat": 0.0, "rental_uris": {"android": "https://dc.lft.to/lastmile_qr_scan", "ios": "https://dc.lft.to/lastmile_qr_scan"}, "fusion_lon": 0.0, "name": "3eb2637754e15e5920c964799dbb0901", "lon": -77.0368735, "is_disabled": 0, "type": "electric_scooter"}, {"bike_id": "ca3716cc80445b8f22d3393380e484fe", "lat": 38.866791, "is_reserved": 0, "fusion_lat": 0.0, "rental_uris": {"android": "https://dc.lft.to/lastmile_qr_scan", "ios": "https://dc.lft.to/lastmile_qr_scan"}, "fusion_lon": 0.0, "name": "ca3716cc80445b8f22d3393380e484fe", "lon": -76.98584366666667, "is_disabled": 0, "type": "electric_scooter"}, {"bike_id": "23129c1651a95da54651a64cfc4cf146", "lat": 38.933464666666666, "is_reserved": 0, "fusion_lat": 0.0, "rental_uris": {"android": "https://dc.lft.to/lastmile_qr_scan", "ios": "https://dc.lft.to/lastmile_qr_scan"}, "fusion_lon": 0.0, "name": "23129c1651a95da54651a64cfc4cf146", "lon": -77.062084, "is_disabled": 0, "type": "electric_scooter"}, {"bike_id": "71f53b2fe7e8c4b94981aecdbe9de0fd", "lat": 38.93729533333333, "is_reserved": 0, "fusion_lat": 0.0, "rental_uris": {"android": "https://dc.lft.to/lastmile_qr_scan", "ios": "https://dc.lft.to/lastmile_qr_scan"}, "fusion_lon": 0.0, "name": "71f53b2fe7e8c4b94981aecdbe9de0fd", "lon": -77.03274683333333, "is_disabled": 0, "type": "electric_scooter"}, {"bike_id": "4cb12d4df3e79f0e4a7793e46697ae26", "lat": 38.929187166666665, "is_reserved": 0, "fusion_lat": 0.0, "rental_uris": {"android": "https://dc.lft.to/lastmile_qr_scan", "ios": "https://dc.lft.to/lastmile_qr_scan"}, "fusion_lon": 0.0, "name": "4cb12d4df3e79f0e4a7793e46697ae26", "lon": -77.02094516666666, "is_disabled": 0, "type": "electric_scooter"}, {"bike_id": "2a8c986ffb77cf4a2a983bec31a75250", "lat": 38.924644, "is_reserved": 0, "fusion_lat": 0.0, "rental_uris": {"android": "https://dc.lft.to/lastmile_qr_scan", "ios": "https://dc.lft.to/lastmile_qr_scan"}, "fusion_lon": 0.0, "name": "2a8c986ffb77cf4a2a983bec31a75250", "lon": -77.0524055, "is_disabled": 0, "type": "electric_scooter"}, {"bike_id": "a5e54308b11abf3f434a2224f3aea883", "lat": 38.90867266666667, "is_reserved": 0, "fusion_lat": 0.0, "rental_uris": {"android": "https://dc.lft.to/lastmile_qr_scan", "ios": "https://dc.lft.to/lastmile_qr_scan"}, "fusion_lon": 0.0, "name": "a5e54308b11abf3f434a2224f3aea883", "lon": -76.99793016666666, "is_disabled": 0, "type": "electric_scooter"}, {"bike_id": "0ea98143b47de416049b539cac0a3c0c", "lat": 38.92765383333333, "is_reserved": 0, "fusion_lat": 0.0, "rental_uris": {"android": "https://dc.lft.to/lastmile_qr_scan", "ios": "https://dc.lft.to/lastmile_qr_scan"}, "fusion_lon": 0.0, "name": "0ea98143b47de416049b539cac0a3c0c", "lon": -77.02783916666667, "is_disabled": 0, "type": "electric_scooter"}, {"bike_id": "f1eecefec3d312922cde34027fc7a020", "lat": 38.86755183333333, "is_reserved": 0, "fusion_lat": 0.0, "rental_uris": {"android": "https://dc.lft.to/lastmile_qr_scan", "ios": "https://dc.lft.to/lastmile_qr_scan"}, "fusion_lon": 0.0, "name": "f1eecefec3d312922cde34027fc7a020", "lon": -76.94537816666667, "is_disabled": 0, "type": "electric_bike"}, {"bike_id": "b07180a26a8923cb5628a65677981caf", "lat": 38.903361333333336, "is_reserved": 0, "fusion_lat": 0.0, "rental_uris": {"android": "https://dc.lft.to/lastmile_qr_scan", "ios": "https://dc.lft.to/lastmile_qr_scan"}, "fusion_lon": 0.0, "name": "b07180a26a8923cb5628a65677981caf", "lon": -77.06191266666667, "is_disabled": 0, "type": "electric_scooter"}, {"bike_id": "b96ad8e93f68f2f62624e39bde391e8d", "lat": 38.89882383333333, "is_reserved": 0, "fusion_lat": 0.0, "rental_uris": {"android": "https://dc.lft.to/lastmile_qr_scan", "ios": "https://dc.lft.to/lastmile_qr_scan"}, "fusion_lon": 0.0, "name": "b96ad8e93f68f2f62624e39bde391e8d", "lon": -76.93181166666666, "is_disabled": 0, "type": "electric_scooter"}, {"bike_id": "4dc50a41446a02b48d3da3784c837c69", "lat": 38.88266133333333, "is_reserved": 0, "fusion_lat": 0.0, "rental_uris": {"android": "https://dc.lft.to/lastmile_qr_scan", "ios": "https://dc.lft.to/lastmile_qr_scan"}, "fusion_lon": 0.0, "name": "4dc50a41446a02b48d3da3784c837c69", "lon": -77.0052175, "is_disabled": 0, "type": "electric_scooter"}, {"bike_id": "f78e05aa9c5d00962b758b7fa4ad7eac", "lat": 38.85886333333333, "is_reserved": 0, "fusion_lat": 0.0, "rental_uris": {"android": "https://dc.lft.to/lastmile_qr_scan", "ios": "https://dc.lft.to/lastmile_qr_scan"}, "fusion_lon": 0.0, "name": "f78e05aa9c5d00962b758b7fa4ad7eac", "lon": -76.99556516666667, "is_disabled": 0, "type": "electric_scooter"}, {"bike_id": "49c5202d342db8a86d98b6242a031bcb", "lat": 38.93881783333333, "is_reserved": 0, "fusion_lat": 0.0, "rental_uris": {"android": "https://dc.lft.to/lastmile_qr_scan", "ios": "https://dc.lft.to/lastmile_qr_scan"}, "fusion_lon": 0.0, "name": "49c5202d342db8a86d98b6242a031bcb", "lon": -77.03317666666666, "is_disabled": 0, "type": "electric_scooter"}, {"bike_id": "21f8f64adc45d0f2b08138382504f804", "lat": 38.9014125, "is_reserved": 0, "fusion_lat": 0.0, "rental_uris": {"android": "https://dc.lft.to/lastmile_qr_scan", "ios": "https://dc.lft.to/lastmile_qr_scan"}, "fusion_lon": 0.0, "name": "21f8f64adc45d0f2b08138382504f804", "lon": -77.02940466666666, "is_disabled": 0, "type": "electric_scooter"}, {"bike_id": "b081ae18c03571387aeccb09f63b97c0", "lat": 38.88745816666667, "is_reserved": 0, "fusion_lat": 0.0, "rental_uris": {"android": "https://dc.lft.to/lastmile_qr_scan", "ios": "https://dc.lft.to/lastmile_qr_scan"}, "fusion_lon": 0.0, "name": "b081ae18c03571387aeccb09f63b97c0", "lon": -77.03166033333333, "is_disabled": 0, "type": "electric_scooter"}, {"bike_id": "409b8bd8fd776f7af72eef5aa1f0baaa", "lat": 38.934237, "is_reserved": 0, "fusion_lat": 0.0, "rental_uris": {"android": "https://dc.lft.to/lastmile_qr_scan", "ios": "https://dc.lft.to/lastmile_qr_scan"}, "fusion_lon": 0.0, "name": "409b8bd8fd776f7af72eef5aa1f0baaa", "lon": -77.02857433333334, "is_disabled": 0, "type": "electric_scooter"}, {"bike_id": "b6c44237957f27d5d64d761b5f6d30e6", "lat": 38.90674683333334, "is_reserved": 0, "fusion_lat": 0.0, "rental_uris": {"android": "https://dc.lft.to/lastmile_qr_scan", "ios": "https://dc.lft.to/lastmile_qr_scan"}, "fusion_lon": 0.0, "name": "b6c44237957f27d5d64d761b5f6d30e6", "lon": -77.00017866666667, "is_disabled": 0, "type": "electric_scooter"}, {"bike_id": "6aef86c4fbf092ca6edc99ac29c121f3", "lat": 38.9286525, "is_reserved": 0, "fusion_lat": 0.0, "rental_uris": {"android": "https://dc.lft.to/lastmile_qr_scan", "ios": "https://dc.lft.to/lastmile_qr_scan"}, "fusion_lon": 0.0, "name": "6aef86c4fbf092ca6edc99ac29c121f3", "lon": -77.034129, "is_disabled": 0, "type": "electric_scooter"}, {"bike_id": "7632087385612566a292f1607370c141", "lat": 38.916717, "is_reserved": 0, "fusion_lat": 0.0, "rental_uris": {"android": "https://dc.lft.to/lastmile_qr_scan", "ios": "https://dc.lft.to/lastmile_qr_scan"}, "fusion_lon": 0.0, "name": "7632087385612566a292f1607370c141", "lon": -77.032183, "is_disabled": 0, "type": "electric_scooter"}, {"bike_id": "8b074fb41d828923cabf39080df1f30f", "lat": 38.927508, "is_reserved": 0, "fusion_lat": 0.0, "rental_uris": {"android": "https://dc.lft.to/lastmile_qr_scan", "ios": "https://dc.lft.to/lastmile_qr_scan"}, "fusion_lon": 0.0, "name": "8b074fb41d828923cabf39080df1f30f", "lon": -77.02390666666666, "is_disabled": 0, "type": "electric_scooter"}, {"bike_id": "65571c066a79b1480a46cb403cea9a90", "lat": 38.9079075, "is_reserved": 0, "fusion_lat": 0.0, "rental_uris": {"android": "https://dc.lft.to/lastmile_qr_scan", "ios": "https://dc.lft.to/lastmile_qr_scan"}, "fusion_lon": 0.0, "name": "65571c066a79b1480a46cb403cea9a90", "lon": -77.0716565, "is_disabled": 0, "type": "electric_bike"}, {"bike_id": "b625d92e012d3632fcb5d6f7fe2b44c6", "lat": 38.9018985, "is_reserved": 0, "fusion_lat": 0.0, "rental_uris": {"android": "https://dc.lft.to/lastmile_qr_scan", "ios": "https://dc.lft.to/lastmile_qr_scan"}, "fusion_lon": 0.0, "name": "b625d92e012d3632fcb5d6f7fe2b44c6", "lon": -76.97883383333334, "is_disabled": 0, "type": "electric_scooter"}, {"bike_id": "2aaa4c35cd5d64f2f4936c94498b848a", "lat": 38.915295666666665, "is_reserved": 0, "fusion_lat": 0.0, "rental_uris": {"android": "https://dc.lft.to/lastmile_qr_scan", "ios": "https://dc.lft.to/lastmile_qr_scan"}, "fusion_lon": 0.0, "name": "2aaa4c35cd5d64f2f4936c94498b848a", "lon": -76.98351833333334, "is_disabled": 0, "type": "electric_scooter"}, {"bike_id": "1da16c6510e14c88ad585a31d19df1c8", "lat": 38.9139425, "is_reserved": 0, "fusion_lat": 0.0, "rental_uris": {"android": "https://dc.lft.to/lastmile_qr_scan", "ios": "https://dc.lft.to/lastmile_qr_scan"}, "fusion_lon": 0.0, "name": "1da16c6510e14c88ad585a31d19df1c8", "lon": -77.01802883333333, "is_disabled": 0, "type": "electric_scooter"}, {"bike_id": "ab24b897873597193473d10149acbb1e", "lat": 38.91638283333333, "is_reserved": 0, "fusion_lat": 0.0, "rental_uris": {"android": "https://dc.lft.to/lastmile_qr_scan", "ios": "https://dc.lft.to/lastmile_qr_scan"}, "fusion_lon": 0.0, "name": "ab24b897873597193473d10149acbb1e", "lon": -77.02584083333333, "is_disabled": 0, "type": "electric_scooter"}, {"bike_id": "c332480752fd28131a9d857c07244a3d", "lat": 38.92263633333334, "is_reserved": 0, "fusion_lat": 0.0, "rental_uris": {"android": "https://dc.lft.to/lastmile_qr_scan", "ios": "https://dc.lft.to/lastmile_qr_scan"}, "fusion_lon": 0.0, "name": "c332480752fd28131a9d857c07244a3d", "lon": -77.01855183333333, "is_disabled": 0, "type": "electric_scooter"}, {"bike_id": "0ca579a8de07809c0f4ef42fff2ae921", "lat": 38.89758483333333, "is_reserved": 0, "fusion_lat": 0.0, "rental_uris": {"android": "https://dc.lft.to/lastmile_qr_scan", "ios": "https://dc.lft.to/lastmile_qr_scan"}, "fusion_lon": 0.0, "name": "0ca579a8de07809c0f4ef42fff2ae921", "lon": -77.02577116666667, "is_disabled": 0, "type": "electric_scooter"}, {"bike_id": "0e88908088d2928dc061f2612de62a45", "lat": 38.90380283333333, "is_reserved": 0, "fusion_lat": 0.0, "rental_uris": {"android": "https://dc.lft.to/lastmile_qr_scan", "ios": "https://dc.lft.to/lastmile_qr_scan"}, "fusion_lon": 0.0, "name": "0e88908088d2928dc061f2612de62a45", "lon": -77.0365755, "is_disabled": 0, "type": "electric_scooter"}, {"bike_id": "1f29a65d9f7e57476e9fe8e4f6438bc7", "lat": 38.92016866666667, "is_reserved": 0, "fusion_lat": 0.0, "rental_uris": {"android": "https://dc.lft.to/lastmile_qr_scan", "ios": "https://dc.lft.to/lastmile_qr_scan"}, "fusion_lon": 0.0, "name": "1f29a65d9f7e57476e9fe8e4f6438bc7", "lon": -77.04193133333334, "is_disabled": 0, "type": "electric_scooter"}, {"bike_id": "47f827857688b5bcb21e17ef0f318d53", "lat": 38.88491966666667, "is_reserved": 0, "fusion_lat": 0.0, "rental_uris": {"android": "https://dc.lft.to/lastmile_qr_scan", "ios": "https://dc.lft.to/lastmile_qr_scan"}, "fusion_lon": 0.0, "name": "47f827857688b5bcb21e17ef0f318d53", "lon": -77.0253975, "is_disabled": 0, "type": "electric_scooter"}, {"bike_id": "0c6fbeea97e959290abe2eeb50d4cc6f", "lat": 38.9192635, "is_reserved": 0, "fusion_lat": 0.0, "rental_uris": {"android": "https://dc.lft.to/lastmile_qr_scan", "ios": "https://dc.lft.to/lastmile_qr_scan"}, "fusion_lon": 0.0, "name": "0c6fbeea97e959290abe2eeb50d4cc6f", "lon": -77.00932433333334, "is_disabled": 0, "type": "electric_scooter"}, {"bike_id": "56ecf13e81f0a50f7c009604e731ae63", "lat": 38.859329833333334, "is_reserved": 0, "fusion_lat": 0.0, "rental_uris": {"android": "https://dc.lft.to/lastmile_qr_scan", "ios": "https://dc.lft.to/lastmile_qr_scan"}, "fusion_lon": 0.0, "name": "56ecf13e81f0a50f7c009604e731ae63", "lon": -77.118343, "is_disabled": 0, "type": "electric_bike"}, {"bike_id": "8124154d960b4c56e8ad901bbf506c50", "lat": 38.923746333333334, "is_reserved": 0, "fusion_lat": 0.0, "rental_uris": {"android": "https://dc.lft.to/lastmile_qr_scan", "ios": "https://dc.lft.to/lastmile_qr_scan"}, "fusion_lon": 0.0, "name": "8124154d960b4c56e8ad901bbf506c50", "lon": -77.05177116666667, "is_disabled": 0, "type": "electric_scooter"}, {"bike_id": "948fb57afc4e0990a44d8b4b4829a30e", "lat": 38.9074055, "is_reserved": 0, "fusion_lat": 0.0, "rental_uris": {"android": "https://dc.lft.to/lastmile_qr_scan", "ios": "https://dc.lft.to/lastmile_qr_scan"}, "fusion_lon": 0.0, "name": "948fb57afc4e0990a44d8b4b4829a30e", "lon": -77.0690225, "is_disabled": 0, "type": "electric_scooter"}, {"bike_id": "1506f846ef9a86a3941a1e8574ac5177", "lat": 38.874441, "is_reserved": 0, "fusion_lat": 0.0, "rental_uris": {"android": "https://dc.lft.to/lastmile_qr_scan", "ios": "https://dc.lft.to/lastmile_qr_scan"}, "fusion_lon": 0.0, "name": "1506f846ef9a86a3941a1e8574ac5177", "lon": -77.00062933333334, "is_disabled": 0, "type": "electric_scooter"}, {"bike_id": "7d904b8c519b4250e1100dc14a3c1109", "lat": 38.902551833333334, "is_reserved": 0, "fusion_lat": 0.0, "rental_uris": {"android": "https://dc.lft.to/lastmile_qr_scan", "ios": "https://dc.lft.to/lastmile_qr_scan"}, "fusion_lon": 0.0, "name": "7d904b8c519b4250e1100dc14a3c1109", "lon": -77.03719866666667, "is_disabled": 0, "type": "electric_scooter"}, {"bike_id": "c3562fe64cc3caa6e677b1cbee5c5e78", "lat": 38.90006966666667, "is_reserved": 0, "fusion_lat": 0.0, "rental_uris": {"android": "https://dc.lft.to/lastmile_qr_scan", "ios": "https://dc.lft.to/lastmile_qr_scan"}, "fusion_lon": 0.0, "name": "c3562fe64cc3caa6e677b1cbee5c5e78", "lon": -77.04471133333334, "is_disabled": 0, "type": "electric_scooter"}, {"bike_id": "6c2fda8c240ecaed1cf86f9b3f73ec37", "lat": 38.87480866666667, "is_reserved": 0, "fusion_lat": 0.0, "rental_uris": {"android": "https://dc.lft.to/lastmile_qr_scan", "ios": "https://dc.lft.to/lastmile_qr_scan"}, "fusion_lon": 0.0, "name": "6c2fda8c240ecaed1cf86f9b3f73ec37", "lon": -76.99986966666667, "is_disabled": 0, "type": "electric_scooter"}, {"bike_id": "9554c793783232e90de5bec792158eac", "lat": 38.90034083333333, "is_reserved": 0, "fusion_lat": 0.0, "rental_uris": {"android": "https://dc.lft.to/lastmile_qr_scan", "ios": "https://dc.lft.to/lastmile_qr_scan"}, "fusion_lon": 0.0, "name": "9554c793783232e90de5bec792158eac", "lon": -76.98827883333334, "is_disabled": 0, "type": "electric_scooter"}, {"bike_id": "330bed2d26f915009d0ab255ae8abfb7", "lat": 38.82364183333333, "is_reserved": 0, "fusion_lat": 0.0, "rental_uris": {"android": "https://dc.lft.to/lastmile_qr_scan", "ios": "https://dc.lft.to/lastmile_qr_scan"}, "fusion_lon": 0.0, "name": "330bed2d26f915009d0ab255ae8abfb7", "lon": -77.00220616666667, "is_disabled": 0, "type": "electric_bike"}, {"bike_id": "15b5bab4b59985026bb389f349ecffbb", "lat": 38.902712666666666, "is_reserved": 0, "fusion_lat": 0.0, "rental_uris": {"android": "https://dc.lft.to/lastmile_qr_scan", "ios": "https://dc.lft.to/lastmile_qr_scan"}, "fusion_lon": 0.0, "name": "15b5bab4b59985026bb389f349ecffbb", "lon": -77.06163033333333, "is_disabled": 0, "type": "electric_scooter"}, {"bike_id": "0b008a6461ef0225d24d02d348986252", "lat": 38.90238933333333, "is_reserved": 0, "fusion_lat": 0.0, "rental_uris": {"android": "https://dc.lft.to/lastmile_qr_scan", "ios": "https://dc.lft.to/lastmile_qr_scan"}, "fusion_lon": 0.0, "name": "0b008a6461ef0225d24d02d348986252", "lon": -77.00200933333333, "is_disabled": 0, "type": "electric_scooter"}, {"bike_id": "7e99b28d5fe34e86918108bc6926b51e", "lat": 38.9660565, "is_reserved": 0, "fusion_lat": 0.0, "rental_uris": {"android": "https://dc.lft.to/lastmile_qr_scan", "ios": "https://dc.lft.to/lastmile_qr_scan"}, "fusion_lon": 0.0, "name": "7e99b28d5fe34e86918108bc6926b51e", "lon": -77.01981683333334, "is_disabled": 0, "type": "electric_scooter"}, {"bike_id": "9b4406cc57563b44dda9d5a3c574853a", "lat": 38.89963133333333, "is_reserved": 0, "fusion_lat": 0.0, "rental_uris": {"android": "https://dc.lft.to/lastmile_qr_scan", "ios": "https://dc.lft.to/lastmile_qr_scan"}, "fusion_lon": 0.0, "name": "9b4406cc57563b44dda9d5a3c574853a", "lon": -77.02000266666667, "is_disabled": 0, "type": "electric_scooter"}, {"bike_id": "efa635f1f6f00768f6534e1729ca63d2", "lat": 38.9141985, "is_reserved": 0, "fusion_lat": 0.0, "rental_uris": {"android": "https://dc.lft.to/lastmile_qr_scan", "ios": "https://dc.lft.to/lastmile_qr_scan"}, "fusion_lon": 0.0, "name": "efa635f1f6f00768f6534e1729ca63d2", "lon": -77.02227216666667, "is_disabled": 0, "type": "electric_scooter"}, {"bike_id": "35dfd8e494e4a10b08e429a13d1aee3e", "lat": 38.894258666666666, "is_reserved": 0, "fusion_lat": 0.0, "rental_uris": {"android": "https://dc.lft.to/lastmile_qr_scan", "ios": "https://dc.lft.to/lastmile_qr_scan"}, "fusion_lon": 0.0, "name": "35dfd8e494e4a10b08e429a13d1aee3e", "lon": -77.03969533333333, "is_disabled": 0, "type": "electric_scooter"}, {"bike_id": "68acba2e0db152d7f01d4d837e2aa674", "lat": 38.914654, "is_reserved": 0, "fusion_lat": 0.0, "rental_uris": {"android": "https://dc.lft.to/lastmile_qr_scan", "ios": "https://dc.lft.to/lastmile_qr_scan"}, "fusion_lon": 0.0, "name": "68acba2e0db152d7f01d4d837e2aa674", "lon": -77.04595833333333, "is_disabled": 0, "type": "electric_scooter"}, {"bike_id": "a6306535efe30ca34793f3c26573440c", "lat": 38.873613166666665, "is_reserved": 0, "fusion_lat": 0.0, "rental_uris": {"android": "https://dc.lft.to/lastmile_qr_scan", "ios": "https://dc.lft.to/lastmile_qr_scan"}, "fusion_lon": 0.0, "name": "a6306535efe30ca34793f3c26573440c", "lon": -76.970304, "is_disabled": 0, "type": "electric_scooter"}, {"bike_id": "46fd3e11f33c0d975a71c365ae287ae6", "lat": 38.93327333333333, "is_reserved": 0, "fusion_lat": 0.0, "rental_uris": {"android": "https://dc.lft.to/lastmile_qr_scan", "ios": "https://dc.lft.to/lastmile_qr_scan"}, "fusion_lon": 0.0, "name": "46fd3e11f33c0d975a71c365ae287ae6", "lon": -77.0285865, "is_disabled": 0, "type": "electric_scooter"}, {"bike_id": "cc2bd38ce991a009b324a4236858362b", "lat": 38.898854, "is_reserved": 0, "fusion_lat": 0.0, "rental_uris": {"android": "https://dc.lft.to/lastmile_qr_scan", "ios": "https://dc.lft.to/lastmile_qr_scan"}, "fusion_lon": 0.0, "name": "cc2bd38ce991a009b324a4236858362b", "lon": -76.93176666666666, "is_disabled": 0, "type": "electric_scooter"}, {"bike_id": "fee2a32af4afcb65b89510cacf7183e9", "lat": 38.90393483333333, "is_reserved": 0, "fusion_lat": 0.0, "rental_uris": {"android": "https://dc.lft.to/lastmile_qr_scan", "ios": "https://dc.lft.to/lastmile_qr_scan"}, "fusion_lon": 0.0, "name": "fee2a32af4afcb65b89510cacf7183e9", "lon": -77.02208433333334, "is_disabled": 0, "type": "electric_scooter"}, {"bike_id": "f6267dda2037f7e3221e7fa785f0c31e", "lat": 38.883194833333334, "is_reserved": 0, "fusion_lat": 0.0, "rental_uris": {"android": "https://dc.lft.to/lastmile_qr_scan", "ios": "https://dc.lft.to/lastmile_qr_scan"}, "fusion_lon": 0.0, "name": "f6267dda2037f7e3221e7fa785f0c31e", "lon": -77.0249105, "is_disabled": 0, "type": "electric_bike"}, {"bike_id": "063c6689de187058823bf9f2337ccac5", "lat": 38.9097275, "is_reserved": 0, "fusion_lat": 0.0, "rental_uris": {"android": "https://dc.lft.to/lastmile_qr_scan", "ios": "https://dc.lft.to/lastmile_qr_scan"}, "fusion_lon": 0.0, "name": "063c6689de187058823bf9f2337ccac5", "lon": -77.0329025, "is_disabled": 0, "type": "electric_scooter"}, {"bike_id": "07966cf98d450804f37e00ec645ce315", "lat": 38.88736183333333, "is_reserved": 0, "fusion_lat": 0.0, "rental_uris": {"android": "https://dc.lft.to/lastmile_qr_scan", "ios": "https://dc.lft.to/lastmile_qr_scan"}, "fusion_lon": 0.0, "name": "07966cf98d450804f37e00ec645ce315", "lon": -77.0316845, "is_disabled": 0, "type": "electric_scooter"}, {"bike_id": "34d7a490c96c600670b34ab7a9c9ff97", "lat": 38.8951535, "is_reserved": 0, "fusion_lat": 0.0, "rental_uris": {"android": "https://dc.lft.to/lastmile_qr_scan", "ios": "https://dc.lft.to/lastmile_qr_scan"}, "fusion_lon": 0.0, "name": "34d7a490c96c600670b34ab7a9c9ff97", "lon": -77.02281983333333, "is_disabled": 0, "type": "electric_scooter"}, {"bike_id": "2c09dedc87ccefa8aac0506bd97a7d5c", "lat": 38.906237833333336, "is_reserved": 0, "fusion_lat": 0.0, "rental_uris": {"android": "https://dc.lft.to/lastmile_qr_scan", "ios": "https://dc.lft.to/lastmile_qr_scan"}, "fusion_lon": 0.0, "name": "2c09dedc87ccefa8aac0506bd97a7d5c", "lon": -76.99808616666667, "is_disabled": 0, "type": "electric_scooter"}, {"bike_id": "dc87900bf7188bb97f91d5527fd23ae4", "lat": 38.89619666666667, "is_reserved": 0, "fusion_lat": 0.0, "rental_uris": {"android": "https://dc.lft.to/lastmile_qr_scan", "ios": "https://dc.lft.to/lastmile_qr_scan"}, "fusion_lon": 0.0, "name": "dc87900bf7188bb97f91d5527fd23ae4", "lon": -77.0450035, "is_disabled": 0, "type": "electric_scooter"}, {"bike_id": "b1e5ee150d7975aa26344e78a3e4174f", "lat": 38.88492166666666, "is_reserved": 0, "fusion_lat": 0.0, "rental_uris": {"android": "https://dc.lft.to/lastmile_qr_scan", "ios": "https://dc.lft.to/lastmile_qr_scan"}, "fusion_lon": 0.0, "name": "b1e5ee150d7975aa26344e78a3e4174f", "lon": -77.00732066666667, "is_disabled": 0, "type": "electric_scooter"}, {"bike_id": "06512bbef140a0782e7c40aece17d5fe", "lat": 38.90047166666667, "is_reserved": 0, "fusion_lat": 0.0, "rental_uris": {"android": "https://dc.lft.to/lastmile_qr_scan", "ios": "https://dc.lft.to/lastmile_qr_scan"}, "fusion_lon": 0.0, "name": "06512bbef140a0782e7c40aece17d5fe", "lon": -76.9916245, "is_disabled": 0, "type": "electric_scooter"}, {"bike_id": "280888cee302a69891d5c3092c2f4d52", "lat": 38.92006466666667, "is_reserved": 0, "fusion_lat": 0.0, "rental_uris": {"android": "https://dc.lft.to/lastmile_qr_scan", "ios": "https://dc.lft.to/lastmile_qr_scan"}, "fusion_lon": 0.0, "name": "280888cee302a69891d5c3092c2f4d52", "lon": -77.03211016666667, "is_disabled": 0, "type": "electric_scooter"}, {"bike_id": "a340ccae9dd25b688bd9c0276accbc79", "lat": 38.934239166666664, "is_reserved": 0, "fusion_lat": 0.0, "rental_uris": {"android": "https://dc.lft.to/lastmile_qr_scan", "ios": "https://dc.lft.to/lastmile_qr_scan"}, "fusion_lon": 0.0, "name": "a340ccae9dd25b688bd9c0276accbc79", "lon": -77.04006016666666, "is_disabled": 0, "type": "electric_scooter"}, {"bike_id": "13e2285e80296c912f01e5086f67ec6f", "lat": 38.942890166666665, "is_reserved": 0, "fusion_lat": 0.0, "rental_uris": {"android": "https://dc.lft.to/lastmile_qr_scan", "ios": "https://dc.lft.to/lastmile_qr_scan"}, "fusion_lon": 0.0, "name": "13e2285e80296c912f01e5086f67ec6f", "lon": -77.02176783333333, "is_disabled": 0, "type": "electric_scooter"}, {"bike_id": "21c0eb6d82e0640c18e3ed76a3c54220", "lat": 38.91102716666666, "is_reserved": 0, "fusion_lat": 0.0, "rental_uris": {"android": "https://dc.lft.to/lastmile_qr_scan", "ios": "https://dc.lft.to/lastmile_qr_scan"}, "fusion_lon": 0.0, "name": "21c0eb6d82e0640c18e3ed76a3c54220", "lon": -77.04359933333333, "is_disabled": 0, "type": "electric_scooter"}, {"bike_id": "d9ba6c74a7eec7a4b1f3a4e246c3e9e3", "lat": 38.906446333333335, "is_reserved": 0, "fusion_lat": 0.0, "rental_uris": {"android": "https://dc.lft.to/lastmile_qr_scan", "ios": "https://dc.lft.to/lastmile_qr_scan"}, "fusion_lon": 0.0, "name": "d9ba6c74a7eec7a4b1f3a4e246c3e9e3", "lon": -77.03443166666666, "is_disabled": 0, "type": "electric_scooter"}, {"bike_id": "d5607d3f11f28003b0ddf66e2a7e1693", "lat": 38.915416666666665, "is_reserved": 0, "fusion_lat": 0.0, "rental_uris": {"android": "https://dc.lft.to/lastmile_qr_scan", "ios": "https://dc.lft.to/lastmile_qr_scan"}, "fusion_lon": 0.0, "name": "d5607d3f11f28003b0ddf66e2a7e1693", "lon": -77.04458766666667, "is_disabled": 0, "type": "electric_scooter"}, {"bike_id": "f61ca95d061d4a7eb70e31f8c47ce235", "lat": 38.91902433333333, "is_reserved": 0, "fusion_lat": 0.0, "rental_uris": {"android": "https://dc.lft.to/lastmile_qr_scan", "ios": "https://dc.lft.to/lastmile_qr_scan"}, "fusion_lon": 0.0, "name": "f61ca95d061d4a7eb70e31f8c47ce235", "lon": -77.0169105, "is_disabled": 0, "type": "electric_scooter"}, {"bike_id": "b6aee835115206ca7c94d71f61e058c6", "lat": 38.8737315, "is_reserved": 0, "fusion_lat": 0.0, "rental_uris": {"android": "https://dc.lft.to/lastmile_qr_scan", "ios": "https://dc.lft.to/lastmile_qr_scan"}, "fusion_lon": 0.0, "name": "b6aee835115206ca7c94d71f61e058c6", "lon": -77.00111533333333, "is_disabled": 0, "type": "electric_scooter"}, {"bike_id": "5c27af367815a1819ff6ac2cc6d61921", "lat": 38.907269666666664, "is_reserved": 0, "fusion_lat": 0.0, "rental_uris": {"android": "https://dc.lft.to/lastmile_qr_scan", "ios": "https://dc.lft.to/lastmile_qr_scan"}, "fusion_lon": 0.0, "name": "5c27af367815a1819ff6ac2cc6d61921", "lon": -77.031875, "is_disabled": 0, "type": "electric_scooter"}, {"bike_id": "04e0675649465d5222a613a1e6e04397", "lat": 38.9013705, "is_reserved": 0, "fusion_lat": 0.0, "rental_uris": {"android": "https://dc.lft.to/lastmile_qr_scan", "ios": "https://dc.lft.to/lastmile_qr_scan"}, "fusion_lon": 0.0, "name": "04e0675649465d5222a613a1e6e04397", "lon": -77.0447325, "is_disabled": 0, "type": "electric_scooter"}, {"bike_id": "3b55a16b556dec54f49d81b282ab0872", "lat": 38.89286633333333, "is_reserved": 0, "fusion_lat": 0.0, "rental_uris": {"android": "https://dc.lft.to/lastmile_qr_scan", "ios": "https://dc.lft.to/lastmile_qr_scan"}, "fusion_lon": 0.0, "name": "3b55a16b556dec54f49d81b282ab0872", "lon": -77.04488183333333, "is_disabled": 0, "type": "electric_scooter"}, {"bike_id": "a24a1fb4a6ec27c87c185279f07eda6c", "lat": 38.897297333333334, "is_reserved": 0, "fusion_lat": 0.0, "rental_uris": {"android": "https://dc.lft.to/lastmile_qr_scan", "ios": "https://dc.lft.to/lastmile_qr_scan"}, "fusion_lon": 0.0, "name": "a24a1fb4a6ec27c87c185279f07eda6c", "lon": -77.02459133333333, "is_disabled": 0, "type": "electric_scooter"}, {"bike_id": "15b844ada209e65b54fe3fa1a0b1e14f", "lat": 38.894275666666665, "is_reserved": 0, "fusion_lat": 0.0, "rental_uris": {"android": "https://dc.lft.to/lastmile_qr_scan", "ios": "https://dc.lft.to/lastmile_qr_scan"}, "fusion_lon": 0.0, "name": "15b844ada209e65b54fe3fa1a0b1e14f", "lon": -77.01049833333333, "is_disabled": 0, "type": "electric_scooter"}, {"bike_id": "8625d03f2323bb0c17831172f617a286", "lat": 38.900292666666665, "is_reserved": 0, "fusion_lat": 0.0, "rental_uris": {"android": "https://dc.lft.to/lastmile_qr_scan", "ios": "https://dc.lft.to/lastmile_qr_scan"}, "fusion_lon": 0.0, "name": "8625d03f2323bb0c17831172f617a286", "lon": -76.998413, "is_disabled": 0, "type": "electric_scooter"}, {"bike_id": "14b262525880732e0c90207ed3b4c30c", "lat": 38.90178066666667, "is_reserved": 0, "fusion_lat": 0.0, "rental_uris": {"android": "https://dc.lft.to/lastmile_qr_scan", "ios": "https://dc.lft.to/lastmile_qr_scan"}, "fusion_lon": 0.0, "name": "14b262525880732e0c90207ed3b4c30c", "lon": -77.0465775, "is_disabled": 0, "type": "electric_scooter"}, {"bike_id": "1c3f7705b7145c032aaedaf9f7817bdb", "lat": 38.932075166666664, "is_reserved": 0, "fusion_lat": 0.0, "rental_uris": {"android": "https://dc.lft.to/lastmile_qr_scan", "ios": "https://dc.lft.to/lastmile_qr_scan"}, "fusion_lon": 0.0, "name": "1c3f7705b7145c032aaedaf9f7817bdb", "lon": -77.03524266666666, "is_disabled": 0, "type": "electric_scooter"}, {"bike_id": "bf6bf5a5e7bd2de0f1e8d00e94c4f71d", "lat": 38.897498166666665, "is_reserved": 0, "fusion_lat": 0.0, "rental_uris": {"android": "https://dc.lft.to/lastmile_qr_scan", "ios": "https://dc.lft.to/lastmile_qr_scan"}, "fusion_lon": 0.0, "name": "bf6bf5a5e7bd2de0f1e8d00e94c4f71d", "lon": -77.0276425, "is_disabled": 0, "type": "electric_scooter"}, {"bike_id": "8f6f9b731d4ecee79b4c6ef513489fa3", "lat": 38.89478916666667, "is_reserved": 0, "fusion_lat": 0.0, "rental_uris": {"android": "https://dc.lft.to/lastmile_qr_scan", "ios": "https://dc.lft.to/lastmile_qr_scan"},