{"data": {"bikes": [{"rental_uris": {"ios": "https://dc.lft.to/lastmile_qr_scan", "android": "https://dc.lft.to/lastmile_qr_scan"}, "type": "electric_scooter", "name": "655a5afef74e6af3cf9d424f83954118", "is_reserved": 0, "lon": -77.05506783333334, "is_disabled": 0, "fusion_lat": 0.0, "lat": 38.92835216666667, "bike_id": "655a5afef74e6af3cf9d424f83954118", "fusion_lon": 0.0}, {"rental_uris": {"ios": "https://dc.lft.to/lastmile_qr_scan", "android": "https://dc.lft.to/lastmile_qr_scan"}, "type": "electric_bike", "name": "ff29bd3da77b65651f1db8b4b9a0e22c", "is_reserved": 0, "lon": -77.21662466666666, "is_disabled": 0, "fusion_lat": 0.0, "lat": 38.895032, "bike_id": "ff29bd3da77b65651f1db8b4b9a0e22c", "fusion_lon": 0.0}, {"rental_uris": {"ios": "https://dc.lft.to/lastmile_qr_scan", "android": "https://dc.lft.to/lastmile_qr_scan"}, "type": "electric_scooter", "name": "f97d2ac83e12d32a5ea35fd3101ba0ba", "is_reserved": 0, "lon": -77.0378505, "is_disabled": 0, "fusion_lat": 0.0, "lat": 38.915763166666665, "bike_id": "f97d2ac83e12d32a5ea35fd3101ba0ba", "fusion_lon": 0.0}, {"rental_uris": {"ios": "https://dc.lft.to/lastmile_qr_scan", "android": "https://dc.lft.to/lastmile_qr_scan"}, "type": "electric_bike", "name": "747bdb0dd7fb87e9012fde9501da712f", "is_reserved": 0, "lon": -77.01218716666666, "is_disabled": 0, "fusion_lat": 0.0, "lat": 38.87189933333333, "bike_id": "747bdb0dd7fb87e9012fde9501da712f", "fusion_lon": 0.0}, {"rental_uris": {"ios": "https://dc.lft.to/lastmile_qr_scan", "android": "https://dc.lft.to/lastmile_qr_scan"}, "type": "electric_bike", "name": "55a592325251258649a73c592adc5e54", "is_reserved": 0, "lon": -77.06534166666667, "is_disabled": 0, "fusion_lat": 0.0, "lat": 38.9923145, "bike_id": "55a592325251258649a73c592adc5e54", "fusion_lon": 0.0}, {"rental_uris": {"ios": "https://dc.lft.to/lastmile_qr_scan", "android": "https://dc.lft.to/lastmile_qr_scan"}, "type": "electric_bike", "name": "9fc4cbaaa95f0bb45d9a9247edb4b74e", "is_reserved": 0, "lon": -77.0972605, "is_disabled": 0, "fusion_lat": 0.0, "lat": 38.80737666666667, "bike_id": "9fc4cbaaa95f0bb45d9a9247edb4b74e", "fusion_lon": 0.0}, {"rental_uris": {"ios": "https://dc.lft.to/lastmile_qr_scan", "android": "https://dc.lft.to/lastmile_qr_scan"}, "type": "electric_scooter", "name": "3480d9e3cb4b482c4b2836bce85ba293", "is_reserved": 0, "lon": -77.03913416666667, "is_disabled": 0, "fusion_lat": 0.0, "lat": 38.90832016666667, "bike_id": "3480d9e3cb4b482c4b2836bce85ba293", "fusion_lon": 0.0}, {"rental_uris": {"ios": "https://dc.lft.to/lastmile_qr_scan", "android": "https://dc.lft.to/lastmile_qr_scan"}, "type": "electric_scooter", "name": "24b4e4dd2b345e0a635a8997f44dcb27", "is_reserved": 0, "lon": -77.0348415, "is_disabled": 0, "fusion_lat": 0.0, "lat": 38.931073833333336, "bike_id": "24b4e4dd2b345e0a635a8997f44dcb27", "fusion_lon": 0.0}, {"rental_uris": {"ios": "https://dc.lft.to/lastmile_qr_scan", "android": "https://dc.lft.to/lastmile_qr_scan"}, "type": "electric_scooter", "name": "00509dcb34c66b7b517fc5f69ab7b610", "is_reserved": 0, "lon": -77.02594433333333, "is_disabled": 0, "fusion_lat": 0.0, "lat": 38.91689616666667, "bike_id": "00509dcb34c66b7b517fc5f69ab7b610", "fusion_lon": 0.0}, {"rental_uris": {"ios": "https://dc.lft.to/lastmile_qr_scan", "android": "https://dc.lft.to/lastmile_qr_scan"}, "type": "electric_scooter", "name": "0dd4d6d92e80386759e197bc9201d3cf", "is_reserved": 0, "lon": -77.033051, "is_disabled": 0, "fusion_lat": 0.0, "lat": 38.91805516666667, "bike_id": "0dd4d6d92e80386759e197bc9201d3cf", "fusion_lon": 0.0}, {"rental_uris": {"ios": "https://dc.lft.to/lastmile_qr_scan", "android": "https://dc.lft.to/lastmile_qr_scan"}, "type": "electric_scooter", "name": "fea7971e390a88be521c0852d95841b0", "is_reserved": 0, "lon": -77.024926, "is_disabled": 0, "fusion_lat": 0.0, "lat": 38.897345666666666, "bike_id": "fea7971e390a88be521c0852d95841b0", "fusion_lon": 0.0}, {"rental_uris": {"ios": "https://dc.lft.to/lastmile_qr_scan", "android": "https://dc.lft.to/lastmile_qr_scan"}, "type": "electric_scooter", "name": "a97f0dc0aa1f25c2173a6143d132b346", "is_reserved": 0, "lon": -77.03851666666667, "is_disabled": 0, "fusion_lat": 0.0, "lat": 38.931993, "bike_id": "a97f0dc0aa1f25c2173a6143d132b346", "fusion_lon": 0.0}, {"rental_uris": {"ios": "https://dc.lft.to/lastmile_qr_scan", "android": "https://dc.lft.to/lastmile_qr_scan"}, "type": "electric_scooter", "name": "4962e57c207cefd910208d55d244f591", "is_reserved": 0, "lon": -77.05269316666667, "is_disabled": 0, "fusion_lat": 0.0, "lat": 38.92559133333334, "bike_id": "4962e57c207cefd910208d55d244f591", "fusion_lon": 0.0}, {"rental_uris": {"ios": "https://dc.lft.to/lastmile_qr_scan", "android": "https://dc.lft.to/lastmile_qr_scan"}, "type": "electric_scooter", "name": "460357f4871b1b89e0d7e9f4ccb86c64", "is_reserved": 0, "lon": -77.03929033333333, "is_disabled": 0, "fusion_lat": 0.0, "lat": 38.901602833333335, "bike_id": "460357f4871b1b89e0d7e9f4ccb86c64", "fusion_lon": 0.0}, {"rental_uris": {"ios": "https://dc.lft.to/lastmile_qr_scan", "android": "https://dc.lft.to/lastmile_qr_scan"}, "type": "electric_scooter", "name": "f34567e0170657c835721a7bc5a310ca", "is_reserved": 0, "lon": -77.0320765, "is_disabled": 0, "fusion_lat": 0.0, "lat": 38.89840133333333, "bike_id": "f34567e0170657c835721a7bc5a310ca", "fusion_lon": 0.0}, {"rental_uris": {"ios": "https://dc.lft.to/lastmile_qr_scan", "android": "https://dc.lft.to/lastmile_qr_scan"}, "type": "electric_scooter", "name": "c8c11307dc12bd4d36a07450b84e9a07", "is_reserved": 0, "lon": -77.02703983333333, "is_disabled": 0, "fusion_lat": 0.0, "lat": 38.90582366666667, "bike_id": "c8c11307dc12bd4d36a07450b84e9a07", "fusion_lon": 0.0}, {"rental_uris": {"ios": "https://dc.lft.to/lastmile_qr_scan", "android": "https://dc.lft.to/lastmile_qr_scan"}, "type": "electric_scooter", "name": "3e68a01ddb4b785ec4e97c2df69aae63", "is_reserved": 0, "lon": -77.00947083333334, "is_disabled": 0, "fusion_lat": 0.0, "lat": 38.894941333333335, "bike_id": "3e68a01ddb4b785ec4e97c2df69aae63", "fusion_lon": 0.0}, {"rental_uris": {"ios": "https://dc.lft.to/lastmile_qr_scan", "android": "https://dc.lft.to/lastmile_qr_scan"}, "type": "electric_scooter", "name": "1814ac0a4fe43cea308942b44f02e61f", "is_reserved": 0, "lon": -77.06257183333334, "is_disabled": 0, "fusion_lat": 0.0, "lat": 38.905187, "bike_id": "1814ac0a4fe43cea308942b44f02e61f", "fusion_lon": 0.0}, {"rental_uris": {"ios": "https://dc.lft.to/lastmile_qr_scan", "android": "https://dc.lft.to/lastmile_qr_scan"}, "type": "electric_scooter", "name": "6cfad6f79f32c99f4ca37e981cc105e9", "is_reserved": 0, "lon": -77.01457283333333, "is_disabled": 0, "fusion_lat": 0.0, "lat": 38.92654983333333, "bike_id": "6cfad6f79f32c99f4ca37e981cc105e9", "fusion_lon": 0.0}, {"rental_uris": {"ios": "https://dc.lft.to/lastmile_qr_scan", "android": "https://dc.lft.to/lastmile_qr_scan"}, "type": "electric_scooter", "name": "6580f563b4c0fd0be5e3536c941665b3", "is_reserved": 0, "lon": -77.054741, "is_disabled": 0, "fusion_lat": 0.0, "lat": 38.8972925, "bike_id": "6580f563b4c0fd0be5e3536c941665b3", "fusion_lon": 0.0}, {"rental_uris": {"ios": "https://dc.lft.to/lastmile_qr_scan", "android": "https://dc.lft.to/lastmile_qr_scan"}, "type": "electric_scooter", "name": "de3bfa1b785f177d83be2782ae1a116b", "is_reserved": 0, "lon": -77.05023383333334, "is_disabled": 0, "fusion_lat": 0.0, "lat": 38.92356133333333, "bike_id": "de3bfa1b785f177d83be2782ae1a116b", "fusion_lon": 0.0}, {"rental_uris": {"ios": "https://dc.lft.to/lastmile_qr_scan", "android": "https://dc.lft.to/lastmile_qr_scan"}, "type": "electric_scooter", "name": "b2492030e2c2b367202829d1dd618df9", "is_reserved": 0, "lon": -77.06101583333333, "is_disabled": 0, "fusion_lat": 0.0, "lat": 38.902271999999996, "bike_id": "b2492030e2c2b367202829d1dd618df9", "fusion_lon": 0.0}, {"rental_uris": {"ios": "https://dc.lft.to/lastmile_qr_scan", "android": "https://dc.lft.to/lastmile_qr_scan"}, "type": "electric_scooter", "name": "6cff9925c1954b82290fa5b0801190a6", "is_reserved": 0, "lon": -77.01124583333333, "is_disabled": 0, "fusion_lat": 0.0, "lat": 38.9161335, "bike_id": "6cff9925c1954b82290fa5b0801190a6", "fusion_lon": 0.0}, {"rental_uris": {"ios": "https://dc.lft.to/lastmile_qr_scan", "android": "https://dc.lft.to/lastmile_qr_scan"}, "type": "electric_scooter", "name": "dfebb1f1b8b9343f08d04459ee3a4ee2", "is_reserved": 0, "lon": -77.0377865, "is_disabled": 0, "fusion_lat": 0.0, "lat": 38.93964483333333, "bike_id": "dfebb1f1b8b9343f08d04459ee3a4ee2", "fusion_lon": 0.0}, {"rental_uris": {"ios": "https://dc.lft.to/lastmile_qr_scan", "android": "https://dc.lft.to/lastmile_qr_scan"}, "type": "electric_scooter", "name": "7f5234ba16583280ce4e066e8887bd74", "is_reserved": 0, "lon": -77.03200683333333, "is_disabled": 0, "fusion_lat": 0.0, "lat": 38.9142365, "bike_id": "7f5234ba16583280ce4e066e8887bd74", "fusion_lon": 0.0}, {"rental_uris": {"ios": "https://dc.lft.to/lastmile_qr_scan", "android": "https://dc.lft.to/lastmile_qr_scan"}, "type": "electric_bike", "name": "626b96a14cc211552ca1a0b7d59d2b40", "is_reserved": 0, "lon": -76.98473066666666, "is_disabled": 0, "fusion_lat": 0.0, "lat": 38.9097035, "bike_id": "626b96a14cc211552ca1a0b7d59d2b40", "fusion_lon": 0.0}, {"rental_uris": {"ios": "https://dc.lft.to/lastmile_qr_scan", "android": "https://dc.lft.to/lastmile_qr_scan"}, "type": "electric_scooter", "name": "d7a294a26105ce9e9851413b86d350ab", "is_reserved": 0, "lon": -77.03257, "is_disabled": 0, "fusion_lat": 0.0, "lat": 38.909567, "bike_id": "d7a294a26105ce9e9851413b86d350ab", "fusion_lon": 0.0}, {"rental_uris": {"ios": "https://dc.lft.to/lastmile_qr_scan", "android": "https://dc.lft.to/lastmile_qr_scan"}, "type": "electric_scooter", "name": "8fe598d4b45373ef2cebd23d89fc53eb", "is_reserved": 0, "lon": -77.009288, "is_disabled": 0, "fusion_lat": 0.0, "lat": 38.899924, "bike_id": "8fe598d4b45373ef2cebd23d89fc53eb", "fusion_lon": 0.0}, {"rental_uris": {"ios": "https://dc.lft.to/lastmile_qr_scan", "android": "https://dc.lft.to/lastmile_qr_scan"}, "type": "electric_scooter", "name": "4dd8161eea377ac2ea1ab4168bee229c", "is_reserved": 0, "lon": -77.0169495, "is_disabled": 0, "fusion_lat": 0.0, "lat": 38.902591666666666, "bike_id": "4dd8161eea377ac2ea1ab4168bee229c", "fusion_lon": 0.0}, {"rental_uris": {"ios": "https://dc.lft.to/lastmile_qr_scan", "android": "https://dc.lft.to/lastmile_qr_scan"}, "type": "electric_scooter", "name": "78a1aed7a26f98738cc735b284912402", "is_reserved": 0, "lon": -77.0469755, "is_disabled": 0, "fusion_lat": 0.0, "lat": 38.921597, "bike_id": "78a1aed7a26f98738cc735b284912402", "fusion_lon": 0.0}, {"rental_uris": {"ios": "https://dc.lft.to/lastmile_qr_scan", "android": "https://dc.lft.to/lastmile_qr_scan"}, "type": "electric_scooter", "name": "907afd2f692ea44f1adb7ed8c19f5bfd", "is_reserved": 0, "lon": -77.03246216666666, "is_disabled": 0, "fusion_lat": 0.0, "lat": 38.905446833333336, "bike_id": "907afd2f692ea44f1adb7ed8c19f5bfd", "fusion_lon": 0.0}, {"rental_uris": {"ios": "https://dc.lft.to/lastmile_qr_scan", "android": "https://dc.lft.to/lastmile_qr_scan"}, "type": "electric_scooter", "name": "b719091dba527df78631185b081a7c83", "is_reserved": 0, "lon": -77.00349133333333, "is_disabled": 0, "fusion_lat": 0.0, "lat": 38.8990955, "bike_id": "b719091dba527df78631185b081a7c83", "fusion_lon": 0.0}, {"rental_uris": {"ios": "https://dc.lft.to/lastmile_qr_scan", "android": "https://dc.lft.to/lastmile_qr_scan"}, "type": "electric_scooter", "name": "b6b061e099504767d005112f3d8b7003", "is_reserved": 0, "lon": -77.03129616666666, "is_disabled": 0, "fusion_lat": 0.0, "lat": 38.9237175, "bike_id": "b6b061e099504767d005112f3d8b7003", "fusion_lon": 0.0}, {"rental_uris": {"ios": "https://dc.lft.to/lastmile_qr_scan", "android": "https://dc.lft.to/lastmile_qr_scan"}, "type": "electric_scooter", "name": "957e6d80849824a7a16c62d1318e5102", "is_reserved": 0, "lon": -77.04436783333334, "is_disabled": 0, "fusion_lat": 0.0, "lat": 38.901286666666664, "bike_id": "957e6d80849824a7a16c62d1318e5102", "fusion_lon": 0.0}, {"rental_uris": {"ios": "https://dc.lft.to/lastmile_qr_scan", "android": "https://dc.lft.to/lastmile_qr_scan"}, "type": "electric_scooter", "name": "936d0c7f2cc81116f1f452f270b6b770", "is_reserved": 0, "lon": -77.03208283333333, "is_disabled": 0, "fusion_lat": 0.0, "lat": 38.91725783333333, "bike_id": "936d0c7f2cc81116f1f452f270b6b770", "fusion_lon": 0.0}, {"rental_uris": {"ios": "https://dc.lft.to/lastmile_qr_scan", "android": "https://dc.lft.to/lastmile_qr_scan"}, "type": "electric_scooter", "name": "82b01d3b4c553f847da708144a04ef40", "is_reserved": 0, "lon": -77.00404616666667, "is_disabled": 0, "fusion_lat": 0.0, "lat": 38.904901, "bike_id": "82b01d3b4c553f847da708144a04ef40", "fusion_lon": 0.0}, {"rental_uris": {"ios": "https://dc.lft.to/lastmile_qr_scan", "android": "https://dc.lft.to/lastmile_qr_scan"}, "type": "electric_scooter", "name": "1a0eb3d8652843b822fd0fda32cd8171", "is_reserved": 0, "lon": -77.02200566666667, "is_disabled": 0, "fusion_lat": 0.0, "lat": 38.89403266666667, "bike_id": "1a0eb3d8652843b822fd0fda32cd8171", "fusion_lon": 0.0}, {"rental_uris": {"ios": "https://dc.lft.to/lastmile_qr_scan", "android": "https://dc.lft.to/lastmile_qr_scan"}, "type": "electric_scooter", "name": "e6d05d4806e7fb8a93acbe433a70b0d7", "is_reserved": 0, "lon": -77.02334616666667, "is_disabled": 0, "fusion_lat": 0.0, "lat": 38.929694833333336, "bike_id": "e6d05d4806e7fb8a93acbe433a70b0d7", "fusion_lon": 0.0}, {"rental_uris": {"ios": "https://dc.lft.to/lastmile_qr_scan", "android": "https://dc.lft.to/lastmile_qr_scan"}, "type": "electric_scooter", "name": "f4b0c592a02b1808ce20a697d5b6c6a7", "is_reserved": 0, "lon": -77.0115125, "is_disabled": 0, "fusion_lat": 0.0, "lat": 38.956857, "bike_id": "f4b0c592a02b1808ce20a697d5b6c6a7", "fusion_lon": 0.0}, {"rental_uris": {"ios": "https://dc.lft.to/lastmile_qr_scan", "android": "https://dc.lft.to/lastmile_qr_scan"}, "type": "electric_scooter", "name": "ab3caffd3a349b6a971e44061a30b27d", "is_reserved": 0, "lon": -77.01759766666666, "is_disabled": 0, "fusion_lat": 0.0, "lat": 38.90088883333333, "bike_id": "ab3caffd3a349b6a971e44061a30b27d", "fusion_lon": 0.0}, {"rental_uris": {"ios": "https://dc.lft.to/lastmile_qr_scan", "android": "https://dc.lft.to/lastmile_qr_scan"}, "type": "electric_scooter", "name": "5b184c0037ab9dd5d4ef302bf52045af", "is_reserved": 0, "lon": -76.94197683333333, "is_disabled": 0, "fusion_lat": 0.0, "lat": 38.9022495, "bike_id": "5b184c0037ab9dd5d4ef302bf52045af", "fusion_lon": 0.0}, {"rental_uris": {"ios": "https://dc.lft.to/lastmile_qr_scan", "android": "https://dc.lft.to/lastmile_qr_scan"}, "type": "electric_scooter", "name": "10e3d614aa9afd771600f123ec910926", "is_reserved": 0, "lon": -77.075538, "is_disabled": 0, "fusion_lat": 0.0, "lat": 38.92093716666667, "bike_id": "10e3d614aa9afd771600f123ec910926", "fusion_lon": 0.0}, {"rental_uris": {"ios": "https://dc.lft.to/lastmile_qr_scan", "android": "https://dc.lft.to/lastmile_qr_scan"}, "type": "electric_scooter", "name": "139f9d8912a9ee03b23e8dea657c43bb", "is_reserved": 0, "lon": -77.03173716666667, "is_disabled": 0, "fusion_lat": 0.0, "lat": 38.91686766666667, "bike_id": "139f9d8912a9ee03b23e8dea657c43bb", "fusion_lon": 0.0}, {"rental_uris": {"ios": "https://dc.lft.to/lastmile_qr_scan", "android": "https://dc.lft.to/lastmile_qr_scan"}, "type": "electric_scooter", "name": "e2fa964956fc8c3d3822609ec810ffe0", "is_reserved": 0, "lon": -77.03127733333334, "is_disabled": 0, "fusion_lat": 0.0, "lat": 38.92018016666667, "bike_id": "e2fa964956fc8c3d3822609ec810ffe0", "fusion_lon": 0.0}, {"rental_uris": {"ios": "https://dc.lft.to/lastmile_qr_scan", "android": "https://dc.lft.to/lastmile_qr_scan"}, "type": "electric_scooter", "name": "091ff56d7294ce76c2da165e71ca2400", "is_reserved": 0, "lon": -77.02114966666667, "is_disabled": 0, "fusion_lat": 0.0, "lat": 38.924046, "bike_id": "091ff56d7294ce76c2da165e71ca2400", "fusion_lon": 0.0}, {"rental_uris": {"ios": "https://dc.lft.to/lastmile_qr_scan", "android": "https://dc.lft.to/lastmile_qr_scan"}, "type": "electric_scooter", "name": "0d6d68238c7a3424b0c4a17e89a666a5", "is_reserved": 0, "lon": -76.99475783333334, "is_disabled": 0, "fusion_lat": 0.0, "lat": 38.9055375, "bike_id": "0d6d68238c7a3424b0c4a17e89a666a5", "fusion_lon": 0.0}, {"rental_uris": {"ios": "https://dc.lft.to/lastmile_qr_scan", "android": "https://dc.lft.to/lastmile_qr_scan"}, "type": "electric_scooter", "name": "8d340e6075877188172dabd171202829", "is_reserved": 0, "lon": -77.01773916666667, "is_disabled": 0, "fusion_lat": 0.0, "lat": 38.902574, "bike_id": "8d340e6075877188172dabd171202829", "fusion_lon": 0.0}, {"rental_uris": {"ios": "https://dc.lft.to/lastmile_qr_scan", "android": "https://dc.lft.to/lastmile_qr_scan"}, "type": "electric_scooter", "name": "dde7196db83c41771f618a30b01d7c61", "is_reserved": 0, "lon": -76.99031316666667, "is_disabled": 0, "fusion_lat": 0.0, "lat": 38.898524333333334, "bike_id": "dde7196db83c41771f618a30b01d7c61", "fusion_lon": 0.0}, {"rental_uris": {"ios": "https://dc.lft.to/lastmile_qr_scan", "android": "https://dc.lft.to/lastmile_qr_scan"}, "type": "electric_scooter", "name": "ac57b1747d795a716bc0f0e076601d73", "is_reserved": 0, "lon": -77.02392266666666, "is_disabled": 0, "fusion_lat": 0.0, "lat": 38.9164985, "bike_id": "ac57b1747d795a716bc0f0e076601d73", "fusion_lon": 0.0}, {"rental_uris": {"ios": "https://dc.lft.to/lastmile_qr_scan", "android": "https://dc.lft.to/lastmile_qr_scan"}, "type": "electric_bike", "name": "3926ea01c3ba7f41e465a9c58996e299", "is_reserved": 0, "lon": -76.94974516666667, "is_disabled": 0, "fusion_lat": 0.0, "lat": 38.88298133333333, "bike_id": "3926ea01c3ba7f41e465a9c58996e299", "fusion_lon": 0.0}, {"rental_uris": {"ios": "https://dc.lft.to/lastmile_qr_scan", "android": "https://dc.lft.to/lastmile_qr_scan"}, "type": "electric_scooter", "name": "79e753a081daa61a6efc2b42895eab62", "is_reserved": 0, "lon": -77.017677, "is_disabled": 0, "fusion_lat": 0.0, "lat": 38.88726966666667, "bike_id": "79e753a081daa61a6efc2b42895eab62", "fusion_lon": 0.0}, {"rental_uris": {"ios": "https://dc.lft.to/lastmile_qr_scan", "android": "https://dc.lft.to/lastmile_qr_scan"}, "type": "electric_scooter", "name": "74c4d3e23af985d183187f307bc68f6d", "is_reserved": 0, "lon": -77.048279, "is_disabled": 0, "fusion_lat": 0.0, "lat": 38.92104883333333, "bike_id": "74c4d3e23af985d183187f307bc68f6d", "fusion_lon": 0.0}, {"rental_uris": {"ios": "https://dc.lft.to/lastmile_qr_scan", "android": "https://dc.lft.to/lastmile_qr_scan"}, "type": "electric_scooter", "name": "4d4a96172f006cbd22ea27c03546a205", "is_reserved": 0, "lon": -77.00495266666667, "is_disabled": 0, "fusion_lat": 0.0, "lat": 38.94403533333333, "bike_id": "4d4a96172f006cbd22ea27c03546a205", "fusion_lon": 0.0}, {"rental_uris": {"ios": "https://dc.lft.to/lastmile_qr_scan", "android": "https://dc.lft.to/lastmile_qr_scan"}, "type": "electric_scooter", "name": "f479dd64d0f2b15d1dad48b89af5708a", "is_reserved": 0, "lon": -77.022871, "is_disabled": 0, "fusion_lat": 0.0, "lat": 38.925658166666665, "bike_id": "f479dd64d0f2b15d1dad48b89af5708a", "fusion_lon": 0.0}, {"rental_uris": {"ios": "https://dc.lft.to/lastmile_qr_scan", "android": "https://dc.lft.to/lastmile_qr_scan"}, "type": "electric_scooter", "name": "47d7d0d855954f382df08d00800c2280", "is_reserved": 0, "lon": -77.031981, "is_disabled": 0, "fusion_lat": 0.0, "lat": 38.909857833333334, "bike_id": "47d7d0d855954f382df08d00800c2280", "fusion_lon": 0.0}, {"rental_uris": {"ios": "https://dc.lft.to/lastmile_qr_scan", "android": "https://dc.lft.to/lastmile_qr_scan"}, "type": "electric_scooter", "name": "1342d23e2fb1a584c6d436292f80fe8c", "is_reserved": 0, "lon": -77.065202, "is_disabled": 0, "fusion_lat": 0.0, "lat": 38.949885333333334, "bike_id": "1342d23e2fb1a584c6d436292f80fe8c", "fusion_lon": 0.0}, {"rental_uris": {"ios": "https://dc.lft.to/lastmile_qr_scan", "android": "https://dc.lft.to/lastmile_qr_scan"}, "type": "electric_scooter", "name": "34fe377adb497c92b3f9b76d6eed28b8", "is_reserved": 0, "lon": -77.00798716666667, "is_disabled": 0, "fusion_lat": 0.0, "lat": 38.91270433333333, "bike_id": "34fe377adb497c92b3f9b76d6eed28b8", "fusion_lon": 0.0}, {"rental_uris": {"ios": "https://dc.lft.to/lastmile_qr_scan", "android": "https://dc.lft.to/lastmile_qr_scan"}, "type": "electric_scooter", "name": "ef4e90d82023a5429a464d3cd49d002d", "is_reserved": 0, "lon": -77.03199783333334, "is_disabled": 0, "fusion_lat": 0.0, "lat": 38.887059, "bike_id": "ef4e90d82023a5429a464d3cd49d002d", "fusion_lon": 0.0}, {"rental_uris": {"ios": "https://dc.lft.to/lastmile_qr_scan", "android": "https://dc.lft.to/lastmile_qr_scan"}, "type": "electric_scooter", "name": "a13bab3c0b58de1a75b06a9c038362d5", "is_reserved": 0, "lon": -77.04033883333334, "is_disabled": 0, "fusion_lat": 0.0, "lat": 38.904770166666665, "bike_id": "a13bab3c0b58de1a75b06a9c038362d5", "fusion_lon": 0.0}, {"rental_uris": {"ios": "https://dc.lft.to/lastmile_qr_scan", "android": "https://dc.lft.to/lastmile_qr_scan"}, "type": "electric_scooter", "name": "e45e36f9397b650a9ac25283b81aedf3", "is_reserved": 0, "lon": -77.0770965, "is_disabled": 0, "fusion_lat": 0.0, "lat": 38.893421333333336, "bike_id": "e45e36f9397b650a9ac25283b81aedf3", "fusion_lon": 0.0}, {"rental_uris": {"ios": "https://dc.lft.to/lastmile_qr_scan", "android": "https://dc.lft.to/lastmile_qr_scan"}, "type": "electric_scooter", "name": "b8be2c00b3b75eaacf9695aa02da4700", "is_reserved": 0, "lon": -77.03264966666667, "is_disabled": 0, "fusion_lat": 0.0, "lat": 38.929809, "bike_id": "b8be2c00b3b75eaacf9695aa02da4700", "fusion_lon": 0.0}, {"rental_uris": {"ios": "https://dc.lft.to/lastmile_qr_scan", "android": "https://dc.lft.to/lastmile_qr_scan"}, "type": "electric_scooter", "name": "d8bd7c54d3665b11dc4f980c287340b2", "is_reserved": 0, "lon": -77.07222933333334, "is_disabled": 0, "fusion_lat": 0.0, "lat": 38.93425233333333, "bike_id": "d8bd7c54d3665b11dc4f980c287340b2", "fusion_lon": 0.0}, {"rental_uris": {"ios": "https://dc.lft.to/lastmile_qr_scan", "android": "https://dc.lft.to/lastmile_qr_scan"}, "type": "electric_scooter", "name": "4ebd71e9bff0477d88561959b9114d6b", "is_reserved": 0, "lon": -76.99473283333333, "is_disabled": 0, "fusion_lat": 0.0, "lat": 38.862101333333335, "bike_id": "4ebd71e9bff0477d88561959b9114d6b", "fusion_lon": 0.0}, {"rental_uris": {"ios": "https://dc.lft.to/lastmile_qr_scan", "android": "https://dc.lft.to/lastmile_qr_scan"}, "type": "electric_scooter", "name": "ca8581d9de3bcb0b6fe2ab5358aefb95", "is_reserved": 0, "lon": -77.03658166666666, "is_disabled": 0, "fusion_lat": 0.0, "lat": 38.9238545, "bike_id": "ca8581d9de3bcb0b6fe2ab5358aefb95", "fusion_lon": 0.0}, {"rental_uris": {"ios": "https://dc.lft.to/lastmile_qr_scan", "android": "https://dc.lft.to/lastmile_qr_scan"}, "type": "electric_scooter", "name": "1e98ec04a853e5608f90eac69f8665a6", "is_reserved": 0, "lon": -77.04667433333333, "is_disabled": 0, "fusion_lat": 0.0, "lat": 38.91802233333333, "bike_id": "1e98ec04a853e5608f90eac69f8665a6", "fusion_lon": 0.0}, {"rental_uris": {"ios": "https://dc.lft.to/lastmile_qr_scan", "android": "https://dc.lft.to/lastmile_qr_scan"}, "type": "electric_scooter", "name": "8de070dfd7ef29282e5a7ef6656730df", "is_reserved": 0, "lon": -77.045354, "is_disabled": 0, "fusion_lat": 0.0, "lat": 38.8973475, "bike_id": "8de070dfd7ef29282e5a7ef6656730df", "fusion_lon": 0.0}, {"rental_uris": {"ios": "https://dc.lft.to/lastmile_qr_scan", "android": "https://dc.lft.to/lastmile_qr_scan"}, "type": "electric_scooter", "name": "a34de75e408e0e22facc655f0cd76c22", "is_reserved": 0, "lon": -77.019602, "is_disabled": 0, "fusion_lat": 0.0, "lat": 38.933822166666666, "bike_id": "a34de75e408e0e22facc655f0cd76c22", "fusion_lon": 0.0}, {"rental_uris": {"ios": "https://dc.lft.to/lastmile_qr_scan", "android": "https://dc.lft.to/lastmile_qr_scan"}, "type": "electric_scooter", "name": "7e8b3faac26abee728990cbde5d7b540", "is_reserved": 0, "lon": -77.02184666666666, "is_disabled": 0, "fusion_lat": 0.0, "lat": 38.896012, "bike_id": "7e8b3faac26abee728990cbde5d7b540", "fusion_lon": 0.0}, {"rental_uris": {"ios": "https://dc.lft.to/lastmile_qr_scan", "android": "https://dc.lft.to/lastmile_qr_scan"}, "type": "electric_scooter", "name": "25dc64e68c146f45ea60ba723b0eb327", "is_reserved": 0, "lon": -76.9820905, "is_disabled": 0, "fusion_lat": 0.0, "lat": 38.886384166666666, "bike_id": "25dc64e68c146f45ea60ba723b0eb327", "fusion_lon": 0.0}, {"rental_uris": {"ios": "https://dc.lft.to/lastmile_qr_scan", "android": "https://dc.lft.to/lastmile_qr_scan"}, "type": "electric_scooter", "name": "fa4090316ce6eefc2df39771d7c4baaa", "is_reserved": 0, "lon": -77.06551616666667, "is_disabled": 0, "fusion_lat": 0.0, "lat": 38.90519883333333, "bike_id": "fa4090316ce6eefc2df39771d7c4baaa", "fusion_lon": 0.0}, {"rental_uris": {"ios": "https://dc.lft.to/lastmile_qr_scan", "android": "https://dc.lft.to/lastmile_qr_scan"}, "type": "electric_scooter", "name": "b592b7d1dbd4915de5fb4b7c8ed81b2f", "is_reserved": 0, "lon": -77.01974483333333, "is_disabled": 0, "fusion_lat": 0.0, "lat": 38.901608333333336, "bike_id": "b592b7d1dbd4915de5fb4b7c8ed81b2f", "fusion_lon": 0.0}, {"rental_uris": {"ios": "https://dc.lft.to/lastmile_qr_scan", "android": "https://dc.lft.to/lastmile_qr_scan"}, "type": "electric_scooter", "name": "dacaa274be2619fe26ab692558f47f28", "is_reserved": 0, "lon": -77.05021316666667, "is_disabled": 0, "fusion_lat": 0.0, "lat": 38.91053816666667, "bike_id": "dacaa274be2619fe26ab692558f47f28", "fusion_lon": 0.0}, {"rental_uris": {"ios": "https://dc.lft.to/lastmile_qr_scan", "android": "https://dc.lft.to/lastmile_qr_scan"}, "type": "electric_scooter", "name": "f4f2e15f71982ee629db33ae428fe214", "is_reserved": 0, "lon": -77.0197715, "is_disabled": 0, "fusion_lat": 0.0, "lat": 38.95211333333334, "bike_id": "f4f2e15f71982ee629db33ae428fe214", "fusion_lon": 0.0}, {"rental_uris": {"ios": "https://dc.lft.to/lastmile_qr_scan", "android": "https://dc.lft.to/lastmile_qr_scan"}, "type": "electric_scooter", "name": "a6a3a8b6c6358455563f7e6dc13e53fa", "is_reserved": 0, "lon": -77.04671933333333, "is_disabled": 0, "fusion_lat": 0.0, "lat": 38.892310333333334, "bike_id": "a6a3a8b6c6358455563f7e6dc13e53fa", "fusion_lon": 0.0}, {"rental_uris": {"ios": "https://dc.lft.to/lastmile_qr_scan", "android": "https://dc.lft.to/lastmile_qr_scan"}, "type": "electric_scooter", "name": "e481bc4c69abd56a819266e9c9e0e3a8", "is_reserved": 0, "lon": -77.073305, "is_disabled": 0, "fusion_lat": 0.0, "lat": 38.913576, "bike_id": "e481bc4c69abd56a819266e9c9e0e3a8", "fusion_lon": 0.0}, {"rental_uris": {"ios": "https://dc.lft.to/lastmile_qr_scan", "android": "https://dc.lft.to/lastmile_qr_scan"}, "type": "electric_scooter", "name": "eed8f91f5571d47978c3826497c364b2", "is_reserved": 0, "lon": -77.00983066666667, "is_disabled": 0, "fusion_lat": 0.0, "lat": 38.905604, "bike_id": "eed8f91f5571d47978c3826497c364b2", "fusion_lon": 0.0}, {"rental_uris": {"ios": "https://dc.lft.to/lastmile_qr_scan", "android": "https://dc.lft.to/lastmile_qr_scan"}, "type": "electric_scooter", "name": "19d2828a0406d562cfd8dfe089fce06d", "is_reserved": 0, "lon": -76.92891783333333, "is_disabled": 0, "fusion_lat": 0.0, "lat": 38.8793825, "bike_id": "19d2828a0406d562cfd8dfe089fce06d", "fusion_lon": 0.0}, {"rental_uris": {"ios": "https://dc.lft.to/lastmile_qr_scan", "android": "https://dc.lft.to/lastmile_qr_scan"}, "type": "electric_scooter", "name": "0905ad3ed9f8abd6dd436c2ffa7aa3b7", "is_reserved": 0, "lon": -77.0055915, "is_disabled": 0, "fusion_lat": 0.0, "lat": 38.874667333333335, "bike_id": "0905ad3ed9f8abd6dd436c2ffa7aa3b7", "fusion_lon": 0.0}, {"rental_uris": {"ios": "https://dc.lft.to/lastmile_qr_scan", "android": "https://dc.lft.to/lastmile_qr_scan"}, "type": "electric_scooter", "name": "fe030b1eaad2b5f7f1fa6d4edd1c760b", "is_reserved": 0, "lon": -77.03175783333333, "is_disabled": 0, "fusion_lat": 0.0, "lat": 38.919284166666664, "bike_id": "fe030b1eaad2b5f7f1fa6d4edd1c760b", "fusion_lon": 0.0}, {"rental_uris": {"ios": "https://dc.lft.to/lastmile_qr_scan", "android": "https://dc.lft.to/lastmile_qr_scan"}, "type": "electric_scooter", "name": "4c1e83c33798f86979eaadae188ee036", "is_reserved": 0, "lon": -77.0020265, "is_disabled": 0, "fusion_lat": 0.0, "lat": 38.907851, "bike_id": "4c1e83c33798f86979eaadae188ee036", "fusion_lon": 0.0}, {"rental_uris": {"ios": "https://dc.lft.to/lastmile_qr_scan", "android": "https://dc.lft.to/lastmile_qr_scan"}, "type": "electric_scooter", "name": "79e12b693373aeddd45fcb3e295040da", "is_reserved": 0, "lon": -77.04150133333333, "is_disabled": 0, "fusion_lat": 0.0, "lat": 38.923487, "bike_id": "79e12b693373aeddd45fcb3e295040da", "fusion_lon": 0.0}, {"rental_uris": {"ios": "https://dc.lft.to/lastmile_qr_scan", "android": "https://dc.lft.to/lastmile_qr_scan"}, "type": "electric_scooter", "name": "96c06a95a59d1303d2dee03f65ceee72", "is_reserved": 0, "lon": -77.04490383333334, "is_disabled": 0, "fusion_lat": 0.0, "lat": 38.900134, "bike_id": "96c06a95a59d1303d2dee03f65ceee72", "fusion_lon": 0.0}, {"rental_uris": {"ios": "https://dc.lft.to/lastmile_qr_scan", "android": "https://dc.lft.to/lastmile_qr_scan"}, "type": "electric_scooter", "name": "91a63d95c273253735de1ac772a45a35", "is_reserved": 0, "lon": -77.03068033333334, "is_disabled": 0, "fusion_lat": 0.0, "lat": 38.9345445, "bike_id": "91a63d95c273253735de1ac772a45a35", "fusion_lon": 0.0}, {"rental_uris": {"ios": "https://dc.lft.to/lastmile_qr_scan", "android": "https://dc.lft.to/lastmile_qr_scan"}, "type": "electric_scooter", "name": "cdef3953ad764e77ef20944c47066b82", "is_reserved": 0, "lon": -77.03842833333333, "is_disabled": 0, "fusion_lat": 0.0, "lat": 38.911827833333334, "bike_id": "cdef3953ad764e77ef20944c47066b82", "fusion_lon": 0.0}, {"rental_uris": {"ios": "https://dc.lft.to/lastmile_qr_scan", "android": "https://dc.lft.to/lastmile_qr_scan"}, "type": "electric_scooter", "name": "f8ac71acbd82bcf510be220dd5e57e1b", "is_reserved": 0, "lon": -77.031912, "is_disabled": 0, "fusion_lat": 0.0, "lat": 38.901136666666666, "bike_id": "f8ac71acbd82bcf510be220dd5e57e1b", "fusion_lon": 0.0}, {"rental_uris": {"ios": "https://dc.lft.to/lastmile_qr_scan", "android": "https://dc.lft.to/lastmile_qr_scan"}, "type": "electric_scooter", "name": "452a28e86461e54e07312ec5e15ce28e", "is_reserved": 0, "lon": -77.01082566666666, "is_disabled": 0, "fusion_lat": 0.0, "lat": 38.89488333333333, "bike_id": "452a28e86461e54e07312ec5e15ce28e", "fusion_lon": 0.0}, {"rental_uris": {"ios": "https://dc.lft.to/lastmile_qr_scan", "android": "https://dc.lft.to/lastmile_qr_scan"}, "type": "electric_scooter", "name": "0e42a4d2044cdb0bf93f4a8da872b072", "is_reserved": 0, "lon": -77.02235916666666, "is_disabled": 0, "fusion_lat": 0.0, "lat": 38.8992145, "bike_id": "0e42a4d2044cdb0bf93f4a8da872b072", "fusion_lon": 0.0}, {"rental_uris": {"ios": "https://dc.lft.to/lastmile_qr_scan", "android": "https://dc.lft.to/lastmile_qr_scan"}, "type": "electric_scooter", "name": "1639f6f6499df74f0527ff975f70f59f", "is_reserved": 0, "lon": -77.03964866666666, "is_disabled": 0, "fusion_lat": 0.0, "lat": 38.90138316666667, "bike_id": "1639f6f6499df74f0527ff975f70f59f", "fusion_lon": 0.0}, {"rental_uris": {"ios": "https://dc.lft.to/lastmile_qr_scan", "android": "https://dc.lft.to/lastmile_qr_scan"}, "type": "electric_scooter", "name": "dea849203dfeb15ca281a9bc75e06000", "is_reserved": 0, "lon": -77.0487455, "is_disabled": 0, "fusion_lat": 0.0, "lat": 38.91833066666667, "bike_id": "dea849203dfeb15ca281a9bc75e06000", "fusion_lon": 0.0}, {"rental_uris": {"ios": "https://dc.lft.to/lastmile_qr_scan", "android": "https://dc.lft.to/lastmile_qr_scan"}, "type": "electric_scooter", "name": "20650fe2e879c8c28ed9066571f46d6b", "is_reserved": 0, "lon": -77.03290766666667, "is_disabled": 0, "fusion_lat": 0.0, "lat": 38.91116616666667, "bike_id": "20650fe2e879c8c28ed9066571f46d6b", "fusion_lon": 0.0}, {"rental_uris": {"ios": "https://dc.lft.to/lastmile_qr_scan", "android": "https://dc.lft.to/lastmile_qr_scan"}, "type": "electric_scooter", "name": "5a629718d5c7e90f970d53841b135bf1", "is_reserved": 0, "lon": -77.03662, "is_disabled": 0, "fusion_lat": 0.0, "lat": 38.922908, "bike_id": "5a629718d5c7e90f970d53841b135bf1", "fusion_lon": 0.0}, {"rental_uris": {"ios": "https://dc.lft.to/lastmile_qr_scan", "android": "https://dc.lft.to/lastmile_qr_scan"}, "type": "electric_scooter", "name": "4506d43292ae36ecc494d63316153148", "is_reserved": 0, "lon": -77.03598783333334, "is_disabled": 0, "fusion_lat": 0.0, "lat": 38.916921, "bike_id": "4506d43292ae36ecc494d63316153148", "fusion_lon": 0.0}, {"rental_uris": {"ios": "https://dc.lft.to/lastmile_qr_scan", "android": "https://dc.lft.to/lastmile_qr_scan"}, "type": "electric_scooter", "name": "d40a819af022681f506d17bba5997aa5", "is_reserved": 0, "lon": -77.04292533333333, "is_disabled": 0, "fusion_lat": 0.0, "lat": 38.906568166666666, "bike_id": "d40a819af022681f506d17bba5997aa5", "fusion_lon": 0.0}, {"rental_uris": {"ios": "https://dc.lft.to/lastmile_qr_scan", "android": "https://dc.lft.to/lastmile_qr_scan"}, "type": "electric_bike", "name": "6079a9f98f37249135441f47de3fd568", "is_reserved": 0, "lon": -76.9615565, "is_disabled": 0, "fusion_lat": 0.0, "lat": 38.85618616666667, "bike_id": "6079a9f98f37249135441f47de3fd568", "fusion_lon": 0.0}, {"rental_uris": {"ios": "https://dc.lft.to/lastmile_qr_scan", "android": "https://dc.lft.to/lastmile_qr_scan"}, "type": "electric_scooter", "name": "00d33f7921e8a28f32ea5aefc1df1d47", "is_reserved": 0, "lon": -77.02711766666667, "is_disabled": 0, "fusion_lat": 0.0, "lat": 38.9154615, "bike_id": "00d33f7921e8a28f32ea5aefc1df1d47", "fusion_lon": 0.0}, {"rental_uris": {"ios": "https://dc.lft.to/lastmile_qr_scan", "android": "https://dc.lft.to/lastmile_qr_scan"}, "type": "electric_scooter", "name": "1490da1abfe3c51b1bc9ef314d5c744c", "is_reserved": 0, "lon": -77.03846216666666, "is_disabled": 0, "fusion_lat": 0.0, "lat": 38.91334916666667, "bike_id": "1490da1abfe3c51b1bc9ef314d5c744c", "fusion_lon": 0.0}, {"rental_uris": {"ios": "https://dc.lft.to/lastmile_qr_scan", "android": "https://dc.lft.to/lastmile_qr_scan"}, "type": "electric_scooter", "name": "e75d09e7164787f4d19024e9b96c5a13", "is_reserved": 0, "lon": -77.0629495, "is_disabled": 0, "fusion_lat": 0.0, "lat": 38.903979, "bike_id": "e75d09e7164787f4d19024e9b96c5a13", "fusion_lon": 0.0}, {"rental_uris": {"ios": "https://dc.lft.to/lastmile_qr_scan", "android": "https://dc.lft.to/lastmile_qr_scan"}, "type": "electric_scooter", "name": "52298a7a7db3285478e04eba497688bf", "is_reserved": 0, "lon": -77.07878616666666, "is_disabled": 0, "fusion_lat": 0.0, "lat": 38.946106666666665, "bike_id": "52298a7a7db3285478e04eba497688bf", "fusion_lon": 0.0}, {"rental_uris": {"ios": "https://dc.lft.to/lastmile_qr_scan", "android": "https://dc.lft.to/lastmile_qr_scan"}, "type": "electric_bike", "name": "bd027d8d2d0d654f37d9c79eb04ad494", "is_reserved": 0, "lon": -77.071374, "is_disabled": 0, "fusion_lat": 0.0, "lat": 38.896098, "bike_id": "bd027d8d2d0d654f37d9c79eb04ad494", "fusion_lon": 0.0}, {"rental_uris": {"ios": "https://dc.lft.to/lastmile_qr_scan", "android": "https://dc.lft.to/lastmile_qr_scan"}, "type": "electric_bike", "name": "0b4fab265fdd07ecdccbb4900223bf69", "is_reserved": 0, "lon": -77.094529, "is_disabled": 0, "fusion_lat": 0.0, "lat": 38.807504, "bike_id": "0b4fab265fdd07ecdccbb4900223bf69", "fusion_lon": 0.0}, {"rental_uris": {"ios": "https://dc.lft.to/lastmile_qr_scan", "android": "https://dc.lft.to/lastmile_qr_scan"}, "type": "electric_scooter", "name": "1d86932ee3ff38982eeb585974583773", "is_reserved": 0, "lon": -77.02159033333334, "is_disabled": 0, "fusion_lat": 0.0, "lat": 38.926067833333335, "bike_id": "1d86932ee3ff38982eeb585974583773", "fusion_lon": 0.0}, {"rental_uris": {"ios": "https://dc.lft.to/lastmile_qr_scan", "android": "https://dc.lft.to/lastmile_qr_scan"}, "type": "electric_scooter", "name": "5dcc8fe1e6913b2384cf0069d2afc169", "is_reserved": 0, "lon": -77.0298705, "is_disabled": 0, "fusion_lat": 0.0, "lat": 38.91703066666667, "bike_id": "5dcc8fe1e6913b2384cf0069d2afc169", "fusion_lon": 0.0}, {"rental_uris": {"ios": "https://dc.lft.to/lastmile_qr_scan", "android": "https://dc.lft.to/lastmile_qr_scan"}, "type": "electric_scooter", "name": "a51fbe5d2fc1f2ce624929ccdd5a5518", "is_reserved": 0, "lon": -77.00175116666666, "is_disabled": 0, "fusion_lat": 0.0, "lat": 38.874939499999996, "bike_id": "a51fbe5d2fc1f2ce624929ccdd5a5518", "fusion_lon": 0.0}, {"rental_uris": {"ios": "https://dc.lft.to/lastmile_qr_scan", "android": "https://dc.lft.to/lastmile_qr_scan"}, "type": "electric_scooter", "name": "4120c6e8a6a66ffa23ce0bec1c1fba25", "is_reserved": 0, "lon": -77.02203666666666, "is_disabled": 0, "fusion_lat": 0.0, "lat": 38.951554333333334, "bike_id": "4120c6e8a6a66ffa23ce0bec1c1fba25", "fusion_lon": 0.0}, {"rental_uris": {"ios": "https://dc.lft.to/lastmile_qr_scan", "android": "https://dc.lft.to/lastmile_qr_scan"}, "type": "electric_scooter", "name": "42c3c2ca6ea304f260e314d19ebed15c", "is_reserved": 0, "lon": -77.038441, "is_disabled": 0, "fusion_lat": 0.0, "lat": 38.9154755, "bike_id": "42c3c2ca6ea304f260e314d19ebed15c", "fusion_lon": 0.0}, {"rental_uris": {"ios": "https://dc.lft.to/lastmile_qr_scan", "android": "https://dc.lft.to/lastmile_qr_scan"}, "type": "electric_scooter", "name": "7c9fb9194ba9569d533adf9e2550b035", "is_reserved": 0, "lon": -77.03087283333333, "is_disabled": 0, "fusion_lat": 0.0, "lat": 38.90742133333333, "bike_id": "7c9fb9194ba9569d533adf9e2550b035", "fusion_lon": 0.0}, {"rental_uris": {"ios": "https://dc.lft.to/lastmile_qr_scan", "android": "https://dc.lft.to/lastmile_qr_scan"}, "type": "electric_scooter", "name": "49f21f88d0ebb3712b4b4f6f291e0cf5", "is_reserved": 0, "lon": -77.04151383333334, "is_disabled": 0, "fusion_lat": 0.0, "lat": 38.91552316666667, "bike_id": "49f21f88d0ebb3712b4b4f6f291e0cf5", "fusion_lon": 0.0}, {"rental_uris": {"ios": "https://dc.lft.to/lastmile_qr_scan", "android": "https://dc.lft.to/lastmile_qr_scan"}, "type": "electric_scooter", "name": "a35d649ea9aed888cbd865eded691385", "is_reserved": 0, "lon": -77.03146033333333, "is_disabled": 0, "fusion_lat": 0.0, "lat": 38.91119966666667, "bike_id": "a35d649ea9aed888cbd865eded691385", "fusion_lon": 0.0}, {"rental_uris": {"ios": "https://dc.lft.to/lastmile_qr_scan", "android": "https://dc.lft.to/lastmile_qr_scan"}, "type": "electric_scooter", "name": "4eebeeacacb1f1128e869d0a1c0b1c19", "is_reserved": 0, "lon": -77.0336975, "is_disabled": 0, "fusion_lat": 0.0, "lat": 38.9012505, "bike_id": "4eebeeacacb1f1128e869d0a1c0b1c19", "fusion_lon": 0.0}, {"rental_uris": {"ios": "https://dc.lft.to/lastmile_qr_scan", "android": "https://dc.lft.to/lastmile_qr_scan"}, "type": "electric_scooter", "name": "8d33a27f7eb473b1d3423f44715935eb", "is_reserved": 0, "lon": -77.00549333333333, "is_disabled": 0, "fusion_lat": 0.0, "lat": 38.8754045, "bike_id": "8d33a27f7eb473b1d3423f44715935eb", "fusion_lon": 0.0}, {"rental_uris": {"ios": "https://dc.lft.to/lastmile_qr_scan", "android": "https://dc.lft.to/lastmile_qr_scan"}, "type": "electric_bike", "name": "1d65b87fe91df915100de609069dc093", "is_reserved": 0, "lon": -76.91799466666667, "is_disabled": 0, "fusion_lat": 0.0, "lat": 38.99999916666667, "bike_id": "1d65b87fe91df915100de609069dc093", "fusion_lon": 0.0}, {"rental_uris": {"ios": "https://dc.lft.to/lastmile_qr_scan", "android": "https://dc.lft.to/lastmile_qr_scan"}, "type": "electric_scooter", "name": "76d0f40ade20342f47a5681084cebfe9", "is_reserved": 0, "lon": -77.04502133333334, "is_disabled": 0, "fusion_lat": 0.0, "lat": 38.90602766666667, "bike_id": "76d0f40ade20342f47a5681084cebfe9", "fusion_lon": 0.0}, {"rental_uris": {"ios": "https://dc.lft.to/lastmile_qr_scan", "android": "https://dc.lft.to/lastmile_qr_scan"}, "type": "electric_scooter", "name": "c4fe1079cc6d81926bff570f2ae7c31c", "is_reserved": 0, "lon": -77.050006, "is_disabled": 0, "fusion_lat": 0.0, "lat": 38.90630133333333, "bike_id": "c4fe1079cc6d81926bff570f2ae7c31c", "fusion_lon": 0.0}, {"rental_uris": {"ios": "https://dc.lft.to/lastmile_qr_scan", "android": "https://dc.lft.to/lastmile_qr_scan"}, "type": "electric_scooter", "name": "8e9c21ec17ab4f28a357ff16b3a4209e", "is_reserved": 0, "lon": -77.02590016666667, "is_disabled": 0, "fusion_lat": 0.0, "lat": 38.963967333333336, "bike_id": "8e9c21ec17ab4f28a357ff16b3a4209e", "fusion_lon": 0.0}, {"rental_uris": {"ios": "https://dc.lft.to/lastmile_qr_scan", "android": "https://dc.lft.to/lastmile_qr_scan"}, "type": "electric_scooter", "name": "6736bea53fbbecac0c8ac46ab1806ea2", "is_reserved": 0, "lon": -77.04370816666666, "is_disabled": 0, "fusion_lat": 0.0, "lat": 38.9206035, "bike_id": "6736bea53fbbecac0c8ac46ab1806ea2", "fusion_lon": 0.0}, {"rental_uris": {"ios": "https://dc.lft.to/lastmile_qr_scan", "android": "https://dc.lft.to/lastmile_qr_scan"}, "type": "electric_scooter", "name": "fe7b8002647235e9578371743efacc6c", "is_reserved": 0, "lon": -76.93295883333333, "is_disabled": 0, "fusion_lat": 0.0, "lat": 38.896868833333336, "bike_id": "fe7b8002647235e9578371743efacc6c", "fusion_lon": 0.0}, {"rental_uris": {"ios": "https://dc.lft.to/lastmile_qr_scan", "android": "https://dc.lft.to/lastmile_qr_scan"}, "type": "electric_bike", "name": "47542c6ee0ea6fbb3f5d1e74b5c1a939", "is_reserved": 0, "lon": -77.12976333333333, "is_disabled": 0, "fusion_lat": 0.0, "lat": 38.799824666666666, "bike_id": "47542c6ee0ea6fbb3f5d1e74b5c1a939", "fusion_lon": 0.0}, {"rental_uris": {"ios": "https://dc.lft.to/lastmile_qr_scan", "android": "https://dc.lft.to/lastmile_qr_scan"}, "type": "electric_scooter", "name": "6d74feb8614bca931135c3b3fd4bf1c9", "is_reserved": 0, "lon": -76.99961516666667, "is_disabled": 0, "fusion_lat": 0.0, "lat": 38.89424116666667, "bike_id": "6d74feb8614bca931135c3b3fd4bf1c9", "fusion_lon": 0.0}, {"rental_uris": {"ios": "https://dc.lft.to/lastmile_qr_scan", "android": "https://dc.lft.to/lastmile_qr_scan"}, "type": "electric_scooter", "name": "cfbc2a5cf3ecc02d06a9458b3f6d366a", "is_reserved": 0, "lon": -77.0384405, "is_disabled": 0, "fusion_lat": 0.0, "lat": 38.9117525, "bike_id": "cfbc2a5cf3ecc02d06a9458b3f6d366a", "fusion_lon": 0.0}, {"rental_uris": {"ios": "https://dc.lft.to/lastmile_qr_scan", "android": "https://dc.lft.to/lastmile_qr_scan"}, "type": "electric_scooter", "name": "e9001c9439753c394332ec21310ed7c2", "is_reserved": 0, "lon": -77.05123433333333, "is_disabled": 0, "fusion_lat": 0.0, "lat": 38.8976555, "bike_id": "e9001c9439753c394332ec21310ed7c2", "fusion_lon": 0.0}, {"rental_uris": {"ios": "https://dc.lft.to/lastmile_qr_scan", "android": "https://dc.lft.to/lastmile_qr_scan"}, "type": "electric_scooter", "name": "13cf6c6efe2e9974cd4b882520daaf9c", "is_reserved": 0, "lon": -77.01791866666667, "is_disabled": 0, "fusion_lat": 0.0, "lat": 38.886078499999996, "bike_id": "13cf6c6efe2e9974cd4b882520daaf9c", "fusion_lon": 0.0}, {"rental_uris": {"ios": "https://dc.lft.to/lastmile_qr_scan", "android": "https://dc.lft.to/lastmile_qr_scan"}, "type": "electric_scooter", "name": "6dddd98a3ce5b69e74bc066855429a94", "is_reserved": 0, "lon": -77.03351133333334, "is_disabled": 0, "fusion_lat": 0.0, "lat": 38.892387666666664, "bike_id": "6dddd98a3ce5b69e74bc066855429a94", "fusion_lon": 0.0}, {"rental_uris": {"ios": "https://dc.lft.to/lastmile_qr_scan", "android": "https://dc.lft.to/lastmile_qr_scan"}, "type": "electric_bike", "name": "4751863d60c96d7deebff95395878591", "is_reserved": 0, "lon": -76.9834785, "is_disabled": 0, "fusion_lat": 0.0, "lat": 38.8625765, "bike_id": "4751863d60c96d7deebff95395878591", "fusion_lon": 0.0}, {"rental_uris": {"ios": "https://dc.lft.to/lastmile_qr_scan", "android": "https://dc.lft.to/lastmile_qr_scan"}, "type": "electric_scooter", "name": "10a535603ce69b71fa2a8389e4ceb8c3", "is_reserved": 0, "lon": -77.022883, "is_disabled": 0, "fusion_lat": 0.0, "lat": 38.91687866666667, "bike_id": "10a535603ce69b71fa2a8389e4ceb8c3", "fusion_lon": 0.0}, {"rental_uris": {"ios": "https://dc.lft.to/lastmile_qr_scan", "android": "https://dc.lft.to/lastmile_qr_scan"}, "type": "electric_scooter", "name": "c6fd778a019e6291169aabc7ab8b395c", "is_reserved": 0, "lon": -77.0018755, "is_disabled": 0, "fusion_lat": 0.0, "lat": 38.9002845, "bike_id": "c6fd778a019e6291169aabc7ab8b395c", "fusion_lon": 0.0}, {"rental_uris": {"ios": "https://dc.lft.to/lastmile_qr_scan", "android": "https://dc.lft.to/lastmile_qr_scan"}, "type": "electric_scooter", "name": "a5494212e2e0807f9666c1d8f89b602d", "is_reserved": 0, "lon": -77.07521666666666, "is_disabled": 0, "fusion_lat": 0.0, "lat": 38.939432833333335, "bike_id": "a5494212e2e0807f9666c1d8f89b602d", "fusion_lon": 0.0}, {"rental_uris": {"ios": "https://dc.lft.to/lastmile_qr_scan", "android": "https://dc.lft.to/lastmile_qr_scan"}, "type": "electric_scooter", "name": "b063a91a03a8c697fc6f1559064c4f8c", "is_reserved": 0, "lon": -77.0068095, "is_disabled": 0, "fusion_lat": 0.0, "lat": 38.88422683333334, "bike_id": "b063a91a03a8c697fc6f1559064c4f8c", "fusion_lon": 0.0}, {"rental_uris": {"ios": "https://dc.lft.to/lastmile_qr_scan", "android": "https://dc.lft.to/lastmile_qr_scan"}, "type": "electric_scooter", "name": "48be0d8fa1e9fd13eba27a175b645267", "is_reserved": 0, "lon": -77.02795233333333, "is_disabled": 0, "fusion_lat": 0.0, "lat": 38.923200333333334, "bike_id": "48be0d8fa1e9fd13eba27a175b645267", "fusion_lon": 0.0}, {"rental_uris": {"ios": "https://dc.lft.to/lastmile_qr_scan", "android": "https://dc.lft.to/lastmile_qr_scan"}, "type": "electric_scooter", "name": "6cce41779496cffeb167496ecbd15d59", "is_reserved": 0, "lon": -77.03855683333333, "is_disabled": 0, "fusion_lat": 0.0, "lat": 38.910990166666664, "bike_id": "6cce41779496cffeb167496ecbd15d59", "fusion_lon": 0.0}, {"rental_uris": {"ios": "https://dc.lft.to/lastmile_qr_scan", "android": "https://dc.lft.to/lastmile_qr_scan"}, "type": "electric_scooter", "name": "74b0d1b20046898a1cb833577a18110f", "is_reserved": 0, "lon": -77.0269255, "is_disabled": 0, "fusion_lat": 0.0, "lat": 38.908399333333335, "bike_id": "74b0d1b20046898a1cb833577a18110f", "fusion_lon": 0.0}, {"rental_uris": {"ios": "https://dc.lft.to/lastmile_qr_scan", "android": "https://dc.lft.to/lastmile_qr_scan"}, "type": "electric_scooter", "name": "5e79507e1c6e58a532445a0628adc930", "is_reserved": 0, "lon": -77.05137683333334, "is_disabled": 0, "fusion_lat": 0.0, "lat": 38.9057905, "bike_id": "5e79507e1c6e58a532445a0628adc930", "fusion_lon": 0.0}, {"rental_uris": {"ios": "https://dc.lft.to/lastmile_qr_scan", "android": "https://dc.lft.to/lastmile_qr_scan"}, "type": "electric_scooter", "name": "e6c4279ac9ae5c44dbb5685fb6cd1714", "is_reserved": 0, "lon": -76.9952755, "is_disabled": 0, "fusion_lat": 0.0, "lat": 38.8626735, "bike_id": "e6c4279ac9ae5c44dbb5685fb6cd1714", "fusion_lon": 0.0}, {"rental_uris": {"ios": "https://dc.lft.to/lastmile_qr_scan", "android": "https://dc.lft.to/lastmile_qr_scan"}, "type": "electric_scooter", "name": "498247617fb146d5ecda30d0026af7b1", "is_reserved": 0, "lon": -77.0421705, "is_disabled": 0, "fusion_lat": 0.0, "lat": 38.911182833333335, "bike_id": "498247617fb146d5ecda30d0026af7b1", "fusion_lon": 0.0}, {"rental_uris": {"ios": "https://dc.lft.to/lastmile_qr_scan", "android": "https://dc.lft.to/lastmile_qr_scan"}, "type": "electric_scooter", "name": "4125368e241c7d12a8c896a38ed2bdae", "is_reserved": 0, "lon": -77.0273765, "is_disabled": 0, "fusion_lat": 0.0, "lat": 38.9660635, "bike_id": "4125368e241c7d12a8c896a38ed2bdae", "fusion_lon": 0.0}, {"rental_uris": {"ios": "https://dc.lft.to/lastmile_qr_scan", "android": "https://dc.lft.to/lastmile_qr_scan"}, "type": "electric_scooter", "name": "feed8d297c2bdec499b8e429a64367df", "is_reserved": 0, "lon": -77.06776433333333, "is_disabled": 0, "fusion_lat": 0.0, "lat": 38.908789666666664, "bike_id": "feed8d297c2bdec499b8e429a64367df", "fusion_lon": 0.0}, {"rental_uris": {"ios": "https://dc.lft.to/lastmile_qr_scan", "android": "https://dc.lft.to/lastmile_qr_scan"}, "type": "electric_scooter", "name": "9828e14815c669777dbde9584a62aed8", "is_reserved": 0, "lon": -76.947168, "is_disabled": 0, "fusion_lat": 0.0, "lat": 38.890811666666664, "bike_id": "9828e14815c669777dbde9584a62aed8", "fusion_lon": 0.0}, {"rental_uris": {"ios": "https://dc.lft.to/lastmile_qr_scan", "android": "https://dc.lft.to/lastmile_qr_scan"}, "type": "electric_bike", "name": "2484a390502a5cade30d9a06221033be", "is_reserved": 0, "lon": -76.95743866666666, "is_disabled": 0, "fusion_lat": 0.0, "lat": 38.88856283333333, "bike_id": "2484a390502a5cade30d9a06221033be", "fusion_lon": 0.0}, {"rental_uris": {"ios": "https://dc.lft.to/lastmile_qr_scan", "android": "https://dc.lft.to/lastmile_qr_scan"}, "type": "electric_scooter", "name": "ae20fe86e7eb87d055c713ca410e73b5", "is_reserved": 0, "lon": -77.0278025, "is_disabled": 0, "fusion_lat": 0.0, "lat": 38.92766066666667, "bike_id": "ae20fe86e7eb87d055c713ca410e73b5", "fusion_lon": 0.0}, {"rental_uris": {"ios": "https://dc.lft.to/lastmile_qr_scan", "android": "https://dc.lft.to/lastmile_qr_scan"}, "type": "electric_scooter", "name": "2a8302a59abbdeb66de2e3c63d895a94", "is_reserved": 0, "lon": -77.03196016666666, "is_disabled": 0, "fusion_lat": 0.0, "lat": 38.91536933333333, "bike_id": "2a8302a59abbdeb66de2e3c63d895a94", "fusion_lon": 0.0}, {"rental_uris": {"ios": "https://dc.lft.to/lastmile_qr_scan", "android": "https://dc.lft.to/lastmile_qr_scan"}, "type": "electric_scooter", "name": "da890ef0aec18fae9b98bda7dcf76de5", "is_reserved": 0, "lon": -77.04362616666667, "is_disabled": 0, "fusion_lat": 0.0, "lat": 38.91115216666667, "bike_id": "da890ef0aec18fae9b98bda7dcf76de5", "fusion_lon": 0.0}, {"rental_uris": {"ios": "https://dc.lft.to/lastmile_qr_scan", "android": "https://dc.lft.to/lastmile_qr_scan"}, "type": "electric_scooter", "name": "5dc1c691ebfa12b00faef94bc3824242", "is_reserved": 0, "lon": -77.03340366666667, "is_disabled": 0, "fusion_lat": 0.0, "lat": 38.89242733333333, "bike_id": "5dc1c691ebfa12b00faef94bc3824242", "fusion_lon": 0.0}, {"rental_uris": {"ios": "https://dc.lft.to/lastmile_qr_scan", "android": "https://dc.lft.to/lastmile_qr_scan"}, "type": "electric_scooter", "name": "ed3c89e22081fee4ed56c5bc2b9aab15", "is_reserved": 0, "lon": -77.04093216666666, "is_disabled": 0, "fusion_lat": 0.0, "lat": 38.905439333333334, "bike_id": "ed3c89e22081fee4ed56c5bc2b9aab15", "fusion_lon": 0.0}, {"rental_uris": {"ios": "https://dc.lft.to/lastmile_qr_scan", "android": "https://dc.lft.to/lastmile_qr_scan"}, "type": "electric_scooter", "name": "a352f29ef4f68bd6b0d8228853ba18dd", "is_reserved": 0, "lon": -77.02271883333333, "is_disabled": 0, "fusion_lat": 0.0, "lat": 38.902787333333336, "bike_id": "a352f29ef4f68bd6b0d8228853ba18dd", "fusion_lon": 0.0}, {"rental_uris": {"ios": "https://dc.lft.to/lastmile_qr_scan", "android": "https://dc.lft.to/lastmile_qr_scan"}, "type": "electric_scooter", "name": "17e22023d66d7259ad1f4f43277aeb62", "is_reserved": 0, "lon": -77.02980116666667, "is_disabled": 0, "fusion_lat": 0.0, "lat": 38.9236745, "bike_id": "17e22023d66d7259ad1f4f43277aeb62", "fusion_lon": 0.0}, {"rental_uris": {"ios": "https://dc.lft.to/lastmile_qr_scan", "android": "https://dc.lft.to/lastmile_qr_scan"}, "type": "electric_scooter", "name": "169cdec62e3ebe4e062cb9b0b100ff39", "is_reserved": 0, "lon": -77.037497, "is_disabled": 0, "fusion_lat": 0.0, "lat": 38.932021666666664, "bike_id": "169cdec62e3ebe4e062cb9b0b100ff39", "fusion_lon": 0.0}, {"rental_uris": {"ios": "https://dc.lft.to/lastmile_qr_scan", "android": "https://dc.lft.to/lastmile_qr_scan"}, "type": "electric_scooter", "name": "367874cff322fb23e6292e7be3c6bfb5", "is_reserved": 0, "lon": -76.99710733333333, "is_disabled": 0, "fusion_lat": 0.0, "lat": 38.908129, "bike_id": "367874cff322fb23e6292e7be3c6bfb5", "fusion_lon": 0.0}, {"rental_uris": {"ios": "https://dc.lft.to/lastmile_qr_scan", "android": "https://dc.lft.to/lastmile_qr_scan"}, "type": "electric_scooter", "name": "63a6af0eb76c8af521816446cb906904", "is_reserved": 0, "lon": -77.04507383333333, "is_disabled": 0, "fusion_lat": 0.0, "lat": 38.8922135, "bike_id": "63a6af0eb76c8af521816446cb906904", "fusion_lon": 0.0}, {"rental_uris": {"ios": "https://dc.lft.to/lastmile_qr_scan", "android": "https://dc.lft.to/lastmile_qr_scan"}, "type": "electric_scooter", "name": "2a8db6a40abd3498bcc945fceb27559c", "is_reserved": 0, "lon": -77.03247433333334, "is_disabled": 0, "fusion_lat": 0.0, "lat": 38.91710033333333, "bike_id": "2a8db6a40abd3498bcc945fceb27559c", "fusion_lon": 0.0}, {"rental_uris": {"ios": "https://dc.lft.to/lastmile_qr_scan", "android": "https://dc.lft.to/lastmile_qr_scan"}, "type": "electric_scooter", "name": "b5b880bba2c022e80c40411fde42b6ef", "is_reserved": 0, "lon": -77.0434385, "is_disabled": 0, "fusion_lat": 0.0, "lat": 38.911246, "bike_id": "b5b880bba2c022e80c40411fde42b6ef", "fusion_lon": 0.0}, {"rental_uris": {"ios": "https://dc.lft.to/lastmile_qr_scan", "android": "https://dc.lft.to/lastmile_qr_scan"}, "type": "electric_scooter", "name": "c5ae7b8a0ff66637dffd8a0ef26586fc", "is_reserved": 0, "lon": -77.048202, "is_disabled": 0, "fusion_lat": 0.0, "lat": 38.914866, "bike_id": "c5ae7b8a0ff66637dffd8a0ef26586fc", "fusion_lon": 0.0}, {"rental_uris": {"ios": "https://dc.lft.to/lastmile_qr_scan", "android": "https://dc.lft.to/lastmile_qr_scan"}, "type": "electric_scooter", "name": "d7ccda36460fe8d720e5d04344c3ee2e", "is_reserved": 0, "lon": -77.0071565, "is_disabled": 0, "fusion_lat": 0.0, "lat": 38.877148, "bike_id": "d7ccda36460fe8d720e5d04344c3ee2e", "fusion_lon": 0.0}, {"rental_uris": {"ios": "https://dc.lft.to/lastmile_qr_scan", "android": "https://dc.lft.to/lastmile_qr_scan"}, "type": "electric_scooter", "name": "35f69e7ed738c915daa55286364779f8", "is_reserved": 0, "lon": -77.06111066666666, "is_disabled": 0, "fusion_lat": 0.0, "lat": 38.90475716666667, "bike_id": "35f69e7ed738c915daa55286364779f8", "fusion_lon": 0.0}, {"rental_uris": {"ios": "https://dc.lft.to/lastmile_qr_scan", "android": "https://dc.lft.to/lastmile_qr_scan"}, "type": "electric_scooter", "name": "2ddaa3a4de53987fd193f4cf2aa0c9ed", "is_reserved": 0, "lon": -77.023569, "is_disabled": 0, "fusion_lat": 0.0, "lat": 38.90210366666667, "bike_id": "2ddaa3a4de53987fd193f4cf2aa0c9ed", "fusion_lon": 0.0}, {"rental_uris": {"ios": "https://dc.lft.to/lastmile_qr_scan", "android": "https://dc.lft.to/lastmile_qr_scan"}, "type": "electric_bike", "name": "6f8aaf936a13fc913bf8b8ac241bef3a", "is_reserved": 0, "lon": -77.0694815, "is_disabled": 0, "fusion_lat": 0.0, "lat": 38.8362535, "bike_id": "6f8aaf936a13fc913bf8b8ac241bef3a", "fusion_lon": 0.0}, {"rental_uris": {"ios": "https://dc.lft.to/lastmile_qr_scan", "android": "https://dc.lft.to/lastmile_qr_scan"}, "type": "electric_scooter", "name": "9a982cdecd349763d03439494c86e7f7", "is_reserved": 0, "lon": -76.9958755, "is_disabled": 0, "fusion_lat": 0.0, "lat": 38.909415, "bike_id": "9a982cdecd349763d03439494c86e7f7", "fusion_lon": 0.0}, {"rental_uris": {"ios": "https://dc.lft.to/lastmile_qr_scan", "android": "https://dc.lft.to/lastmile_qr_scan"}, "type": "electric_scooter", "name": "13802bdba86cd83065a97c3a7f108e38", "is_reserved": 0, "lon": -77.0397185, "is_disabled": 0, "fusion_lat": 0.0, "lat": 38.93148383333333, "bike_id": "13802bdba86cd83065a97c3a7f108e38", "fusion_lon": 0.0}, {"rental_uris": {"ios": "https://dc.lft.to/lastmile_qr_scan", "android": "https://dc.lft.to/lastmile_qr_scan"}, "type": "electric_scooter", "name": "46a33827159d7a0a79c956ccf01d39a5", "is_reserved": 0, "lon": -77.024904, "is_disabled": 0, "fusion_lat": 0.0, "lat": 38.923966666666665, "bike_id": "46a33827159d7a0a79c956ccf01d39a5", "fusion_lon": 0.0}, {"rental_uris": {"ios": "https://dc.lft.to/lastmile_qr_scan", "android": "https://dc.lft.to/lastmile_qr_scan"}, "type": "electric_scooter", "name": "a913908fd76268210f2f23fd0be11173", "is_reserved": 0, "lon": -76.9732755, "is_disabled": 0, "fusion_lat": 0.0, "lat": 38.90409433333333, "bike_id": "a913908fd76268210f2f23fd0be11173", "fusion_lon": 0.0}, {"rental_uris": {"ios": "https://dc.lft.to/lastmile_qr_scan", "android": "https://dc.lft.to/lastmile_qr_scan"}, "type": "electric_scooter", "name": "6403a1c4c65118714b8999e204e832f9", "is_reserved": 0, "lon": -77.01993866666666, "is_disabled": 0, "fusion_lat": 0.0, "lat": 38.89873716666666, "bike_id": "6403a1c4c65118714b8999e204e832f9", "fusion_lon": 0.0}, {"rental_uris": {"ios": "https://dc.lft.to/lastmile_qr_scan", "android": "https://dc.lft.to/lastmile_qr_scan"}, "type": "electric_scooter", "name": "3c48c4f35ca6dc808427f5b1a72d88cd", "is_reserved": 0, "lon": -77.02586616666666, "is_disabled": 0, "fusion_lat": 0.0, "lat": 38.8964775, "bike_id": "3c48c4f35ca6dc808427f5b1a72d88cd", "fusion_lon": 0.0}, {"rental_uris": {"ios": "https://dc.lft.to/lastmile_qr_scan", "android": "https://dc.lft.to/lastmile_qr_scan"}, "type": "electric_scooter", "name": "4976722831125710bbdd9a72c73e7e80", "is_reserved": 0, "lon": -77.04560833333333, "is_disabled": 0, "fusion_lat": 0.0, "lat": 38.917758666666664, "bike_id": "4976722831125710bbdd9a72c73e7e80", "fusion_lon": 0.0}, {"rental_uris": {"ios": "https://dc.lft.to/lastmile_qr_scan", "android": "https://dc.lft.to/lastmile_qr_scan"}, "type": "electric_scooter", "name": "4758ec7f2d69dd015caf8fed0024c55a", "is_reserved": 0, "lon": -77.0376, "is_disabled": 0, "fusion_lat": 0.0, "lat": 38.92572466666667, "bike_id": "4758ec7f2d69dd015caf8fed0024c55a", "fusion_lon": 0.0}, {"rental_uris": {"ios": "https://dc.lft.to/lastmile_qr_scan", "android": "https://dc.lft.to/lastmile_qr_scan"}, "type": "electric_scooter", "name": "440364d5305e5df71ae72c68ea3d0a41", "is_reserved": 0, "lon": -77.03840516666666, "is_disabled": 0, "fusion_lat": 0.0, "lat": 38.931111666666666, "bike_id": "440364d5305e5df71ae72c68ea3d0a41", "fusion_lon": 0.0}, {"rental_uris": {"ios": "https://dc.lft.to/lastmile_qr_scan", "android": "https://dc.lft.to/lastmile_qr_scan"}, "type": "electric_scooter", "name": "632ac663e6ffe4c68fe6fd697195cd79", "is_reserved": 0, "lon": -77.03572433333333, "is_disabled": 0, "fusion_lat": 0.0, "lat": 38.88180283333333, "bike_id": "632ac663e6ffe4c68fe6fd697195cd79", "fusion_lon": 0.0}, {"rental_uris": {"ios": "https://dc.lft.to/lastmile_qr_scan", "android": "https://dc.lft.to/lastmile_qr_scan"}, "type": "electric_scooter", "name": "53fedb0e4b92d7b6a7438ab56e3773d6", "is_reserved": 0, "lon": -77.04949833333333, "is_disabled": 0, "fusion_lat": 0.0, "lat": 38.90535466666667, "bike_id": "53fedb0e4b92d7b6a7438ab56e3773d6", "fusion_lon": 0.0}, {"rental_uris": {"ios": "https://dc.lft.to/lastmile_qr_scan", "android": "https://dc.lft.to/lastmile_qr_scan"}, "type": "electric_scooter", "name": "d39c922653286bbd485009b6f682dfb5", "is_reserved": 0, "lon": -77.02810033333333, "is_disabled": 0, "fusion_lat": 0.0, "lat": 38.906181833333335, "bike_id": "d39c922653286bbd485009b6f682dfb5", "fusion_lon": 0.0}, {"rental_uris": {"ios": "https://dc.lft.to/lastmile_qr_scan", "android": "https://dc.lft.to/lastmile_qr_scan"}, "type": "electric_scooter", "name": "50575dcaaf25f47bdff3b61754bcc50e", "is_reserved": 0, "lon": -77.04676666666667, "is_disabled": 0, "fusion_lat": 0.0, "lat": 38.89226816666667, "bike_id": "50575dcaaf25f47bdff3b61754bcc50e", "fusion_lon": 0.0}, {"rental_uris": {"ios": "https://dc.lft.to/lastmile_qr_scan", "android": "https://dc.lft.to/lastmile_qr_scan"}, "type": "electric_scooter", "name": "353c076f171b397d31e372c450d5f01f", "is_reserved": 0, "lon": -76.965043, "is_disabled": 0, "fusion_lat": 0.0, "lat": 38.87645716666667, "bike_id": "353c076f171b397d31e372c450d5f01f", "fusion_lon": 0.0}, {"rental_uris": {"ios": "https://dc.lft.to/lastmile_qr_scan", "android": "https://dc.lft.to/lastmile_qr_scan"}, "type": "electric_scooter", "name": "26f18233432f81c958b253913ae71116", "is_reserved": 0, "lon": -77.02759783333333, "is_disabled": 0, "fusion_lat": 0.0, "lat": 38.912046833333335, "bike_id": "26f18233432f81c958b253913ae71116", "fusion_lon": 0.0}, {"rental_uris": {"ios": "https://dc.lft.to/lastmile_qr_scan", "android": "https://dc.lft.to/lastmile_qr_scan"}, "type": "electric_scooter", "name": "1b576d80e07f0469da92a3fe967eec1c", "is_reserved": 0, "lon": -77.04336083333334, "is_disabled": 0, "fusion_lat": 0.0, "lat": 38.908193, "bike_id": "1b576d80e07f0469da92a3fe967eec1c", "fusion_lon": 0.0}, {"rental_uris": {"ios": "https://dc.lft.to/lastmile_qr_scan", "android": "https://dc.lft.to/lastmile_qr_scan"}, "type": "electric_scooter", "name": "0e342124f11cd024eee6953df8e29272", "is_reserved": 0, "lon": -77.04868283333333, "is_disabled": 0, "fusion_lat": 0.0, "lat": 38.892195666666666, "bike_id": "0e342124f11cd024eee6953df8e29272", "fusion_lon": 0.0}, {"rental_uris": {"ios": "https://dc.lft.to/lastmile_qr_scan", "android": "https://dc.lft.to/lastmile_qr_scan"}, "type": "electric_bike", "name": "4f2e84f5e9a3cea50fc86bbfc7433b14", "is_reserved": 0, "lon": -77.00134716666666, "is_disabled": 0, "fusion_lat": 0.0, "lat": 38.9949985, "bike_id": "4f2e84f5e9a3cea50fc86bbfc7433b14", "fusion_lon": 0.0}, {"rental_uris": {"ios": "https://dc.lft.to/lastmile_qr_scan", "android": "https://dc.lft.to/lastmile_qr_scan"}, "type": "electric_scooter", "name": "d0ca81b0624ef276d427323c8a804ec1", "is_reserved": 0, "lon": -77.0020805, "is_disabled": 0, "fusion_lat": 0.0, "lat": 38.893237, "bike_id": "d0ca81b0624ef276d427323c8a804ec1", "fusion_lon": 0.0}, {"rental_uris": {"ios": "https://dc.lft.to/lastmile_qr_scan", "android": "https://dc.lft.to/lastmile_qr_scan"}, "type": "electric_scooter", "name": "4c42697d56ef3b4b0b13384ef84edab5", "is_reserved": 0, "lon": -77.01745783333334, "is_disabled": 0, "fusion_lat": 0.0, "lat": 38.89227566666667, "bike_id": "4c42697d56ef3b4b0b13384ef84edab5", "fusion_lon": 0.0}, {"rental_uris": {"ios": "https://dc.lft.to/lastmile_qr_scan", "android": "https://dc.lft.to/lastmile_qr_scan"}, "type": "electric_scooter", "name": "94861356bfc36fe92c0dab806dfd1241", "is_reserved": 0, "lon": -77.05069283333333, "is_disabled": 0, "fusion_lat": 0.0, "lat": 38.900630666666665, "bike_id": "94861356bfc36fe92c0dab806dfd1241", "fusion_lon": 0.0}, {"rental_uris": {"ios": "https://dc.lft.to/lastmile_qr_scan", "android": "https://dc.lft.to/lastmile_qr_scan"}, "type": "electric_scooter", "name": "6b0f089210e866ddcf7696accf7bd0ba", "is_reserved": 0, "lon": -76.9793555, "is_disabled": 0, "fusion_lat": 0.0, "lat": 38.906602166666666, "bike_id": "6b0f089210e866ddcf7696accf7bd0ba", "fusion_lon": 0.0}, {"rental_uris": {"ios": "https://dc.lft.to/lastmile_qr_scan", "android": "https://dc.lft.to/lastmile_qr_scan"}, "type": "electric_scooter", "name": "f5e32d8beff5dcf674e1f7a1ed4cae6a", "is_reserved": 0, "lon": -77.03658433333334, "is_disabled": 0, "fusion_lat": 0.0, "lat": 38.922861, "bike_id": "f5e32d8beff5dcf674e1f7a1ed4cae6a", "fusion_lon": 0.0}, {"rental_uris": {"ios": "https://dc.lft.to/lastmile_qr_scan", "android": "https://dc.lft.to/lastmile_qr_scan"}, "type": "electric_bike", "name": "11f7727b335cbc3b33632c7d8bdc3939", "is_reserved": 0, "lon": -76.9691355, "is_disabled": 0, "fusion_lat": 0.0, "lat": 38.84611816666666, "bike_id": "11f7727b335cbc3b33632c7d8bdc3939", "fusion_lon": 0.0}, {"rental_uris": {"ios": "https://dc.lft.to/lastmile_qr_scan", "android": "https://dc.lft.to/lastmile_qr_scan"}, "type": "electric_scooter", "name": "42ca92e4515aeb7e2269b87cac34d09d", "is_reserved": 0, "lon": -77.00899383333334, "is_disabled": 0, "fusion_lat": 0.0, "lat": 38.898830833333335, "bike_id": "42ca92e4515aeb7e2269b87cac34d09d", "fusion_lon": 0.0}, {"rental_uris": {"ios": "https://dc.lft.to/lastmile_qr_scan", "android": "https://dc.lft.to/lastmile_qr_scan"}, "type": "electric_scooter", "name": "dd22d6cd7cb602a85c1b3afdef0e7f9b", "is_reserved": 0, "lon": -77.02156333333333, "is_disabled": 0, "fusion_lat": 0.0, "lat": 38.92603183333333, "bike_id": "dd22d6cd7cb602a85c1b3afdef0e7f9b", "fusion_lon": 0.0}, {"rental_uris": {"ios": "https://dc.lft.to/lastmile_qr_scan", "android": "https://dc.lft.to/lastmile_qr_scan"}, "type": "electric_scooter", "name": "c016d3fb97c5b31af2c38dcde042570b", "is_reserved": 0, "lon": -77.05215433333333, "is_disabled": 0, "fusion_lat": 0.0, "lat": 38.90015483333333, "bike_id": "c016d3fb97c5b31af2c38dcde042570b", "fusion_lon": 0.0}, {"rental_uris": {"ios": "https://dc.lft.to/lastmile_qr_scan", "android": "https://dc.lft.to/lastmile_qr_scan"}, "type": "electric_scooter", "name": "5edf79e0856aff1c8bc01105b0981ad3", "is_reserved": 0, "lon": -77.064689, "is_disabled": 0, "fusion_lat": 0.0, "lat": 38.9102315, "bike_id": "5edf79e0856aff1c8bc01105b0981ad3", "fusion_lon": 0.0}, {"rental_uris": {"ios": "https://dc.lft.to/lastmile_qr_scan", "android": "https://dc.lft.to/lastmile_qr_scan"}, "type": "electric_scooter", "name": "bac4967f6080e5da1d0046133e9177fd", "is_reserved": 0, "lon": -77.00928233333333, "is_disabled": 0, "fusion_lat": 0.0, "lat": 38.912562333333334, "bike_id": "bac4967f6080e5da1d0046133e9177fd", "fusion_lon": 0.0}, {"rental_uris": {"ios": "https://dc.lft.to/lastmile_qr_scan", "android": "https://dc.lft.to/lastmile_qr_scan"}, "type": "electric_scooter", "name": "2258cfa356b72170ab1f574d3a716dcd", "is_reserved": 0, "lon": -77.00403683333333, "is_disabled": 0, "fusion_lat": 0.0, "lat": 38.874544, "bike_id": "2258cfa356b72170ab1f574d3a716dcd", "fusion_lon": 0.0}, {"rental_uris": {"ios": "https://dc.lft.to/lastmile_qr_scan", "android": "https://dc.lft.to/lastmile_qr_scan"}, "type": "electric_scooter", "name": "1348d39b34df235cccd5da3b65d09b4e", "is_reserved": 0, "lon": -77.0216505, "is_disabled": 0, "fusion_lat": 0.0, "lat": 38.919767666666665, "bike_id": "1348d39b34df235cccd5da3b65d09b4e", "fusion_lon": 0.0}, {"rental_uris": {"ios": "https://dc.lft.to/lastmile_qr_scan", "android": "https://dc.lft.to/lastmile_qr_scan"}, "type": "electric_scooter", "name": "3c65e43ce85496cf5361f21d2b7d32b5", "is_reserved": 0, "lon": -77.01899016666667, "is_disabled": 0, "fusion_lat": 0.0, "lat": 38.923403, "bike_id": "3c65e43ce85496cf5361f21d2b7d32b5", "fusion_lon": 0.0}, {"rental_uris": {"ios": "https://dc.lft.to/lastmile_qr_scan", "android": "https://dc.lft.to/lastmile_qr_scan"}, "type": "electric_scooter", "name": "85863fac141fbca715fe3f8bed8e45b6", "is_reserved": 0, "lon": -77.03338066666667, "is_disabled": 0, "fusion_lat": 0.0, "lat": 38.90328366666667, "bike_id": "85863fac141fbca715fe3f8bed8e45b6", "fusion_lon": 0.0}, {"rental_uris": {"ios": "https://dc.lft.to/lastmile_qr_scan", "android": "https://dc.lft.to/lastmile_qr_scan"}, "type": "electric_scooter", "name": "7540de9610ab58eabdc1d1ea574216db", "is_reserved": 0, "lon": -77.01143733333333, "is_disabled": 0, "fusion_lat": 0.0, "lat": 38.91439833333333, "bike_id": "7540de9610ab58eabdc1d1ea574216db", "fusion_lon": 0.0}, {"rental_uris": {"ios": "https://dc.lft.to/lastmile_qr_scan", "android": "https://dc.lft.to/lastmile_qr_scan"}, "type": "electric_scooter", "name": "8c18e27cfeeac0ea11fd59230874a386", "is_reserved": 0, "lon": -77.01757566666667, "is_disabled": 0, "fusion_lat": 0.0, "lat": 38.8771945, "bike_id": "8c18e27cfeeac0ea11fd59230874a386", "fusion_lon": 0.0}, {"rental_uris": {"ios": "https://dc.lft.to/lastmile_qr_scan", "android": "https://dc.lft.to/lastmile_qr_scan"}, "type": "electric_scooter", "name": "ba88c0937ce7a723297aeb454100883f", "is_reserved": 0, "lon": -77.01760683333333, "is_disabled": 0, "fusion_lat": 0.0, "lat": 38.92103216666667, "bike_id": "ba88c0937ce7a723297aeb454100883f", "fusion_lon": 0.0}, {"rental_uris": {"ios": "https://dc.lft.to/lastmile_qr_scan", "android": "https://dc.lft.to/lastmile_qr_scan"}, "type": "electric_scooter", "name": "21ec7837ed9876dad8f2c3168821b251", "is_reserved": 0, "lon": -76.95701383333333, "is_disabled": 0, "fusion_lat": 0.0, "lat": 38.891989833333334, "bike_id": "21ec7837ed9876dad8f2c3168821b251", "fusion_lon": 0.0}, {"rental_uris": {"ios": "https://dc.lft.to/lastmile_qr_scan", "android": "https://dc.lft.to/lastmile_qr_scan"}, "type": "electric_scooter", "name": "89b48762ad2632f46908ced87272983d", "is_reserved": 0, "lon": -77.03442383333334, "is_disabled": 0, "fusion_lat": 0.0, "lat": 38.9102245, "bike_id": "89b48762ad2632f46908ced87272983d", "fusion_lon": 0.0}, {"rental_uris": {"ios": "https://dc.lft.to/lastmile_qr_scan", "android": "https://dc.lft.to/lastmile_qr_scan"}, "type": "electric_bike", "name": "f7b710596155cf2f1f17dc48bbc0ccc9", "is_reserved": 0, "lon": -76.97535083333334, "is_disabled": 0, "fusion_lat": 0.0, "lat": 38.90326833333334, "bike_id": "f7b710596155cf2f1f17dc48bbc0ccc9", "fusion_lon": 0.0}, {"rental_uris": {"ios": "https://dc.lft.to/lastmile_qr_scan", "android": "https://dc.lft.to/lastmile_qr_scan"}, "type": "electric_scooter", "name": "038ba4575c041649aa9320044f7d1996", "is_reserved": 0, "lon": -76.9903715, "is_disabled": 0, "fusion_lat": 0.0, "lat": 38.8887455, "bike_id": "038ba4575c041649aa9320044f7d1996", "fusion_lon": 0.0}, {"rental_uris": {"ios": "https://dc.lft.to/lastmile_qr_scan", "android": "https://dc.lft.to/lastmile_qr_scan"}, "type": "electric_scooter", "name": "d6b689bff9c230b4cfcbe51d41fac71d", "is_reserved": 0, "lon": -77.0072595, "is_disabled": 0, "fusion_lat": 0.0, "lat": 38.87647716666667, "bike_id": "d6b689bff9c230b4cfcbe51d41fac71d", "fusion_lon": 0.0}, {"rental_uris": {"ios": "https://dc.lft.to/lastmile_qr_scan", "android": "https://dc.lft.to/lastmile_qr_scan"}, "type": "electric_scooter", "name": "325d3d387f92a8333499598015b8310d", "is_reserved": 0, "lon": -76.99604816666667, "is_disabled": 0, "fusion_lat": 0.0, "lat": 38.890861666666666, "bike_id": "325d3d387f92a8333499598015b8310d", "fusion_lon": 0.0}, {"rental_uris": {"ios": "https://dc.lft.to/lastmile_qr_scan", "android": "https://dc.lft.to/lastmile_qr_scan"}, "type": "electric_scooter", "name": "a6f26d2e0bdfd9189f58251339eb7e64", "is_reserved": 0, "lon": -77.0435255, "is_disabled": 0, "fusion_lat": 0.0, "lat": 38.901194833333335, "bike_id": "a6f26d2e0bdfd9189f58251339eb7e64", "fusion_lon": 0.0}, {"rental_uris": {"ios": "https://dc.lft.to/lastmile_qr_scan", "android": "https://dc.lft.to/lastmile_qr_scan"}, "type": "electric_scooter", "name": "7df76bba67d0187fa994906f0d98aa87", "is_reserved": 0, "lon": -77.03406066666666, "is_disabled": 0, "fusion_lat": 0.0, "lat": 38.9197065, "bike_id": "7df76bba67d0187fa994906f0d98aa87", "fusion_lon": 0.0}, {"rental_uris": {"ios": "https://dc.lft.to/lastmile_qr_scan", "android": "https://dc.lft.to/lastmile_qr_scan"}, "type": "electric_scooter", "name": "c19a02d5d1eaa9d21626a1e73e78a50f", "is_reserved": 0, "lon": -77.02281933333333, "is_disabled": 0, "fusion_lat": 0.0, "lat": 38.907877, "bike_id": "c19a02d5d1eaa9d21626a1e73e78a50f", "fusion_lon": 0.0}, {"rental_uris": {"ios": "https://dc.lft.to/lastmile_qr_scan", "android": "https://dc.lft.to/lastmile_qr_scan"}, "type": "electric_scooter", "name": "b76d3d59bbe78c63829b0e26bf1f7ab8", "is_reserved": 0, "lon": -77.03605916666666, "is_disabled": 0, "fusion_lat": 0.0, "lat": 38.92851433333333, "bike_id": "b76d3d59bbe78c63829b0e26bf1f7ab8", "fusion_lon": 0.0}, {"rental_uris": {"ios": "https://dc.lft.to/lastmile_qr_scan", "android": "https://dc.lft.to/lastmile_qr_scan"}, "type": "electric_scooter", "name": "7738551b25c17645438352cfec672e18", "is_reserved": 0, "lon": -77.02305966666667, "is_disabled": 0, "fusion_lat": 0.0, "lat": 38.96128133333333, "bike_id": "7738551b25c17645438352cfec672e18", "fusion_lon": 0.0}, {"rental_uris": {"ios": "https://dc.lft.to/lastmile_qr_scan", "android": "https://dc.lft.to/lastmile_qr_scan"}, "type": "electric_scooter", "name": "e9e6b5d2e4e9266f8b638584776cf1cd", "is_reserved": 0, "lon": -77.041379, "is_disabled": 0, "fusion_lat": 0.0, "lat": 38.93466, "bike_id": "e9e6b5d2e4e9266f8b638584776cf1cd", "fusion_lon": 0.0}, {"rental_uris": {"ios": "https://dc.lft.to/lastmile_qr_scan", "android": "https://dc.lft.to/lastmile_qr_scan"}, "type": "electric_scooter", "name": "cf10cf223e1d381f282781ea3d6df84c", "is_reserved": 0, "lon": -77.033477, "is_disabled": 0, "fusion_lat": 0.0, "lat": 38.903315, "bike_id": "cf10cf223e1d381f282781ea3d6df84c", "fusion_lon": 0.0}, {"rental_uris": {"ios": "https://dc.lft.to/lastmile_qr_scan", "android": "https://dc.lft.to/lastmile_qr_scan"}, "type": "electric_scooter", "name": "a0dfcd509e48eaa414853671e8edb14e", "is_reserved": 0, "lon": -77.033722, "is_disabled": 0, "fusion_lat": 0.0, "lat": 38.910352833333334, "bike_id": "a0dfcd509e48eaa414853671e8edb14e", "fusion_lon": 0.0}, {"rental_uris": {"ios": "https://dc.lft.to/lastmile_qr_scan", "android": "https://dc.lft.to/lastmile_qr_scan"}, "type": "electric_scooter", "name": "84d935c2087f4a16a6dc579690a454c1", "is_reserved": 0, "lon": -77.02817466666667, "is_disabled": 0, "fusion_lat": 0.0, "lat": 38.929696166666666, "bike_id": "84d935c2087f4a16a6dc579690a454c1", "fusion_lon": 0.0}, {"rental_uris": {"ios": "https://dc.lft.to/lastmile_qr_scan", "android": "https://dc.lft.to/lastmile_qr_scan"}, "type": "electric_scooter", "name": "98587120b012eaaff8d4c6720172ff77", "is_reserved": 0, "lon": -77.0320695, "is_disabled": 0, "fusion_lat": 0.0, "lat": 38.892357, "bike_id": "98587120b012eaaff8d4c6720172ff77", "fusion_lon": 0.0}, {"rental_uris": {"ios": "https://dc.lft.to/lastmile_qr_scan", "android": "https://dc.lft.to/lastmile_qr_scan"}, "type": "electric_scooter", "name": "6b01acce053fa6b5804402c9b8c0ccdf", "is_reserved": 0, "lon": -77.04193316666667, "is_disabled": 0, "fusion_lat": 0.0, "lat": 38.92059166666667, "bike_id": "6b01acce053fa6b5804402c9b8c0ccdf", "fusion_lon": 0.0}, {"rental_uris": {"ios": "https://dc.lft.to/lastmile_qr_scan", "android": "https://dc.lft.to/lastmile_qr_scan"}, "type": "electric_scooter", "name": "667499cb2c153286782b967acd3285ba", "is_reserved": 0, "lon": -77.019488, "is_disabled": 0, "fusion_lat": 0.0, "lat": 38.922609666666666, "bike_id": "667499cb2c153286782b967acd3285ba", "fusion_lon": 0.0}, {"rental_uris": {"ios": "https://dc.lft.to/lastmile_qr_scan", "android": "https://dc.lft.to/lastmile_qr_scan"}, "type": "electric_scooter", "name": "fbc76c90530dc277370ca2d6cb582627", "is_reserved": 0, "lon": -77.02759183333333, "is_disabled": 0, "fusion_lat": 0.0, "lat": 38.91342733333333, "bike_id": "fbc76c90530dc277370ca2d6cb582627", "fusion_lon": 0.0}, {"rental_uris": {"ios": "https://dc.lft.to/lastmile_qr_scan", "android": "https://dc.lft.to/lastmile_qr_scan"}, "type": "electric_scooter", "name": "edc8317cbb7999cee82f399969af82f2", "is_reserved": 0, "lon": -77.02958533333333, "is_disabled": 0, "fusion_lat": 0.0, "lat": 38.90478916666667, "bike_id": "edc8317cbb7999cee82f399969af82f2", "fusion_lon": 0.0}, {"rental_uris": {"ios": "https://dc.lft.to/lastmile_qr_scan", "android": "https://dc.lft.to/lastmile_qr_scan"}, "type": "electric_scooter", "name": "96d015129855d575fade902e6807b6d1", "is_reserved": 0, "lon": -77.06123733333334, "is_disabled": 0, "fusion_lat": 0.0, "lat": 38.90513283333333, "bike_id": "96d015129855d575fade902e6807b6d1", "fusion_lon": 0.0}, {"rental_uris": {"ios": "https://dc.lft.to/lastmile_qr_scan", "android": "https://dc.lft.to/lastmile_qr_scan"}, "type": "electric_bike", "name": "077a7ac503d6612e261da568cb8dc37b", "is_reserved": 0, "lon": -77.0701365, "is_disabled": 0, "fusion_lat": 0.0, "lat": 38.84110866666666, "bike_id": "077a7ac503d6612e261da568cb8dc37b", "fusion_lon": 0.0}, {"rental_uris": {"ios": "https://dc.lft.to/lastmile_qr_scan", "android": "https://dc.lft.to/lastmile_qr_scan"}, "type": "electric_scooter", "name": "cbe216ee25ff0bc66c1101c5396fc3e2", "is_reserved": 0, "lon": -77.02412583333333, "is_disabled": 0, "fusion_lat": 0.0, "lat": 38.909575833333335, "bike_id": "cbe216ee25ff0bc66c1101c5396fc3e2", "fusion_lon": 0.0}, {"rental_uris": {"ios": "https://dc.lft.to/lastmile_qr_scan", "android": "https://dc.lft.to/lastmile_qr_scan"}, "type": "electric_scooter", "name": "ade9b75580408cec8cbe63cdff041cfa", "is_reserved": 0, "lon": -77.068525, "is_disabled": 0, "fusion_lat": 0.0, "lat": 38.90393783333333, "bike_id": "ade9b75580408cec8cbe63cdff041cfa", "fusion_lon": 0.0}, {"rental_uris": {"ios": "https://dc.lft.to/lastmile_qr_scan", "android": "https://dc.lft.to/lastmile_qr_scan"}, "type": "electric_scooter", "name": "b4118e1ed7397828bb32772d11e0bbc1", "is_reserved": 0, "lon": -77.066046, "is_disabled": 0, "fusion_lat": 0.0, "lat": 38.90521966666667, "bike_id": "b4118e1ed7397828bb32772d11e0bbc1", "fusion_lon": 0.0}, {"rental_uris": {"ios": "https://dc.lft.to/lastmile_qr_scan", "android": "https://dc.lft.to/lastmile_qr_scan"}, "type": "electric_scooter", "name": "bc57261bb8411a64b3b5584e48df3e12", "is_reserved": 0, "lon": -77.04404666666667, "is_disabled": 0, "fusion_lat": 0.0, "lat": 38.92951133333333, "bike_id": "bc57261bb8411a64b3b5584e48df3e12", "fusion_lon": 0.0}, {"rental_uris": {"ios": "https://dc.lft.to/lastmile_qr_scan", "android": "https://dc.lft.to/lastmile_qr_scan"}, "type": "electric_scooter", "name": "a38a6b75aa32c29fa2eb5b4222dd5bbc", "is_reserved": 0, "lon": -77.05317583333333, "is_disabled": 0, "fusion_lat": 0.0, "lat": 38.90258816666667, "bike_id": "a38a6b75aa32c29fa2eb5b4222dd5bbc", "fusion_lon": 0.0}, {"rental_uris": {"ios": "https://dc.lft.to/lastmile_qr_scan", "android": "https://dc.lft.to/lastmile_qr_scan"}, "type": "electric_scooter", "name": "082ce1e401c7deb52140cd76a2e45276", "is_reserved": 0, "lon": -76.94385166666666, "is_disabled": 0, "fusion_lat": 0.0, "lat": 38.89113533333333, "bike_id": "082ce1e401c7deb52140cd76a2e45276", "fusion_lon": 0.0}, {"rental_uris": {"ios": "https://dc.lft.to/lastmile_qr_scan", "android": "https://dc.lft.to/lastmile_qr_scan"}, "type": "electric_scooter", "name": "6bc51560d1034d644116d2590bc56b81", "is_reserved": 0, "lon": -76.96563766666667, "is_disabled": 0, "fusion_lat": 0.0, "lat": 38.87606383333333, "bike_id": "6bc51560d1034d644116d2590bc56b81", "fusion_lon": 0.0}, {"rental_uris": {"ios": "https://dc.lft.to/lastmile_qr_scan", "android": "https://dc.lft.to/lastmile_qr_scan"}, "type": "electric_scooter", "name": "93fcf54e527b5886f71847f58b79d9f0", "is_reserved": 0, "lon": -77.03339216666667, "is_disabled": 0, "fusion_lat": 0.0, "lat": 38.892523, "bike_id": "93fcf54e527b5886f71847f58b79d9f0", "fusion_lon": 0.0}, {"rental_uris": {"ios": "https://dc.lft.to/lastmile_qr_scan", "android": "https://dc.lft.to/lastmile_qr_scan"}, "type": "electric_bike", "name": "7da72af25347d2f82560483b20a8470b", "is_reserved": 0, "lon": -77.228237, "is_disabled": 0, "fusion_lat": 0.0, "lat": 38.88267666666667, "bike_id": "7da72af25347d2f82560483b20a8470b", "fusion_lon": 0.0}, {"rental_uris": {"ios": "https://dc.lft.to/lastmile_qr_scan", "android": "https://dc.lft.to/lastmile_qr_scan"}, "type": "electric_scooter", "name": "5f16f4fdd32b2e71448c381939d4ebad", "is_reserved": 0, "lon": -77.02833166666667, "is_disabled": 0, "fusion_lat": 0.0, "lat": 38.914045333333334, "bike_id": "5f16f4fdd32b2e71448c381939d4ebad", "fusion_lon": 0.0}, {"rental_uris": {"ios": "https://dc.lft.to/lastmile_qr_scan", "android": "https://dc.lft.to/lastmile_qr_scan"}, "type": "electric_scooter", "name": "a88e42d68daba7981769d48cf3d368ce", "is_reserved": 0, "lon": -76.930439, "is_disabled": 0, "fusion_lat": 0.0, "lat": 38.88387316666667, "bike_id": "a88e42d68daba7981769d48cf3d368ce", "fusion_lon": 0.0}, {"rental_uris": {"ios": "https://dc.lft.to/lastmile_qr_scan", "android": "https://dc.lft.to/lastmile_qr_scan"}, "type": "electric_bike", "name": "05251df9bf2d4467fa95c7e203d05e89", "is_reserved": 0, "lon": -77.01436816666667, "is_disabled": 0, "fusion_lat": 0.0, "lat": 38.87673133333333, "bike_id": "05251df9bf2d4467fa95c7e203d05e89", "fusion_lon": 0.0}, {"rental_uris": {"ios": "https://dc.lft.to/lastmile_qr_scan", "android": "https://dc.lft.to/lastmile_qr_scan"}, "type": "electric_scooter", "name": "7d70b406a289ab8c63a3d1f02f86a2b4", "is_reserved": 0, "lon": -77.0494475, "is_disabled": 0, "fusion_lat": 0.0, "lat": 38.920151, "bike_id": "7d70b406a289ab8c63a3d1f02f86a2b4", "fusion_lon": 0.0}, {"rental_uris": {"ios": "https://dc.lft.to/lastmile_qr_scan", "android": "https://dc.lft.to/lastmile_qr_scan"}, "type": "electric_scooter", "name": "2369e77645733948f0f87967e56d76fc", "is_reserved": 0, "lon": -77.02021366666666, "is_disabled": 0, "fusion_lat": 0.0, "lat": 38.8921975, "bike_id": "2369e77645733948f0f87967e56d76fc", "fusion_lon": 0.0}, {"rental_uris": {"ios": "https://dc.lft.to/lastmile_qr_scan", "android": "https://dc.lft.to/lastmile_qr_scan"}, "type": "electric_scooter", "name": "6f8184a7fe0d248dfbbd01483457d627", "is_reserved": 0, "lon": -76.94826866666666, "is_disabled": 0, "fusion_lat": 0.0, "lat": 38.885183, "bike_id": "6f8184a7fe0d248dfbbd01483457d627", "fusion_lon": 0.0}, {"rental_uris": {"ios": "https://dc.lft.to/lastmile_qr_scan", "android": "https://dc.lft.to/lastmile_qr_scan"}, "type": "electric_scooter", "name": "89773ad82b7a0f9e58e11b199f3d2f65", "is_reserved": 0, "lon": -77.01083083333333, "is_disabled": 0, "fusion_lat": 0.0, "lat": 38.8940865, "bike_id": "89773ad82b7a0f9e58e11b199f3d2f65", "fusion_lon": 0.0}, {"rental_uris": {"ios": "https://dc.lft.to/lastmile_qr_scan", "android": "https://dc.lft.to/lastmile_qr_scan"}, "type": "electric_scooter", "name": "9418cb4b4086ae6b38c0a8ecb375e6bd", "is_reserved": 0, "lon": -77.01337, "is_disabled": 0, "fusion_lat": 0.0, "lat": 38.919085833333334, "bike_id": "9418cb4b4086ae6b38c0a8ecb375e6bd", "fusion_lon": 0.0}, {"rental_uris": {"ios": "https://dc.lft.to/lastmile_qr_scan", "android": "https://dc.lft.to/lastmile_qr_scan"}, "type": "electric_bike", "name": "1d01c41cc1c56c0f534892fbe6f128b7", "is_reserved": 0, "lon": -76.951576, "is_disabled": 0, "fusion_lat": 0.0, "lat": 39.08432416666667, "bike_id": "1d01c41cc1c56c0f534892fbe6f128b7", "fusion_lon": 0.0}, {"rental_uris": {"ios": "https://dc.lft.to/lastmile_qr_scan", "android": "https://dc.lft.to/lastmile_qr_scan"}, "type": "electric_scooter", "name": "61cf2cb349cf9387e5dd9f04d2256418", "is_reserved": 0, "lon": -77.03080083333333, "is_disabled": 0, "fusion_lat": 0.0, "lat": 38.93306616666667, "bike_id": "61cf2cb349cf9387e5dd9f04d2256418", "fusion_lon": 0.0}, {"rental_uris": {"ios": "https://dc.lft.to/lastmile_qr_scan", "android": "https://dc.lft.to/lastmile_qr_scan"}, "type": "electric_bike", "name": "8300f582dbae8eceb6643031b5a11a81", "is_reserved": 0, "lon": -76.97558, "is_disabled": 0, "fusion_lat": 0.0, "lat": 38.904436, "bike_id": "8300f582dbae8eceb6643031b5a11a81", "fusion_lon": 0.0}, {"rental_uris": {"ios": "https://dc.lft.to/lastmile_qr_scan", "android": "https://dc.lft.to/lastmile_qr_scan"}, "type": "electric_scooter", "name": "ddb44961ef29470264de49f12bce017a", "is_reserved": 0, "lon": -77.01929783333334, "is_disabled": 0, "fusion_lat": 0.0, "lat": 38.947017333333335, "bike_id": "ddb44961ef29470264de49f12bce017a", "fusion_lon": 0.0}, {"rental_uris": {"ios": "https://dc.lft.to/lastmile_qr_scan", "android": "https://dc.lft.to/lastmile_qr_scan"}, "type": "electric_scooter", "name": "6de4a0696e9689620aeadc2b210f45ed", "is_reserved": 0, "lon": -77.027978, "is_disabled": 0, "fusion_lat": 0.0, "lat": 38.89879633333334, "bike_id": "6de4a0696e9689620aeadc2b210f45ed", "fusion_lon": 0.0}, {"rental_uris": {"ios": "https://dc.lft.to/lastmile_qr_scan", "android": "https://dc.lft.to/lastmile_qr_scan"}, "type": "electric_scooter", "name": "a4a5f2ab06800e9a469b8cff68e924ef", "is_reserved": 0, "lon": -77.001552, "is_disabled": 0, "fusion_lat": 0.0, "lat": 38.821312666666664, "bike_id": "a4a5f2ab06800e9a469b8cff68e924ef", "fusion_lon": 0.0}, {"rental_uris": {"ios": "https://dc.lft.to/lastmile_qr_scan", "android": "https://dc.lft.to/lastmile_qr_scan"}, "type": "electric_scooter", "name": "b820f61797c386b3aa13b9e863e54f04", "is_reserved": 0, "lon": -77.00770433333334, "is_disabled": 0, "fusion_lat": 0.0, "lat": 38.952407, "bike_id": "b820f61797c386b3aa13b9e863e54f04", "fusion_lon": 0.0}, {"rental_uris": {"ios": "https://dc.lft.to/lastmile_qr_scan", "android": "https://dc.lft.to/lastmile_qr_scan"}, "type": "electric_scooter", "name": "8db9ccab8bcc167f23c1ffa76535187c", "is_reserved": 0, "lon": -77.03333133333334, "is_disabled": 0, "fusion_lat": 0.0, "lat": 38.887732166666666, "bike_id": "8db9ccab8bcc167f23c1ffa76535187c", "fusion_lon": 0.0}, {"rental_uris": {"ios": "https://dc.lft.to/lastmile_qr_scan", "android": "https://dc.lft.to/lastmile_qr_scan"}, "type": "electric_scooter", "name": "2527e47e2628cdc28214c40d3d6a149e", "is_reserved": 0, "lon": -77.0443635, "is_disabled": 0, "fusion_lat": 0.0, "lat": 38.901281833333336, "bike_id": "2527e47e2628cdc28214c40d3d6a149e", "fusion_lon": 0.0}, {"rental_uris": {"ios": "https://dc.lft.to/lastmile_qr_scan", "android": "https://dc.lft.to/lastmile_qr_scan"}, "type": "electric_scooter", "name": "40aec702e9251fa0c1aa6d2b6222a47b", "is_reserved": 0, "lon": -77.03708783333333, "is_disabled": 0, "fusion_lat": 0.0, "lat": 38.92652783333333, "bike_id": "40aec702e9251fa0c1aa6d2b6222a47b", "fusion_lon": 0.0}, {"rental_uris": {"ios": "https://dc.lft.to/lastmile_qr_scan", "android": "https://dc.lft.to/lastmile_qr_scan"}, "type": "electric_bike", "name": "644918a92b5994b096e0bce3ade4f5ea", "is_reserved": 0, "lon": -77.0852965, "is_disabled": 0, "fusion_lat": 0.0, "lat": 38.856467, "bike_id": "644918a92b5994b096e0bce3ade4f5ea", "fusion_lon": 0.0}, {"rental_uris": {"ios": "https://dc.lft.to/lastmile_qr_scan", "android": "https://dc.lft.to/lastmile_qr_scan"}, "type": "electric_scooter", "name": "a50ef852f89d2cd7ce9b78525ff944c7", "is_reserved": 0, "lon": -77.01941383333333, "is_disabled": 0, "fusion_lat": 0.0, "lat": 38.9241595, "bike_id": "a50ef852f89d2cd7ce9b78525ff944c7", "fusion_lon": 0.0}, {"rental_uris": {"ios": "https://dc.lft.to/lastmile_qr_scan", "android": "https://dc.lft.to/lastmile_qr_scan"}, "type": "electric_scooter", "name": "930b9f113fb5f504b58068b288d726f1", "is_reserved": 0, "lon": -77.04498783333334, "is_disabled": 0, "fusion_lat": 0.0, "lat": 38.905121, "bike_id": "930b9f113fb5f504b58068b288d726f1", "fusion_lon": 0.0}, {"rental_uris": {"ios": "https://dc.lft.to/lastmile_qr_scan", "android": "https://dc.lft.to/lastmile_qr_scan"}, "type": "electric_scooter", "name": "e983fa28be7113622b5b4b3e54c4ff7a", "is_reserved": 0, "lon": -77.03853833333334, "is_disabled": 0, "fusion_lat": 0.0, "lat": 38.932397, "bike_id": "e983fa28be7113622b5b4b3e54c4ff7a", "fusion_lon": 0.0}, {"rental_uris": {"ios": "https://dc.lft.to/lastmile_qr_scan", "android": "https://dc.lft.to/lastmile_qr_scan"}, "type": "electric_scooter", "name": "6e9f22bc4e67af21e6221fbb96b2ad23", "is_reserved": 0, "lon": -77.09029733333334, "is_disabled": 0, "fusion_lat": 0.0, "lat": 38.95602066666667, "bike_id": "6e9f22bc4e67af21e6221fbb96b2ad23", "fusion_lon": 0.0}, {"rental_uris": {"ios": "https://dc.lft.to/lastmile_qr_scan", "android": "https://dc.lft.to/lastmile_qr_scan"}, "type": "electric_scooter", "name": "4f4e25c9c6a00fb30cb99c41dbef68fb", "is_reserved": 0, "lon": -76.96974483333334, "is_disabled": 0, "fusion_lat": 0.0, "lat": 38.8614415, "bike_id": "4f4e25c9c6a00fb30cb99c41dbef68fb", "fusion_lon": 0.0}, {"rental_uris": {"ios": "https://dc.lft.to/lastmile_qr_scan", "android": "https://dc.lft.to/lastmile_qr_scan"}, "type": "electric_scooter", "name": "856d5c7b2c473fd09834e97c7fce5590", "is_reserved": 0, "lon": -77.03416733333333, "is_disabled": 0, "fusion_lat": 0.0, "lat": 38.922025833333336, "bike_id": "856d5c7b2c473fd09834e97c7fce5590", "fusion_lon": 0.0}, {"rental_uris": {"ios": "https://dc.lft.to/lastmile_qr_scan", "android": "https://dc.lft.to/lastmile_qr_scan"}, "type": "electric_scooter", "name": "da677f43c948df8a785771c1672f0faf", "is_reserved": 0, "lon": -77.01763633333333, "is_disabled": 0, "fusion_lat": 0.0, "lat": 38.90087, "bike_id": "da677f43c948df8a785771c1672f0faf", "fusion_lon": 0.0}, {"rental_uris": {"ios": "https://dc.lft.to/lastmile_qr_scan", "android": "https://dc.lft.to/lastmile_qr_scan"}, "type": "electric_scooter", "name": "923170c6b06c75f065045941362e081c", "is_reserved": 0, "lon": -77.03862583333333, "is_disabled": 0, "fusion_lat": 0.0, "lat": 38.91257066666667, "bike_id": "923170c6b06c75f065045941362e081c", "fusion_lon": 0.0}, {"rental_uris": {"ios": "https://dc.lft.to/lastmile_qr_scan", "android": "https://dc.lft.to/lastmile_qr_scan"}, "type": "electric_scooter", "name": "42727debe6f050f9757e90c949e436ea", "is_reserved": 0, "lon": -77.02582183333334, "is_disabled": 0, "fusion_lat": 0.0, "lat": 38.896543333333334, "bike_id": "42727debe6f050f9757e90c949e436ea", "fusion_lon": 0.0}, {"rental_uris": {"ios": "https://dc.lft.to/lastmile_qr_scan", "android": "https://dc.lft.to/lastmile_qr_scan"}, "type": "electric_bike", "name": "7c590480fc0570198488e9d3b2156300", "is_reserved": 0, "lon": -77.07237533333333, "is_disabled": 0, "fusion_lat": 0.0, "lat": 38.9215455, "bike_id": "7c590480fc0570198488e9d3b2156300", "fusion_lon": 0.0}, {"rental_uris": {"ios": "https://dc.lft.to/lastmile_qr_scan", "android": "https://dc.lft.to/lastmile_qr_scan"}, "type": "electric_scooter", "name": "3862cfaae59f4c02da8e212e03c26c2c", "is_reserved": 0, "lon": -77.019453, "is_disabled": 0, "fusion_lat": 0.0, "lat": 38.923100833333336, "bike_id": "3862cfaae59f4c02da8e212e03c26c2c", "fusion_lon": 0.0}, {"rental_uris": {"ios": "https://dc.lft.to/lastmile_qr_scan", "android": "https://dc.lft.to/lastmile_qr_scan"}, "type": "electric_scooter", "name": "f7376b1719f58a170ba5253a2de138cb", "is_reserved": 0, "lon": -77.01524033333334, "is_disabled": 0, "fusion_lat": 0.0, "lat": 38.8990065, "bike_id": "f7376b1719f58a170ba5253a2de138cb", "fusion_lon": 0.0}, {"rental_uris": {"ios": "https://dc.lft.to/lastmile_qr_scan", "android": "https://dc.lft.to/lastmile_qr_scan"}, "type": "electric_scooter", "name": "ad0d89739a4a3d4e22f1b8931a1c28b1", "is_reserved": 0, "lon": -77.02704066666666, "is_disabled": 0, "fusion_lat": 0.0, "lat": 38.897326166666666, "bike_id": "ad0d89739a4a3d4e22f1b8931a1c28b1", "fusion_lon": 0.0}, {"rental_uris": {"ios": "https://dc.lft.to/lastmile_qr_scan", "android": "https://dc.lft.to/lastmile_qr_scan"}, "type": "electric_scooter", "name": "da4d3ad2460a5c9330d2e0f9aef207bf", "is_reserved": 0, "lon": -77.00192616666666, "is_disabled": 0, "fusion_lat": 0.0, "lat": 38.900408, "bike_id": "da4d3ad2460a5c9330d2e0f9aef207bf", "fusion_lon": 0.0}, {"rental_uris": {"ios": "https://dc.lft.to/lastmile_qr_scan", "android": "https://dc.lft.to/lastmile_qr_scan"}, "type": "electric_scooter", "name": "39d350eb190ac69a8e8877ed810c2c3e", "is_reserved": 0, "lon": -77.0198835, "is_disabled": 0, "fusion_lat": 0.0, "lat": 38.900533, "bike_id": "39d350eb190ac69a8e8877ed810c2c3e", "fusion_lon": 0.0}, {"rental_uris": {"ios": "https://dc.lft.to/lastmile_qr_scan", "android": "https://dc.lft.to/lastmile_qr_scan"}, "type": "electric_scooter", "name": "34441d96a4c846775e14ca746272e5ea", "is_reserved": 0, "lon": -77.04115016666667, "is_disabled": 0, "fusion_lat": 0.0, "lat": 38.93468216666667, "bike_id": "34441d96a4c846775e14ca746272e5ea", "fusion_lon": 0.0}, {"rental_uris": {"ios": "https://dc.lft.to/lastmile_qr_scan", "android": "https://dc.lft.to/lastmile_qr_scan"}, "type": "electric_scooter", "name": "eef953c650ce4eed381fc667c79014c1", "is_reserved": 0, "lon": -77.04965266666666, "is_disabled": 0, "fusion_lat": 0.0, "lat": 38.913275, "bike_id": "eef953c650ce4eed381fc667c79014c1", "fusion_lon": 0.0}, {"rental_uris": {"ios": "https://dc.lft.to/lastmile_qr_scan", "android": "https://dc.lft.to/lastmile_qr_scan"}, "type": "electric_scooter", "name": "a02bc485a03529ff0c276ccf49ccc3f3", "is_reserved": 0, "lon": -77.03952083333333, "is_disabled": 0, "fusion_lat": 0.0, "lat": 38.89245416666667, "bike_id": "a02bc485a03529ff0c276ccf49ccc3f3", "fusion_lon": 0.0}, {"rental_uris": {"ios": "https://dc.lft.to/lastmile_qr_scan", "android": "https://dc.lft.to/lastmile_qr_scan"}, "type": "electric_scooter", "name": "3d83132562bcdcaa748fe12dbf37a2dd", "is_reserved": 0, "lon": -77.02625316666666, "is_disabled": 0, "fusion_lat": 0.0, "lat": 38.89722666666667, "bike_id": "3d83132562bcdcaa748fe12dbf37a2dd", "fusion_lon": 0.0}, {"rental_uris": {"ios": "https://dc.lft.to/lastmile_qr_scan", "android": "https://dc.lft.to/lastmile_qr_scan"}, "type": "electric_scooter", "name": "c9685fdc3c1e1be9795988dbce29e71b", "is_reserved": 0, "lon": -76.9803245, "is_disabled": 0, "fusion_lat": 0.0, "lat": 38.91683416666667, "bike_id": "c9685fdc3c1e1be9795988dbce29e71b", "fusion_lon": 0.0}, {"rental_uris": {"ios": "https://dc.lft.to/lastmile_qr_scan", "android": "https://dc.lft.to/lastmile_qr_scan"}, "type": "electric_bike", "name": "05a1a5e8b3995173902969c8032aa7cb", "is_reserved": 0, "lon": -76.94164116666667, "is_disabled": 0, "fusion_lat": 0.0, "lat": 38.865535333333334, "bike_id": "05a1a5e8b3995173902969c8032aa7cb", "fusion_lon": 0.0}, {"rental_uris": {"ios": "https://dc.lft.to/lastmile_qr_scan", "android": "https://dc.lft.to/lastmile_qr_scan"}, "type": "electric_scooter", "name": "5cca78e29fc559f024de4dcc12408593", "is_reserved": 0, "lon": -76.9951425, "is_disabled": 0, "fusion_lat": 0.0, "lat": 38.909744833333335, "bike_id": "5cca78e29fc559f024de4dcc12408593", "fusion_lon": 0.0}, {"rental_uris": {"ios": "https://dc.lft.to/lastmile_qr_scan", "android": "https://dc.lft.to/lastmile_qr_scan"}, "type": "electric_scooter", "name": "b141f2db49d7766c8611912b1577e321", "is_reserved": 0, "lon": -77.01946483333333, "is_disabled": 0, "fusion_lat": 0.0, "lat": 38.924124666666664, "bike_id": "b141f2db49d7766c8611912b1577e321", "fusion_lon": 0.0}, {"rental_uris": {"ios": "https://dc.lft.to/lastmile_qr_scan", "android": "https://dc.lft.to/lastmile_qr_scan"}, "type": "electric_scooter", "name": "6036076cf7021751b096872fccecdd9c", "is_reserved": 0, "lon": -77.02551116666666, "is_disabled": 0, "fusion_lat": 0.0, "lat": 38.95172316666667, "bike_id": "6036076cf7021751b096872fccecdd9c", "fusion_lon": 0.0}, {"rental_uris": {"ios": "https://dc.lft.to/lastmile_qr_scan", "android": "https://dc.lft.to/lastmile_qr_scan"}, "type": "electric_scooter", "name": "fa9f0c9f077b448d97fbd6da5a886dd7", "is_reserved": 0, "lon": -77.0057395, "is_disabled": 0, "fusion_lat": 0.0, "lat": 38.880011333333336, "bike_id": "fa9f0c9f077b448d97fbd6da5a886dd7", "fusion_lon": 0.0}, {"rental_uris": {"ios": "https://dc.lft.to/lastmile_qr_scan", "android": "https://dc.lft.to/lastmile_qr_scan"}, "type": "electric_scooter", "name": "7cf7fcacd8da30b4167996a810854eaa", "is_reserved": 0, "lon": -76.95280133333333, "is_disabled": 0, "fusion_lat": 0.0, "lat": 38.885229333333335, "bike_id": "7cf7fcacd8da30b4167996a810854eaa", "fusion_lon": 0.0}, {"rental_uris": {"ios": "https://dc.lft.to/lastmile_qr_scan", "android": "https://dc.lft.to/lastmile_qr_scan"}, "type": "electric_scooter", "name": "d059847d0e62b96e5b269ad4ed7d4c3d", "is_reserved": 0, "lon": -77.03250516666667, "is_disabled": 0, "fusion_lat": 0.0, "lat": 38.91986583333333, "bike_id": "d059847d0e62b96e5b269ad4ed7d4c3d", "fusion_lon": 0.0}, {"rental_uris": {"ios": "https://dc.lft.to/lastmile_qr_scan", "android": "https://dc.lft.to/lastmile_qr_scan"}, "type": "electric_scooter", "name": "73a3b42ad23ade78c1d3cbf39674e0fc", "is_reserved": 0, "lon": -77.02718533333334, "is_disabled": 0, "fusion_lat": 0.0, "lat": 38.896197666666666, "bike_id": "73a3b42ad23ade78c1d3cbf39674e0fc", "fusion_lon": 0.0}, {"rental_uris": {"ios": "https://dc.lft.to/lastmile_qr_scan", "android": "https://dc.lft.to/lastmile_qr_scan"}, "type": "electric_scooter", "name": "15fcbdf09855153d23802650bdf30a8a", "is_reserved": 0, "lon": -77.03438683333333, "is_disabled": 0, "fusion_lat": 0.0, "lat": 38.909914, "bike_id": "15fcbdf09855153d23802650bdf30a8a", "fusion_lon": 0.0}, {"rental_uris": {"ios": "https://dc.lft.to/lastmile_qr_scan", "android": "https://dc.lft.to/lastmile_qr_scan"}, "type": "electric_scooter", "name": "9d77ad433d89a2c7c15503f57f9d8100", "is_reserved": 0, "lon": -76.94065766666667, "is_disabled": 0, "fusion_lat": 0.0, "lat": 38.885902333333334, "bike_id": "9d77ad433d89a2c7c15503f57f9d8100", "fusion_lon": 0.0}, {"rental_uris": {"ios": "https://dc.lft.to/lastmile_qr_scan", "android": "https://dc.lft.to/lastmile_qr_scan"}, "type": "electric_scooter", "name": "4e9f423c956b830a3a06e33cd77d8f76", "is_reserved": 0, "lon": -77.03224116666667, "is_disabled": 0, "fusion_lat": 0.0, "lat": 38.90708883333333, "bike_id": "4e9f423c956b830a3a06e33cd77d8f76", "fusion_lon": 0.0}, {"rental_uris": {"ios": "https://dc.lft.to/lastmile_qr_scan", "android": "https://dc.lft.to/lastmile_qr_scan"}, "type": "electric_scooter", "name": "b01d45b0733bcf02d333d2830b0317f9", "is_reserved": 0, "lon": -77.04001083333333, "is_disabled": 0, "fusion_lat": 0.0, "lat": 38.911857499999996, "bike_id": "b01d45b0733bcf02d333d2830b0317f9", "fusion_lon": 0.0}, {"rental_uris": {"ios": "https://dc.lft.to/lastmile_qr_scan", "android": "https://dc.lft.to/lastmile_qr_scan"}, "type": "electric_scooter", "name": "5daf1ba2d3810f7598cad9bfd2be28b8", "is_reserved": 0, "lon": -77.03191533333333, "is_disabled": 0, "fusion_lat": 0.0, "lat": 38.91857783333333, "bike_id": "5daf1ba2d3810f7598cad9bfd2be28b8", "fusion_lon": 0.0}, {"rental_uris": {"ios": "https://dc.lft.to/lastmile_qr_scan", "android": "https://dc.lft.to/lastmile_qr_scan"}, "type": "electric_scooter", "name": "71d7ce7265e05a0c75a532673a311949", "is_reserved": 0, "lon": -77.02344, "is_disabled": 0, "fusion_lat": 0.0, "lat": 38.92297516666667, "bike_id": "71d7ce7265e05a0c75a532673a311949", "fusion_lon": 0.0}, {"rental_uris": {"ios": "https://dc.lft.to/lastmile_qr_scan", "android": "https://dc.lft.to/lastmile_qr_scan"}, "type": "electric_bike", "name": "4350254006ca3612f12df31939cf4728", "is_reserved": 0, "lon": -76.98840883333334, "is_disabled": 0, "fusion_lat": 0.0, "lat": 38.84276216666667, "bike_id": "4350254006ca3612f12df31939cf4728", "fusion_lon": 0.0}, {"rental_uris": {"ios": "https://dc.lft.to/lastmile_qr_scan", "android": "https://dc.lft.to/lastmile_qr_scan"}, "type": "electric_scooter", "name": "08f32d99ebab191733551122afae32c8", "is_reserved": 0, "lon": -77.02710333333333, "is_disabled": 0, "fusion_lat": 0.0, "lat": 38.897261666666665, "bike_id": "08f32d99ebab191733551122afae32c8", "fusion_lon": 0.0}, {"rental_uris": {"ios": "https://dc.lft.to/lastmile_qr_scan", "android": "https://dc.lft.to/lastmile_qr_scan"}, "type": "electric_scooter", "name": "5e22dff3fafa1f84afcb0daf70a72bb9", "is_reserved": 0, "lon": -77.03439116666667, "is_disabled": 0, "fusion_lat": 0.0, "lat": 38.90995216666666, "bike_id": "5e22dff3fafa1f84afcb0daf70a72bb9", "fusion_lon": 0.0}, {"rental_uris": {"ios": "https://dc.lft.to/lastmile_qr_scan", "android": "https://dc.lft.to/lastmile_qr_scan"}, "type": "electric_scooter", "name": "e410a856d0b83039d5be5f7d7486f7d0", "is_reserved": 0, "lon": -77.02444166666666, "is_disabled": 0, "fusion_lat": 0.0, "lat": 38.8999625, "bike_id": "e410a856d0b83039d5be5f7d7486f7d0", "fusion_lon": 0.0}, {"rental_uris": {"ios": "https://dc.lft.to/lastmile_qr_scan", "android": "https://dc.lft.to/lastmile_qr_scan"}, "type": "electric_scooter", "name": "dd88217a5bdf0607177a903fc5c4f8ac", "is_reserved": 0, "lon": -77.02359716666666, "is_disabled": 0, "fusion_lat": 0.0, "lat": 38.91968033333333, "bike_id": "dd88217a5bdf0607177a903fc5c4f8ac", "fusion_lon": 0.0}, {"rental_uris": {"ios": "https://dc.lft.to/lastmile_qr_scan", "android": "https://dc.lft.to/lastmile_qr_scan"}, "type": "electric_scooter", "name": "ede032a841db68abbebe909f72d89e75", "is_reserved": 0, "lon": -77.04104116666667, "is_disabled": 0, "fusion_lat": 0.0, "lat": 38.900070166666666, "bike_id": "ede032a841db68abbebe909f72d89e75", "fusion_lon": 0.0}, {"rental_uris": {"ios": "https://dc.lft.to/lastmile_qr_scan", "android": "https://dc.lft.to/lastmile_qr_scan"}, "type": "electric_scooter", "name": "18d8028d7e31933f885edef4b37bd0e5", "is_reserved": 0, "lon": -77.02374316666666, "is_disabled": 0, "fusion_lat": 0.0, "lat": 38.909531666666666, "bike_id": "18d8028d7e31933f885edef4b37bd0e5", "fusion_lon": 0.0}, {"rental_uris": {"ios": "https://dc.lft.to/lastmile_qr_scan", "android": "https://dc.lft.to/lastmile_qr_scan"}, "type": "electric_scooter", "name": "ea6331fe5efd76acfb09a8da270f4b03", "is_reserved": 0, "lon": -76.9950355, "is_disabled": 0, "fusion_lat": 0.0, "lat": 38.862444333333336, "bike_id": "ea6331fe5efd76acfb09a8da270f4b03", "fusion_lon": 0.0}, {"rental_uris": {"ios": "https://dc.lft.to/lastmile_qr_scan", "android": "https://dc.lft.to/lastmile_qr_scan"},