{"data": {"bikes": [{"is_disabled": 0, "fusion_lon": 0.0, "fusion_lat": 0.0, "lat": 38.89693883333333, "type": "electric_bike", "lon": -77.04517716666666, "bike_id": "294722d9984231016ca66132ffa10d9f", "rental_uris": {"android": "https://dc.lft.to/lastmile_qr_scan", "ios": "https://dc.lft.to/lastmile_qr_scan"}, "name": "294722d9984231016ca66132ffa10d9f", "is_reserved": 0}, {"is_disabled": 0, "fusion_lon": 0.0, "fusion_lat": 0.0, "lat": 38.89035166666667, "type": "electric_scooter", "lon": -77.02977516666667, "bike_id": "2c3ed4f662d4f90adf030a71d397a337", "rental_uris": {"android": "https://dc.lft.to/lastmile_qr_scan", "ios": "https://dc.lft.to/lastmile_qr_scan"}, "name": "2c3ed4f662d4f90adf030a71d397a337", "is_reserved": 0}, {"is_disabled": 0, "fusion_lon": 0.0, "fusion_lat": 0.0, "lat": 38.94792866666667, "type": "electric_scooter", "lon": -77.03278416666667, "bike_id": "27bb811fc1d791073846dfcdc0dbd724", "rental_uris": {"android": "https://dc.lft.to/lastmile_qr_scan", "ios": "https://dc.lft.to/lastmile_qr_scan"}, "name": "27bb811fc1d791073846dfcdc0dbd724", "is_reserved": 0}, {"is_disabled": 0, "fusion_lon": 0.0, "fusion_lat": 0.0, "lat": 38.91112833333333, "type": "electric_scooter", "lon": -77.05045066666666, "bike_id": "f37ac5aee3fe1fbe478ba06aae900a63", "rental_uris": {"android": "https://dc.lft.to/lastmile_qr_scan", "ios": "https://dc.lft.to/lastmile_qr_scan"}, "name": "f37ac5aee3fe1fbe478ba06aae900a63", "is_reserved": 0}, {"is_disabled": 0, "fusion_lon": 0.0, "fusion_lat": 0.0, "lat": 38.917115, "type": "electric_scooter", "lon": -77.0279135, "bike_id": "0169eeeb4bdc68da953f5ee9908eba2a", "rental_uris": {"android": "https://dc.lft.to/lastmile_qr_scan", "ios": "https://dc.lft.to/lastmile_qr_scan"}, "name": "0169eeeb4bdc68da953f5ee9908eba2a", "is_reserved": 0}, {"is_disabled": 0, "fusion_lon": 0.0, "fusion_lat": 0.0, "lat": 38.926398, "type": "electric_scooter", "lon": -77.03723833333333, "bike_id": "99d1aad9dec7c644f90a4fef2cd2e12a", "rental_uris": {"android": "https://dc.lft.to/lastmile_qr_scan", "ios": "https://dc.lft.to/lastmile_qr_scan"}, "name": "99d1aad9dec7c644f90a4fef2cd2e12a", "is_reserved": 0}, {"is_disabled": 0, "fusion_lon": 0.0, "fusion_lat": 0.0, "lat": 38.87726416666667, "type": "electric_scooter", "lon": -77.01771966666666, "bike_id": "9a4bb70f80870b1a2cb02be8278b4eb7", "rental_uris": {"android": "https://dc.lft.to/lastmile_qr_scan", "ios": "https://dc.lft.to/lastmile_qr_scan"}, "name": "9a4bb70f80870b1a2cb02be8278b4eb7", "is_reserved": 0}, {"is_disabled": 0, "fusion_lon": 0.0, "fusion_lat": 0.0, "lat": 38.87721416666667, "type": "electric_scooter", "lon": -77.01764016666667, "bike_id": "71bb84bd7d803b46fe611d0201ca00c8", "rental_uris": {"android": "https://dc.lft.to/lastmile_qr_scan", "ios": "https://dc.lft.to/lastmile_qr_scan"}, "name": "71bb84bd7d803b46fe611d0201ca00c8", "is_reserved": 0}, {"is_disabled": 0, "fusion_lon": 0.0, "fusion_lat": 0.0, "lat": 38.92369733333334, "type": "electric_scooter", "lon": -77.050381, "bike_id": "95ecf18f53c28299739eaa31cbf16ac3", "rental_uris": {"android": "https://dc.lft.to/lastmile_qr_scan", "ios": "https://dc.lft.to/lastmile_qr_scan"}, "name": "95ecf18f53c28299739eaa31cbf16ac3", "is_reserved": 0}, {"is_disabled": 0, "fusion_lon": 0.0, "fusion_lat": 0.0, "lat": 38.907383, "type": "electric_scooter", "lon": -77.02180016666667, "bike_id": "26194a603ce62f8bd4a56ed3ef64f470", "rental_uris": {"android": "https://dc.lft.to/lastmile_qr_scan", "ios": "https://dc.lft.to/lastmile_qr_scan"}, "name": "26194a603ce62f8bd4a56ed3ef64f470", "is_reserved": 0}, {"is_disabled": 0, "fusion_lon": 0.0, "fusion_lat": 0.0, "lat": 39.0412485, "type": "electric_bike", "lon": -76.98921366666667, "bike_id": "82fdad1108c87017342bfc74361e97a5", "rental_uris": {"android": "https://dc.lft.to/lastmile_qr_scan", "ios": "https://dc.lft.to/lastmile_qr_scan"}, "name": "82fdad1108c87017342bfc74361e97a5", "is_reserved": 0}, {"is_disabled": 0, "fusion_lon": 0.0, "fusion_lat": 0.0, "lat": 38.9196005, "type": "electric_scooter", "lon": -77.02471983333334, "bike_id": "2965d6487f610d468a92bae9a30329e4", "rental_uris": {"android": "https://dc.lft.to/lastmile_qr_scan", "ios": "https://dc.lft.to/lastmile_qr_scan"}, "name": "2965d6487f610d468a92bae9a30329e4", "is_reserved": 0}, {"is_disabled": 0, "fusion_lon": 0.0, "fusion_lat": 0.0, "lat": 38.934363833333336, "type": "electric_scooter", "lon": -77.07262583333333, "bike_id": "0acc77b0d68294633026ed9f23a4ccdd", "rental_uris": {"android": "https://dc.lft.to/lastmile_qr_scan", "ios": "https://dc.lft.to/lastmile_qr_scan"}, "name": "0acc77b0d68294633026ed9f23a4ccdd", "is_reserved": 0}, {"is_disabled": 0, "fusion_lon": 0.0, "fusion_lat": 0.0, "lat": 38.8937055, "type": "electric_scooter", "lon": -76.949956, "bike_id": "734e7697653ef0eb2912674ca7371702", "rental_uris": {"android": "https://dc.lft.to/lastmile_qr_scan", "ios": "https://dc.lft.to/lastmile_qr_scan"}, "name": "734e7697653ef0eb2912674ca7371702", "is_reserved": 0}, {"is_disabled": 0, "fusion_lon": 0.0, "fusion_lat": 0.0, "lat": 38.9155985, "type": "electric_scooter", "lon": -77.03247116666667, "bike_id": "dd42c57e160fd8af0bc98f6b4550f61d", "rental_uris": {"android": "https://dc.lft.to/lastmile_qr_scan", "ios": "https://dc.lft.to/lastmile_qr_scan"}, "name": "dd42c57e160fd8af0bc98f6b4550f61d", "is_reserved": 0}, {"is_disabled": 0, "fusion_lon": 0.0, "fusion_lat": 0.0, "lat": 38.920665, "type": "electric_scooter", "lon": -77.04361683333333, "bike_id": "cde25921b664f9b95bee097b008fd499", "rental_uris": {"android": "https://dc.lft.to/lastmile_qr_scan", "ios": "https://dc.lft.to/lastmile_qr_scan"}, "name": "cde25921b664f9b95bee097b008fd499", "is_reserved": 0}, {"is_disabled": 0, "fusion_lon": 0.0, "fusion_lat": 0.0, "lat": 38.90123716666667, "type": "electric_scooter", "lon": -76.98839516666666, "bike_id": "18f67e320001288b5710abfc349747a2", "rental_uris": {"android": "https://dc.lft.to/lastmile_qr_scan", "ios": "https://dc.lft.to/lastmile_qr_scan"}, "name": "18f67e320001288b5710abfc349747a2", "is_reserved": 0}, {"is_disabled": 0, "fusion_lon": 0.0, "fusion_lat": 0.0, "lat": 38.94302166666667, "type": "electric_scooter", "lon": -77.0276235, "bike_id": "657833970e696b2a2e6f1170e79d0506", "rental_uris": {"android": "https://dc.lft.to/lastmile_qr_scan", "ios": "https://dc.lft.to/lastmile_qr_scan"}, "name": "657833970e696b2a2e6f1170e79d0506", "is_reserved": 0}, {"is_disabled": 0, "fusion_lon": 0.0, "fusion_lat": 0.0, "lat": 38.91935433333333, "type": "electric_bike", "lon": -76.97499816666667, "bike_id": "d3bd07fccea39f98ba9571f0052d5281", "rental_uris": {"android": "https://dc.lft.to/lastmile_qr_scan", "ios": "https://dc.lft.to/lastmile_qr_scan"}, "name": "d3bd07fccea39f98ba9571f0052d5281", "is_reserved": 0}, {"is_disabled": 0, "fusion_lon": 0.0, "fusion_lat": 0.0, "lat": 38.9282415, "type": "electric_scooter", "lon": -77.05432716666667, "bike_id": "71d3c2a09950579f303674e5a179b9f4", "rental_uris": {"android": "https://dc.lft.to/lastmile_qr_scan", "ios": "https://dc.lft.to/lastmile_qr_scan"}, "name": "71d3c2a09950579f303674e5a179b9f4", "is_reserved": 0}, {"is_disabled": 0, "fusion_lon": 0.0, "fusion_lat": 0.0, "lat": 38.92105, "type": "electric_scooter", "lon": -77.04383133333333, "bike_id": "cf829d611eb5445e7d960de5c33dbd77", "rental_uris": {"android": "https://dc.lft.to/lastmile_qr_scan", "ios": "https://dc.lft.to/lastmile_qr_scan"}, "name": "cf829d611eb5445e7d960de5c33dbd77", "is_reserved": 0}, {"is_disabled": 0, "fusion_lon": 0.0, "fusion_lat": 0.0, "lat": 38.91887583333333, "type": "electric_scooter", "lon": -77.07110433333334, "bike_id": "e6fe44a8715a3a0a5de915d577b22cf8", "rental_uris": {"android": "https://dc.lft.to/lastmile_qr_scan", "ios": "https://dc.lft.to/lastmile_qr_scan"}, "name": "e6fe44a8715a3a0a5de915d577b22cf8", "is_reserved": 0}, {"is_disabled": 0, "fusion_lon": 0.0, "fusion_lat": 0.0, "lat": 38.8695355, "type": "electric_scooter", "lon": -76.96032983333333, "bike_id": "658b076c3d2e5c62669621691310d0aa", "rental_uris": {"android": "https://dc.lft.to/lastmile_qr_scan", "ios": "https://dc.lft.to/lastmile_qr_scan"}, "name": "658b076c3d2e5c62669621691310d0aa", "is_reserved": 0}, {"is_disabled": 0, "fusion_lon": 0.0, "fusion_lat": 0.0, "lat": 38.928601666666665, "type": "electric_scooter", "lon": -77.01418483333333, "bike_id": "f63fa1d51c2a33ac74bf5d23119b1022", "rental_uris": {"android": "https://dc.lft.to/lastmile_qr_scan", "ios": "https://dc.lft.to/lastmile_qr_scan"}, "name": "f63fa1d51c2a33ac74bf5d23119b1022", "is_reserved": 0}, {"is_disabled": 0, "fusion_lon": 0.0, "fusion_lat": 0.0, "lat": 38.90068, "type": "electric_scooter", "lon": -77.00197383333334, "bike_id": "45b51736912d012b4826f5c30dee6ee6", "rental_uris": {"android": "https://dc.lft.to/lastmile_qr_scan", "ios": "https://dc.lft.to/lastmile_qr_scan"}, "name": "45b51736912d012b4826f5c30dee6ee6", "is_reserved": 0}, {"is_disabled": 0, "fusion_lon": 0.0, "fusion_lat": 0.0, "lat": 38.93501916666666, "type": "electric_scooter", "lon": -77.082221, "bike_id": "b865b9d98b66eb126afa3b57b98c9ac9", "rental_uris": {"android": "https://dc.lft.to/lastmile_qr_scan", "ios": "https://dc.lft.to/lastmile_qr_scan"}, "name": "b865b9d98b66eb126afa3b57b98c9ac9", "is_reserved": 0}, {"is_disabled": 0, "fusion_lon": 0.0, "fusion_lat": 0.0, "lat": 38.935283, "type": "electric_scooter", "lon": -77.02370216666667, "bike_id": "5bff1c349cb8fbfc9d1b665aea4bef08", "rental_uris": {"android": "https://dc.lft.to/lastmile_qr_scan", "ios": "https://dc.lft.to/lastmile_qr_scan"}, "name": "5bff1c349cb8fbfc9d1b665aea4bef08", "is_reserved": 0}, {"is_disabled": 0, "fusion_lon": 0.0, "fusion_lat": 0.0, "lat": 38.9229775, "type": "electric_scooter", "lon": -77.04732766666666, "bike_id": "715aba10e7143811af160244a2fa9273", "rental_uris": {"android": "https://dc.lft.to/lastmile_qr_scan", "ios": "https://dc.lft.to/lastmile_qr_scan"}, "name": "715aba10e7143811af160244a2fa9273", "is_reserved": 0}, {"is_disabled": 0, "fusion_lon": 0.0, "fusion_lat": 0.0, "lat": 38.91184283333333, "type": "electric_scooter", "lon": -77.03214516666667, "bike_id": "f38973b212ee66f642501e101659e2c9", "rental_uris": {"android": "https://dc.lft.to/lastmile_qr_scan", "ios": "https://dc.lft.to/lastmile_qr_scan"}, "name": "f38973b212ee66f642501e101659e2c9", "is_reserved": 0}, {"is_disabled": 0, "fusion_lon": 0.0, "fusion_lat": 0.0, "lat": 38.924601833333334, "type": "electric_scooter", "lon": -77.03949566666667, "bike_id": "9c99e12c4a80d405850afc3b6db067b5", "rental_uris": {"android": "https://dc.lft.to/lastmile_qr_scan", "ios": "https://dc.lft.to/lastmile_qr_scan"}, "name": "9c99e12c4a80d405850afc3b6db067b5", "is_reserved": 0}, {"is_disabled": 0, "fusion_lon": 0.0, "fusion_lat": 0.0, "lat": 38.84434433333333, "type": "electric_scooter", "lon": -76.997768, "bike_id": "b7d14ee3d5adbbaab95367222d8e3109", "rental_uris": {"android": "https://dc.lft.to/lastmile_qr_scan", "ios": "https://dc.lft.to/lastmile_qr_scan"}, "name": "b7d14ee3d5adbbaab95367222d8e3109", "is_reserved": 0}, {"is_disabled": 0, "fusion_lon": 0.0, "fusion_lat": 0.0, "lat": 38.95781483333333, "type": "electric_scooter", "lon": -77.02467466666667, "bike_id": "ffc02c9f4963530a3653d54ca00f2c06", "rental_uris": {"android": "https://dc.lft.to/lastmile_qr_scan", "ios": "https://dc.lft.to/lastmile_qr_scan"}, "name": "ffc02c9f4963530a3653d54ca00f2c06", "is_reserved": 0}, {"is_disabled": 0, "fusion_lon": 0.0, "fusion_lat": 0.0, "lat": 38.899542333333336, "type": "electric_scooter", "lon": -77.03191666666666, "bike_id": "da0f5997cc1e433f710ac0177e28792c", "rental_uris": {"android": "https://dc.lft.to/lastmile_qr_scan", "ios": "https://dc.lft.to/lastmile_qr_scan"}, "name": "da0f5997cc1e433f710ac0177e28792c", "is_reserved": 0}, {"is_disabled": 0, "fusion_lon": 0.0, "fusion_lat": 0.0, "lat": 38.91280316666667, "type": "electric_scooter", "lon": -76.98686716666667, "bike_id": "32cce19c49f3caa0a8fbe16dde634b40", "rental_uris": {"android": "https://dc.lft.to/lastmile_qr_scan", "ios": "https://dc.lft.to/lastmile_qr_scan"}, "name": "32cce19c49f3caa0a8fbe16dde634b40", "is_reserved": 0}, {"is_disabled": 0, "fusion_lon": 0.0, "fusion_lat": 0.0, "lat": 38.9356355, "type": "electric_scooter", "lon": -77.05871616666667, "bike_id": "7edf04850240fbbd016d2983553863b2", "rental_uris": {"android": "https://dc.lft.to/lastmile_qr_scan", "ios": "https://dc.lft.to/lastmile_qr_scan"}, "name": "7edf04850240fbbd016d2983553863b2", "is_reserved": 0}, {"is_disabled": 0, "fusion_lon": 0.0, "fusion_lat": 0.0, "lat": 38.896943666666665, "type": "electric_scooter", "lon": -77.02428666666667, "bike_id": "01e5f0b1cd31f4fde13423540568d5cf", "rental_uris": {"android": "https://dc.lft.to/lastmile_qr_scan", "ios": "https://dc.lft.to/lastmile_qr_scan"}, "name": "01e5f0b1cd31f4fde13423540568d5cf", "is_reserved": 0}, {"is_disabled": 0, "fusion_lon": 0.0, "fusion_lat": 0.0, "lat": 38.899071666666664, "type": "electric_scooter", "lon": -76.93391733333333, "bike_id": "b2f86666ab76291d900c6388ba0dcdbd", "rental_uris": {"android": "https://dc.lft.to/lastmile_qr_scan", "ios": "https://dc.lft.to/lastmile_qr_scan"}, "name": "b2f86666ab76291d900c6388ba0dcdbd", "is_reserved": 0}, {"is_disabled": 0, "fusion_lon": 0.0, "fusion_lat": 0.0, "lat": 38.918148333333335, "type": "electric_scooter", "lon": -77.02476033333333, "bike_id": "c088a02749e9d7e1f776a2ff9af3d949", "rental_uris": {"android": "https://dc.lft.to/lastmile_qr_scan", "ios": "https://dc.lft.to/lastmile_qr_scan"}, "name": "c088a02749e9d7e1f776a2ff9af3d949", "is_reserved": 0}, {"is_disabled": 0, "fusion_lon": 0.0, "fusion_lat": 0.0, "lat": 38.9055515, "type": "electric_scooter", "lon": -77.04083666666666, "bike_id": "98d12a82f31a05d2b1c64666723e1150", "rental_uris": {"android": "https://dc.lft.to/lastmile_qr_scan", "ios": "https://dc.lft.to/lastmile_qr_scan"}, "name": "98d12a82f31a05d2b1c64666723e1150", "is_reserved": 0}, {"is_disabled": 0, "fusion_lon": 0.0, "fusion_lat": 0.0, "lat": 38.93493433333333, "type": "electric_scooter", "lon": -77.02421866666667, "bike_id": "749f2ada71c2a6ac998618d76b6ab5b6", "rental_uris": {"android": "https://dc.lft.to/lastmile_qr_scan", "ios": "https://dc.lft.to/lastmile_qr_scan"}, "name": "749f2ada71c2a6ac998618d76b6ab5b6", "is_reserved": 0}, {"is_disabled": 0, "fusion_lon": 0.0, "fusion_lat": 0.0, "lat": 38.84270333333333, "type": "electric_bike", "lon": -76.98842033333334, "bike_id": "a336758fd9f8709c64544d434b7e288d", "rental_uris": {"android": "https://dc.lft.to/lastmile_qr_scan", "ios": "https://dc.lft.to/lastmile_qr_scan"}, "name": "a336758fd9f8709c64544d434b7e288d", "is_reserved": 0}, {"is_disabled": 0, "fusion_lon": 0.0, "fusion_lat": 0.0, "lat": 38.969185333333336, "type": "electric_bike", "lon": -77.02619783333333, "bike_id": "c77564d35c704e388939bdcf595f0b06", "rental_uris": {"android": "https://dc.lft.to/lastmile_qr_scan", "ios": "https://dc.lft.to/lastmile_qr_scan"}, "name": "c77564d35c704e388939bdcf595f0b06", "is_reserved": 0}, {"is_disabled": 0, "fusion_lon": 0.0, "fusion_lat": 0.0, "lat": 38.902752, "type": "electric_scooter", "lon": -77.03440483333334, "bike_id": "e1320c04e8ca2b8babe86c6d5e31c7e1", "rental_uris": {"android": "https://dc.lft.to/lastmile_qr_scan", "ios": "https://dc.lft.to/lastmile_qr_scan"}, "name": "e1320c04e8ca2b8babe86c6d5e31c7e1", "is_reserved": 0}, {"is_disabled": 0, "fusion_lon": 0.0, "fusion_lat": 0.0, "lat": 38.91685283333333, "type": "electric_scooter", "lon": -77.0363585, "bike_id": "19f19f81621a0fbd0241b051badcc994", "rental_uris": {"android": "https://dc.lft.to/lastmile_qr_scan", "ios": "https://dc.lft.to/lastmile_qr_scan"}, "name": "19f19f81621a0fbd0241b051badcc994", "is_reserved": 0}, {"is_disabled": 0, "fusion_lon": 0.0, "fusion_lat": 0.0, "lat": 38.902648, "type": "electric_scooter", "lon": -77.03444116666667, "bike_id": "166d0cfe783e62708de50d83e20746f4", "rental_uris": {"android": "https://dc.lft.to/lastmile_qr_scan", "ios": "https://dc.lft.to/lastmile_qr_scan"}, "name": "166d0cfe783e62708de50d83e20746f4", "is_reserved": 0}, {"is_disabled": 0, "fusion_lon": 0.0, "fusion_lat": 0.0, "lat": 38.89238533333334, "type": "electric_scooter", "lon": -77.0334805, "bike_id": "da0bfb4bf6f85d454d04b71bee7c7142", "rental_uris": {"android": "https://dc.lft.to/lastmile_qr_scan", "ios": "https://dc.lft.to/lastmile_qr_scan"}, "name": "da0bfb4bf6f85d454d04b71bee7c7142", "is_reserved": 0}, {"is_disabled": 0, "fusion_lon": 0.0, "fusion_lat": 0.0, "lat": 38.90027416666667, "type": "electric_scooter", "lon": -77.0445115, "bike_id": "8ee9308f4ceb6b3ed3d70593222ab2d3", "rental_uris": {"android": "https://dc.lft.to/lastmile_qr_scan", "ios": "https://dc.lft.to/lastmile_qr_scan"}, "name": "8ee9308f4ceb6b3ed3d70593222ab2d3", "is_reserved": 0}, {"is_disabled": 0, "fusion_lon": 0.0, "fusion_lat": 0.0, "lat": 38.90524283333333, "type": "electric_scooter", "lon": -77.0220165, "bike_id": "218cf623c4c0e551f22374afc11c33a3", "rental_uris": {"android": "https://dc.lft.to/lastmile_qr_scan", "ios": "https://dc.lft.to/lastmile_qr_scan"}, "name": "218cf623c4c0e551f22374afc11c33a3", "is_reserved": 0}, {"is_disabled": 0, "fusion_lon": 0.0, "fusion_lat": 0.0, "lat": 38.930205666666666, "type": "electric_scooter", "lon": -77.03451233333334, "bike_id": "f8af968ad8a853c94ec670260a2b5e81", "rental_uris": {"android": "https://dc.lft.to/lastmile_qr_scan", "ios": "https://dc.lft.to/lastmile_qr_scan"}, "name": "f8af968ad8a853c94ec670260a2b5e81", "is_reserved": 0}, {"is_disabled": 0, "fusion_lon": 0.0, "fusion_lat": 0.0, "lat": 38.93957, "type": "electric_scooter", "lon": -77.0327985, "bike_id": "ee4360f77c3d533f65bc5790f641e8a0", "rental_uris": {"android": "https://dc.lft.to/lastmile_qr_scan", "ios": "https://dc.lft.to/lastmile_qr_scan"}, "name": "ee4360f77c3d533f65bc5790f641e8a0", "is_reserved": 0}, {"is_disabled": 0, "fusion_lon": 0.0, "fusion_lat": 0.0, "lat": 38.90733483333333, "type": "electric_scooter", "lon": -77.04213583333333, "bike_id": "282cbc66faa06097953eec7703642354", "rental_uris": {"android": "https://dc.lft.to/lastmile_qr_scan", "ios": "https://dc.lft.to/lastmile_qr_scan"}, "name": "282cbc66faa06097953eec7703642354", "is_reserved": 0}, {"is_disabled": 0, "fusion_lon": 0.0, "fusion_lat": 0.0, "lat": 38.915821333333334, "type": "electric_scooter", "lon": -77.04671816666666, "bike_id": "c6d39af765de56a104d62d36a27e4ad7", "rental_uris": {"android": "https://dc.lft.to/lastmile_qr_scan", "ios": "https://dc.lft.to/lastmile_qr_scan"}, "name": "c6d39af765de56a104d62d36a27e4ad7", "is_reserved": 0}, {"is_disabled": 0, "fusion_lon": 0.0, "fusion_lat": 0.0, "lat": 38.82440166666667, "type": "electric_bike", "lon": -77.070444, "bike_id": "4ee4dc6c61337b17abdb24bb840e5765", "rental_uris": {"android": "https://dc.lft.to/lastmile_qr_scan", "ios": "https://dc.lft.to/lastmile_qr_scan"}, "name": "4ee4dc6c61337b17abdb24bb840e5765", "is_reserved": 0}, {"is_disabled": 0, "fusion_lon": 0.0, "fusion_lat": 0.0, "lat": 38.82775766666666, "type": "electric_bike", "lon": -77.11074316666667, "bike_id": "09af077d0b8d4f1db75c991cc6161bd9", "rental_uris": {"android": "https://dc.lft.to/lastmile_qr_scan", "ios": "https://dc.lft.to/lastmile_qr_scan"}, "name": "09af077d0b8d4f1db75c991cc6161bd9", "is_reserved": 0}, {"is_disabled": 0, "fusion_lon": 0.0, "fusion_lat": 0.0, "lat": 38.96190216666667, "type": "electric_scooter", "lon": -77.027808, "bike_id": "1566b4f54353f45ff83d5d563c5e91f7", "rental_uris": {"android": "https://dc.lft.to/lastmile_qr_scan", "ios": "https://dc.lft.to/lastmile_qr_scan"}, "name": "1566b4f54353f45ff83d5d563c5e91f7", "is_reserved": 0}, {"is_disabled": 0, "fusion_lon": 0.0, "fusion_lat": 0.0, "lat": 38.898300666666664, "type": "electric_scooter", "lon": -76.946333, "bike_id": "8fc7b31c8a1c0d58ea5afc5ff4767696", "rental_uris": {"android": "https://dc.lft.to/lastmile_qr_scan", "ios": "https://dc.lft.to/lastmile_qr_scan"}, "name": "8fc7b31c8a1c0d58ea5afc5ff4767696", "is_reserved": 0}, {"is_disabled": 0, "fusion_lon": 0.0, "fusion_lat": 0.0, "lat": 38.89741983333333, "type": "electric_scooter", "lon": -77.00046233333333, "bike_id": "f2d44c7e0148af7df94317f9a1ac4387", "rental_uris": {"android": "https://dc.lft.to/lastmile_qr_scan", "ios": "https://dc.lft.to/lastmile_qr_scan"}, "name": "f2d44c7e0148af7df94317f9a1ac4387", "is_reserved": 0}, {"is_disabled": 0, "fusion_lon": 0.0, "fusion_lat": 0.0, "lat": 39.008685166666666, "type": "electric_bike", "lon": -77.0790185, "bike_id": "102dc3ca8cded824b980dcf717313672", "rental_uris": {"android": "https://dc.lft.to/lastmile_qr_scan", "ios": "https://dc.lft.to/lastmile_qr_scan"}, "name": "102dc3ca8cded824b980dcf717313672", "is_reserved": 0}, {"is_disabled": 0, "fusion_lon": 0.0, "fusion_lat": 0.0, "lat": 38.9240005, "type": "electric_scooter", "lon": -77.02540816666667, "bike_id": "b8f53a43f29601a40d87d1d2df5538cb", "rental_uris": {"android": "https://dc.lft.to/lastmile_qr_scan", "ios": "https://dc.lft.to/lastmile_qr_scan"}, "name": "b8f53a43f29601a40d87d1d2df5538cb", "is_reserved": 0}, {"is_disabled": 0, "fusion_lon": 0.0, "fusion_lat": 0.0, "lat": 38.92983016666667, "type": "electric_scooter", "lon": -77.0347435, "bike_id": "5fa81f41207e663f4fcf8faca8bdaa78", "rental_uris": {"android": "https://dc.lft.to/lastmile_qr_scan", "ios": "https://dc.lft.to/lastmile_qr_scan"}, "name": "5fa81f41207e663f4fcf8faca8bdaa78", "is_reserved": 0}, {"is_disabled": 0, "fusion_lon": 0.0, "fusion_lat": 0.0, "lat": 38.893698666666666, "type": "electric_scooter", "lon": -76.95001366666666, "bike_id": "f623420e92bacad40ade823385bb49fa", "rental_uris": {"android": "https://dc.lft.to/lastmile_qr_scan", "ios": "https://dc.lft.to/lastmile_qr_scan"}, "name": "f623420e92bacad40ade823385bb49fa", "is_reserved": 0}, {"is_disabled": 0, "fusion_lon": 0.0, "fusion_lat": 0.0, "lat": 38.911147166666666, "type": "electric_scooter", "lon": -77.04499366666667, "bike_id": "641dd7c8cd3998397b6b46174d16b436", "rental_uris": {"android": "https://dc.lft.to/lastmile_qr_scan", "ios": "https://dc.lft.to/lastmile_qr_scan"}, "name": "641dd7c8cd3998397b6b46174d16b436", "is_reserved": 0}, {"is_disabled": 0, "fusion_lon": 0.0, "fusion_lat": 0.0, "lat": 38.92479866666667, "type": "electric_scooter", "lon": -77.027091, "bike_id": "62b24a62e22237078cefa0410b19d18c", "rental_uris": {"android": "https://dc.lft.to/lastmile_qr_scan", "ios": "https://dc.lft.to/lastmile_qr_scan"}, "name": "62b24a62e22237078cefa0410b19d18c", "is_reserved": 0}, {"is_disabled": 0, "fusion_lon": 0.0, "fusion_lat": 0.0, "lat": 38.940358, "type": "electric_scooter", "lon": -77.02913516666666, "bike_id": "c48015cbf11d2cc2ef47d1257f3957c4", "rental_uris": {"android": "https://dc.lft.to/lastmile_qr_scan", "ios": "https://dc.lft.to/lastmile_qr_scan"}, "name": "c48015cbf11d2cc2ef47d1257f3957c4", "is_reserved": 0}, {"is_disabled": 0, "fusion_lon": 0.0, "fusion_lat": 0.0, "lat": 38.898289166666665, "type": "electric_scooter", "lon": -76.98054766666667, "bike_id": "a6545903083b20e67dcf3403673aa2c5", "rental_uris": {"android": "https://dc.lft.to/lastmile_qr_scan", "ios": "https://dc.lft.to/lastmile_qr_scan"}, "name": "a6545903083b20e67dcf3403673aa2c5", "is_reserved": 0}, {"is_disabled": 0, "fusion_lon": 0.0, "fusion_lat": 0.0, "lat": 38.827420000000004, "type": "electric_bike", "lon": -77.008513, "bike_id": "a5132084e09767dd247a15e8f674b51d", "rental_uris": {"android": "https://dc.lft.to/lastmile_qr_scan", "ios": "https://dc.lft.to/lastmile_qr_scan"}, "name": "a5132084e09767dd247a15e8f674b51d", "is_reserved": 0}, {"is_disabled": 0, "fusion_lon": 0.0, "fusion_lat": 0.0, "lat": 38.88791783333333, "type": "electric_bike", "lon": -76.92998216666666, "bike_id": "3a649f2de46694c417ae7922bcf7f8a9", "rental_uris": {"android": "https://dc.lft.to/lastmile_qr_scan", "ios": "https://dc.lft.to/lastmile_qr_scan"}, "name": "3a649f2de46694c417ae7922bcf7f8a9", "is_reserved": 0}, {"is_disabled": 0, "fusion_lon": 0.0, "fusion_lat": 0.0, "lat": 38.902733, "type": "electric_scooter", "lon": -77.02181666666667, "bike_id": "082de0177c2046099271cc82b4722b18", "rental_uris": {"android": "https://dc.lft.to/lastmile_qr_scan", "ios": "https://dc.lft.to/lastmile_qr_scan"}, "name": "082de0177c2046099271cc82b4722b18", "is_reserved": 0}, {"is_disabled": 0, "fusion_lon": 0.0, "fusion_lat": 0.0, "lat": 38.910209333333334, "type": "electric_scooter", "lon": -77.04808183333333, "bike_id": "f7c610a5899a36172abd69eb98f30ee0", "rental_uris": {"android": "https://dc.lft.to/lastmile_qr_scan", "ios": "https://dc.lft.to/lastmile_qr_scan"}, "name": "f7c610a5899a36172abd69eb98f30ee0", "is_reserved": 0}, {"is_disabled": 0, "fusion_lon": 0.0, "fusion_lat": 0.0, "lat": 38.9406645, "type": "electric_bike", "lon": -77.05292383333334, "bike_id": "913e10b2ad778ffa1a52d6be5133c134", "rental_uris": {"android": "https://dc.lft.to/lastmile_qr_scan", "ios": "https://dc.lft.to/lastmile_qr_scan"}, "name": "913e10b2ad778ffa1a52d6be5133c134", "is_reserved": 0}, {"is_disabled": 0, "fusion_lon": 0.0, "fusion_lat": 0.0, "lat": 38.94536733333333, "type": "electric_scooter", "lon": -77.0253565, "bike_id": "1ce4b864b2be718bfc35ac5c056c9f5b", "rental_uris": {"android": "https://dc.lft.to/lastmile_qr_scan", "ios": "https://dc.lft.to/lastmile_qr_scan"}, "name": "1ce4b864b2be718bfc35ac5c056c9f5b", "is_reserved": 0}, {"is_disabled": 0, "fusion_lon": 0.0, "fusion_lat": 0.0, "lat": 38.93454283333333, "type": "electric_scooter", "lon": -77.0306425, "bike_id": "91b1aa344d929b834d0544b08b4b643a", "rental_uris": {"android": "https://dc.lft.to/lastmile_qr_scan", "ios": "https://dc.lft.to/lastmile_qr_scan"}, "name": "91b1aa344d929b834d0544b08b4b643a", "is_reserved": 0}, {"is_disabled": 0, "fusion_lon": 0.0, "fusion_lat": 0.0, "lat": 38.911936833333336, "type": "electric_scooter", "lon": -77.04171066666666, "bike_id": "016ef583d29e239e77cbc702134940c5", "rental_uris": {"android": "https://dc.lft.to/lastmile_qr_scan", "ios": "https://dc.lft.to/lastmile_qr_scan"}, "name": "016ef583d29e239e77cbc702134940c5", "is_reserved": 0}, {"is_disabled": 0, "fusion_lon": 0.0, "fusion_lat": 0.0, "lat": 38.9114065, "type": "electric_scooter", "lon": -77.0418065, "bike_id": "03f68b853771045ba6175e2fba369fe9", "rental_uris": {"android": "https://dc.lft.to/lastmile_qr_scan", "ios": "https://dc.lft.to/lastmile_qr_scan"}, "name": "03f68b853771045ba6175e2fba369fe9", "is_reserved": 0}, {"is_disabled": 0, "fusion_lon": 0.0, "fusion_lat": 0.0, "lat": 38.86689833333333, "type": "electric_scooter", "lon": -76.98708216666667, "bike_id": "79e2f562ead526434428d9fb17637401", "rental_uris": {"android": "https://dc.lft.to/lastmile_qr_scan", "ios": "https://dc.lft.to/lastmile_qr_scan"}, "name": "79e2f562ead526434428d9fb17637401", "is_reserved": 0}, {"is_disabled": 0, "fusion_lon": 0.0, "fusion_lat": 0.0, "lat": 38.903071833333335, "type": "electric_scooter", "lon": -77.03662066666666, "bike_id": "08874e63242f85e8e20ceac311b8a33a", "rental_uris": {"android": "https://dc.lft.to/lastmile_qr_scan", "ios": "https://dc.lft.to/lastmile_qr_scan"}, "name": "08874e63242f85e8e20ceac311b8a33a", "is_reserved": 0}, {"is_disabled": 0, "fusion_lon": 0.0, "fusion_lat": 0.0, "lat": 38.95283516666667, "type": "electric_scooter", "lon": -77.0685085, "bike_id": "0927e5f09b5686313183464862a74f3f", "rental_uris": {"android": "https://dc.lft.to/lastmile_qr_scan", "ios": "https://dc.lft.to/lastmile_qr_scan"}, "name": "0927e5f09b5686313183464862a74f3f", "is_reserved": 0}, {"is_disabled": 0, "fusion_lon": 0.0, "fusion_lat": 0.0, "lat": 38.936293, "type": "electric_scooter", "lon": -77.036602, "bike_id": "f0e23d8683ccd61f108327ea8d9f60b5", "rental_uris": {"android": "https://dc.lft.to/lastmile_qr_scan", "ios": "https://dc.lft.to/lastmile_qr_scan"}, "name": "f0e23d8683ccd61f108327ea8d9f60b5", "is_reserved": 0}, {"is_disabled": 0, "fusion_lon": 0.0, "fusion_lat": 0.0, "lat": 38.89454633333333, "type": "electric_scooter", "lon": -77.0220815, "bike_id": "5c5996ac150258031f7e8938d7a2098c", "rental_uris": {"android": "https://dc.lft.to/lastmile_qr_scan", "ios": "https://dc.lft.to/lastmile_qr_scan"}, "name": "5c5996ac150258031f7e8938d7a2098c", "is_reserved": 0}, {"is_disabled": 0, "fusion_lon": 0.0, "fusion_lat": 0.0, "lat": 38.90520183333334, "type": "electric_scooter", "lon": -77.04368683333334, "bike_id": "f3ff1b3f17b73e7e6af9acdde757f51e", "rental_uris": {"android": "https://dc.lft.to/lastmile_qr_scan", "ios": "https://dc.lft.to/lastmile_qr_scan"}, "name": "f3ff1b3f17b73e7e6af9acdde757f51e", "is_reserved": 0}, {"is_disabled": 0, "fusion_lon": 0.0, "fusion_lat": 0.0, "lat": 38.89782533333333, "type": "electric_scooter", "lon": -77.02475466666667, "bike_id": "0f06288e4e654215a929761b557bc635", "rental_uris": {"android": "https://dc.lft.to/lastmile_qr_scan", "ios": "https://dc.lft.to/lastmile_qr_scan"}, "name": "0f06288e4e654215a929761b557bc635", "is_reserved": 0}, {"is_disabled": 0, "fusion_lon": 0.0, "fusion_lat": 0.0, "lat": 38.92524983333333, "type": "electric_scooter", "lon": -77.0732725, "bike_id": "c576307d47c28f904b72713d26ecd09d", "rental_uris": {"android": "https://dc.lft.to/lastmile_qr_scan", "ios": "https://dc.lft.to/lastmile_qr_scan"}, "name": "c576307d47c28f904b72713d26ecd09d", "is_reserved": 0}, {"is_disabled": 0, "fusion_lon": 0.0, "fusion_lat": 0.0, "lat": 38.92901083333334, "type": "electric_scooter", "lon": -77.03169983333333, "bike_id": "cf7d5e41079e4b6eada737bc4a02301b", "rental_uris": {"android": "https://dc.lft.to/lastmile_qr_scan", "ios": "https://dc.lft.to/lastmile_qr_scan"}, "name": "cf7d5e41079e4b6eada737bc4a02301b", "is_reserved": 0}, {"is_disabled": 0, "fusion_lon": 0.0, "fusion_lat": 0.0, "lat": 38.9055915, "type": "electric_scooter", "lon": -77.06609283333333, "bike_id": "b530c2b227b89204a8746b0491078067", "rental_uris": {"android": "https://dc.lft.to/lastmile_qr_scan", "ios": "https://dc.lft.to/lastmile_qr_scan"}, "name": "b530c2b227b89204a8746b0491078067", "is_reserved": 0}, {"is_disabled": 0, "fusion_lon": 0.0, "fusion_lat": 0.0, "lat": 38.9015655, "type": "electric_scooter", "lon": -77.05919716666666, "bike_id": "601037a2d2e7796d46eeffb7317afd04", "rental_uris": {"android": "https://dc.lft.to/lastmile_qr_scan", "ios": "https://dc.lft.to/lastmile_qr_scan"}, "name": "601037a2d2e7796d46eeffb7317afd04", "is_reserved": 0}, {"is_disabled": 0, "fusion_lon": 0.0, "fusion_lat": 0.0, "lat": 38.912339, "type": "electric_scooter", "lon": -76.98445266666667, "bike_id": "655fda1e6783ce1aa2055174d3a66fcd", "rental_uris": {"android": "https://dc.lft.to/lastmile_qr_scan", "ios": "https://dc.lft.to/lastmile_qr_scan"}, "name": "655fda1e6783ce1aa2055174d3a66fcd", "is_reserved": 0}, {"is_disabled": 0, "fusion_lon": 0.0, "fusion_lat": 0.0, "lat": 38.9162855, "type": "electric_scooter", "lon": -77.02561083333333, "bike_id": "de7d4ff451acf6aafbf235232e2b4ddb", "rental_uris": {"android": "https://dc.lft.to/lastmile_qr_scan", "ios": "https://dc.lft.to/lastmile_qr_scan"}, "name": "de7d4ff451acf6aafbf235232e2b4ddb", "is_reserved": 0}, {"is_disabled": 0, "fusion_lon": 0.0, "fusion_lat": 0.0, "lat": 38.91761983333333, "type": "electric_scooter", "lon": -77.00498166666667, "bike_id": "69ee704662f497428c9d0dc7b9f5661d", "rental_uris": {"android": "https://dc.lft.to/lastmile_qr_scan", "ios": "https://dc.lft.to/lastmile_qr_scan"}, "name": "69ee704662f497428c9d0dc7b9f5661d", "is_reserved": 0}, {"is_disabled": 0, "fusion_lon": 0.0, "fusion_lat": 0.0, "lat": 38.92165966666666, "type": "electric_scooter", "lon": -77.05529183333333, "bike_id": "b74dc4ccb2cfa7d204c0f6e2cfff22f7", "rental_uris": {"android": "https://dc.lft.to/lastmile_qr_scan", "ios": "https://dc.lft.to/lastmile_qr_scan"}, "name": "b74dc4ccb2cfa7d204c0f6e2cfff22f7", "is_reserved": 0}, {"is_disabled": 0, "fusion_lon": 0.0, "fusion_lat": 0.0, "lat": 38.94928816666667, "type": "electric_scooter", "lon": -77.01859716666667, "bike_id": "3881e6f3bcaa4210e3f3fef8b926333f", "rental_uris": {"android": "https://dc.lft.to/lastmile_qr_scan", "ios": "https://dc.lft.to/lastmile_qr_scan"}, "name": "3881e6f3bcaa4210e3f3fef8b926333f", "is_reserved": 0}, {"is_disabled": 0, "fusion_lon": 0.0, "fusion_lat": 0.0, "lat": 38.893472, "type": "electric_scooter", "lon": -76.94947533333334, "bike_id": "0eb36fd3e36491bbdcf1a4e55c87441f", "rental_uris": {"android": "https://dc.lft.to/lastmile_qr_scan", "ios": "https://dc.lft.to/lastmile_qr_scan"}, "name": "0eb36fd3e36491bbdcf1a4e55c87441f", "is_reserved": 0}, {"is_disabled": 0, "fusion_lon": 0.0, "fusion_lat": 0.0, "lat": 38.8811825, "type": "electric_scooter", "lon": -77.01637166666667, "bike_id": "c777a2159feb44deeb223493b69b07ab", "rental_uris": {"android": "https://dc.lft.to/lastmile_qr_scan", "ios": "https://dc.lft.to/lastmile_qr_scan"}, "name": "c777a2159feb44deeb223493b69b07ab", "is_reserved": 0}, {"is_disabled": 0, "fusion_lon": 0.0, "fusion_lat": 0.0, "lat": 38.92868716666667, "type": "electric_scooter", "lon": -77.033332, "bike_id": "7580f7a39d54920424965564f49cf444", "rental_uris": {"android": "https://dc.lft.to/lastmile_qr_scan", "ios": "https://dc.lft.to/lastmile_qr_scan"}, "name": "7580f7a39d54920424965564f49cf444", "is_reserved": 0}, {"is_disabled": 0, "fusion_lon": 0.0, "fusion_lat": 0.0, "lat": 38.8921725, "type": "electric_scooter", "lon": -77.0215125, "bike_id": "1b0f3a3af9833ad98ec67d17f6de310f", "rental_uris": {"android": "https://dc.lft.to/lastmile_qr_scan", "ios": "https://dc.lft.to/lastmile_qr_scan"}, "name": "1b0f3a3af9833ad98ec67d17f6de310f", "is_reserved": 0}, {"is_disabled": 0, "fusion_lon": 0.0, "fusion_lat": 0.0, "lat": 38.9203235, "type": "electric_scooter", "lon": -77.02436883333333, "bike_id": "d3cbc96d42a154710e25f4955a08af92", "rental_uris": {"android": "https://dc.lft.to/lastmile_qr_scan", "ios": "https://dc.lft.to/lastmile_qr_scan"}, "name": "d3cbc96d42a154710e25f4955a08af92", "is_reserved": 0}, {"is_disabled": 0, "fusion_lon": 0.0, "fusion_lat": 0.0, "lat": 38.90038283333333, "type": "electric_scooter", "lon": -77.0436185, "bike_id": "904ca9dcdd29c62e5602189c880319e3", "rental_uris": {"android": "https://dc.lft.to/lastmile_qr_scan", "ios": "https://dc.lft.to/lastmile_qr_scan"}, "name": "904ca9dcdd29c62e5602189c880319e3", "is_reserved": 0}, {"is_disabled": 0, "fusion_lon": 0.0, "fusion_lat": 0.0, "lat": 38.91324316666667, "type": "electric_scooter", "lon": -77.04174116666667, "bike_id": "4edcba074904ead7b8bdab798599b304", "rental_uris": {"android": "https://dc.lft.to/lastmile_qr_scan", "ios": "https://dc.lft.to/lastmile_qr_scan"}, "name": "4edcba074904ead7b8bdab798599b304", "is_reserved": 0}, {"is_disabled": 0, "fusion_lon": 0.0, "fusion_lat": 0.0, "lat": 38.91472733333333, "type": "electric_scooter", "lon": -77.0328375, "bike_id": "728dad29c96e779c6e4db822c5a366fa", "rental_uris": {"android": "https://dc.lft.to/lastmile_qr_scan", "ios": "https://dc.lft.to/lastmile_qr_scan"}, "name": "728dad29c96e779c6e4db822c5a366fa", "is_reserved": 0}, {"is_disabled": 0, "fusion_lon": 0.0, "fusion_lat": 0.0, "lat": 38.90074, "type": "electric_scooter", "lon": -77.04430416666666, "bike_id": "1655f7b62cd68ddc686b95ffbc043f0c", "rental_uris": {"android": "https://dc.lft.to/lastmile_qr_scan", "ios": "https://dc.lft.to/lastmile_qr_scan"}, "name": "1655f7b62cd68ddc686b95ffbc043f0c", "is_reserved": 0}, {"is_disabled": 0, "fusion_lon": 0.0, "fusion_lat": 0.0, "lat": 38.90614983333333, "type": "electric_scooter", "lon": -77.03210016666667, "bike_id": "de5a32ab3dca9e2c24daee71bcf2de7b", "rental_uris": {"android": "https://dc.lft.to/lastmile_qr_scan", "ios": "https://dc.lft.to/lastmile_qr_scan"}, "name": "de5a32ab3dca9e2c24daee71bcf2de7b", "is_reserved": 0}, {"is_disabled": 0, "fusion_lon": 0.0, "fusion_lat": 0.0, "lat": 38.88449966666667, "type": "electric_bike", "lon": -76.91638566666667, "bike_id": "11342dd3d26b5f1d5bc54829402f73f2", "rental_uris": {"android": "https://dc.lft.to/lastmile_qr_scan", "ios": "https://dc.lft.to/lastmile_qr_scan"}, "name": "11342dd3d26b5f1d5bc54829402f73f2", "is_reserved": 0}, {"is_disabled": 0, "fusion_lon": 0.0, "fusion_lat": 0.0, "lat": 38.92858583333334, "type": "electric_scooter", "lon": -77.03158283333333, "bike_id": "79b89ad37659f48ed4eb56384629e906", "rental_uris": {"android": "https://dc.lft.to/lastmile_qr_scan", "ios": "https://dc.lft.to/lastmile_qr_scan"}, "name": "79b89ad37659f48ed4eb56384629e906", "is_reserved": 0}, {"is_disabled": 0, "fusion_lon": 0.0, "fusion_lat": 0.0, "lat": 39.08904366666667, "type": "electric_bike", "lon": -77.1783965, "bike_id": "105163ee52a81e3690743b310f89f105", "rental_uris": {"android": "https://dc.lft.to/lastmile_qr_scan", "ios": "https://dc.lft.to/lastmile_qr_scan"}, "name": "105163ee52a81e3690743b310f89f105", "is_reserved": 0}, {"is_disabled": 0, "fusion_lon": 0.0, "fusion_lat": 0.0, "lat": 38.91188433333333, "type": "electric_scooter", "lon": -77.0416055, "bike_id": "c2c05f2662db65933d59ccadd962de6c", "rental_uris": {"android": "https://dc.lft.to/lastmile_qr_scan", "ios": "https://dc.lft.to/lastmile_qr_scan"}, "name": "c2c05f2662db65933d59ccadd962de6c", "is_reserved": 0}, {"is_disabled": 0, "fusion_lon": 0.0, "fusion_lat": 0.0, "lat": 38.87835966666667, "type": "electric_scooter", "lon": -77.02276983333333, "bike_id": "52cf09a4e78d1355ebefe973ffb4f9cd", "rental_uris": {"android": "https://dc.lft.to/lastmile_qr_scan", "ios": "https://dc.lft.to/lastmile_qr_scan"}, "name": "52cf09a4e78d1355ebefe973ffb4f9cd", "is_reserved": 0}, {"is_disabled": 0, "fusion_lon": 0.0, "fusion_lat": 0.0, "lat": 38.90045633333333, "type": "electric_scooter", "lon": -77.01184516666666, "bike_id": "d82b4f17b7f7eaa221fd82a8195b949a", "rental_uris": {"android": "https://dc.lft.to/lastmile_qr_scan", "ios": "https://dc.lft.to/lastmile_qr_scan"}, "name": "d82b4f17b7f7eaa221fd82a8195b949a", "is_reserved": 0}, {"is_disabled": 0, "fusion_lon": 0.0, "fusion_lat": 0.0, "lat": 38.948908, "type": "electric_bike", "lon": -76.963713, "bike_id": "ca44e1e422324789bfe40622a6075299", "rental_uris": {"android": "https://dc.lft.to/lastmile_qr_scan", "ios": "https://dc.lft.to/lastmile_qr_scan"}, "name": "ca44e1e422324789bfe40622a6075299", "is_reserved": 0}, {"is_disabled": 0, "fusion_lon": 0.0, "fusion_lat": 0.0, "lat": 38.9215035, "type": "electric_scooter", "lon": -77.03383183333334, "bike_id": "de59419e887e9acc8ab0c94126cfaf72", "rental_uris": {"android": "https://dc.lft.to/lastmile_qr_scan", "ios": "https://dc.lft.to/lastmile_qr_scan"}, "name": "de59419e887e9acc8ab0c94126cfaf72", "is_reserved": 0}, {"is_disabled": 0, "fusion_lon": 0.0, "fusion_lat": 0.0, "lat": 38.917758, "type": "electric_scooter", "lon": -77.01775866666667, "bike_id": "5f20cd7367ada3002fe6caa0257b7dc5", "rental_uris": {"android": "https://dc.lft.to/lastmile_qr_scan", "ios": "https://dc.lft.to/lastmile_qr_scan"}, "name": "5f20cd7367ada3002fe6caa0257b7dc5", "is_reserved": 0}, {"is_disabled": 0, "fusion_lon": 0.0, "fusion_lat": 0.0, "lat": 39.052615333333335, "type": "electric_bike", "lon": -77.04383666666666, "bike_id": "305fc4fe24bf1b09f56cce2d438b5615", "rental_uris": {"android": "https://dc.lft.to/lastmile_qr_scan", "ios": "https://dc.lft.to/lastmile_qr_scan"}, "name": "305fc4fe24bf1b09f56cce2d438b5615", "is_reserved": 0}, {"is_disabled": 0, "fusion_lon": 0.0, "fusion_lat": 0.0, "lat": 38.9141625, "type": "electric_scooter", "lon": -77.04527833333333, "bike_id": "99bbbb725f276af925ab9880349b281c", "rental_uris": {"android": "https://dc.lft.to/lastmile_qr_scan", "ios": "https://dc.lft.to/lastmile_qr_scan"}, "name": "99bbbb725f276af925ab9880349b281c", "is_reserved": 0}, {"is_disabled": 0, "fusion_lon": 0.0, "fusion_lat": 0.0, "lat": 38.932795166666665, "type": "electric_scooter", "lon": -77.02447733333334, "bike_id": "6f347235201bfd991f2bf63847ff1ef0", "rental_uris": {"android": "https://dc.lft.to/lastmile_qr_scan", "ios": "https://dc.lft.to/lastmile_qr_scan"}, "name": "6f347235201bfd991f2bf63847ff1ef0", "is_reserved": 0}, {"is_disabled": 0, "fusion_lon": 0.0, "fusion_lat": 0.0, "lat": 38.95743516666667, "type": "electric_scooter", "lon": -77.02435066666666, "bike_id": "b11c5fd0f004cd6dfc7809b9aa0faf22", "rental_uris": {"android": "https://dc.lft.to/lastmile_qr_scan", "ios": "https://dc.lft.to/lastmile_qr_scan"}, "name": "b11c5fd0f004cd6dfc7809b9aa0faf22", "is_reserved": 0}, {"is_disabled": 0, "fusion_lon": 0.0, "fusion_lat": 0.0, "lat": 38.9096425, "type": "electric_scooter", "lon": -77.08561433333334, "bike_id": "6b3d6521df4c3e9901b26d01eb89f92c", "rental_uris": {"android": "https://dc.lft.to/lastmile_qr_scan", "ios": "https://dc.lft.to/lastmile_qr_scan"}, "name": "6b3d6521df4c3e9901b26d01eb89f92c", "is_reserved": 0}, {"is_disabled": 0, "fusion_lon": 0.0, "fusion_lat": 0.0, "lat": 38.86710633333333, "type": "electric_scooter", "lon": -76.97909633333333, "bike_id": "da8a4fc780ce5e9f40aef1a9c5bd4169", "rental_uris": {"android": "https://dc.lft.to/lastmile_qr_scan", "ios": "https://dc.lft.to/lastmile_qr_scan"}, "name": "da8a4fc780ce5e9f40aef1a9c5bd4169", "is_reserved": 0}, {"is_disabled": 0, "fusion_lon": 0.0, "fusion_lat": 0.0, "lat": 38.93517533333333, "type": "electric_scooter", "lon": -77.02374166666667, "bike_id": "45e52fb67ee240783579ebee7d54fbd0", "rental_uris": {"android": "https://dc.lft.to/lastmile_qr_scan", "ios": "https://dc.lft.to/lastmile_qr_scan"}, "name": "45e52fb67ee240783579ebee7d54fbd0", "is_reserved": 0}, {"is_disabled": 0, "fusion_lon": 0.0, "fusion_lat": 0.0, "lat": 38.92350116666667, "type": "electric_scooter", "lon": -77.04148416666666, "bike_id": "94ebaf5a5502a3ffbbfee28c41b4632a", "rental_uris": {"android": "https://dc.lft.to/lastmile_qr_scan", "ios": "https://dc.lft.to/lastmile_qr_scan"}, "name": "94ebaf5a5502a3ffbbfee28c41b4632a", "is_reserved": 0}, {"is_disabled": 0, "fusion_lon": 0.0, "fusion_lat": 0.0, "lat": 38.9847845, "type": "electric_scooter", "lon": -77.02650533333333, "bike_id": "a104ceb123cc0d4095cc68e1269f10aa", "rental_uris": {"android": "https://dc.lft.to/lastmile_qr_scan", "ios": "https://dc.lft.to/lastmile_qr_scan"}, "name": "a104ceb123cc0d4095cc68e1269f10aa", "is_reserved": 0}, {"is_disabled": 0, "fusion_lon": 0.0, "fusion_lat": 0.0, "lat": 38.884501666666665, "type": "electric_scooter", "lon": -76.954022, "bike_id": "7ee0e01fcefe034ac27f2a6a8ee18ba6", "rental_uris": {"android": "https://dc.lft.to/lastmile_qr_scan", "ios": "https://dc.lft.to/lastmile_qr_scan"}, "name": "7ee0e01fcefe034ac27f2a6a8ee18ba6", "is_reserved": 0}, {"is_disabled": 0, "fusion_lon": 0.0, "fusion_lat": 0.0, "lat": 38.896619, "type": "electric_scooter", "lon": -77.0231495, "bike_id": "a8c42e69746dc1c3616d14906a98950e", "rental_uris": {"android": "https://dc.lft.to/lastmile_qr_scan", "ios": "https://dc.lft.to/lastmile_qr_scan"}, "name": "a8c42e69746dc1c3616d14906a98950e", "is_reserved": 0}, {"is_disabled": 0, "fusion_lon": 0.0, "fusion_lat": 0.0, "lat": 38.92938616666667, "type": "electric_scooter", "lon": -77.0164245, "bike_id": "314c1a17f77fd7512716fe32f105b788", "rental_uris": {"android": "https://dc.lft.to/lastmile_qr_scan", "ios": "https://dc.lft.to/lastmile_qr_scan"}, "name": "314c1a17f77fd7512716fe32f105b788", "is_reserved": 0}, {"is_disabled": 0, "fusion_lon": 0.0, "fusion_lat": 0.0, "lat": 38.91336016666666, "type": "electric_scooter", "lon": -77.052116, "bike_id": "0ff2f5c955d93678d47b7eaae38fdc49", "rental_uris": {"android": "https://dc.lft.to/lastmile_qr_scan", "ios": "https://dc.lft.to/lastmile_qr_scan"}, "name": "0ff2f5c955d93678d47b7eaae38fdc49", "is_reserved": 0}, {"is_disabled": 0, "fusion_lon": 0.0, "fusion_lat": 0.0, "lat": 38.869504, "type": "electric_scooter", "lon": -76.975914, "bike_id": "ab0a75c8dbcc6c24a880b212e22fd1d0", "rental_uris": {"android": "https://dc.lft.to/lastmile_qr_scan", "ios": "https://dc.lft.to/lastmile_qr_scan"}, "name": "ab0a75c8dbcc6c24a880b212e22fd1d0", "is_reserved": 0}, {"is_disabled": 0, "fusion_lon": 0.0, "fusion_lat": 0.0, "lat": 38.905546666666666, "type": "electric_scooter", "lon": -77.01789766666667, "bike_id": "1377b81fb06b1b450aff5d65c0e6f341", "rental_uris": {"android": "https://dc.lft.to/lastmile_qr_scan", "ios": "https://dc.lft.to/lastmile_qr_scan"}, "name": "1377b81fb06b1b450aff5d65c0e6f341", "is_reserved": 0}, {"is_disabled": 0, "fusion_lon": 0.0, "fusion_lat": 0.0, "lat": 38.915842166666664, "type": "electric_scooter", "lon": -77.03200483333333, "bike_id": "010d8317a5311eff57ca7073910544cd", "rental_uris": {"android": "https://dc.lft.to/lastmile_qr_scan", "ios": "https://dc.lft.to/lastmile_qr_scan"}, "name": "010d8317a5311eff57ca7073910544cd", "is_reserved": 0}, {"is_disabled": 0, "fusion_lon": 0.0, "fusion_lat": 0.0, "lat": 38.9461935, "type": "electric_bike", "lon": -76.93410683333333, "bike_id": "70015860fbdbdcda58a35e40b9e65211", "rental_uris": {"android": "https://dc.lft.to/lastmile_qr_scan", "ios": "https://dc.lft.to/lastmile_qr_scan"}, "name": "70015860fbdbdcda58a35e40b9e65211", "is_reserved": 0}, {"is_disabled": 0, "fusion_lon": 0.0, "fusion_lat": 0.0, "lat": 38.898234333333335, "type": "electric_scooter", "lon": -76.94653533333333, "bike_id": "75c2d7de276ba355ab8dbb5aadd20d22", "rental_uris": {"android": "https://dc.lft.to/lastmile_qr_scan", "ios": "https://dc.lft.to/lastmile_qr_scan"}, "name": "75c2d7de276ba355ab8dbb5aadd20d22", "is_reserved": 0}, {"is_disabled": 0, "fusion_lon": 0.0, "fusion_lat": 0.0, "lat": 38.916853333333336, "type": "electric_scooter", "lon": -77.0259125, "bike_id": "2023a04f95f13628093d22e4754253fb", "rental_uris": {"android": "https://dc.lft.to/lastmile_qr_scan", "ios": "https://dc.lft.to/lastmile_qr_scan"}, "name": "2023a04f95f13628093d22e4754253fb", "is_reserved": 0}, {"is_disabled": 0, "fusion_lon": 0.0, "fusion_lat": 0.0, "lat": 38.903842166666664, "type": "electric_scooter", "lon": -76.99007183333333, "bike_id": "1e08fc1e238c0c62e52eb8c8605b8c42", "rental_uris": {"android": "https://dc.lft.to/lastmile_qr_scan", "ios": "https://dc.lft.to/lastmile_qr_scan"}, "name": "1e08fc1e238c0c62e52eb8c8605b8c42", "is_reserved": 0}, {"is_disabled": 0, "fusion_lon": 0.0, "fusion_lat": 0.0, "lat": 38.909721833333336, "type": "electric_scooter", "lon": -77.0361685, "bike_id": "8ac98adbeef383ed69f9f04a7b407544", "rental_uris": {"android": "https://dc.lft.to/lastmile_qr_scan", "ios": "https://dc.lft.to/lastmile_qr_scan"}, "name": "8ac98adbeef383ed69f9f04a7b407544", "is_reserved": 0}, {"is_disabled": 0, "fusion_lon": 0.0, "fusion_lat": 0.0, "lat": 38.82871, "type": "electric_bike", "lon": -77.11223116666666, "bike_id": "af537ec06a1d6bdd18b2bfd424fc15bd", "rental_uris": {"android": "https://dc.lft.to/lastmile_qr_scan", "ios": "https://dc.lft.to/lastmile_qr_scan"}, "name": "af537ec06a1d6bdd18b2bfd424fc15bd", "is_reserved": 0}, {"is_disabled": 0, "fusion_lon": 0.0, "fusion_lat": 0.0, "lat": 38.932738, "type": "electric_scooter", "lon": -77.03982183333333, "bike_id": "79a803d738b8e0968d76f2b45b264bed", "rental_uris": {"android": "https://dc.lft.to/lastmile_qr_scan", "ios": "https://dc.lft.to/lastmile_qr_scan"}, "name": "79a803d738b8e0968d76f2b45b264bed", "is_reserved": 0}, {"is_disabled": 0, "fusion_lon": 0.0, "fusion_lat": 0.0, "lat": 38.898488666666665, "type": "electric_scooter", "lon": -76.990346, "bike_id": "84e6e29c187ee19d21f99c29e1497da3", "rental_uris": {"android": "https://dc.lft.to/lastmile_qr_scan", "ios": "https://dc.lft.to/lastmile_qr_scan"}, "name": "84e6e29c187ee19d21f99c29e1497da3", "is_reserved": 0}, {"is_disabled": 0, "fusion_lon": 0.0, "fusion_lat": 0.0, "lat": 38.908362333333336, "type": "electric_scooter", "lon": -77.0295615, "bike_id": "97255b11a9f4a1be4ddc58a2f0df40d9", "rental_uris": {"android": "https://dc.lft.to/lastmile_qr_scan", "ios": "https://dc.lft.to/lastmile_qr_scan"}, "name": "97255b11a9f4a1be4ddc58a2f0df40d9", "is_reserved": 0}, {"is_disabled": 0, "fusion_lon": 0.0, "fusion_lat": 0.0, "lat": 38.90685666666667, "type": "electric_scooter", "lon": -77.05791633333334, "bike_id": "8941ab6f9f4f4e9c3eb9fa4b168f6a82", "rental_uris": {"android": "https://dc.lft.to/lastmile_qr_scan", "ios": "https://dc.lft.to/lastmile_qr_scan"}, "name": "8941ab6f9f4f4e9c3eb9fa4b168f6a82", "is_reserved": 0}, {"is_disabled": 0, "fusion_lon": 0.0, "fusion_lat": 0.0, "lat": 38.9655585, "type": "electric_scooter", "lon": -77.00270333333333, "bike_id": "670534bf295720b7fa70a98c98b01e14", "rental_uris": {"android": "https://dc.lft.to/lastmile_qr_scan", "ios": "https://dc.lft.to/lastmile_qr_scan"}, "name": "670534bf295720b7fa70a98c98b01e14", "is_reserved": 0}, {"is_disabled": 0, "fusion_lon": 0.0, "fusion_lat": 0.0, "lat": 38.916541, "type": "electric_scooter", "lon": -77.031923, "bike_id": "cbd8ccaf8c90268216adeb78676daf16", "rental_uris": {"android": "https://dc.lft.to/lastmile_qr_scan", "ios": "https://dc.lft.to/lastmile_qr_scan"}, "name": "cbd8ccaf8c90268216adeb78676daf16", "is_reserved": 0}, {"is_disabled": 0, "fusion_lon": 0.0, "fusion_lat": 0.0, "lat": 38.907777833333334, "type": "electric_scooter", "lon": -77.0346845, "bike_id": "15cd967ef55aeca24f61cb7c879db0f8", "rental_uris": {"android": "https://dc.lft.to/lastmile_qr_scan", "ios": "https://dc.lft.to/lastmile_qr_scan"}, "name": "15cd967ef55aeca24f61cb7c879db0f8", "is_reserved": 0}, {"is_disabled": 0, "fusion_lon": 0.0, "fusion_lat": 0.0, "lat": 38.951716, "type": "electric_scooter", "lon": -77.05656766666667, "bike_id": "063ec0b3faa4acee3223f108dd3f9459", "rental_uris": {"android": "https://dc.lft.to/lastmile_qr_scan", "ios": "https://dc.lft.to/lastmile_qr_scan"}, "name": "063ec0b3faa4acee3223f108dd3f9459", "is_reserved": 0}, {"is_disabled": 0, "fusion_lon": 0.0, "fusion_lat": 0.0, "lat": 38.91273733333333, "type": "electric_scooter", "lon": -77.02241883333333, "bike_id": "5b7ff987316f22b4a797ae5e63d61c94", "rental_uris": {"android": "https://dc.lft.to/lastmile_qr_scan", "ios": "https://dc.lft.to/lastmile_qr_scan"}, "name": "5b7ff987316f22b4a797ae5e63d61c94", "is_reserved": 0}, {"is_disabled": 0, "fusion_lon": 0.0, "fusion_lat": 0.0, "lat": 38.907165666666664, "type": "electric_scooter", "lon": -77.045876, "bike_id": "61e1b12ab82742ad57286eb04662e06e", "rental_uris": {"android": "https://dc.lft.to/lastmile_qr_scan", "ios": "https://dc.lft.to/lastmile_qr_scan"}, "name": "61e1b12ab82742ad57286eb04662e06e", "is_reserved": 0}, {"is_disabled": 0, "fusion_lon": 0.0, "fusion_lat": 0.0, "lat": 38.904764666666665, "type": "electric_scooter", "lon": -77.02984733333334, "bike_id": "61c26ffed467c1e3ef509498e2bff4d6", "rental_uris": {"android": "https://dc.lft.to/lastmile_qr_scan", "ios": "https://dc.lft.to/lastmile_qr_scan"}, "name": "61c26ffed467c1e3ef509498e2bff4d6", "is_reserved": 0}, {"is_disabled": 0, "fusion_lon": 0.0, "fusion_lat": 0.0, "lat": 38.88671433333333, "type": "electric_scooter", "lon": -77.00173083333334, "bike_id": "70f79187fc347566be68be531e76b855", "rental_uris": {"android": "https://dc.lft.to/lastmile_qr_scan", "ios": "https://dc.lft.to/lastmile_qr_scan"}, "name": "70f79187fc347566be68be531e76b855", "is_reserved": 0}, {"is_disabled": 0, "fusion_lon": 0.0, "fusion_lat": 0.0, "lat": 38.9093565, "type": "electric_scooter", "lon": -77.05368583333333, "bike_id": "11fa2d7a36398302ed0cd31f664bff61", "rental_uris": {"android": "https://dc.lft.to/lastmile_qr_scan", "ios": "https://dc.lft.to/lastmile_qr_scan"}, "name": "11fa2d7a36398302ed0cd31f664bff61", "is_reserved": 0}, {"is_disabled": 0, "fusion_lon": 0.0, "fusion_lat": 0.0, "lat": 38.955526166666665, "type": "electric_bike", "lon": -76.93533716666667, "bike_id": "16506a3820514046aac74ce3ce701814", "rental_uris": {"android": "https://dc.lft.to/lastmile_qr_scan", "ios": "https://dc.lft.to/lastmile_qr_scan"}, "name": "16506a3820514046aac74ce3ce701814", "is_reserved": 0}, {"is_disabled": 0, "fusion_lon": 0.0, "fusion_lat": 0.0, "lat": 38.92865666666667, "type": "electric_scooter", "lon": -77.03334816666667, "bike_id": "39431377e450eb1bd20ce0b983629045", "rental_uris": {"android": "https://dc.lft.to/lastmile_qr_scan", "ios": "https://dc.lft.to/lastmile_qr_scan"}, "name": "39431377e450eb1bd20ce0b983629045", "is_reserved": 0}, {"is_disabled": 0, "fusion_lon": 0.0, "fusion_lat": 0.0, "lat": 38.883720833333335, "type": "electric_scooter", "lon": -76.92376816666666, "bike_id": "4ce755547cd4f78a24d9e2113b29040b", "rental_uris": {"android": "https://dc.lft.to/lastmile_qr_scan", "ios": "https://dc.lft.to/lastmile_qr_scan"}, "name": "4ce755547cd4f78a24d9e2113b29040b", "is_reserved": 0}, {"is_disabled": 0, "fusion_lon": 0.0, "fusion_lat": 0.0, "lat": 38.9308905, "type": "electric_scooter", "lon": -77.03432266666667, "bike_id": "faba90df925eb99773f3f62e7c5681f8", "rental_uris": {"android": "https://dc.lft.to/lastmile_qr_scan", "ios": "https://dc.lft.to/lastmile_qr_scan"}, "name": "faba90df925eb99773f3f62e7c5681f8", "is_reserved": 0}, {"is_disabled": 0, "fusion_lon": 0.0, "fusion_lat": 0.0, "lat": 38.93973833333333, "type": "electric_scooter", "lon": -77.0302305, "bike_id": "0a34fc6b281781e5b89e999452535752", "rental_uris": {"android": "https://dc.lft.to/lastmile_qr_scan", "ios": "https://dc.lft.to/lastmile_qr_scan"}, "name": "0a34fc6b281781e5b89e999452535752", "is_reserved": 0}, {"is_disabled": 0, "fusion_lon": 0.0, "fusion_lat": 0.0, "lat": 38.917182, "type": "electric_scooter", "lon": -77.02605133333333, "bike_id": "d8061f751e96ae1f0cffb73dfe57e7f3", "rental_uris": {"android": "https://dc.lft.to/lastmile_qr_scan", "ios": "https://dc.lft.to/lastmile_qr_scan"}, "name": "d8061f751e96ae1f0cffb73dfe57e7f3", "is_reserved": 0}, {"is_disabled": 0, "fusion_lon": 0.0, "fusion_lat": 0.0, "lat": 38.883267000000004, "type": "electric_bike", "lon": -77.065589, "bike_id": "6e9c16f4fb231d8f20e133d1639f5029", "rental_uris": {"android": "https://dc.lft.to/lastmile_qr_scan", "ios": "https://dc.lft.to/lastmile_qr_scan"}, "name": "6e9c16f4fb231d8f20e133d1639f5029", "is_reserved": 0}, {"is_disabled": 0, "fusion_lon": 0.0, "fusion_lat": 0.0, "lat": 38.89222266666667, "type": "electric_scooter", "lon": -77.028296, "bike_id": "7dfa0ad06ca86ecc561cc0daf5361915", "rental_uris": {"android": "https://dc.lft.to/lastmile_qr_scan", "ios": "https://dc.lft.to/lastmile_qr_scan"}, "name": "7dfa0ad06ca86ecc561cc0daf5361915", "is_reserved": 0}, {"is_disabled": 0, "fusion_lon": 0.0, "fusion_lat": 0.0, "lat": 38.90863083333333, "type": "electric_scooter", "lon": -77.063972, "bike_id": "049c4d0e14c5dfac7af1ecaa0d9ae081", "rental_uris": {"android": "https://dc.lft.to/lastmile_qr_scan", "ios": "https://dc.lft.to/lastmile_qr_scan"}, "name": "049c4d0e14c5dfac7af1ecaa0d9ae081", "is_reserved": 0}, {"is_disabled": 0, "fusion_lon": 0.0, "fusion_lat": 0.0, "lat": 38.916366833333335, "type": "electric_scooter", "lon": -77.03838933333333, "bike_id": "a3e30476f7cc84233e1d0d3d3198a044", "rental_uris": {"android": "https://dc.lft.to/lastmile_qr_scan", "ios": "https://dc.lft.to/lastmile_qr_scan"}, "name": "a3e30476f7cc84233e1d0d3d3198a044", "is_reserved": 0}, {"is_disabled": 0, "fusion_lon": 0.0, "fusion_lat": 0.0, "lat": 38.90321316666667, "type": "electric_scooter", "lon": -77.0384725, "bike_id": "6d0ce442760a3e2ac5144bf7775033f7", "rental_uris": {"android": "https://dc.lft.to/lastmile_qr_scan", "ios": "https://dc.lft.to/lastmile_qr_scan"}, "name": "6d0ce442760a3e2ac5144bf7775033f7", "is_reserved": 0}, {"is_disabled": 0, "fusion_lon": 0.0, "fusion_lat": 0.0, "lat": 38.9395605, "type": "electric_scooter", "lon": -77.032788, "bike_id": "9afe235e9d9bdf988c86c0db012d0c87", "rental_uris": {"android": "https://dc.lft.to/lastmile_qr_scan", "ios": "https://dc.lft.to/lastmile_qr_scan"}, "name": "9afe235e9d9bdf988c86c0db012d0c87", "is_reserved": 0}, {"is_disabled": 0, "fusion_lon": 0.0, "fusion_lat": 0.0, "lat": 38.913267166666664, "type": "electric_scooter", "lon": -77.0417015, "bike_id": "78e7fba3077567e1abe79b673e9f89e8", "rental_uris": {"android": "https://dc.lft.to/lastmile_qr_scan", "ios": "https://dc.lft.to/lastmile_qr_scan"}, "name": "78e7fba3077567e1abe79b673e9f89e8", "is_reserved": 0}, {"is_disabled": 0, "fusion_lon": 0.0, "fusion_lat": 0.0, "lat": 38.92592916666667, "type": "electric_scooter", "lon": -77.02149433333334, "bike_id": "e36fb76c5493eae8060c6daa0a1433bb", "rental_uris": {"android": "https://dc.lft.to/lastmile_qr_scan", "ios": "https://dc.lft.to/lastmile_qr_scan"}, "name": "e36fb76c5493eae8060c6daa0a1433bb", "is_reserved": 0}, {"is_disabled": 0, "fusion_lon": 0.0, "fusion_lat": 0.0, "lat": 38.91972, "type": "electric_scooter", "lon": -76.98049983333334, "bike_id": "0326d72b0c29d692836b8f131c811dea", "rental_uris": {"android": "https://dc.lft.to/lastmile_qr_scan", "ios": "https://dc.lft.to/lastmile_qr_scan"}, "name": "0326d72b0c29d692836b8f131c811dea", "is_reserved": 0}, {"is_disabled": 0, "fusion_lon": 0.0, "fusion_lat": 0.0, "lat": 38.90872816666667, "type": "electric_scooter", "lon": -77.043514, "bike_id": "2045b8d531bff5bcb12fe6bfe82a8c85", "rental_uris": {"android": "https://dc.lft.to/lastmile_qr_scan", "ios": "https://dc.lft.to/lastmile_qr_scan"}, "name": "2045b8d531bff5bcb12fe6bfe82a8c85", "is_reserved": 0}, {"is_disabled": 0, "fusion_lon": 0.0, "fusion_lat": 0.0, "lat": 38.88736566666667, "type": "electric_scooter", "lon": -77.02154, "bike_id": "9c29616fe9e611b2af178bfef113376d", "rental_uris": {"android": "https://dc.lft.to/lastmile_qr_scan", "ios": "https://dc.lft.to/lastmile_qr_scan"}, "name": "9c29616fe9e611b2af178bfef113376d", "is_reserved": 0}, {"is_disabled": 0, "fusion_lon": 0.0, "fusion_lat": 0.0, "lat": 38.876654, "type": "electric_scooter", "lon": -77.00364116666667, "bike_id": "431750994f9ee207f0d39d6bb60f4f77", "rental_uris": {"android": "https://dc.lft.to/lastmile_qr_scan", "ios": "https://dc.lft.to/lastmile_qr_scan"}, "name": "431750994f9ee207f0d39d6bb60f4f77", "is_reserved": 0}, {"is_disabled": 0, "fusion_lon": 0.0, "fusion_lat": 0.0, "lat": 38.9209495, "type": "electric_scooter", "lon": -77.03186166666667, "bike_id": "e5e3cd3831c4f9f0fb9e0a41f69c01cb", "rental_uris": {"android": "https://dc.lft.to/lastmile_qr_scan", "ios": "https://dc.lft.to/lastmile_qr_scan"}, "name": "e5e3cd3831c4f9f0fb9e0a41f69c01cb", "is_reserved": 0}, {"is_disabled": 0, "fusion_lon": 0.0, "fusion_lat": 0.0, "lat": 38.90720533333333, "type": "electric_scooter", "lon": -77.043516, "bike_id": "c586d28d532dadc711aacdeaf69cc780", "rental_uris": {"android": "https://dc.lft.to/lastmile_qr_scan", "ios": "https://dc.lft.to/lastmile_qr_scan"}, "name": "c586d28d532dadc711aacdeaf69cc780", "is_reserved": 0}, {"is_disabled": 0, "fusion_lon": 0.0, "fusion_lat": 0.0, "lat": 38.922176, "type": "electric_scooter", "lon": -77.03445866666667, "bike_id": "d316cc1bcd349b1612df208acf0e3128", "rental_uris": {"android": "https://dc.lft.to/lastmile_qr_scan", "ios": "https://dc.lft.to/lastmile_qr_scan"}, "name": "d316cc1bcd349b1612df208acf0e3128", "is_reserved": 0}, {"is_disabled": 0, "fusion_lon": 0.0, "fusion_lat": 0.0, "lat": 38.897248166666664, "type": "electric_scooter", "lon": -77.00988833333334, "bike_id": "be9c6cd266850154f122a6ea2c124818", "rental_uris": {"android": "https://dc.lft.to/lastmile_qr_scan", "ios": "https://dc.lft.to/lastmile_qr_scan"}, "name": "be9c6cd266850154f122a6ea2c124818", "is_reserved": 0}, {"is_disabled": 0, "fusion_lon": 0.0, "fusion_lat": 0.0, "lat": 38.906771, "type": "electric_scooter", "lon": -77.0238805, "bike_id": "be766058245244205024f7858d253f52", "rental_uris": {"android": "https://dc.lft.to/lastmile_qr_scan", "ios": "https://dc.lft.to/lastmile_qr_scan"}, "name": "be766058245244205024f7858d253f52", "is_reserved": 0}, {"is_disabled": 0, "fusion_lon": 0.0, "fusion_lat": 0.0, "lat": 38.942137833333334, "type": "electric_scooter", "lon": -77.02498883333334, "bike_id": "d116e6d23fd667f1babd093ff8eb5473", "rental_uris": {"android": "https://dc.lft.to/lastmile_qr_scan", "ios": "https://dc.lft.to/lastmile_qr_scan"}, "name": "d116e6d23fd667f1babd093ff8eb5473", "is_reserved": 0}, {"is_disabled": 0, "fusion_lon": 0.0, "fusion_lat": 0.0, "lat": 38.9275305, "type": "electric_scooter", "lon": -77.00591433333334, "bike_id": "dbd62714cbd80f1090d7f877e55054e7", "rental_uris": {"android": "https://dc.lft.to/lastmile_qr_scan", "ios": "https://dc.lft.to/lastmile_qr_scan"}, "name": "dbd62714cbd80f1090d7f877e55054e7", "is_reserved": 0}, {"is_disabled": 0, "fusion_lon": 0.0, "fusion_lat": 0.0, "lat": 38.90394, "type": "electric_scooter", "lon": -76.99008266666667, "bike_id": "462dc28bd6d28b8c13eca5498a14df5b", "rental_uris": {"android": "https://dc.lft.to/lastmile_qr_scan", "ios": "https://dc.lft.to/lastmile_qr_scan"}, "name": "462dc28bd6d28b8c13eca5498a14df5b", "is_reserved": 0}, {"is_disabled": 0, "fusion_lon": 0.0, "fusion_lat": 0.0, "lat": 38.9050475, "type": "electric_scooter", "lon": -76.9962405, "bike_id": "f91b2145c82147b4f471b630f45d238a", "rental_uris": {"android": "https://dc.lft.to/lastmile_qr_scan", "ios": "https://dc.lft.to/lastmile_qr_scan"}, "name": "f91b2145c82147b4f471b630f45d238a", "is_reserved": 0}, {"is_disabled": 0, "fusion_lon": 0.0, "fusion_lat": 0.0, "lat": 38.91816216666667, "type": "electric_scooter", "lon": -77.03294766666667, "bike_id": "e88b588b9ec4acc57fea2f2dfbff9476", "rental_uris": {"android": "https://dc.lft.to/lastmile_qr_scan", "ios": "https://dc.lft.to/lastmile_qr_scan"}, "name": "e88b588b9ec4acc57fea2f2dfbff9476", "is_reserved": 0}, {"is_disabled": 0, "fusion_lon": 0.0, "fusion_lat": 0.0, "lat": 38.89960966666666, "type": "electric_scooter", "lon": -77.0508825, "bike_id": "9f9c855702c1ec65a86b18f5c111ee4e", "rental_uris": {"android": "https://dc.lft.to/lastmile_qr_scan", "ios": "https://dc.lft.to/lastmile_qr_scan"}, "name": "9f9c855702c1ec65a86b18f5c111ee4e", "is_reserved": 0}, {"is_disabled": 0, "fusion_lon": 0.0, "fusion_lat": 0.0, "lat": 38.89413833333333, "type": "electric_scooter", "lon": -77.02322733333334, "bike_id": "01fbfc7497c4f8f4a8179b84d60a7a26", "rental_uris": {"android": "https://dc.lft.to/lastmile_qr_scan", "ios": "https://dc.lft.to/lastmile_qr_scan"}, "name": "01fbfc7497c4f8f4a8179b84d60a7a26", "is_reserved": 0}, {"is_disabled": 0, "fusion_lon": 0.0, "fusion_lat": 0.0, "lat": 38.893914333333335, "type": "electric_scooter", "lon": -76.94998716666667, "bike_id": "1da837a9ebc2caf9189c6471cd7bf737", "rental_uris": {"android": "https://dc.lft.to/lastmile_qr_scan", "ios": "https://dc.lft.to/lastmile_qr_scan"}, "name": "1da837a9ebc2caf9189c6471cd7bf737", "is_reserved": 0}, {"is_disabled": 0, "fusion_lon": 0.0, "fusion_lat": 0.0, "lat": 38.91676966666667, "type": "electric_scooter", "lon": -77.029677, "bike_id": "3c79b71b5fc9e29c0821cd8a7ac0b023", "rental_uris": {"android": "https://dc.lft.to/lastmile_qr_scan", "ios": "https://dc.lft.to/lastmile_qr_scan"}, "name": "3c79b71b5fc9e29c0821cd8a7ac0b023", "is_reserved": 0}, {"is_disabled": 0, "fusion_lon": 0.0, "fusion_lat": 0.0, "lat": 38.93146683333333, "type": "electric_scooter", "lon": -77.02962466666666, "bike_id": "c9bf0f0ccb554f630b0712cff47627fd", "rental_uris": {"android": "https://dc.lft.to/lastmile_qr_scan", "ios": "https://dc.lft.to/lastmile_qr_scan"}, "name": "c9bf0f0ccb554f630b0712cff47627fd", "is_reserved": 0}, {"is_disabled": 0, "fusion_lon": 0.0, "fusion_lat": 0.0, "lat": 38.909774666666664, "type": "electric_scooter", "lon": -77.04286533333334, "bike_id": "82bb5a4b814cc5b4df45d86322bb22ed", "rental_uris": {"android": "https://dc.lft.to/lastmile_qr_scan", "ios": "https://dc.lft.to/lastmile_qr_scan"}, "name": "82bb5a4b814cc5b4df45d86322bb22ed", "is_reserved": 0}, {"is_disabled": 0, "fusion_lon": 0.0, "fusion_lat": 0.0, "lat": 38.91360233333333, "type": "electric_scooter", "lon": -77.02583283333334, "bike_id": "c5f22cbd7d2317ae057490054ad24f69", "rental_uris": {"android": "https://dc.lft.to/lastmile_qr_scan", "ios": "https://dc.lft.to/lastmile_qr_scan"}, "name": "c5f22cbd7d2317ae057490054ad24f69", "is_reserved": 0}, {"is_disabled": 0, "fusion_lon": 0.0, "fusion_lat": 0.0, "lat": 38.916891666666665, "type": "electric_scooter", "lon": -77.03679583333333, "bike_id": "50f6097e8d42567cf793ba0d79ec9c4d", "rental_uris": {"android": "https://dc.lft.to/lastmile_qr_scan", "ios": "https://dc.lft.to/lastmile_qr_scan"}, "name": "50f6097e8d42567cf793ba0d79ec9c4d", "is_reserved": 0}, {"is_disabled": 0, "fusion_lon": 0.0, "fusion_lat": 0.0, "lat": 38.89241166666667, "type": "electric_scooter", "lon": -76.98832516666667, "bike_id": "1b4443cf5b123fc4b8007a15d62c7cca", "rental_uris": {"android": "https://dc.lft.to/lastmile_qr_scan", "ios": "https://dc.lft.to/lastmile_qr_scan"}, "name": "1b4443cf5b123fc4b8007a15d62c7cca", "is_reserved": 0}, {"is_disabled": 0, "fusion_lon": 0.0, "fusion_lat": 0.0, "lat": 38.913337166666665, "type": "electric_scooter", "lon": -77.032513, "bike_id": "316c7f280753f6fa8046bb2c773cbd88", "rental_uris": {"android": "https://dc.lft.to/lastmile_qr_scan", "ios": "https://dc.lft.to/lastmile_qr_scan"}, "name": "316c7f280753f6fa8046bb2c773cbd88", "is_reserved": 0}, {"is_disabled": 0, "fusion_lon": 0.0, "fusion_lat": 0.0, "lat": 38.91686716666667, "type": "electric_scooter", "lon": -77.036384, "bike_id": "38f5ffbee27692d93cb57b5f1fda5be8", "rental_uris": {"android": "https://dc.lft.to/lastmile_qr_scan", "ios": "https://dc.lft.to/lastmile_qr_scan"}, "name": "38f5ffbee27692d93cb57b5f1fda5be8", "is_reserved": 0}, {"is_disabled": 0, "fusion_lon": 0.0, "fusion_lat": 0.0, "lat": 38.9154395, "type": "electric_scooter", "lon": -77.03851816666666, "bike_id": "e3087a29b65befe349db62a6cdfb7323", "rental_uris": {"android": "https://dc.lft.to/lastmile_qr_scan", "ios": "https://dc.lft.to/lastmile_qr_scan"}, "name": "e3087a29b65befe349db62a6cdfb7323", "is_reserved": 0}, {"is_disabled": 0, "fusion_lon": 0.0, "fusion_lat": 0.0, "lat": 38.91889533333333, "type": "electric_scooter", "lon": -77.032138, "bike_id": "04255db8086051b47dbb1628eb88fa14", "rental_uris": {"android": "https://dc.lft.to/lastmile_qr_scan", "ios": "https://dc.lft.to/lastmile_qr_scan"}, "name": "04255db8086051b47dbb1628eb88fa14", "is_reserved": 0}, {"is_disabled": 0, "fusion_lon": 0.0, "fusion_lat": 0.0, "lat": 38.83116116666667, "type": "electric_bike", "lon": -77.0432635, "bike_id": "e74f949fc7c2d0308b0cd8800d78734a", "rental_uris": {"android": "https://dc.lft.to/lastmile_qr_scan", "ios": "https://dc.lft.to/lastmile_qr_scan"}, "name": "e74f949fc7c2d0308b0cd8800d78734a", "is_reserved": 0}, {"is_disabled": 0, "fusion_lon": 0.0, "fusion_lat": 0.0, "lat": 39.11503483333333, "type": "electric_bike", "lon": -77.19545633333334, "bike_id": "2e4fb12cb5d2a4755aa30f9ffff79e5e", "rental_uris": {"android": "https://dc.lft.to/lastmile_qr_scan", "ios": "https://dc.lft.to/lastmile_qr_scan"}, "name": "2e4fb12cb5d2a4755aa30f9ffff79e5e", "is_reserved": 0}, {"is_disabled": 0, "fusion_lon": 0.0, "fusion_lat": 0.0, "lat": 38.930414166666665, "type": "electric_scooter", "lon": -77.00415566666666, "bike_id": "a5e0326aecc27cf8bdfbe94b738cf597", "rental_uris": {"android": "https://dc.lft.to/lastmile_qr_scan", "ios": "https://dc.lft.to/lastmile_qr_scan"}, "name": "a5e0326aecc27cf8bdfbe94b738cf597", "is_reserved": 0}, {"is_disabled": 0, "fusion_lon": 0.0, "fusion_lat": 0.0, "lat": 38.992468, "type": "electric_bike", "lon": -77.049987, "bike_id": "7e5334a88f63b5a162d4d6bf0ba2ba73", "rental_uris": {"android": "https://dc.lft.to/lastmile_qr_scan", "ios": "https://dc.lft.to/lastmile_qr_scan"}, "name": "7e5334a88f63b5a162d4d6bf0ba2ba73", "is_reserved": 0}, {"is_disabled": 0, "fusion_lon": 0.0, "fusion_lat": 0.0, "lat": 38.838064333333335, "type": "electric_scooter", "lon": -77.004272, "bike_id": "b83e4ff8102cf727a7b35476c4259e77", "rental_uris": {"android": "https://dc.lft.to/lastmile_qr_scan", "ios": "https://dc.lft.to/lastmile_qr_scan"}, "name": "b83e4ff8102cf727a7b35476c4259e77", "is_reserved": 0}, {"is_disabled": 0, "fusion_lon": 0.0, "fusion_lat": 0.0, "lat": 38.857122, "type": "electric_bike", "lon": -76.9811205, "bike_id": "6e44a7c6d721964f994e19b73c175121", "rental_uris": {"android": "https://dc.lft.to/lastmile_qr_scan", "ios": "https://dc.lft.to/lastmile_qr_scan"}, "name": "6e44a7c6d721964f994e19b73c175121", "is_reserved": 0}, {"is_disabled": 0, "fusion_lon": 0.0, "fusion_lat": 0.0, "lat": 38.94307, "type": "electric_scooter", "lon": -77.023513, "bike_id": "8336f72028bb6f32752efd4b11ac3c3f", "rental_uris": {"android": "https://dc.lft.to/lastmile_qr_scan", "ios": "https://dc.lft.to/lastmile_qr_scan"}, "name": "8336f72028bb6f32752efd4b11ac3c3f", "is_reserved": 0}, {"is_disabled": 0, "fusion_lon": 0.0, "fusion_lat": 0.0, "lat": 38.99079916666667, "type": "electric_bike", "lon": -77.00176566666667, "bike_id": "4c52f018b65c03b63bac2afc02046cfc", "rental_uris": {"android": "https://dc.lft.to/lastmile_qr_scan", "ios": "https://dc.lft.to/lastmile_qr_scan"}, "name": "4c52f018b65c03b63bac2afc02046cfc", "is_reserved": 0}, {"is_disabled": 0, "fusion_lon": 0.0, "fusion_lat": 0.0, "lat": 38.920986666666664, "type": "electric_scooter", "lon": -77.031223, "bike_id": "48415d79b51e8fea250e593b08e4ed0a", "rental_uris": {"android": "https://dc.lft.to/lastmile_qr_scan", "ios": "https://dc.lft.to/lastmile_qr_scan"}, "name": "48415d79b51e8fea250e593b08e4ed0a", "is_reserved": 0}, {"is_disabled": 0, "fusion_lon": 0.0, "fusion_lat": 0.0, "lat": 38.91606733333333, "type": "electric_scooter", "lon": -77.0216555, "bike_id": "6237df0484b4a97993a38feab0e7d58b", "rental_uris": {"android": "https://dc.lft.to/lastmile_qr_scan", "ios": "https://dc.lft.to/lastmile_qr_scan"}, "name": "6237df0484b4a97993a38feab0e7d58b", "is_reserved": 0}, {"is_disabled": 0, "fusion_lon": 0.0, "fusion_lat": 0.0, "lat": 38.901092, "type": "electric_scooter", "lon": -77.04031233333333, "bike_id": "23a5d4cb263bd514bd092fda227e6b00", "rental_uris": {"android": "https://dc.lft.to/lastmile_qr_scan", "ios": "https://dc.lft.to/lastmile_qr_scan"}, "name": "23a5d4cb263bd514bd092fda227e6b00", "is_reserved": 0}, {"is_disabled": 0, "fusion_lon": 0.0, "fusion_lat": 0.0, "lat": 38.9504295, "type": "electric_scooter", "lon": -77.022927, "bike_id": "75f795d08c676c2ddc276d8592234d2c", "rental_uris": {"android": "https://dc.lft.to/lastmile_qr_scan", "ios": "https://dc.lft.to/lastmile_qr_scan"}, "name": "75f795d08c676c2ddc276d8592234d2c", "is_reserved": 0}, {"is_disabled": 0, "fusion_lon": 0.0, "fusion_lat": 0.0, "lat": 38.883478833333335, "type": "electric_scooter", "lon": -76.92783733333333, "bike_id": "6964c61832758bc319eda4315f449403", "rental_uris": {"android": "https://dc.lft.to/lastmile_qr_scan", "ios": "https://dc.lft.to/lastmile_qr_scan"}, "name": "6964c61832758bc319eda4315f449403", "is_reserved": 0}, {"is_disabled": 0, "fusion_lon": 0.0, "fusion_lat": 0.0, "lat": 38.90748083333333, "type": "electric_scooter", "lon": -77.046729, "bike_id": "340353a0e2bb432068bfe377a84a7207", "rental_uris": {"android": "https://dc.lft.to/lastmile_qr_scan", "ios": "https://dc.lft.to/lastmile_qr_scan"}, "name": "340353a0e2bb432068bfe377a84a7207", "is_reserved": 0}, {"is_disabled": 0, "fusion_lon": 0.0, "fusion_lat": 0.0, "lat": 38.92701866666667, "type": "electric_scooter", "lon": -76.972075, "bike_id": "c346f5c2ac585683cbc7fc66b0a3e0c5", "rental_uris": {"android": "https://dc.lft.to/lastmile_qr_scan", "ios": "https://dc.lft.to/lastmile_qr_scan"}, "name": "c346f5c2ac585683cbc7fc66b0a3e0c5", "is_reserved": 0}, {"is_disabled": 0, "fusion_lon": 0.0, "fusion_lat": 0.0, "lat": 38.91373183333333, "type": "electric_scooter", "lon": -77.02966416666666, "bike_id": "723e162b0d258df5e481d6ed9fe853c0", "rental_uris": {"android": "https://dc.lft.to/lastmile_qr_scan", "ios": "https://dc.lft.to/lastmile_qr_scan"}, "name": "723e162b0d258df5e481d6ed9fe853c0", "is_reserved": 0}, {"is_disabled": 0, "fusion_lon": 0.0, "fusion_lat": 0.0, "lat": 38.916865666666666, "type": "electric_scooter", "lon": -77.02594066666667, "bike_id": "59ed2e53fd1c636f39aa5c21d383a900", "rental_uris": {"android": "https://dc.lft.to/lastmile_qr_scan", "ios": "https://dc.lft.to/lastmile_qr_scan"}, "name": "59ed2e53fd1c636f39aa5c21d383a900", "is_reserved": 0}, {"is_disabled": 0, "fusion_lon": 0.0, "fusion_lat": 0.0, "lat": 38.89258266666667, "type": "electric_scooter", "lon": -76.94155816666667, "bike_id": "4dc80c2638c1a2bc69fec2fe1efd687b", "rental_uris": {"android": "https://dc.lft.to/lastmile_qr_scan", "ios": "https://dc.lft.to/lastmile_qr_scan"}, "name": "4dc80c2638c1a2bc69fec2fe1efd687b", "is_reserved": 0}, {"is_disabled": 0, "fusion_lon": 0.0, "fusion_lat": 0.0, "lat": 38.92462733333333, "type": "electric_scooter", "lon": -77.03955816666667, "bike_id": "fe6f8c0ca883dd22713b07ab842479d8", "rental_uris": {"android": "https://dc.lft.to/lastmile_qr_scan", "ios": "https://dc.lft.to/lastmile_qr_scan"}, "name": "fe6f8c0ca883dd22713b07ab842479d8", "is_reserved": 0}, {"is_disabled": 0, "fusion_lon": 0.0, "fusion_lat": 0.0, "lat": 38.906489, "type": "electric_scooter", "lon": -77.02528083333333, "bike_id": "fb88b643df2d808640a4830ec9712d6f", "rental_uris": {"android": "https://dc.lft.to/lastmile_qr_scan", "ios": "https://dc.lft.to/lastmile_qr_scan"}, "name": "fb88b643df2d808640a4830ec9712d6f", "is_reserved": 0}, {"is_disabled": 0, "fusion_lon": 0.0, "fusion_lat": 0.0, "lat": 38.86579716666667, "type": "electric_scooter", "lon": -76.98711483333334, "bike_id": "50f080f1baded3f1288d128fd2895763", "rental_uris": {"android": "https://dc.lft.to/lastmile_qr_scan", "ios": "https://dc.lft.to/lastmile_qr_scan"}, "name": "50f080f1baded3f1288d128fd2895763", "is_reserved": 0}, {"is_disabled": 0, "fusion_lon": 0.0, "fusion_lat": 0.0, "lat": 38.90270866666667, "type": "electric_scooter", "lon": -77.05395566666667, "bike_id": "1754a10b3695a843a21195feed8442c9", "rental_uris": {"android": "https://dc.lft.to/lastmile_qr_scan", "ios": "https://dc.lft.to/lastmile_qr_scan"}, "name": "1754a10b3695a843a21195feed8442c9", "is_reserved": 0}, {"is_disabled": 0, "fusion_lon": 0.0, "fusion_lat": 0.0, "lat": 38.916828, "type": "electric_scooter", "lon": -77.0282515, "bike_id": "bd9310b9ff3f2a1de8023970dc145128", "rental_uris": {"android": "https://dc.lft.to/lastmile_qr_scan", "ios": "https://dc.lft.to/lastmile_qr_scan"}, "name": "bd9310b9ff3f2a1de8023970dc145128", "is_reserved": 0}, {"is_disabled": 0, "fusion_lon": 0.0, "fusion_lat": 0.0, "lat": 38.965385, "type": "electric_bike", "lon": -76.97063883333334, "bike_id": "1b99899f872ce9d5d72e7fcb1fb59b4f", "rental_uris": {"android": "https://dc.lft.to/lastmile_qr_scan", "ios": "https://dc.lft.to/lastmile_qr_scan"}, "name": "1b99899f872ce9d5d72e7fcb1fb59b4f", "is_reserved": 0}, {"is_disabled": 0, "fusion_lon": 0.0, "fusion_lat": 0.0, "lat": 38.94973366666667, "type": "electric_scooter", "lon": -77.09433933333334, "bike_id": "e1104b6ca7377a901811c5973712cefb", "rental_uris": {"android": "https://dc.lft.to/lastmile_qr_scan", "ios": "https://dc.lft.to/lastmile_qr_scan"}, "name": "e1104b6ca7377a901811c5973712cefb", "is_reserved": 0}, {"is_disabled": 0, "fusion_lon": 0.0, "fusion_lat": 0.0, "lat": 38.933912666666664, "type": "electric_scooter", "lon": -77.045464, "bike_id": "c3587737f490fc1d038aeef0a1e92c6d", "rental_uris": {"android": "https://dc.lft.to/lastmile_qr_scan", "ios": "https://dc.lft.to/lastmile_qr_scan"}, "name": "c3587737f490fc1d038aeef0a1e92c6d", "is_reserved": 0}, {"is_disabled": 0, "fusion_lon": 0.0, "fusion_lat": 0.0, "lat": 38.94534616666667, "type": "electric_bike", "lon": -77.3446105, "bike_id": "60ddcf986bbd09610f4818ae7b4f99e5", "rental_uris": {"android": "https://dc.lft.to/lastmile_qr_scan", "ios": "https://dc.lft.to/lastmile_qr_scan"}, "name": "60ddcf986bbd09610f4818ae7b4f99e5", "is_reserved": 0}, {"is_disabled": 0, "fusion_lon": 0.0, "fusion_lat": 0.0, "lat": 38.87666316666667, "type": "electric_scooter", "lon": -76.93188983333333, "bike_id": "32d164aa54f81268ecdb37fa63b423c8", "rental_uris": {"android": "https://dc.lft.to/lastmile_qr_scan", "ios": "https://dc.lft.to/lastmile_qr_scan"}, "name": "32d164aa54f81268ecdb37fa63b423c8", "is_reserved": 0}, {"is_disabled": 0, "fusion_lon": 0.0, "fusion_lat": 0.0, "lat": 38.918603, "type": "electric_scooter", "lon": -77.04148066666667, "bike_id": "34b009941016103734a275f0d4a42359", "rental_uris": {"android": "https://dc.lft.to/lastmile_qr_scan", "ios": "https://dc.lft.to/lastmile_qr_scan"}, "name": "34b009941016103734a275f0d4a42359", "is_reserved": 0}, {"is_disabled": 0, "fusion_lon": 0.0, "fusion_lat": 0.0, "lat": 38.900140666666665, "type": "electric_scooter", "lon": -77.02388, "bike_id": "47f203ea877da585174be856b3c20cdf", "rental_uris": {"android": "https://dc.lft.to/lastmile_qr_scan", "ios": "https://dc.lft.to/lastmile_qr_scan"}, "name": "47f203ea877da585174be856b3c20cdf", "is_reserved": 0}, {"is_disabled": 0, "fusion_lon": 0.0, "fusion_lat": 0.0, "lat": 38.92222983333333, "type": "electric_scooter", "lon": -77.04240383333334, "bike_id": "cfe45d3048c71744397f067d6c329b21", "rental_uris": {"android": "https://dc.lft.to/lastmile_qr_scan", "ios": "https://dc.lft.to/lastmile_qr_scan"}, "name": "cfe45d3048c71744397f067d6c329b21", "is_reserved": 0}, {"is_disabled": 0, "fusion_lon": 0.0, "fusion_lat": 0.0, "lat": 38.87823316666667, "type": "electric_scooter", "lon": -76.96315883333334, "bike_id": "f012c821ef8492166a1b77eba898b537", "rental_uris": {"android": "https://dc.lft.to/lastmile_qr_scan", "ios": "https://dc.lft.to/lastmile_qr_scan"}, "name": "f012c821ef8492166a1b77eba898b537", "is_reserved": 0}, {"is_disabled": 0, "fusion_lon": 0.0, "fusion_lat": 0.0, "lat": 38.90718616666667, "type": "electric_scooter", "lon": -77.02976533333333, "bike_id": "90cfcda8143142f57435d706c72ddba1", "rental_uris": {"android": "https://dc.lft.to/lastmile_qr_scan", "ios": "https://dc.lft.to/lastmile_qr_scan"}, "name": "90cfcda8143142f57435d706c72ddba1", "is_reserved": 0}, {"is_disabled": 0, "fusion_lon": 0.0, "fusion_lat": 0.0, "lat": 38.87190783333333, "type": "electric_scooter", "lon": -76.97824283333334, "bike_id": "76aae947cea53fc4da24406a64d435a1", "rental_uris": {"android": "https://dc.lft.to/lastmile_qr_scan", "ios": "https://dc.lft.to/lastmile_qr_scan"}, "name": "76aae947cea53fc4da24406a64d435a1", "is_reserved": 0}, {"is_disabled": 0, "fusion_lon": 0.0, "fusion_lat": 0.0, "lat": 38.92434883333333, "type": "electric_bike", "lon": -76.90753050000001, "bike_id": "c87ae7278eb64189b9fdd87ecf8f7e72", "rental_uris": {"android": "https://dc.lft.to/lastmile_qr_scan", "ios": "https://dc.lft.to/lastmile_qr_scan"}, "name": "c87ae7278eb64189b9fdd87ecf8f7e72", "is_reserved": 0}, {"is_disabled": 0, "fusion_lon": 0.0, "fusion_lat": 0.0, "lat": 38.91830016666667, "type": "electric_scooter", "lon": -77.0451995, "bike_id": "7d55ae1d3dd7f78f88d20eda61447959", "rental_uris": {"android": "https://dc.lft.to/lastmile_qr_scan", "ios": "https://dc.lft.to/lastmile_qr_scan"}, "name": "7d55ae1d3dd7f78f88d20eda61447959", "is_reserved": 0}, {"is_disabled": 0, "fusion_lon": 0.0, "fusion_lat": 0.0, "lat": 38.8995165, "type": "electric_scooter", "lon": -77.05104416666667, "bike_id": "90da0196b98a364dcd1e0d1d1e6d8e29", "rental_uris": {"android": "https://dc.lft.to/lastmile_qr_scan", "ios": "https://dc.lft.to/lastmile_qr_scan"}, "name": "90da0196b98a364dcd1e0d1d1e6d8e29", "is_reserved": 0}, {"is_disabled": 0, "fusion_lon": 0.0, "fusion_lat": 0.0, "lat": 38.909290166666665, "type": "electric_scooter", "lon": -77.02813516666667, "bike_id": "6e0791d63322b11ffd8c649a65a0ff63", "rental_uris": {"android": "https://dc.lft.to/lastmile_qr_scan", "ios": "https://dc.lft.to/lastmile_qr_scan"}, "name": "6e0791d63322b11ffd8c649a65a0ff63", "is_reserved": 0}, {"is_disabled": 0, "fusion_lon": 0.0, "fusion_lat": 0.0, "lat": 38.907607666666664, "type": "electric_scooter", "lon": -77.03858866666667, "bike_id": "94bc5fc68e164e0ed93cc60f6b2e8b59", "rental_uris": {"android": "https://dc.lft.to/lastmile_qr_scan", "ios": "https://dc.lft.to/lastmile_qr_scan"}, "name": "94bc5fc68e164e0ed93cc60f6b2e8b59", "is_reserved": 0}, {"is_disabled": 0, "fusion_lon": 0.0, "fusion_lat": 0.0, "lat": 38.875399333333334, "type": "electric_scooter", "lon": -77.00534933333333, "bike_id": "a84abe88e27fc928f99ee60f8cf75d3b", "rental_uris": {"android": "https://dc.lft.to/lastmile_qr_scan", "ios": "https://dc.lft.to/lastmile_qr_scan"}, "name": "a84abe88e27fc928f99ee60f8cf75d3b", "is_reserved": 0}, {"is_disabled": 0, "fusion_lon": 0.0, "fusion_lat": 0.0, "lat": 38.961908, "type": "electric_scooter", "lon": -77.02780583333333, "bike_id": "1f4734a0c8a46f21b23f74a223fa0e0f", "rental_uris": {"android": "https://dc.lft.to/lastmile_qr_scan", "ios": "https://dc.lft.to/lastmile_qr_scan"}, "name": "1f4734a0c8a46f21b23f74a223fa0e0f", "is_reserved": 0}, {"is_disabled": 0, "fusion_lon": 0.0, "fusion_lat": 0.0, "lat": 38.88914316666666, "type": "electric_scooter", "lon": -76.98004633333333, "bike_id": "0b543bb100e8c9c35dbbe1c0e1aa2360", "rental_uris": {"android": "https://dc.lft.to/lastmile_qr_scan", "ios": "https://dc.lft.to/lastmile_qr_scan"}, "name": "0b543bb100e8c9c35dbbe1c0e1aa2360", "is_reserved": 0}, {"is_disabled": 0, "fusion_lon": 0.0, "fusion_lat": 0.0, "lat": 38.90589633333333, "type": "electric_scooter", "lon": -77.06912066666666, "bike_id": "7545f23302137ed911f8700439d097c6", "rental_uris": {"android": "https://dc.lft.to/lastmile_qr_scan", "ios": "https://dc.lft.to/lastmile_qr_scan"}, "name": "7545f23302137ed911f8700439d097c6", "is_reserved": 0}, {"is_disabled": 0, "fusion_lon": 0.0, "fusion_lat": 0.0, "lat": 38.89058333333333, "type": "electric_scooter", "lon": -77.03212083333334, "bike_id": "a0cf77058504bca6b42b7377d9fffd79", "rental_uris": {"android": "https://dc.lft.to/lastmile_qr_scan", "ios": "https://dc.lft.to/lastmile_qr_scan"}, "name": "a0cf77058504bca6b42b7377d9fffd79", "is_reserved": 0}, {"is_disabled": 0, "fusion_lon": 0.0, "fusion_lat": 0.0, "lat": 38.904146, "type": "electric_scooter", "lon": -77.06876516666667, "bike_id": "af88841bd4f4292b7d54f3017a515161", "rental_uris": {"android": "https://dc.lft.to/lastmile_qr_scan", "ios": "https://dc.lft.to/lastmile_qr_scan"}, "name": "af88841bd4f4292b7d54f3017a515161", "is_reserved": 0}, {"is_disabled": 0, "fusion_lon": 0.0, "fusion_lat": 0.0, "lat": 38.90792166666667, "type": "electric_scooter", "lon": -77.00138283333334, "bike_id": "b1e4419f8b9785354ffe692b344b83cb", "rental_uris": {"android": "https://dc.lft.to/lastmile_qr_scan", "ios": "https://dc.lft.to/lastmile_qr_scan"}, "name": "b1e4419f8b9785354ffe692b344b83cb", "is_reserved": 0}, {"is_disabled": 0, "fusion_lon": 0.0, "fusion_lat": 0.0, "lat": 38.916036, "type": "electric_scooter", "lon": -77.03119116666667, "bike_id": "d9f0d76401673ebd683352579e490ded", "rental_uris": {"android": "https://dc.lft.to/lastmile_qr_scan", "ios": "https://dc.lft.to/lastmile_qr_scan"}, "name": "d9f0d76401673ebd683352579e490ded", "is_reserved": 0}, {"is_disabled": 0, "fusion_lon": 0.0, "fusion_lat": 0.0, "lat": 38.904032666666666, "type": "electric_scooter", "lon": -77.02179133333334, "bike_id": "96f60a303f2bcb3792760abb259d425a", "rental_uris": {"android": "https://dc.lft.to/lastmile_qr_scan", "ios": "https://dc.lft.to/lastmile_qr_scan"}, "name": "96f60a303f2bcb3792760abb259d425a", "is_reserved": 0}, {"is_disabled": 0, "fusion_lon": 0.0, "fusion_lat": 0.0, "lat": 38.858009833333334, "type": "electric_scooter", "lon": -76.986557, "bike_id": "f967e581665d005c86989c99574d72ab", "rental_uris": {"android": "https://dc.lft.to/lastmile_qr_scan", "ios": "https://dc.lft.to/lastmile_qr_scan"}, "name": "f967e581665d005c86989c99574d72ab", "is_reserved": 0}, {"is_disabled": 0, "fusion_lon": 0.0, "fusion_lat": 0.0, "lat": 38.926013166666664, "type": "electric_scooter", "lon": -77.057012, "bike_id": "0d38ecd0bd35278e9a3b2cad75c54011", "rental_uris": {"android": "https://dc.lft.to/lastmile_qr_scan", "ios": "https://dc.lft.to/lastmile_qr_scan"}, "name": "0d38ecd0bd35278e9a3b2cad75c54011", "is_reserved": 0}, {"is_disabled": 0, "fusion_lon": 0.0, "fusion_lat": 0.0, "lat": 38.90678716666667, "type": "electric_scooter", "lon": -76.9799795, "bike_id": "f485ac0d7c156b614cca180549f43cdc", "rental_uris": {"android": "https://dc.lft.to/lastmile_qr_scan", "ios": "https://dc.lft.to/lastmile_qr_scan"}, "name": "f485ac0d7c156b614cca180549f43cdc", "is_reserved": 0}, {"is_disabled": 0, "fusion_lon": 0.0, "fusion_lat": 0.0, "lat": 38.91177616666667, "type": "electric_scooter", "lon": -77.03498816666666, "bike_id": "dd6b593b4611f8ff4651d9503adf940a", "rental_uris": {"android": "https://dc.lft.to/lastmile_qr_scan", "ios": "https://dc.lft.to/lastmile_qr_scan"}, "name": "dd6b593b4611f8ff4651d9503adf940a", "is_reserved": 0}, {"is_disabled": 0, "fusion_lon": 0.0, "fusion_lat": 0.0, "lat": 38.897160666666664, "type": "electric_scooter", "lon": -77.00799683333334, "bike_id": "343887b46e83df78216dff02c2907351", "rental_uris": {"android": "https://dc.lft.to/lastmile_qr_scan", "ios": "https://dc.lft.to/lastmile_qr_scan"}, "name": "343887b46e83df78216dff02c2907351", "is_reserved": 0}, {"is_disabled": 0, "fusion_lon": 0.0, "fusion_lat": 0.0, "lat": 38.93739816666667, "type": "electric_bike", "lon": -77.02437083333334, "bike_id": "bb0cd5ed0c2149c404784363508b661c", "rental_uris": {"android": "https://dc.lft.to/lastmile_qr_scan", "ios": "https://dc.lft.to/lastmile_qr_scan"}, "name": "bb0cd5ed0c2149c404784363508b661c", "is_reserved": 0}, {"is_disabled": 0, "fusion_lon": 0.0, "fusion_lat": 0.0, "lat": 38.922345166666666, "type": "electric_scooter", "lon": -77.0389485, "bike_id": "3bfe4c96e47a6e8c733552f5bed81b9f", "rental_uris": {"android": "https://dc.lft.to/lastmile_qr_scan", "ios": "https://dc.lft.to/lastmile_qr_scan"}, "name": "3bfe4c96e47a6e8c733552f5bed81b9f", "is_reserved": 0}, {"is_disabled": 0, "fusion_lon": 0.0, "fusion_lat": 0.0, "lat": 38.87915066666667, "type": "electric_scooter", "lon": -77.01733733333333, "bike_id": "dd77b1c5c5a9de1ac79fb47e004987f2", "rental_uris": {"android": "https://dc.lft.to/lastmile_qr_scan", "ios": "https://dc.lft.to/lastmile_qr_scan"}, "name": "dd77b1c5c5a9de1ac79fb47e004987f2", "is_reserved": 0}, {"is_disabled": 0, "fusion_lon": 0.0, "fusion_lat": 0.0, "lat": 38.90862283333333, "type": "electric_scooter", "lon": -77.03541266666667, "bike_id": "8ddaf773b671c9b5f988caeb6c8f1864", "rental_uris": {"android": "https://dc.lft.to/lastmile_qr_scan", "ios": "https://dc.lft.to/lastmile_qr_scan"}, "name": "8ddaf773b671c9b5f988caeb6c8f1864", "is_reserved": 0}, {"is_disabled": 0, "fusion_lon": 0.0, "fusion_lat": 0.0, "lat": 38.90137, "type": "electric_scooter", "lon": -77.0230565, "bike_id": "fc752669c5ca4f74478e6a6ba52599d2", "rental_uris": {"android": "https://dc.lft.to/lastmile_qr_scan", "ios": "https://dc.lft.to/lastmile_qr_scan"}, "name": "fc752669c5ca4f74478e6a6ba52599d2", "is_reserved": 0}, {"is_disabled": 0, "fusion_lon": 0.0, "fusion_lat": 0.0, "lat": 38.865179833333336, "type": "electric_scooter", "lon": -76.98966916666667, "bike_id": "54b601fb68d4660c76da16bba0eb17be", "rental_uris": {"android": "https://dc.lft.to/lastmile_qr_scan", "ios": "https://dc.lft.to/lastmile_qr_scan"}, "name": "54b601fb68d4660c76da16bba0eb17be", "is_reserved": 0}, {"is_disabled": 0, "fusion_lon": 0.0, "fusion_lat": 0.0, "lat": 38.941953166666664, "type": "electric_scooter", "lon": -77.02589716666667, "bike_id": "c377094b3f77d08a3b7d35b2fde713d5", "rental_uris": {"android": "https://dc.lft.to/lastmile_qr_scan", "ios": "https://dc.lft.to/lastmile_qr_scan"}, "name": "c377094b3f77d08a3b7d35b2fde713d5", "is_reserved": 0}, {"is_disabled": 0, "fusion_lon": 0.0, "fusion_lat": 0.0, "lat": 38.92393966666667, "type": "electric_scooter", "lon": -77.04074783333333, "bike_id": "329bc95693f3b5fd8ca5531b8cfedee2", "rental_uris": {"android": "https://dc.lft.to/lastmile_qr_scan", "ios": "https://dc.lft.to/lastmile_qr_scan"}, "name": "329bc95693f3b5fd8ca5531b8cfedee2", "is_reserved": 0}, {"is_disabled": 0, "fusion_lon": 0.0, "fusion_lat": 0.0, "lat": 38.94182166666667, "type": "electric_scooter", "lon": -77.0248705, "bike_id": "b4f4111f1a4bdfc06b22bc64790646de", "rental_uris": {"android": "https://dc.lft.to/lastmile_qr_scan", "ios": "https://dc.lft.to/lastmile_qr_scan"}, "name": "b4f4111f1a4bdfc06b22bc64790646de", "is_reserved": 0}, {"is_disabled": 0, "fusion_lon": 0.0, "fusion_lat": 0.0, "lat": 38.9595495, "type": "electric_bike", "lon": -77.02511716666666, "bike_id": "c12191df1ca3ed64bc6692dcb3e35915", "rental_uris": {"android": "https://dc.lft.to/lastmile_qr_scan", "ios": "https://dc.lft.to/lastmile_qr_scan"}, "name": "c12191df1ca3ed64bc6692dcb3e35915", "is_reserved": 0}, {"is_disabled": 0, "fusion_lon": 0.0, "fusion_lat": 0.0, "lat": 38.93944166666667, "type": "electric_scooter", "lon": -77.06086066666667, "bike_id": "b53486158683052a3f35cbaac2dac0e3", "rental_uris": {"android": "https://dc.lft.to/lastmile_qr_scan", "ios": "https://dc.lft.to/lastmile_qr_scan"}, "name": "b53486158683052a3f35cbaac2dac0e3", "is_reserved": 0}, {"is_disabled": 0, "fusion_lon": 0.0, "fusion_lat": 0.0, "lat": 38.876816, "type": "electric_scooter", "lon": -77.000684, "bike_id": "be39a0396bcec8a9d1df2156b1697f94", "rental_uris": {"android": "https://dc.lft.to/lastmile_qr_scan", "ios": "https://dc.lft.to/lastmile_qr_scan"}, "name": "be39a0396bcec8a9d1df2156b1697f94", "is_reserved": 0}, {"is_disabled": 0, "fusion_lon": 0.0, "fusion_lat": 0.0, "lat": 38.8952495, "type": "electric_scooter", "lon": -77.028152, "bike_id": "e57760e354973926888969d6155d1e25", "rental_uris": {"android": "https://dc.lft.to/lastmile_qr_scan", "ios": "https://dc.lft.to/lastmile_qr_scan"}, "name": "e57760e354973926888969d6155d1e25", "is_reserved": 0}, {"is_disabled": 0, "fusion_lon": 0.0, "fusion_lat": 0.0, "lat": 38.87727316666667, "type": "electric_scooter", "lon": -76.99630366666666, "bike_id": "54e8c7502b4b83f27b1c8f70541bfb9d", "rental_uris": {"android": "https://dc.lft.to/lastmile_qr_scan", "ios": "https://dc.lft.to/lastmile_qr_scan"}, "name": "54e8c7502b4b83f27b1c8f70541bfb9d", "is_reserved": 0}, {"is_disabled": 0, "fusion_lon": 0.0, "fusion_lat": 0.0, "lat": 38.9261645, "type": "electric_scooter", "lon": -77.041921, "bike_id": "f8b6b967c0e3e250d5901c640671d3e2", "rental_uris": {"android": "https://dc.lft.to/lastmile_qr_scan", "ios": "https://dc.lft.to/lastmile_qr_scan"}, "name": "f8b6b967c0e3e250d5901c640671d3e2", "is_reserved": 0}, {"is_disabled": 0, "fusion_lon": 0.0, "fusion_lat": 0.0, "lat": 38.904701, "type": "electric_scooter", "lon": -77.04868, "bike_id": "61bf4b93e5bcc4d79f4e33816602c4ee", "rental_uris": {"android": "https://dc.lft.to/lastmile_qr_scan", "ios": "https://dc.lft.to/lastmile_qr_scan"}, "name": "61bf4b93e5bcc4d79f4e33816602c4ee", "is_reserved": 0}, {"is_disabled": 0, "fusion_lon": 0.0, "fusion_lat": 0.0, "lat": 38.99669983333333, "type": "electric_bike", "lon": -76.99146583333334, "bike_id": "8b0fc6c7cb64a0b9c00bb890e508ce49", "rental_uris": {"android": "https://dc.lft.to/lastmile_qr_scan", "ios": "https://dc.lft.to/lastmile_qr_scan"}, "name": "8b0fc6c7cb64a0b9c00bb890e508ce49", "is_reserved": 0}, {"is_disabled": 0, "fusion_lon": 0.0, "fusion_lat": 0.0, "lat": 38.89829916666667, "type": "electric_scooter", "lon": -77.04351316666667, "bike_id": "9ed3d1b9c2fef53448ef57cd8849e65e", "rental_uris": {"android": "https://dc.lft.to/lastmile_qr_scan", "ios": "https://dc.lft.to/lastmile_qr_scan"}, "name": "9ed3d1b9c2fef53448ef57cd8849e65e", "is_reserved": 0}, {"is_disabled": 0, "fusion_lon": 0.0, "fusion_lat": 0.0, "lat": 38.944453333333335, "type": "electric_scooter", "lon": -77.06023866666666, "bike_id": "a1adbca269051c2638602fbcf26a01d0", "rental_uris": {"android": "https://dc.lft.to/lastmile_qr_scan", "ios": "https://dc.lft.to/lastmile_qr_scan"}, "name": "a1adbca269051c2638602fbcf26a01d0", "is_reserved": 0}, {"is_disabled": 0, "fusion_lon": 0.0, "fusion_lat": 0.0, "lat": 38.92149883333333, "type": "electric_scooter", "lon": -77.03502966666667, "bike_id": "2308da56d54ffb18358fba18be43df8c", "rental_uris": {"android": "https://dc.lft.to/lastmile_qr_scan", "ios": "https://dc.lft.to/lastmile_qr_scan"}, "name": "2308da56d54ffb18358fba18be43df8c", "is_reserved": 0}, {"is_disabled": 0, "fusion_lon": 0.0, "fusion_lat": 0.0, "lat": 38.913539666666665, "type": "electric_scooter", "lon": -77.0396345, "bike_id": "90e248d0b82b4d75a0a9154d7ad2c098", "rental_uris": {"android": "https://dc.lft.to/lastmile_qr_scan", "ios": "https://dc.lft.to/lastmile_qr_scan"}, "name": "90e248d0b82b4d75a0a9154d7ad2c098", "is_reserved": 0}, {"is_disabled": 0, "fusion_lon": 0.0, "fusion_lat": 0.0, "lat": 38.918937, "type": "electric_scooter", "lon": -77.04466983333333, "bike_id": "42c4cba1638c50ebf06238a2d5dbfe1b", "rental_uris": {"android": "https://dc.lft.to/lastmile_qr_scan", "ios": "https://dc.lft.to/lastmile_qr_scan"}, "name": "42c4cba1638c50ebf06238a2d5dbfe1b", "is_reserved": 0}, {"is_disabled": 0, "fusion_lon": 0.0, "fusion_lat": 0.0, "lat": 38.923707666666665, "type": "electric_scooter", "lon": -77.05034116666667, "bike_id": "acf9eadac5900747365bb86db81085cf", "rental_uris": {"android": "https://dc.lft.to/lastmile_qr_scan", "ios": "https://dc.lft.to/lastmile_qr_scan"}, "name": "acf9eadac5900747365bb86db81085cf", "is_reserved": 0}, {"is_disabled": 0, "fusion_lon": 0.0, "fusion_lat": 0.0, "lat": 38.9031375, "type": "electric_scooter", "lon": -77.0287755, "bike_id": "3f2ef56a883557b5a69f322372f104b6", "rental_uris": {"android": "https://dc.lft.to/lastmile_qr_scan", "ios": "https://dc.lft.to/lastmile_qr_scan"}, "name": "3f2ef56a883557b5a69f322372f104b6", "is_reserved": 0}, {"is_disabled": 0, "fusion_lon": 0.0, "fusion_lat": 0.0, "lat": 38.919922666666665, "type": "electric_scooter", "lon": -77.03203416666666, "bike_id": "f64e321c2cccbca6ac9b853607638ddf", "rental_uris": {"android": "https://dc.lft.to/lastmile_qr_scan", "ios": "https://dc.lft.to/lastmile_qr_scan"}, "name": "f64e321c2cccbca6ac9b853607638ddf", "is_reserved": 0}, {"is_disabled": 0, "fusion_lon": 0.0, "fusion_lat": 0.0, "lat": 38.909735833333336, "type": "electric_scooter", "lon": -77.03868733333333, "bike_id": "92c92c8843baa1ea08892a3ffc605892", "rental_uris": {"android": "https://dc.lft.to/lastmile_qr_scan", "ios": "https://dc.lft.to/lastmile_qr_scan"}, "name": "92c92c8843baa1ea08892a3ffc605892", "is_reserved": 0}, {"is_disabled": 0, "fusion_lon": 0.0, "fusion_lat": 0.0, "lat": 38.907285, "type": "electric_scooter", "lon": -77.00259583333333, "bike_id": "1a975e06508534ebba03469205dbb4eb", "rental_uris": {"android": "https://dc.lft.to/lastmile_qr_scan", "ios": "https://dc.lft.to/lastmile_qr_scan"}, "name": "1a975e06508534ebba03469205dbb4eb", "is_reserved": 0}, {"is_disabled": 0, "fusion_lon": 0.0, "fusion_lat": 0.0, "lat": 38.90438783333333, "type": "electric_scooter", "lon": -77.06114783333334, "bike_id": "9cc1a4c4dfba86cf63e0eee4f7dd6f48", "rental_uris": {"android": "https://dc.lft.to/lastmile_qr_scan", "ios": "https://dc.lft.to/lastmile_qr_scan"}, "name": "9cc1a4c4dfba86cf63e0eee4f7dd6f48", "is_reserved": 0}, {"is_disabled": 0, "fusion_lon": 0.0, "fusion_lat": 0.0, "lat": 38.932505166666665, "type": "electric_scooter", "lon": -77.03998483333334, "bike_id": "bddce63f7fd97b4e9ba754011eea2b61", "rental_uris": {"android": "https://dc.lft.to/lastmile_qr_scan", "ios": "https://dc.lft.to/lastmile_qr_scan"}, "name": "bddce63f7fd97b4e9ba754011eea2b61", "is_reserved": 0}, {"is_disabled": 0, "fusion_lon": 0.0, "fusion_lat": 0.0, "lat": 38.92303316666667, "type": "electric_scooter", "lon": -77.03103116666666, "bike_id": "4f32dcb29a7171c52806216d134e2c5f", "rental_uris": {"android": "https://dc.lft.to/lastmile_qr_scan", "ios": "https://dc.lft.to/lastmile_qr_scan"}, "name": "4f32dcb29a7171c52806216d134e2c5f", "is_reserved": 0}, {"is_disabled": 0, "fusion_lon": 0.0, "fusion_lat": 0.0, "lat": 38.90365333333333, "type": "electric_scooter", "lon": -77.02530633333333, "bike_id": "3e9c03b41f23c5254b2fc65b2d3277f4", "rental_uris": {"android": "https://dc.lft.to/lastmile_qr_scan", "ios": "https://dc.lft.to/lastmile_qr_scan"}, "name": "3e9c03b41f23c5254b2fc65b2d3277f4", "is_reserved": 0}, {"is_disabled": 0, "fusion_lon": 0.0, "fusion_lat": 0.0, "lat": 38.919236, "type": "electric_scooter", "lon": -77.03422833333333, "bike_id": "565736d936af7a84d4743b93cc96cfc5", "rental_uris": {"android": "https://dc.lft.to/lastmile_qr_scan", "ios": "https://dc.lft.to/lastmile_qr_scan"}, "name": "565736d936af7a84d4743b93cc96cfc5", "is_reserved": 0}, {"is_disabled": 0, "fusion_lon": 0.0, "fusion_lat": 0.0, "lat": 38.907377333333336, "type": "electric_scooter", "lon": -77.0416475, "bike_id": "c26d8bac0ea5a140d76395ae5209838c", "rental_uris": {"android": "https://dc.lft.to/lastmile_qr_scan", "ios": "https://dc.lft.to/lastmile_qr_scan"}, "name": "c26d8bac0ea5a140d76395ae5209838c", "is_reserved": 0}, {"is_disabled": 0, "fusion_lon": 0.0, "fusion_lat": 0.0, "lat": 38.965504, "type": "electric_bike", "lon": -77.02292666666666, "bike_id": "75aaa9ef4faee7f08d72a84d581387d0", "rental_uris": {"android": "https://dc.lft.to/lastmile_qr_scan", "ios": "https://dc.lft.to/lastmile_qr_scan"}, "name": "75aaa9ef4faee7f08d72a84d581387d0", "is_reserved": 0}, {"is_disabled": 0, "fusion_lon": 0.0, "fusion_lat": 0.0, "lat": 38.915103333333334, "type": "electric_scooter", "lon": -77.01839866666667, "bike_id": "d4822ba9702fb85c392b29c8aefc9ccc", "rental_uris": {"android": "https://dc.lft.to/lastmile_qr_scan", "ios": "https://dc.lft.to/lastmile_qr_scan"}, "name": "d4822ba9702fb85c392b29c8aefc9ccc", "is_reserved": 0}, {"is_disabled": 0, "fusion_lon": 0.0, "fusion_lat": 0.0, "lat": 38.8846915, "type": "electric_scooter", "lon": -77.01978166666666, "bike_id": "5e453cb7f6b9d00a244243594c7761ff", "rental_uris": {"android": "https://dc.lft.to/lastmile_qr_scan", "ios": "https://dc.lft.to/lastmile_qr_scan"}, "name": "5e453cb7f6b9d00a244243594c7761ff", "is_reserved": 0}, {"is_disabled": 0, "fusion_lon": 0.0, "fusion_lat": 0.0, "lat": 38.920317, "type": "electric_scooter", "lon": -77.02426916666667, "bike_id": "393bd6101e9ce2cea659c6947fe33d80", "rental_uris": {"android": "https://dc.lft.to/lastmile_qr_scan", "ios": "https://dc.lft.to/lastmile_qr_scan"}, "name": "393bd6101e9ce2cea659c6947fe33d80", "is_reserved": 0}, {"is_disabled": 0, "fusion_lon": 0.0, "fusion_lat": 0.0, "lat": 38.905609166666665, "type": "electric_bike", "lon": -77.00545216666667, "bike_id": "23a0cbef1bb8cc811b778e28c78ffea1", "rental_uris": {"android": "https://dc.lft.to/lastmile_qr_scan", "ios": "https://dc.lft.to/lastmile_qr_scan"}, "name": "23a0cbef1bb8cc811b778e28c78ffea1", "is_reserved": 0}, {"is_disabled": 0, "fusion_lon": 0.0, "fusion_lat": 0.0, "lat": 38.936597666666664, "type": "electric_scooter", "lon": -77.03259966666667, "bike_id": "5806b67a59fcfad1ee44647f56f2986e", "rental_uris": {"android": "https://dc.lft.to/lastmile_qr_scan", "ios": "https://dc.lft.to/lastmile_qr_scan"}, "name": "5806b67a59fcfad1ee44647f56f2986e", "is_reserved": 0}, {"is_disabled": 0, "fusion_lon": 0.0, "fusion_lat": 0.0, "lat": 38.90584233333333, "type": "electric_scooter", "lon": -77.03249766666667, "bike_id": "d1eb2b24dc7e56f719c10b5395976a49", "rental_uris": {"android": "https://dc.lft.to/lastmile_qr_scan", "ios": "https://dc.lft.to/lastmile_qr_scan"}, "name": "d1eb2b24dc7e56f719c10b5395976a49", "is_reserved": 0}, {"is_disabled": 0, "fusion_lon": 0.0, "fusion_lat": 0.0, "lat": 38.8984015, "type": "electric_scooter", "lon": -76.94635583333333, "bike_id": "e5f89707b187942152f40fadfcaa3420", "rental_uris": {"android": "https://dc.lft.to/lastmile_qr_scan", "ios": "https://dc.lft.to/lastmile_qr_scan"}, "name": "e5f89707b187942152f40fadfcaa3420", "is_reserved": 0}, {"is_disabled": 0, "fusion_lon": 0.0, "fusion_lat": 0.0, "lat": 38.931761, "type": "electric_scooter", "lon": -77.072545, "bike_id": "6b969bc65ae134082c0058b67bdf4844", "rental_uris": {"android": "https://dc.lft.to/lastmile_qr_scan", "ios": "https://dc.lft.to/lastmile_qr_scan"}, "name": "6b969bc65ae134082c0058b67bdf4844", "is_reserved": 0}, {"is_disabled": 0, "fusion_lon": 0.0, "fusion_lat": 0.0, "lat": 38.90819116666667, "type": "electric_scooter", "lon": -77.03191816666667, "bike_id": "0e6a881925d6c600442fc4f49718f02f", "rental_uris": {"android": "https://dc.lft.to/lastmile_qr_scan", "ios": "https://dc.lft.to/lastmile_qr_scan"}, "name": "0e6a881925d6c600442fc4f49718f02f", "is_reserved": 0}, {"is_disabled": 0, "fusion_lon": 0.0, "fusion_lat": 0.0, "lat": 38.89894733333333, "type": "electric_scooter", "lon": -77.05284733333333, "bike_id": "c6c3e0de1338dbe616bfc1a57861fdeb", "rental_uris": {"android": "https://dc.lft.to/lastmile_qr_scan", "ios": "https://dc.lft.to/lastmile_qr_scan"}, "name": "c6c3e0de1338dbe616bfc1a57861fdeb", "is_reserved": 0},