{"data": {"bikes": [{"is_disabled": 0, "fusion_lon": 0.0, "fusion_lat": 0.0, "lat": 38.910949, "type": "electric_scooter", "lon": -76.98469616666667, "bike_id": "27f096bf229f11763af10f19aa768912", "rental_uris": {"android": "https://dc.lft.to/lastmile_qr_scan", "ios": "https://dc.lft.to/lastmile_qr_scan"}, "name": "27f096bf229f11763af10f19aa768912", "is_reserved": 0}, {"is_disabled": 0, "fusion_lon": 0.0, "fusion_lat": 0.0, "lat": 38.95963833333333, "type": "electric_scooter", "lon": -77.02115166666667, "bike_id": "4424cf6465fefa7bdceaf4add27a09ff", "rental_uris": {"android": "https://dc.lft.to/lastmile_qr_scan", "ios": "https://dc.lft.to/lastmile_qr_scan"}, "name": "4424cf6465fefa7bdceaf4add27a09ff", "is_reserved": 0}, {"is_disabled": 0, "fusion_lon": 0.0, "fusion_lat": 0.0, "lat": 38.90761583333333, "type": "electric_scooter", "lon": -77.03582783333333, "bike_id": "2d0689e17d2921b975a3e499db931e6a", "rental_uris": {"android": "https://dc.lft.to/lastmile_qr_scan", "ios": "https://dc.lft.to/lastmile_qr_scan"}, "name": "2d0689e17d2921b975a3e499db931e6a", "is_reserved": 0}, {"is_disabled": 0, "fusion_lon": 0.0, "fusion_lat": 0.0, "lat": 38.846003, "type": "electric_bike", "lon": -76.96883233333334, "bike_id": "34982deaa70b2adcaf6c5fa4f3a55396", "rental_uris": {"android": "https://dc.lft.to/lastmile_qr_scan", "ios": "https://dc.lft.to/lastmile_qr_scan"}, "name": "34982deaa70b2adcaf6c5fa4f3a55396", "is_reserved": 0}, {"is_disabled": 0, "fusion_lon": 0.0, "fusion_lat": 0.0, "lat": 38.887455, "type": "electric_scooter", "lon": -77.01530433333333, "bike_id": "0aba091474bfbc9bd55ee3e414631e1e", "rental_uris": {"android": "https://dc.lft.to/lastmile_qr_scan", "ios": "https://dc.lft.to/lastmile_qr_scan"}, "name": "0aba091474bfbc9bd55ee3e414631e1e", "is_reserved": 0}, {"is_disabled": 0, "fusion_lon": 0.0, "fusion_lat": 0.0, "lat": 38.891958833333334, "type": "electric_scooter", "lon": -77.02242, "bike_id": "dce769fa7d6550d7ee4afa0052ad583d", "rental_uris": {"android": "https://dc.lft.to/lastmile_qr_scan", "ios": "https://dc.lft.to/lastmile_qr_scan"}, "name": "dce769fa7d6550d7ee4afa0052ad583d", "is_reserved": 0}, {"is_disabled": 0, "fusion_lon": 0.0, "fusion_lat": 0.0, "lat": 38.89509183333333, "type": "electric_scooter", "lon": -77.0160675, "bike_id": "e6e5d7f608a725fa2b4bd36fb7849182", "rental_uris": {"android": "https://dc.lft.to/lastmile_qr_scan", "ios": "https://dc.lft.to/lastmile_qr_scan"}, "name": "e6e5d7f608a725fa2b4bd36fb7849182", "is_reserved": 0}, {"is_disabled": 0, "fusion_lon": 0.0, "fusion_lat": 0.0, "lat": 38.921244333333334, "type": "electric_scooter", "lon": -77.01210783333333, "bike_id": "8580d2675576a32653275a0db529c19f", "rental_uris": {"android": "https://dc.lft.to/lastmile_qr_scan", "ios": "https://dc.lft.to/lastmile_qr_scan"}, "name": "8580d2675576a32653275a0db529c19f", "is_reserved": 0}, {"is_disabled": 0, "fusion_lon": 0.0, "fusion_lat": 0.0, "lat": 38.956324333333335, "type": "electric_scooter", "lon": -77.02978666666667, "bike_id": "d87a306311df8aed146d53fd1fb49ded", "rental_uris": {"android": "https://dc.lft.to/lastmile_qr_scan", "ios": "https://dc.lft.to/lastmile_qr_scan"}, "name": "d87a306311df8aed146d53fd1fb49ded", "is_reserved": 0}, {"is_disabled": 0, "fusion_lon": 0.0, "fusion_lat": 0.0, "lat": 38.927514333333335, "type": "electric_scooter", "lon": -77.07590316666666, "bike_id": "52af0c042983ac91a9e3d5ddb0cddc46", "rental_uris": {"android": "https://dc.lft.to/lastmile_qr_scan", "ios": "https://dc.lft.to/lastmile_qr_scan"}, "name": "52af0c042983ac91a9e3d5ddb0cddc46", "is_reserved": 0}, {"is_disabled": 0, "fusion_lon": 0.0, "fusion_lat": 0.0, "lat": 38.884078, "type": "electric_bike", "lon": -77.03084916666667, "bike_id": "59fd704e9f76bc5bbda5c8e2799cb4ea", "rental_uris": {"android": "https://dc.lft.to/lastmile_qr_scan", "ios": "https://dc.lft.to/lastmile_qr_scan"}, "name": "59fd704e9f76bc5bbda5c8e2799cb4ea", "is_reserved": 0}, {"is_disabled": 0, "fusion_lon": 0.0, "fusion_lat": 0.0, "lat": 38.90360883333334, "type": "electric_scooter", "lon": -77.0111865, "bike_id": "db276eba07a39821f836cd96124d7c96", "rental_uris": {"android": "https://dc.lft.to/lastmile_qr_scan", "ios": "https://dc.lft.to/lastmile_qr_scan"}, "name": "db276eba07a39821f836cd96124d7c96", "is_reserved": 0}, {"is_disabled": 0, "fusion_lon": 0.0, "fusion_lat": 0.0, "lat": 38.996774, "type": "electric_bike", "lon": -76.99138266666667, "bike_id": "1837d6aa318ee3cd94cc13fb3f6a6d25", "rental_uris": {"android": "https://dc.lft.to/lastmile_qr_scan", "ios": "https://dc.lft.to/lastmile_qr_scan"}, "name": "1837d6aa318ee3cd94cc13fb3f6a6d25", "is_reserved": 0}, {"is_disabled": 0, "fusion_lon": 0.0, "fusion_lat": 0.0, "lat": 38.944633333333336, "type": "electric_scooter", "lon": -77.06031166666666, "bike_id": "a53804b879f0b08b51dcc192771a8acc", "rental_uris": {"android": "https://dc.lft.to/lastmile_qr_scan", "ios": "https://dc.lft.to/lastmile_qr_scan"}, "name": "a53804b879f0b08b51dcc192771a8acc", "is_reserved": 0}, {"is_disabled": 0, "fusion_lon": 0.0, "fusion_lat": 0.0, "lat": 38.875821333333334, "type": "electric_scooter", "lon": -77.02081066666666, "bike_id": "c2b491e6cf01203110eefcb8349327a6", "rental_uris": {"android": "https://dc.lft.to/lastmile_qr_scan", "ios": "https://dc.lft.to/lastmile_qr_scan"}, "name": "c2b491e6cf01203110eefcb8349327a6", "is_reserved": 0}, {"is_disabled": 0, "fusion_lon": 0.0, "fusion_lat": 0.0, "lat": 38.92624983333333, "type": "electric_scooter", "lon": -77.04187833333333, "bike_id": "4fed8c284d69e5869044b2bd0d03f03c", "rental_uris": {"android": "https://dc.lft.to/lastmile_qr_scan", "ios": "https://dc.lft.to/lastmile_qr_scan"}, "name": "4fed8c284d69e5869044b2bd0d03f03c", "is_reserved": 0}, {"is_disabled": 0, "fusion_lon": 0.0, "fusion_lat": 0.0, "lat": 38.927240166666664, "type": "electric_scooter", "lon": -77.01598266666667, "bike_id": "393ef6bfe447345c3e2ddcc341ac4b29", "rental_uris": {"android": "https://dc.lft.to/lastmile_qr_scan", "ios": "https://dc.lft.to/lastmile_qr_scan"}, "name": "393ef6bfe447345c3e2ddcc341ac4b29", "is_reserved": 0}, {"is_disabled": 0, "fusion_lon": 0.0, "fusion_lat": 0.0, "lat": 38.90181116666667, "type": "electric_scooter", "lon": -77.04787633333333, "bike_id": "2fa7f82921f4180642688dc1d6e222af", "rental_uris": {"android": "https://dc.lft.to/lastmile_qr_scan", "ios": "https://dc.lft.to/lastmile_qr_scan"}, "name": "2fa7f82921f4180642688dc1d6e222af", "is_reserved": 0}, {"is_disabled": 0, "fusion_lon": 0.0, "fusion_lat": 0.0, "lat": 38.92658866666667, "type": "electric_scooter", "lon": -77.02277633333334, "bike_id": "825266fb654903494dcf84111c1fa977", "rental_uris": {"android": "https://dc.lft.to/lastmile_qr_scan", "ios": "https://dc.lft.to/lastmile_qr_scan"}, "name": "825266fb654903494dcf84111c1fa977", "is_reserved": 0}, {"is_disabled": 0, "fusion_lon": 0.0, "fusion_lat": 0.0, "lat": 38.9336385, "type": "electric_scooter", "lon": -77.0737135, "bike_id": "e05e685faab1b9c1aa0288fe7a202d28", "rental_uris": {"android": "https://dc.lft.to/lastmile_qr_scan", "ios": "https://dc.lft.to/lastmile_qr_scan"}, "name": "e05e685faab1b9c1aa0288fe7a202d28", "is_reserved": 0}, {"is_disabled": 0, "fusion_lon": 0.0, "fusion_lat": 0.0, "lat": 38.91127433333333, "type": "electric_scooter", "lon": -77.04183866666666, "bike_id": "db19481a22a19c8618cf3eda4d0319e0", "rental_uris": {"android": "https://dc.lft.to/lastmile_qr_scan", "ios": "https://dc.lft.to/lastmile_qr_scan"}, "name": "db19481a22a19c8618cf3eda4d0319e0", "is_reserved": 0}, {"is_disabled": 0, "fusion_lon": 0.0, "fusion_lat": 0.0, "lat": 38.8841725, "type": "electric_scooter", "lon": -76.95414383333333, "bike_id": "29c374dd82e7f6cdc0bd3cf080f8a6d4", "rental_uris": {"android": "https://dc.lft.to/lastmile_qr_scan", "ios": "https://dc.lft.to/lastmile_qr_scan"}, "name": "29c374dd82e7f6cdc0bd3cf080f8a6d4", "is_reserved": 0}, {"is_disabled": 0, "fusion_lon": 0.0, "fusion_lat": 0.0, "lat": 38.898596166666664, "type": "electric_scooter", "lon": -77.031976, "bike_id": "316ea83987ec3f1544b2c70784c37dd6", "rental_uris": {"android": "https://dc.lft.to/lastmile_qr_scan", "ios": "https://dc.lft.to/lastmile_qr_scan"}, "name": "316ea83987ec3f1544b2c70784c37dd6", "is_reserved": 0}, {"is_disabled": 0, "fusion_lon": 0.0, "fusion_lat": 0.0, "lat": 38.903685833333334, "type": "electric_scooter", "lon": -77.0422565, "bike_id": "8bfd97ac9215c35c14d51fe7af02fee8", "rental_uris": {"android": "https://dc.lft.to/lastmile_qr_scan", "ios": "https://dc.lft.to/lastmile_qr_scan"}, "name": "8bfd97ac9215c35c14d51fe7af02fee8", "is_reserved": 0}, {"is_disabled": 0, "fusion_lon": 0.0, "fusion_lat": 0.0, "lat": 38.91331016666667, "type": "electric_scooter", "lon": -77.03262766666667, "bike_id": "4c02e7f58e2be86c496a5b4f4e3f7081", "rental_uris": {"android": "https://dc.lft.to/lastmile_qr_scan", "ios": "https://dc.lft.to/lastmile_qr_scan"}, "name": "4c02e7f58e2be86c496a5b4f4e3f7081", "is_reserved": 0}, {"is_disabled": 0, "fusion_lon": 0.0, "fusion_lat": 0.0, "lat": 39.08849, "type": "electric_bike", "lon": -77.178013, "bike_id": "9205b5fb6f45b6ea1bd6c0f20b092bde", "rental_uris": {"android": "https://dc.lft.to/lastmile_qr_scan", "ios": "https://dc.lft.to/lastmile_qr_scan"}, "name": "9205b5fb6f45b6ea1bd6c0f20b092bde", "is_reserved": 0}, {"is_disabled": 0, "fusion_lon": 0.0, "fusion_lat": 0.0, "lat": 38.914826833333336, "type": "electric_scooter", "lon": -77.034677, "bike_id": "d20be2ac0ff8b5cbfc2e4403c56e9b7a", "rental_uris": {"android": "https://dc.lft.to/lastmile_qr_scan", "ios": "https://dc.lft.to/lastmile_qr_scan"}, "name": "d20be2ac0ff8b5cbfc2e4403c56e9b7a", "is_reserved": 0}, {"is_disabled": 0, "fusion_lon": 0.0, "fusion_lat": 0.0, "lat": 38.923671666666664, "type": "electric_scooter", "lon": -77.02802933333334, "bike_id": "49d05b15a34e9e00e785e9f2275d43db", "rental_uris": {"android": "https://dc.lft.to/lastmile_qr_scan", "ios": "https://dc.lft.to/lastmile_qr_scan"}, "name": "49d05b15a34e9e00e785e9f2275d43db", "is_reserved": 0}, {"is_disabled": 0, "fusion_lon": 0.0, "fusion_lat": 0.0, "lat": 38.892089666666664, "type": "electric_scooter", "lon": -76.98808416666667, "bike_id": "4a47b8604731579d1aa09839d6578b14", "rental_uris": {"android": "https://dc.lft.to/lastmile_qr_scan", "ios": "https://dc.lft.to/lastmile_qr_scan"}, "name": "4a47b8604731579d1aa09839d6578b14", "is_reserved": 0}, {"is_disabled": 0, "fusion_lon": 0.0, "fusion_lat": 0.0, "lat": 38.897357, "type": "electric_scooter", "lon": -77.0100465, "bike_id": "a00269d37f85f06390a7a6332123f4b2", "rental_uris": {"android": "https://dc.lft.to/lastmile_qr_scan", "ios": "https://dc.lft.to/lastmile_qr_scan"}, "name": "a00269d37f85f06390a7a6332123f4b2", "is_reserved": 0}, {"is_disabled": 0, "fusion_lon": 0.0, "fusion_lat": 0.0, "lat": 38.93471666666667, "type": "electric_scooter", "lon": -77.06880016666666, "bike_id": "49d2b783de9f4967e74d33a82b8f7f20", "rental_uris": {"android": "https://dc.lft.to/lastmile_qr_scan", "ios": "https://dc.lft.to/lastmile_qr_scan"}, "name": "49d2b783de9f4967e74d33a82b8f7f20", "is_reserved": 0}, {"is_disabled": 0, "fusion_lon": 0.0, "fusion_lat": 0.0, "lat": 38.90244633333333, "type": "electric_scooter", "lon": -77.0598935, "bike_id": "fc5863f8a7664eeba98832bb03047cbf", "rental_uris": {"android": "https://dc.lft.to/lastmile_qr_scan", "ios": "https://dc.lft.to/lastmile_qr_scan"}, "name": "fc5863f8a7664eeba98832bb03047cbf", "is_reserved": 0}, {"is_disabled": 0, "fusion_lon": 0.0, "fusion_lat": 0.0, "lat": 38.97261966666667, "type": "electric_bike", "lon": -76.99169033333334, "bike_id": "ad7c4ce484c6d8bc84b94ca000ba75aa", "rental_uris": {"android": "https://dc.lft.to/lastmile_qr_scan", "ios": "https://dc.lft.to/lastmile_qr_scan"}, "name": "ad7c4ce484c6d8bc84b94ca000ba75aa", "is_reserved": 0}, {"is_disabled": 0, "fusion_lon": 0.0, "fusion_lat": 0.0, "lat": 38.91802833333333, "type": "electric_scooter", "lon": -77.0344685, "bike_id": "b0fe3756e9d0f57282eb499d319c622a", "rental_uris": {"android": "https://dc.lft.to/lastmile_qr_scan", "ios": "https://dc.lft.to/lastmile_qr_scan"}, "name": "b0fe3756e9d0f57282eb499d319c622a", "is_reserved": 0}, {"is_disabled": 0, "fusion_lon": 0.0, "fusion_lat": 0.0, "lat": 38.93228916666666, "type": "electric_scooter", "lon": -76.99487983333333, "bike_id": "1a608efc72d35d28efa92a01d2c38c74", "rental_uris": {"android": "https://dc.lft.to/lastmile_qr_scan", "ios": "https://dc.lft.to/lastmile_qr_scan"}, "name": "1a608efc72d35d28efa92a01d2c38c74", "is_reserved": 0}, {"is_disabled": 0, "fusion_lon": 0.0, "fusion_lat": 0.0, "lat": 38.917698, "type": "electric_scooter", "lon": -77.02807716666666, "bike_id": "00e9133483611f6660d6ec0897113286", "rental_uris": {"android": "https://dc.lft.to/lastmile_qr_scan", "ios": "https://dc.lft.to/lastmile_qr_scan"}, "name": "00e9133483611f6660d6ec0897113286", "is_reserved": 0}, {"is_disabled": 0, "fusion_lon": 0.0, "fusion_lat": 0.0, "lat": 38.90560466666667, "type": "electric_scooter", "lon": -77.04559066666667, "bike_id": "5afb01b9e1223d8ffbab032e6dd9631c", "rental_uris": {"android": "https://dc.lft.to/lastmile_qr_scan", "ios": "https://dc.lft.to/lastmile_qr_scan"}, "name": "5afb01b9e1223d8ffbab032e6dd9631c", "is_reserved": 0}, {"is_disabled": 0, "fusion_lon": 0.0, "fusion_lat": 0.0, "lat": 38.8393975, "type": "electric_bike", "lon": -77.07897166666666, "bike_id": "37ec2bd8d6841a6e237852edb20b0d96", "rental_uris": {"android": "https://dc.lft.to/lastmile_qr_scan", "ios": "https://dc.lft.to/lastmile_qr_scan"}, "name": "37ec2bd8d6841a6e237852edb20b0d96", "is_reserved": 0}, {"is_disabled": 0, "fusion_lon": 0.0, "fusion_lat": 0.0, "lat": 38.81274116666667, "type": "electric_bike", "lon": -77.06168383333333, "bike_id": "01b9a443d3046556d657a13dda750c1c", "rental_uris": {"android": "https://dc.lft.to/lastmile_qr_scan", "ios": "https://dc.lft.to/lastmile_qr_scan"}, "name": "01b9a443d3046556d657a13dda750c1c", "is_reserved": 0}, {"is_disabled": 0, "fusion_lon": 0.0, "fusion_lat": 0.0, "lat": 38.960563, "type": "electric_scooter", "lon": -77.08571166666667, "bike_id": "8c2b20a764be17ce485abfa32d83d417", "rental_uris": {"android": "https://dc.lft.to/lastmile_qr_scan", "ios": "https://dc.lft.to/lastmile_qr_scan"}, "name": "8c2b20a764be17ce485abfa32d83d417", "is_reserved": 0}, {"is_disabled": 0, "fusion_lon": 0.0, "fusion_lat": 0.0, "lat": 38.89331516666667, "type": "electric_scooter", "lon": -77.02126133333333, "bike_id": "afa903efc19aefd668bc0c485b46601e", "rental_uris": {"android": "https://dc.lft.to/lastmile_qr_scan", "ios": "https://dc.lft.to/lastmile_qr_scan"}, "name": "afa903efc19aefd668bc0c485b46601e", "is_reserved": 0}, {"is_disabled": 0, "fusion_lon": 0.0, "fusion_lat": 0.0, "lat": 39.02302133333333, "type": "electric_bike", "lon": -77.02104266666667, "bike_id": "f6106eece73aba1b80a9885e631f1eef", "rental_uris": {"android": "https://dc.lft.to/lastmile_qr_scan", "ios": "https://dc.lft.to/lastmile_qr_scan"}, "name": "f6106eece73aba1b80a9885e631f1eef", "is_reserved": 0}, {"is_disabled": 0, "fusion_lon": 0.0, "fusion_lat": 0.0, "lat": 38.905178, "type": "electric_scooter", "lon": -77.0662975, "bike_id": "88c54a86431574355cb02fc72281185d", "rental_uris": {"android": "https://dc.lft.to/lastmile_qr_scan", "ios": "https://dc.lft.to/lastmile_qr_scan"}, "name": "88c54a86431574355cb02fc72281185d", "is_reserved": 0}, {"is_disabled": 0, "fusion_lon": 0.0, "fusion_lat": 0.0, "lat": 38.931543833333336, "type": "electric_scooter", "lon": -77.04141833333334, "bike_id": "5f82879db86de966b74cb98cedcf83a6", "rental_uris": {"android": "https://dc.lft.to/lastmile_qr_scan", "ios": "https://dc.lft.to/lastmile_qr_scan"}, "name": "5f82879db86de966b74cb98cedcf83a6", "is_reserved": 0}, {"is_disabled": 0, "fusion_lon": 0.0, "fusion_lat": 0.0, "lat": 38.8955745, "type": "electric_scooter", "lon": -76.94873683333333, "bike_id": "225efb8a0ddfd36c0d7d396f341b5309", "rental_uris": {"android": "https://dc.lft.to/lastmile_qr_scan", "ios": "https://dc.lft.to/lastmile_qr_scan"}, "name": "225efb8a0ddfd36c0d7d396f341b5309", "is_reserved": 0}, {"is_disabled": 0, "fusion_lon": 0.0, "fusion_lat": 0.0, "lat": 38.908720833333334, "type": "electric_scooter", "lon": -77.03008066666666, "bike_id": "750633e6a5a1ac2b32a76b37fdd12d06", "rental_uris": {"android": "https://dc.lft.to/lastmile_qr_scan", "ios": "https://dc.lft.to/lastmile_qr_scan"}, "name": "750633e6a5a1ac2b32a76b37fdd12d06", "is_reserved": 0}, {"is_disabled": 0, "fusion_lon": 0.0, "fusion_lat": 0.0, "lat": 38.865279, "type": "electric_scooter", "lon": -76.98965983333333, "bike_id": "38821eabcded88e927f94f78b0a5a5c3", "rental_uris": {"android": "https://dc.lft.to/lastmile_qr_scan", "ios": "https://dc.lft.to/lastmile_qr_scan"}, "name": "38821eabcded88e927f94f78b0a5a5c3", "is_reserved": 0}, {"is_disabled": 0, "fusion_lon": 0.0, "fusion_lat": 0.0, "lat": 38.89844633333333, "type": "electric_scooter", "lon": -76.9449585, "bike_id": "67920396c1cfa7ff0939d692a2d4a1a0", "rental_uris": {"android": "https://dc.lft.to/lastmile_qr_scan", "ios": "https://dc.lft.to/lastmile_qr_scan"}, "name": "67920396c1cfa7ff0939d692a2d4a1a0", "is_reserved": 0}, {"is_disabled": 0, "fusion_lon": 0.0, "fusion_lat": 0.0, "lat": 38.906056666666665, "type": "electric_scooter", "lon": -77.0162395, "bike_id": "67a632e063bedb5f5a900d58467d00a4", "rental_uris": {"android": "https://dc.lft.to/lastmile_qr_scan", "ios": "https://dc.lft.to/lastmile_qr_scan"}, "name": "67a632e063bedb5f5a900d58467d00a4", "is_reserved": 0}, {"is_disabled": 0, "fusion_lon": 0.0, "fusion_lat": 0.0, "lat": 38.913463166666666, "type": "electric_scooter", "lon": -77.03184183333333, "bike_id": "c4228cf544777323b2fea51fb34b3de0", "rental_uris": {"android": "https://dc.lft.to/lastmile_qr_scan", "ios": "https://dc.lft.to/lastmile_qr_scan"}, "name": "c4228cf544777323b2fea51fb34b3de0", "is_reserved": 0}, {"is_disabled": 0, "fusion_lon": 0.0, "fusion_lat": 0.0, "lat": 38.87642366666667, "type": "electric_scooter", "lon": -77.00810816666667, "bike_id": "8c9e56af82868ba20d4e8ce749243d87", "rental_uris": {"android": "https://dc.lft.to/lastmile_qr_scan", "ios": "https://dc.lft.to/lastmile_qr_scan"}, "name": "8c9e56af82868ba20d4e8ce749243d87", "is_reserved": 0}, {"is_disabled": 0, "fusion_lon": 0.0, "fusion_lat": 0.0, "lat": 38.953156, "type": "electric_scooter", "lon": -77.03597816666667, "bike_id": "cfc922df97199d5392072e0c932265b0", "rental_uris": {"android": "https://dc.lft.to/lastmile_qr_scan", "ios": "https://dc.lft.to/lastmile_qr_scan"}, "name": "cfc922df97199d5392072e0c932265b0", "is_reserved": 0}, {"is_disabled": 0, "fusion_lon": 0.0, "fusion_lat": 0.0, "lat": 38.903173833333334, "type": "electric_scooter", "lon": -77.01939716666666, "bike_id": "80eef740bace6caef27f2eceef8c4406", "rental_uris": {"android": "https://dc.lft.to/lastmile_qr_scan", "ios": "https://dc.lft.to/lastmile_qr_scan"}, "name": "80eef740bace6caef27f2eceef8c4406", "is_reserved": 0}, {"is_disabled": 0, "fusion_lon": 0.0, "fusion_lat": 0.0, "lat": 38.882377166666664, "type": "electric_bike", "lon": -77.1127715, "bike_id": "c9b9517eea3317a791384ecef04d52ac", "rental_uris": {"android": "https://dc.lft.to/lastmile_qr_scan", "ios": "https://dc.lft.to/lastmile_qr_scan"}, "name": "c9b9517eea3317a791384ecef04d52ac", "is_reserved": 0}, {"is_disabled": 0, "fusion_lon": 0.0, "fusion_lat": 0.0, "lat": 38.90829683333333, "type": "electric_scooter", "lon": -77.04182216666666, "bike_id": "c856f115f987a5e66ef5c821b458c370", "rental_uris": {"android": "https://dc.lft.to/lastmile_qr_scan", "ios": "https://dc.lft.to/lastmile_qr_scan"}, "name": "c856f115f987a5e66ef5c821b458c370", "is_reserved": 0}, {"is_disabled": 0, "fusion_lon": 0.0, "fusion_lat": 0.0, "lat": 38.921074, "type": "electric_scooter", "lon": -77.03049133333333, "bike_id": "7e9fc73eecc8322e2fc20e3590795fbd", "rental_uris": {"android": "https://dc.lft.to/lastmile_qr_scan", "ios": "https://dc.lft.to/lastmile_qr_scan"}, "name": "7e9fc73eecc8322e2fc20e3590795fbd", "is_reserved": 0}, {"is_disabled": 0, "fusion_lon": 0.0, "fusion_lat": 0.0, "lat": 38.900748666666665, "type": "electric_scooter", "lon": -77.0132545, "bike_id": "5b4f8ba20b7a1bee0a778c485fe06488", "rental_uris": {"android": "https://dc.lft.to/lastmile_qr_scan", "ios": "https://dc.lft.to/lastmile_qr_scan"}, "name": "5b4f8ba20b7a1bee0a778c485fe06488", "is_reserved": 0}, {"is_disabled": 0, "fusion_lon": 0.0, "fusion_lat": 0.0, "lat": 38.9314605, "type": "electric_scooter", "lon": -77.03451316666667, "bike_id": "c4a74f4eb45054eee25176b180a1bb08", "rental_uris": {"android": "https://dc.lft.to/lastmile_qr_scan", "ios": "https://dc.lft.to/lastmile_qr_scan"}, "name": "c4a74f4eb45054eee25176b180a1bb08", "is_reserved": 0}, {"is_disabled": 0, "fusion_lon": 0.0, "fusion_lat": 0.0, "lat": 38.909689166666666, "type": "electric_scooter", "lon": -77.0807765, "bike_id": "584e1f4b383860467609e1232f025336", "rental_uris": {"android": "https://dc.lft.to/lastmile_qr_scan", "ios": "https://dc.lft.to/lastmile_qr_scan"}, "name": "584e1f4b383860467609e1232f025336", "is_reserved": 0}, {"is_disabled": 0, "fusion_lon": 0.0, "fusion_lat": 0.0, "lat": 38.93103933333333, "type": "electric_scooter", "lon": -77.03835816666667, "bike_id": "d63db2fc2dbcf7f5659e6366cf52a9c0", "rental_uris": {"android": "https://dc.lft.to/lastmile_qr_scan", "ios": "https://dc.lft.to/lastmile_qr_scan"}, "name": "d63db2fc2dbcf7f5659e6366cf52a9c0", "is_reserved": 0}, {"is_disabled": 0, "fusion_lon": 0.0, "fusion_lat": 0.0, "lat": 38.90452466666667, "type": "electric_scooter", "lon": -77.0289555, "bike_id": "7ac0bc018541eb445d1977fa79dcb04d", "rental_uris": {"android": "https://dc.lft.to/lastmile_qr_scan", "ios": "https://dc.lft.to/lastmile_qr_scan"}, "name": "7ac0bc018541eb445d1977fa79dcb04d", "is_reserved": 0}, {"is_disabled": 0, "fusion_lon": 0.0, "fusion_lat": 0.0, "lat": 38.89827983333333, "type": "electric_scooter", "lon": -76.94652433333333, "bike_id": "ff7140c2224d98728e92da645568e7b2", "rental_uris": {"android": "https://dc.lft.to/lastmile_qr_scan", "ios": "https://dc.lft.to/lastmile_qr_scan"}, "name": "ff7140c2224d98728e92da645568e7b2", "is_reserved": 0}, {"is_disabled": 0, "fusion_lon": 0.0, "fusion_lat": 0.0, "lat": 38.886569, "type": "electric_scooter", "lon": -77.02829183333333, "bike_id": "1bd7c9ab8c94146f775f8336e8217018", "rental_uris": {"android": "https://dc.lft.to/lastmile_qr_scan", "ios": "https://dc.lft.to/lastmile_qr_scan"}, "name": "1bd7c9ab8c94146f775f8336e8217018", "is_reserved": 0}, {"is_disabled": 0, "fusion_lon": 0.0, "fusion_lat": 0.0, "lat": 38.9109615, "type": "electric_scooter", "lon": -77.03859366666667, "bike_id": "cd8e4e4ff642c88f6e3e4b773fb9fbbd", "rental_uris": {"android": "https://dc.lft.to/lastmile_qr_scan", "ios": "https://dc.lft.to/lastmile_qr_scan"}, "name": "cd8e4e4ff642c88f6e3e4b773fb9fbbd", "is_reserved": 0}, {"is_disabled": 0, "fusion_lon": 0.0, "fusion_lat": 0.0, "lat": 38.93197033333333, "type": "electric_bike", "lon": -77.229375, "bike_id": "3fa47991a605522a70d5821eb4e95c93", "rental_uris": {"android": "https://dc.lft.to/lastmile_qr_scan", "ios": "https://dc.lft.to/lastmile_qr_scan"}, "name": "3fa47991a605522a70d5821eb4e95c93", "is_reserved": 0}, {"is_disabled": 0, "fusion_lon": 0.0, "fusion_lat": 0.0, "lat": 38.92056266666667, "type": "electric_scooter", "lon": -76.998758, "bike_id": "40f151f8041df35902fbdf84726d89ca", "rental_uris": {"android": "https://dc.lft.to/lastmile_qr_scan", "ios": "https://dc.lft.to/lastmile_qr_scan"}, "name": "40f151f8041df35902fbdf84726d89ca", "is_reserved": 0}, {"is_disabled": 0, "fusion_lon": 0.0, "fusion_lat": 0.0, "lat": 38.87179033333334, "type": "electric_scooter", "lon": -77.006215, "bike_id": "044e80078c25680a5d5841f39397aa52", "rental_uris": {"android": "https://dc.lft.to/lastmile_qr_scan", "ios": "https://dc.lft.to/lastmile_qr_scan"}, "name": "044e80078c25680a5d5841f39397aa52", "is_reserved": 0}, {"is_disabled": 0, "fusion_lon": 0.0, "fusion_lat": 0.0, "lat": 38.8995935, "type": "electric_scooter", "lon": -77.0513785, "bike_id": "9ca41ebe9641daa1958d6cd6d50cc770", "rental_uris": {"android": "https://dc.lft.to/lastmile_qr_scan", "ios": "https://dc.lft.to/lastmile_qr_scan"}, "name": "9ca41ebe9641daa1958d6cd6d50cc770", "is_reserved": 0}, {"is_disabled": 0, "fusion_lon": 0.0, "fusion_lat": 0.0, "lat": 38.917631166666666, "type": "electric_scooter", "lon": -77.035859, "bike_id": "bad0f4424edf66a76f1e61c1049e4959", "rental_uris": {"android": "https://dc.lft.to/lastmile_qr_scan", "ios": "https://dc.lft.to/lastmile_qr_scan"}, "name": "bad0f4424edf66a76f1e61c1049e4959", "is_reserved": 0}, {"is_disabled": 0, "fusion_lon": 0.0, "fusion_lat": 0.0, "lat": 38.950811, "type": "electric_scooter", "lon": -77.02873783333334, "bike_id": "a4ee9647369f1a160d653056a51789c1", "rental_uris": {"android": "https://dc.lft.to/lastmile_qr_scan", "ios": "https://dc.lft.to/lastmile_qr_scan"}, "name": "a4ee9647369f1a160d653056a51789c1", "is_reserved": 0}, {"is_disabled": 0, "fusion_lon": 0.0, "fusion_lat": 0.0, "lat": 38.992584, "type": "electric_bike", "lon": -77.04995916666667, "bike_id": "0d571cc0318295564693a61c824b9d6a", "rental_uris": {"android": "https://dc.lft.to/lastmile_qr_scan", "ios": "https://dc.lft.to/lastmile_qr_scan"}, "name": "0d571cc0318295564693a61c824b9d6a", "is_reserved": 0}, {"is_disabled": 0, "fusion_lon": 0.0, "fusion_lat": 0.0, "lat": 38.919379666666664, "type": "electric_bike", "lon": -76.97500966666666, "bike_id": "d82b4553b024c43fa656ebc58123b3ed", "rental_uris": {"android": "https://dc.lft.to/lastmile_qr_scan", "ios": "https://dc.lft.to/lastmile_qr_scan"}, "name": "d82b4553b024c43fa656ebc58123b3ed", "is_reserved": 0}, {"is_disabled": 0, "fusion_lon": 0.0, "fusion_lat": 0.0, "lat": 38.81027733333333, "type": "electric_bike", "lon": -77.0843915, "bike_id": "9d6fa7d594e58da1a93a4bc2d2311c6b", "rental_uris": {"android": "https://dc.lft.to/lastmile_qr_scan", "ios": "https://dc.lft.to/lastmile_qr_scan"}, "name": "9d6fa7d594e58da1a93a4bc2d2311c6b", "is_reserved": 0}, {"is_disabled": 0, "fusion_lon": 0.0, "fusion_lat": 0.0, "lat": 38.90244233333333, "type": "electric_scooter", "lon": -77.05994116666666, "bike_id": "fc837a01c1a5e468c1fc5aa0e56b4278", "rental_uris": {"android": "https://dc.lft.to/lastmile_qr_scan", "ios": "https://dc.lft.to/lastmile_qr_scan"}, "name": "fc837a01c1a5e468c1fc5aa0e56b4278", "is_reserved": 0}, {"is_disabled": 0, "fusion_lon": 0.0, "fusion_lat": 0.0, "lat": 38.9048445, "type": "electric_scooter", "lon": -77.03249616666666, "bike_id": "80119d1388d273d8da3f57bceedd92a5", "rental_uris": {"android": "https://dc.lft.to/lastmile_qr_scan", "ios": "https://dc.lft.to/lastmile_qr_scan"}, "name": "80119d1388d273d8da3f57bceedd92a5", "is_reserved": 0}, {"is_disabled": 0, "fusion_lon": 0.0, "fusion_lat": 0.0, "lat": 38.943092166666666, "type": "electric_scooter", "lon": -77.02758116666666, "bike_id": "71e1001ebaeb3e7747b964a44053a57f", "rental_uris": {"android": "https://dc.lft.to/lastmile_qr_scan", "ios": "https://dc.lft.to/lastmile_qr_scan"}, "name": "71e1001ebaeb3e7747b964a44053a57f", "is_reserved": 0}, {"is_disabled": 0, "fusion_lon": 0.0, "fusion_lat": 0.0, "lat": 38.9002705, "type": "electric_scooter", "lon": -77.033288, "bike_id": "b1876089dea3370ff5855b4bc3fb46e1", "rental_uris": {"android": "https://dc.lft.to/lastmile_qr_scan", "ios": "https://dc.lft.to/lastmile_qr_scan"}, "name": "b1876089dea3370ff5855b4bc3fb46e1", "is_reserved": 0}, {"is_disabled": 0, "fusion_lon": 0.0, "fusion_lat": 0.0, "lat": 38.90904066666667, "type": "electric_scooter", "lon": -77.04569366666666, "bike_id": "a4a1c478576ee2eb3826aadb4156892f", "rental_uris": {"android": "https://dc.lft.to/lastmile_qr_scan", "ios": "https://dc.lft.to/lastmile_qr_scan"}, "name": "a4a1c478576ee2eb3826aadb4156892f", "is_reserved": 0}, {"is_disabled": 0, "fusion_lon": 0.0, "fusion_lat": 0.0, "lat": 38.9049115, "type": "electric_scooter", "lon": -77.05131133333333, "bike_id": "917e6691e4dba24bf4288c93b90ee697", "rental_uris": {"android": "https://dc.lft.to/lastmile_qr_scan", "ios": "https://dc.lft.to/lastmile_qr_scan"}, "name": "917e6691e4dba24bf4288c93b90ee697", "is_reserved": 0}, {"is_disabled": 0, "fusion_lon": 0.0, "fusion_lat": 0.0, "lat": 38.92334866666667, "type": "electric_scooter", "lon": -77.04184933333333, "bike_id": "39cd43356f5beb5e02e5773ac9a19485", "rental_uris": {"android": "https://dc.lft.to/lastmile_qr_scan", "ios": "https://dc.lft.to/lastmile_qr_scan"}, "name": "39cd43356f5beb5e02e5773ac9a19485", "is_reserved": 0}, {"is_disabled": 0, "fusion_lon": 0.0, "fusion_lat": 0.0, "lat": 38.99066233333333, "type": "electric_bike", "lon": -77.10028866666667, "bike_id": "b493b4501078326daf0c61e1d7e9f5d6", "rental_uris": {"android": "https://dc.lft.to/lastmile_qr_scan", "ios": "https://dc.lft.to/lastmile_qr_scan"}, "name": "b493b4501078326daf0c61e1d7e9f5d6", "is_reserved": 0}, {"is_disabled": 0, "fusion_lon": 0.0, "fusion_lat": 0.0, "lat": 38.990906833333334, "type": "electric_bike", "lon": -76.87494416666667, "bike_id": "94e20d594c3152da3fffaa813e8de66f", "rental_uris": {"android": "https://dc.lft.to/lastmile_qr_scan", "ios": "https://dc.lft.to/lastmile_qr_scan"}, "name": "94e20d594c3152da3fffaa813e8de66f", "is_reserved": 0}, {"is_disabled": 0, "fusion_lon": 0.0, "fusion_lat": 0.0, "lat": 38.907334, "type": "electric_scooter", "lon": -77.04076616666667, "bike_id": "b0deed0d9fc8ec32c7ed64d21ed4de87", "rental_uris": {"android": "https://dc.lft.to/lastmile_qr_scan", "ios": "https://dc.lft.to/lastmile_qr_scan"}, "name": "b0deed0d9fc8ec32c7ed64d21ed4de87", "is_reserved": 0}, {"is_disabled": 0, "fusion_lon": 0.0, "fusion_lat": 0.0, "lat": 38.905348000000004, "type": "electric_scooter", "lon": -77.065266, "bike_id": "8a22db149886903ef838e92d89413d63", "rental_uris": {"android": "https://dc.lft.to/lastmile_qr_scan", "ios": "https://dc.lft.to/lastmile_qr_scan"}, "name": "8a22db149886903ef838e92d89413d63", "is_reserved": 0}, {"is_disabled": 0, "fusion_lon": 0.0, "fusion_lat": 0.0, "lat": 38.8749315, "type": "electric_bike", "lon": -77.04901816666667, "bike_id": "4c39da078a4e200738e4397cd7bb612a", "rental_uris": {"android": "https://dc.lft.to/lastmile_qr_scan", "ios": "https://dc.lft.to/lastmile_qr_scan"}, "name": "4c39da078a4e200738e4397cd7bb612a", "is_reserved": 0}, {"is_disabled": 0, "fusion_lon": 0.0, "fusion_lat": 0.0, "lat": 38.93305383333333, "type": "electric_scooter", "lon": -77.02141016666667, "bike_id": "c679c337c105d1e0e7512af75daa658a", "rental_uris": {"android": "https://dc.lft.to/lastmile_qr_scan", "ios": "https://dc.lft.to/lastmile_qr_scan"}, "name": "c679c337c105d1e0e7512af75daa658a", "is_reserved": 0}, {"is_disabled": 0, "fusion_lon": 0.0, "fusion_lat": 0.0, "lat": 38.962146833333335, "type": "electric_scooter", "lon": -77.028052, "bike_id": "d37fce718cead2b288ecea20fe8198c7", "rental_uris": {"android": "https://dc.lft.to/lastmile_qr_scan", "ios": "https://dc.lft.to/lastmile_qr_scan"}, "name": "d37fce718cead2b288ecea20fe8198c7", "is_reserved": 0}, {"is_disabled": 0, "fusion_lon": 0.0, "fusion_lat": 0.0, "lat": 38.86361933333333, "type": "electric_scooter", "lon": -76.9907135, "bike_id": "b15a7c20a8a042452d5184c93afcecbf", "rental_uris": {"android": "https://dc.lft.to/lastmile_qr_scan", "ios": "https://dc.lft.to/lastmile_qr_scan"}, "name": "b15a7c20a8a042452d5184c93afcecbf", "is_reserved": 0}, {"is_disabled": 0, "fusion_lon": 0.0, "fusion_lat": 0.0, "lat": 38.9286955, "type": "electric_scooter", "lon": -77.01405816666667, "bike_id": "955396b4b27a93b4069f8de7cc925b0e", "rental_uris": {"android": "https://dc.lft.to/lastmile_qr_scan", "ios": "https://dc.lft.to/lastmile_qr_scan"}, "name": "955396b4b27a93b4069f8de7cc925b0e", "is_reserved": 0}, {"is_disabled": 0, "fusion_lon": 0.0, "fusion_lat": 0.0, "lat": 38.89957733333333, "type": "electric_scooter", "lon": -77.05141233333333, "bike_id": "87b7efd9d969dbeecdeb934539cd4081", "rental_uris": {"android": "https://dc.lft.to/lastmile_qr_scan", "ios": "https://dc.lft.to/lastmile_qr_scan"}, "name": "87b7efd9d969dbeecdeb934539cd4081", "is_reserved": 0}, {"is_disabled": 0, "fusion_lon": 0.0, "fusion_lat": 0.0, "lat": 38.93782133333333, "type": "electric_scooter", "lon": -77.02304483333333, "bike_id": "af0078c5f2a8daaaf7a43fe9d3e7a5a9", "rental_uris": {"android": "https://dc.lft.to/lastmile_qr_scan", "ios": "https://dc.lft.to/lastmile_qr_scan"}, "name": "af0078c5f2a8daaaf7a43fe9d3e7a5a9", "is_reserved": 0}, {"is_disabled": 0, "fusion_lon": 0.0, "fusion_lat": 0.0, "lat": 39.115074166666666, "type": "electric_bike", "lon": -77.1954695, "bike_id": "460811ad8a350ea2653892400c188a68", "rental_uris": {"android": "https://dc.lft.to/lastmile_qr_scan", "ios": "https://dc.lft.to/lastmile_qr_scan"}, "name": "460811ad8a350ea2653892400c188a68", "is_reserved": 0}, {"is_disabled": 0, "fusion_lon": 0.0, "fusion_lat": 0.0, "lat": 38.93049366666666, "type": "electric_scooter", "lon": -77.00413833333333, "bike_id": "8bc8c0899e203dda380083ea71036be0", "rental_uris": {"android": "https://dc.lft.to/lastmile_qr_scan", "ios": "https://dc.lft.to/lastmile_qr_scan"}, "name": "8bc8c0899e203dda380083ea71036be0", "is_reserved": 0}, {"is_disabled": 0, "fusion_lon": 0.0, "fusion_lat": 0.0, "lat": 38.83811266666667, "type": "electric_scooter", "lon": -77.00434416666667, "bike_id": "3eba965b40d5a4fa1fbca52e8d6efc50", "rental_uris": {"android": "https://dc.lft.to/lastmile_qr_scan", "ios": "https://dc.lft.to/lastmile_qr_scan"}, "name": "3eba965b40d5a4fa1fbca52e8d6efc50", "is_reserved": 0}, {"is_disabled": 0, "fusion_lon": 0.0, "fusion_lat": 0.0, "lat": 38.85720633333333, "type": "electric_bike", "lon": -76.98112449999999, "bike_id": "64d66159f0000aed6974cad879219161", "rental_uris": {"android": "https://dc.lft.to/lastmile_qr_scan", "ios": "https://dc.lft.to/lastmile_qr_scan"}, "name": "64d66159f0000aed6974cad879219161", "is_reserved": 0}, {"is_disabled": 0, "fusion_lon": 0.0, "fusion_lat": 0.0, "lat": 38.99259266666667, "type": "electric_bike", "lon": -77.04996116666666, "bike_id": "bd7e5a96d94991148680df0b6aa82d91", "rental_uris": {"android": "https://dc.lft.to/lastmile_qr_scan", "ios": "https://dc.lft.to/lastmile_qr_scan"}, "name": "bd7e5a96d94991148680df0b6aa82d91", "is_reserved": 0}, {"is_disabled": 0, "fusion_lon": 0.0, "fusion_lat": 0.0, "lat": 38.9430235, "type": "electric_scooter", "lon": -77.02356133333333, "bike_id": "5a74436a60fac5e74d8ec9fe0f167a66", "rental_uris": {"android": "https://dc.lft.to/lastmile_qr_scan", "ios": "https://dc.lft.to/lastmile_qr_scan"}, "name": "5a74436a60fac5e74d8ec9fe0f167a66", "is_reserved": 0}, {"is_disabled": 0, "fusion_lon": 0.0, "fusion_lat": 0.0, "lat": 38.938856666666666, "type": "electric_scooter", "lon": -77.03324333333333, "bike_id": "6ac6c3d5508d97760512fee77935481d", "rental_uris": {"android": "https://dc.lft.to/lastmile_qr_scan", "ios": "https://dc.lft.to/lastmile_qr_scan"}, "name": "6ac6c3d5508d97760512fee77935481d", "is_reserved": 0}, {"is_disabled": 0, "fusion_lon": 0.0, "fusion_lat": 0.0, "lat": 38.904857666666665, "type": "electric_scooter", "lon": -77.04860416666666, "bike_id": "5a1a63f6995dae276046e8b4e318c4df", "rental_uris": {"android": "https://dc.lft.to/lastmile_qr_scan", "ios": "https://dc.lft.to/lastmile_qr_scan"}, "name": "5a1a63f6995dae276046e8b4e318c4df", "is_reserved": 0}, {"is_disabled": 0, "fusion_lon": 0.0, "fusion_lat": 0.0, "lat": 38.9053915, "type": "electric_scooter", "lon": -77.04901666666666, "bike_id": "b99db9dddd9545ef550c7811f0067fb6", "rental_uris": {"android": "https://dc.lft.to/lastmile_qr_scan", "ios": "https://dc.lft.to/lastmile_qr_scan"}, "name": "b99db9dddd9545ef550c7811f0067fb6", "is_reserved": 0}, {"is_disabled": 0, "fusion_lon": 0.0, "fusion_lat": 0.0, "lat": 38.9332475, "type": "electric_scooter", "lon": -77.029286, "bike_id": "b30938aacacaf5052def3bf898274958", "rental_uris": {"android": "https://dc.lft.to/lastmile_qr_scan", "ios": "https://dc.lft.to/lastmile_qr_scan"}, "name": "b30938aacacaf5052def3bf898274958", "is_reserved": 0}, {"is_disabled": 0, "fusion_lon": 0.0, "fusion_lat": 0.0, "lat": 38.907333, "type": "electric_scooter", "lon": -77.040089, "bike_id": "9c354a0aed6d02aa13697fde0a8d6364", "rental_uris": {"android": "https://dc.lft.to/lastmile_qr_scan", "ios": "https://dc.lft.to/lastmile_qr_scan"}, "name": "9c354a0aed6d02aa13697fde0a8d6364", "is_reserved": 0}, {"is_disabled": 0, "fusion_lon": 0.0, "fusion_lat": 0.0, "lat": 38.9736835, "type": "electric_scooter", "lon": -77.018506, "bike_id": "9349a4b4195f806f6d4ff6608d5e0134", "rental_uris": {"android": "https://dc.lft.to/lastmile_qr_scan", "ios": "https://dc.lft.to/lastmile_qr_scan"}, "name": "9349a4b4195f806f6d4ff6608d5e0134", "is_reserved": 0}, {"is_disabled": 0, "fusion_lon": 0.0, "fusion_lat": 0.0, "lat": 38.91990466666667, "type": "electric_scooter", "lon": -76.97325966666666, "bike_id": "be51c9ca32734e4cfb829ba14188ca19", "rental_uris": {"android": "https://dc.lft.to/lastmile_qr_scan", "ios": "https://dc.lft.to/lastmile_qr_scan"}, "name": "be51c9ca32734e4cfb829ba14188ca19", "is_reserved": 0}, {"is_disabled": 0, "fusion_lon": 0.0, "fusion_lat": 0.0, "lat": 38.94202266666667, "type": "electric_scooter", "lon": -77.0257555, "bike_id": "fc7e79a136e2e1b8805954d083c38831", "rental_uris": {"android": "https://dc.lft.to/lastmile_qr_scan", "ios": "https://dc.lft.to/lastmile_qr_scan"}, "name": "fc7e79a136e2e1b8805954d083c38831", "is_reserved": 0}, {"is_disabled": 0, "fusion_lon": 0.0, "fusion_lat": 0.0, "lat": 38.892394333333336, "type": "electric_scooter", "lon": -77.04673, "bike_id": "a01bf51cfff44d414bb33234f6fd9512", "rental_uris": {"android": "https://dc.lft.to/lastmile_qr_scan", "ios": "https://dc.lft.to/lastmile_qr_scan"}, "name": "a01bf51cfff44d414bb33234f6fd9512", "is_reserved": 0}, {"is_disabled": 0, "fusion_lon": 0.0, "fusion_lat": 0.0, "lat": 38.94981833333333, "type": "electric_scooter", "lon": -77.067594, "bike_id": "ec887264062f36f8df59d3f0fc00e70b", "rental_uris": {"android": "https://dc.lft.to/lastmile_qr_scan", "ios": "https://dc.lft.to/lastmile_qr_scan"}, "name": "ec887264062f36f8df59d3f0fc00e70b", "is_reserved": 0}, {"is_disabled": 0, "fusion_lon": 0.0, "fusion_lat": 0.0, "lat": 39.000062666666665, "type": "electric_bike", "lon": -76.91803616666667, "bike_id": "46e6129f81179ba087227b231aa40439", "rental_uris": {"android": "https://dc.lft.to/lastmile_qr_scan", "ios": "https://dc.lft.to/lastmile_qr_scan"}, "name": "46e6129f81179ba087227b231aa40439", "is_reserved": 0}, {"is_disabled": 0, "fusion_lon": 0.0, "fusion_lat": 0.0, "lat": 38.935332833333334, "type": "electric_scooter", "lon": -77.02068683333333, "bike_id": "1c6d1d4f622272bf3c973b6706f339f7", "rental_uris": {"android": "https://dc.lft.to/lastmile_qr_scan", "ios": "https://dc.lft.to/lastmile_qr_scan"}, "name": "1c6d1d4f622272bf3c973b6706f339f7", "is_reserved": 0}, {"is_disabled": 0, "fusion_lon": 0.0, "fusion_lat": 0.0, "lat": 38.93466216666667, "type": "electric_scooter", "lon": -77.07299316666666, "bike_id": "bbd3b92bcd633618d834586a7922ac42", "rental_uris": {"android": "https://dc.lft.to/lastmile_qr_scan", "ios": "https://dc.lft.to/lastmile_qr_scan"}, "name": "bbd3b92bcd633618d834586a7922ac42", "is_reserved": 0}, {"is_disabled": 0, "fusion_lon": 0.0, "fusion_lat": 0.0, "lat": 38.874405, "type": "electric_bike", "lon": -77.008978, "bike_id": "72478d1c0c1949bff91538313ac6f0d1", "rental_uris": {"android": "https://dc.lft.to/lastmile_qr_scan", "ios": "https://dc.lft.to/lastmile_qr_scan"}, "name": "72478d1c0c1949bff91538313ac6f0d1", "is_reserved": 0}, {"is_disabled": 0, "fusion_lon": 0.0, "fusion_lat": 0.0, "lat": 38.908672333333335, "type": "electric_scooter", "lon": -77.03208366666667, "bike_id": "54c97e4d9596505a0ee00727b628a842", "rental_uris": {"android": "https://dc.lft.to/lastmile_qr_scan", "ios": "https://dc.lft.to/lastmile_qr_scan"}, "name": "54c97e4d9596505a0ee00727b628a842", "is_reserved": 0}, {"is_disabled": 0, "fusion_lon": 0.0, "fusion_lat": 0.0, "lat": 38.905853, "type": "electric_scooter", "lon": -77.048912, "bike_id": "6c761e3f1c4a131b7215ad8b22681dc7", "rental_uris": {"android": "https://dc.lft.to/lastmile_qr_scan", "ios": "https://dc.lft.to/lastmile_qr_scan"}, "name": "6c761e3f1c4a131b7215ad8b22681dc7", "is_reserved": 0}, {"is_disabled": 0, "fusion_lon": 0.0, "fusion_lat": 0.0, "lat": 38.920240666666665, "type": "electric_scooter", "lon": -77.01871366666667, "bike_id": "7f57541aab717feca589cbbd0475faba", "rental_uris": {"android": "https://dc.lft.to/lastmile_qr_scan", "ios": "https://dc.lft.to/lastmile_qr_scan"}, "name": "7f57541aab717feca589cbbd0475faba", "is_reserved": 0}, {"is_disabled": 0, "fusion_lon": 0.0, "fusion_lat": 0.0, "lat": 38.863557666666665, "type": "electric_scooter", "lon": -76.99057133333334, "bike_id": "99022a6b840af1cfc93515cba79af55f", "rental_uris": {"android": "https://dc.lft.to/lastmile_qr_scan", "ios": "https://dc.lft.to/lastmile_qr_scan"}, "name": "99022a6b840af1cfc93515cba79af55f", "is_reserved": 0}, {"is_disabled": 0, "fusion_lon": 0.0, "fusion_lat": 0.0, "lat": 38.913462, "type": "electric_scooter", "lon": -77.04863466666667, "bike_id": "ca9642ac2e630bf059efc3f01ae43aab", "rental_uris": {"android": "https://dc.lft.to/lastmile_qr_scan", "ios": "https://dc.lft.to/lastmile_qr_scan"}, "name": "ca9642ac2e630bf059efc3f01ae43aab", "is_reserved": 0}, {"is_disabled": 0, "fusion_lon": 0.0, "fusion_lat": 0.0, "lat": 38.828787166666665, "type": "electric_bike", "lon": -77.11218816666667, "bike_id": "62bfe58a6a0baf1a086d79db95e4a862", "rental_uris": {"android": "https://dc.lft.to/lastmile_qr_scan", "ios": "https://dc.lft.to/lastmile_qr_scan"}, "name": "62bfe58a6a0baf1a086d79db95e4a862", "is_reserved": 0}, {"is_disabled": 0, "fusion_lon": 0.0, "fusion_lat": 0.0, "lat": 38.92825766666667, "type": "electric_scooter", "lon": -77.0371015, "bike_id": "4c6fe4fbd1f3024dba2d2afc119a44cc", "rental_uris": {"android": "https://dc.lft.to/lastmile_qr_scan", "ios": "https://dc.lft.to/lastmile_qr_scan"}, "name": "4c6fe4fbd1f3024dba2d2afc119a44cc", "is_reserved": 0}, {"is_disabled": 0, "fusion_lon": 0.0, "fusion_lat": 0.0, "lat": 38.83319916666667, "type": "electric_scooter", "lon": -77.000053, "bike_id": "d5c331e2708d0fdf96ec2d05615a9892", "rental_uris": {"android": "https://dc.lft.to/lastmile_qr_scan", "ios": "https://dc.lft.to/lastmile_qr_scan"}, "name": "d5c331e2708d0fdf96ec2d05615a9892", "is_reserved": 0}, {"is_disabled": 0, "fusion_lon": 0.0, "fusion_lat": 0.0, "lat": 38.955560166666665, "type": "electric_bike", "lon": -76.93546866666667, "bike_id": "60285c4fe152e0668a0f564018758f47", "rental_uris": {"android": "https://dc.lft.to/lastmile_qr_scan", "ios": "https://dc.lft.to/lastmile_qr_scan"}, "name": "60285c4fe152e0668a0f564018758f47", "is_reserved": 0}, {"is_disabled": 0, "fusion_lon": 0.0, "fusion_lat": 0.0, "lat": 38.83196133333333, "type": "electric_bike", "lon": -77.07680866666666, "bike_id": "c5fd5bc25a03c91721fa4cf609dbe013", "rental_uris": {"android": "https://dc.lft.to/lastmile_qr_scan", "ios": "https://dc.lft.to/lastmile_qr_scan"}, "name": "c5fd5bc25a03c91721fa4cf609dbe013", "is_reserved": 0}, {"is_disabled": 0, "fusion_lon": 0.0, "fusion_lat": 0.0, "lat": 38.91705316666667, "type": "electric_scooter", "lon": -77.0243835, "bike_id": "34977be0579ae6b2bdefc48cd7e80cd8", "rental_uris": {"android": "https://dc.lft.to/lastmile_qr_scan", "ios": "https://dc.lft.to/lastmile_qr_scan"}, "name": "34977be0579ae6b2bdefc48cd7e80cd8", "is_reserved": 0}, {"is_disabled": 0, "fusion_lon": 0.0, "fusion_lat": 0.0, "lat": 38.886843999999996, "type": "electric_scooter", "lon": -77.001918, "bike_id": "094d87fa20528ca73d105dd59c199fa7", "rental_uris": {"android": "https://dc.lft.to/lastmile_qr_scan", "ios": "https://dc.lft.to/lastmile_qr_scan"}, "name": "094d87fa20528ca73d105dd59c199fa7", "is_reserved": 0}, {"is_disabled": 0, "fusion_lon": 0.0, "fusion_lat": 0.0, "lat": 38.926, "type": "electric_scooter", "lon": -77.05524483333333, "bike_id": "9d95bbd7eb80eda0c562f6694456c304", "rental_uris": {"android": "https://dc.lft.to/lastmile_qr_scan", "ios": "https://dc.lft.to/lastmile_qr_scan"}, "name": "9d95bbd7eb80eda0c562f6694456c304", "is_reserved": 0}, {"is_disabled": 0, "fusion_lon": 0.0, "fusion_lat": 0.0, "lat": 38.87479483333333, "type": "electric_scooter", "lon": -77.010688, "bike_id": "d01904ad9ab1da81f9dd7f60f450b935", "rental_uris": {"android": "https://dc.lft.to/lastmile_qr_scan", "ios": "https://dc.lft.to/lastmile_qr_scan"}, "name": "d01904ad9ab1da81f9dd7f60f450b935", "is_reserved": 0}, {"is_disabled": 0, "fusion_lon": 0.0, "fusion_lat": 0.0, "lat": 38.95176933333333, "type": "electric_scooter", "lon": -77.05650316666667, "bike_id": "f5c3be80ac8fa1393cf86563f4e713b7", "rental_uris": {"android": "https://dc.lft.to/lastmile_qr_scan", "ios": "https://dc.lft.to/lastmile_qr_scan"}, "name": "f5c3be80ac8fa1393cf86563f4e713b7", "is_reserved": 0}, {"is_disabled": 0, "fusion_lon": 0.0, "fusion_lat": 0.0, "lat": 38.902881666666666, "type": "electric_scooter", "lon": -77.02421016666666, "bike_id": "82cd9b945ed5c585027f9d941da23334", "rental_uris": {"android": "https://dc.lft.to/lastmile_qr_scan", "ios": "https://dc.lft.to/lastmile_qr_scan"}, "name": "82cd9b945ed5c585027f9d941da23334", "is_reserved": 0}, {"is_disabled": 0, "fusion_lon": 0.0, "fusion_lat": 0.0, "lat": 38.9782915, "type": "electric_bike", "lon": -76.92881633333333, "bike_id": "c4e8756ff7befd1a4d3181247639535e", "rental_uris": {"android": "https://dc.lft.to/lastmile_qr_scan", "ios": "https://dc.lft.to/lastmile_qr_scan"}, "name": "c4e8756ff7befd1a4d3181247639535e", "is_reserved": 0}, {"is_disabled": 0, "fusion_lon": 0.0, "fusion_lat": 0.0, "lat": 38.858795, "type": "electric_scooter", "lon": -76.99036166666667, "bike_id": "3e7e4d87a880e7988d993ad06d837328", "rental_uris": {"android": "https://dc.lft.to/lastmile_qr_scan", "ios": "https://dc.lft.to/lastmile_qr_scan"}, "name": "3e7e4d87a880e7988d993ad06d837328", "is_reserved": 0}, {"is_disabled": 0, "fusion_lon": 0.0, "fusion_lat": 0.0, "lat": 38.893711833333334, "type": "electric_scooter", "lon": -76.9781515, "bike_id": "d8215773a2dd2e2dd6009e50323b0799", "rental_uris": {"android": "https://dc.lft.to/lastmile_qr_scan", "ios": "https://dc.lft.to/lastmile_qr_scan"}, "name": "d8215773a2dd2e2dd6009e50323b0799", "is_reserved": 0}, {"is_disabled": 0, "fusion_lon": 0.0, "fusion_lat": 0.0, "lat": 38.89313416666667, "type": "electric_scooter", "lon": -77.022046, "bike_id": "3ebb56f2ecf89b0006e04e6be6f3414d", "rental_uris": {"android": "https://dc.lft.to/lastmile_qr_scan", "ios": "https://dc.lft.to/lastmile_qr_scan"}, "name": "3ebb56f2ecf89b0006e04e6be6f3414d", "is_reserved": 0}, {"is_disabled": 0, "fusion_lon": 0.0, "fusion_lat": 0.0, "lat": 38.91691266666667, "type": "electric_scooter", "lon": -77.037514, "bike_id": "f24001f966550fc177475631d64127db", "rental_uris": {"android": "https://dc.lft.to/lastmile_qr_scan", "ios": "https://dc.lft.to/lastmile_qr_scan"}, "name": "f24001f966550fc177475631d64127db", "is_reserved": 0}, {"is_disabled": 0, "fusion_lon": 0.0, "fusion_lat": 0.0, "lat": 38.8973875, "type": "electric_scooter", "lon": -77.02506666666666, "bike_id": "aefefd5250f6e3e7e7fdd1fe773289d0", "rental_uris": {"android": "https://dc.lft.to/lastmile_qr_scan", "ios": "https://dc.lft.to/lastmile_qr_scan"}, "name": "aefefd5250f6e3e7e7fdd1fe773289d0", "is_reserved": 0}, {"is_disabled": 0, "fusion_lon": 0.0, "fusion_lat": 0.0, "lat": 38.88551666666667, "type": "electric_scooter", "lon": -76.99800016666667, "bike_id": "c10391e4ab0310447e62b0f93d8c098b", "rental_uris": {"android": "https://dc.lft.to/lastmile_qr_scan", "ios": "https://dc.lft.to/lastmile_qr_scan"}, "name": "c10391e4ab0310447e62b0f93d8c098b", "is_reserved": 0}, {"is_disabled": 0, "fusion_lon": 0.0, "fusion_lat": 0.0, "lat": 38.9051815, "type": "electric_scooter", "lon": -77.0514925, "bike_id": "3d1b6cd434378198ea2c008e12631b93", "rental_uris": {"android": "https://dc.lft.to/lastmile_qr_scan", "ios": "https://dc.lft.to/lastmile_qr_scan"}, "name": "3d1b6cd434378198ea2c008e12631b93", "is_reserved": 0}, {"is_disabled": 0, "fusion_lon": 0.0, "fusion_lat": 0.0, "lat": 38.917006, "type": "electric_scooter", "lon": -77.0259445, "bike_id": "02e20b55272f628d7ef6676a8cc3f26f", "rental_uris": {"android": "https://dc.lft.to/lastmile_qr_scan", "ios": "https://dc.lft.to/lastmile_qr_scan"}, "name": "02e20b55272f628d7ef6676a8cc3f26f", "is_reserved": 0}, {"is_disabled": 0, "fusion_lon": 0.0, "fusion_lat": 0.0, "lat": 38.907077666666666, "type": "electric_scooter", "lon": -77.06317316666667, "bike_id": "d74362a2f8968286a2de946bde477e58", "rental_uris": {"android": "https://dc.lft.to/lastmile_qr_scan", "ios": "https://dc.lft.to/lastmile_qr_scan"}, "name": "d74362a2f8968286a2de946bde477e58", "is_reserved": 0}, {"is_disabled": 0, "fusion_lon": 0.0, "fusion_lat": 0.0, "lat": 38.9202895, "type": "electric_scooter", "lon": -77.03192066666666, "bike_id": "8f0ae17d89e5b005e560037e617fa257", "rental_uris": {"android": "https://dc.lft.to/lastmile_qr_scan", "ios": "https://dc.lft.to/lastmile_qr_scan"}, "name": "8f0ae17d89e5b005e560037e617fa257", "is_reserved": 0}, {"is_disabled": 0, "fusion_lon": 0.0, "fusion_lat": 0.0, "lat": 38.92875266666667, "type": "electric_scooter", "lon": -77.03100733333333, "bike_id": "e23ac3d5303bd94e3b9c6c8bd973089f", "rental_uris": {"android": "https://dc.lft.to/lastmile_qr_scan", "ios": "https://dc.lft.to/lastmile_qr_scan"}, "name": "e23ac3d5303bd94e3b9c6c8bd973089f", "is_reserved": 0}, {"is_disabled": 0, "fusion_lon": 0.0, "fusion_lat": 0.0, "lat": 38.99091966666667, "type": "electric_bike", "lon": -76.8749445, "bike_id": "a78c59d6fdb34e88ea1aac3717f698b5", "rental_uris": {"android": "https://dc.lft.to/lastmile_qr_scan", "ios": "https://dc.lft.to/lastmile_qr_scan"}, "name": "a78c59d6fdb34e88ea1aac3717f698b5", "is_reserved": 0}, {"is_disabled": 0, "fusion_lon": 0.0, "fusion_lat": 0.0, "lat": 38.889683833333336, "type": "electric_bike", "lon": -76.94861816666666, "bike_id": "47be26a71b48f6caf9bbbe896d954360", "rental_uris": {"android": "https://dc.lft.to/lastmile_qr_scan", "ios": "https://dc.lft.to/lastmile_qr_scan"}, "name": "47be26a71b48f6caf9bbbe896d954360", "is_reserved": 0}, {"is_disabled": 0, "fusion_lon": 0.0, "fusion_lat": 0.0, "lat": 38.932933166666665, "type": "electric_scooter", "lon": -77.02391866666666, "bike_id": "26c8ec95a0acc1dffdc8ec5f16499121", "rental_uris": {"android": "https://dc.lft.to/lastmile_qr_scan", "ios": "https://dc.lft.to/lastmile_qr_scan"}, "name": "26c8ec95a0acc1dffdc8ec5f16499121", "is_reserved": 0}, {"is_disabled": 0, "fusion_lon": 0.0, "fusion_lat": 0.0, "lat": 38.907717166666664, "type": "electric_scooter", "lon": -77.0327435, "bike_id": "63b69cfdbb3ba08d7ba3d89b4ce302b9", "rental_uris": {"android": "https://dc.lft.to/lastmile_qr_scan", "ios": "https://dc.lft.to/lastmile_qr_scan"}, "name": "63b69cfdbb3ba08d7ba3d89b4ce302b9", "is_reserved": 0}, {"is_disabled": 0, "fusion_lon": 0.0, "fusion_lat": 0.0, "lat": 38.916545166666666, "type": "electric_scooter", "lon": -77.02177516666667, "bike_id": "a06c23e522bb1d58ed63f799750d293e", "rental_uris": {"android": "https://dc.lft.to/lastmile_qr_scan", "ios": "https://dc.lft.to/lastmile_qr_scan"}, "name": "a06c23e522bb1d58ed63f799750d293e", "is_reserved": 0}, {"is_disabled": 0, "fusion_lon": 0.0, "fusion_lat": 0.0, "lat": 38.916311, "type": "electric_scooter", "lon": -77.04342616666666, "bike_id": "3639788d4aee17aee03b68549c8eaef0", "rental_uris": {"android": "https://dc.lft.to/lastmile_qr_scan", "ios": "https://dc.lft.to/lastmile_qr_scan"}, "name": "3639788d4aee17aee03b68549c8eaef0", "is_reserved": 0}, {"is_disabled": 0, "fusion_lon": 0.0, "fusion_lat": 0.0, "lat": 38.975772666666664, "type": "electric_bike", "lon": -76.96401983333334, "bike_id": "abad4e724f2ea18c395f79571ad7636a", "rental_uris": {"android": "https://dc.lft.to/lastmile_qr_scan", "ios": "https://dc.lft.to/lastmile_qr_scan"}, "name": "abad4e724f2ea18c395f79571ad7636a", "is_reserved": 0}, {"is_disabled": 0, "fusion_lon": 0.0, "fusion_lat": 0.0, "lat": 38.88826066666667, "type": "electric_bike", "lon": -77.1274205, "bike_id": "5a9779796f3c43b50885923924439aec", "rental_uris": {"android": "https://dc.lft.to/lastmile_qr_scan", "ios": "https://dc.lft.to/lastmile_qr_scan"}, "name": "5a9779796f3c43b50885923924439aec", "is_reserved": 0}, {"is_disabled": 0, "fusion_lon": 0.0, "fusion_lat": 0.0, "lat": 38.88739616666667, "type": "electric_scooter", "lon": -77.022714, "bike_id": "028920264dbfe57299d616bb9b030771", "rental_uris": {"android": "https://dc.lft.to/lastmile_qr_scan", "ios": "https://dc.lft.to/lastmile_qr_scan"}, "name": "028920264dbfe57299d616bb9b030771", "is_reserved": 0}, {"is_disabled": 0, "fusion_lon": 0.0, "fusion_lat": 0.0, "lat": 38.908328166666664, "type": "electric_bike", "lon": -76.94154916666666, "bike_id": "55a3fc1edeff2698abaec7ee2cfb5db2", "rental_uris": {"android": "https://dc.lft.to/lastmile_qr_scan", "ios": "https://dc.lft.to/lastmile_qr_scan"}, "name": "55a3fc1edeff2698abaec7ee2cfb5db2", "is_reserved": 0}, {"is_disabled": 0, "fusion_lon": 0.0, "fusion_lat": 0.0, "lat": 38.9306905, "type": "electric_scooter", "lon": -77.03192933333334, "bike_id": "65433b46bb8a8611ac49b73a42de216b", "rental_uris": {"android": "https://dc.lft.to/lastmile_qr_scan", "ios": "https://dc.lft.to/lastmile_qr_scan"}, "name": "65433b46bb8a8611ac49b73a42de216b", "is_reserved": 0}, {"is_disabled": 0, "fusion_lon": 0.0, "fusion_lat": 0.0, "lat": 38.8591875, "type": "electric_scooter", "lon": -76.98781866666667, "bike_id": "47a8701a955e7a6fa52d7659b28ec617", "rental_uris": {"android": "https://dc.lft.to/lastmile_qr_scan", "ios": "https://dc.lft.to/lastmile_qr_scan"}, "name": "47a8701a955e7a6fa52d7659b28ec617", "is_reserved": 0}, {"is_disabled": 0, "fusion_lon": 0.0, "fusion_lat": 0.0, "lat": 38.9859535, "type": "electric_bike", "lon": -77.037515, "bike_id": "8bed43255ea8bd601cc622ddcc034cf0", "rental_uris": {"android": "https://dc.lft.to/lastmile_qr_scan", "ios": "https://dc.lft.to/lastmile_qr_scan"}, "name": "8bed43255ea8bd601cc622ddcc034cf0", "is_reserved": 0}, {"is_disabled": 0, "fusion_lon": 0.0, "fusion_lat": 0.0, "lat": 38.918270666666665, "type": "electric_scooter", "lon": -77.03658766666666, "bike_id": "957ec21d9847c0721b9a3044cfa7fe5b", "rental_uris": {"android": "https://dc.lft.to/lastmile_qr_scan", "ios": "https://dc.lft.to/lastmile_qr_scan"}, "name": "957ec21d9847c0721b9a3044cfa7fe5b", "is_reserved": 0}, {"is_disabled": 0, "fusion_lon": 0.0, "fusion_lat": 0.0, "lat": 38.92365383333333, "type": "electric_scooter", "lon": -77.05026683333334, "bike_id": "05d42def27553f8f17ab546f90657bbc", "rental_uris": {"android": "https://dc.lft.to/lastmile_qr_scan", "ios": "https://dc.lft.to/lastmile_qr_scan"}, "name": "05d42def27553f8f17ab546f90657bbc", "is_reserved": 0}, {"is_disabled": 0, "fusion_lon": 0.0, "fusion_lat": 0.0, "lat": 38.923727166666666, "type": "electric_scooter", "lon": -77.02817533333334, "bike_id": "e215ff30c060fa8b050fdfe491c79a7e", "rental_uris": {"android": "https://dc.lft.to/lastmile_qr_scan", "ios": "https://dc.lft.to/lastmile_qr_scan"}, "name": "e215ff30c060fa8b050fdfe491c79a7e", "is_reserved": 0}, {"is_disabled": 0, "fusion_lon": 0.0, "fusion_lat": 0.0, "lat": 38.9349775, "type": "electric_scooter", "lon": -77.0260475, "bike_id": "fb00eeb8331031ba6c9c5cfcde1e573c", "rental_uris": {"android": "https://dc.lft.to/lastmile_qr_scan", "ios": "https://dc.lft.to/lastmile_qr_scan"}, "name": "fb00eeb8331031ba6c9c5cfcde1e573c", "is_reserved": 0}, {"is_disabled": 0, "fusion_lon": 0.0, "fusion_lat": 0.0, "lat": 38.928671666666666, "type": "electric_scooter", "lon": -77.0141115, "bike_id": "ad03aad7b0b869f2732b48439005814c", "rental_uris": {"android": "https://dc.lft.to/lastmile_qr_scan", "ios": "https://dc.lft.to/lastmile_qr_scan"}, "name": "ad03aad7b0b869f2732b48439005814c", "is_reserved": 0}, {"is_disabled": 0, "fusion_lon": 0.0, "fusion_lat": 0.0, "lat": 38.91683283333333, "type": "electric_scooter", "lon": -77.029726, "bike_id": "c1b02d69e8e0c3d68dbf9ce5fe107076", "rental_uris": {"android": "https://dc.lft.to/lastmile_qr_scan", "ios": "https://dc.lft.to/lastmile_qr_scan"}, "name": "c1b02d69e8e0c3d68dbf9ce5fe107076", "is_reserved": 0}, {"is_disabled": 0, "fusion_lon": 0.0, "fusion_lat": 0.0, "lat": 39.052708833333334, "type": "electric_bike", "lon": -77.0437855, "bike_id": "7ab286a7b455ccb065883ae0b320d303", "rental_uris": {"android": "https://dc.lft.to/lastmile_qr_scan", "ios": "https://dc.lft.to/lastmile_qr_scan"}, "name": "7ab286a7b455ccb065883ae0b320d303", "is_reserved": 0}, {"is_disabled": 0, "fusion_lon": 0.0, "fusion_lat": 0.0, "lat": 38.948952166666665, "type": "electric_bike", "lon": -76.96374616666667, "bike_id": "e74a9e0cba631899ec658ecf9a16a92b", "rental_uris": {"android": "https://dc.lft.to/lastmile_qr_scan", "ios": "https://dc.lft.to/lastmile_qr_scan"}, "name": "e74a9e0cba631899ec658ecf9a16a92b", "is_reserved": 0}, {"is_disabled": 0, "fusion_lon": 0.0, "fusion_lat": 0.0, "lat": 38.9159165, "type": "electric_scooter", "lon": -77.07279016666666, "bike_id": "fe42ed8d22885a2c3011688b8ad20c2e", "rental_uris": {"android": "https://dc.lft.to/lastmile_qr_scan", "ios": "https://dc.lft.to/lastmile_qr_scan"}, "name": "fe42ed8d22885a2c3011688b8ad20c2e", "is_reserved": 0}, {"is_disabled": 0, "fusion_lon": 0.0, "fusion_lat": 0.0, "lat": 38.90965966666667, "type": "electric_scooter", "lon": -77.03950166666667, "bike_id": "e1443bd4e9fe16e93be848410be5bfa3", "rental_uris": {"android": "https://dc.lft.to/lastmile_qr_scan", "ios": "https://dc.lft.to/lastmile_qr_scan"}, "name": "e1443bd4e9fe16e93be848410be5bfa3", "is_reserved": 0}, {"is_disabled": 0, "fusion_lon": 0.0, "fusion_lat": 0.0, "lat": 38.91706333333333, "type": "electric_scooter", "lon": -77.00116683333333, "bike_id": "99df07b098caff568a06d24542dd5c6c", "rental_uris": {"android": "https://dc.lft.to/lastmile_qr_scan", "ios": "https://dc.lft.to/lastmile_qr_scan"}, "name": "99df07b098caff568a06d24542dd5c6c", "is_reserved": 0}, {"is_disabled": 0, "fusion_lon": 0.0, "fusion_lat": 0.0, "lat": 38.91709216666667, "type": "electric_bike", "lon": -77.09557966666667, "bike_id": "110d7318fffd30c4dce06f082c97b9cc", "rental_uris": {"android": "https://dc.lft.to/lastmile_qr_scan", "ios": "https://dc.lft.to/lastmile_qr_scan"}, "name": "110d7318fffd30c4dce06f082c97b9cc", "is_reserved": 0}, {"is_disabled": 0, "fusion_lon": 0.0, "fusion_lat": 0.0, "lat": 38.92875183333334, "type": "electric_scooter", "lon": -77.0333665, "bike_id": "cbf8994e21bf0ae69b2ce2b40121d226", "rental_uris": {"android": "https://dc.lft.to/lastmile_qr_scan", "ios": "https://dc.lft.to/lastmile_qr_scan"}, "name": "cbf8994e21bf0ae69b2ce2b40121d226", "is_reserved": 0}, {"is_disabled": 0, "fusion_lon": 0.0, "fusion_lat": 0.0, "lat": 38.92320766666667, "type": "electric_scooter", "lon": -77.03813716666667, "bike_id": "74d4ef243622395a3c1ccf4f0d0e3646", "rental_uris": {"android": "https://dc.lft.to/lastmile_qr_scan", "ios": "https://dc.lft.to/lastmile_qr_scan"}, "name": "74d4ef243622395a3c1ccf4f0d0e3646", "is_reserved": 0}, {"is_disabled": 0, "fusion_lon": 0.0, "fusion_lat": 0.0, "lat": 38.91638433333333, "type": "electric_scooter", "lon": -77.022954, "bike_id": "ddfed024a71b8a3009336c77e8b753ba", "rental_uris": {"android": "https://dc.lft.to/lastmile_qr_scan", "ios": "https://dc.lft.to/lastmile_qr_scan"}, "name": "ddfed024a71b8a3009336c77e8b753ba", "is_reserved": 0}, {"is_disabled": 0, "fusion_lon": 0.0, "fusion_lat": 0.0, "lat": 38.89398283333333, "type": "electric_scooter", "lon": -76.95001366666666, "bike_id": "27e0f4762b1a1a54446db656fe1aa5d6", "rental_uris": {"android": "https://dc.lft.to/lastmile_qr_scan", "ios": "https://dc.lft.to/lastmile_qr_scan"}, "name": "27e0f4762b1a1a54446db656fe1aa5d6", "is_reserved": 0}, {"is_disabled": 0, "fusion_lon": 0.0, "fusion_lat": 0.0, "lat": 38.888534166666666, "type": "electric_bike", "lon": -76.9770055, "bike_id": "11877d69a1b12e4938f3b8f6b7b7b208", "rental_uris": {"android": "https://dc.lft.to/lastmile_qr_scan", "ios": "https://dc.lft.to/lastmile_qr_scan"}, "name": "11877d69a1b12e4938f3b8f6b7b7b208", "is_reserved": 0}, {"is_disabled": 0, "fusion_lon": 0.0, "fusion_lat": 0.0, "lat": 38.89612783333333, "type": "electric_scooter", "lon": -77.009218, "bike_id": "5a6cd2b4455191d4cfd21f450628f7f3", "rental_uris": {"android": "https://dc.lft.to/lastmile_qr_scan", "ios": "https://dc.lft.to/lastmile_qr_scan"}, "name": "5a6cd2b4455191d4cfd21f450628f7f3", "is_reserved": 0}, {"is_disabled": 0, "fusion_lon": 0.0, "fusion_lat": 0.0, "lat": 38.910384666666666, "type": "electric_scooter", "lon": -77.03794183333333, "bike_id": "163bd2168af0009e31a53191e224de0b", "rental_uris": {"android": "https://dc.lft.to/lastmile_qr_scan", "ios": "https://dc.lft.to/lastmile_qr_scan"}, "name": "163bd2168af0009e31a53191e224de0b", "is_reserved": 0}, {"is_disabled": 0, "fusion_lon": 0.0, "fusion_lat": 0.0, "lat": 39.054598666666664, "type": "electric_bike", "lon": -77.143242, "bike_id": "64d52d9bce2e8f1bca950eb74252b8fc", "rental_uris": {"android": "https://dc.lft.to/lastmile_qr_scan", "ios": "https://dc.lft.to/lastmile_qr_scan"}, "name": "64d52d9bce2e8f1bca950eb74252b8fc", "is_reserved": 0}, {"is_disabled": 0, "fusion_lon": 0.0, "fusion_lat": 0.0, "lat": 38.92846866666667, "type": "electric_scooter", "lon": -77.05543833333333, "bike_id": "3f7cd452b50b47ce471dc6094d6c8ac6", "rental_uris": {"android": "https://dc.lft.to/lastmile_qr_scan", "ios": "https://dc.lft.to/lastmile_qr_scan"}, "name": "3f7cd452b50b47ce471dc6094d6c8ac6", "is_reserved": 0}, {"is_disabled": 0, "fusion_lon": 0.0, "fusion_lat": 0.0, "lat": 38.7762025, "type": "electric_bike", "lon": -77.08357233333334, "bike_id": "cd30bbfc01aa2aa06b7d477cb86cb09b", "rental_uris": {"android": "https://dc.lft.to/lastmile_qr_scan", "ios": "https://dc.lft.to/lastmile_qr_scan"}, "name": "cd30bbfc01aa2aa06b7d477cb86cb09b", "is_reserved": 0}, {"is_disabled": 0, "fusion_lon": 0.0, "fusion_lat": 0.0, "lat": 38.921648166666664, "type": "electric_scooter", "lon": -77.042258, "bike_id": "ccfe2642d4e8d43f71ce09c1bdeeb48c", "rental_uris": {"android": "https://dc.lft.to/lastmile_qr_scan", "ios": "https://dc.lft.to/lastmile_qr_scan"}, "name": "ccfe2642d4e8d43f71ce09c1bdeeb48c", "is_reserved": 0}, {"is_disabled": 0, "fusion_lon": 0.0, "fusion_lat": 0.0, "lat": 38.90855233333333, "type": "electric_scooter", "lon": -77.0550815, "bike_id": "f64f00445ec5aecd34f709d8e52e029d", "rental_uris": {"android": "https://dc.lft.to/lastmile_qr_scan", "ios": "https://dc.lft.to/lastmile_qr_scan"}, "name": "f64f00445ec5aecd34f709d8e52e029d", "is_reserved": 0}, {"is_disabled": 0, "fusion_lon": 0.0, "fusion_lat": 0.0, "lat": 38.907598166666666, "type": "electric_bike", "lon": -77.041613, "bike_id": "dd2fab5b3332900a170c54964503f9c2", "rental_uris": {"android": "https://dc.lft.to/lastmile_qr_scan", "ios": "https://dc.lft.to/lastmile_qr_scan"}, "name": "dd2fab5b3332900a170c54964503f9c2", "is_reserved": 0}, {"is_disabled": 0, "fusion_lon": 0.0, "fusion_lat": 0.0, "lat": 38.88498583333333, "type": "electric_scooter", "lon": -77.02080566666666, "bike_id": "5e6d5f47fb21b8cae8a7fa8a0b144854", "rental_uris": {"android": "https://dc.lft.to/lastmile_qr_scan", "ios": "https://dc.lft.to/lastmile_qr_scan"}, "name": "5e6d5f47fb21b8cae8a7fa8a0b144854", "is_reserved": 0}, {"is_disabled": 0, "fusion_lon": 0.0, "fusion_lat": 0.0, "lat": 38.905118, "type": "electric_scooter", "lon": -76.98239016666666, "bike_id": "94a9066e539420850365c1f803c9a983", "rental_uris": {"android": "https://dc.lft.to/lastmile_qr_scan", "ios": "https://dc.lft.to/lastmile_qr_scan"}, "name": "94a9066e539420850365c1f803c9a983", "is_reserved": 0}, {"is_disabled": 0, "fusion_lon": 0.0, "fusion_lat": 0.0, "lat": 38.88744916666667, "type": "electric_scooter", "lon": -77.01431716666667, "bike_id": "8fa19085010a7fcd2e8dfcdf770d3dc2", "rental_uris": {"android": "https://dc.lft.to/lastmile_qr_scan", "ios": "https://dc.lft.to/lastmile_qr_scan"}, "name": "8fa19085010a7fcd2e8dfcdf770d3dc2", "is_reserved": 0}, {"is_disabled": 0, "fusion_lon": 0.0, "fusion_lat": 0.0, "lat": 38.89803533333333, "type": "electric_scooter", "lon": -77.00362183333333, "bike_id": "0e994b3ad0a3b6173ad6e83aa1230c91", "rental_uris": {"android": "https://dc.lft.to/lastmile_qr_scan", "ios": "https://dc.lft.to/lastmile_qr_scan"}, "name": "0e994b3ad0a3b6173ad6e83aa1230c91", "is_reserved": 0}, {"is_disabled": 0, "fusion_lon": 0.0, "fusion_lat": 0.0, "lat": 38.88965266666666, "type": "electric_scooter", "lon": -76.9914165, "bike_id": "a9cd81d0a6f3c0788a928851f0701965", "rental_uris": {"android": "https://dc.lft.to/lastmile_qr_scan", "ios": "https://dc.lft.to/lastmile_qr_scan"}, "name": "a9cd81d0a6f3c0788a928851f0701965", "is_reserved": 0}, {"is_disabled": 0, "fusion_lon": 0.0, "fusion_lat": 0.0, "lat": 38.91230183333333, "type": "electric_scooter", "lon": -77.04775583333333, "bike_id": "e68a13380a6f705c02fa62e289e5cd20", "rental_uris": {"android": "https://dc.lft.to/lastmile_qr_scan", "ios": "https://dc.lft.to/lastmile_qr_scan"}, "name": "e68a13380a6f705c02fa62e289e5cd20", "is_reserved": 0}, {"is_disabled": 0, "fusion_lon": 0.0, "fusion_lat": 0.0, "lat": 38.86035616666667, "type": "electric_scooter", "lon": -76.99680333333333, "bike_id": "47b91f9f2f8fea03c0aef331e0667c48", "rental_uris": {"android": "https://dc.lft.to/lastmile_qr_scan", "ios": "https://dc.lft.to/lastmile_qr_scan"}, "name": "47b91f9f2f8fea03c0aef331e0667c48", "is_reserved": 0}, {"is_disabled": 0, "fusion_lon": 0.0, "fusion_lat": 0.0, "lat": 38.99936483333333, "type": "electric_bike", "lon": -77.00121566666667, "bike_id": "ec580938a37a794a61dcdaefc7f14205", "rental_uris": {"android": "https://dc.lft.to/lastmile_qr_scan", "ios": "https://dc.lft.to/lastmile_qr_scan"}, "name": "ec580938a37a794a61dcdaefc7f14205", "is_reserved": 0}, {"is_disabled": 0, "fusion_lon": 0.0, "fusion_lat": 0.0, "lat": 38.89503633333333, "type": "electric_scooter", "lon": -76.94878016666667, "bike_id": "b8606d537a737a57c4a5ffa6140b2ca4", "rental_uris": {"android": "https://dc.lft.to/lastmile_qr_scan", "ios": "https://dc.lft.to/lastmile_qr_scan"}, "name": "b8606d537a737a57c4a5ffa6140b2ca4", "is_reserved": 0}, {"is_disabled": 0, "fusion_lon": 0.0, "fusion_lat": 0.0, "lat": 38.90007333333333, "type": "electric_scooter", "lon": -77.03208783333334, "bike_id": "87304975a45ac327b2c9e90aefa03524", "rental_uris": {"android": "https://dc.lft.to/lastmile_qr_scan", "ios": "https://dc.lft.to/lastmile_qr_scan"}, "name": "87304975a45ac327b2c9e90aefa03524", "is_reserved": 0}, {"is_disabled": 0, "fusion_lon": 0.0, "fusion_lat": 0.0, "lat": 39.09594766666667, "type": "electric_bike", "lon": -77.14778383333334, "bike_id": "4f601e88e5f3eb694ff7dedeec6a5490", "rental_uris": {"android": "https://dc.lft.to/lastmile_qr_scan", "ios": "https://dc.lft.to/lastmile_qr_scan"}, "name": "4f601e88e5f3eb694ff7dedeec6a5490", "is_reserved": 0}, {"is_disabled": 0, "fusion_lon": 0.0, "fusion_lat": 0.0, "lat": 38.919424, "type": "electric_scooter", "lon": -77.0813435, "bike_id": "9cd32dfc1631082290f2068b10f37b43", "rental_uris": {"android": "https://dc.lft.to/lastmile_qr_scan", "ios": "https://dc.lft.to/lastmile_qr_scan"}, "name": "9cd32dfc1631082290f2068b10f37b43", "is_reserved": 0}, {"is_disabled": 0, "fusion_lon": 0.0, "fusion_lat": 0.0, "lat": 38.855433833333336, "type": "electric_bike", "lon": -77.10725966666666, "bike_id": "94d46acea7ee69cf86b2bca1688c58ef", "rental_uris": {"android": "https://dc.lft.to/lastmile_qr_scan", "ios": "https://dc.lft.to/lastmile_qr_scan"}, "name": "94d46acea7ee69cf86b2bca1688c58ef", "is_reserved": 0}, {"is_disabled": 0, "fusion_lon": 0.0, "fusion_lat": 0.0, "lat": 38.906371, "type": "electric_scooter", "lon": -77.0250135, "bike_id": "d6ebd6ee18accad84b4558a35f4ff781", "rental_uris": {"android": "https://dc.lft.to/lastmile_qr_scan", "ios": "https://dc.lft.to/lastmile_qr_scan"}, "name": "d6ebd6ee18accad84b4558a35f4ff781", "is_reserved": 0}, {"is_disabled": 0, "fusion_lon": 0.0, "fusion_lat": 0.0, "lat": 38.905675333333335, "type": "electric_scooter", "lon": -77.02463966666667, "bike_id": "dec98b113cafeb6e3c4ebd3641cc3863", "rental_uris": {"android": "https://dc.lft.to/lastmile_qr_scan", "ios": "https://dc.lft.to/lastmile_qr_scan"}, "name": "dec98b113cafeb6e3c4ebd3641cc3863", "is_reserved": 0}, {"is_disabled": 0, "fusion_lon": 0.0, "fusion_lat": 0.0, "lat": 38.9285155, "type": "electric_scooter", "lon": -77.0562825, "bike_id": "f370ae7d814802bf45f4e6562dbd927e", "rental_uris": {"android": "https://dc.lft.to/lastmile_qr_scan", "ios": "https://dc.lft.to/lastmile_qr_scan"}, "name": "f370ae7d814802bf45f4e6562dbd927e", "is_reserved": 0}, {"is_disabled": 0, "fusion_lon": 0.0, "fusion_lat": 0.0, "lat": 38.91505166666666, "type": "electric_scooter", "lon": -76.98358633333334, "bike_id": "556ba8895daa6c79b44f3c586ab3cc17", "rental_uris": {"android": "https://dc.lft.to/lastmile_qr_scan", "ios": "https://dc.lft.to/lastmile_qr_scan"}, "name": "556ba8895daa6c79b44f3c586ab3cc17", "is_reserved": 0}, {"is_disabled": 0, "fusion_lon": 0.0, "fusion_lat": 0.0, "lat": 38.87805316666667, "type": "electric_scooter", "lon": -77.01427333333334, "bike_id": "df5f84ea448d2cf4485bf1459abbdabf", "rental_uris": {"android": "https://dc.lft.to/lastmile_qr_scan", "ios": "https://dc.lft.to/lastmile_qr_scan"}, "name": "df5f84ea448d2cf4485bf1459abbdabf", "is_reserved": 0}, {"is_disabled": 0, "fusion_lon": 0.0, "fusion_lat": 0.0, "lat": 38.900943833333336, "type": "electric_scooter", "lon": -77.04864883333333, "bike_id": "9b695c42ef39150fffc493d4773873e8", "rental_uris": {"android": "https://dc.lft.to/lastmile_qr_scan", "ios": "https://dc.lft.to/lastmile_qr_scan"}, "name": "9b695c42ef39150fffc493d4773873e8", "is_reserved": 0}, {"is_disabled": 0, "fusion_lon": 0.0, "fusion_lat": 0.0, "lat": 38.917979333333335, "type": "electric_scooter", "lon": -77.034673, "bike_id": "6a8866be07f32023ea6fb8d851388056", "rental_uris": {"android": "https://dc.lft.to/lastmile_qr_scan", "ios": "https://dc.lft.to/lastmile_qr_scan"}, "name": "6a8866be07f32023ea6fb8d851388056", "is_reserved": 0}, {"is_disabled": 0, "fusion_lon": 0.0, "fusion_lat": 0.0, "lat": 38.92958566666667, "type": "electric_scooter", "lon": -77.02341033333333, "bike_id": "fdea95c1ef583a1e7662d11cee6f46dd", "rental_uris": {"android": "https://dc.lft.to/lastmile_qr_scan", "ios": "https://dc.lft.to/lastmile_qr_scan"}, "name": "fdea95c1ef583a1e7662d11cee6f46dd", "is_reserved": 0}, {"is_disabled": 0, "fusion_lon": 0.0, "fusion_lat": 0.0, "lat": 38.91753033333333, "type": "electric_scooter", "lon": -77.04153866666667, "bike_id": "c29f3c7ed996d5a9063f1cbfbc6db4d8", "rental_uris": {"android": "https://dc.lft.to/lastmile_qr_scan", "ios": "https://dc.lft.to/lastmile_qr_scan"}, "name": "c29f3c7ed996d5a9063f1cbfbc6db4d8", "is_reserved": 0}, {"is_disabled": 0, "fusion_lon": 0.0, "fusion_lat": 0.0, "lat": 38.92750433333333, "type": "electric_scooter", "lon": -77.02530616666667, "bike_id": "c076ebf6dab8bf006d899da0ac8226df", "rental_uris": {"android": "https://dc.lft.to/lastmile_qr_scan", "ios": "https://dc.lft.to/lastmile_qr_scan"}, "name": "c076ebf6dab8bf006d899da0ac8226df", "is_reserved": 0}, {"is_disabled": 0, "fusion_lon": 0.0, "fusion_lat": 0.0, "lat": 38.83940916666667, "type": "electric_bike", "lon": -77.0790045, "bike_id": "5adcc2324c2277baa5cae5b45f4261bc", "rental_uris": {"android": "https://dc.lft.to/lastmile_qr_scan", "ios": "https://dc.lft.to/lastmile_qr_scan"}, "name": "5adcc2324c2277baa5cae5b45f4261bc", "is_reserved": 0}, {"is_disabled": 0, "fusion_lon": 0.0, "fusion_lat": 0.0, "lat": 38.917042333333335, "type": "electric_scooter", "lon": -77.04298366666667, "bike_id": "c3beb25779716e4d2c413758d819b71b", "rental_uris": {"android": "https://dc.lft.to/lastmile_qr_scan", "ios": "https://dc.lft.to/lastmile_qr_scan"}, "name": "c3beb25779716e4d2c413758d819b71b", "is_reserved": 0}, {"is_disabled": 0, "fusion_lon": 0.0, "fusion_lat": 0.0, "lat": 38.914087, "type": "electric_scooter", "lon": -77.0130665, "bike_id": "ed56de36c913b96d3ccca6b245be03e6", "rental_uris": {"android": "https://dc.lft.to/lastmile_qr_scan", "ios": "https://dc.lft.to/lastmile_qr_scan"}, "name": "ed56de36c913b96d3ccca6b245be03e6", "is_reserved": 0}, {"is_disabled": 0, "fusion_lon": 0.0, "fusion_lat": 0.0, "lat": 38.911131833333336, "type": "electric_scooter", "lon": -77.04501683333334, "bike_id": "f5e498836c5ab3f14903fc28774d1a79", "rental_uris": {"android": "https://dc.lft.to/lastmile_qr_scan", "ios": "https://dc.lft.to/lastmile_qr_scan"}, "name": "f5e498836c5ab3f14903fc28774d1a79", "is_reserved": 0}, {"is_disabled": 0, "fusion_lon": 0.0, "fusion_lat": 0.0, "lat": 38.93142616666667, "type": "electric_scooter", "lon": -77.03895333333334, "bike_id": "cb256f3998f5da1994e7e4791c88dd8f", "rental_uris": {"android": "https://dc.lft.to/lastmile_qr_scan", "ios": "https://dc.lft.to/lastmile_qr_scan"}, "name": "cb256f3998f5da1994e7e4791c88dd8f", "is_reserved": 0}, {"is_disabled": 0, "fusion_lon": 0.0, "fusion_lat": 0.0, "lat": 38.88118766666667, "type": "electric_bike", "lon": -76.99491716666667, "bike_id": "183b4e26ffaa581fd60650f9c13cf3a5", "rental_uris": {"android": "https://dc.lft.to/lastmile_qr_scan", "ios": "https://dc.lft.to/lastmile_qr_scan"}, "name": "183b4e26ffaa581fd60650f9c13cf3a5", "is_reserved": 0}, {"is_disabled": 0, "fusion_lon": 0.0, "fusion_lat": 0.0, "lat": 38.86597533333333, "type": "electric_bike", "lon": -76.93228033333334, "bike_id": "7bd0edfcafc48bc033e9161b5564c3da", "rental_uris": {"android": "https://dc.lft.to/lastmile_qr_scan", "ios": "https://dc.lft.to/lastmile_qr_scan"}, "name": "7bd0edfcafc48bc033e9161b5564c3da", "is_reserved": 0}, {"is_disabled": 0, "fusion_lon": 0.0, "fusion_lat": 0.0, "lat": 38.8521175, "type": "electric_bike", "lon": -77.12746883333334, "bike_id": "7fdebd19204dcaee127efd4114153280", "rental_uris": {"android": "https://dc.lft.to/lastmile_qr_scan", "ios": "https://dc.lft.to/lastmile_qr_scan"}, "name": "7fdebd19204dcaee127efd4114153280", "is_reserved": 0}, {"is_disabled": 0, "fusion_lon": 0.0, "fusion_lat": 0.0, "lat": 38.8925105, "type": "electric_scooter", "lon": -76.998511, "bike_id": "de8d431169ecb5874c570db792cdb159", "rental_uris": {"android": "https://dc.lft.to/lastmile_qr_scan", "ios": "https://dc.lft.to/lastmile_qr_scan"}, "name": "de8d431169ecb5874c570db792cdb159", "is_reserved": 0}, {"is_disabled": 0, "fusion_lon": 0.0, "fusion_lat": 0.0, "lat": 38.914794666666666, "type": "electric_scooter", "lon": -77.03191966666667, "bike_id": "92d9336662fc557e257199a8289bedc2", "rental_uris": {"android": "https://dc.lft.to/lastmile_qr_scan", "ios": "https://dc.lft.to/lastmile_qr_scan"}, "name": "92d9336662fc557e257199a8289bedc2", "is_reserved": 0}, {"is_disabled": 0, "fusion_lon": 0.0, "fusion_lat": 0.0, "lat": 38.89972233333334, "type": "electric_scooter", "lon": -76.9870615, "bike_id": "ce3705c3e52a225a0b60c12cf83431f0", "rental_uris": {"android": "https://dc.lft.to/lastmile_qr_scan", "ios": "https://dc.lft.to/lastmile_qr_scan"}, "name": "ce3705c3e52a225a0b60c12cf83431f0", "is_reserved": 0}, {"is_disabled": 0, "fusion_lon": 0.0, "fusion_lat": 0.0, "lat": 38.897591, "type": "electric_scooter", "lon": -77.05136716666667, "bike_id": "418a7843930313e638d66e69e2061632", "rental_uris": {"android": "https://dc.lft.to/lastmile_qr_scan", "ios": "https://dc.lft.to/lastmile_qr_scan"}, "name": "418a7843930313e638d66e69e2061632", "is_reserved": 0}, {"is_disabled": 0, "fusion_lon": 0.0, "fusion_lat": 0.0, "lat": 38.94502416666667, "type": "electric_bike", "lon": -77.00679816666667, "bike_id": "4c80177be1f208cebdcca7631b8c0c8b", "rental_uris": {"android": "https://dc.lft.to/lastmile_qr_scan", "ios": "https://dc.lft.to/lastmile_qr_scan"}, "name": "4c80177be1f208cebdcca7631b8c0c8b", "is_reserved": 0}, {"is_disabled": 0, "fusion_lon": 0.0, "fusion_lat": 0.0, "lat": 38.916500166666665, "type": "electric_scooter", "lon": -76.98231316666667, "bike_id": "0546acbd1d8cc8d5cd2f41a0f8a5b9b2", "rental_uris": {"android": "https://dc.lft.to/lastmile_qr_scan", "ios": "https://dc.lft.to/lastmile_qr_scan"}, "name": "0546acbd1d8cc8d5cd2f41a0f8a5b9b2", "is_reserved": 0}, {"is_disabled": 0, "fusion_lon": 0.0, "fusion_lat": 0.0, "lat": 38.897422666666664, "type": "electric_scooter", "lon": -77.02594366666666, "bike_id": "9e039e2bdf0422328af4c5a3d6a6e2ce", "rental_uris": {"android": "https://dc.lft.to/lastmile_qr_scan", "ios": "https://dc.lft.to/lastmile_qr_scan"}, "name": "9e039e2bdf0422328af4c5a3d6a6e2ce", "is_reserved": 0}, {"is_disabled": 0, "fusion_lon": 0.0, "fusion_lat": 0.0, "lat": 38.928680166666666, "type": "electric_scooter", "lon": -77.01406416666667, "bike_id": "2e4a42a2b76917ea2fbd3f878e093765", "rental_uris": {"android": "https://dc.lft.to/lastmile_qr_scan", "ios": "https://dc.lft.to/lastmile_qr_scan"}, "name": "2e4a42a2b76917ea2fbd3f878e093765", "is_reserved": 0}, {"is_disabled": 0, "fusion_lon": 0.0, "fusion_lat": 0.0, "lat": 38.842029333333336, "type": "electric_bike", "lon": -77.106819, "bike_id": "7d5ed4770ceaddc3064748fcbca557a7", "rental_uris": {"android": "https://dc.lft.to/lastmile_qr_scan", "ios": "https://dc.lft.to/lastmile_qr_scan"}, "name": "7d5ed4770ceaddc3064748fcbca557a7", "is_reserved": 0}, {"is_disabled": 0, "fusion_lon": 0.0, "fusion_lat": 0.0, "lat": 38.858109666666664, "type": "electric_scooter", "lon": -76.98653783333333, "bike_id": "5acb67ab8f0c518f5921977b396140cc", "rental_uris": {"android": "https://dc.lft.to/lastmile_qr_scan", "ios": "https://dc.lft.to/lastmile_qr_scan"}, "name": "5acb67ab8f0c518f5921977b396140cc", "is_reserved": 0}, {"is_disabled": 0, "fusion_lon": 0.0, "fusion_lat": 0.0, "lat": 38.891876833333335, "type": "electric_scooter", "lon": -77.01531283333334, "bike_id": "9089ce216174c5f8fc7631a4eeb02431", "rental_uris": {"android": "https://dc.lft.to/lastmile_qr_scan", "ios": "https://dc.lft.to/lastmile_qr_scan"}, "name": "9089ce216174c5f8fc7631a4eeb02431", "is_reserved": 0}, {"is_disabled": 0, "fusion_lon": 0.0, "fusion_lat": 0.0, "lat": 38.9170425, "type": "electric_scooter", "lon": -77.03466433333334, "bike_id": "14481a7954513283f2f45b192ae7c52d", "rental_uris": {"android": "https://dc.lft.to/lastmile_qr_scan", "ios": "https://dc.lft.to/lastmile_qr_scan"}, "name": "14481a7954513283f2f45b192ae7c52d", "is_reserved": 0}, {"is_disabled": 0, "fusion_lon": 0.0, "fusion_lat": 0.0, "lat": 38.912671, "type": "electric_scooter", "lon": -77.01694683333334, "bike_id": "fd996f6e7f043bc5fb2990bf85d20196", "rental_uris": {"android": "https://dc.lft.to/lastmile_qr_scan", "ios": "https://dc.lft.to/lastmile_qr_scan"}, "name": "fd996f6e7f043bc5fb2990bf85d20196", "is_reserved": 0}, {"is_disabled": 0, "fusion_lon": 0.0, "fusion_lat": 0.0, "lat": 38.919754, "type": "electric_scooter", "lon": -77.04177216666666, "bike_id": "a511254a81cbfbbcdcb22af136d4c543", "rental_uris": {"android": "https://dc.lft.to/lastmile_qr_scan", "ios": "https://dc.lft.to/lastmile_qr_scan"}, "name": "a511254a81cbfbbcdcb22af136d4c543", "is_reserved": 0}, {"is_disabled": 0, "fusion_lon": 0.0, "fusion_lat": 0.0, "lat": 38.96761216666667, "type": "electric_bike", "lon": -77.09165033333333, "bike_id": "7e1cb14471e81cca968584c61878a04a", "rental_uris": {"android": "https://dc.lft.to/lastmile_qr_scan", "ios": "https://dc.lft.to/lastmile_qr_scan"}, "name": "7e1cb14471e81cca968584c61878a04a", "is_reserved": 0}, {"is_disabled": 0, "fusion_lon": 0.0, "fusion_lat": 0.0, "lat": 38.99906583333333, "type": "electric_bike", "lon": -77.02872283333333, "bike_id": "d1677ebb954588ac46f4d8c770488a97", "rental_uris": {"android": "https://dc.lft.to/lastmile_qr_scan", "ios": "https://dc.lft.to/lastmile_qr_scan"}, "name": "d1677ebb954588ac46f4d8c770488a97", "is_reserved": 0}, {"is_disabled": 0, "fusion_lon": 0.0, "fusion_lat": 0.0, "lat": 38.892194333333336, "type": "electric_scooter", "lon": -77.01372616666667, "bike_id": "947a628747ed0ac973fd87f5acd405b2", "rental_uris": {"android": "https://dc.lft.to/lastmile_qr_scan", "ios": "https://dc.lft.to/lastmile_qr_scan"}, "name": "947a628747ed0ac973fd87f5acd405b2", "is_reserved": 0}, {"is_disabled": 0, "fusion_lon": 0.0, "fusion_lat": 0.0, "lat": 38.9248505, "type": "electric_scooter", "lon": -77.02712383333333, "bike_id": "37f67b9c19b83f77ad3ff95719cc41a4", "rental_uris": {"android": "https://dc.lft.to/lastmile_qr_scan", "ios": "https://dc.lft.to/lastmile_qr_scan"}, "name": "37f67b9c19b83f77ad3ff95719cc41a4", "is_reserved": 0}, {"is_disabled": 0, "fusion_lon": 0.0, "fusion_lat": 0.0, "lat": 38.90787016666667, "type": "electric_scooter", "lon": -77.03191016666666, "bike_id": "cedab1ba1e1e11d483f0b789e06c38e4", "rental_uris": {"android": "https://dc.lft.to/lastmile_qr_scan", "ios": "https://dc.lft.to/lastmile_qr_scan"}, "name": "cedab1ba1e1e11d483f0b789e06c38e4", "is_reserved": 0}, {"is_disabled": 0, "fusion_lon": 0.0, "fusion_lat": 0.0, "lat": 38.899851, "type": "electric_scooter", "lon": -77.016022, "bike_id": "0d007430c936e26f53239ce9afd41913", "rental_uris": {"android": "https://dc.lft.to/lastmile_qr_scan", "ios": "https://dc.lft.to/lastmile_qr_scan"}, "name": "0d007430c936e26f53239ce9afd41913", "is_reserved": 0}, {"is_disabled": 0, "fusion_lon": 0.0, "fusion_lat": 0.0, "lat": 38.91799183333333, "type": "electric_scooter", "lon": -77.023945, "bike_id": "98816135d98b10b7c4f05a391c56d297", "rental_uris": {"android": "https://dc.lft.to/lastmile_qr_scan", "ios": "https://dc.lft.to/lastmile_qr_scan"}, "name": "98816135d98b10b7c4f05a391c56d297", "is_reserved": 0}, {"is_disabled": 0, "fusion_lon": 0.0, "fusion_lat": 0.0, "lat": 38.914768, "type": "electric_scooter", "lon": -77.031914, "bike_id": "3086b82dfe457db0ce1520f056e6104f", "rental_uris": {"android": "https://dc.lft.to/lastmile_qr_scan", "ios": "https://dc.lft.to/lastmile_qr_scan"}, "name": "3086b82dfe457db0ce1520f056e6104f", "is_reserved": 0}, {"is_disabled": 0, "fusion_lon": 0.0, "fusion_lat": 0.0, "lat": 38.906792833333334, "type": "electric_scooter", "lon": -77.0271495, "bike_id": "4fb1d69d6aa09eeaecbf8f48ddc482c0", "rental_uris": {"android": "https://dc.lft.to/lastmile_qr_scan", "ios": "https://dc.lft.to/lastmile_qr_scan"}, "name": "4fb1d69d6aa09eeaecbf8f48ddc482c0", "is_reserved": 0}, {"is_disabled": 0, "fusion_lon": 0.0, "fusion_lat": 0.0, "lat": 38.89593816666667, "type": "electric_scooter", "lon": -77.02313566666666, "bike_id": "a5dbb24896ab9b40dbd192bc6e55895b", "rental_uris": {"android": "https://dc.lft.to/lastmile_qr_scan", "ios": "https://dc.lft.to/lastmile_qr_scan"}, "name": "a5dbb24896ab9b40dbd192bc6e55895b", "is_reserved": 0}, {"is_disabled": 0, "fusion_lon": 0.0, "fusion_lat": 0.0, "lat": 38.903295, "type": "electric_scooter", "lon": -77.03671733333333, "bike_id": "cef5c87042f4b211db491ee729c14a58", "rental_uris": {"android": "https://dc.lft.to/lastmile_qr_scan", "ios": "https://dc.lft.to/lastmile_qr_scan"}, "name": "cef5c87042f4b211db491ee729c14a58", "is_reserved": 0}, {"is_disabled": 0, "fusion_lon": 0.0, "fusion_lat": 0.0, "lat": 38.9287305, "type": "electric_scooter", "lon": -77.0333285, "bike_id": "2f91559fbb4158117ec5ae7f9c1e1edc", "rental_uris": {"android": "https://dc.lft.to/lastmile_qr_scan", "ios": "https://dc.lft.to/lastmile_qr_scan"}, "name": "2f91559fbb4158117ec5ae7f9c1e1edc", "is_reserved": 0}, {"is_disabled": 0, "fusion_lon": 0.0, "fusion_lat": 0.0, "lat": 38.92364, "type": "electric_scooter", "lon": -77.050371, "bike_id": "88dcc20a275c058a1ad06b999fb76450", "rental_uris": {"android": "https://dc.lft.to/lastmile_qr_scan", "ios": "https://dc.lft.to/lastmile_qr_scan"}, "name": "88dcc20a275c058a1ad06b999fb76450", "is_reserved": 0}, {"is_disabled": 0, "fusion_lon": 0.0, "fusion_lat": 0.0, "lat": 38.918093, "type": "electric_scooter", "lon": -77.034329, "bike_id": "5c0f5d4edaeb1965ab275bea83894316", "rental_uris": {"android": "https://dc.lft.to/lastmile_qr_scan", "ios": "https://dc.lft.to/lastmile_qr_scan"}, "name": "5c0f5d4edaeb1965ab275bea83894316", "is_reserved": 0}, {"is_disabled": 0, "fusion_lon": 0.0, "fusion_lat": 0.0, "lat": 38.918083, "type": "electric_scooter", "lon": -77.031369, "bike_id": "511d43ccb39debdfdfc6c9a3d31b4449", "rental_uris": {"android": "https://dc.lft.to/lastmile_qr_scan", "ios": "https://dc.lft.to/lastmile_qr_scan"}, "name": "511d43ccb39debdfdfc6c9a3d31b4449", "is_reserved": 0}, {"is_disabled": 0, "fusion_lon": 0.0, "fusion_lat": 0.0, "lat": 38.86247433333333, "type": "electric_scooter", "lon": -76.994843, "bike_id": "39e64fb1df0e3bdfd76f9a67ae1b7de5", "rental_uris": {"android": "https://dc.lft.to/lastmile_qr_scan", "ios": "https://dc.lft.to/lastmile_qr_scan"}, "name": "39e64fb1df0e3bdfd76f9a67ae1b7de5", "is_reserved": 0}, {"is_disabled": 0, "fusion_lon": 0.0, "fusion_lat": 0.0, "lat": 38.9244115, "type": "electric_scooter", "lon": -77.02606566666667, "bike_id": "ad66e5f9c3504c8e0ad5057bc673ba8d", "rental_uris": {"android": "https://dc.lft.to/lastmile_qr_scan", "ios": "https://dc.lft.to/lastmile_qr_scan"}, "name": "ad66e5f9c3504c8e0ad5057bc673ba8d", "is_reserved": 0}, {"is_disabled": 0, "fusion_lon": 0.0, "fusion_lat": 0.0, "lat": 38.909595333333336, "type": "electric_scooter", "lon": -77.021872, "bike_id": "86305628782196de4a1ff7b53243af62", "rental_uris": {"android": "https://dc.lft.to/lastmile_qr_scan", "ios": "https://dc.lft.to/lastmile_qr_scan"}, "name": "86305628782196de4a1ff7b53243af62", "is_reserved": 0}, {"is_disabled": 0, "fusion_lon": 0.0, "fusion_lat": 0.0, "lat": 38.96735066666667, "type": "electric_scooter", "lon": -77.0276405, "bike_id": "706f57710ecfa7f6dfba912c0f6678cd", "rental_uris": {"android": "https://dc.lft.to/lastmile_qr_scan", "ios": "https://dc.lft.to/lastmile_qr_scan"}, "name": "706f57710ecfa7f6dfba912c0f6678cd", "is_reserved": 0}, {"is_disabled": 0, "fusion_lon": 0.0, "fusion_lat": 0.0, "lat": 38.883451666666666, "type": "electric_scooter", "lon": -77.02504966666666, "bike_id": "179452a8a986c53195c4d2fad846d5a5", "rental_uris": {"android": "https://dc.lft.to/lastmile_qr_scan", "ios": "https://dc.lft.to/lastmile_qr_scan"}, "name": "179452a8a986c53195c4d2fad846d5a5", "is_reserved": 0}, {"is_disabled": 0, "fusion_lon": 0.0, "fusion_lat": 0.0, "lat": 38.846216166666665, "type": "electric_scooter", "lon": -76.99629983333334, "bike_id": "27ec035376745041480901ec13a5da1b", "rental_uris": {"android": "https://dc.lft.to/lastmile_qr_scan", "ios": "https://dc.lft.to/lastmile_qr_scan"}, "name": "27ec035376745041480901ec13a5da1b", "is_reserved": 0}, {"is_disabled": 0, "fusion_lon": 0.0, "fusion_lat": 0.0, "lat": 38.920200333333334, "type": "electric_scooter", "lon": -77.03133516666666, "bike_id": "02c4beeb48190aef48800d929d694803", "rental_uris": {"android": "https://dc.lft.to/lastmile_qr_scan", "ios": "https://dc.lft.to/lastmile_qr_scan"}, "name": "02c4beeb48190aef48800d929d694803", "is_reserved": 0}, {"is_disabled": 0, "fusion_lon": 0.0, "fusion_lat": 0.0, "lat": 38.91270883333333, "type": "electric_scooter", "lon": -77.0336135, "bike_id": "4375f0d770489b31d00b19e2d17d647c", "rental_uris": {"android": "https://dc.lft.to/lastmile_qr_scan", "ios": "https://dc.lft.to/lastmile_qr_scan"}, "name": "4375f0d770489b31d00b19e2d17d647c", "is_reserved": 0}, {"is_disabled": 0, "fusion_lon": 0.0, "fusion_lat": 0.0, "lat": 38.9296765, "type": "electric_scooter", "lon": -77.0419715, "bike_id": "007258710e38a169358421c0024d8667", "rental_uris": {"android": "https://dc.lft.to/lastmile_qr_scan", "ios": "https://dc.lft.to/lastmile_qr_scan"}, "name": "007258710e38a169358421c0024d8667", "is_reserved": 0}, {"is_disabled": 0, "fusion_lon": 0.0, "fusion_lat": 0.0, "lat": 38.95173916666667, "type": "electric_scooter", "lon": -77.03334316666667, "bike_id": "d830f9b0264c915be5123746e7bca37c", "rental_uris": {"android": "https://dc.lft.to/lastmile_qr_scan", "ios": "https://dc.lft.to/lastmile_qr_scan"}, "name": "d830f9b0264c915be5123746e7bca37c", "is_reserved": 0}, {"is_disabled": 0, "fusion_lon": 0.0, "fusion_lat": 0.0, "lat": 38.903200166666664, "type": "electric_scooter", "lon": -77.0212685, "bike_id": "ec17d6252887736fe788cb091f619b46", "rental_uris": {"android": "https://dc.lft.to/lastmile_qr_scan", "ios": "https://dc.lft.to/lastmile_qr_scan"}, "name": "ec17d6252887736fe788cb091f619b46", "is_reserved": 0}, {"is_disabled": 0, "fusion_lon": 0.0, "fusion_lat": 0.0, "lat": 38.966279, "type": "electric_scooter", "lon": -77.03532266666667, "bike_id": "660df67434302a889d174d8bf423c942", "rental_uris": {"android": "https://dc.lft.to/lastmile_qr_scan", "ios": "https://dc.lft.to/lastmile_qr_scan"}, "name": "660df67434302a889d174d8bf423c942", "is_reserved": 0}, {"is_disabled": 0, "fusion_lon": 0.0, "fusion_lat": 0.0, "lat": 38.917141, "type": "electric_scooter", "lon": -77.03673916666666, "bike_id": "7f82f6204843f3717c583bfaa4e7a10c", "rental_uris": {"android": "https://dc.lft.to/lastmile_qr_scan", "ios": "https://dc.lft.to/lastmile_qr_scan"}, "name": "7f82f6204843f3717c583bfaa4e7a10c", "is_reserved": 0}, {"is_disabled": 0, "fusion_lon": 0.0, "fusion_lat": 0.0, "lat": 38.9462005, "type": "electric_scooter", "lon": -77.03624766666667, "bike_id": "97c0fb3715fc1a51e347ee9e75a4340e", "rental_uris": {"android": "https://dc.lft.to/lastmile_qr_scan", "ios": "https://dc.lft.to/lastmile_qr_scan"}, "name": "97c0fb3715fc1a51e347ee9e75a4340e", "is_reserved": 0}, {"is_disabled": 0, "fusion_lon": 0.0, "fusion_lat": 0.0, "lat": 38.96447966666667, "type": "electric_bike", "lon": -76.97722283333333, "bike_id": "53da9b06fd7b6b1c2c2633fd7f3af5d2", "rental_uris": {"android": "https://dc.lft.to/lastmile_qr_scan", "ios": "https://dc.lft.to/lastmile_qr_scan"}, "name": "53da9b06fd7b6b1c2c2633fd7f3af5d2", "is_reserved": 0}, {"is_disabled": 0, "fusion_lon": 0.0, "fusion_lat": 0.0, "lat": 39.0300115, "type": "electric_bike", "lon": -77.10653066666667, "bike_id": "86a16d831080ba6829c6e1a3ec8f5c64", "rental_uris": {"android": "https://dc.lft.to/lastmile_qr_scan", "ios": "https://dc.lft.to/lastmile_qr_scan"}, "name": "86a16d831080ba6829c6e1a3ec8f5c64", "is_reserved": 0}, {"is_disabled": 0, "fusion_lon": 0.0, "fusion_lat": 0.0, "lat": 38.94054883333333, "type": "electric_scooter", "lon": -77.02497533333333, "bike_id": "a41f9e6c9ed67e9e6c7dea0e71ed26b8", "rental_uris": {"android": "https://dc.lft.to/lastmile_qr_scan", "ios": "https://dc.lft.to/lastmile_qr_scan"}, "name": "a41f9e6c9ed67e9e6c7dea0e71ed26b8", "is_reserved": 0}, {"is_disabled": 0, "fusion_lon": 0.0, "fusion_lat": 0.0, "lat": 38.88755533333333, "type": "electric_scooter", "lon": -77.01600216666667, "bike_id": "f21034b9252bdf4bb43fd14c7b937654", "rental_uris": {"android": "https://dc.lft.to/lastmile_qr_scan", "ios": "https://dc.lft.to/lastmile_qr_scan"}, "name": "f21034b9252bdf4bb43fd14c7b937654", "is_reserved": 0}, {"is_disabled": 0, "fusion_lon": 0.0, "fusion_lat": 0.0, "lat": 38.911845666666665, "type": "electric_scooter", "lon": -77.01875416666667, "bike_id": "23a77cb4b9946cf7297f5d6337093577", "rental_uris": {"android": "https://dc.lft.to/lastmile_qr_scan", "ios": "https://dc.lft.to/lastmile_qr_scan"}, "name": "23a77cb4b9946cf7297f5d6337093577", "is_reserved": 0}, {"is_disabled": 0, "fusion_lon": 0.0, "fusion_lat": 0.0, "lat": 38.841174333333335, "type": "electric_bike", "lon": -77.089434, "bike_id": "679590903e86f4a19434eab5c295e971", "rental_uris": {"android": "https://dc.lft.to/lastmile_qr_scan", "ios": "https://dc.lft.to/lastmile_qr_scan"}, "name": "679590903e86f4a19434eab5c295e971", "is_reserved": 0}, {"is_disabled": 0, "fusion_lon": 0.0, "fusion_lat": 0.0, "lat": 38.8995715, "type": "electric_scooter", "lon": -77.052204, "bike_id": "d03079d73e8a3ef3d93724cf9d989853", "rental_uris": {"android": "https://dc.lft.to/lastmile_qr_scan", "ios": "https://dc.lft.to/lastmile_qr_scan"}, "name": "d03079d73e8a3ef3d93724cf9d989853", "is_reserved": 0}, {"is_disabled": 0, "fusion_lon": 0.0, "fusion_lat": 0.0, "lat": 38.918294833333334, "type": "electric_scooter", "lon": -77.03657616666666, "bike_id": "68e8c208299d34c4f03c38ce2012cb59", "rental_uris": {"android": "https://dc.lft.to/lastmile_qr_scan", "ios": "https://dc.lft.to/lastmile_qr_scan"}, "name": "68e8c208299d34c4f03c38ce2012cb59", "is_reserved": 0}, {"is_disabled": 0, "fusion_lon": 0.0, "fusion_lat": 0.0, "lat": 38.943039666666664, "type": "electric_scooter", "lon": -77.033508, "bike_id": "69c1fc1c22743c224691925694d7a1cc", "rental_uris": {"android": "https://dc.lft.to/lastmile_qr_scan", "ios": "https://dc.lft.to/lastmile_qr_scan"}, "name": "69c1fc1c22743c224691925694d7a1cc", "is_reserved": 0}, {"is_disabled": 0, "fusion_lon": 0.0, "fusion_lat": 0.0, "lat": 38.92984783333333, "type": "electric_scooter", "lon": -77.02324183333333, "bike_id": "ec5ab48c75cffa130c4182729adee4c5", "rental_uris": {"android": "https://dc.lft.to/lastmile_qr_scan", "ios": "https://dc.lft.to/lastmile_qr_scan"}, "name": "ec5ab48c75cffa130c4182729adee4c5", "is_reserved": 0}, {"is_disabled": 0, "fusion_lon": 0.0, "fusion_lat": 0.0, "lat": 38.903922333333334, "type": "electric_scooter", "lon": -77.016367, "bike_id": "c3085b2f086ff464cf7c44a1ab22e8f2", "rental_uris": {"android": "https://dc.lft.to/lastmile_qr_scan", "ios": "https://dc.lft.to/lastmile_qr_scan"}, "name": "c3085b2f086ff464cf7c44a1ab22e8f2", "is_reserved": 0}, {"is_disabled": 0, "fusion_lon": 0.0, "fusion_lat": 0.0, "lat": 38.8429555, "type": "electric_scooter", "lon": -76.99948633333334, "bike_id": "656dd4124727d4d0e557efd80108b3e6", "rental_uris": {"android": "https://dc.lft.to/lastmile_qr_scan", "ios": "https://dc.lft.to/lastmile_qr_scan"}, "name": "656dd4124727d4d0e557efd80108b3e6", "is_reserved": 0}, {"is_disabled": 0, "fusion_lon": 0.0, "fusion_lat": 0.0, "lat": 38.90371433333333, "type": "electric_scooter", "lon": -77.03436583333334, "bike_id": "c9c7b3b092fe5e8e126724d0e1bfaa43", "rental_uris": {"android": "https://dc.lft.to/lastmile_qr_scan", "ios": "https://dc.lft.to/lastmile_qr_scan"}, "name": "c9c7b3b092fe5e8e126724d0e1bfaa43", "is_reserved": 0}, {"is_disabled": 0, "fusion_lon": 0.0, "fusion_lat": 0.0, "lat": 38.917004, "type": "electric_scooter", "lon": -77.04270216666667, "bike_id": "629c798129c3e3dd8d669f77798b4dac", "rental_uris": {"android": "https://dc.lft.to/lastmile_qr_scan", "ios": "https://dc.lft.to/lastmile_qr_scan"}, "name": "629c798129c3e3dd8d669f77798b4dac", "is_reserved": 0}, {"is_disabled": 0, "fusion_lon": 0.0, "fusion_lat": 0.0, "lat": 38.917666833333335, "type": "electric_scooter", "lon": -77.016004, "bike_id": "1d182d563dde42d05e4f5dc424de351c", "rental_uris": {"android": "https://dc.lft.to/lastmile_qr_scan", "ios": "https://dc.lft.to/lastmile_qr_scan"}, "name": "1d182d563dde42d05e4f5dc424de351c", "is_reserved": 0}, {"is_disabled": 0, "fusion_lon": 0.0, "fusion_lat": 0.0, "lat": 38.91120016666667, "type": "electric_scooter", "lon": -77.040904, "bike_id": "fec9e295dac64adc915be0134e69ffe0", "rental_uris": {"android": "https://dc.lft.to/lastmile_qr_scan", "ios": "https://dc.lft.to/lastmile_qr_scan"}, "name": "fec9e295dac64adc915be0134e69ffe0", "is_reserved": 0}, {"is_disabled": 0, "fusion_lon": 0.0, "fusion_lat": 0.0, "lat": 38.91659633333333, "type": "electric_scooter", "lon": -77.04652166666666, "bike_id": "7c045828bd649c78b32e12d678199429", "rental_uris": {"android": "https://dc.lft.to/lastmile_qr_scan", "ios": "https://dc.lft.to/lastmile_qr_scan"}, "name": "7c045828bd649c78b32e12d678199429", "is_reserved": 0}, {"is_disabled": 0, "fusion_lon": 0.0, "fusion_lat": 0.0, "lat": 38.8973155, "type": "electric_bike", "lon": -76.9053535, "bike_id": "ed5490bb7e810dba25f84d0d19d07278", "rental_uris": {"android": "https://dc.lft.to/lastmile_qr_scan", "ios": "https://dc.lft.to/lastmile_qr_scan"}, "name": "ed5490bb7e810dba25f84d0d19d07278", "is_reserved": 0}, {"is_disabled": 0, "fusion_lon": 0.0, "fusion_lat": 0.0, "lat": 38.913631, "type": "electric_scooter", "lon": -77.04164983333334, "bike_id": "6aa5e11379baf416668b49b78c3333e0", "rental_uris": {"android": "https://dc.lft.to/lastmile_qr_scan", "ios": "https://dc.lft.to/lastmile_qr_scan"}, "name": "6aa5e11379baf416668b49b78c3333e0", "is_reserved": 0}, {"is_disabled": 0, "fusion_lon": 0.0, "fusion_lat": 0.0, "lat": 38.91338433333333, "type": "electric_scooter", "lon": -77.021885, "bike_id": "131ddd3976a8d5a6b8ef9e4584868898", "rental_uris": {"android": "https://dc.lft.to/lastmile_qr_scan", "ios": "https://dc.lft.to/lastmile_qr_scan"}, "name": "131ddd3976a8d5a6b8ef9e4584868898", "is_reserved": 0}, {"is_disabled": 0, "fusion_lon": 0.0, "fusion_lat": 0.0, "lat": 38.886790833333336, "type": "electric_scooter", "lon": -77.00356783333334, "bike_id": "b94407360f5bbbb5b34e266fe4abf6b7", "rental_uris": {"android": "https://dc.lft.to/lastmile_qr_scan", "ios": "https://dc.lft.to/lastmile_qr_scan"}, "name": "b94407360f5bbbb5b34e266fe4abf6b7", "is_reserved": 0}, {"is_disabled": 0, "fusion_lon": 0.0, "fusion_lat": 0.0, "lat": 39.052082166666665, "type": "electric_bike", "lon": -77.04407016666667, "bike_id": "57fc9ddf717e9c613cff9bcaa5c46134", "rental_uris": {"android": "https://dc.lft.to/lastmile_qr_scan", "ios": "https://dc.lft.to/lastmile_qr_scan"}, "name": "57fc9ddf717e9c613cff9bcaa5c46134", "is_reserved": 0}, {"is_disabled": 0, "fusion_lon": 0.0, "fusion_lat": 0.0, "lat": 38.96819416666666, "type": "electric_scooter", "lon": -77.00890616666666, "bike_id": "38673380c9174998e8857a4aaed57e43", "rental_uris": {"android": "https://dc.lft.to/lastmile_qr_scan", "ios": "https://dc.lft.to/lastmile_qr_scan"}, "name": "38673380c9174998e8857a4aaed57e43", "is_reserved": 0}, {"is_disabled": 0, "fusion_lon": 0.0, "fusion_lat": 0.0, "lat": 38.9058045, "type": "electric_scooter", "lon": -77.006963, "bike_id": "17bcc4ea7898fb8116dfa70f07683e27", "rental_uris": {"android": "https://dc.lft.to/lastmile_qr_scan", "ios": "https://dc.lft.to/lastmile_qr_scan"}, "name": "17bcc4ea7898fb8116dfa70f07683e27", "is_reserved": 0}, {"is_disabled": 0, "fusion_lon": 0.0, "fusion_lat": 0.0, "lat": 38.915166666666664, "type": "electric_scooter", "lon": -77.01982366666667, "bike_id": "403b036060841bd0b50088950da1d8c6", "rental_uris": {"android": "https://dc.lft.to/lastmile_qr_scan", "ios": "https://dc.lft.to/lastmile_qr_scan"}, "name": "403b036060841bd0b50088950da1d8c6", "is_reserved": 0}, {"is_disabled": 0, "fusion_lon": 0.0, "fusion_lat": 0.0, "lat": 38.942020166666666, "type": "electric_scooter", "lon": -77.02415033333334, "bike_id": "783a11a086a385776b9329f011de18d2", "rental_uris": {"android": "https://dc.lft.to/lastmile_qr_scan", "ios": "https://dc.lft.to/lastmile_qr_scan"}, "name": "783a11a086a385776b9329f011de18d2", "is_reserved": 0}, {"is_disabled": 0, "fusion_lon": 0.0, "fusion_lat": 0.0, "lat": 38.89516116666667, "type": "electric_scooter", "lon": -77.02196683333334, "bike_id": "1f2d85f62f7113ad74e9c43fcc459b3c", "rental_uris": {"android": "https://dc.lft.to/lastmile_qr_scan", "ios": "https://dc.lft.to/lastmile_qr_scan"}, "name": "1f2d85f62f7113ad74e9c43fcc459b3c", "is_reserved": 0}, {"is_disabled": 0, "fusion_lon": 0.0, "fusion_lat": 0.0, "lat": 38.9215355, "type": "electric_scooter", "lon": -77.03868716666666, "bike_id": "1d640897c7652f93f376f290819b3ece", "rental_uris": {"android": "https://dc.lft.to/lastmile_qr_scan", "ios": "https://dc.lft.to/lastmile_qr_scan"}, "name": "1d640897c7652f93f376f290819b3ece", "is_reserved": 0}, {"is_disabled": 0, "fusion_lon": 0.0, "fusion_lat": 0.0, "lat": 38.892184, "type": "electric_scooter", "lon": -77.0264445, "bike_id": "e36be39fe2a06a6ad8a758df79ac21cd", "rental_uris": {"android": "https://dc.lft.to/lastmile_qr_scan", "ios": "https://dc.lft.to/lastmile_qr_scan"}, "name": "e36be39fe2a06a6ad8a758df79ac21cd", "is_reserved": 0}, {"is_disabled": 0, "fusion_lon": 0.0, "fusion_lat": 0.0, "lat": 38.94478516666667, "type": "electric_bike", "lon": -77.006441, "bike_id": "8ddc728325d780a34ba5ba04e98a3cc0", "rental_uris": {"android": "https://dc.lft.to/lastmile_qr_scan", "ios": "https://dc.lft.to/lastmile_qr_scan"}, "name": "8ddc728325d780a34ba5ba04e98a3cc0", "is_reserved": 0}, {"is_disabled": 0, "fusion_lon": 0.0, "fusion_lat": 0.0, "lat": 38.88690583333333, "type": "electric_scooter", "lon": -76.954742, "bike_id": "6177569a031b1ef1193b2d70f7a277ad", "rental_uris": {"android": "https://dc.lft.to/lastmile_qr_scan", "ios": "https://dc.lft.to/lastmile_qr_scan"}, "name": "6177569a031b1ef1193b2d70f7a277ad", "is_reserved": 0},