{"data": {"bikes": [{"rental_uris": {"android": "https://dc.lft.to/lastmile_qr_scan", "ios": "https://dc.lft.to/lastmile_qr_scan"}, "is_reserved": 0, "is_disabled": 0, "name": "4198eed8685c458f289ec6220cbb13ff", "bike_id": "4198eed8685c458f289ec6220cbb13ff", "fusion_lat": 0.0, "lon": -77.0062745, "type": "electric_scooter", "fusion_lon": 0.0, "lat": 38.87195066666666}, {"rental_uris": {"android": "https://dc.lft.to/lastmile_qr_scan", "ios": "https://dc.lft.to/lastmile_qr_scan"}, "is_reserved": 0, "is_disabled": 0, "name": "9d57a0391080d42f00a6da7a688e0ee9", "bike_id": "9d57a0391080d42f00a6da7a688e0ee9", "fusion_lat": 0.0, "lon": -77.03458016666667, "type": "electric_scooter", "fusion_lon": 0.0, "lat": 38.916636}, {"rental_uris": {"android": "https://dc.lft.to/lastmile_qr_scan", "ios": "https://dc.lft.to/lastmile_qr_scan"}, "is_reserved": 0, "is_disabled": 0, "name": "2fcb9ddffc894e337916e97017280769", "bike_id": "2fcb9ddffc894e337916e97017280769", "fusion_lat": 0.0, "lon": -77.02029983333334, "type": "electric_bike", "fusion_lon": 0.0, "lat": 38.965589}, {"rental_uris": {"android": "https://dc.lft.to/lastmile_qr_scan", "ios": "https://dc.lft.to/lastmile_qr_scan"}, "is_reserved": 0, "is_disabled": 0, "name": "256e1a1466d9246c73c865a8bb19f42c", "bike_id": "256e1a1466d9246c73c865a8bb19f42c", "fusion_lat": 0.0, "lon": -77.03907433333333, "type": "electric_scooter", "fusion_lon": 0.0, "lat": 38.914116166666666}, {"rental_uris": {"android": "https://dc.lft.to/lastmile_qr_scan", "ios": "https://dc.lft.to/lastmile_qr_scan"}, "is_reserved": 0, "is_disabled": 0, "name": "1410784500f2e45890fcc35444b458e2", "bike_id": "1410784500f2e45890fcc35444b458e2", "fusion_lat": 0.0, "lon": -77.01693833333333, "type": "electric_scooter", "fusion_lon": 0.0, "lat": 38.901323833333336}, {"rental_uris": {"android": "https://dc.lft.to/lastmile_qr_scan", "ios": "https://dc.lft.to/lastmile_qr_scan"}, "is_reserved": 0, "is_disabled": 0, "name": "ea97ce68644f160c06da9ddaecae925e", "bike_id": "ea97ce68644f160c06da9ddaecae925e", "fusion_lat": 0.0, "lon": -77.02488166666667, "type": "electric_scooter", "fusion_lon": 0.0, "lat": 38.902611}, {"rental_uris": {"android": "https://dc.lft.to/lastmile_qr_scan", "ios": "https://dc.lft.to/lastmile_qr_scan"}, "is_reserved": 0, "is_disabled": 0, "name": "d078684926b76566a0d1014e86428bb4", "bike_id": "d078684926b76566a0d1014e86428bb4", "fusion_lat": 0.0, "lon": -77.03645066666667, "type": "electric_scooter", "fusion_lon": 0.0, "lat": 38.9359905}, {"rental_uris": {"android": "https://dc.lft.to/lastmile_qr_scan", "ios": "https://dc.lft.to/lastmile_qr_scan"}, "is_reserved": 0, "is_disabled": 0, "name": "c0463856c75978895837dc80a6489271", "bike_id": "c0463856c75978895837dc80a6489271", "fusion_lat": 0.0, "lon": -77.01999066666667, "type": "electric_scooter", "fusion_lon": 0.0, "lat": 38.91541433333333}, {"rental_uris": {"android": "https://dc.lft.to/lastmile_qr_scan", "ios": "https://dc.lft.to/lastmile_qr_scan"}, "is_reserved": 0, "is_disabled": 0, "name": "52b46b51e4a0cfa65c11d90ccdb90db1", "bike_id": "52b46b51e4a0cfa65c11d90ccdb90db1", "fusion_lat": 0.0, "lon": -76.9487235, "type": "electric_scooter", "fusion_lon": 0.0, "lat": 38.894981333333334}, {"rental_uris": {"android": "https://dc.lft.to/lastmile_qr_scan", "ios": "https://dc.lft.to/lastmile_qr_scan"}, "is_reserved": 0, "is_disabled": 0, "name": "aa27e251e2a78c6818f40b6ea037e158", "bike_id": "aa27e251e2a78c6818f40b6ea037e158", "fusion_lat": 0.0, "lon": -76.99672633333333, "type": "electric_bike", "fusion_lon": 0.0, "lat": 38.8382115}, {"rental_uris": {"android": "https://dc.lft.to/lastmile_qr_scan", "ios": "https://dc.lft.to/lastmile_qr_scan"}, "is_reserved": 0, "is_disabled": 0, "name": "8d319289b35b152b80ea603c73e100a2", "bike_id": "8d319289b35b152b80ea603c73e100a2", "fusion_lat": 0.0, "lon": -77.05731583333333, "type": "electric_scooter", "fusion_lon": 0.0, "lat": 38.93371966666667}, {"rental_uris": {"android": "https://dc.lft.to/lastmile_qr_scan", "ios": "https://dc.lft.to/lastmile_qr_scan"}, "is_reserved": 0, "is_disabled": 0, "name": "cf0c16cbf84db6c8ff40bd4c2bcfab46", "bike_id": "cf0c16cbf84db6c8ff40bd4c2bcfab46", "fusion_lat": 0.0, "lon": -77.0487985, "type": "electric_scooter", "fusion_lon": 0.0, "lat": 38.90046783333333}, {"rental_uris": {"android": "https://dc.lft.to/lastmile_qr_scan", "ios": "https://dc.lft.to/lastmile_qr_scan"}, "is_reserved": 0, "is_disabled": 0, "name": "dd302270bcada78a669bbdc630e71a58", "bike_id": "dd302270bcada78a669bbdc630e71a58", "fusion_lat": 0.0, "lon": -77.036209, "type": "electric_scooter", "fusion_lon": 0.0, "lat": 38.936805166666666}, {"rental_uris": {"android": "https://dc.lft.to/lastmile_qr_scan", "ios": "https://dc.lft.to/lastmile_qr_scan"}, "is_reserved": 0, "is_disabled": 0, "name": "d81115f47acdacc77ffc44d473690efa", "bike_id": "d81115f47acdacc77ffc44d473690efa", "fusion_lat": 0.0, "lon": -77.01434183333333, "type": "electric_scooter", "fusion_lon": 0.0, "lat": 38.91951916666667}, {"rental_uris": {"android": "https://dc.lft.to/lastmile_qr_scan", "ios": "https://dc.lft.to/lastmile_qr_scan"}, "is_reserved": 0, "is_disabled": 0, "name": "954a296c85d36b6811e17f3761b5e52d", "bike_id": "954a296c85d36b6811e17f3761b5e52d", "fusion_lat": 0.0, "lon": -77.027933, "type": "electric_scooter", "fusion_lon": 0.0, "lat": 38.939219666666666}, {"rental_uris": {"android": "https://dc.lft.to/lastmile_qr_scan", "ios": "https://dc.lft.to/lastmile_qr_scan"}, "is_reserved": 0, "is_disabled": 0, "name": "b8eb770293605c469e261e83873c0a44", "bike_id": "b8eb770293605c469e261e83873c0a44", "fusion_lat": 0.0, "lon": -77.0021215, "type": "electric_scooter", "fusion_lon": 0.0, "lat": 38.900353333333335}, {"rental_uris": {"android": "https://dc.lft.to/lastmile_qr_scan", "ios": "https://dc.lft.to/lastmile_qr_scan"}, "is_reserved": 0, "is_disabled": 0, "name": "56ed7ce94ad22103af5ee83ecf89611b", "bike_id": "56ed7ce94ad22103af5ee83ecf89611b", "fusion_lat": 0.0, "lon": -77.02905883333334, "type": "electric_scooter", "fusion_lon": 0.0, "lat": 38.952972833333334}, {"rental_uris": {"android": "https://dc.lft.to/lastmile_qr_scan", "ios": "https://dc.lft.to/lastmile_qr_scan"}, "is_reserved": 0, "is_disabled": 0, "name": "3d9d9603dce7f59a352dce0795d16d7f", "bike_id": "3d9d9603dce7f59a352dce0795d16d7f", "fusion_lat": 0.0, "lon": -77.036289, "type": "electric_scooter", "fusion_lon": 0.0, "lat": 38.90380233333333}, {"rental_uris": {"android": "https://dc.lft.to/lastmile_qr_scan", "ios": "https://dc.lft.to/lastmile_qr_scan"}, "is_reserved": 0, "is_disabled": 0, "name": "4d9e598b69f0430e004e55e9ca08c2c1", "bike_id": "4d9e598b69f0430e004e55e9ca08c2c1", "fusion_lat": 0.0, "lon": -77.04319633333333, "type": "electric_scooter", "fusion_lon": 0.0, "lat": 38.92614833333333}, {"rental_uris": {"android": "https://dc.lft.to/lastmile_qr_scan", "ios": "https://dc.lft.to/lastmile_qr_scan"}, "is_reserved": 0, "is_disabled": 0, "name": "8c5767ec44f831938f9f7dffd744604f", "bike_id": "8c5767ec44f831938f9f7dffd744604f", "fusion_lat": 0.0, "lon": -77.02823566666666, "type": "electric_scooter", "fusion_lon": 0.0, "lat": 38.8873675}, {"rental_uris": {"android": "https://dc.lft.to/lastmile_qr_scan", "ios": "https://dc.lft.to/lastmile_qr_scan"}, "is_reserved": 0, "is_disabled": 0, "name": "aecf6356d5bf5652c944dcf8b72e90d9", "bike_id": "aecf6356d5bf5652c944dcf8b72e90d9", "fusion_lat": 0.0, "lon": -76.9836675, "type": "electric_scooter", "fusion_lon": 0.0, "lat": 38.8926535}, {"rental_uris": {"android": "https://dc.lft.to/lastmile_qr_scan", "ios": "https://dc.lft.to/lastmile_qr_scan"}, "is_reserved": 0, "is_disabled": 0, "name": "8be06d4c76a1ce3b3916cc4d9f6119aa", "bike_id": "8be06d4c76a1ce3b3916cc4d9f6119aa", "fusion_lat": 0.0, "lon": -77.03067183333333, "type": "electric_scooter", "fusion_lon": 0.0, "lat": 38.899536833333336}, {"rental_uris": {"android": "https://dc.lft.to/lastmile_qr_scan", "ios": "https://dc.lft.to/lastmile_qr_scan"}, "is_reserved": 0, "is_disabled": 0, "name": "a19bcb5981f1bc88a9eb69120a3f5ea3", "bike_id": "a19bcb5981f1bc88a9eb69120a3f5ea3", "fusion_lat": 0.0, "lon": -77.07474116666667, "type": "electric_scooter", "fusion_lon": 0.0, "lat": 38.961934}, {"rental_uris": {"android": "https://dc.lft.to/lastmile_qr_scan", "ios": "https://dc.lft.to/lastmile_qr_scan"}, "is_reserved": 0, "is_disabled": 0, "name": "494e5c01e6799312352703151f675866", "bike_id": "494e5c01e6799312352703151f675866", "fusion_lat": 0.0, "lon": -76.985628, "type": "electric_scooter", "fusion_lon": 0.0, "lat": 38.89621833333333}, {"rental_uris": {"android": "https://dc.lft.to/lastmile_qr_scan", "ios": "https://dc.lft.to/lastmile_qr_scan"}, "is_reserved": 0, "is_disabled": 0, "name": "8cb35ca02038f52eacd1cafa684620b2", "bike_id": "8cb35ca02038f52eacd1cafa684620b2", "fusion_lat": 0.0, "lon": -77.04327983333333, "type": "electric_scooter", "fusion_lon": 0.0, "lat": 38.92329016666667}, {"rental_uris": {"android": "https://dc.lft.to/lastmile_qr_scan", "ios": "https://dc.lft.to/lastmile_qr_scan"}, "is_reserved": 0, "is_disabled": 0, "name": "18f94d3d284b5a58524816df3a17c6f5", "bike_id": "18f94d3d284b5a58524816df3a17c6f5", "fusion_lat": 0.0, "lon": -77.01315433333333, "type": "electric_scooter", "fusion_lon": 0.0, "lat": 38.892258166666664}, {"rental_uris": {"android": "https://dc.lft.to/lastmile_qr_scan", "ios": "https://dc.lft.to/lastmile_qr_scan"}, "is_reserved": 0, "is_disabled": 0, "name": "22fa6d8aee929365be442b810f2784f2", "bike_id": "22fa6d8aee929365be442b810f2784f2", "fusion_lat": 0.0, "lon": -76.92964183333333, "type": "electric_scooter", "fusion_lon": 0.0, "lat": 38.884438}, {"rental_uris": {"android": "https://dc.lft.to/lastmile_qr_scan", "ios": "https://dc.lft.to/lastmile_qr_scan"}, "is_reserved": 0, "is_disabled": 0, "name": "ab71a1d151e8895ca6835fbf047291c6", "bike_id": "ab71a1d151e8895ca6835fbf047291c6", "fusion_lat": 0.0, "lon": -77.044814, "type": "electric_scooter", "fusion_lon": 0.0, "lat": 38.90281916666667}, {"rental_uris": {"android": "https://dc.lft.to/lastmile_qr_scan", "ios": "https://dc.lft.to/lastmile_qr_scan"}, "is_reserved": 0, "is_disabled": 0, "name": "641a2b93ddf0f6f9d5b62c8626e4917b", "bike_id": "641a2b93ddf0f6f9d5b62c8626e4917b", "fusion_lat": 0.0, "lon": -76.94651266666666, "type": "electric_scooter", "fusion_lon": 0.0, "lat": 38.89825066666667}, {"rental_uris": {"android": "https://dc.lft.to/lastmile_qr_scan", "ios": "https://dc.lft.to/lastmile_qr_scan"}, "is_reserved": 0, "is_disabled": 0, "name": "24119094abda88d9948554dcdc92bdac", "bike_id": "24119094abda88d9948554dcdc92bdac", "fusion_lat": 0.0, "lon": -77.02409666666667, "type": "electric_scooter", "fusion_lon": 0.0, "lat": 38.91570333333333}, {"rental_uris": {"android": "https://dc.lft.to/lastmile_qr_scan", "ios": "https://dc.lft.to/lastmile_qr_scan"}, "is_reserved": 0, "is_disabled": 0, "name": "4718b967f83870877cebe552d3326d3e", "bike_id": "4718b967f83870877cebe552d3326d3e", "fusion_lat": 0.0, "lon": -77.02800183333333, "type": "electric_scooter", "fusion_lon": 0.0, "lat": 38.89227916666667}, {"rental_uris": {"android": "https://dc.lft.to/lastmile_qr_scan", "ios": "https://dc.lft.to/lastmile_qr_scan"}, "is_reserved": 0, "is_disabled": 0, "name": "86a35802c190118c0b4c1c5b513376f5", "bike_id": "86a35802c190118c0b4c1c5b513376f5", "fusion_lat": 0.0, "lon": -77.02153883333334, "type": "electric_scooter", "fusion_lon": 0.0, "lat": 38.941333}, {"rental_uris": {"android": "https://dc.lft.to/lastmile_qr_scan", "ios": "https://dc.lft.to/lastmile_qr_scan"}, "is_reserved": 0, "is_disabled": 0, "name": "8c41f43a5984aa626ec4aec6d44da631", "bike_id": "8c41f43a5984aa626ec4aec6d44da631", "fusion_lat": 0.0, "lon": -77.04680516666667, "type": "electric_scooter", "fusion_lon": 0.0, "lat": 38.8922195}, {"rental_uris": {"android": "https://dc.lft.to/lastmile_qr_scan", "ios": "https://dc.lft.to/lastmile_qr_scan"}, "is_reserved": 0, "is_disabled": 0, "name": "0e0ed213e0c43d3887ed115dc095eaf9", "bike_id": "0e0ed213e0c43d3887ed115dc095eaf9", "fusion_lat": 0.0, "lon": -77.046903, "type": "electric_scooter", "fusion_lon": 0.0, "lat": 38.896069}, {"rental_uris": {"android": "https://dc.lft.to/lastmile_qr_scan", "ios": "https://dc.lft.to/lastmile_qr_scan"}, "is_reserved": 0, "is_disabled": 0, "name": "b905927a4295fc3fa8b22be0457df78e", "bike_id": "b905927a4295fc3fa8b22be0457df78e", "fusion_lat": 0.0, "lon": -77.09100816666667, "type": "electric_scooter", "fusion_lon": 0.0, "lat": 38.930945666666666}, {"rental_uris": {"android": "https://dc.lft.to/lastmile_qr_scan", "ios": "https://dc.lft.to/lastmile_qr_scan"}, "is_reserved": 0, "is_disabled": 0, "name": "6eb21d360964841e78546ccc62d3bf50", "bike_id": "6eb21d360964841e78546ccc62d3bf50", "fusion_lat": 0.0, "lon": -77.053382, "type": "electric_scooter", "fusion_lon": 0.0, "lat": 38.90644666666667}, {"rental_uris": {"android": "https://dc.lft.to/lastmile_qr_scan", "ios": "https://dc.lft.to/lastmile_qr_scan"}, "is_reserved": 0, "is_disabled": 0, "name": "9bd32f18d591ea97e93615dc968d988d", "bike_id": "9bd32f18d591ea97e93615dc968d988d", "fusion_lat": 0.0, "lon": -77.02193966666667, "type": "electric_scooter", "fusion_lon": 0.0, "lat": 38.924851333333336}, {"rental_uris": {"android": "https://dc.lft.to/lastmile_qr_scan", "ios": "https://dc.lft.to/lastmile_qr_scan"}, "is_reserved": 0, "is_disabled": 0, "name": "020e80c3c0887224bb563b88ef769e1c", "bike_id": "020e80c3c0887224bb563b88ef769e1c", "fusion_lat": 0.0, "lon": -77.01224983333333, "type": "electric_bike", "fusion_lon": 0.0, "lat": 38.95082033333333}, {"rental_uris": {"android": "https://dc.lft.to/lastmile_qr_scan", "ios": "https://dc.lft.to/lastmile_qr_scan"}, "is_reserved": 0, "is_disabled": 0, "name": "e02043607ce89a369b6a6fd0fe3a1862", "bike_id": "e02043607ce89a369b6a6fd0fe3a1862", "fusion_lat": 0.0, "lon": -77.0276345, "type": "electric_scooter", "fusion_lon": 0.0, "lat": 38.8984805}, {"rental_uris": {"android": "https://dc.lft.to/lastmile_qr_scan", "ios": "https://dc.lft.to/lastmile_qr_scan"}, "is_reserved": 0, "is_disabled": 0, "name": "25e3d3174cfe8b4fb7e6ed879b406cab", "bike_id": "25e3d3174cfe8b4fb7e6ed879b406cab", "fusion_lat": 0.0, "lon": -77.03889016666666, "type": "electric_scooter", "fusion_lon": 0.0, "lat": 38.92216616666666}, {"rental_uris": {"android": "https://dc.lft.to/lastmile_qr_scan", "ios": "https://dc.lft.to/lastmile_qr_scan"}, "is_reserved": 0, "is_disabled": 0, "name": "2e3772c7e604351e829da4ed28cd3590", "bike_id": "2e3772c7e604351e829da4ed28cd3590", "fusion_lat": 0.0, "lon": -77.0291185, "type": "electric_scooter", "fusion_lon": 0.0, "lat": 38.91655133333333}, {"rental_uris": {"android": "https://dc.lft.to/lastmile_qr_scan", "ios": "https://dc.lft.to/lastmile_qr_scan"}, "is_reserved": 0, "is_disabled": 0, "name": "6b58fdf05af5a04b4b73b4dab8196373", "bike_id": "6b58fdf05af5a04b4b73b4dab8196373", "fusion_lat": 0.0, "lon": -77.03841716666666, "type": "electric_scooter", "fusion_lon": 0.0, "lat": 38.9217595}, {"rental_uris": {"android": "https://dc.lft.to/lastmile_qr_scan", "ios": "https://dc.lft.to/lastmile_qr_scan"}, "is_reserved": 0, "is_disabled": 0, "name": "3fc7553ca6d120c1c5a29df595fd1b9f", "bike_id": "3fc7553ca6d120c1c5a29df595fd1b9f", "fusion_lat": 0.0, "lon": -77.00343866666667, "type": "electric_scooter", "fusion_lon": 0.0, "lat": 38.89463083333333}, {"rental_uris": {"android": "https://dc.lft.to/lastmile_qr_scan", "ios": "https://dc.lft.to/lastmile_qr_scan"}, "is_reserved": 0, "is_disabled": 0, "name": "4959e5110e90ea9e2e8d3d55b7845dea", "bike_id": "4959e5110e90ea9e2e8d3d55b7845dea", "fusion_lat": 0.0, "lon": -77.03280766666667, "type": "electric_scooter", "fusion_lon": 0.0, "lat": 38.898779}, {"rental_uris": {"android": "https://dc.lft.to/lastmile_qr_scan", "ios": "https://dc.lft.to/lastmile_qr_scan"}, "is_reserved": 0, "is_disabled": 0, "name": "3405359d3d43e7d34e4982b8efb6b259", "bike_id": "3405359d3d43e7d34e4982b8efb6b259", "fusion_lat": 0.0, "lon": -77.03963066666667, "type": "electric_scooter", "fusion_lon": 0.0, "lat": 38.931508666666666}, {"rental_uris": {"android": "https://dc.lft.to/lastmile_qr_scan", "ios": "https://dc.lft.to/lastmile_qr_scan"}, "is_reserved": 0, "is_disabled": 0, "name": "1b316a20c244b22b7af66c3047f3170e", "bike_id": "1b316a20c244b22b7af66c3047f3170e", "fusion_lat": 0.0, "lon": -77.02946616666667, "type": "electric_scooter", "fusion_lon": 0.0, "lat": 38.9072765}, {"rental_uris": {"android": "https://dc.lft.to/lastmile_qr_scan", "ios": "https://dc.lft.to/lastmile_qr_scan"}, "is_reserved": 0, "is_disabled": 0, "name": "bcbadf06c1db4f1b15be0b42765bccfe", "bike_id": "bcbadf06c1db4f1b15be0b42765bccfe", "fusion_lat": 0.0, "lon": -77.0188105, "type": "electric_scooter", "fusion_lon": 0.0, "lat": 38.9055255}, {"rental_uris": {"android": "https://dc.lft.to/lastmile_qr_scan", "ios": "https://dc.lft.to/lastmile_qr_scan"}, "is_reserved": 0, "is_disabled": 0, "name": "e74c12bf2819f381af609a811cb1d819", "bike_id": "e74c12bf2819f381af609a811cb1d819", "fusion_lat": 0.0, "lon": -77.0394685, "type": "electric_scooter", "fusion_lon": 0.0, "lat": 38.9083575}, {"rental_uris": {"android": "https://dc.lft.to/lastmile_qr_scan", "ios": "https://dc.lft.to/lastmile_qr_scan"}, "is_reserved": 0, "is_disabled": 0, "name": "bb32bac768b09da1667380f26553fb37", "bike_id": "bb32bac768b09da1667380f26553fb37", "fusion_lat": 0.0, "lon": -77.0749, "type": "electric_scooter", "fusion_lon": 0.0, "lat": 38.9230675}, {"rental_uris": {"android": "https://dc.lft.to/lastmile_qr_scan", "ios": "https://dc.lft.to/lastmile_qr_scan"}, "is_reserved": 0, "is_disabled": 0, "name": "2ca5f83f6bc4af9ca9d8bb2924745c0e", "bike_id": "2ca5f83f6bc4af9ca9d8bb2924745c0e", "fusion_lat": 0.0, "lon": -77.031932, "type": "electric_scooter", "fusion_lon": 0.0, "lat": 38.90375}, {"rental_uris": {"android": "https://dc.lft.to/lastmile_qr_scan", "ios": "https://dc.lft.to/lastmile_qr_scan"}, "is_reserved": 0, "is_disabled": 0, "name": "1a2e35c19e5a54e08e24b14f059a9eb9", "bike_id": "1a2e35c19e5a54e08e24b14f059a9eb9", "fusion_lat": 0.0, "lon": -77.01953283333333, "type": "electric_scooter", "fusion_lon": 0.0, "lat": 38.9319605}, {"rental_uris": {"android": "https://dc.lft.to/lastmile_qr_scan", "ios": "https://dc.lft.to/lastmile_qr_scan"}, "is_reserved": 0, "is_disabled": 0, "name": "c94f8fbc005ebb60fac24910f2b915c3", "bike_id": "c94f8fbc005ebb60fac24910f2b915c3", "fusion_lat": 0.0, "lon": -77.029543, "type": "electric_scooter", "fusion_lon": 0.0, "lat": 38.907137}, {"rental_uris": {"android": "https://dc.lft.to/lastmile_qr_scan", "ios": "https://dc.lft.to/lastmile_qr_scan"}, "is_reserved": 0, "is_disabled": 0, "name": "e7b547a40e5ad2ba06c20bb16b75bbe8", "bike_id": "e7b547a40e5ad2ba06c20bb16b75bbe8", "fusion_lat": 0.0, "lon": -77.01518, "type": "electric_scooter", "fusion_lon": 0.0, "lat": 38.87292733333334}, {"rental_uris": {"android": "https://dc.lft.to/lastmile_qr_scan", "ios": "https://dc.lft.to/lastmile_qr_scan"}, "is_reserved": 0, "is_disabled": 0, "name": "397a0b2c6455147d7e89b617f1793aad", "bike_id": "397a0b2c6455147d7e89b617f1793aad", "fusion_lat": 0.0, "lon": -77.03756316666667, "type": "electric_scooter", "fusion_lon": 0.0, "lat": 38.91268016666667}, {"rental_uris": {"android": "https://dc.lft.to/lastmile_qr_scan", "ios": "https://dc.lft.to/lastmile_qr_scan"}, "is_reserved": 0, "is_disabled": 0, "name": "65ef21c8cc8eae5d4e6b24d58855c1d0", "bike_id": "65ef21c8cc8eae5d4e6b24d58855c1d0", "fusion_lat": 0.0, "lon": -76.985179, "type": "electric_scooter", "fusion_lon": 0.0, "lat": 38.90059083333333}, {"rental_uris": {"android": "https://dc.lft.to/lastmile_qr_scan", "ios": "https://dc.lft.to/lastmile_qr_scan"}, "is_reserved": 0, "is_disabled": 0, "name": "06659fdc4d032e2eb067db382f0cabe3", "bike_id": "06659fdc4d032e2eb067db382f0cabe3", "fusion_lat": 0.0, "lon": -77.09685916666666, "type": "electric_bike", "fusion_lon": 0.0, "lat": 38.807421166666664}, {"rental_uris": {"android": "https://dc.lft.to/lastmile_qr_scan", "ios": "https://dc.lft.to/lastmile_qr_scan"}, "is_reserved": 0, "is_disabled": 0, "name": "74f01a8500074de32c36d14a72039e01", "bike_id": "74f01a8500074de32c36d14a72039e01", "fusion_lat": 0.0, "lon": -77.03866766666667, "type": "electric_scooter", "fusion_lon": 0.0, "lat": 38.9171095}, {"rental_uris": {"android": "https://dc.lft.to/lastmile_qr_scan", "ios": "https://dc.lft.to/lastmile_qr_scan"}, "is_reserved": 0, "is_disabled": 0, "name": "ba6d4e1cae9862938057c056e3be9c38", "bike_id": "ba6d4e1cae9862938057c056e3be9c38", "fusion_lat": 0.0, "lon": -77.04680216666667, "type": "electric_scooter", "fusion_lon": 0.0, "lat": 38.892224166666665}, {"rental_uris": {"android": "https://dc.lft.to/lastmile_qr_scan", "ios": "https://dc.lft.to/lastmile_qr_scan"}, "is_reserved": 0, "is_disabled": 0, "name": "403f51c8c2ceb8e6cd151af15fcad249", "bike_id": "403f51c8c2ceb8e6cd151af15fcad249", "fusion_lat": 0.0, "lon": -77.043479, "type": "electric_scooter", "fusion_lon": 0.0, "lat": 38.91129433333333}, {"rental_uris": {"android": "https://dc.lft.to/lastmile_qr_scan", "ios": "https://dc.lft.to/lastmile_qr_scan"}, "is_reserved": 0, "is_disabled": 0, "name": "f71fa194e710518b8731319ca1ad5984", "bike_id": "f71fa194e710518b8731319ca1ad5984", "fusion_lat": 0.0, "lon": -77.06168016666666, "type": "electric_scooter", "fusion_lon": 0.0, "lat": 38.9412555}, {"rental_uris": {"android": "https://dc.lft.to/lastmile_qr_scan", "ios": "https://dc.lft.to/lastmile_qr_scan"}, "is_reserved": 0, "is_disabled": 0, "name": "adbc0e3a6035387572d844a25d4d2713", "bike_id": "adbc0e3a6035387572d844a25d4d2713", "fusion_lat": 0.0, "lon": -77.043804, "type": "electric_scooter", "fusion_lon": 0.0, "lat": 38.9206115}, {"rental_uris": {"android": "https://dc.lft.to/lastmile_qr_scan", "ios": "https://dc.lft.to/lastmile_qr_scan"}, "is_reserved": 0, "is_disabled": 0, "name": "7214f9b5b4dc117d9a7cba3c8a3a39c2", "bike_id": "7214f9b5b4dc117d9a7cba3c8a3a39c2", "fusion_lat": 0.0, "lon": -76.94869083333333, "type": "electric_scooter", "fusion_lon": 0.0, "lat": 38.8949915}, {"rental_uris": {"android": "https://dc.lft.to/lastmile_qr_scan", "ios": "https://dc.lft.to/lastmile_qr_scan"}, "is_reserved": 0, "is_disabled": 0, "name": "9976002cd9f0461ba6008b6e4289ce6c", "bike_id": "9976002cd9f0461ba6008b6e4289ce6c", "fusion_lat": 0.0, "lon": -77.01945216666667, "type": "electric_scooter", "fusion_lon": 0.0, "lat": 38.924406166666664}, {"rental_uris": {"android": "https://dc.lft.to/lastmile_qr_scan", "ios": "https://dc.lft.to/lastmile_qr_scan"}, "is_reserved": 0, "is_disabled": 0, "name": "9e2c6880f3f3cbc80e3909b7d228ac45", "bike_id": "9e2c6880f3f3cbc80e3909b7d228ac45", "fusion_lat": 0.0, "lon": -77.0367475, "type": "electric_scooter", "fusion_lon": 0.0, "lat": 38.9069395}, {"rental_uris": {"android": "https://dc.lft.to/lastmile_qr_scan", "ios": "https://dc.lft.to/lastmile_qr_scan"}, "is_reserved": 0, "is_disabled": 0, "name": "16c4013352749c4a660d682746650f2c", "bike_id": "16c4013352749c4a660d682746650f2c", "fusion_lat": 0.0, "lon": -77.04355716666667, "type": "electric_scooter", "fusion_lon": 0.0, "lat": 38.92254}, {"rental_uris": {"android": "https://dc.lft.to/lastmile_qr_scan", "ios": "https://dc.lft.to/lastmile_qr_scan"}, "is_reserved": 0, "is_disabled": 0, "name": "997ad17b46256f693404c4456252a8ea", "bike_id": "997ad17b46256f693404c4456252a8ea", "fusion_lat": 0.0, "lon": -77.0319735, "type": "electric_scooter", "fusion_lon": 0.0, "lat": 38.910124833333334}, {"rental_uris": {"android": "https://dc.lft.to/lastmile_qr_scan", "ios": "https://dc.lft.to/lastmile_qr_scan"}, "is_reserved": 0, "is_disabled": 0, "name": "82253d47d977c5811d06bb20f40e0b8d", "bike_id": "82253d47d977c5811d06bb20f40e0b8d", "fusion_lat": 0.0, "lon": -77.00884466666666, "type": "electric_scooter", "fusion_lon": 0.0, "lat": 38.924667}, {"rental_uris": {"android": "https://dc.lft.to/lastmile_qr_scan", "ios": "https://dc.lft.to/lastmile_qr_scan"}, "is_reserved": 0, "is_disabled": 0, "name": "1c1c04e836e137322d182031dffc5c47", "bike_id": "1c1c04e836e137322d182031dffc5c47", "fusion_lat": 0.0, "lon": -77.23382583333333, "type": "electric_bike", "fusion_lon": 0.0, "lat": 38.8717435}, {"rental_uris": {"android": "https://dc.lft.to/lastmile_qr_scan", "ios": "https://dc.lft.to/lastmile_qr_scan"}, "is_reserved": 0, "is_disabled": 0, "name": "972df1db3b2c879177cd5e47a4190e40", "bike_id": "972df1db3b2c879177cd5e47a4190e40", "fusion_lat": 0.0, "lon": -77.0349215, "type": "electric_scooter", "fusion_lon": 0.0, "lat": 38.918719833333334}, {"rental_uris": {"android": "https://dc.lft.to/lastmile_qr_scan", "ios": "https://dc.lft.to/lastmile_qr_scan"}, "is_reserved": 0, "is_disabled": 0, "name": "203fbad9cb136986012c0514c6ce1cdf", "bike_id": "203fbad9cb136986012c0514c6ce1cdf", "fusion_lat": 0.0, "lon": -77.03400183333333, "type": "electric_scooter", "fusion_lon": 0.0, "lat": 38.914072}, {"rental_uris": {"android": "https://dc.lft.to/lastmile_qr_scan", "ios": "https://dc.lft.to/lastmile_qr_scan"}, "is_reserved": 0, "is_disabled": 0, "name": "f6a0c3962e9ce0240a80c6a115892b78", "bike_id": "f6a0c3962e9ce0240a80c6a115892b78", "fusion_lat": 0.0, "lon": -77.02302783333333, "type": "electric_scooter", "fusion_lon": 0.0, "lat": 38.912857}, {"rental_uris": {"android": "https://dc.lft.to/lastmile_qr_scan", "ios": "https://dc.lft.to/lastmile_qr_scan"}, "is_reserved": 0, "is_disabled": 0, "name": "ca8f2682d1a612b0a3978b4082477540", "bike_id": "ca8f2682d1a612b0a3978b4082477540", "fusion_lat": 0.0, "lon": -77.00389333333334, "type": "electric_bike", "fusion_lon": 0.0, "lat": 38.83430933333333}, {"rental_uris": {"android": "https://dc.lft.to/lastmile_qr_scan", "ios": "https://dc.lft.to/lastmile_qr_scan"}, "is_reserved": 0, "is_disabled": 0, "name": "2ea9175c37b48be886762eeb43dd5319", "bike_id": "2ea9175c37b48be886762eeb43dd5319", "fusion_lat": 0.0, "lon": -77.02931916666667, "type": "electric_scooter", "fusion_lon": 0.0, "lat": 38.920798833333336}, {"rental_uris": {"android": "https://dc.lft.to/lastmile_qr_scan", "ios": "https://dc.lft.to/lastmile_qr_scan"}, "is_reserved": 0, "is_disabled": 0, "name": "94b6274068d4d9d65b527ba5ada7138e", "bike_id": "94b6274068d4d9d65b527ba5ada7138e", "fusion_lat": 0.0, "lon": -77.02685466666667, "type": "electric_scooter", "fusion_lon": 0.0, "lat": 38.930810666666666}, {"rental_uris": {"android": "https://dc.lft.to/lastmile_qr_scan", "ios": "https://dc.lft.to/lastmile_qr_scan"}, "is_reserved": 0, "is_disabled": 0, "name": "76ab8bd5baec2995a74d22b18e0a05ef", "bike_id": "76ab8bd5baec2995a74d22b18e0a05ef", "fusion_lat": 0.0, "lon": -77.020062, "type": "electric_bike", "fusion_lon": 0.0, "lat": 39.0262245}, {"rental_uris": {"android": "https://dc.lft.to/lastmile_qr_scan", "ios": "https://dc.lft.to/lastmile_qr_scan"}, "is_reserved": 0, "is_disabled": 0, "name": "1e2d8a218d2160fcf43be11e3240392b", "bike_id": "1e2d8a218d2160fcf43be11e3240392b", "fusion_lat": 0.0, "lon": -77.008159, "type": "electric_scooter", "fusion_lon": 0.0, "lat": 38.91559866666667}, {"rental_uris": {"android": "https://dc.lft.to/lastmile_qr_scan", "ios": "https://dc.lft.to/lastmile_qr_scan"}, "is_reserved": 0, "is_disabled": 0, "name": "5dfc056cac42e3099420cc4c6034d5ba", "bike_id": "5dfc056cac42e3099420cc4c6034d5ba", "fusion_lat": 0.0, "lon": -77.02338133333333, "type": "electric_scooter", "fusion_lon": 0.0, "lat": 38.894707333333336}, {"rental_uris": {"android": "https://dc.lft.to/lastmile_qr_scan", "ios": "https://dc.lft.to/lastmile_qr_scan"}, "is_reserved": 0, "is_disabled": 0, "name": "16f70dc3e3c24e0e4efc1ad338fe4807", "bike_id": "16f70dc3e3c24e0e4efc1ad338fe4807", "fusion_lat": 0.0, "lon": -77.1128095, "type": "electric_bike", "fusion_lon": 0.0, "lat": 38.831047166666664}, {"rental_uris": {"android": "https://dc.lft.to/lastmile_qr_scan", "ios": "https://dc.lft.to/lastmile_qr_scan"}, "is_reserved": 0, "is_disabled": 0, "name": "9dc6c96e9edce962cb03cc393081b5e9", "bike_id": "9dc6c96e9edce962cb03cc393081b5e9", "fusion_lat": 0.0, "lon": -77.02828533333333, "type": "electric_scooter", "fusion_lon": 0.0, "lat": 38.93168033333333}, {"rental_uris": {"android": "https://dc.lft.to/lastmile_qr_scan", "ios": "https://dc.lft.to/lastmile_qr_scan"}, "is_reserved": 0, "is_disabled": 0, "name": "24f37c58a4ed514f693a584fabd89a68", "bike_id": "24f37c58a4ed514f693a584fabd89a68", "fusion_lat": 0.0, "lon": -77.03377183333333, "type": "electric_scooter", "fusion_lon": 0.0, "lat": 38.89326066666667}, {"rental_uris": {"android": "https://dc.lft.to/lastmile_qr_scan", "ios": "https://dc.lft.to/lastmile_qr_scan"}, "is_reserved": 0, "is_disabled": 0, "name": "e14d32708a5a934e17364a1f9aabe10b", "bike_id": "e14d32708a5a934e17364a1f9aabe10b", "fusion_lat": 0.0, "lon": -77.01559716666667, "type": "electric_scooter", "fusion_lon": 0.0, "lat": 38.87623466666667}, {"rental_uris": {"android": "https://dc.lft.to/lastmile_qr_scan", "ios": "https://dc.lft.to/lastmile_qr_scan"}, "is_reserved": 0, "is_disabled": 0, "name": "1176d97599463d13788bbbf9d0bb27b7", "bike_id": "1176d97599463d13788bbbf9d0bb27b7", "fusion_lat": 0.0, "lon": -77.0653055, "type": "electric_bike", "fusion_lon": 0.0, "lat": 38.99230716666667}, {"rental_uris": {"android": "https://dc.lft.to/lastmile_qr_scan", "ios": "https://dc.lft.to/lastmile_qr_scan"}, "is_reserved": 0, "is_disabled": 0, "name": "2fd442fad5ebea68237c81457a50fba7", "bike_id": "2fd442fad5ebea68237c81457a50fba7", "fusion_lat": 0.0, "lon": -77.01470166666667, "type": "electric_bike", "fusion_lon": 0.0, "lat": 38.918243}, {"rental_uris": {"android": "https://dc.lft.to/lastmile_qr_scan", "ios": "https://dc.lft.to/lastmile_qr_scan"}, "is_reserved": 0, "is_disabled": 0, "name": "1461154fa8ea943efa81aba0a24d5401", "bike_id": "1461154fa8ea943efa81aba0a24d5401", "fusion_lat": 0.0, "lon": -77.046496, "type": "electric_scooter", "fusion_lon": 0.0, "lat": 38.909478166666666}, {"rental_uris": {"android": "https://dc.lft.to/lastmile_qr_scan", "ios": "https://dc.lft.to/lastmile_qr_scan"}, "is_reserved": 0, "is_disabled": 0, "name": "22a6f20f577bf8b3bdf1ffe52963db8d", "bike_id": "22a6f20f577bf8b3bdf1ffe52963db8d", "fusion_lat": 0.0, "lon": -77.026567, "type": "electric_scooter", "fusion_lon": 0.0, "lat": 38.923849}, {"rental_uris": {"android": "https://dc.lft.to/lastmile_qr_scan", "ios": "https://dc.lft.to/lastmile_qr_scan"}, "is_reserved": 0, "is_disabled": 0, "name": "25026b2f11b45b512bb3edf2974af2b5", "bike_id": "25026b2f11b45b512bb3edf2974af2b5", "fusion_lat": 0.0, "lon": -77.01230733333334, "type": "electric_scooter", "fusion_lon": 0.0, "lat": 38.91405016666667}, {"rental_uris": {"android": "https://dc.lft.to/lastmile_qr_scan", "ios": "https://dc.lft.to/lastmile_qr_scan"}, "is_reserved": 0, "is_disabled": 0, "name": "b39ed8cf99ca6c3b4230d93981699289", "bike_id": "b39ed8cf99ca6c3b4230d93981699289", "fusion_lat": 0.0, "lon": -77.02973833333333, "type": "electric_scooter", "fusion_lon": 0.0, "lat": 38.924452333333335}, {"rental_uris": {"android": "https://dc.lft.to/lastmile_qr_scan", "ios": "https://dc.lft.to/lastmile_qr_scan"}, "is_reserved": 0, "is_disabled": 0, "name": "c6be1b62e703d738a637b4d8ab5b58a1", "bike_id": "c6be1b62e703d738a637b4d8ab5b58a1", "fusion_lat": 0.0, "lon": -77.0178095, "type": "electric_scooter", "fusion_lon": 0.0, "lat": 38.91990466666667}, {"rental_uris": {"android": "https://dc.lft.to/lastmile_qr_scan", "ios": "https://dc.lft.to/lastmile_qr_scan"}, "is_reserved": 0, "is_disabled": 0, "name": "c5033d99ede57c00f3566609ccee35c1", "bike_id": "c5033d99ede57c00f3566609ccee35c1", "fusion_lat": 0.0, "lon": -77.03279916666666, "type": "electric_scooter", "fusion_lon": 0.0, "lat": 38.89876016666667}, {"rental_uris": {"android": "https://dc.lft.to/lastmile_qr_scan", "ios": "https://dc.lft.to/lastmile_qr_scan"}, "is_reserved": 0, "is_disabled": 0, "name": "cefc24896df675eed0fa5484d02ccf2b", "bike_id": "cefc24896df675eed0fa5484d02ccf2b", "fusion_lat": 0.0, "lon": -77.02348716666667, "type": "electric_scooter", "fusion_lon": 0.0, "lat": 38.935341333333334}, {"rental_uris": {"android": "https://dc.lft.to/lastmile_qr_scan", "ios": "https://dc.lft.to/lastmile_qr_scan"}, "is_reserved": 0, "is_disabled": 0, "name": "6817bdb46e03e62e7e25e2fa6f46c9b8", "bike_id": "6817bdb46e03e62e7e25e2fa6f46c9b8", "fusion_lat": 0.0, "lon": -77.02177883333333, "type": "electric_scooter", "fusion_lon": 0.0, "lat": 38.9249405}, {"rental_uris": {"android": "https://dc.lft.to/lastmile_qr_scan", "ios": "https://dc.lft.to/lastmile_qr_scan"}, "is_reserved": 0, "is_disabled": 0, "name": "54e6f14a7afeb1659429d7296c2f0e1d", "bike_id": "54e6f14a7afeb1659429d7296c2f0e1d", "fusion_lat": 0.0, "lon": -76.99714533333334, "type": "electric_bike", "fusion_lon": 0.0, "lat": 38.9985435}, {"rental_uris": {"android": "https://dc.lft.to/lastmile_qr_scan", "ios": "https://dc.lft.to/lastmile_qr_scan"}, "is_reserved": 0, "is_disabled": 0, "name": "5e0b91ef2f67646d389c88dbbb4fea05", "bike_id": "5e0b91ef2f67646d389c88dbbb4fea05", "fusion_lat": 0.0, "lon": -76.985995, "type": "electric_scooter", "fusion_lon": 0.0, "lat": 38.906548666666666}, {"rental_uris": {"android": "https://dc.lft.to/lastmile_qr_scan", "ios": "https://dc.lft.to/lastmile_qr_scan"}, "is_reserved": 0, "is_disabled": 0, "name": "70b5da92fb7a72325a0980e2d7efd826", "bike_id": "70b5da92fb7a72325a0980e2d7efd826", "fusion_lat": 0.0, "lon": -77.02806516666666, "type": "electric_scooter", "fusion_lon": 0.0, "lat": 38.90464766666667}, {"rental_uris": {"android": "https://dc.lft.to/lastmile_qr_scan", "ios": "https://dc.lft.to/lastmile_qr_scan"}, "is_reserved": 0, "is_disabled": 0, "name": "87b91efb183f04e0bc9f41885be81852", "bike_id": "87b91efb183f04e0bc9f41885be81852", "fusion_lat": 0.0, "lon": -77.07106983333334, "type": "electric_scooter", "fusion_lon": 0.0, "lat": 38.919567}, {"rental_uris": {"android": "https://dc.lft.to/lastmile_qr_scan", "ios": "https://dc.lft.to/lastmile_qr_scan"}, "is_reserved": 0, "is_disabled": 0, "name": "69002f7ec70412a160df49b93f6b3557", "bike_id": "69002f7ec70412a160df49b93f6b3557", "fusion_lat": 0.0, "lon": -77.01562533333333, "type": "electric_scooter", "fusion_lon": 0.0, "lat": 38.9278565}, {"rental_uris": {"android": "https://dc.lft.to/lastmile_qr_scan", "ios": "https://dc.lft.to/lastmile_qr_scan"}, "is_reserved": 0, "is_disabled": 0, "name": "f239a4719308d20bc0c7ace1b9896186", "bike_id": "f239a4719308d20bc0c7ace1b9896186", "fusion_lat": 0.0, "lon": -77.03563733333333, "type": "electric_scooter", "fusion_lon": 0.0, "lat": 38.92476633333333}, {"rental_uris": {"android": "https://dc.lft.to/lastmile_qr_scan", "ios": "https://dc.lft.to/lastmile_qr_scan"}, "is_reserved": 0, "is_disabled": 0, "name": "ed63682735464fe5b2248be92360fd18", "bike_id": "ed63682735464fe5b2248be92360fd18", "fusion_lat": 0.0, "lon": -77.04645416666666, "type": "electric_scooter", "fusion_lon": 0.0, "lat": 38.897429333333335}, {"rental_uris": {"android": "https://dc.lft.to/lastmile_qr_scan", "ios": "https://dc.lft.to/lastmile_qr_scan"}, "is_reserved": 0, "is_disabled": 0, "name": "80db50e3af060d1348f1953a4292147d", "bike_id": "80db50e3af060d1348f1953a4292147d", "fusion_lat": 0.0, "lon": -76.98219366666666, "type": "electric_bike", "fusion_lon": 0.0, "lat": 38.98509083333333}, {"rental_uris": {"android": "https://dc.lft.to/lastmile_qr_scan", "ios": "https://dc.lft.to/lastmile_qr_scan"}, "is_reserved": 0, "is_disabled": 0, "name": "0ff435da0bf9dda91d2405d317d60e9c", "bike_id": "0ff435da0bf9dda91d2405d317d60e9c", "fusion_lat": 0.0, "lon": -77.02019033333333, "type": "electric_scooter", "fusion_lon": 0.0, "lat": 38.924515}, {"rental_uris": {"android": "https://dc.lft.to/lastmile_qr_scan", "ios": "https://dc.lft.to/lastmile_qr_scan"}, "is_reserved": 0, "is_disabled": 0, "name": "87d29486853b085020192c051d040fe6", "bike_id": "87d29486853b085020192c051d040fe6", "fusion_lat": 0.0, "lon": -77.0030865, "type": "electric_scooter", "fusion_lon": 0.0, "lat": 38.89476583333333}, {"rental_uris": {"android": "https://dc.lft.to/lastmile_qr_scan", "ios": "https://dc.lft.to/lastmile_qr_scan"}, "is_reserved": 0, "is_disabled": 0, "name": "f40ee0018c94db598ffd767498776e1b", "bike_id": "f40ee0018c94db598ffd767498776e1b", "fusion_lat": 0.0, "lon": -77.0174925, "type": "electric_scooter", "fusion_lon": 0.0, "lat": 38.902612500000004}, {"rental_uris": {"android": "https://dc.lft.to/lastmile_qr_scan", "ios": "https://dc.lft.to/lastmile_qr_scan"}, "is_reserved": 0, "is_disabled": 0, "name": "948d23285389fcc5aa4f87b75d8e19f9", "bike_id": "948d23285389fcc5aa4f87b75d8e19f9", "fusion_lat": 0.0, "lon": -77.03361583333333, "type": "electric_scooter", "fusion_lon": 0.0, "lat": 38.900212}, {"rental_uris": {"android": "https://dc.lft.to/lastmile_qr_scan", "ios": "https://dc.lft.to/lastmile_qr_scan"}, "is_reserved": 0, "is_disabled": 0, "name": "9ebc979de5d432c3e68446bc3fe78eb2", "bike_id": "9ebc979de5d432c3e68446bc3fe78eb2", "fusion_lat": 0.0, "lon": -76.98600733333333, "type": "electric_scooter", "fusion_lon": 0.0, "lat": 38.908567}, {"rental_uris": {"android": "https://dc.lft.to/lastmile_qr_scan", "ios": "https://dc.lft.to/lastmile_qr_scan"}, "is_reserved": 0, "is_disabled": 0, "name": "b11e54867de7994ca21a9744bf075819", "bike_id": "b11e54867de7994ca21a9744bf075819", "fusion_lat": 0.0, "lon": -77.02551766666667, "type": "electric_scooter", "fusion_lon": 0.0, "lat": 38.899825}, {"rental_uris": {"android": "https://dc.lft.to/lastmile_qr_scan", "ios": "https://dc.lft.to/lastmile_qr_scan"}, "is_reserved": 0, "is_disabled": 0, "name": "64e0ea6b980bd30d36b61a68a4d5e15f", "bike_id": "64e0ea6b980bd30d36b61a68a4d5e15f", "fusion_lat": 0.0, "lon": -77.0325555, "type": "electric_scooter", "fusion_lon": 0.0, "lat": 38.936905833333334}, {"rental_uris": {"android": "https://dc.lft.to/lastmile_qr_scan", "ios": "https://dc.lft.to/lastmile_qr_scan"}, "is_reserved": 0, "is_disabled": 0, "name": "c99d07194d15b7002c25304c79428176", "bike_id": "c99d07194d15b7002c25304c79428176", "fusion_lat": 0.0, "lon": -77.03256183333333, "type": "electric_scooter", "fusion_lon": 0.0, "lat": 38.9325}, {"rental_uris": {"android": "https://dc.lft.to/lastmile_qr_scan", "ios": "https://dc.lft.to/lastmile_qr_scan"}, "is_reserved": 0, "is_disabled": 0, "name": "edf696a9ce2ee003fde02e166814fba1", "bike_id": "edf696a9ce2ee003fde02e166814fba1", "fusion_lat": 0.0, "lon": -77.06796733333333, "type": "electric_scooter", "fusion_lon": 0.0, "lat": 38.915670166666665}, {"rental_uris": {"android": "https://dc.lft.to/lastmile_qr_scan", "ios": "https://dc.lft.to/lastmile_qr_scan"}, "is_reserved": 0, "is_disabled": 0, "name": "0d06eb3aea65f0e25db89e392cea1df8", "bike_id": "0d06eb3aea65f0e25db89e392cea1df8", "fusion_lat": 0.0, "lon": -77.040218, "type": "electric_scooter", "fusion_lon": 0.0, "lat": 38.91838816666667}, {"rental_uris": {"android": "https://dc.lft.to/lastmile_qr_scan", "ios": "https://dc.lft.to/lastmile_qr_scan"}, "is_reserved": 0, "is_disabled": 0, "name": "2da631cabfcb61561ce78f31692ed464", "bike_id": "2da631cabfcb61561ce78f31692ed464", "fusion_lat": 0.0, "lon": -77.08523883333334, "type": "electric_bike", "fusion_lon": 0.0, "lat": 38.856465666666665}, {"rental_uris": {"android": "https://dc.lft.to/lastmile_qr_scan", "ios": "https://dc.lft.to/lastmile_qr_scan"}, "is_reserved": 0, "is_disabled": 0, "name": "9c0134d47446919f099ac820f83191ec", "bike_id": "9c0134d47446919f099ac820f83191ec", "fusion_lat": 0.0, "lon": -77.020571, "type": "electric_scooter", "fusion_lon": 0.0, "lat": 38.875686}, {"rental_uris": {"android": "https://dc.lft.to/lastmile_qr_scan", "ios": "https://dc.lft.to/lastmile_qr_scan"}, "is_reserved": 0, "is_disabled": 0, "name": "a734b64337a1f99f12f2b42abd03f533", "bike_id": "a734b64337a1f99f12f2b42abd03f533", "fusion_lat": 0.0, "lon": -77.043254, "type": "electric_scooter", "fusion_lon": 0.0, "lat": 38.8922135}, {"rental_uris": {"android": "https://dc.lft.to/lastmile_qr_scan", "ios": "https://dc.lft.to/lastmile_qr_scan"}, "is_reserved": 0, "is_disabled": 0, "name": "55f7471b99a3c5e0b95b47cd55ae235a", "bike_id": "55f7471b99a3c5e0b95b47cd55ae235a", "fusion_lat": 0.0, "lon": -77.02162666666666, "type": "electric_scooter", "fusion_lon": 0.0, "lat": 38.924889}, {"rental_uris": {"android": "https://dc.lft.to/lastmile_qr_scan", "ios": "https://dc.lft.to/lastmile_qr_scan"}, "is_reserved": 0, "is_disabled": 0, "name": "9a5aa0ad9accef196cc560c0477a3f6d", "bike_id": "9a5aa0ad9accef196cc560c0477a3f6d", "fusion_lat": 0.0, "lon": -77.01850616666667, "type": "electric_scooter", "fusion_lon": 0.0, "lat": 38.9095605}, {"rental_uris": {"android": "https://dc.lft.to/lastmile_qr_scan", "ios": "https://dc.lft.to/lastmile_qr_scan"}, "is_reserved": 0, "is_disabled": 0, "name": "ba16deabbc41c10dee00be54f08ced90", "bike_id": "ba16deabbc41c10dee00be54f08ced90", "fusion_lat": 0.0, "lon": -77.03527866666667, "type": "electric_scooter", "fusion_lon": 0.0, "lat": 38.92340033333333}, {"rental_uris": {"android": "https://dc.lft.to/lastmile_qr_scan", "ios": "https://dc.lft.to/lastmile_qr_scan"}, "is_reserved": 0, "is_disabled": 0, "name": "108d8a9aaa717437e5d2b3e05e0a11b0", "bike_id": "108d8a9aaa717437e5d2b3e05e0a11b0", "fusion_lat": 0.0, "lon": -77.02806583333333, "type": "electric_scooter", "fusion_lon": 0.0, "lat": 38.881802}, {"rental_uris": {"android": "https://dc.lft.to/lastmile_qr_scan", "ios": "https://dc.lft.to/lastmile_qr_scan"}, "is_reserved": 0, "is_disabled": 0, "name": "3e462879fc3f97491045cb6fe1febb34", "bike_id": "3e462879fc3f97491045cb6fe1febb34", "fusion_lat": 0.0, "lon": -77.00987966666666, "type": "electric_scooter", "fusion_lon": 0.0, "lat": 38.872896}, {"rental_uris": {"android": "https://dc.lft.to/lastmile_qr_scan", "ios": "https://dc.lft.to/lastmile_qr_scan"}, "is_reserved": 0, "is_disabled": 0, "name": "dc1c47d060e86e61527849fd49e2499d", "bike_id": "dc1c47d060e86e61527849fd49e2499d", "fusion_lat": 0.0, "lon": -77.0344295, "type": "electric_scooter", "fusion_lon": 0.0, "lat": 38.922220333333335}, {"rental_uris": {"android": "https://dc.lft.to/lastmile_qr_scan", "ios": "https://dc.lft.to/lastmile_qr_scan"}, "is_reserved": 0, "is_disabled": 0, "name": "0517164551767293ead1c11928f9b0c6", "bike_id": "0517164551767293ead1c11928f9b0c6", "fusion_lat": 0.0, "lon": -77.00463766666667, "type": "electric_scooter", "fusion_lon": 0.0, "lat": 38.91147683333333}, {"rental_uris": {"android": "https://dc.lft.to/lastmile_qr_scan", "ios": "https://dc.lft.to/lastmile_qr_scan"}, "is_reserved": 0, "is_disabled": 0, "name": "83369d41cc331b2f6c86135b65edb836", "bike_id": "83369d41cc331b2f6c86135b65edb836", "fusion_lat": 0.0, "lon": -77.03608016666666, "type": "electric_scooter", "fusion_lon": 0.0, "lat": 38.93743883333333}, {"rental_uris": {"android": "https://dc.lft.to/lastmile_qr_scan", "ios": "https://dc.lft.to/lastmile_qr_scan"}, "is_reserved": 0, "is_disabled": 0, "name": "57962c52497b854b0c7b05e1cb1180ec", "bike_id": "57962c52497b854b0c7b05e1cb1180ec", "fusion_lat": 0.0, "lon": -77.01698883333333, "type": "electric_scooter", "fusion_lon": 0.0, "lat": 38.90467316666667}, {"rental_uris": {"android": "https://dc.lft.to/lastmile_qr_scan", "ios": "https://dc.lft.to/lastmile_qr_scan"}, "is_reserved": 0, "is_disabled": 0, "name": "5aced1991f7a46a398fa8d69def4271d", "bike_id": "5aced1991f7a46a398fa8d69def4271d", "fusion_lat": 0.0, "lon": -77.02720166666667, "type": "electric_scooter", "fusion_lon": 0.0, "lat": 38.95181083333333}, {"rental_uris": {"android": "https://dc.lft.to/lastmile_qr_scan", "ios": "https://dc.lft.to/lastmile_qr_scan"}, "is_reserved": 0, "is_disabled": 0, "name": "c3dbb2e1cccfaf9d6239673f70332367", "bike_id": "c3dbb2e1cccfaf9d6239673f70332367", "fusion_lat": 0.0, "lon": -77.04048516666667, "type": "electric_scooter", "fusion_lon": 0.0, "lat": 38.9015325}, {"rental_uris": {"android": "https://dc.lft.to/lastmile_qr_scan", "ios": "https://dc.lft.to/lastmile_qr_scan"}, "is_reserved": 0, "is_disabled": 0, "name": "8c586242d21c806ad1467698b3831f6f", "bike_id": "8c586242d21c806ad1467698b3831f6f", "fusion_lat": 0.0, "lon": -77.08531866666667, "type": "electric_bike", "fusion_lon": 0.0, "lat": 38.85665216666666}, {"rental_uris": {"android": "https://dc.lft.to/lastmile_qr_scan", "ios": "https://dc.lft.to/lastmile_qr_scan"}, "is_reserved": 0, "is_disabled": 0, "name": "1c9efd1b755f48f59a33e5f00d1ff413", "bike_id": "1c9efd1b755f48f59a33e5f00d1ff413", "fusion_lat": 0.0, "lon": -77.00200216666667, "type": "electric_scooter", "fusion_lon": 0.0, "lat": 38.902364}, {"rental_uris": {"android": "https://dc.lft.to/lastmile_qr_scan", "ios": "https://dc.lft.to/lastmile_qr_scan"}, "is_reserved": 0, "is_disabled": 0, "name": "32b464e1f744ccff3cc99af1cfd418fa", "bike_id": "32b464e1f744ccff3cc99af1cfd418fa", "fusion_lat": 0.0, "lon": -77.0013495, "type": "electric_scooter", "fusion_lon": 0.0, "lat": 38.90773266666667}, {"rental_uris": {"android": "https://dc.lft.to/lastmile_qr_scan", "ios": "https://dc.lft.to/lastmile_qr_scan"}, "is_reserved": 0, "is_disabled": 0, "name": "d1cff36550dbf8da7f320f5effb45e17", "bike_id": "d1cff36550dbf8da7f320f5effb45e17", "fusion_lat": 0.0, "lon": -76.98856316666667, "type": "electric_scooter", "fusion_lon": 0.0, "lat": 38.934674}, {"rental_uris": {"android": "https://dc.lft.to/lastmile_qr_scan", "ios": "https://dc.lft.to/lastmile_qr_scan"}, "is_reserved": 0, "is_disabled": 0, "name": "8436249b7b80fcb04daa2fa03b2097c3", "bike_id": "8436249b7b80fcb04daa2fa03b2097c3", "fusion_lat": 0.0, "lon": -77.0282405, "type": "electric_scooter", "fusion_lon": 0.0, "lat": 38.8873735}, {"rental_uris": {"android": "https://dc.lft.to/lastmile_qr_scan", "ios": "https://dc.lft.to/lastmile_qr_scan"}, "is_reserved": 0, "is_disabled": 0, "name": "46a6dd3f12a1aafabeb3c6f7d57c43fa", "bike_id": "46a6dd3f12a1aafabeb3c6f7d57c43fa", "fusion_lat": 0.0, "lon": -77.04669266666667, "type": "electric_scooter", "fusion_lon": 0.0, "lat": 38.9037265}, {"rental_uris": {"android": "https://dc.lft.to/lastmile_qr_scan", "ios": "https://dc.lft.to/lastmile_qr_scan"}, "is_reserved": 0, "is_disabled": 0, "name": "7bc4056b3c2e0b3eee52fadca25774c8", "bike_id": "7bc4056b3c2e0b3eee52fadca25774c8", "fusion_lat": 0.0, "lon": -76.97719383333333, "type": "electric_scooter", "fusion_lon": 0.0, "lat": 38.888183833333336}, {"rental_uris": {"android": "https://dc.lft.to/lastmile_qr_scan", "ios": "https://dc.lft.to/lastmile_qr_scan"}, "is_reserved": 0, "is_disabled": 0, "name": "dd182969c7c0a92a74564a8c8f284b83", "bike_id": "dd182969c7c0a92a74564a8c8f284b83", "fusion_lat": 0.0, "lon": -77.027933, "type": "electric_scooter", "fusion_lon": 0.0, "lat": 38.90240083333333}, {"rental_uris": {"android": "https://dc.lft.to/lastmile_qr_scan", "ios": "https://dc.lft.to/lastmile_qr_scan"}, "is_reserved": 0, "is_disabled": 0, "name": "c2fb00aa083cdc469c65cbfad12e0a9e", "bike_id": "c2fb00aa083cdc469c65cbfad12e0a9e", "fusion_lat": 0.0, "lon": -77.0315425, "type": "electric_scooter", "fusion_lon": 0.0, "lat": 38.923723}, {"rental_uris": {"android": "https://dc.lft.to/lastmile_qr_scan", "ios": "https://dc.lft.to/lastmile_qr_scan"}, "is_reserved": 0, "is_disabled": 0, "name": "f329c248a38f36d0140d64621bd8f539", "bike_id": "f329c248a38f36d0140d64621bd8f539", "fusion_lat": 0.0, "lon": -77.02881616666667, "type": "electric_scooter", "fusion_lon": 0.0, "lat": 38.915628}, {"rental_uris": {"android": "https://dc.lft.to/lastmile_qr_scan", "ios": "https://dc.lft.to/lastmile_qr_scan"}, "is_reserved": 0, "is_disabled": 0, "name": "e293d66b15c12987141fec8fb1a16b32", "bike_id": "e293d66b15c12987141fec8fb1a16b32", "fusion_lat": 0.0, "lon": -77.03998466666667, "type": "electric_scooter", "fusion_lon": 0.0, "lat": 38.8987135}, {"rental_uris": {"android": "https://dc.lft.to/lastmile_qr_scan", "ios": "https://dc.lft.to/lastmile_qr_scan"}, "is_reserved": 0, "is_disabled": 0, "name": "de1bd8a83bfc8087e75d0f808a5386eb", "bike_id": "de1bd8a83bfc8087e75d0f808a5386eb", "fusion_lat": 0.0, "lon": -77.0552235, "type": "electric_scooter", "fusion_lon": 0.0, "lat": 38.9106115}, {"rental_uris": {"android": "https://dc.lft.to/lastmile_qr_scan", "ios": "https://dc.lft.to/lastmile_qr_scan"}, "is_reserved": 0, "is_disabled": 0, "name": "06ba5e0a17b267c3c1ca4656072e2c7c", "bike_id": "06ba5e0a17b267c3c1ca4656072e2c7c", "fusion_lat": 0.0, "lon": -77.003325, "type": "electric_scooter", "fusion_lon": 0.0, "lat": 38.90266883333334}, {"rental_uris": {"android": "https://dc.lft.to/lastmile_qr_scan", "ios": "https://dc.lft.to/lastmile_qr_scan"}, "is_reserved": 0, "is_disabled": 0, "name": "243da75c0c37d890a63b5f08456cd8c0", "bike_id": "243da75c0c37d890a63b5f08456cd8c0", "fusion_lat": 0.0, "lon": -77.03162083333333, "type": "electric_scooter", "fusion_lon": 0.0, "lat": 38.91137166666667}, {"rental_uris": {"android": "https://dc.lft.to/lastmile_qr_scan", "ios": "https://dc.lft.to/lastmile_qr_scan"}, "is_reserved": 0, "is_disabled": 0, "name": "48f3e0cefc7996b53824055fd8e4669b", "bike_id": "48f3e0cefc7996b53824055fd8e4669b", "fusion_lat": 0.0, "lon": -77.04312283333333, "type": "electric_scooter", "fusion_lon": 0.0, "lat": 38.918788}, {"rental_uris": {"android": "https://dc.lft.to/lastmile_qr_scan", "ios": "https://dc.lft.to/lastmile_qr_scan"}, "is_reserved": 0, "is_disabled": 0, "name": "100715a17a08fdf447fd197c7287b593", "bike_id": "100715a17a08fdf447fd197c7287b593", "fusion_lat": 0.0, "lon": -77.02725466666666, "type": "electric_scooter", "fusion_lon": 0.0, "lat": 38.93252833333333}, {"rental_uris": {"android": "https://dc.lft.to/lastmile_qr_scan", "ios": "https://dc.lft.to/lastmile_qr_scan"}, "is_reserved": 0, "is_disabled": 0, "name": "60eabd01c0507e471f0583715ab86b51", "bike_id": "60eabd01c0507e471f0583715ab86b51", "fusion_lat": 0.0, "lon": -77.02941066666666, "type": "electric_scooter", "fusion_lon": 0.0, "lat": 38.916494666666665}, {"rental_uris": {"android": "https://dc.lft.to/lastmile_qr_scan", "ios": "https://dc.lft.to/lastmile_qr_scan"}, "is_reserved": 0, "is_disabled": 0, "name": "22506352d47001a3519acb45b1b5d907", "bike_id": "22506352d47001a3519acb45b1b5d907", "fusion_lat": 0.0, "lon": -77.0502565, "type": "electric_scooter", "fusion_lon": 0.0, "lat": 38.89661066666667}, {"rental_uris": {"android": "https://dc.lft.to/lastmile_qr_scan", "ios": "https://dc.lft.to/lastmile_qr_scan"}, "is_reserved": 0, "is_disabled": 0, "name": "f9c2472e17b754e098db83d3ca6af553", "bike_id": "f9c2472e17b754e098db83d3ca6af553", "fusion_lat": 0.0, "lon": -76.98111533333334, "type": "electric_bike", "fusion_lon": 0.0, "lat": 38.945669333333335}, {"rental_uris": {"android": "https://dc.lft.to/lastmile_qr_scan", "ios": "https://dc.lft.to/lastmile_qr_scan"}, "is_reserved": 0, "is_disabled": 0, "name": "ae098b9cb99547357bc65e5684f41e13", "bike_id": "ae098b9cb99547357bc65e5684f41e13", "fusion_lat": 0.0, "lon": -77.01036983333333, "type": "electric_scooter", "fusion_lon": 0.0, "lat": 38.9213255}, {"rental_uris": {"android": "https://dc.lft.to/lastmile_qr_scan", "ios": "https://dc.lft.to/lastmile_qr_scan"}, "is_reserved": 0, "is_disabled": 0, "name": "56171349ca17eee5011a5710266ac6ad", "bike_id": "56171349ca17eee5011a5710266ac6ad", "fusion_lat": 0.0, "lon": -77.03196416666667, "type": "electric_scooter", "fusion_lon": 0.0, "lat": 38.916204}, {"rental_uris": {"android": "https://dc.lft.to/lastmile_qr_scan", "ios": "https://dc.lft.to/lastmile_qr_scan"}, "is_reserved": 0, "is_disabled": 0, "name": "23e62e3a4ec0fed9a56c72a734940cd9", "bike_id": "23e62e3a4ec0fed9a56c72a734940cd9", "fusion_lat": 0.0, "lon": -77.0785795, "type": "electric_scooter", "fusion_lon": 0.0, "lat": 38.9459565}, {"rental_uris": {"android": "https://dc.lft.to/lastmile_qr_scan", "ios": "https://dc.lft.to/lastmile_qr_scan"}, "is_reserved": 0, "is_disabled": 0, "name": "5769bf1d4e87184ac673dd0d847f57cd", "bike_id": "5769bf1d4e87184ac673dd0d847f57cd", "fusion_lat": 0.0, "lon": -77.01808716666666, "type": "electric_scooter", "fusion_lon": 0.0, "lat": 38.92155416666667}, {"rental_uris": {"android": "https://dc.lft.to/lastmile_qr_scan", "ios": "https://dc.lft.to/lastmile_qr_scan"}, "is_reserved": 0, "is_disabled": 0, "name": "a6ad3bbbe2f26c4ae96bbd2420b00b61", "bike_id": "a6ad3bbbe2f26c4ae96bbd2420b00b61", "fusion_lat": 0.0, "lon": -77.04154733333333, "type": "electric_scooter", "fusion_lon": 0.0, "lat": 38.91715166666667}, {"rental_uris": {"android": "https://dc.lft.to/lastmile_qr_scan", "ios": "https://dc.lft.to/lastmile_qr_scan"}, "is_reserved": 0, "is_disabled": 0, "name": "ea4d60b2256aca16a47793cd9ce4031a", "bike_id": "ea4d60b2256aca16a47793cd9ce4031a", "fusion_lat": 0.0, "lon": -77.05349833333334, "type": "electric_scooter", "fusion_lon": 0.0, "lat": 38.927117833333334}, {"rental_uris": {"android": "https://dc.lft.to/lastmile_qr_scan", "ios": "https://dc.lft.to/lastmile_qr_scan"}, "is_reserved": 0, "is_disabled": 0, "name": "08995a16d0091375a789b2431e9025d6", "bike_id": "08995a16d0091375a789b2431e9025d6", "fusion_lat": 0.0, "lon": -77.03435716666667, "type": "electric_scooter", "fusion_lon": 0.0, "lat": 38.9180875}, {"rental_uris": {"android": "https://dc.lft.to/lastmile_qr_scan", "ios": "https://dc.lft.to/lastmile_qr_scan"}, "is_reserved": 0, "is_disabled": 0, "name": "c9497c64714ed6700c5cad26794bb198", "bike_id": "c9497c64714ed6700c5cad26794bb198", "fusion_lat": 0.0, "lon": -76.99731716666666, "type": "electric_bike", "fusion_lon": 0.0, "lat": 38.92409466666667}, {"rental_uris": {"android": "https://dc.lft.to/lastmile_qr_scan", "ios": "https://dc.lft.to/lastmile_qr_scan"}, "is_reserved": 0, "is_disabled": 0, "name": "5feaab227e9530f1b05ba1f93a16f4fb", "bike_id": "5feaab227e9530f1b05ba1f93a16f4fb", "fusion_lat": 0.0, "lon": -77.04569983333333, "type": "electric_scooter", "fusion_lon": 0.0, "lat": 38.9195725}, {"rental_uris": {"android": "https://dc.lft.to/lastmile_qr_scan", "ios": "https://dc.lft.to/lastmile_qr_scan"}, "is_reserved": 0, "is_disabled": 0, "name": "60f74cf11a25c08604d5593a5047a302", "bike_id": "60f74cf11a25c08604d5593a5047a302", "fusion_lat": 0.0, "lon": -77.04023483333333, "type": "electric_scooter", "fusion_lon": 0.0, "lat": 38.89852966666667}, {"rental_uris": {"android": "https://dc.lft.to/lastmile_qr_scan", "ios": "https://dc.lft.to/lastmile_qr_scan"}, "is_reserved": 0, "is_disabled": 0, "name": "bfbb0e4107a5518743efe94dddd0feaf", "bike_id": "bfbb0e4107a5518743efe94dddd0feaf", "fusion_lat": 0.0, "lon": -76.9837955, "type": "electric_scooter", "fusion_lon": 0.0, "lat": 38.879432666666666}, {"rental_uris": {"android": "https://dc.lft.to/lastmile_qr_scan", "ios": "https://dc.lft.to/lastmile_qr_scan"}, "is_reserved": 0, "is_disabled": 0, "name": "d2c788b45c1ff2e1944388b771ab8cc0", "bike_id": "d2c788b45c1ff2e1944388b771ab8cc0", "fusion_lat": 0.0, "lon": -77.02165133333334, "type": "electric_scooter", "fusion_lon": 0.0, "lat": 38.942899}, {"rental_uris": {"android": "https://dc.lft.to/lastmile_qr_scan", "ios": "https://dc.lft.to/lastmile_qr_scan"}, "is_reserved": 0, "is_disabled": 0, "name": "008ef83e2cdae6328853e9341936af2b", "bike_id": "008ef83e2cdae6328853e9341936af2b", "fusion_lat": 0.0, "lon": -77.08248133333333, "type": "electric_scooter", "fusion_lon": 0.0, "lat": 38.907381666666666}, {"rental_uris": {"android": "https://dc.lft.to/lastmile_qr_scan", "ios": "https://dc.lft.to/lastmile_qr_scan"}, "is_reserved": 0, "is_disabled": 0, "name": "7d095596aba7f6ae0f984f7ff338bc71", "bike_id": "7d095596aba7f6ae0f984f7ff338bc71", "fusion_lat": 0.0, "lon": -77.03263633333333, "type": "electric_scooter", "fusion_lon": 0.0, "lat": 38.935237}, {"rental_uris": {"android": "https://dc.lft.to/lastmile_qr_scan", "ios": "https://dc.lft.to/lastmile_qr_scan"}, "is_reserved": 0, "is_disabled": 0, "name": "3fe046162668b0bbf730d7d545d4fc26", "bike_id": "3fe046162668b0bbf730d7d545d4fc26", "fusion_lat": 0.0, "lon": -77.02803033333333, "type": "electric_scooter", "fusion_lon": 0.0, "lat": 38.89231566666667}, {"rental_uris": {"android": "https://dc.lft.to/lastmile_qr_scan", "ios": "https://dc.lft.to/lastmile_qr_scan"}, "is_reserved": 0, "is_disabled": 0, "name": "e9a3d0a4b0f05d9af83057773c0574d2", "bike_id": "e9a3d0a4b0f05d9af83057773c0574d2", "fusion_lat": 0.0, "lon": -77.01815216666667, "type": "electric_scooter", "fusion_lon": 0.0, "lat": 38.921570833333334}, {"rental_uris": {"android": "https://dc.lft.to/lastmile_qr_scan", "ios": "https://dc.lft.to/lastmile_qr_scan"}, "is_reserved": 0, "is_disabled": 0, "name": "a3fc067d80ecf0f66c7c2544eee9df64", "bike_id": "a3fc067d80ecf0f66c7c2544eee9df64", "fusion_lat": 0.0, "lon": -76.98850116666667, "type": "electric_scooter", "fusion_lon": 0.0, "lat": 38.84419166666667}, {"rental_uris": {"android": "https://dc.lft.to/lastmile_qr_scan", "ios": "https://dc.lft.to/lastmile_qr_scan"}, "is_reserved": 0, "is_disabled": 0, "name": "22d396f0bdfa72ba0d4059229fb9990d", "bike_id": "22d396f0bdfa72ba0d4059229fb9990d", "fusion_lat": 0.0, "lon": -76.988208, "type": "electric_bike", "fusion_lon": 0.0, "lat": 38.8427655}, {"rental_uris": {"android": "https://dc.lft.to/lastmile_qr_scan", "ios": "https://dc.lft.to/lastmile_qr_scan"}, "is_reserved": 0, "is_disabled": 0, "name": "a2f4da6eec6f2ba9dead73b3464421a8", "bike_id": "a2f4da6eec6f2ba9dead73b3464421a8", "fusion_lat": 0.0, "lon": -77.00581416666667, "type": "electric_scooter", "fusion_lon": 0.0, "lat": 38.87942916666667}, {"rental_uris": {"android": "https://dc.lft.to/lastmile_qr_scan", "ios": "https://dc.lft.to/lastmile_qr_scan"}, "is_reserved": 0, "is_disabled": 0, "name": "ff191f9a9bbb645dedf78a83d1e7a914", "bike_id": "ff191f9a9bbb645dedf78a83d1e7a914", "fusion_lat": 0.0, "lon": -77.05994616666666, "type": "electric_scooter", "fusion_lon": 0.0, "lat": 38.90238166666666}, {"rental_uris": {"android": "https://dc.lft.to/lastmile_qr_scan", "ios": "https://dc.lft.to/lastmile_qr_scan"}, "is_reserved": 0, "is_disabled": 0, "name": "a0670fddead70fd3dc00fbd9d5f56619", "bike_id": "a0670fddead70fd3dc00fbd9d5f56619", "fusion_lat": 0.0, "lon": -77.0507365, "type": "electric_scooter", "fusion_lon": 0.0, "lat": 38.903558333333336}, {"rental_uris": {"android": "https://dc.lft.to/lastmile_qr_scan", "ios": "https://dc.lft.to/lastmile_qr_scan"}, "is_reserved": 0, "is_disabled": 0, "name": "a1494ee5a6b85f8b36e202913bb108b9", "bike_id": "a1494ee5a6b85f8b36e202913bb108b9", "fusion_lat": 0.0, "lon": -77.03327833333333, "type": "electric_scooter", "fusion_lon": 0.0, "lat": 38.93508816666667}, {"rental_uris": {"android": "https://dc.lft.to/lastmile_qr_scan", "ios": "https://dc.lft.to/lastmile_qr_scan"}, "is_reserved": 0, "is_disabled": 0, "name": "eab46e2d9afcd79fa225259405b31f5c", "bike_id": "eab46e2d9afcd79fa225259405b31f5c", "fusion_lat": 0.0, "lon": -77.06842066666667, "type": "electric_scooter", "fusion_lon": 0.0, "lat": 38.904028}, {"rental_uris": {"android": "https://dc.lft.to/lastmile_qr_scan", "ios": "https://dc.lft.to/lastmile_qr_scan"}, "is_reserved": 0, "is_disabled": 0, "name": "63b6589355032517f0e5334400c67d2e", "bike_id": "63b6589355032517f0e5334400c67d2e", "fusion_lat": 0.0, "lon": -77.02586516666666, "type": "electric_scooter", "fusion_lon": 0.0, "lat": 38.907064}, {"rental_uris": {"android": "https://dc.lft.to/lastmile_qr_scan", "ios": "https://dc.lft.to/lastmile_qr_scan"}, "is_reserved": 0, "is_disabled": 0, "name": "a8d04290f3aa440782de0ee9f138ce0d", "bike_id": "a8d04290f3aa440782de0ee9f138ce0d", "fusion_lat": 0.0, "lon": -77.02299216666667, "type": "electric_scooter", "fusion_lon": 0.0, "lat": 38.918473666666664}, {"rental_uris": {"android": "https://dc.lft.to/lastmile_qr_scan", "ios": "https://dc.lft.to/lastmile_qr_scan"}, "is_reserved": 0, "is_disabled": 0, "name": "d260e15b9bf6d3b56a1f72945aa16a08", "bike_id": "d260e15b9bf6d3b56a1f72945aa16a08", "fusion_lat": 0.0, "lon": -77.04656366666667, "type": "electric_scooter", "fusion_lon": 0.0, "lat": 38.8933905}, {"rental_uris": {"android": "https://dc.lft.to/lastmile_qr_scan", "ios": "https://dc.lft.to/lastmile_qr_scan"}, "is_reserved": 0, "is_disabled": 0, "name": "42eaec270b9f29030d38fbead745385b", "bike_id": "42eaec270b9f29030d38fbead745385b", "fusion_lat": 0.0, "lon": -77.02159216666666, "type": "electric_scooter", "fusion_lon": 0.0, "lat": 38.92459366666667}, {"rental_uris": {"android": "https://dc.lft.to/lastmile_qr_scan", "ios": "https://dc.lft.to/lastmile_qr_scan"}, "is_reserved": 0, "is_disabled": 0, "name": "b322073294cd5a7b8db2fcbcb1d94f9e", "bike_id": "b322073294cd5a7b8db2fcbcb1d94f9e", "fusion_lat": 0.0, "lon": -77.030371, "type": "electric_scooter", "fusion_lon": 0.0, "lat": 38.93104266666667}, {"rental_uris": {"android": "https://dc.lft.to/lastmile_qr_scan", "ios": "https://dc.lft.to/lastmile_qr_scan"}, "is_reserved": 0, "is_disabled": 0, "name": "c66847090f0415a4c1ba1b16ae87ca5c", "bike_id": "c66847090f0415a4c1ba1b16ae87ca5c", "fusion_lat": 0.0, "lon": -77.03283483333334, "type": "electric_scooter", "fusion_lon": 0.0, "lat": 38.8989495}, {"rental_uris": {"android": "https://dc.lft.to/lastmile_qr_scan", "ios": "https://dc.lft.to/lastmile_qr_scan"}, "is_reserved": 0, "is_disabled": 0, "name": "d92c91d318ba5a7e80283c6cd1eeaaed", "bike_id": "d92c91d318ba5a7e80283c6cd1eeaaed", "fusion_lat": 0.0, "lon": -77.02609283333334, "type": "electric_scooter", "fusion_lon": 0.0, "lat": 38.9041405}, {"rental_uris": {"android": "https://dc.lft.to/lastmile_qr_scan", "ios": "https://dc.lft.to/lastmile_qr_scan"}, "is_reserved": 0, "is_disabled": 0, "name": "bbc04a06dfdd39b87bbf682ce2816661", "bike_id": "bbc04a06dfdd39b87bbf682ce2816661", "fusion_lat": 0.0, "lon": -77.0389175, "type": "electric_scooter", "fusion_lon": 0.0, "lat": 38.918491833333334}, {"rental_uris": {"android": "https://dc.lft.to/lastmile_qr_scan", "ios": "https://dc.lft.to/lastmile_qr_scan"}, "is_reserved": 0, "is_disabled": 0, "name": "7308bb05cb497699deee245231e2c62f", "bike_id": "7308bb05cb497699deee245231e2c62f", "fusion_lat": 0.0, "lon": -76.98093883333334, "type": "electric_bike", "fusion_lon": 0.0, "lat": 38.95355966666666}, {"rental_uris": {"android": "https://dc.lft.to/lastmile_qr_scan", "ios": "https://dc.lft.to/lastmile_qr_scan"}, "is_reserved": 0, "is_disabled": 0, "name": "2973fc7a927a2d21ce402b77e9f4c168", "bike_id": "2973fc7a927a2d21ce402b77e9f4c168", "fusion_lat": 0.0, "lon": -76.9957445, "type": "electric_bike", "fusion_lon": 0.0, "lat": 38.83156433333333}, {"rental_uris": {"android": "https://dc.lft.to/lastmile_qr_scan", "ios": "https://dc.lft.to/lastmile_qr_scan"}, "is_reserved": 0, "is_disabled": 0, "name": "76b56c9281e0d9e3965b5e4d7fca6c5f", "bike_id": "76b56c9281e0d9e3965b5e4d7fca6c5f", "fusion_lat": 0.0, "lon": -77.04849433333334, "type": "electric_scooter", "fusion_lon": 0.0, "lat": 38.900450666666664}, {"rental_uris": {"android": "https://dc.lft.to/lastmile_qr_scan", "ios": "https://dc.lft.to/lastmile_qr_scan"}, "is_reserved": 0, "is_disabled": 0, "name": "fcfeb274a0e8bd7a5e0c1cb95452edc1", "bike_id": "fcfeb274a0e8bd7a5e0c1cb95452edc1", "fusion_lat": 0.0, "lon": -77.001927, "type": "electric_scooter", "fusion_lon": 0.0, "lat": 38.902347}, {"rental_uris": {"android": "https://dc.lft.to/lastmile_qr_scan", "ios": "https://dc.lft.to/lastmile_qr_scan"}, "is_reserved": 0, "is_disabled": 0, "name": "93a10d09b20c45b745334a36e9c818f3", "bike_id": "93a10d09b20c45b745334a36e9c818f3", "fusion_lat": 0.0, "lon": -77.02549133333333, "type": "electric_scooter", "fusion_lon": 0.0, "lat": 38.8919885}, {"rental_uris": {"android": "https://dc.lft.to/lastmile_qr_scan", "ios": "https://dc.lft.to/lastmile_qr_scan"}, "is_reserved": 0, "is_disabled": 0, "name": "f64eb3b03a9dc6cc3e5a3572f57a4a97", "bike_id": "f64eb3b03a9dc6cc3e5a3572f57a4a97", "fusion_lat": 0.0, "lon": -77.0151295, "type": "electric_scooter", "fusion_lon": 0.0, "lat": 38.88735033333333}, {"rental_uris": {"android": "https://dc.lft.to/lastmile_qr_scan", "ios": "https://dc.lft.to/lastmile_qr_scan"}, "is_reserved": 0, "is_disabled": 0, "name": "fcb166a180a760a0327982c8cce06b0b", "bike_id": "fcb166a180a760a0327982c8cce06b0b", "fusion_lat": 0.0, "lon": -76.95291666666667, "type": "electric_scooter", "fusion_lon": 0.0, "lat": 38.89034616666667}, {"rental_uris": {"android": "https://dc.lft.to/lastmile_qr_scan", "ios": "https://dc.lft.to/lastmile_qr_scan"}, "is_reserved": 0, "is_disabled": 0, "name": "05bf26585fefb11b89d0416e6e6b224b", "bike_id": "05bf26585fefb11b89d0416e6e6b224b", "fusion_lat": 0.0, "lon": -77.03158533333334, "type": "electric_scooter", "fusion_lon": 0.0, "lat": 38.89219666666666}, {"rental_uris": {"android": "https://dc.lft.to/lastmile_qr_scan", "ios": "https://dc.lft.to/lastmile_qr_scan"}, "is_reserved": 0, "is_disabled": 0, "name": "08de4635868eae8c24b851900af28ab4", "bike_id": "08de4635868eae8c24b851900af28ab4", "fusion_lat": 0.0, "lon": -77.028235, "type": "electric_scooter", "fusion_lon": 0.0, "lat": 38.88737533333333}, {"rental_uris": {"android": "https://dc.lft.to/lastmile_qr_scan", "ios": "https://dc.lft.to/lastmile_qr_scan"}, "is_reserved": 0, "is_disabled": 0, "name": "bf7a6d5af669aeaee9b4ca7c965c2508", "bike_id": "bf7a6d5af669aeaee9b4ca7c965c2508", "fusion_lat": 0.0, "lon": -76.92498466666666, "type": "electric_scooter", "fusion_lon": 0.0, "lat": 38.886013166666665}, {"rental_uris": {"android": "https://dc.lft.to/lastmile_qr_scan", "ios": "https://dc.lft.to/lastmile_qr_scan"}, "is_reserved": 0, "is_disabled": 0, "name": "d126ee77e61451a04d768a0cac63add7", "bike_id": "d126ee77e61451a04d768a0cac63add7", "fusion_lat": 0.0, "lon": -77.01692633333333, "type": "electric_scooter", "fusion_lon": 0.0, "lat": 38.90644916666667}, {"rental_uris": {"android": "https://dc.lft.to/lastmile_qr_scan", "ios": "https://dc.lft.to/lastmile_qr_scan"}, "is_reserved": 0, "is_disabled": 0, "name": "e2e2a617c8b429c8ff8facb39c1257f3", "bike_id": "e2e2a617c8b429c8ff8facb39c1257f3", "fusion_lat": 0.0, "lon": -77.02190416666667, "type": "electric_scooter", "fusion_lon": 0.0, "lat": 38.90649}, {"rental_uris": {"android": "https://dc.lft.to/lastmile_qr_scan", "ios": "https://dc.lft.to/lastmile_qr_scan"}, "is_reserved": 0, "is_disabled": 0, "name": "9a68d3188c314650e6ad54d3e09703ac", "bike_id": "9a68d3188c314650e6ad54d3e09703ac", "fusion_lat": 0.0, "lon": -77.044984, "type": "electric_scooter", "fusion_lon": 0.0, "lat": 38.8922295}, {"rental_uris": {"android": "https://dc.lft.to/lastmile_qr_scan", "ios": "https://dc.lft.to/lastmile_qr_scan"}, "is_reserved": 0, "is_disabled": 0, "name": "01c5fd7b93ae99989750c2dd668143a7", "bike_id": "01c5fd7b93ae99989750c2dd668143a7", "fusion_lat": 0.0, "lon": -76.9835865, "type": "electric_scooter", "fusion_lon": 0.0, "lat": 38.887331333333336}, {"rental_uris": {"android": "https://dc.lft.to/lastmile_qr_scan", "ios": "https://dc.lft.to/lastmile_qr_scan"}, "is_reserved": 0, "is_disabled": 0, "name": "75db06b78b9a8f6731db6a3cfc74bd51", "bike_id": "75db06b78b9a8f6731db6a3cfc74bd51", "fusion_lat": 0.0, "lon": -77.00543183333333, "type": "electric_scooter", "fusion_lon": 0.0, "lat": 38.88042516666667}, {"rental_uris": {"android": "https://dc.lft.to/lastmile_qr_scan", "ios": "https://dc.lft.to/lastmile_qr_scan"}, "is_reserved": 0, "is_disabled": 0, "name": "ee8fd5700f7c04d322d4f7c6218cb3ef", "bike_id": "ee8fd5700f7c04d322d4f7c6218cb3ef", "fusion_lat": 0.0, "lon": -77.00045133333333, "type": "electric_scooter", "fusion_lon": 0.0, "lat": 38.906881166666665}, {"rental_uris": {"android": "https://dc.lft.to/lastmile_qr_scan", "ios": "https://dc.lft.to/lastmile_qr_scan"}, "is_reserved": 0, "is_disabled": 0, "name": "a396ed12ecf6f2e1cc579177c964575c", "bike_id": "a396ed12ecf6f2e1cc579177c964575c", "fusion_lat": 0.0, "lon": -77.04677666666667, "type": "electric_scooter", "fusion_lon": 0.0, "lat": 38.8922075}, {"rental_uris": {"android": "https://dc.lft.to/lastmile_qr_scan", "ios": "https://dc.lft.to/lastmile_qr_scan"}, "is_reserved": 0, "is_disabled": 0, "name": "7244511e520843f4fa67325c87ffad7f", "bike_id": "7244511e520843f4fa67325c87ffad7f", "fusion_lat": 0.0, "lon": -77.002005, "type": "electric_scooter", "fusion_lon": 0.0, "lat": 38.9003655}, {"rental_uris": {"android": "https://dc.lft.to/lastmile_qr_scan", "ios": "https://dc.lft.to/lastmile_qr_scan"}, "is_reserved": 0, "is_disabled": 0, "name": "33051dca73fdec43ad00d40f4f2ddcf2", "bike_id": "33051dca73fdec43ad00d40f4f2ddcf2", "fusion_lat": 0.0, "lon": -77.02288633333333, "type": "electric_scooter", "fusion_lon": 0.0, "lat": 38.89500666666667}, {"rental_uris": {"android": "https://dc.lft.to/lastmile_qr_scan", "ios": "https://dc.lft.to/lastmile_qr_scan"}, "is_reserved": 0, "is_disabled": 0, "name": "e7c2f96dbc13da7d27bcbe214a48cb16", "bike_id": "e7c2f96dbc13da7d27bcbe214a48cb16", "fusion_lat": 0.0, "lon": -77.0645015, "type": "electric_scooter", "fusion_lon": 0.0, "lat": 38.9488575}, {"rental_uris": {"android": "https://dc.lft.to/lastmile_qr_scan", "ios": "https://dc.lft.to/lastmile_qr_scan"}, "is_reserved": 0, "is_disabled": 0, "name": "8b0ed7b5dad39ecfeff1de459a5dd762", "bike_id": "8b0ed7b5dad39ecfeff1de459a5dd762", "fusion_lat": 0.0, "lon": -77.064146, "type": "electric_scooter", "fusion_lon": 0.0, "lat": 38.914561166666665}, {"rental_uris": {"android": "https://dc.lft.to/lastmile_qr_scan", "ios": "https://dc.lft.to/lastmile_qr_scan"}, "is_reserved": 0, "is_disabled": 0, "name": "5c9324acd74fb71471ab518f693570de", "bike_id": "5c9324acd74fb71471ab518f693570de", "fusion_lat": 0.0, "lon": -77.01992216666666, "type": "electric_scooter", "fusion_lon": 0.0, "lat": 38.91495716666667}, {"rental_uris": {"android": "https://dc.lft.to/lastmile_qr_scan", "ios": "https://dc.lft.to/lastmile_qr_scan"}, "is_reserved": 0, "is_disabled": 0, "name": "4b374b447f05b89cbf1f05d045314ec0", "bike_id": "4b374b447f05b89cbf1f05d045314ec0", "fusion_lat": 0.0, "lon": -77.00717883333333, "type": "electric_scooter", "fusion_lon": 0.0, "lat": 38.911885}, {"rental_uris": {"android": "https://dc.lft.to/lastmile_qr_scan", "ios": "https://dc.lft.to/lastmile_qr_scan"}, "is_reserved": 0, "is_disabled": 0, "name": "29c284bcccc4b76f5a088ce7bb0459d7", "bike_id": "29c284bcccc4b76f5a088ce7bb0459d7", "fusion_lat": 0.0, "lon": -77.003478, "type": "electric_scooter", "fusion_lon": 0.0, "lat": 38.892702166666666}, {"rental_uris": {"android": "https://dc.lft.to/lastmile_qr_scan", "ios": "https://dc.lft.to/lastmile_qr_scan"}, "is_reserved": 0, "is_disabled": 0, "name": "c3fc9d1e4132e1fddac8e2d20d461b8b", "bike_id": "c3fc9d1e4132e1fddac8e2d20d461b8b", "fusion_lat": 0.0, "lon": -77.0225655, "type": "electric_scooter", "fusion_lon": 0.0, "lat": 38.928255}, {"rental_uris": {"android": "https://dc.lft.to/lastmile_qr_scan", "ios": "https://dc.lft.to/lastmile_qr_scan"}, "is_reserved": 0, "is_disabled": 0, "name": "6523612cf3639fa23d6652bc6fe59573", "bike_id": "6523612cf3639fa23d6652bc6fe59573", "fusion_lat": 0.0, "lon": -77.0448165, "type": "electric_scooter", "fusion_lon": 0.0, "lat": 38.9011565}, {"rental_uris": {"android": "https://dc.lft.to/lastmile_qr_scan", "ios": "https://dc.lft.to/lastmile_qr_scan"}, "is_reserved": 0, "is_disabled": 0, "name": "21e37033e7409372b460eb3ca1ca4306", "bike_id": "21e37033e7409372b460eb3ca1ca4306", "fusion_lat": 0.0, "lon": -77.03793083333333, "type": "electric_scooter", "fusion_lon": 0.0, "lat": 38.9206215}, {"rental_uris": {"android": "https://dc.lft.to/lastmile_qr_scan", "ios": "https://dc.lft.to/lastmile_qr_scan"}, "is_reserved": 0, "is_disabled": 0, "name": "a0da864f9b2d16b971971cc9db69e12a", "bike_id": "a0da864f9b2d16b971971cc9db69e12a", "fusion_lat": 0.0, "lon": -77.0504735, "type": "electric_scooter", "fusion_lon": 0.0, "lat": 38.90306733333333}, {"rental_uris": {"android": "https://dc.lft.to/lastmile_qr_scan", "ios": "https://dc.lft.to/lastmile_qr_scan"}, "is_reserved": 0, "is_disabled": 0, "name": "83b7fd8f35fd392d121db57a787a1464", "bike_id": "83b7fd8f35fd392d121db57a787a1464", "fusion_lat": 0.0, "lon": -77.02483233333334, "type": "electric_scooter", "fusion_lon": 0.0, "lat": 38.9141285}, {"rental_uris": {"android": "https://dc.lft.to/lastmile_qr_scan", "ios": "https://dc.lft.to/lastmile_qr_scan"}, "is_reserved": 0, "is_disabled": 0, "name": "74742acdb1c80c15fc1eba86195ee784", "bike_id": "74742acdb1c80c15fc1eba86195ee784", "fusion_lat": 0.0, "lon": -77.03178466666667, "type": "electric_scooter", "fusion_lon": 0.0, "lat": 38.91460933333333}, {"rental_uris": {"android": "https://dc.lft.to/lastmile_qr_scan", "ios": "https://dc.lft.to/lastmile_qr_scan"}, "is_reserved": 0, "is_disabled": 0, "name": "7ab346eb06ffcc30618ee63911b95dae", "bike_id": "7ab346eb06ffcc30618ee63911b95dae", "fusion_lat": 0.0, "lon": -77.022021, "type": "electric_scooter", "fusion_lon": 0.0, "lat": 38.910138833333335}, {"rental_uris": {"android": "https://dc.lft.to/lastmile_qr_scan", "ios": "https://dc.lft.to/lastmile_qr_scan"}, "is_reserved": 0, "is_disabled": 0, "name": "c5a44e8fe5f7a2f2906797095bb7da8c", "bike_id": "c5a44e8fe5f7a2f2906797095bb7da8c", "fusion_lat": 0.0, "lon": -77.00719533333333, "type": "electric_scooter", "fusion_lon": 0.0, "lat": 38.905718666666665}, {"rental_uris": {"android": "https://dc.lft.to/lastmile_qr_scan", "ios": "https://dc.lft.to/lastmile_qr_scan"}, "is_reserved": 0, "is_disabled": 0, "name": "09030808084df2470766e210ce03bfa4", "bike_id": "09030808084df2470766e210ce03bfa4", "fusion_lat": 0.0, "lon": -77.02604766666667, "type": "electric_scooter", "fusion_lon": 0.0, "lat": 38.98273566666667}, {"rental_uris": {"android": "https://dc.lft.to/lastmile_qr_scan", "ios": "https://dc.lft.to/lastmile_qr_scan"}, "is_reserved": 0, "is_disabled": 0, "name": "d7e577c3b5f64a2177ad76284a3d833f", "bike_id": "d7e577c3b5f64a2177ad76284a3d833f", "fusion_lat": 0.0, "lon": -77.03849866666667, "type": "electric_scooter", "fusion_lon": 0.0, "lat": 38.91719666666667}, {"rental_uris": {"android": "https://dc.lft.to/lastmile_qr_scan", "ios": "https://dc.lft.to/lastmile_qr_scan"}, "is_reserved": 0, "is_disabled": 0, "name": "2b816ec32284fd323006f1eadc75e83a", "bike_id": "2b816ec32284fd323006f1eadc75e83a", "fusion_lat": 0.0, "lon": -76.96155, "type": "electric_bike", "fusion_lon": 0.0, "lat": 38.856169}, {"rental_uris": {"android": "https://dc.lft.to/lastmile_qr_scan", "ios": "https://dc.lft.to/lastmile_qr_scan"}, "is_reserved": 0, "is_disabled": 0, "name": "91a02110712918e756c5b4bee940a994", "bike_id": "91a02110712918e756c5b4bee940a994", "fusion_lat": 0.0, "lon": -77.03848866666667, "type": "electric_scooter", "fusion_lon": 0.0, "lat": 38.916610166666665}, {"rental_uris": {"android": "https://dc.lft.to/lastmile_qr_scan", "ios": "https://dc.lft.to/lastmile_qr_scan"}, "is_reserved": 0, "is_disabled": 0, "name": "476d3e4c3fe120abdfc4e091fffc4aae", "bike_id": "476d3e4c3fe120abdfc4e091fffc4aae", "fusion_lat": 0.0, "lon": -77.02547416666667, "type": "electric_scooter", "fusion_lon": 0.0, "lat": 38.970036666666665}, {"rental_uris": {"android": "https://dc.lft.to/lastmile_qr_scan", "ios": "https://dc.lft.to/lastmile_qr_scan"}, "is_reserved": 0, "is_disabled": 0, "name": "121e9a1e8016e2107ec7ba782f8dad6e", "bike_id": "121e9a1e8016e2107ec7ba782f8dad6e", "fusion_lat": 0.0, "lon": -76.99752783333334, "type": "electric_scooter", "fusion_lon": 0.0, "lat": 38.88508616666667}, {"rental_uris": {"android": "https://dc.lft.to/lastmile_qr_scan", "ios": "https://dc.lft.to/lastmile_qr_scan"}, "is_reserved": 0, "is_disabled": 0, "name": "d72635f821dbcb3273a157e898e5adf6", "bike_id": "d72635f821dbcb3273a157e898e5adf6", "fusion_lat": 0.0, "lon": -77.03987333333333, "type": "electric_scooter", "fusion_lon": 0.0, "lat": 38.89543483333333}, {"rental_uris": {"android": "https://dc.lft.to/lastmile_qr_scan", "ios": "https://dc.lft.to/lastmile_qr_scan"}, "is_reserved": 0, "is_disabled": 0, "name": "b4005c6193ca035a186b7afb47db5dfa", "bike_id": "b4005c6193ca035a186b7afb47db5dfa", "fusion_lat": 0.0, "lon": -77.00149683333333, "type": "electric_scooter", "fusion_lon": 0.0, "lat": 38.9084535}, {"rental_uris": {"android": "https://dc.lft.to/lastmile_qr_scan", "ios": "https://dc.lft.to/lastmile_qr_scan"}, "is_reserved": 0, "is_disabled": 0, "name": "29040b07597172d731a904e1a703cea7", "bike_id": "29040b07597172d731a904e1a703cea7", "fusion_lat": 0.0, "lon": -77.04565183333334, "type": "electric_scooter", "fusion_lon": 0.0, "lat": 38.9039265}, {"rental_uris": {"android": "https://dc.lft.to/lastmile_qr_scan", "ios": "https://dc.lft.to/lastmile_qr_scan"}, "is_reserved": 0, "is_disabled": 0, "name": "63ee851282937d78091d97dd721aa1b3", "bike_id": "63ee851282937d78091d97dd721aa1b3", "fusion_lat": 0.0, "lon": -77.02398233333334, "type": "electric_scooter", "fusion_lon": 0.0, "lat": 38.9096755}, {"rental_uris": {"android": "https://dc.lft.to/lastmile_qr_scan", "ios": "https://dc.lft.to/lastmile_qr_scan"}, "is_reserved": 0, "is_disabled": 0, "name": "aed4b6f0a377c5a38cd86426567d08f0", "bike_id": "aed4b6f0a377c5a38cd86426567d08f0", "fusion_lat": 0.0, "lon": -77.0389365, "type": "electric_scooter", "fusion_lon": 0.0, "lat": 38.90125366666667}, {"rental_uris": {"android": "https://dc.lft.to/lastmile_qr_scan", "ios": "https://dc.lft.to/lastmile_qr_scan"}, "is_reserved": 0, "is_disabled": 0, "name": "ac2b863760616b1bdab334f8d159810c", "bike_id": "ac2b863760616b1bdab334f8d159810c", "fusion_lat": 0.0, "lon": -77.0149685, "type": "electric_scooter", "fusion_lon": 0.0, "lat": 38.9266985}, {"rental_uris": {"android": "https://dc.lft.to/lastmile_qr_scan", "ios": "https://dc.lft.to/lastmile_qr_scan"}, "is_reserved": 0, "is_disabled": 0, "name": "3ab5a437a5f43ac2696c5994582df9a2", "bike_id": "3ab5a437a5f43ac2696c5994582df9a2", "fusion_lat": 0.0, "lon": -77.12935866666666, "type": "electric_bike", "fusion_lon": 0.0, "lat": 38.865845166666666}, {"rental_uris": {"android": "https://dc.lft.to/lastmile_qr_scan", "ios": "https://dc.lft.to/lastmile_qr_scan"}, "is_reserved": 0, "is_disabled": 0, "name": "2d0707f3e70350abdd1b17b889ab6b74", "bike_id": "2d0707f3e70350abdd1b17b889ab6b74", "fusion_lat": 0.0, "lon": -77.04469516666667, "type": "electric_scooter", "fusion_lon": 0.0, "lat": 38.902848}, {"rental_uris": {"android": "https://dc.lft.to/lastmile_qr_scan", "ios": "https://dc.lft.to/lastmile_qr_scan"}, "is_reserved": 0, "is_disabled": 0, "name": "c56573161328027a30de628752f1fa9f", "bike_id": "c56573161328027a30de628752f1fa9f", "fusion_lat": 0.0, "lon": -77.0279715, "type": "electric_scooter", "fusion_lon": 0.0, "lat": 38.917601166666664}, {"rental_uris": {"android": "https://dc.lft.to/lastmile_qr_scan", "ios": "https://dc.lft.to/lastmile_qr_scan"}, "is_reserved": 0, "is_disabled": 0, "name": "9d79403d7acc9222cc79e4efe208508f", "bike_id": "9d79403d7acc9222cc79e4efe208508f", "fusion_lat": 0.0, "lon": -77.04162816666667, "type": "electric_scooter", "fusion_lon": 0.0, "lat": 38.91980866666667}, {"rental_uris": {"android": "https://dc.lft.to/lastmile_qr_scan", "ios": "https://dc.lft.to/lastmile_qr_scan"}, "is_reserved": 0, "is_disabled": 0, "name": "76889d5af55867c2488306b043f4384c", "bike_id": "76889d5af55867c2488306b043f4384c", "fusion_lat": 0.0, "lon": -77.034032, "type": "electric_scooter", "fusion_lon": 0.0, "lat": 38.909692666666665}, {"rental_uris": {"android": "https://dc.lft.to/lastmile_qr_scan", "ios": "https://dc.lft.to/lastmile_qr_scan"}, "is_reserved": 0, "is_disabled": 0, "name": "be6f4ecb33cf1894a85e790ff62f6fe7", "bike_id": "be6f4ecb33cf1894a85e790ff62f6fe7", "fusion_lat": 0.0, "lon": -77.041963, "type": "electric_scooter", "fusion_lon": 0.0, "lat": 38.920472833333335}, {"rental_uris": {"android": "https://dc.lft.to/lastmile_qr_scan", "ios": "https://dc.lft.to/lastmile_qr_scan"}, "is_reserved": 0, "is_disabled": 0, "name": "ce0e444286acb3aa6e3e5ed1aa61d639", "bike_id": "ce0e444286acb3aa6e3e5ed1aa61d639", "fusion_lat": 0.0, "lon": -76.989908, "type": "electric_scooter", "fusion_lon": 0.0, "lat": 38.86437433333333}, {"rental_uris": {"android": "https://dc.lft.to/lastmile_qr_scan", "ios": "https://dc.lft.to/lastmile_qr_scan"}, "is_reserved": 0, "is_disabled": 0, "name": "9d90819b6b908fc6baaa3af410de103e", "bike_id": "9d90819b6b908fc6baaa3af410de103e", "fusion_lat": 0.0, "lon": -76.9296545, "type": "electric_scooter", "fusion_lon": 0.0, "lat": 38.8963045}, {"rental_uris": {"android": "https://dc.lft.to/lastmile_qr_scan", "ios": "https://dc.lft.to/lastmile_qr_scan"}, "is_reserved": 0, "is_disabled": 0, "name": "8bfee5b7786a3e8e8ce581603e807da7", "bike_id": "8bfee5b7786a3e8e8ce581603e807da7", "fusion_lat": 0.0, "lon": -77.02852616666667, "type": "electric_scooter", "fusion_lon": 0.0, "lat": 38.90099633333333}, {"rental_uris": {"android": "https://dc.lft.to/lastmile_qr_scan", "ios": "https://dc.lft.to/lastmile_qr_scan"}, "is_reserved": 0, "is_disabled": 0, "name": "b7e6d0acef46eccf29ddca46fdd50720", "bike_id": "b7e6d0acef46eccf29ddca46fdd50720", "fusion_lat": 0.0, "lon": -77.07327983333333, "type": "electric_scooter", "fusion_lon": 0.0, "lat": 38.922590166666666}, {"rental_uris": {"android": "https://dc.lft.to/lastmile_qr_scan", "ios": "https://dc.lft.to/lastmile_qr_scan"}, "is_reserved": 0, "is_disabled": 0, "name": "619a9c8dcf6671168f0eda2c77e0b188", "bike_id": "619a9c8dcf6671168f0eda2c77e0b188", "fusion_lat": 0.0, "lon": -77.03164366666667, "type": "electric_scooter", "fusion_lon": 0.0, "lat": 38.89410816666667}, {"rental_uris": {"android": "https://dc.lft.to/lastmile_qr_scan", "ios": "https://dc.lft.to/lastmile_qr_scan"}, "is_reserved": 0, "is_disabled": 0, "name": "8c4a4875f108468d2a21f693f3781abd", "bike_id": "8c4a4875f108468d2a21f693f3781abd", "fusion_lat": 0.0, "lon": -77.00338816666667, "type": "electric_scooter", "fusion_lon": 0.0, "lat": 38.88636833333333}, {"rental_uris": {"android": "https://dc.lft.to/lastmile_qr_scan", "ios": "https://dc.lft.to/lastmile_qr_scan"}, "is_reserved": 0, "is_disabled": 0, "name": "517dba898e096aa2e19e533d07f6a173", "bike_id": "517dba898e096aa2e19e533d07f6a173", "fusion_lat": 0.0, "lon": -77.03415616666666, "type": "electric_scooter", "fusion_lon": 0.0, "lat": 38.93090566666667}, {"rental_uris": {"android": "https://dc.lft.to/lastmile_qr_scan", "ios": "https://dc.lft.to/lastmile_qr_scan"}, "is_reserved": 0, "is_disabled": 0, "name": "95d0d15084e304e8afc5b3980ba4aa33", "bike_id": "95d0d15084e304e8afc5b3980ba4aa33", "fusion_lat": 0.0, "lon": -77.0161125, "type": "electric_scooter", "fusion_lon": 0.0, "lat": 38.90604883333334}, {"rental_uris": {"android": "https://dc.lft.to/lastmile_qr_scan", "ios": "https://dc.lft.to/lastmile_qr_scan"}, "is_reserved": 0, "is_disabled": 0, "name": "76784317af2a1430aa264a29804dd80e", "bike_id": "76784317af2a1430aa264a29804dd80e", "fusion_lat": 0.0, "lon": -76.96521233333333, "type": "electric_scooter", "fusion_lon": 0.0, "lat": 38.8762775}, {"rental_uris": {"android": "https://dc.lft.to/lastmile_qr_scan", "ios": "https://dc.lft.to/lastmile_qr_scan"}, "is_reserved": 0, "is_disabled": 0, "name": "f38e34a04998ea8cd49bedffaa4e440f", "bike_id": "f38e34a04998ea8cd49bedffaa4e440f", "fusion_lat": 0.0, "lon": -76.98987233333334, "type": "electric_scooter", "fusion_lon": 0.0, "lat": 38.8643425}, {"rental_uris": {"android": "https://dc.lft.to/lastmile_qr_scan", "ios": "https://dc.lft.to/lastmile_qr_scan"}, "is_reserved": 0, "is_disabled": 0, "name": "dabb39e8dc88303a97eb5c08a5b9bad0", "bike_id": "dabb39e8dc88303a97eb5c08a5b9bad0", "fusion_lat": 0.0, "lon": -77.05687716666667, "type": "electric_scooter", "fusion_lon": 0.0, "lat": 38.906092666666666}, {"rental_uris": {"android": "https://dc.lft.to/lastmile_qr_scan", "ios": "https://dc.lft.to/lastmile_qr_scan"}, "is_reserved": 0, "is_disabled": 0, "name": "c7080c5e83bc89752bef29ab93e6cde5", "bike_id": "c7080c5e83bc89752bef29ab93e6cde5", "fusion_lat": 0.0, "lon": -76.99513516666667, "type": "electric_scooter", "fusion_lon": 0.0, "lat": 38.8879405}, {"rental_uris": {"android": "https://dc.lft.to/lastmile_qr_scan", "ios": "https://dc.lft.to/lastmile_qr_scan"}, "is_reserved": 0, "is_disabled": 0, "name": "6c1a23886210b4984d34c97ca460b502", "bike_id": "6c1a23886210b4984d34c97ca460b502", "fusion_lat": 0.0, "lon": -77.02444433333334, "type": "electric_bike", "fusion_lon": 0.0, "lat": 38.93701733333333}, {"rental_uris": {"android": "https://dc.lft.to/lastmile_qr_scan", "ios": "https://dc.lft.to/lastmile_qr_scan"}, "is_reserved": 0, "is_disabled": 0, "name": "c18e01f3c0aad88e512846864a5329b6", "bike_id": "c18e01f3c0aad88e512846864a5329b6", "fusion_lat": 0.0, "lon": -76.98268283333333, "type": "electric_scooter", "fusion_lon": 0.0, "lat": 38.86888366666667}, {"rental_uris": {"android": "https://dc.lft.to/lastmile_qr_scan", "ios": "https://dc.lft.to/lastmile_qr_scan"}, "is_reserved": 0, "is_disabled": 0, "name": "af68f7b1ab6ed8030216a81b23f1cbbb", "bike_id": "af68f7b1ab6ed8030216a81b23f1cbbb", "fusion_lat": 0.0, "lon": -77.04863866666666, "type": "electric_scooter", "fusion_lon": 0.0, "lat": 38.89939016666667}, {"rental_uris": {"android": "https://dc.lft.to/lastmile_qr_scan", "ios": "https://dc.lft.to/lastmile_qr_scan"}, "is_reserved": 0, "is_disabled": 0, "name": "75fa948defea6b90f50d138b97da30b7", "bike_id": "75fa948defea6b90f50d138b97da30b7", "fusion_lat": 0.0, "lon": -77.02333316666666, "type": "electric_scooter", "fusion_lon": 0.0, "lat": 38.922324333333336}, {"rental_uris": {"android": "https://dc.lft.to/lastmile_qr_scan", "ios": "https://dc.lft.to/lastmile_qr_scan"}, "is_reserved": 0, "is_disabled": 0, "name": "ffcc75f99db1f5f8c969ca9446da625f", "bike_id": "ffcc75f99db1f5f8c969ca9446da625f", "fusion_lat": 0.0, "lon": -77.02302366666666, "type": "electric_scooter", "fusion_lon": 0.0, "lat": 38.89995016666667}, {"rental_uris": {"android": "https://dc.lft.to/lastmile_qr_scan", "ios": "https://dc.lft.to/lastmile_qr_scan"}, "is_reserved": 0, "is_disabled": 0, "name": "b10b5b4349c51944feda8d65ab96f716", "bike_id": "b10b5b4349c51944feda8d65ab96f716", "fusion_lat": 0.0, "lon": -77.04118616666666, "type": "electric_scooter", "fusion_lon": 0.0, "lat": 38.9216605}, {"rental_uris": {"android": "https://dc.lft.to/lastmile_qr_scan", "ios": "https://dc.lft.to/lastmile_qr_scan"}, "is_reserved": 0, "is_disabled": 0, "name": "4c255f8172c26376e002c17a554489ad", "bike_id": "4c255f8172c26376e002c17a554489ad", "fusion_lat": 0.0, "lon": -77.03854916666667, "type": "electric_scooter", "fusion_lon": 0.0, "lat": 38.911688}, {"rental_uris": {"android": "https://dc.lft.to/lastmile_qr_scan", "ios": "https://dc.lft.to/lastmile_qr_scan"}, "is_reserved": 0, "is_disabled": 0, "name": "15d30ca55aed79751abfb4e842b0094c", "bike_id": "15d30ca55aed79751abfb4e842b0094c", "fusion_lat": 0.0, "lon": -77.00160266666667, "type": "electric_scooter", "fusion_lon": 0.0, "lat": 38.907096}, {"rental_uris": {"android": "https://dc.lft.to/lastmile_qr_scan", "ios": "https://dc.lft.to/lastmile_qr_scan"}, "is_reserved": 0, "is_disabled": 0, "name": "843e0d52332fa2bd0234852016acdc73", "bike_id": "843e0d52332fa2bd0234852016acdc73", "fusion_lat": 0.0, "lon": -77.04616066666667, "type": "electric_scooter", "fusion_lon": 0.0, "lat": 38.916397833333335}, {"rental_uris": {"android": "https://dc.lft.to/lastmile_qr_scan", "ios": "https://dc.lft.to/lastmile_qr_scan"}, "is_reserved": 0, "is_disabled": 0, "name": "eb9fef4f7efdf2c4bdd3ab049d2b4b39", "bike_id": "eb9fef4f7efdf2c4bdd3ab049d2b4b39", "fusion_lat": 0.0, "lon": -77.00295116666666, "type": "electric_scooter", "fusion_lon": 0.0, "lat": 38.89194483333333}, {"rental_uris": {"android": "https://dc.lft.to/lastmile_qr_scan", "ios": "https://dc.lft.to/lastmile_qr_scan"}, "is_reserved": 0, "is_disabled": 0, "name": "60340233c1bcf0a416304a7848241867", "bike_id": "60340233c1bcf0a416304a7848241867", "fusion_lat": 0.0, "lon": -76.91719716666667, "type": "electric_bike", "fusion_lon": 0.0, "lat": 38.88028116666667}, {"rental_uris": {"android": "https://dc.lft.to/lastmile_qr_scan", "ios": "https://dc.lft.to/lastmile_qr_scan"}, "is_reserved": 0, "is_disabled": 0, "name": "cbbc133b4fc376e0787cce883b445a5e", "bike_id": "cbbc133b4fc376e0787cce883b445a5e", "fusion_lat": 0.0, "lon": -77.03356283333333, "type": "electric_scooter", "fusion_lon": 0.0, "lat": 38.9358485}, {"rental_uris": {"android": "https://dc.lft.to/lastmile_qr_scan", "ios": "https://dc.lft.to/lastmile_qr_scan"}, "is_reserved": 0, "is_disabled": 0, "name": "66d0ef3eb8932d7af0b220928c2c72d5", "bike_id": "66d0ef3eb8932d7af0b220928c2c72d5", "fusion_lat": 0.0, "lon": -77.23178166666666, "type": "electric_bike", "fusion_lon": 0.0, "lat": 38.9289495}, {"rental_uris": {"android": "https://dc.lft.to/lastmile_qr_scan", "ios": "https://dc.lft.to/lastmile_qr_scan"}, "is_reserved": 0, "is_disabled": 0, "name": "7d845e5ca2ae64b6ded364966dcc7ddc", "bike_id": "7d845e5ca2ae64b6ded364966dcc7ddc", "fusion_lat": 0.0, "lon": -77.03634383333333, "type": "electric_bike", "fusion_lon": 0.0, "lat": 38.927454}, {"rental_uris": {"android": "https://dc.lft.to/lastmile_qr_scan", "ios": "https://dc.lft.to/lastmile_qr_scan"}, "is_reserved": 0, "is_disabled": 0, "name": "3b0cb42630851ac3dfe4690228235c1e", "bike_id": "3b0cb42630851ac3dfe4690228235c1e", "fusion_lat": 0.0, "lon": -76.97951566666667, "type": "electric_bike", "fusion_lon": 0.0, "lat": 38.920383666666666}, {"rental_uris": {"android": "https://dc.lft.to/lastmile_qr_scan", "ios": "https://dc.lft.to/lastmile_qr_scan"}, "is_reserved": 0, "is_disabled": 0, "name": "f441270368f2c6a8048764872f3189a2", "bike_id": "f441270368f2c6a8048764872f3189a2", "fusion_lat": 0.0, "lon": -77.02090566666666, "type": "electric_scooter", "fusion_lon": 0.0, "lat": 38.921246}, {"rental_uris": {"android": "https://dc.lft.to/lastmile_qr_scan", "ios": "https://dc.lft.to/lastmile_qr_scan"}, "is_reserved": 0, "is_disabled": 0, "name": "a06ef9b59f34725836f94c15831a0e6a", "bike_id": "a06ef9b59f34725836f94c15831a0e6a", "fusion_lat": 0.0, "lon": -77.03208816666667, "type": "electric_scooter", "fusion_lon": 0.0, "lat": 38.90971566666666}, {"rental_uris": {"android": "https://dc.lft.to/lastmile_qr_scan", "ios": "https://dc.lft.to/lastmile_qr_scan"}, "is_reserved": 0, "is_disabled": 0, "name": "eeb5c6e2de14e100957f1635fb2d79e9", "bike_id": "eeb5c6e2de14e100957f1635fb2d79e9", "fusion_lat": 0.0, "lon": -77.03546616666667, "type": "electric_scooter", "fusion_lon": 0.0, "lat": 38.91818816666667}, {"rental_uris": {"android": "https://dc.lft.to/lastmile_qr_scan", "ios": "https://dc.lft.to/lastmile_qr_scan"}, "is_reserved": 0, "is_disabled": 0, "name": "d95f8fa08d180497cf2e6047a5037769", "bike_id": "d95f8fa08d180497cf2e6047a5037769", "fusion_lat": 0.0, "lon": -77.01441333333334, "type": "electric_scooter", "fusion_lon": 0.0, "lat": 38.95815733333333}, {"rental_uris": {"android": "https://dc.lft.to/lastmile_qr_scan", "ios": "https://dc.lft.to/lastmile_qr_scan"}, "is_reserved": 0, "is_disabled": 0, "name": "c3cb1eb1b478ae1bde33ce44a8455e87", "bike_id": "c3cb1eb1b478ae1bde33ce44a8455e87", "fusion_lat": 0.0, "lon": -77.10295333333333, "type": "electric_bike", "fusion_lon": 0.0, "lat": 38.85251183333333}, {"rental_uris": {"android": "https://dc.lft.to/lastmile_qr_scan", "ios": "https://dc.lft.to/lastmile_qr_scan"}, "is_reserved": 0, "is_disabled": 0, "name": "47ae02009df3f6c5b62877037ddfec7f", "bike_id": "47ae02009df3f6c5b62877037ddfec7f", "fusion_lat": 0.0, "lon": -77.03654683333333, "type": "electric_bike", "fusion_lon": 0.0, "lat": 38.93630566666667}, {"rental_uris": {"android": "https://dc.lft.to/lastmile_qr_scan", "ios": "https://dc.lft.to/lastmile_qr_scan"}, "is_reserved": 0, "is_disabled": 0, "name": "438eaf954d365e312c229321b4e1f77c", "bike_id": "438eaf954d365e312c229321b4e1f77c", "fusion_lat": 0.0, "lon": -77.01956783333333, "type": "electric_scooter", "fusion_lon": 0.0, "lat": 38.9232855}, {"rental_uris": {"android": "https://dc.lft.to/lastmile_qr_scan", "ios": "https://dc.lft.to/lastmile_qr_scan"}, "is_reserved": 0, "is_disabled": 0, "name": "0addc31fc5a01edd10ee3fed1d3aaf33", "bike_id": "0addc31fc5a01edd10ee3fed1d3aaf33", "fusion_lat": 0.0, "lon": -77.006454, "type": "electric_scooter", "fusion_lon": 0.0, "lat": 38.90986266666667}, {"rental_uris": {"android": "https://dc.lft.to/lastmile_qr_scan", "ios": "https://dc.lft.to/lastmile_qr_scan"}, "is_reserved": 0, "is_disabled": 0, "name": "23c1de7396658f38f34f9ffed6eb58ba", "bike_id": "23c1de7396658f38f34f9ffed6eb58ba", "fusion_lat": 0.0, "lon": -77.07916633333333, "type": "electric_bike", "fusion_lon": 0.0, "lat": 38.838254166666665}, {"rental_uris": {"android": "https://dc.lft.to/lastmile_qr_scan", "ios": "https://dc.lft.to/lastmile_qr_scan"}, "is_reserved": 0, "is_disabled": 0, "name": "ee7d0377ff64aba9dbc49e94c491b292", "bike_id": "ee7d0377ff64aba9dbc49e94c491b292", "fusion_lat": 0.0, "lon": -77.04528016666667, "type": "electric_scooter", "fusion_lon": 0.0, "lat": 38.918262666666664}, {"rental_uris": {"android": "https://dc.lft.to/lastmile_qr_scan", "ios": "https://dc.lft.to/lastmile_qr_scan"}, "is_reserved": 0, "is_disabled": 0, "name": "3eef1724d77507e34f04fcef4fef6255", "bike_id": "3eef1724d77507e34f04fcef4fef6255", "fusion_lat": 0.0, "lon": -77.02179783333334, "type": "electric_scooter", "fusion_lon": 0.0, "lat": 38.89225916666667}, {"rental_uris": {"android": "https://dc.lft.to/lastmile_qr_scan", "ios": "https://dc.lft.to/lastmile_qr_scan"}, "is_reserved": 0, "is_disabled": 0, "name": "b5fa3bdbf21edc6bd4cf478ee35a1032", "bike_id": "b5fa3bdbf21edc6bd4cf478ee35a1032", "fusion_lat": 0.0, "lon": -77.06521366666666, "type": "electric_scooter", "fusion_lon": 0.0, "lat": 38.905321}, {"rental_uris": {"android": "https://dc.lft.to/lastmile_qr_scan", "ios": "https://dc.lft.to/lastmile_qr_scan"}, "is_reserved": 0, "is_disabled": 0, "name": "ec4a8fedad7339b07cdb594756fba8c8", "bike_id": "ec4a8fedad7339b07cdb594756fba8c8", "fusion_lat": 0.0, "lon": -77.02414633333333, "type": "electric_scooter", "fusion_lon": 0.0, "lat": 38.920958666666664}, {"rental_uris": {"android": "https://dc.lft.to/lastmile_qr_scan", "ios": "https://dc.lft.to/lastmile_qr_scan"}, "is_reserved": 0, "is_disabled": 0, "name": "10e5927ad51e271763069035bc0e54a6", "bike_id": "10e5927ad51e271763069035bc0e54a6", "fusion_lat": 0.0, "lon": -76.93356316666667, "type": "electric_scooter", "fusion_lon": 0.0, "lat": 38.89838133333333}, {"rental_uris": {"android": "https://dc.lft.to/lastmile_qr_scan", "ios": "https://dc.lft.to/lastmile_qr_scan"}, "is_reserved": 0, "is_disabled": 0, "name": "34c7f4a67363b33988ec273cef1ac45f", "bike_id": "34c7f4a67363b33988ec273cef1ac45f", "fusion_lat": 0.0, "lon": -77.02630366666666, "type": "electric_scooter", "fusion_lon": 0.0, "lat": 38.929171333333336}, {"rental_uris": {"android": "https://dc.lft.to/lastmile_qr_scan", "ios": "https://dc.lft.to/lastmile_qr_scan"}, "is_reserved": 0, "is_disabled": 0, "name": "ce40dd24107239dbfdb6ba09f78b156e", "bike_id": "ce40dd24107239dbfdb6ba09f78b156e", "fusion_lat": 0.0, "lon": -77.0108105, "type": "electric_scooter", "fusion_lon": 0.0, "lat": 38.89535}, {"rental_uris": {"android": "https://dc.lft.to/lastmile_qr_scan", "ios": "https://dc.lft.to/lastmile_qr_scan"}, "is_reserved": 0, "is_disabled": 0, "name": "491c7d4ecd4881fa194bfd61a68620af", "bike_id": "491c7d4ecd4881fa194bfd61a68620af", "fusion_lat": 0.0, "lon": -77.017819, "type": "electric_scooter", "fusion_lon": 0.0, "lat": 38.91991766666666}, {"rental_uris": {"android": "https://dc.lft.to/lastmile_qr_scan", "ios": "https://dc.lft.to/lastmile_qr_scan"}, "is_reserved": 0, "is_disabled": 0, "name": "1a5b02130cd90890ef5ba07ed9fbfb5b", "bike_id": "1a5b02130cd90890ef5ba07ed9fbfb5b", "fusion_lat": 0.0, "lon": -77.03183633333333, "type": "electric_scooter", "fusion_lon": 0.0, "lat": 38.9020795}, {"rental_uris": {"android": "https://dc.lft.to/lastmile_qr_scan", "ios": "https://dc.lft.to/lastmile_qr_scan"}, "is_reserved": 0, "is_disabled": 0, "name": "7872739b61ae5e7780236cb38524525e", "bike_id": "7872739b61ae5e7780236cb38524525e", "fusion_lat": 0.0, "lon": -77.01982866666667, "type": "electric_scooter", "fusion_lon": 0.0, "lat": 38.887189}, {"rental_uris": {"android": "https://dc.lft.to/lastmile_qr_scan", "ios": "https://dc.lft.to/lastmile_qr_scan"}, "is_reserved": 0, "is_disabled": 0, "name": "f04b43fd3130805dba2dbc6e8e1ff218", "bike_id": "f04b43fd3130805dba2dbc6e8e1ff218", "fusion_lat": 0.0, "lon": -77.01198166666667, "type": "electric_bike", "fusion_lon": 0.0, "lat": 38.950709}, {"rental_uris": {"android": "https://dc.lft.to/lastmile_qr_scan", "ios": "https://dc.lft.to/lastmile_qr_scan"}, "is_reserved": 0, "is_disabled": 0, "name": "b09fc1438a87103aac32fdd7354c2654", "bike_id": "b09fc1438a87103aac32fdd7354c2654", "fusion_lat": 0.0, "lon": -77.03923183333333, "type": "electric_scooter", "fusion_lon": 0.0, "lat": 38.9028015}, {"rental_uris": {"android": "https://dc.lft.to/lastmile_qr_scan", "ios": "https://dc.lft.to/lastmile_qr_scan"}, "is_reserved": 0, "is_disabled": 0, "name": "42c22e1c3c8fae4e1b57e044fd7323ec", "bike_id": "42c22e1c3c8fae4e1b57e044fd7323ec", "fusion_lat": 0.0, "lon": -77.01481666666666, "type": "electric_scooter", "fusion_lon": 0.0, "lat": 38.91407}, {"rental_uris": {"android": "https://dc.lft.to/lastmile_qr_scan", "ios": "https://dc.lft.to/lastmile_qr_scan"}, "is_reserved": 0, "is_disabled": 0, "name": "e1cc1f72ca0f1a9629554db77909649f", "bike_id": "e1cc1f72ca0f1a9629554db77909649f", "fusion_lat": 0.0, "lon": -77.02799683333333, "type": "electric_scooter", "fusion_lon": 0.0, "lat": 38.91741316666667}, {"rental_uris": {"android": "https://dc.lft.to/lastmile_qr_scan", "ios": "https://dc.lft.to/lastmile_qr_scan"}, "is_reserved": 0, "is_disabled": 0, "name": "e4638579295863ca0bb639e8dd328356", "bike_id": "e4638579295863ca0bb639e8dd328356", "fusion_lat": 0.0, "lon": -77.06290283333334, "type": "electric_scooter", "fusion_lon": 0.0, "lat": 38.903945}, {"rental_uris": {"android": "https://dc.lft.to/lastmile_qr_scan", "ios": "https://dc.lft.to/lastmile_qr_scan"}, "is_reserved": 0, "is_disabled": 0, "name": "48874b68774fe7a495ce8b76e5cff3d7", "bike_id": "48874b68774fe7a495ce8b76e5cff3d7", "fusion_lat": 0.0, "lon": -77.02589866666666, "type": "electric_scooter", "fusion_lon": 0.0, "lat": 38.92090816666666}, {"rental_uris": {"android": "https://dc.lft.to/lastmile_qr_scan", "ios": "https://dc.lft.to/lastmile_qr_scan"}, "is_reserved": 0, "is_disabled": 0, "name": "a51f3b8f0a31fb70f92b90b98bf9740a", "bike_id": "a51f3b8f0a31fb70f92b90b98bf9740a", "fusion_lat": 0.0, "lon": -77.04474, "type": "electric_scooter", "fusion_lon": 0.0, "lat": 38.91118733333333}, {"rental_uris": {"android": "https://dc.lft.to/lastmile_qr_scan", "ios": "https://dc.lft.to/lastmile_qr_scan"}, "is_reserved": 0, "is_disabled": 0, "name": "e0a18eaf8713eda7876674816cf7b902", "bike_id": "e0a18eaf8713eda7876674816cf7b902", "fusion_lat": 0.0, "lon": -77.04458966666667, "type": "electric_scooter", "fusion_lon": 0.0, "lat": 38.92470316666667}, {"rental_uris": {"android": "https://dc.lft.to/lastmile_qr_scan", "ios": "https://dc.lft.to/lastmile_qr_scan"}, "is_reserved": 0, "is_disabled": 0, "name": "ad7a648191b6737e768c40c3dbcab72c", "bike_id": "ad7a648191b6737e768c40c3dbcab72c", "fusion_lat": 0.0, "lon": -77.02966883333333, "type": "electric_scooter", "fusion_lon": 0.0, "lat": 38.94292083333333}, {"rental_uris": {"android": "https://dc.lft.to/lastmile_qr_scan", "ios": "https://dc.lft.to/lastmile_qr_scan"}, "is_reserved": 0, "is_disabled": 0, "name": "53b23de87aae71010c5c1ad8abe3a3c2", "bike_id": "53b23de87aae71010c5c1ad8abe3a3c2", "fusion_lat": 0.0, "lon": -77.01279266666667, "type": "electric_scooter", "fusion_lon": 0.0, "lat": 38.95654666666667}, {"rental_uris": {"android": "https://dc.lft.to/lastmile_qr_scan", "ios": "https://dc.lft.to/lastmile_qr_scan"}, "is_reserved": 0, "is_disabled": 0, "name": "48fb0e29e7453cdfc18cc0b3fb8d6d3e", "bike_id": "48fb0e29e7453cdfc18cc0b3fb8d6d3e", "fusion_lat": 0.0, "lon": -76.95562466666667, "type": "electric_bike", "fusion_lon": 0.0, "lat": 38.98502166666667}, {"rental_uris": {"android": "https://dc.lft.to/lastmile_qr_scan", "ios": "https://dc.lft.to/lastmile_qr_scan"}, "is_reserved": 0, "is_disabled": 0, "name": "d5885ab79d69cf27ed1c2e56611ab354", "bike_id": "d5885ab79d69cf27ed1c2e56611ab354", "fusion_lat": 0.0, "lon": -77.01541033333334, "type": "electric_scooter", "fusion_lon": 0.0, "lat": 38.89165216666667}, {"rental_uris": {"android": "https://dc.lft.to/lastmile_qr_scan", "ios": "https://dc.lft.to/lastmile_qr_scan"}, "is_reserved": 0, "is_disabled": 0, "name": "a215a9ba51651679b86a95a3ef3f9e00", "bike_id": "a215a9ba51651679b86a95a3ef3f9e00", "fusion_lat": 0.0, "lon": -77.03021983333333, "type": "electric_scooter", "fusion_lon": 0.0, "lat": 38.92732383333333}, {"rental_uris": {"android": "https://dc.lft.to/lastmile_qr_scan", "ios": "https://dc.lft.to/lastmile_qr_scan"},