{"data": {"bikes": [{"lat": 39.00382466666667, "is_disabled": 0, "type": "electric_bike", "lon": -77.01283566666666, "bike_id": "4d082c8f06583e20a38f411644c16fdd", "fusion_lat": 0.0, "name": "4d082c8f06583e20a38f411644c16fdd", "is_reserved": 0, "rental_uris": {"android": "https://dc.lft.to/lastmile_qr_scan", "ios": "https://dc.lft.to/lastmile_qr_scan"}, "fusion_lon": 0.0}, {"lat": 38.855172833333334, "is_disabled": 0, "type": "electric_bike", "lon": -77.1201715, "bike_id": "55de2bcba6ef25525c92e99cdbe27544", "fusion_lat": 0.0, "name": "55de2bcba6ef25525c92e99cdbe27544", "is_reserved": 0, "rental_uris": {"android": "https://dc.lft.to/lastmile_qr_scan", "ios": "https://dc.lft.to/lastmile_qr_scan"}, "fusion_lon": 0.0}, {"lat": 38.896488166666664, "is_disabled": 0, "type": "electric_scooter", "lon": -77.0231395, "bike_id": "c6cc8219e83730c631111be433cd33cc", "fusion_lat": 0.0, "name": "c6cc8219e83730c631111be433cd33cc", "is_reserved": 0, "rental_uris": {"android": "https://dc.lft.to/lastmile_qr_scan", "ios": "https://dc.lft.to/lastmile_qr_scan"}, "fusion_lon": 0.0}, {"lat": 38.90220466666667, "is_disabled": 0, "type": "electric_scooter", "lon": -77.02190233333333, "bike_id": "a7a2640a9c0da774c371af75ac92a1f8", "fusion_lat": 0.0, "name": "a7a2640a9c0da774c371af75ac92a1f8", "is_reserved": 0, "rental_uris": {"android": "https://dc.lft.to/lastmile_qr_scan", "ios": "https://dc.lft.to/lastmile_qr_scan"}, "fusion_lon": 0.0}, {"lat": 38.916137666666664, "is_disabled": 0, "type": "electric_scooter", "lon": -77.04875333333334, "bike_id": "85c6efaedebf226309e97d0b1bf376cc", "fusion_lat": 0.0, "name": "85c6efaedebf226309e97d0b1bf376cc", "is_reserved": 0, "rental_uris": {"android": "https://dc.lft.to/lastmile_qr_scan", "ios": "https://dc.lft.to/lastmile_qr_scan"}, "fusion_lon": 0.0}, {"lat": 38.90769516666667, "is_disabled": 0, "type": "electric_scooter", "lon": -77.06818366666667, "bike_id": "d6cf5f5ec0a6ef36eb5f0053a02718ad", "fusion_lat": 0.0, "name": "d6cf5f5ec0a6ef36eb5f0053a02718ad", "is_reserved": 0, "rental_uris": {"android": "https://dc.lft.to/lastmile_qr_scan", "ios": "https://dc.lft.to/lastmile_qr_scan"}, "fusion_lon": 0.0}, {"lat": 38.8912775, "is_disabled": 0, "type": "electric_scooter", "lon": -76.9438855, "bike_id": "b8affa7970459a86b6351d084a258f48", "fusion_lat": 0.0, "name": "b8affa7970459a86b6351d084a258f48", "is_reserved": 0, "rental_uris": {"android": "https://dc.lft.to/lastmile_qr_scan", "ios": "https://dc.lft.to/lastmile_qr_scan"}, "fusion_lon": 0.0}, {"lat": 38.91701466666667, "is_disabled": 0, "type": "electric_scooter", "lon": -77.0081555, "bike_id": "7482fcfd892e9ac5e9028aabd3b846e1", "fusion_lat": 0.0, "name": "7482fcfd892e9ac5e9028aabd3b846e1", "is_reserved": 0, "rental_uris": {"android": "https://dc.lft.to/lastmile_qr_scan", "ios": "https://dc.lft.to/lastmile_qr_scan"}, "fusion_lon": 0.0}, {"lat": 38.93211866666667, "is_disabled": 0, "type": "electric_scooter", "lon": -77.0365265, "bike_id": "9d0726bcf67588d2d49bcab2091bfcbe", "fusion_lat": 0.0, "name": "9d0726bcf67588d2d49bcab2091bfcbe", "is_reserved": 0, "rental_uris": {"android": "https://dc.lft.to/lastmile_qr_scan", "ios": "https://dc.lft.to/lastmile_qr_scan"}, "fusion_lon": 0.0}, {"lat": 38.930589, "is_disabled": 0, "type": "electric_scooter", "lon": -77.04177233333333, "bike_id": "5d5f8e3bdb061e84a008d0fdd6fd4bb7", "fusion_lat": 0.0, "name": "5d5f8e3bdb061e84a008d0fdd6fd4bb7", "is_reserved": 0, "rental_uris": {"android": "https://dc.lft.to/lastmile_qr_scan", "ios": "https://dc.lft.to/lastmile_qr_scan"}, "fusion_lon": 0.0}, {"lat": 38.909032833333335, "is_disabled": 0, "type": "electric_scooter", "lon": -76.99917533333333, "bike_id": "403202d9c708c38a32cbc450fe1c6fc0", "fusion_lat": 0.0, "name": "403202d9c708c38a32cbc450fe1c6fc0", "is_reserved": 0, "rental_uris": {"android": "https://dc.lft.to/lastmile_qr_scan", "ios": "https://dc.lft.to/lastmile_qr_scan"}, "fusion_lon": 0.0}, {"lat": 38.906198, "is_disabled": 0, "type": "electric_scooter", "lon": -76.98988, "bike_id": "b7cd53f2aea2493c1a9b72a2104855ac", "fusion_lat": 0.0, "name": "b7cd53f2aea2493c1a9b72a2104855ac", "is_reserved": 0, "rental_uris": {"android": "https://dc.lft.to/lastmile_qr_scan", "ios": "https://dc.lft.to/lastmile_qr_scan"}, "fusion_lon": 0.0}, {"lat": 38.93060216666667, "is_disabled": 0, "type": "electric_scooter", "lon": -77.03157766666666, "bike_id": "1209f1ee95c379f2fe8ad7e17f9ab2da", "fusion_lat": 0.0, "name": "1209f1ee95c379f2fe8ad7e17f9ab2da", "is_reserved": 0, "rental_uris": {"android": "https://dc.lft.to/lastmile_qr_scan", "ios": "https://dc.lft.to/lastmile_qr_scan"}, "fusion_lon": 0.0}, {"lat": 38.934038666666666, "is_disabled": 0, "type": "electric_scooter", "lon": -77.03267783333334, "bike_id": "a991d2d25785ae75207825217b0501be", "fusion_lat": 0.0, "name": "a991d2d25785ae75207825217b0501be", "is_reserved": 0, "rental_uris": {"android": "https://dc.lft.to/lastmile_qr_scan", "ios": "https://dc.lft.to/lastmile_qr_scan"}, "fusion_lon": 0.0}, {"lat": 38.89912016666667, "is_disabled": 0, "type": "electric_scooter", "lon": -76.933473, "bike_id": "f938f80cf2a12fe611a3780da423359e", "fusion_lat": 0.0, "name": "f938f80cf2a12fe611a3780da423359e", "is_reserved": 0, "rental_uris": {"android": "https://dc.lft.to/lastmile_qr_scan", "ios": "https://dc.lft.to/lastmile_qr_scan"}, "fusion_lon": 0.0}, {"lat": 38.85912366666667, "is_disabled": 0, "type": "electric_scooter", "lon": -76.99135383333333, "bike_id": "4d990eef082ce37208f75e13cd36897c", "fusion_lat": 0.0, "name": "4d990eef082ce37208f75e13cd36897c", "is_reserved": 0, "rental_uris": {"android": "https://dc.lft.to/lastmile_qr_scan", "ios": "https://dc.lft.to/lastmile_qr_scan"}, "fusion_lon": 0.0}, {"lat": 38.93481366666666, "is_disabled": 0, "type": "electric_scooter", "lon": -77.07273883333333, "bike_id": "8f3948359d74cae0d90fe1bd417d3f77", "fusion_lat": 0.0, "name": "8f3948359d74cae0d90fe1bd417d3f77", "is_reserved": 0, "rental_uris": {"android": "https://dc.lft.to/lastmile_qr_scan", "ios": "https://dc.lft.to/lastmile_qr_scan"}, "fusion_lon": 0.0}, {"lat": 38.915224, "is_disabled": 0, "type": "electric_scooter", "lon": -77.03837466666667, "bike_id": "c03f5ecf9329593b132612760316a4a3", "fusion_lat": 0.0, "name": "c03f5ecf9329593b132612760316a4a3", "is_reserved": 0, "rental_uris": {"android": "https://dc.lft.to/lastmile_qr_scan", "ios": "https://dc.lft.to/lastmile_qr_scan"}, "fusion_lon": 0.0}, {"lat": 38.90855, "is_disabled": 0, "type": "electric_scooter", "lon": -77.08589533333334, "bike_id": "9ff53423b4660becdb0f1e759f398190", "fusion_lat": 0.0, "name": "9ff53423b4660becdb0f1e759f398190", "is_reserved": 0, "rental_uris": {"android": "https://dc.lft.to/lastmile_qr_scan", "ios": "https://dc.lft.to/lastmile_qr_scan"}, "fusion_lon": 0.0}, {"lat": 38.936335666666665, "is_disabled": 0, "type": "electric_scooter", "lon": -77.05881716666667, "bike_id": "a00fdd0bc01ba677313eb58e0894dbef", "fusion_lat": 0.0, "name": "a00fdd0bc01ba677313eb58e0894dbef", "is_reserved": 0, "rental_uris": {"android": "https://dc.lft.to/lastmile_qr_scan", "ios": "https://dc.lft.to/lastmile_qr_scan"}, "fusion_lon": 0.0}, {"lat": 38.924981833333334, "is_disabled": 0, "type": "electric_scooter", "lon": -77.008891, "bike_id": "29e237122c6e0d1550705e17ca65a1c7", "fusion_lat": 0.0, "name": "29e237122c6e0d1550705e17ca65a1c7", "is_reserved": 0, "rental_uris": {"android": "https://dc.lft.to/lastmile_qr_scan", "ios": "https://dc.lft.to/lastmile_qr_scan"}, "fusion_lon": 0.0}, {"lat": 38.839327, "is_disabled": 0, "type": "electric_bike", "lon": -77.07904283333333, "bike_id": "c0ffe58f4c3cf8e7678327fcbc27afa2", "fusion_lat": 0.0, "name": "c0ffe58f4c3cf8e7678327fcbc27afa2", "is_reserved": 0, "rental_uris": {"android": "https://dc.lft.to/lastmile_qr_scan", "ios": "https://dc.lft.to/lastmile_qr_scan"}, "fusion_lon": 0.0}, {"lat": 38.91856816666667, "is_disabled": 0, "type": "electric_scooter", "lon": -76.96553016666667, "bike_id": "65a75e49d858db4ffd355147c79735dc", "fusion_lat": 0.0, "name": "65a75e49d858db4ffd355147c79735dc", "is_reserved": 0, "rental_uris": {"android": "https://dc.lft.to/lastmile_qr_scan", "ios": "https://dc.lft.to/lastmile_qr_scan"}, "fusion_lon": 0.0}, {"lat": 38.93093616666667, "is_disabled": 0, "type": "electric_scooter", "lon": -77.02467066666667, "bike_id": "287b36e14b79eea28b2798cdbe43f004", "fusion_lat": 0.0, "name": "287b36e14b79eea28b2798cdbe43f004", "is_reserved": 0, "rental_uris": {"android": "https://dc.lft.to/lastmile_qr_scan", "ios": "https://dc.lft.to/lastmile_qr_scan"}, "fusion_lon": 0.0}, {"lat": 38.87960783333333, "is_disabled": 0, "type": "electric_scooter", "lon": -76.98328616666667, "bike_id": "c9c22f4783a4782b3eb5542f26f85827", "fusion_lat": 0.0, "name": "c9c22f4783a4782b3eb5542f26f85827", "is_reserved": 0, "rental_uris": {"android": "https://dc.lft.to/lastmile_qr_scan", "ios": "https://dc.lft.to/lastmile_qr_scan"}, "fusion_lon": 0.0}, {"lat": 38.8936705, "is_disabled": 0, "type": "electric_scooter", "lon": -76.94989083333333, "bike_id": "7b675a8080e912af5fa7c0aac155fdc5", "fusion_lat": 0.0, "name": "7b675a8080e912af5fa7c0aac155fdc5", "is_reserved": 0, "rental_uris": {"android": "https://dc.lft.to/lastmile_qr_scan", "ios": "https://dc.lft.to/lastmile_qr_scan"}, "fusion_lon": 0.0}, {"lat": 38.899613, "is_disabled": 0, "type": "electric_scooter", "lon": -77.01609366666666, "bike_id": "202a4e2ea0cd260d476e4403558e6567", "fusion_lat": 0.0, "name": "202a4e2ea0cd260d476e4403558e6567", "is_reserved": 0, "rental_uris": {"android": "https://dc.lft.to/lastmile_qr_scan", "ios": "https://dc.lft.to/lastmile_qr_scan"}, "fusion_lon": 0.0}, {"lat": 38.902381, "is_disabled": 0, "type": "electric_scooter", "lon": -77.00199716666667, "bike_id": "0aaf7848ec2aa1447d19d3501a63b774", "fusion_lat": 0.0, "name": "0aaf7848ec2aa1447d19d3501a63b774", "is_reserved": 0, "rental_uris": {"android": "https://dc.lft.to/lastmile_qr_scan", "ios": "https://dc.lft.to/lastmile_qr_scan"}, "fusion_lon": 0.0}, {"lat": 38.88081116666667, "is_disabled": 0, "type": "electric_scooter", "lon": -76.927164, "bike_id": "e61c9dd68550724572a95b1de6798271", "fusion_lat": 0.0, "name": "e61c9dd68550724572a95b1de6798271", "is_reserved": 0, "rental_uris": {"android": "https://dc.lft.to/lastmile_qr_scan", "ios": "https://dc.lft.to/lastmile_qr_scan"}, "fusion_lon": 0.0}, {"lat": 38.898614333333335, "is_disabled": 0, "type": "electric_scooter", "lon": -77.0253025, "bike_id": "9c1545030b01a52e45a64342a38888b7", "fusion_lat": 0.0, "name": "9c1545030b01a52e45a64342a38888b7", "is_reserved": 0, "rental_uris": {"android": "https://dc.lft.to/lastmile_qr_scan", "ios": "https://dc.lft.to/lastmile_qr_scan"}, "fusion_lon": 0.0}, {"lat": 38.92941783333333, "is_disabled": 0, "type": "electric_scooter", "lon": -77.01885066666667, "bike_id": "e6c0b21c928e668403efcf99991fdf85", "fusion_lat": 0.0, "name": "e6c0b21c928e668403efcf99991fdf85", "is_reserved": 0, "rental_uris": {"android": "https://dc.lft.to/lastmile_qr_scan", "ios": "https://dc.lft.to/lastmile_qr_scan"}, "fusion_lon": 0.0}, {"lat": 38.89221933333334, "is_disabled": 0, "type": "electric_scooter", "lon": -77.0435985, "bike_id": "edbe1fa22a6f93fb7b7273379bd6c25a", "fusion_lat": 0.0, "name": "edbe1fa22a6f93fb7b7273379bd6c25a", "is_reserved": 0, "rental_uris": {"android": "https://dc.lft.to/lastmile_qr_scan", "ios": "https://dc.lft.to/lastmile_qr_scan"}, "fusion_lon": 0.0}, {"lat": 38.90706433333333, "is_disabled": 0, "type": "electric_scooter", "lon": -77.034261, "bike_id": "eb82f3b850f469e1e4a1aa6897e30b88", "fusion_lat": 0.0, "name": "eb82f3b850f469e1e4a1aa6897e30b88", "is_reserved": 0, "rental_uris": {"android": "https://dc.lft.to/lastmile_qr_scan", "ios": "https://dc.lft.to/lastmile_qr_scan"}, "fusion_lon": 0.0}, {"lat": 38.90388316666667, "is_disabled": 0, "type": "electric_scooter", "lon": -77.05382666666667, "bike_id": "6269ee0666e922a9e444f8552430521b", "fusion_lat": 0.0, "name": "6269ee0666e922a9e444f8552430521b", "is_reserved": 0, "rental_uris": {"android": "https://dc.lft.to/lastmile_qr_scan", "ios": "https://dc.lft.to/lastmile_qr_scan"}, "fusion_lon": 0.0}, {"lat": 38.9096515, "is_disabled": 0, "type": "electric_scooter", "lon": -77.04781883333334, "bike_id": "f300f6fba26e749689bf8939915473cb", "fusion_lat": 0.0, "name": "f300f6fba26e749689bf8939915473cb", "is_reserved": 0, "rental_uris": {"android": "https://dc.lft.to/lastmile_qr_scan", "ios": "https://dc.lft.to/lastmile_qr_scan"}, "fusion_lon": 0.0}, {"lat": 38.91751683333333, "is_disabled": 0, "type": "electric_scooter", "lon": -77.03668333333333, "bike_id": "363618466ec60f904b0647cc09774096", "fusion_lat": 0.0, "name": "363618466ec60f904b0647cc09774096", "is_reserved": 0, "rental_uris": {"android": "https://dc.lft.to/lastmile_qr_scan", "ios": "https://dc.lft.to/lastmile_qr_scan"}, "fusion_lon": 0.0}, {"lat": 38.902648666666664, "is_disabled": 0, "type": "electric_scooter", "lon": -77.03190766666667, "bike_id": "7957b5e400d63db8524984111e88f5dc", "fusion_lat": 0.0, "name": "7957b5e400d63db8524984111e88f5dc", "is_reserved": 0, "rental_uris": {"android": "https://dc.lft.to/lastmile_qr_scan", "ios": "https://dc.lft.to/lastmile_qr_scan"}, "fusion_lon": 0.0}, {"lat": 39.05205133333333, "is_disabled": 0, "type": "electric_bike", "lon": -77.10912566666667, "bike_id": "53740a88a93e951cc897cbd7df538b5d", "fusion_lat": 0.0, "name": "53740a88a93e951cc897cbd7df538b5d", "is_reserved": 0, "rental_uris": {"android": "https://dc.lft.to/lastmile_qr_scan", "ios": "https://dc.lft.to/lastmile_qr_scan"}, "fusion_lon": 0.0}, {"lat": 38.90901366666667, "is_disabled": 0, "type": "electric_scooter", "lon": -77.03663766666666, "bike_id": "abcd2cd3c72ec8d92de570220170cfdb", "fusion_lat": 0.0, "name": "abcd2cd3c72ec8d92de570220170cfdb", "is_reserved": 0, "rental_uris": {"android": "https://dc.lft.to/lastmile_qr_scan", "ios": "https://dc.lft.to/lastmile_qr_scan"}, "fusion_lon": 0.0}, {"lat": 38.90560766666667, "is_disabled": 0, "type": "electric_scooter", "lon": -77.02796866666667, "bike_id": "39d46d7b61a660353e982957f6e24bc8", "fusion_lat": 0.0, "name": "39d46d7b61a660353e982957f6e24bc8", "is_reserved": 0, "rental_uris": {"android": "https://dc.lft.to/lastmile_qr_scan", "ios": "https://dc.lft.to/lastmile_qr_scan"}, "fusion_lon": 0.0}, {"lat": 38.8665335, "is_disabled": 0, "type": "electric_scooter", "lon": -76.98086833333333, "bike_id": "da21c9ad5a6d7c9251d564045574de6f", "fusion_lat": 0.0, "name": "da21c9ad5a6d7c9251d564045574de6f", "is_reserved": 0, "rental_uris": {"android": "https://dc.lft.to/lastmile_qr_scan", "ios": "https://dc.lft.to/lastmile_qr_scan"}, "fusion_lon": 0.0}, {"lat": 38.90050683333333, "is_disabled": 0, "type": "electric_scooter", "lon": -77.02607266666666, "bike_id": "9b02f3eef6ba79f18dc727fa9c418aff", "fusion_lat": 0.0, "name": "9b02f3eef6ba79f18dc727fa9c418aff", "is_reserved": 0, "rental_uris": {"android": "https://dc.lft.to/lastmile_qr_scan", "ios": "https://dc.lft.to/lastmile_qr_scan"}, "fusion_lon": 0.0}, {"lat": 38.9196705, "is_disabled": 0, "type": "electric_scooter", "lon": -77.013488, "bike_id": "34c83893d5ee942e81047ba39f680fa8", "fusion_lat": 0.0, "name": "34c83893d5ee942e81047ba39f680fa8", "is_reserved": 0, "rental_uris": {"android": "https://dc.lft.to/lastmile_qr_scan", "ios": "https://dc.lft.to/lastmile_qr_scan"}, "fusion_lon": 0.0}, {"lat": 38.8666435, "is_disabled": 0, "type": "electric_scooter", "lon": -76.9890775, "bike_id": "5d2a122e6208604cb61bd81f25431ec7", "fusion_lat": 0.0, "name": "5d2a122e6208604cb61bd81f25431ec7", "is_reserved": 0, "rental_uris": {"android": "https://dc.lft.to/lastmile_qr_scan", "ios": "https://dc.lft.to/lastmile_qr_scan"}, "fusion_lon": 0.0}, {"lat": 38.916931166666664, "is_disabled": 0, "type": "electric_scooter", "lon": -77.025202, "bike_id": "3930a73c82cbb3f6f06ba28362c6b4b9", "fusion_lat": 0.0, "name": "3930a73c82cbb3f6f06ba28362c6b4b9", "is_reserved": 0, "rental_uris": {"android": "https://dc.lft.to/lastmile_qr_scan", "ios": "https://dc.lft.to/lastmile_qr_scan"}, "fusion_lon": 0.0}, {"lat": 38.896336166666664, "is_disabled": 0, "type": "electric_scooter", "lon": -77.04681683333334, "bike_id": "39a2ca251ea6913a8fc37bfee148b8ad", "fusion_lat": 0.0, "name": "39a2ca251ea6913a8fc37bfee148b8ad", "is_reserved": 0, "rental_uris": {"android": "https://dc.lft.to/lastmile_qr_scan", "ios": "https://dc.lft.to/lastmile_qr_scan"}, "fusion_lon": 0.0}, {"lat": 38.91013066666667, "is_disabled": 0, "type": "electric_scooter", "lon": -77.03017283333334, "bike_id": "a8ef2e4ca7ca769032fef0ddf4782923", "fusion_lat": 0.0, "name": "a8ef2e4ca7ca769032fef0ddf4782923", "is_reserved": 0, "rental_uris": {"android": "https://dc.lft.to/lastmile_qr_scan", "ios": "https://dc.lft.to/lastmile_qr_scan"}, "fusion_lon": 0.0}, {"lat": 38.92974316666667, "is_disabled": 0, "type": "electric_scooter", "lon": -77.03173, "bike_id": "9542d396a60cca489e48b4105f3b957b", "fusion_lat": 0.0, "name": "9542d396a60cca489e48b4105f3b957b", "is_reserved": 0, "rental_uris": {"android": "https://dc.lft.to/lastmile_qr_scan", "ios": "https://dc.lft.to/lastmile_qr_scan"}, "fusion_lon": 0.0}, {"lat": 38.928353333333334, "is_disabled": 0, "type": "electric_scooter", "lon": -77.0542515, "bike_id": "9fb293d1850f17db48fcc3b632376880", "fusion_lat": 0.0, "name": "9fb293d1850f17db48fcc3b632376880", "is_reserved": 0, "rental_uris": {"android": "https://dc.lft.to/lastmile_qr_scan", "ios": "https://dc.lft.to/lastmile_qr_scan"}, "fusion_lon": 0.0}, {"lat": 38.92750683333333, "is_disabled": 0, "type": "electric_scooter", "lon": -77.03561516666667, "bike_id": "03640344b8cbf7fc7defdbab69bd06a5", "fusion_lat": 0.0, "name": "03640344b8cbf7fc7defdbab69bd06a5", "is_reserved": 0, "rental_uris": {"android": "https://dc.lft.to/lastmile_qr_scan", "ios": "https://dc.lft.to/lastmile_qr_scan"}, "fusion_lon": 0.0}, {"lat": 38.906386499999996, "is_disabled": 0, "type": "electric_scooter", "lon": -77.00837, "bike_id": "6b8743811b8fce81079d7864b134752e", "fusion_lat": 0.0, "name": "6b8743811b8fce81079d7864b134752e", "is_reserved": 0, "rental_uris": {"android": "https://dc.lft.to/lastmile_qr_scan", "ios": "https://dc.lft.to/lastmile_qr_scan"}, "fusion_lon": 0.0}, {"lat": 38.9168025, "is_disabled": 0, "type": "electric_scooter", "lon": -77.0304445, "bike_id": "187e760c2a18931f2816a64ebb3fcd09", "fusion_lat": 0.0, "name": "187e760c2a18931f2816a64ebb3fcd09", "is_reserved": 0, "rental_uris": {"android": "https://dc.lft.to/lastmile_qr_scan", "ios": "https://dc.lft.to/lastmile_qr_scan"}, "fusion_lon": 0.0}, {"lat": 38.89742783333333, "is_disabled": 0, "type": "electric_scooter", "lon": -77.0000795, "bike_id": "218176b051b8a3ef117cdcfd5139032b", "fusion_lat": 0.0, "name": "218176b051b8a3ef117cdcfd5139032b", "is_reserved": 0, "rental_uris": {"android": "https://dc.lft.to/lastmile_qr_scan", "ios": "https://dc.lft.to/lastmile_qr_scan"}, "fusion_lon": 0.0}, {"lat": 38.909701, "is_disabled": 0, "type": "electric_scooter", "lon": -77.052689, "bike_id": "9701a11cc8c1b74cc7eee8ef8e42765e", "fusion_lat": 0.0, "name": "9701a11cc8c1b74cc7eee8ef8e42765e", "is_reserved": 0, "rental_uris": {"android": "https://dc.lft.to/lastmile_qr_scan", "ios": "https://dc.lft.to/lastmile_qr_scan"}, "fusion_lon": 0.0}, {"lat": 38.89967083333333, "is_disabled": 0, "type": "electric_scooter", "lon": -77.0210345, "bike_id": "02797e5fc8f84dcf9081d022f0d95d22", "fusion_lat": 0.0, "name": "02797e5fc8f84dcf9081d022f0d95d22", "is_reserved": 0, "rental_uris": {"android": "https://dc.lft.to/lastmile_qr_scan", "ios": "https://dc.lft.to/lastmile_qr_scan"}, "fusion_lon": 0.0}, {"lat": 38.858968, "is_disabled": 0, "type": "electric_scooter", "lon": -76.994349, "bike_id": "bbaea49993cb49b0f270171d6aa74f38", "fusion_lat": 0.0, "name": "bbaea49993cb49b0f270171d6aa74f38", "is_reserved": 0, "rental_uris": {"android": "https://dc.lft.to/lastmile_qr_scan", "ios": "https://dc.lft.to/lastmile_qr_scan"}, "fusion_lon": 0.0}, {"lat": 38.8226565, "is_disabled": 0, "type": "electric_bike", "lon": -77.05815133333333, "bike_id": "d66895541a74e5675b21351f41acc58f", "fusion_lat": 0.0, "name": "d66895541a74e5675b21351f41acc58f", "is_reserved": 0, "rental_uris": {"android": "https://dc.lft.to/lastmile_qr_scan", "ios": "https://dc.lft.to/lastmile_qr_scan"}, "fusion_lon": 0.0}, {"lat": 38.90237616666667, "is_disabled": 0, "type": "electric_scooter", "lon": -77.05336716666666, "bike_id": "a393727b44068df96f1c0e11b9288cfa", "fusion_lat": 0.0, "name": "a393727b44068df96f1c0e11b9288cfa", "is_reserved": 0, "rental_uris": {"android": "https://dc.lft.to/lastmile_qr_scan", "ios": "https://dc.lft.to/lastmile_qr_scan"}, "fusion_lon": 0.0}, {"lat": 38.898124833333334, "is_disabled": 0, "type": "electric_scooter", "lon": -77.03141916666667, "bike_id": "4d27a65c9534e266ad91a753724ef19b", "fusion_lat": 0.0, "name": "4d27a65c9534e266ad91a753724ef19b", "is_reserved": 0, "rental_uris": {"android": "https://dc.lft.to/lastmile_qr_scan", "ios": "https://dc.lft.to/lastmile_qr_scan"}, "fusion_lon": 0.0}, {"lat": 38.92828333333333, "is_disabled": 0, "type": "electric_scooter", "lon": -77.0219635, "bike_id": "8188d1488ff552deba29cad857ef375c", "fusion_lat": 0.0, "name": "8188d1488ff552deba29cad857ef375c", "is_reserved": 0, "rental_uris": {"android": "https://dc.lft.to/lastmile_qr_scan", "ios": "https://dc.lft.to/lastmile_qr_scan"}, "fusion_lon": 0.0}, {"lat": 38.90779233333333, "is_disabled": 0, "type": "electric_scooter", "lon": -77.03663866666666, "bike_id": "53fb5a3612ede201e4f65fc78ad8a9ff", "fusion_lat": 0.0, "name": "53fb5a3612ede201e4f65fc78ad8a9ff", "is_reserved": 0, "rental_uris": {"android": "https://dc.lft.to/lastmile_qr_scan", "ios": "https://dc.lft.to/lastmile_qr_scan"}, "fusion_lon": 0.0}, {"lat": 38.9229805, "is_disabled": 0, "type": "electric_scooter", "lon": -77.03660533333333, "bike_id": "de7af53f2b1e57477a3a182c2e27dd08", "fusion_lat": 0.0, "name": "de7af53f2b1e57477a3a182c2e27dd08", "is_reserved": 0, "rental_uris": {"android": "https://dc.lft.to/lastmile_qr_scan", "ios": "https://dc.lft.to/lastmile_qr_scan"}, "fusion_lon": 0.0}, {"lat": 38.8698945, "is_disabled": 0, "type": "electric_bike", "lon": -76.959889, "bike_id": "2af83d036f89b09c9b5bf55f67495b4f", "fusion_lat": 0.0, "name": "2af83d036f89b09c9b5bf55f67495b4f", "is_reserved": 0, "rental_uris": {"android": "https://dc.lft.to/lastmile_qr_scan", "ios": "https://dc.lft.to/lastmile_qr_scan"}, "fusion_lon": 0.0}, {"lat": 38.973127833333336, "is_disabled": 0, "type": "electric_scooter", "lon": -77.02707716666667, "bike_id": "822d7ea7afd5193dec0ff8ae529db7cb", "fusion_lat": 0.0, "name": "822d7ea7afd5193dec0ff8ae529db7cb", "is_reserved": 0, "rental_uris": {"android": "https://dc.lft.to/lastmile_qr_scan", "ios": "https://dc.lft.to/lastmile_qr_scan"}, "fusion_lon": 0.0}, {"lat": 38.89501816666667, "is_disabled": 0, "type": "electric_scooter", "lon": -77.0112195, "bike_id": "0b375388a9b9880532e2f30e8e7c8521", "fusion_lat": 0.0, "name": "0b375388a9b9880532e2f30e8e7c8521", "is_reserved": 0, "rental_uris": {"android": "https://dc.lft.to/lastmile_qr_scan", "ios": "https://dc.lft.to/lastmile_qr_scan"}, "fusion_lon": 0.0}, {"lat": 38.89843916666667, "is_disabled": 0, "type": "electric_scooter", "lon": -77.03948916666667, "bike_id": "dce0de227701484fd8599cbb4509fe41", "fusion_lat": 0.0, "name": "dce0de227701484fd8599cbb4509fe41", "is_reserved": 0, "rental_uris": {"android": "https://dc.lft.to/lastmile_qr_scan", "ios": "https://dc.lft.to/lastmile_qr_scan"}, "fusion_lon": 0.0}, {"lat": 38.985065666666664, "is_disabled": 0, "type": "electric_bike", "lon": -76.98213883333334, "bike_id": "916698e36f866a8cfe2b63c9424f158c", "fusion_lat": 0.0, "name": "916698e36f866a8cfe2b63c9424f158c", "is_reserved": 0, "rental_uris": {"android": "https://dc.lft.to/lastmile_qr_scan", "ios": "https://dc.lft.to/lastmile_qr_scan"}, "fusion_lon": 0.0}, {"lat": 38.93881316666667, "is_disabled": 0, "type": "electric_scooter", "lon": -77.03283083333334, "bike_id": "5c3d2f0ef644ef44e8649fcae3717f9b", "fusion_lat": 0.0, "name": "5c3d2f0ef644ef44e8649fcae3717f9b", "is_reserved": 0, "rental_uris": {"android": "https://dc.lft.to/lastmile_qr_scan", "ios": "https://dc.lft.to/lastmile_qr_scan"}, "fusion_lon": 0.0}, {"lat": 38.90736, "is_disabled": 0, "type": "electric_scooter", "lon": -77.02959366666667, "bike_id": "e5df2a56a3d5f73006cf717bfca36021", "fusion_lat": 0.0, "name": "e5df2a56a3d5f73006cf717bfca36021", "is_reserved": 0, "rental_uris": {"android": "https://dc.lft.to/lastmile_qr_scan", "ios": "https://dc.lft.to/lastmile_qr_scan"}, "fusion_lon": 0.0}, {"lat": 38.88120383333333, "is_disabled": 0, "type": "electric_scooter", "lon": -77.01969883333334, "bike_id": "a021b13148f3abfc597b3dd7b065916f", "fusion_lat": 0.0, "name": "a021b13148f3abfc597b3dd7b065916f", "is_reserved": 0, "rental_uris": {"android": "https://dc.lft.to/lastmile_qr_scan", "ios": "https://dc.lft.to/lastmile_qr_scan"}, "fusion_lon": 0.0}, {"lat": 38.926181666666665, "is_disabled": 0, "type": "electric_scooter", "lon": -77.04407966666666, "bike_id": "8285e259a603cbe6adc383f253af6346", "fusion_lat": 0.0, "name": "8285e259a603cbe6adc383f253af6346", "is_reserved": 0, "rental_uris": {"android": "https://dc.lft.to/lastmile_qr_scan", "ios": "https://dc.lft.to/lastmile_qr_scan"}, "fusion_lon": 0.0}, {"lat": 38.896149666666666, "is_disabled": 0, "type": "electric_scooter", "lon": -76.9565935, "bike_id": "4d9eabd9a615391cd1b239ccbfce7239", "fusion_lat": 0.0, "name": "4d9eabd9a615391cd1b239ccbfce7239", "is_reserved": 0, "rental_uris": {"android": "https://dc.lft.to/lastmile_qr_scan", "ios": "https://dc.lft.to/lastmile_qr_scan"}, "fusion_lon": 0.0}, {"lat": 38.872383166666665, "is_disabled": 0, "type": "electric_scooter", "lon": -77.01184233333333, "bike_id": "f54ad36d18797833300cacdad7858b49", "fusion_lat": 0.0, "name": "f54ad36d18797833300cacdad7858b49", "is_reserved": 0, "rental_uris": {"android": "https://dc.lft.to/lastmile_qr_scan", "ios": "https://dc.lft.to/lastmile_qr_scan"}, "fusion_lon": 0.0}, {"lat": 38.9398265, "is_disabled": 0, "type": "electric_scooter", "lon": -77.03265683333333, "bike_id": "7caa3f9188e55c68a13244c547a239f7", "fusion_lat": 0.0, "name": "7caa3f9188e55c68a13244c547a239f7", "is_reserved": 0, "rental_uris": {"android": "https://dc.lft.to/lastmile_qr_scan", "ios": "https://dc.lft.to/lastmile_qr_scan"}, "fusion_lon": 0.0}, {"lat": 38.93476866666666, "is_disabled": 0, "type": "electric_scooter", "lon": -77.03392383333333, "bike_id": "08485d214f80593d019dc1223ce84ad8", "fusion_lat": 0.0, "name": "08485d214f80593d019dc1223ce84ad8", "is_reserved": 0, "rental_uris": {"android": "https://dc.lft.to/lastmile_qr_scan", "ios": "https://dc.lft.to/lastmile_qr_scan"}, "fusion_lon": 0.0}, {"lat": 38.887411666666665, "is_disabled": 0, "type": "electric_scooter", "lon": -77.02071233333334, "bike_id": "298680999f5b396cdd312e0aab583e39", "fusion_lat": 0.0, "name": "298680999f5b396cdd312e0aab583e39", "is_reserved": 0, "rental_uris": {"android": "https://dc.lft.to/lastmile_qr_scan", "ios": "https://dc.lft.to/lastmile_qr_scan"}, "fusion_lon": 0.0}, {"lat": 38.90375216666666, "is_disabled": 0, "type": "electric_scooter", "lon": -77.0465295, "bike_id": "212720a0dd7f8466d756b1b3a046e8ae", "fusion_lat": 0.0, "name": "212720a0dd7f8466d756b1b3a046e8ae", "is_reserved": 0, "rental_uris": {"android": "https://dc.lft.to/lastmile_qr_scan", "ios": "https://dc.lft.to/lastmile_qr_scan"}, "fusion_lon": 0.0}, {"lat": 38.9014055, "is_disabled": 0, "type": "electric_scooter", "lon": -77.0034355, "bike_id": "41e37c0c9906e0da8da550d1b599492a", "fusion_lat": 0.0, "name": "41e37c0c9906e0da8da550d1b599492a", "is_reserved": 0, "rental_uris": {"android": "https://dc.lft.to/lastmile_qr_scan", "ios": "https://dc.lft.to/lastmile_qr_scan"}, "fusion_lon": 0.0}, {"lat": 38.873982166666664, "is_disabled": 0, "type": "electric_scooter", "lon": -77.01449483333333, "bike_id": "2aa365e3a748176a584b54d78a601ad5", "fusion_lat": 0.0, "name": "2aa365e3a748176a584b54d78a601ad5", "is_reserved": 0, "rental_uris": {"android": "https://dc.lft.to/lastmile_qr_scan", "ios": "https://dc.lft.to/lastmile_qr_scan"}, "fusion_lon": 0.0}, {"lat": 38.85315583333333, "is_disabled": 0, "type": "electric_scooter", "lon": -76.9801915, "bike_id": "cfc8421b670f8d6856548d0586b3dfb1", "fusion_lat": 0.0, "name": "cfc8421b670f8d6856548d0586b3dfb1", "is_reserved": 0, "rental_uris": {"android": "https://dc.lft.to/lastmile_qr_scan", "ios": "https://dc.lft.to/lastmile_qr_scan"}, "fusion_lon": 0.0}, {"lat": 38.91860116666667, "is_disabled": 0, "type": "electric_scooter", "lon": -76.965554, "bike_id": "97e593ca30517c9011489f9b60e4f040", "fusion_lat": 0.0, "name": "97e593ca30517c9011489f9b60e4f040", "is_reserved": 0, "rental_uris": {"android": "https://dc.lft.to/lastmile_qr_scan", "ios": "https://dc.lft.to/lastmile_qr_scan"}, "fusion_lon": 0.0}, {"lat": 38.937416666666664, "is_disabled": 0, "type": "electric_scooter", "lon": -77.03494216666667, "bike_id": "b79cd6f1648c86ce87752b597c7d22fa", "fusion_lat": 0.0, "name": "b79cd6f1648c86ce87752b597c7d22fa", "is_reserved": 0, "rental_uris": {"android": "https://dc.lft.to/lastmile_qr_scan", "ios": "https://dc.lft.to/lastmile_qr_scan"}, "fusion_lon": 0.0}, {"lat": 38.86618933333333, "is_disabled": 0, "type": "electric_scooter", "lon": -76.98651566666666, "bike_id": "47c7f9979bf0bd67f31a509a84563f75", "fusion_lat": 0.0, "name": "47c7f9979bf0bd67f31a509a84563f75", "is_reserved": 0, "rental_uris": {"android": "https://dc.lft.to/lastmile_qr_scan", "ios": "https://dc.lft.to/lastmile_qr_scan"}, "fusion_lon": 0.0}, {"lat": 38.915733833333334, "is_disabled": 0, "type": "electric_scooter", "lon": -77.03238283333333, "bike_id": "e0f8715ef584de6e735cd98ed8287fdc", "fusion_lat": 0.0, "name": "e0f8715ef584de6e735cd98ed8287fdc", "is_reserved": 0, "rental_uris": {"android": "https://dc.lft.to/lastmile_qr_scan", "ios": "https://dc.lft.to/lastmile_qr_scan"}, "fusion_lon": 0.0}, {"lat": 38.914968333333334, "is_disabled": 0, "type": "electric_scooter", "lon": -77.02000166666667, "bike_id": "98f9b82f87e7cc4a0a550cce808f84f5", "fusion_lat": 0.0, "name": "98f9b82f87e7cc4a0a550cce808f84f5", "is_reserved": 0, "rental_uris": {"android": "https://dc.lft.to/lastmile_qr_scan", "ios": "https://dc.lft.to/lastmile_qr_scan"}, "fusion_lon": 0.0}, {"lat": 38.909450666666665, "is_disabled": 0, "type": "electric_scooter", "lon": -77.04427166666666, "bike_id": "54092afe9922cfd700d46de44b7f16a0", "fusion_lat": 0.0, "name": "54092afe9922cfd700d46de44b7f16a0", "is_reserved": 0, "rental_uris": {"android": "https://dc.lft.to/lastmile_qr_scan", "ios": "https://dc.lft.to/lastmile_qr_scan"}, "fusion_lon": 0.0}, {"lat": 38.844270333333334, "is_disabled": 0, "type": "electric_scooter", "lon": -76.99778666666667, "bike_id": "a40b57de871537d11020badc8509c23d", "fusion_lat": 0.0, "name": "a40b57de871537d11020badc8509c23d", "is_reserved": 0, "rental_uris": {"android": "https://dc.lft.to/lastmile_qr_scan", "ios": "https://dc.lft.to/lastmile_qr_scan"}, "fusion_lon": 0.0}, {"lat": 38.91283383333333, "is_disabled": 0, "type": "electric_scooter", "lon": -77.022673, "bike_id": "1e273bdd75912852831779e81094c331", "fusion_lat": 0.0, "name": "1e273bdd75912852831779e81094c331", "is_reserved": 0, "rental_uris": {"android": "https://dc.lft.to/lastmile_qr_scan", "ios": "https://dc.lft.to/lastmile_qr_scan"}, "fusion_lon": 0.0}, {"lat": 38.92255983333333, "is_disabled": 0, "type": "electric_scooter", "lon": -77.03889983333333, "bike_id": "8dd0e95948fdfc592c5bf1f56ea0a0ce", "fusion_lat": 0.0, "name": "8dd0e95948fdfc592c5bf1f56ea0a0ce", "is_reserved": 0, "rental_uris": {"android": "https://dc.lft.to/lastmile_qr_scan", "ios": "https://dc.lft.to/lastmile_qr_scan"}, "fusion_lon": 0.0}, {"lat": 38.95328283333333, "is_disabled": 0, "type": "electric_bike", "lon": -76.98819683333333, "bike_id": "0b45ea03e381c9218188fb75cf6e8653", "fusion_lat": 0.0, "name": "0b45ea03e381c9218188fb75cf6e8653", "is_reserved": 0, "rental_uris": {"android": "https://dc.lft.to/lastmile_qr_scan", "ios": "https://dc.lft.to/lastmile_qr_scan"}, "fusion_lon": 0.0}, {"lat": 38.9076365, "is_disabled": 0, "type": "electric_scooter", "lon": -77.0206775, "bike_id": "6994de2633da3a6a0a19da2081b76136", "fusion_lat": 0.0, "name": "6994de2633da3a6a0a19da2081b76136", "is_reserved": 0, "rental_uris": {"android": "https://dc.lft.to/lastmile_qr_scan", "ios": "https://dc.lft.to/lastmile_qr_scan"}, "fusion_lon": 0.0}, {"lat": 38.9068705, "is_disabled": 0, "type": "electric_bike", "lon": -76.952001, "bike_id": "964866857c7c8324a7b9a2a97cc93f9d", "fusion_lat": 0.0, "name": "964866857c7c8324a7b9a2a97cc93f9d", "is_reserved": 0, "rental_uris": {"android": "https://dc.lft.to/lastmile_qr_scan", "ios": "https://dc.lft.to/lastmile_qr_scan"}, "fusion_lon": 0.0}, {"lat": 38.918645166666664, "is_disabled": 0, "type": "electric_scooter", "lon": -76.965532, "bike_id": "96e14ce1022dcd21a2bf33a9b09e89a2", "fusion_lat": 0.0, "name": "96e14ce1022dcd21a2bf33a9b09e89a2", "is_reserved": 0, "rental_uris": {"android": "https://dc.lft.to/lastmile_qr_scan", "ios": "https://dc.lft.to/lastmile_qr_scan"}, "fusion_lon": 0.0}, {"lat": 38.80753983333334, "is_disabled": 0, "type": "electric_bike", "lon": -77.0945465, "bike_id": "37105bf119fdefd4a8e15e43ab81fd7e", "fusion_lat": 0.0, "name": "37105bf119fdefd4a8e15e43ab81fd7e", "is_reserved": 0, "rental_uris": {"android": "https://dc.lft.to/lastmile_qr_scan", "ios": "https://dc.lft.to/lastmile_qr_scan"}, "fusion_lon": 0.0}, {"lat": 38.89088266666667, "is_disabled": 0, "type": "electric_scooter", "lon": -76.9868175, "bike_id": "de13fee71904cced96cc15005fb2941b", "fusion_lat": 0.0, "name": "de13fee71904cced96cc15005fb2941b", "is_reserved": 0, "rental_uris": {"android": "https://dc.lft.to/lastmile_qr_scan", "ios": "https://dc.lft.to/lastmile_qr_scan"}, "fusion_lon": 0.0}, {"lat": 38.928091333333334, "is_disabled": 0, "type": "electric_bike", "lon": -77.02376166666667, "bike_id": "677bd9b39101bb6cb37929c45b427a99", "fusion_lat": 0.0, "name": "677bd9b39101bb6cb37929c45b427a99", "is_reserved": 0, "rental_uris": {"android": "https://dc.lft.to/lastmile_qr_scan", "ios": "https://dc.lft.to/lastmile_qr_scan"}, "fusion_lon": 0.0}, {"lat": 38.9122475, "is_disabled": 0, "type": "electric_scooter", "lon": -77.00460916666667, "bike_id": "5dff1f3dbb3ed64e05240aad8543be74", "fusion_lat": 0.0, "name": "5dff1f3dbb3ed64e05240aad8543be74", "is_reserved": 0, "rental_uris": {"android": "https://dc.lft.to/lastmile_qr_scan", "ios": "https://dc.lft.to/lastmile_qr_scan"}, "fusion_lon": 0.0}, {"lat": 38.884988, "is_disabled": 0, "type": "electric_scooter", "lon": -77.02094133333334, "bike_id": "3141bd55ab0d9935e28516877004cbc6", "fusion_lat": 0.0, "name": "3141bd55ab0d9935e28516877004cbc6", "is_reserved": 0, "rental_uris": {"android": "https://dc.lft.to/lastmile_qr_scan", "ios": "https://dc.lft.to/lastmile_qr_scan"}, "fusion_lon": 0.0}, {"lat": 38.89294, "is_disabled": 0, "type": "electric_scooter", "lon": -77.00209216666667, "bike_id": "b72dd82d6541148df3f6dd9685a6a0a1", "fusion_lat": 0.0, "name": "b72dd82d6541148df3f6dd9685a6a0a1", "is_reserved": 0, "rental_uris": {"android": "https://dc.lft.to/lastmile_qr_scan", "ios": "https://dc.lft.to/lastmile_qr_scan"}, "fusion_lon": 0.0}, {"lat": 38.931185, "is_disabled": 0, "type": "electric_scooter", "lon": -77.038154, "bike_id": "f40ccdd46c7bba79822adeaf0594626e", "fusion_lat": 0.0, "name": "f40ccdd46c7bba79822adeaf0594626e", "is_reserved": 0, "rental_uris": {"android": "https://dc.lft.to/lastmile_qr_scan", "ios": "https://dc.lft.to/lastmile_qr_scan"}, "fusion_lon": 0.0}, {"lat": 38.85789916666667, "is_disabled": 0, "type": "electric_bike", "lon": -76.98743016666667, "bike_id": "ebcb948a366fea9559b7de09987825c6", "fusion_lat": 0.0, "name": "ebcb948a366fea9559b7de09987825c6", "is_reserved": 0, "rental_uris": {"android": "https://dc.lft.to/lastmile_qr_scan", "ios": "https://dc.lft.to/lastmile_qr_scan"}, "fusion_lon": 0.0}, {"lat": 38.933227, "is_disabled": 0, "type": "electric_scooter", "lon": -77.044, "bike_id": "4b46df85f4eac88d945577428abdd527", "fusion_lat": 0.0, "name": "4b46df85f4eac88d945577428abdd527", "is_reserved": 0, "rental_uris": {"android": "https://dc.lft.to/lastmile_qr_scan", "ios": "https://dc.lft.to/lastmile_qr_scan"}, "fusion_lon": 0.0}, {"lat": 38.802303, "is_disabled": 0, "type": "electric_bike", "lon": -77.07916616666667, "bike_id": "0503ad9d9840f2e92066300a86d4144f", "fusion_lat": 0.0, "name": "0503ad9d9840f2e92066300a86d4144f", "is_reserved": 0, "rental_uris": {"android": "https://dc.lft.to/lastmile_qr_scan", "ios": "https://dc.lft.to/lastmile_qr_scan"}, "fusion_lon": 0.0}, {"lat": 38.89809733333333, "is_disabled": 0, "type": "electric_scooter", "lon": -77.0328955, "bike_id": "d956471fdc502d1560a5721ff70fb991", "fusion_lat": 0.0, "name": "d956471fdc502d1560a5721ff70fb991", "is_reserved": 0, "rental_uris": {"android": "https://dc.lft.to/lastmile_qr_scan", "ios": "https://dc.lft.to/lastmile_qr_scan"}, "fusion_lon": 0.0}, {"lat": 38.8995245, "is_disabled": 0, "type": "electric_scooter", "lon": -77.05196583333333, "bike_id": "3377349337791e1023aab0090b7cbee4", "fusion_lat": 0.0, "name": "3377349337791e1023aab0090b7cbee4", "is_reserved": 0, "rental_uris": {"android": "https://dc.lft.to/lastmile_qr_scan", "ios": "https://dc.lft.to/lastmile_qr_scan"}, "fusion_lon": 0.0}, {"lat": 38.917563, "is_disabled": 0, "type": "electric_scooter", "lon": -77.03994166666666, "bike_id": "b733a009c10ece16c4cc3b50f4c92191", "fusion_lat": 0.0, "name": "b733a009c10ece16c4cc3b50f4c92191", "is_reserved": 0, "rental_uris": {"android": "https://dc.lft.to/lastmile_qr_scan", "ios": "https://dc.lft.to/lastmile_qr_scan"}, "fusion_lon": 0.0}, {"lat": 38.8585045, "is_disabled": 0, "type": "electric_bike", "lon": -77.097604, "bike_id": "cf7de3a12de685722dd2bc78689a95eb", "fusion_lat": 0.0, "name": "cf7de3a12de685722dd2bc78689a95eb", "is_reserved": 0, "rental_uris": {"android": "https://dc.lft.to/lastmile_qr_scan", "ios": "https://dc.lft.to/lastmile_qr_scan"}, "fusion_lon": 0.0}, {"lat": 38.91415166666667, "is_disabled": 0, "type": "electric_scooter", "lon": -77.02231916666666, "bike_id": "140311203a725860fd6d886e17ffa214", "fusion_lat": 0.0, "name": "140311203a725860fd6d886e17ffa214", "is_reserved": 0, "rental_uris": {"android": "https://dc.lft.to/lastmile_qr_scan", "ios": "https://dc.lft.to/lastmile_qr_scan"}, "fusion_lon": 0.0}, {"lat": 38.8975385, "is_disabled": 0, "type": "electric_scooter", "lon": -77.03155716666667, "bike_id": "ce9732bc412829474952615bfa89cb8e", "fusion_lat": 0.0, "name": "ce9732bc412829474952615bfa89cb8e", "is_reserved": 0, "rental_uris": {"android": "https://dc.lft.to/lastmile_qr_scan", "ios": "https://dc.lft.to/lastmile_qr_scan"}, "fusion_lon": 0.0}, {"lat": 38.92899416666667, "is_disabled": 0, "type": "electric_scooter", "lon": -77.03168916666667, "bike_id": "66b3e231d563240f44919ac3627c3c21", "fusion_lat": 0.0, "name": "66b3e231d563240f44919ac3627c3c21", "is_reserved": 0, "rental_uris": {"android": "https://dc.lft.to/lastmile_qr_scan", "ios": "https://dc.lft.to/lastmile_qr_scan"}, "fusion_lon": 0.0}, {"lat": 38.890432833333335, "is_disabled": 0, "type": "electric_scooter", "lon": -76.9407555, "bike_id": "d46b8070dfe0b41d0a541c3e80125291", "fusion_lat": 0.0, "name": "d46b8070dfe0b41d0a541c3e80125291", "is_reserved": 0, "rental_uris": {"android": "https://dc.lft.to/lastmile_qr_scan", "ios": "https://dc.lft.to/lastmile_qr_scan"}, "fusion_lon": 0.0}, {"lat": 38.89277833333333, "is_disabled": 0, "type": "electric_scooter", "lon": -77.0503285, "bike_id": "fb0cd81ac662ec885947e1be7c011d19", "fusion_lat": 0.0, "name": "fb0cd81ac662ec885947e1be7c011d19", "is_reserved": 0, "rental_uris": {"android": "https://dc.lft.to/lastmile_qr_scan", "ios": "https://dc.lft.to/lastmile_qr_scan"}, "fusion_lon": 0.0}, {"lat": 38.90015183333333, "is_disabled": 0, "type": "electric_scooter", "lon": -77.05245066666667, "bike_id": "0635ad23ea7f2e5c08dc30ecceb5863c", "fusion_lat": 0.0, "name": "0635ad23ea7f2e5c08dc30ecceb5863c", "is_reserved": 0, "rental_uris": {"android": "https://dc.lft.to/lastmile_qr_scan", "ios": "https://dc.lft.to/lastmile_qr_scan"}, "fusion_lon": 0.0}, {"lat": 38.9588345, "is_disabled": 0, "type": "electric_bike", "lon": -76.92493033333334, "bike_id": "89994ea7a1aa2eeed0e3a2a5b3d03ac6", "fusion_lat": 0.0, "name": "89994ea7a1aa2eeed0e3a2a5b3d03ac6", "is_reserved": 0, "rental_uris": {"android": "https://dc.lft.to/lastmile_qr_scan", "ios": "https://dc.lft.to/lastmile_qr_scan"}, "fusion_lon": 0.0}, {"lat": 38.920973333333336, "is_disabled": 0, "type": "electric_scooter", "lon": -77.04387616666666, "bike_id": "a834b00f2031993dee9b3fc219e778db", "fusion_lat": 0.0, "name": "a834b00f2031993dee9b3fc219e778db", "is_reserved": 0, "rental_uris": {"android": "https://dc.lft.to/lastmile_qr_scan", "ios": "https://dc.lft.to/lastmile_qr_scan"}, "fusion_lon": 0.0}, {"lat": 38.92974066666667, "is_disabled": 0, "type": "electric_scooter", "lon": -77.032124, "bike_id": "4bfb0d4753c5216b7ce3cc8054335306", "fusion_lat": 0.0, "name": "4bfb0d4753c5216b7ce3cc8054335306", "is_reserved": 0, "rental_uris": {"android": "https://dc.lft.to/lastmile_qr_scan", "ios": "https://dc.lft.to/lastmile_qr_scan"}, "fusion_lon": 0.0}, {"lat": 38.923101833333334, "is_disabled": 0, "type": "electric_bike", "lon": -77.03664816666667, "bike_id": "db4d81808e39d2e30d50f2ad760051a3", "fusion_lat": 0.0, "name": "db4d81808e39d2e30d50f2ad760051a3", "is_reserved": 0, "rental_uris": {"android": "https://dc.lft.to/lastmile_qr_scan", "ios": "https://dc.lft.to/lastmile_qr_scan"}, "fusion_lon": 0.0}, {"lat": 38.91719666666667, "is_disabled": 0, "type": "electric_scooter", "lon": -77.03463966666666, "bike_id": "6ed279960f56593b4c0aea870f8a3726", "fusion_lat": 0.0, "name": "6ed279960f56593b4c0aea870f8a3726", "is_reserved": 0, "rental_uris": {"android": "https://dc.lft.to/lastmile_qr_scan", "ios": "https://dc.lft.to/lastmile_qr_scan"}, "fusion_lon": 0.0}, {"lat": 38.895081, "is_disabled": 0, "type": "electric_scooter", "lon": -77.02742316666667, "bike_id": "3f7a067ef9d78bf7279ec97a58d4e470", "fusion_lat": 0.0, "name": "3f7a067ef9d78bf7279ec97a58d4e470", "is_reserved": 0, "rental_uris": {"android": "https://dc.lft.to/lastmile_qr_scan", "ios": "https://dc.lft.to/lastmile_qr_scan"}, "fusion_lon": 0.0}, {"lat": 38.90966366666667, "is_disabled": 0, "type": "electric_scooter", "lon": -77.022724, "bike_id": "cca1c944881b051f22cce02abb16c80b", "fusion_lat": 0.0, "name": "cca1c944881b051f22cce02abb16c80b", "is_reserved": 0, "rental_uris": {"android": "https://dc.lft.to/lastmile_qr_scan", "ios": "https://dc.lft.to/lastmile_qr_scan"}, "fusion_lon": 0.0}, {"lat": 38.93482816666667, "is_disabled": 0, "type": "electric_bike", "lon": -77.03015266666667, "bike_id": "58c67affb3a218dd06c7c051620c326e", "fusion_lat": 0.0, "name": "58c67affb3a218dd06c7c051620c326e", "is_reserved": 0, "rental_uris": {"android": "https://dc.lft.to/lastmile_qr_scan", "ios": "https://dc.lft.to/lastmile_qr_scan"}, "fusion_lon": 0.0}, {"lat": 38.846268, "is_disabled": 0, "type": "electric_bike", "lon": -77.06937266666667, "bike_id": "27403d3d02f68db13780c67d35ffe034", "fusion_lat": 0.0, "name": "27403d3d02f68db13780c67d35ffe034", "is_reserved": 0, "rental_uris": {"android": "https://dc.lft.to/lastmile_qr_scan", "ios": "https://dc.lft.to/lastmile_qr_scan"}, "fusion_lon": 0.0}, {"lat": 38.89280633333333, "is_disabled": 0, "type": "electric_scooter", "lon": -77.05036183333333, "bike_id": "e7470f3249698e6bdb0f6a64c6f6fd52", "fusion_lat": 0.0, "name": "e7470f3249698e6bdb0f6a64c6f6fd52", "is_reserved": 0, "rental_uris": {"android": "https://dc.lft.to/lastmile_qr_scan", "ios": "https://dc.lft.to/lastmile_qr_scan"}, "fusion_lon": 0.0}, {"lat": 38.924128, "is_disabled": 0, "type": "electric_scooter", "lon": -77.02969716666666, "bike_id": "6d371508e4f7e3ca13878fc8254dd4c2", "fusion_lat": 0.0, "name": "6d371508e4f7e3ca13878fc8254dd4c2", "is_reserved": 0, "rental_uris": {"android": "https://dc.lft.to/lastmile_qr_scan", "ios": "https://dc.lft.to/lastmile_qr_scan"}, "fusion_lon": 0.0}, {"lat": 38.91854083333333, "is_disabled": 0, "type": "electric_scooter", "lon": -76.96548933333334, "bike_id": "bcd096a6eacbac1eabfdd65d8a64835f", "fusion_lat": 0.0, "name": "bcd096a6eacbac1eabfdd65d8a64835f", "is_reserved": 0, "rental_uris": {"android": "https://dc.lft.to/lastmile_qr_scan", "ios": "https://dc.lft.to/lastmile_qr_scan"}, "fusion_lon": 0.0}, {"lat": 38.918424333333334, "is_disabled": 0, "type": "electric_scooter", "lon": -76.9654265, "bike_id": "3e779e1a1cb3221335e93314c28f0215", "fusion_lat": 0.0, "name": "3e779e1a1cb3221335e93314c28f0215", "is_reserved": 0, "rental_uris": {"android": "https://dc.lft.to/lastmile_qr_scan", "ios": "https://dc.lft.to/lastmile_qr_scan"}, "fusion_lon": 0.0}, {"lat": 38.923814, "is_disabled": 0, "type": "electric_scooter", "lon": -77.03072366666666, "bike_id": "95b15c05bbe994a342a120bad88955b3", "fusion_lat": 0.0, "name": "95b15c05bbe994a342a120bad88955b3", "is_reserved": 0, "rental_uris": {"android": "https://dc.lft.to/lastmile_qr_scan", "ios": "https://dc.lft.to/lastmile_qr_scan"}, "fusion_lon": 0.0}, {"lat": 38.930777166666665, "is_disabled": 0, "type": "electric_scooter", "lon": -77.01664433333333, "bike_id": "42beb9f1c6b7785142f3ce7b0bd900ec", "fusion_lat": 0.0, "name": "42beb9f1c6b7785142f3ce7b0bd900ec", "is_reserved": 0, "rental_uris": {"android": "https://dc.lft.to/lastmile_qr_scan", "ios": "https://dc.lft.to/lastmile_qr_scan"}, "fusion_lon": 0.0}, {"lat": 38.89680366666666, "is_disabled": 0, "type": "electric_scooter", "lon": -76.93607633333333, "bike_id": "fcf76b82ef10cba1a03574914c242da7", "fusion_lat": 0.0, "name": "fcf76b82ef10cba1a03574914c242da7", "is_reserved": 0, "rental_uris": {"android": "https://dc.lft.to/lastmile_qr_scan", "ios": "https://dc.lft.to/lastmile_qr_scan"}, "fusion_lon": 0.0}, {"lat": 38.8871575, "is_disabled": 0, "type": "electric_scooter", "lon": -76.95476616666667, "bike_id": "86eedc28000ed55d96cf3161af3f5d5d", "fusion_lat": 0.0, "name": "86eedc28000ed55d96cf3161af3f5d5d", "is_reserved": 0, "rental_uris": {"android": "https://dc.lft.to/lastmile_qr_scan", "ios": "https://dc.lft.to/lastmile_qr_scan"}, "fusion_lon": 0.0}, {"lat": 38.915998333333334, "is_disabled": 0, "type": "electric_scooter", "lon": -77.03209133333333, "bike_id": "69d52ee5e4614edf9ac409f6364e3b5e", "fusion_lat": 0.0, "name": "69d52ee5e4614edf9ac409f6364e3b5e", "is_reserved": 0, "rental_uris": {"android": "https://dc.lft.to/lastmile_qr_scan", "ios": "https://dc.lft.to/lastmile_qr_scan"}, "fusion_lon": 0.0}, {"lat": 38.90689416666667, "is_disabled": 0, "type": "electric_scooter", "lon": -77.03459133333334, "bike_id": "120616ae771ed941e5a2cbd42b63537d", "fusion_lat": 0.0, "name": "120616ae771ed941e5a2cbd42b63537d", "is_reserved": 0, "rental_uris": {"android": "https://dc.lft.to/lastmile_qr_scan", "ios": "https://dc.lft.to/lastmile_qr_scan"}, "fusion_lon": 0.0}, {"lat": 38.92582016666667, "is_disabled": 0, "type": "electric_scooter", "lon": -77.02758283333333, "bike_id": "5514368d43142a64787c93686e6e5b78", "fusion_lat": 0.0, "name": "5514368d43142a64787c93686e6e5b78", "is_reserved": 0, "rental_uris": {"android": "https://dc.lft.to/lastmile_qr_scan", "ios": "https://dc.lft.to/lastmile_qr_scan"}, "fusion_lon": 0.0}, {"lat": 38.91855266666666, "is_disabled": 0, "type": "electric_scooter", "lon": -76.96556383333333, "bike_id": "821dc866b8fce8cea6e1575992b0e8d7", "fusion_lat": 0.0, "name": "821dc866b8fce8cea6e1575992b0e8d7", "is_reserved": 0, "rental_uris": {"android": "https://dc.lft.to/lastmile_qr_scan", "ios": "https://dc.lft.to/lastmile_qr_scan"}, "fusion_lon": 0.0}, {"lat": 38.918255333333335, "is_disabled": 0, "type": "electric_scooter", "lon": -77.03446083333333, "bike_id": "6c2fa48010e7d74c40249050c184d8d6", "fusion_lat": 0.0, "name": "6c2fa48010e7d74c40249050c184d8d6", "is_reserved": 0, "rental_uris": {"android": "https://dc.lft.to/lastmile_qr_scan", "ios": "https://dc.lft.to/lastmile_qr_scan"}, "fusion_lon": 0.0}, {"lat": 38.912542333333334, "is_disabled": 0, "type": "electric_bike", "lon": -77.01344183333333, "bike_id": "3ab4c5620f3369c19dc380d5014e34ab", "fusion_lat": 0.0, "name": "3ab4c5620f3369c19dc380d5014e34ab", "is_reserved": 0, "rental_uris": {"android": "https://dc.lft.to/lastmile_qr_scan", "ios": "https://dc.lft.to/lastmile_qr_scan"}, "fusion_lon": 0.0}, {"lat": 38.89491616666667, "is_disabled": 0, "type": "electric_scooter", "lon": -77.02309833333334, "bike_id": "346fef8fb550e9b1063dca0932d54a25", "fusion_lat": 0.0, "name": "346fef8fb550e9b1063dca0932d54a25", "is_reserved": 0, "rental_uris": {"android": "https://dc.lft.to/lastmile_qr_scan", "ios": "https://dc.lft.to/lastmile_qr_scan"}, "fusion_lon": 0.0}, {"lat": 38.8531805, "is_disabled": 0, "type": "electric_bike", "lon": -76.98020283333334, "bike_id": "be5eb778847773ddd5b3135380b80b2c", "fusion_lat": 0.0, "name": "be5eb778847773ddd5b3135380b80b2c", "is_reserved": 0, "rental_uris": {"android": "https://dc.lft.to/lastmile_qr_scan", "ios": "https://dc.lft.to/lastmile_qr_scan"}, "fusion_lon": 0.0}, {"lat": 38.924012166666664, "is_disabled": 0, "type": "electric_scooter", "lon": -77.0254175, "bike_id": "ab12756c41712c40588e7c53f9df83e5", "fusion_lat": 0.0, "name": "ab12756c41712c40588e7c53f9df83e5", "is_reserved": 0, "rental_uris": {"android": "https://dc.lft.to/lastmile_qr_scan", "ios": "https://dc.lft.to/lastmile_qr_scan"}, "fusion_lon": 0.0}, {"lat": 38.9355785, "is_disabled": 0, "type": "electric_scooter", "lon": -77.058806, "bike_id": "31be39ccf62a5d723e0c8b140c2936ca", "fusion_lat": 0.0, "name": "31be39ccf62a5d723e0c8b140c2936ca", "is_reserved": 0, "rental_uris": {"android": "https://dc.lft.to/lastmile_qr_scan", "ios": "https://dc.lft.to/lastmile_qr_scan"}, "fusion_lon": 0.0}, {"lat": 38.92203166666667, "is_disabled": 0, "type": "electric_scooter", "lon": -77.04020933333334, "bike_id": "d67f28518b6d47a3a1411499e9cd9104", "fusion_lat": 0.0, "name": "d67f28518b6d47a3a1411499e9cd9104", "is_reserved": 0, "rental_uris": {"android": "https://dc.lft.to/lastmile_qr_scan", "ios": "https://dc.lft.to/lastmile_qr_scan"}, "fusion_lon": 0.0}, {"lat": 38.867137, "is_disabled": 0, "type": "electric_scooter", "lon": -76.9872695, "bike_id": "3b766729fdb3f4277076e9e0c2090df0", "fusion_lat": 0.0, "name": "3b766729fdb3f4277076e9e0c2090df0", "is_reserved": 0, "rental_uris": {"android": "https://dc.lft.to/lastmile_qr_scan", "ios": "https://dc.lft.to/lastmile_qr_scan"}, "fusion_lon": 0.0}, {"lat": 38.8960225, "is_disabled": 0, "type": "electric_scooter", "lon": -77.0122955, "bike_id": "6db7c7481521baf7d7fb1eaf40aa4859", "fusion_lat": 0.0, "name": "6db7c7481521baf7d7fb1eaf40aa4859", "is_reserved": 0, "rental_uris": {"android": "https://dc.lft.to/lastmile_qr_scan", "ios": "https://dc.lft.to/lastmile_qr_scan"}, "fusion_lon": 0.0}, {"lat": 38.908599333333335, "is_disabled": 0, "type": "electric_scooter", "lon": -77.04662283333333, "bike_id": "81021c207e970fadc990666278e60c77", "fusion_lat": 0.0, "name": "81021c207e970fadc990666278e60c77", "is_reserved": 0, "rental_uris": {"android": "https://dc.lft.to/lastmile_qr_scan", "ios": "https://dc.lft.to/lastmile_qr_scan"}, "fusion_lon": 0.0}, {"lat": 38.91514633333333, "is_disabled": 0, "type": "electric_scooter", "lon": -77.03843866666666, "bike_id": "bd02c1394e44bdb757142dbd30b2e292", "fusion_lat": 0.0, "name": "bd02c1394e44bdb757142dbd30b2e292", "is_reserved": 0, "rental_uris": {"android": "https://dc.lft.to/lastmile_qr_scan", "ios": "https://dc.lft.to/lastmile_qr_scan"}, "fusion_lon": 0.0}, {"lat": 38.916531666666664, "is_disabled": 0, "type": "electric_bike", "lon": -77.04728733333333, "bike_id": "73d658ede8c14c86bccb310b79535f1e", "fusion_lat": 0.0, "name": "73d658ede8c14c86bccb310b79535f1e", "is_reserved": 0, "rental_uris": {"android": "https://dc.lft.to/lastmile_qr_scan", "ios": "https://dc.lft.to/lastmile_qr_scan"}, "fusion_lon": 0.0}, {"lat": 38.92200866666667, "is_disabled": 0, "type": "electric_scooter", "lon": -77.042626, "bike_id": "06463a9c4b4eb6867d0d958d3b1f49ec", "fusion_lat": 0.0, "name": "06463a9c4b4eb6867d0d958d3b1f49ec", "is_reserved": 0, "rental_uris": {"android": "https://dc.lft.to/lastmile_qr_scan", "ios": "https://dc.lft.to/lastmile_qr_scan"}, "fusion_lon": 0.0}, {"lat": 38.9003455, "is_disabled": 0, "type": "electric_scooter", "lon": -76.99678366666667, "bike_id": "90d8944dde36fc0d1000b7bc7f928774", "fusion_lat": 0.0, "name": "90d8944dde36fc0d1000b7bc7f928774", "is_reserved": 0, "rental_uris": {"android": "https://dc.lft.to/lastmile_qr_scan", "ios": "https://dc.lft.to/lastmile_qr_scan"}, "fusion_lon": 0.0}, {"lat": 38.9185045, "is_disabled": 0, "type": "electric_scooter", "lon": -76.96552366666667, "bike_id": "2beabd5b1cc6a6277a2fa45991dc2f1b", "fusion_lat": 0.0, "name": "2beabd5b1cc6a6277a2fa45991dc2f1b", "is_reserved": 0, "rental_uris": {"android": "https://dc.lft.to/lastmile_qr_scan", "ios": "https://dc.lft.to/lastmile_qr_scan"}, "fusion_lon": 0.0}, {"lat": 38.91697533333333, "is_disabled": 0, "type": "electric_scooter", "lon": -77.02969666666667, "bike_id": "6a229fd77e78525b90d70ec03cb7888b", "fusion_lat": 0.0, "name": "6a229fd77e78525b90d70ec03cb7888b", "is_reserved": 0, "rental_uris": {"android": "https://dc.lft.to/lastmile_qr_scan", "ios": "https://dc.lft.to/lastmile_qr_scan"}, "fusion_lon": 0.0}, {"lat": 38.892218, "is_disabled": 0, "type": "electric_scooter", "lon": -77.048661, "bike_id": "877a6da2567d38f0026c03a6d9dc915f", "fusion_lat": 0.0, "name": "877a6da2567d38f0026c03a6d9dc915f", "is_reserved": 0, "rental_uris": {"android": "https://dc.lft.to/lastmile_qr_scan", "ios": "https://dc.lft.to/lastmile_qr_scan"}, "fusion_lon": 0.0}, {"lat": 38.879281166666665, "is_disabled": 0, "type": "electric_scooter", "lon": -77.00682433333333, "bike_id": "3c5f18152b1d04f3371fac99d6f3bc40", "fusion_lat": 0.0, "name": "3c5f18152b1d04f3371fac99d6f3bc40", "is_reserved": 0, "rental_uris": {"android": "https://dc.lft.to/lastmile_qr_scan", "ios": "https://dc.lft.to/lastmile_qr_scan"}, "fusion_lon": 0.0}, {"lat": 38.919819, "is_disabled": 0, "type": "electric_scooter", "lon": -77.02385166666667, "bike_id": "d5595e2c0a0eb9f2e8c068743e572215", "fusion_lat": 0.0, "name": "d5595e2c0a0eb9f2e8c068743e572215", "is_reserved": 0, "rental_uris": {"android": "https://dc.lft.to/lastmile_qr_scan", "ios": "https://dc.lft.to/lastmile_qr_scan"}, "fusion_lon": 0.0}, {"lat": 38.9156735, "is_disabled": 0, "type": "electric_scooter", "lon": -77.00975316666667, "bike_id": "4172842b57e7749266a96a385bf483dc", "fusion_lat": 0.0, "name": "4172842b57e7749266a96a385bf483dc", "is_reserved": 0, "rental_uris": {"android": "https://dc.lft.to/lastmile_qr_scan", "ios": "https://dc.lft.to/lastmile_qr_scan"}, "fusion_lon": 0.0}, {"lat": 38.903298, "is_disabled": 0, "type": "electric_scooter", "lon": -76.97057116666667, "bike_id": "c510e9ab2e059f1ec4fed6c94942951c", "fusion_lat": 0.0, "name": "c510e9ab2e059f1ec4fed6c94942951c", "is_reserved": 0, "rental_uris": {"android": "https://dc.lft.to/lastmile_qr_scan", "ios": "https://dc.lft.to/lastmile_qr_scan"}, "fusion_lon": 0.0}, {"lat": 38.898596166666664, "is_disabled": 0, "type": "electric_scooter", "lon": -77.029702, "bike_id": "6bfd283918f889b3fe838c9e0f1a29f7", "fusion_lat": 0.0, "name": "6bfd283918f889b3fe838c9e0f1a29f7", "is_reserved": 0, "rental_uris": {"android": "https://dc.lft.to/lastmile_qr_scan", "ios": "https://dc.lft.to/lastmile_qr_scan"}, "fusion_lon": 0.0}, {"lat": 38.961474, "is_disabled": 0, "type": "electric_bike", "lon": -77.03233583333333, "bike_id": "d82f093cd8fc6176a1c1b92808d3480b", "fusion_lat": 0.0, "name": "d82f093cd8fc6176a1c1b92808d3480b", "is_reserved": 0, "rental_uris": {"android": "https://dc.lft.to/lastmile_qr_scan", "ios": "https://dc.lft.to/lastmile_qr_scan"}, "fusion_lon": 0.0}, {"lat": 38.9126285, "is_disabled": 0, "type": "electric_scooter", "lon": -77.0349885, "bike_id": "ea37ec2c0a03af5b4ec26c0e0ad922da", "fusion_lat": 0.0, "name": "ea37ec2c0a03af5b4ec26c0e0ad922da", "is_reserved": 0, "rental_uris": {"android": "https://dc.lft.to/lastmile_qr_scan", "ios": "https://dc.lft.to/lastmile_qr_scan"}, "fusion_lon": 0.0}, {"lat": 38.90884883333333, "is_disabled": 0, "type": "electric_scooter", "lon": -77.03659066666667, "bike_id": "83a6c6f82c0c9d1c3e98d7094ad285d0", "fusion_lat": 0.0, "name": "83a6c6f82c0c9d1c3e98d7094ad285d0", "is_reserved": 0, "rental_uris": {"android": "https://dc.lft.to/lastmile_qr_scan", "ios": "https://dc.lft.to/lastmile_qr_scan"}, "fusion_lon": 0.0}, {"lat": 38.922386833333334, "is_disabled": 0, "type": "electric_scooter", "lon": -77.02910666666666, "bike_id": "3529531ceb27604a594f85219ccbf286", "fusion_lat": 0.0, "name": "3529531ceb27604a594f85219ccbf286", "is_reserved": 0, "rental_uris": {"android": "https://dc.lft.to/lastmile_qr_scan", "ios": "https://dc.lft.to/lastmile_qr_scan"}, "fusion_lon": 0.0}, {"lat": 38.905569, "is_disabled": 0, "type": "electric_scooter", "lon": -77.05693616666667, "bike_id": "889b45ae000ad7b12ef00fae550b00ae", "fusion_lat": 0.0, "name": "889b45ae000ad7b12ef00fae550b00ae", "is_reserved": 0, "rental_uris": {"android": "https://dc.lft.to/lastmile_qr_scan", "ios": "https://dc.lft.to/lastmile_qr_scan"}, "fusion_lon": 0.0}, {"lat": 38.86226383333333, "is_disabled": 0, "type": "electric_scooter", "lon": -76.98364383333333, "bike_id": "a3b27a9425a9e0b58cc7faeba929943e", "fusion_lat": 0.0, "name": "a3b27a9425a9e0b58cc7faeba929943e", "is_reserved": 0, "rental_uris": {"android": "https://dc.lft.to/lastmile_qr_scan", "ios": "https://dc.lft.to/lastmile_qr_scan"}, "fusion_lon": 0.0}, {"lat": 38.96163133333334, "is_disabled": 0, "type": "electric_scooter", "lon": -77.027831, "bike_id": "4277b72e77ab01cc0746c8533e1ff03c", "fusion_lat": 0.0, "name": "4277b72e77ab01cc0746c8533e1ff03c", "is_reserved": 0, "rental_uris": {"android": "https://dc.lft.to/lastmile_qr_scan", "ios": "https://dc.lft.to/lastmile_qr_scan"}, "fusion_lon": 0.0}, {"lat": 38.93569466666667, "is_disabled": 0, "type": "electric_scooter", "lon": -77.03733916666667, "bike_id": "a00ba01f113c7c885f8943798cb94738", "fusion_lat": 0.0, "name": "a00ba01f113c7c885f8943798cb94738", "is_reserved": 0, "rental_uris": {"android": "https://dc.lft.to/lastmile_qr_scan", "ios": "https://dc.lft.to/lastmile_qr_scan"}, "fusion_lon": 0.0}, {"lat": 38.88278116666667, "is_disabled": 0, "type": "electric_bike", "lon": -76.93237116666667, "bike_id": "dacfb7895e9b255c5c6511c155c00140", "fusion_lat": 0.0, "name": "dacfb7895e9b255c5c6511c155c00140", "is_reserved": 0, "rental_uris": {"android": "https://dc.lft.to/lastmile_qr_scan", "ios": "https://dc.lft.to/lastmile_qr_scan"}, "fusion_lon": 0.0}, {"lat": 38.866165333333335, "is_disabled": 0, "type": "electric_scooter", "lon": -76.986701, "bike_id": "c1cb518fcd864e786101a9f4d5dac547", "fusion_lat": 0.0, "name": "c1cb518fcd864e786101a9f4d5dac547", "is_reserved": 0, "rental_uris": {"android": "https://dc.lft.to/lastmile_qr_scan", "ios": "https://dc.lft.to/lastmile_qr_scan"}, "fusion_lon": 0.0}, {"lat": 38.894816666666664, "is_disabled": 0, "type": "electric_scooter", "lon": -76.9495215, "bike_id": "221e76d43df28636916e7f111475705d", "fusion_lat": 0.0, "name": "221e76d43df28636916e7f111475705d", "is_reserved": 0, "rental_uris": {"android": "https://dc.lft.to/lastmile_qr_scan", "ios": "https://dc.lft.to/lastmile_qr_scan"}, "fusion_lon": 0.0}, {"lat": 38.910154, "is_disabled": 0, "type": "electric_scooter", "lon": -76.99390516666666, "bike_id": "7c597a9ac3bb55a7056871f2c86eb766", "fusion_lat": 0.0, "name": "7c597a9ac3bb55a7056871f2c86eb766", "is_reserved": 0, "rental_uris": {"android": "https://dc.lft.to/lastmile_qr_scan", "ios": "https://dc.lft.to/lastmile_qr_scan"}, "fusion_lon": 0.0}, {"lat": 38.89228216666667, "is_disabled": 0, "type": "electric_scooter", "lon": -77.05004916666667, "bike_id": "90caf1729b5d9a51cb9b5a727000df83", "fusion_lat": 0.0, "name": "90caf1729b5d9a51cb9b5a727000df83", "is_reserved": 0, "rental_uris": {"android": "https://dc.lft.to/lastmile_qr_scan", "ios": "https://dc.lft.to/lastmile_qr_scan"}, "fusion_lon": 0.0}, {"lat": 38.87008933333333, "is_disabled": 0, "type": "electric_bike", "lon": -76.9602015, "bike_id": "5c92661eacb0e79e1c1cf2c41da877c0", "fusion_lat": 0.0, "name": "5c92661eacb0e79e1c1cf2c41da877c0", "is_reserved": 0, "rental_uris": {"android": "https://dc.lft.to/lastmile_qr_scan", "ios": "https://dc.lft.to/lastmile_qr_scan"}, "fusion_lon": 0.0}, {"lat": 38.934985, "is_disabled": 0, "type": "electric_scooter", "lon": -77.05804116666667, "bike_id": "a86022ece066c53fa53da3f0be3e9212", "fusion_lat": 0.0, "name": "a86022ece066c53fa53da3f0be3e9212", "is_reserved": 0, "rental_uris": {"android": "https://dc.lft.to/lastmile_qr_scan", "ios": "https://dc.lft.to/lastmile_qr_scan"}, "fusion_lon": 0.0}, {"lat": 38.90037733333333, "is_disabled": 0, "type": "electric_scooter", "lon": -76.99007466666667, "bike_id": "8ca551b579a73aefe667bfd09fa18512", "fusion_lat": 0.0, "name": "8ca551b579a73aefe667bfd09fa18512", "is_reserved": 0, "rental_uris": {"android": "https://dc.lft.to/lastmile_qr_scan", "ios": "https://dc.lft.to/lastmile_qr_scan"}, "fusion_lon": 0.0}, {"lat": 38.88560016666667, "is_disabled": 0, "type": "electric_scooter", "lon": -77.02002566666667, "bike_id": "a2d9c6f343e6c4e80caee2df8d9f4d80", "fusion_lat": 0.0, "name": "a2d9c6f343e6c4e80caee2df8d9f4d80", "is_reserved": 0, "rental_uris": {"android": "https://dc.lft.to/lastmile_qr_scan", "ios": "https://dc.lft.to/lastmile_qr_scan"}, "fusion_lon": 0.0}, {"lat": 38.933466333333335, "is_disabled": 0, "type": "electric_scooter", "lon": -77.05709583333334, "bike_id": "e340172e75e4745401feb2ef63ef9197", "fusion_lat": 0.0, "name": "e340172e75e4745401feb2ef63ef9197", "is_reserved": 0, "rental_uris": {"android": "https://dc.lft.to/lastmile_qr_scan", "ios": "https://dc.lft.to/lastmile_qr_scan"}, "fusion_lon": 0.0}, {"lat": 38.923819, "is_disabled": 0, "type": "electric_scooter", "lon": -77.03649816666666, "bike_id": "2f182b7ce88372fdc5208a8d92b9a150", "fusion_lat": 0.0, "name": "2f182b7ce88372fdc5208a8d92b9a150", "is_reserved": 0, "rental_uris": {"android": "https://dc.lft.to/lastmile_qr_scan", "ios": "https://dc.lft.to/lastmile_qr_scan"}, "fusion_lon": 0.0}, {"lat": 38.921650166666666, "is_disabled": 0, "type": "electric_scooter", "lon": -77.07697966666667, "bike_id": "75f43597c3037fb711d788d840790c07", "fusion_lat": 0.0, "name": "75f43597c3037fb711d788d840790c07", "is_reserved": 0, "rental_uris": {"android": "https://dc.lft.to/lastmile_qr_scan", "ios": "https://dc.lft.to/lastmile_qr_scan"}, "fusion_lon": 0.0}, {"lat": 38.904075666666664, "is_disabled": 0, "type": "electric_scooter", "lon": -77.01841016666667, "bike_id": "cd42361d0eae05a563ea8ee00d9b40bd", "fusion_lat": 0.0, "name": "cd42361d0eae05a563ea8ee00d9b40bd", "is_reserved": 0, "rental_uris": {"android": "https://dc.lft.to/lastmile_qr_scan", "ios": "https://dc.lft.to/lastmile_qr_scan"}, "fusion_lon": 0.0}, {"lat": 38.836770666666666, "is_disabled": 0, "type": "electric_scooter", "lon": -77.00574333333333, "bike_id": "29d259ff97847e1beb7674bf84735af5", "fusion_lat": 0.0, "name": "29d259ff97847e1beb7674bf84735af5", "is_reserved": 0, "rental_uris": {"android": "https://dc.lft.to/lastmile_qr_scan", "ios": "https://dc.lft.to/lastmile_qr_scan"}, "fusion_lon": 0.0}, {"lat": 38.908645, "is_disabled": 0, "type": "electric_scooter", "lon": -77.04587183333334, "bike_id": "edafdb2c3e81ac9b91bc4a7eae85d9c9", "fusion_lat": 0.0, "name": "edafdb2c3e81ac9b91bc4a7eae85d9c9", "is_reserved": 0, "rental_uris": {"android": "https://dc.lft.to/lastmile_qr_scan", "ios": "https://dc.lft.to/lastmile_qr_scan"}, "fusion_lon": 0.0}, {"lat": 38.92161983333333, "is_disabled": 0, "type": "electric_scooter", "lon": -77.0402485, "bike_id": "02d03cda314dd9217d3eab3e55ed4859", "fusion_lat": 0.0, "name": "02d03cda314dd9217d3eab3e55ed4859", "is_reserved": 0, "rental_uris": {"android": "https://dc.lft.to/lastmile_qr_scan", "ios": "https://dc.lft.to/lastmile_qr_scan"}, "fusion_lon": 0.0}, {"lat": 38.9191855, "is_disabled": 0, "type": "electric_scooter", "lon": -77.01344166666667, "bike_id": "c8965bb2f633e43e6713e2a832059cd7", "fusion_lat": 0.0, "name": "c8965bb2f633e43e6713e2a832059cd7", "is_reserved": 0, "rental_uris": {"android": "https://dc.lft.to/lastmile_qr_scan", "ios": "https://dc.lft.to/lastmile_qr_scan"}, "fusion_lon": 0.0}, {"lat": 38.90281566666667, "is_disabled": 0, "type": "electric_scooter", "lon": -77.0206385, "bike_id": "e7462303bf98baf52cb5d162cfba50c0", "fusion_lat": 0.0, "name": "e7462303bf98baf52cb5d162cfba50c0", "is_reserved": 0, "rental_uris": {"android": "https://dc.lft.to/lastmile_qr_scan", "ios": "https://dc.lft.to/lastmile_qr_scan"}, "fusion_lon": 0.0}, {"lat": 38.88435533333333, "is_disabled": 0, "type": "electric_scooter", "lon": -77.03034466666666, "bike_id": "e5092f42ce6e40d507c7c047e8120ed2", "fusion_lat": 0.0, "name": "e5092f42ce6e40d507c7c047e8120ed2", "is_reserved": 0, "rental_uris": {"android": "https://dc.lft.to/lastmile_qr_scan", "ios": "https://dc.lft.to/lastmile_qr_scan"}, "fusion_lon": 0.0}, {"lat": 38.922798666666665, "is_disabled": 0, "type": "electric_scooter", "lon": -77.029707, "bike_id": "a9bde593e9e1e681197da54d480bc473", "fusion_lat": 0.0, "name": "a9bde593e9e1e681197da54d480bc473", "is_reserved": 0, "rental_uris": {"android": "https://dc.lft.to/lastmile_qr_scan", "ios": "https://dc.lft.to/lastmile_qr_scan"}, "fusion_lon": 0.0}, {"lat": 38.929011333333335, "is_disabled": 0, "type": "electric_scooter", "lon": -77.074508, "bike_id": "3459167dab2326f7de3e72b6cd2729e4", "fusion_lat": 0.0, "name": "3459167dab2326f7de3e72b6cd2729e4", "is_reserved": 0, "rental_uris": {"android": "https://dc.lft.to/lastmile_qr_scan", "ios": "https://dc.lft.to/lastmile_qr_scan"}, "fusion_lon": 0.0}, {"lat": 38.925801, "is_disabled": 0, "type": "electric_scooter", "lon": -77.057555, "bike_id": "a2bf5a423bd6675a261581c610e71d29", "fusion_lat": 0.0, "name": "a2bf5a423bd6675a261581c610e71d29", "is_reserved": 0, "rental_uris": {"android": "https://dc.lft.to/lastmile_qr_scan", "ios": "https://dc.lft.to/lastmile_qr_scan"}, "fusion_lon": 0.0}, {"lat": 38.928787, "is_disabled": 0, "type": "electric_scooter", "lon": -77.033378, "bike_id": "4c7f5c532ae9e1f4f8b362fce77a1f0a", "fusion_lat": 0.0, "name": "4c7f5c532ae9e1f4f8b362fce77a1f0a", "is_reserved": 0, "rental_uris": {"android": "https://dc.lft.to/lastmile_qr_scan", "ios": "https://dc.lft.to/lastmile_qr_scan"}, "fusion_lon": 0.0}, {"lat": 38.87876816666667, "is_disabled": 0, "type": "electric_scooter", "lon": -77.02313583333333, "bike_id": "d41aba6007e6d9758eb8f69054146972", "fusion_lat": 0.0, "name": "d41aba6007e6d9758eb8f69054146972", "is_reserved": 0, "rental_uris": {"android": "https://dc.lft.to/lastmile_qr_scan", "ios": "https://dc.lft.to/lastmile_qr_scan"}, "fusion_lon": 0.0}, {"lat": 38.87630133333333, "is_disabled": 0, "type": "electric_scooter", "lon": -77.01479216666667, "bike_id": "7606ec014c9e70b727375f7ea30c84e6", "fusion_lat": 0.0, "name": "7606ec014c9e70b727375f7ea30c84e6", "is_reserved": 0, "rental_uris": {"android": "https://dc.lft.to/lastmile_qr_scan", "ios": "https://dc.lft.to/lastmile_qr_scan"}, "fusion_lon": 0.0}, {"lat": 38.99999016666666, "is_disabled": 0, "type": "electric_bike", "lon": -76.924965, "bike_id": "fddbf46d1e7f17cef205e8f908c91aab", "fusion_lat": 0.0, "name": "fddbf46d1e7f17cef205e8f908c91aab", "is_reserved": 0, "rental_uris": {"android": "https://dc.lft.to/lastmile_qr_scan", "ios": "https://dc.lft.to/lastmile_qr_scan"}, "fusion_lon": 0.0}, {"lat": 38.942955833333336, "is_disabled": 0, "type": "electric_scooter", "lon": -77.07704533333333, "bike_id": "6b4ca2ed9db4c368193b6594e4227bdf", "fusion_lat": 0.0, "name": "6b4ca2ed9db4c368193b6594e4227bdf", "is_reserved": 0, "rental_uris": {"android": "https://dc.lft.to/lastmile_qr_scan", "ios": "https://dc.lft.to/lastmile_qr_scan"}, "fusion_lon": 0.0}, {"lat": 38.93189316666667, "is_disabled": 0, "type": "electric_scooter", "lon": -77.028381, "bike_id": "9909eec19965617dd35bc5ce88b8061f", "fusion_lat": 0.0, "name": "9909eec19965617dd35bc5ce88b8061f", "is_reserved": 0, "rental_uris": {"android": "https://dc.lft.to/lastmile_qr_scan", "ios": "https://dc.lft.to/lastmile_qr_scan"}, "fusion_lon": 0.0}, {"lat": 38.901678, "is_disabled": 0, "type": "electric_scooter", "lon": -77.024221, "bike_id": "314222d0a3856ffcd22f45a7d387dbbe", "fusion_lat": 0.0, "name": "314222d0a3856ffcd22f45a7d387dbbe", "is_reserved": 0, "rental_uris": {"android": "https://dc.lft.to/lastmile_qr_scan", "ios": "https://dc.lft.to/lastmile_qr_scan"}, "fusion_lon": 0.0}, {"lat": 38.8910095, "is_disabled": 0, "type": "electric_scooter", "lon": -76.95233833333333, "bike_id": "d4eea0229609f3d35035c92788913afa", "fusion_lat": 0.0, "name": "d4eea0229609f3d35035c92788913afa", "is_reserved": 0, "rental_uris": {"android": "https://dc.lft.to/lastmile_qr_scan", "ios": "https://dc.lft.to/lastmile_qr_scan"}, "fusion_lon": 0.0}, {"lat": 38.9365315, "is_disabled": 0, "type": "electric_scooter", "lon": -77.02392566666667, "bike_id": "14d9c4b482c0262399de26dc41b74936", "fusion_lat": 0.0, "name": "14d9c4b482c0262399de26dc41b74936", "is_reserved": 0, "rental_uris": {"android": "https://dc.lft.to/lastmile_qr_scan", "ios": "https://dc.lft.to/lastmile_qr_scan"}, "fusion_lon": 0.0}, {"lat": 38.900634333333336, "is_disabled": 0, "type": "electric_scooter", "lon": -76.93387116666666, "bike_id": "c4e548a7eea6de63ca0e1f2243b512d0", "fusion_lat": 0.0, "name": "c4e548a7eea6de63ca0e1f2243b512d0", "is_reserved": 0, "rental_uris": {"android": "https://dc.lft.to/lastmile_qr_scan", "ios": "https://dc.lft.to/lastmile_qr_scan"}, "fusion_lon": 0.0}, {"lat": 38.91684633333333, "is_disabled": 0, "type": "electric_scooter", "lon": -77.02966116666667, "bike_id": "fb8a0e36d7b7f97da0cb235298296c62", "fusion_lat": 0.0, "name": "fb8a0e36d7b7f97da0cb235298296c62", "is_reserved": 0, "rental_uris": {"android": "https://dc.lft.to/lastmile_qr_scan", "ios": "https://dc.lft.to/lastmile_qr_scan"}, "fusion_lon": 0.0}, {"lat": 38.919175833333334, "is_disabled": 0, "type": "electric_scooter", "lon": -77.033982, "bike_id": "a3261557b2003dc10d80111015d5b740", "fusion_lat": 0.0, "name": "a3261557b2003dc10d80111015d5b740", "is_reserved": 0, "rental_uris": {"android": "https://dc.lft.to/lastmile_qr_scan", "ios": "https://dc.lft.to/lastmile_qr_scan"}, "fusion_lon": 0.0}, {"lat": 38.90096883333333, "is_disabled": 0, "type": "electric_scooter", "lon": -77.04995866666667, "bike_id": "ccf5371f8343b30ea9cc7e47de7ccdfd", "fusion_lat": 0.0, "name": "ccf5371f8343b30ea9cc7e47de7ccdfd", "is_reserved": 0, "rental_uris": {"android": "https://dc.lft.to/lastmile_qr_scan", "ios": "https://dc.lft.to/lastmile_qr_scan"}, "fusion_lon": 0.0}, {"lat": 38.919301833333336, "is_disabled": 0, "type": "electric_scooter", "lon": -77.08133766666667, "bike_id": "bab7733d067298650397c772cef74865", "fusion_lat": 0.0, "name": "bab7733d067298650397c772cef74865", "is_reserved": 0, "rental_uris": {"android": "https://dc.lft.to/lastmile_qr_scan", "ios": "https://dc.lft.to/lastmile_qr_scan"}, "fusion_lon": 0.0}, {"lat": 38.906167333333336, "is_disabled": 0, "type": "electric_scooter", "lon": -77.01289633333333, "bike_id": "b2534ee5c49ab7752d0945b630231db4", "fusion_lat": 0.0, "name": "b2534ee5c49ab7752d0945b630231db4", "is_reserved": 0, "rental_uris": {"android": "https://dc.lft.to/lastmile_qr_scan", "ios": "https://dc.lft.to/lastmile_qr_scan"}, "fusion_lon": 0.0}, {"lat": 38.944320833333336, "is_disabled": 0, "type": "electric_scooter", "lon": -77.0630675, "bike_id": "9c1019b08c3c7411de4e0c9a6fdf5def", "fusion_lat": 0.0, "name": "9c1019b08c3c7411de4e0c9a6fdf5def", "is_reserved": 0, "rental_uris": {"android": "https://dc.lft.to/lastmile_qr_scan", "ios": "https://dc.lft.to/lastmile_qr_scan"}, "fusion_lon": 0.0}, {"lat": 38.866262666666664, "is_disabled": 0, "type": "electric_scooter", "lon": -76.98713066666667, "bike_id": "d9bf1ca5b0dd41ace42a0a9996c2ea85", "fusion_lat": 0.0, "name": "d9bf1ca5b0dd41ace42a0a9996c2ea85", "is_reserved": 0, "rental_uris": {"android": "https://dc.lft.to/lastmile_qr_scan", "ios": "https://dc.lft.to/lastmile_qr_scan"}, "fusion_lon": 0.0}, {"lat": 38.89251216666667, "is_disabled": 0, "type": "electric_scooter", "lon": -77.02824216666667, "bike_id": "8200d8ad9e72db3e091c409373a2a61c", "fusion_lat": 0.0, "name": "8200d8ad9e72db3e091c409373a2a61c", "is_reserved": 0, "rental_uris": {"android": "https://dc.lft.to/lastmile_qr_scan", "ios": "https://dc.lft.to/lastmile_qr_scan"}, "fusion_lon": 0.0}, {"lat": 38.915371666666665, "is_disabled": 0, "type": "electric_scooter", "lon": -77.01358766666667, "bike_id": "ce4a4e446a2554494a5a004b9d511fc0", "fusion_lat": 0.0, "name": "ce4a4e446a2554494a5a004b9d511fc0", "is_reserved": 0, "rental_uris": {"android": "https://dc.lft.to/lastmile_qr_scan", "ios": "https://dc.lft.to/lastmile_qr_scan"}, "fusion_lon": 0.0}, {"lat": 38.924663833333334, "is_disabled": 0, "type": "electric_scooter", "lon": -77.05240983333333, "bike_id": "37cbe61f16b2b9640a10292106e09d94", "fusion_lat": 0.0, "name": "37cbe61f16b2b9640a10292106e09d94", "is_reserved": 0, "rental_uris": {"android": "https://dc.lft.to/lastmile_qr_scan", "ios": "https://dc.lft.to/lastmile_qr_scan"}, "fusion_lon": 0.0}, {"lat": 38.90676666666667, "is_disabled": 0, "type": "electric_scooter", "lon": -77.0364195, "bike_id": "a19f153cc0f1e86aed6c0296659cf86c", "fusion_lat": 0.0, "name": "a19f153cc0f1e86aed6c0296659cf86c", "is_reserved": 0, "rental_uris": {"android": "https://dc.lft.to/lastmile_qr_scan", "ios": "https://dc.lft.to/lastmile_qr_scan"}, "fusion_lon": 0.0}, {"lat": 38.899980666666664, "is_disabled": 0, "type": "electric_scooter", "lon": -77.05092733333333, "bike_id": "f55d04734c78b31bce347ec261a6ac7d", "fusion_lat": 0.0, "name": "f55d04734c78b31bce347ec261a6ac7d", "is_reserved": 0, "rental_uris": {"android": "https://dc.lft.to/lastmile_qr_scan", "ios": "https://dc.lft.to/lastmile_qr_scan"}, "fusion_lon": 0.0}, {"lat": 38.919238, "is_disabled": 0, "type": "electric_scooter", "lon": -77.01291566666667, "bike_id": "1df7e3ef44fe8e40d10f7f9706fc2230", "fusion_lat": 0.0, "name": "1df7e3ef44fe8e40d10f7f9706fc2230", "is_reserved": 0, "rental_uris": {"android": "https://dc.lft.to/lastmile_qr_scan", "ios": "https://dc.lft.to/lastmile_qr_scan"}, "fusion_lon": 0.0}, {"lat": 38.89778833333333, "is_disabled": 0, "type": "electric_bike", "lon": -76.904423, "bike_id": "3d2eaef0db0b215337e5b95be09bbb41", "fusion_lat": 0.0, "name": "3d2eaef0db0b215337e5b95be09bbb41", "is_reserved": 0, "rental_uris": {"android": "https://dc.lft.to/lastmile_qr_scan", "ios": "https://dc.lft.to/lastmile_qr_scan"}, "fusion_lon": 0.0}, {"lat": 38.88520616666667, "is_disabled": 0, "type": "electric_scooter", "lon": -77.00269383333334, "bike_id": "5c7e857187b26ad65086d1c60b4a0df5", "fusion_lat": 0.0, "name": "5c7e857187b26ad65086d1c60b4a0df5", "is_reserved": 0, "rental_uris": {"android": "https://dc.lft.to/lastmile_qr_scan", "ios": "https://dc.lft.to/lastmile_qr_scan"}, "fusion_lon": 0.0}, {"lat": 38.90038633333333, "is_disabled": 0, "type": "electric_scooter", "lon": -76.98838983333333, "bike_id": "93a6d47d2ebb4e1f8fd5524fd988a3ee", "fusion_lat": 0.0, "name": "93a6d47d2ebb4e1f8fd5524fd988a3ee", "is_reserved": 0, "rental_uris": {"android": "https://dc.lft.to/lastmile_qr_scan", "ios": "https://dc.lft.to/lastmile_qr_scan"}, "fusion_lon": 0.0}, {"lat": 38.90562283333333, "is_disabled": 0, "type": "electric_scooter", "lon": -77.00584566666667, "bike_id": "afbd57d1b52725583bfe8146a7e61b9a", "fusion_lat": 0.0, "name": "afbd57d1b52725583bfe8146a7e61b9a", "is_reserved": 0, "rental_uris": {"android": "https://dc.lft.to/lastmile_qr_scan", "ios": "https://dc.lft.to/lastmile_qr_scan"}, "fusion_lon": 0.0}, {"lat": 38.901401, "is_disabled": 0, "type": "electric_scooter", "lon": -77.00063916666667, "bike_id": "ba3b06ad56d2f191baa8de686fc009af", "fusion_lat": 0.0, "name": "ba3b06ad56d2f191baa8de686fc009af", "is_reserved": 0, "rental_uris": {"android": "https://dc.lft.to/lastmile_qr_scan", "ios": "https://dc.lft.to/lastmile_qr_scan"}, "fusion_lon": 0.0}, {"lat": 38.842763, "is_disabled": 0, "type": "electric_bike", "lon": -76.988447, "bike_id": "110cc1db6157afcc1500397d21d576b0", "fusion_lat": 0.0, "name": "110cc1db6157afcc1500397d21d576b0", "is_reserved": 0, "rental_uris": {"android": "https://dc.lft.to/lastmile_qr_scan", "ios": "https://dc.lft.to/lastmile_qr_scan"}, "fusion_lon": 0.0}, {"lat": 38.956373166666665, "is_disabled": 0, "type": "electric_bike", "lon": -76.9388475, "bike_id": "56999f0647a0486e9ea1f53c4430f2da", "fusion_lat": 0.0, "name": "56999f0647a0486e9ea1f53c4430f2da", "is_reserved": 0, "rental_uris": {"android": "https://dc.lft.to/lastmile_qr_scan", "ios": "https://dc.lft.to/lastmile_qr_scan"}, "fusion_lon": 0.0}, {"lat": 38.9096235, "is_disabled": 0, "type": "electric_scooter", "lon": -77.02306533333334, "bike_id": "f1e0bdb5f77cb57d20fd90ad976cab16", "fusion_lat": 0.0, "name": "f1e0bdb5f77cb57d20fd90ad976cab16", "is_reserved": 0, "rental_uris": {"android": "https://dc.lft.to/lastmile_qr_scan", "ios": "https://dc.lft.to/lastmile_qr_scan"}, "fusion_lon": 0.0}, {"lat": 38.92443883333333, "is_disabled": 0, "type": "electric_scooter", "lon": -77.03374733333334, "bike_id": "6df48384d2608c986a9105455adee21a", "fusion_lat": 0.0, "name": "6df48384d2608c986a9105455adee21a", "is_reserved": 0, "rental_uris": {"android": "https://dc.lft.to/lastmile_qr_scan", "ios": "https://dc.lft.to/lastmile_qr_scan"}, "fusion_lon": 0.0}, {"lat": 38.923369, "is_disabled": 0, "type": "electric_scooter", "lon": -77.0445125, "bike_id": "ed3a8396731539844935fdb4eadb7657", "fusion_lat": 0.0, "name": "ed3a8396731539844935fdb4eadb7657", "is_reserved": 0, "rental_uris": {"android": "https://dc.lft.to/lastmile_qr_scan", "ios": "https://dc.lft.to/lastmile_qr_scan"}, "fusion_lon": 0.0}, {"lat": 38.91979716666667, "is_disabled": 0, "type": "electric_scooter", "lon": -77.04101616666667, "bike_id": "659a63d8bef1b567959f1aaab788535f", "fusion_lat": 0.0, "name": "659a63d8bef1b567959f1aaab788535f", "is_reserved": 0, "rental_uris": {"android": "https://dc.lft.to/lastmile_qr_scan", "ios": "https://dc.lft.to/lastmile_qr_scan"}, "fusion_lon": 0.0}, {"lat": 38.941274, "is_disabled": 0, "type": "electric_bike", "lon": -76.99629983333334, "bike_id": "1956d011820603735bb9dfebf9c9f19c", "fusion_lat": 0.0, "name": "1956d011820603735bb9dfebf9c9f19c", "is_reserved": 0, "rental_uris": {"android": "https://dc.lft.to/lastmile_qr_scan", "ios": "https://dc.lft.to/lastmile_qr_scan"}, "fusion_lon": 0.0}, {"lat": 38.895160833333335, "is_disabled": 0, "type": "electric_scooter", "lon": -77.0436195, "bike_id": "3f5611bfa80fbc769c57aa96bb7b792f", "fusion_lat": 0.0, "name": "3f5611bfa80fbc769c57aa96bb7b792f", "is_reserved": 0, "rental_uris": {"android": "https://dc.lft.to/lastmile_qr_scan", "ios": "https://dc.lft.to/lastmile_qr_scan"}, "fusion_lon": 0.0}, {"lat": 38.90673116666667, "is_disabled": 0, "type": "electric_scooter", "lon": -77.0364455, "bike_id": "a8c7ea666a5d257960b385121b5905ef", "fusion_lat": 0.0, "name": "a8c7ea666a5d257960b385121b5905ef", "is_reserved": 0, "rental_uris": {"android": "https://dc.lft.to/lastmile_qr_scan", "ios": "https://dc.lft.to/lastmile_qr_scan"}, "fusion_lon": 0.0}, {"lat": 38.909544, "is_disabled": 0, "type": "electric_scooter", "lon": -77.04681633333334, "bike_id": "dbcbfd0919c94eef3e83608b3aca58de", "fusion_lat": 0.0, "name": "dbcbfd0919c94eef3e83608b3aca58de", "is_reserved": 0, "rental_uris": {"android": "https://dc.lft.to/lastmile_qr_scan", "ios": "https://dc.lft.to/lastmile_qr_scan"}, "fusion_lon": 0.0}, {"lat": 39.094379833333335, "is_disabled": 0, "type": "electric_bike", "lon": -77.13461633333333, "bike_id": "6706f9301370464ea2ac9a2861b96aa4", "fusion_lat": 0.0, "name": "6706f9301370464ea2ac9a2861b96aa4", "is_reserved": 0, "rental_uris": {"android": "https://dc.lft.to/lastmile_qr_scan", "ios": "https://dc.lft.to/lastmile_qr_scan"}, "fusion_lon": 0.0}, {"lat": 38.862849833333335, "is_disabled": 0, "type": "electric_scooter", "lon": -76.99237116666667, "bike_id": "6fafc839f1c19fdd2cda4bdb27ed5e0a", "fusion_lat": 0.0, "name": "6fafc839f1c19fdd2cda4bdb27ed5e0a", "is_reserved": 0, "rental_uris": {"android": "https://dc.lft.to/lastmile_qr_scan", "ios": "https://dc.lft.to/lastmile_qr_scan"}, "fusion_lon": 0.0}, {"lat": 38.93945816666667, "is_disabled": 0, "type": "electric_scooter", "lon": -77.02184833333334, "bike_id": "b70c4dab7cf31f530b09539cf8bcb69e", "fusion_lat": 0.0, "name": "b70c4dab7cf31f530b09539cf8bcb69e", "is_reserved": 0, "rental_uris": {"android": "https://dc.lft.to/lastmile_qr_scan", "ios": "https://dc.lft.to/lastmile_qr_scan"}, "fusion_lon": 0.0}, {"lat": 38.89845316666667, "is_disabled": 0, "type": "electric_scooter", "lon": -76.94473516666666, "bike_id": "3648f01b84d5d5ef5b80d52978e39769", "fusion_lat": 0.0, "name": "3648f01b84d5d5ef5b80d52978e39769", "is_reserved": 0, "rental_uris": {"android": "https://dc.lft.to/lastmile_qr_scan", "ios": "https://dc.lft.to/lastmile_qr_scan"}, "fusion_lon": 0.0}, {"lat": 38.842544833333335, "is_disabled": 0, "type": "electric_scooter", "lon": -77.00227983333333, "bike_id": "a5bf43fc65f028660b155ad6a13bcd4b", "fusion_lat": 0.0, "name": "a5bf43fc65f028660b155ad6a13bcd4b", "is_reserved": 0, "rental_uris": {"android": "https://dc.lft.to/lastmile_qr_scan", "ios": "https://dc.lft.to/lastmile_qr_scan"}, "fusion_lon": 0.0}, {"lat": 38.88043666666667, "is_disabled": 0, "type": "electric_scooter", "lon": -76.98626416666667, "bike_id": "664eef1dde922403020dc08379657510", "fusion_lat": 0.0, "name": "664eef1dde922403020dc08379657510", "is_reserved": 0, "rental_uris": {"android": "https://dc.lft.to/lastmile_qr_scan", "ios": "https://dc.lft.to/lastmile_qr_scan"}, "fusion_lon": 0.0}, {"lat": 38.887488166666664, "is_disabled": 0, "type": "electric_scooter", "lon": -77.02171483333333, "bike_id": "e8874da4e281a16ccedf5f1a07c11cba", "fusion_lat": 0.0, "name": "e8874da4e281a16ccedf5f1a07c11cba", "is_reserved": 0, "rental_uris": {"android": "https://dc.lft.to/lastmile_qr_scan", "ios": "https://dc.lft.to/lastmile_qr_scan"}, "fusion_lon": 0.0}, {"lat": 38.92068583333333, "is_disabled": 0, "type": "electric_scooter", "lon": -77.0433575, "bike_id": "cf57d87b74b1a837e5867b8dcc1547e0", "fusion_lat": 0.0, "name": "cf57d87b74b1a837e5867b8dcc1547e0", "is_reserved": 0, "rental_uris": {"android": "https://dc.lft.to/lastmile_qr_scan", "ios": "https://dc.lft.to/lastmile_qr_scan"}, "fusion_lon": 0.0}, {"lat": 38.8843895, "is_disabled": 0, "type": "electric_scooter", "lon": -77.03037266666666, "bike_id": "a90d0dbfad6e996c9ceb08e40a7b549d", "fusion_lat": 0.0, "name": "a90d0dbfad6e996c9ceb08e40a7b549d", "is_reserved": 0, "rental_uris": {"android": "https://dc.lft.to/lastmile_qr_scan", "ios": "https://dc.lft.to/lastmile_qr_scan"}, "fusion_lon": 0.0}, {"lat": 38.903669, "is_disabled": 0, "type": "electric_scooter", "lon": -77.06025616666666, "bike_id": "4b9708b6978897f3bd49c994625a0ecf", "fusion_lat": 0.0, "name": "4b9708b6978897f3bd49c994625a0ecf", "is_reserved": 0, "rental_uris": {"android": "https://dc.lft.to/lastmile_qr_scan", "ios": "https://dc.lft.to/lastmile_qr_scan"}, "fusion_lon": 0.0}, {"lat": 38.89865916666667, "is_disabled": 0, "type": "electric_scooter", "lon": -77.0192405, "bike_id": "7d920569fe66ed4a03307d63a29d1f4b", "fusion_lat": 0.0, "name": "7d920569fe66ed4a03307d63a29d1f4b", "is_reserved": 0, "rental_uris": {"android": "https://dc.lft.to/lastmile_qr_scan", "ios": "https://dc.lft.to/lastmile_qr_scan"}, "fusion_lon": 0.0}, {"lat": 38.905551, "is_disabled": 0, "type": "electric_scooter", "lon": -77.05692033333334, "bike_id": "518d8ac79e56be49a9b96515625a368c", "fusion_lat": 0.0, "name": "518d8ac79e56be49a9b96515625a368c", "is_reserved": 0, "rental_uris": {"android": "https://dc.lft.to/lastmile_qr_scan", "ios": "https://dc.lft.to/lastmile_qr_scan"}, "fusion_lon": 0.0}, {"lat": 38.920647333333335, "is_disabled": 0, "type": "electric_scooter", "lon": -76.97601966666667, "bike_id": "60849841f44bd7d7d68b33a5c54409ec", "fusion_lat": 0.0, "name": "60849841f44bd7d7d68b33a5c54409ec", "is_reserved": 0, "rental_uris": {"android": "https://dc.lft.to/lastmile_qr_scan", "ios": "https://dc.lft.to/lastmile_qr_scan"}, "fusion_lon": 0.0}, {"lat": 38.903073166666665, "is_disabled": 0, "type": "electric_scooter", "lon": -77.06518733333333, "bike_id": "f1efddf950bd78cd0bfa182a12195ebe", "fusion_lat": 0.0, "name": "f1efddf950bd78cd0bfa182a12195ebe", "is_reserved": 0, "rental_uris": {"android": "https://dc.lft.to/lastmile_qr_scan", "ios": "https://dc.lft.to/lastmile_qr_scan"}, "fusion_lon": 0.0}, {"lat": 38.879176333333334, "is_disabled": 0, "type": "electric_scooter", "lon": -76.99145983333334, "bike_id": "c3c4eb0f89b6978607fefd7f79d590e9", "fusion_lat": 0.0, "name": "c3c4eb0f89b6978607fefd7f79d590e9", "is_reserved": 0, "rental_uris": {"android": "https://dc.lft.to/lastmile_qr_scan", "ios": "https://dc.lft.to/lastmile_qr_scan"}, "fusion_lon": 0.0}, {"lat": 38.96142183333333, "is_disabled": 0, "type": "electric_scooter", "lon": -77.02808283333333, "bike_id": "70f154df60296b3ab4d02809011af89a", "fusion_lat": 0.0, "name": "70f154df60296b3ab4d02809011af89a", "is_reserved": 0, "rental_uris": {"android": "https://dc.lft.to/lastmile_qr_scan", "ios": "https://dc.lft.to/lastmile_qr_scan"}, "fusion_lon": 0.0}, {"lat": 38.89687266666667, "is_disabled": 0, "type": "electric_scooter", "lon": -76.93534233333334, "bike_id": "02269eb42bfed35ace553fa8e08a25c3", "fusion_lat": 0.0, "name": "02269eb42bfed35ace553fa8e08a25c3", "is_reserved": 0, "rental_uris": {"android": "https://dc.lft.to/lastmile_qr_scan", "ios": "https://dc.lft.to/lastmile_qr_scan"}, "fusion_lon": 0.0}, {"lat": 38.931434333333335, "is_disabled": 0, "type": "electric_scooter", "lon": -77.03824566666667, "bike_id": "9199b3b9391f656a7d07b4861e645e86", "fusion_lat": 0.0, "name": "9199b3b9391f656a7d07b4861e645e86", "is_reserved": 0, "rental_uris": {"android": "https://dc.lft.to/lastmile_qr_scan", "ios": "https://dc.lft.to/lastmile_qr_scan"}, "fusion_lon": 0.0}, {"lat": 38.91716666666667, "is_disabled": 0, "type": "electric_scooter", "lon": -77.038569, "bike_id": "814d6307648a8217dd20e772965e405f", "fusion_lat": 0.0, "name": "814d6307648a8217dd20e772965e405f", "is_reserved": 0, "rental_uris": {"android": "https://dc.lft.to/lastmile_qr_scan", "ios": "https://dc.lft.to/lastmile_qr_scan"}, "fusion_lon": 0.0}, {"lat": 38.95959966666667, "is_disabled": 0, "type": "electric_bike", "lon": -77.100908, "bike_id": "f5cc2423d0cfcc8c91c6b114baecaca5", "fusion_lat": 0.0, "name": "f5cc2423d0cfcc8c91c6b114baecaca5", "is_reserved": 0, "rental_uris": {"android": "https://dc.lft.to/lastmile_qr_scan", "ios": "https://dc.lft.to/lastmile_qr_scan"}, "fusion_lon": 0.0}, {"lat": 38.886367, "is_disabled": 0, "type": "electric_bike", "lon": -76.9546975, "bike_id": "a409a6bf6b64ae37f6fb05af03e2f8fd", "fusion_lat": 0.0, "name": "a409a6bf6b64ae37f6fb05af03e2f8fd", "is_reserved": 0, "rental_uris": {"android": "https://dc.lft.to/lastmile_qr_scan", "ios": "https://dc.lft.to/lastmile_qr_scan"}, "fusion_lon": 0.0}, {"lat": 38.929006666666666, "is_disabled": 0, "type": "electric_scooter", "lon": -77.02211666666666, "bike_id": "4da9d768e08450849bd60e428f05ba69", "fusion_lat": 0.0, "name": "4da9d768e08450849bd60e428f05ba69", "is_reserved": 0, "rental_uris": {"android": "https://dc.lft.to/lastmile_qr_scan", "ios": "https://dc.lft.to/lastmile_qr_scan"}, "fusion_lon": 0.0}, {"lat": 38.927325, "is_disabled": 0, "type": "electric_scooter", "lon": -77.0345085, "bike_id": "c04e547b324cf751ab0eac50496d700d", "fusion_lat": 0.0, "name": "c04e547b324cf751ab0eac50496d700d", "is_reserved": 0, "rental_uris": {"android": "https://dc.lft.to/lastmile_qr_scan", "ios": "https://dc.lft.to/lastmile_qr_scan"}, "fusion_lon": 0.0}, {"lat": 39.05633683333333, "is_disabled": 0, "type": "electric_bike", "lon": -77.1252495, "bike_id": "4aea25dabd12d2f932aa02946c2987ec", "fusion_lat": 0.0, "name": "4aea25dabd12d2f932aa02946c2987ec", "is_reserved": 0, "rental_uris": {"android": "https://dc.lft.to/lastmile_qr_scan", "ios": "https://dc.lft.to/lastmile_qr_scan"}, "fusion_lon": 0.0}, {"lat": 38.927532666666664, "is_disabled": 0, "type": "electric_scooter", "lon": -77.03211816666666, "bike_id": "48e107979b27ea5f7df39144a0eb2860", "fusion_lat": 0.0, "name": "48e107979b27ea5f7df39144a0eb2860", "is_reserved": 0, "rental_uris": {"android": "https://dc.lft.to/lastmile_qr_scan", "ios": "https://dc.lft.to/lastmile_qr_scan"}, "fusion_lon": 0.0}, {"lat": 38.898180333333336, "is_disabled": 0, "type": "electric_scooter", "lon": -76.99695633333333, "bike_id": "6e231a72cb58f7faef7d14e0953cb889", "fusion_lat": 0.0, "name": "6e231a72cb58f7faef7d14e0953cb889", "is_reserved": 0, "rental_uris": {"android": "https://dc.lft.to/lastmile_qr_scan", "ios": "https://dc.lft.to/lastmile_qr_scan"}, "fusion_lon": 0.0}, {"lat": 38.90189783333334, "is_disabled": 0, "type": "electric_scooter", "lon": -77.02396483333334, "bike_id": "2746f32f8ffc1ef7b0626449edb4c47f", "fusion_lat": 0.0, "name": "2746f32f8ffc1ef7b0626449edb4c47f", "is_reserved": 0, "rental_uris": {"android": "https://dc.lft.to/lastmile_qr_scan", "ios": "https://dc.lft.to/lastmile_qr_scan"}, "fusion_lon": 0.0}, {"lat": 38.911129833333334, "is_disabled": 0, "type": "electric_scooter", "lon": -77.0376435, "bike_id": "56478c79949511b2dfe9437a33eb3e7c", "fusion_lat": 0.0, "name": "56478c79949511b2dfe9437a33eb3e7c", "is_reserved": 0, "rental_uris": {"android": "https://dc.lft.to/lastmile_qr_scan", "ios": "https://dc.lft.to/lastmile_qr_scan"}, "fusion_lon": 0.0}, {"lat": 38.8857645, "is_disabled": 0, "type": "electric_scooter", "lon": -76.91912516666666, "bike_id": "908bbeb7237fe984140e33b7a70a022f", "fusion_lat": 0.0, "name": "908bbeb7237fe984140e33b7a70a022f", "is_reserved": 0, "rental_uris": {"android": "https://dc.lft.to/lastmile_qr_scan", "ios": "https://dc.lft.to/lastmile_qr_scan"}, "fusion_lon": 0.0}, {"lat": 38.9248, "is_disabled": 0, "type": "electric_scooter", "lon": -77.02842416666667, "bike_id": "c64237f9d0cb1792a10a7c350f9fbcdf", "fusion_lat": 0.0, "name": "c64237f9d0cb1792a10a7c350f9fbcdf", "is_reserved": 0, "rental_uris": {"android": "https://dc.lft.to/lastmile_qr_scan", "ios": "https://dc.lft.to/lastmile_qr_scan"}, "fusion_lon": 0.0}, {"lat": 38.95616, "is_disabled": 0, "type": "electric_scooter", "lon": -77.02763566666667, "bike_id": "31ea180409d30ea5aedf0f9657af9c2f", "fusion_lat": 0.0, "name": "31ea180409d30ea5aedf0f9657af9c2f", "is_reserved": 0, "rental_uris": {"android": "https://dc.lft.to/lastmile_qr_scan", "ios": "https://dc.lft.to/lastmile_qr_scan"}, "fusion_lon": 0.0}, {"lat": 38.91175466666667, "is_disabled": 0, "type": "electric_scooter", "lon": -77.06095783333333, "bike_id": "a62819847de87c8c922917cba80a6631", "fusion_lat": 0.0, "name": "a62819847de87c8c922917cba80a6631", "is_reserved": 0, "rental_uris": {"android": "https://dc.lft.to/lastmile_qr_scan", "ios": "https://dc.lft.to/lastmile_qr_scan"}, "fusion_lon": 0.0}, {"lat": 38.897198333333336, "is_disabled": 0, "type": "electric_scooter", "lon": -77.02416816666667, "bike_id": "357d9f206e0e3739ee2e10cd64e1dbab", "fusion_lat": 0.0, "name": "357d9f206e0e3739ee2e10cd64e1dbab", "is_reserved": 0, "rental_uris": {"android": "https://dc.lft.to/lastmile_qr_scan", "ios": "https://dc.lft.to/lastmile_qr_scan"}, "fusion_lon": 0.0}, {"lat": 38.861680166666666, "is_disabled": 0, "type": "electric_bike", "lon": -77.13142916666666, "bike_id": "e4103e80fca836ced3bfcacb92642da9", "fusion_lat": 0.0, "name": "e4103e80fca836ced3bfcacb92642da9", "is_reserved": 0, "rental_uris": {"android": "https://dc.lft.to/lastmile_qr_scan", "ios": "https://dc.lft.to/lastmile_qr_scan"}, "fusion_lon": 0.0}, {"lat": 38.908624, "is_disabled": 0, "type": "electric_scooter", "lon": -77.02347716666667, "bike_id": "4a3d40ef0cfb498cb0360f536a7b8cff", "fusion_lat": 0.0, "name": "4a3d40ef0cfb498cb0360f536a7b8cff", "is_reserved": 0, "rental_uris": {"android": "https://dc.lft.to/lastmile_qr_scan", "ios": "https://dc.lft.to/lastmile_qr_scan"}, "fusion_lon": 0.0}, {"lat": 38.9000575, "is_disabled": 0, "type": "electric_scooter", "lon": -76.99839966666667, "bike_id": "d57eaa861d87a873d29b31e1c30701ba", "fusion_lat": 0.0, "name": "d57eaa861d87a873d29b31e1c30701ba", "is_reserved": 0, "rental_uris": {"android": "https://dc.lft.to/lastmile_qr_scan", "ios": "https://dc.lft.to/lastmile_qr_scan"}, "fusion_lon": 0.0}, {"lat": 38.89624233333333, "is_disabled": 0, "type": "electric_scooter", "lon": -77.044909, "bike_id": "849d6a0212c5c6feacfd54d3509c9142", "fusion_lat": 0.0, "name": "849d6a0212c5c6feacfd54d3509c9142", "is_reserved": 0, "rental_uris": {"android": "https://dc.lft.to/lastmile_qr_scan", "ios": "https://dc.lft.to/lastmile_qr_scan"}, "fusion_lon": 0.0}, {"lat": 38.92169333333333, "is_disabled": 0, "type": "electric_scooter", "lon": -77.0338715, "bike_id": "fab689f1095d327f58a3025d22b45025", "fusion_lat": 0.0, "name": "fab689f1095d327f58a3025d22b45025", "is_reserved": 0, "rental_uris": {"android": "https://dc.lft.to/lastmile_qr_scan", "ios": "https://dc.lft.to/lastmile_qr_scan"}, "fusion_lon": 0.0}, {"lat": 38.913769, "is_disabled": 0, "type": "electric_scooter", "lon": -77.00456366666667, "bike_id": "43d1af526ff4cbb24fe27a0f4370714b", "fusion_lat": 0.0, "name": "43d1af526ff4cbb24fe27a0f4370714b", "is_reserved": 0, "rental_uris": {"android": "https://dc.lft.to/lastmile_qr_scan", "ios": "https://dc.lft.to/lastmile_qr_scan"}, "fusion_lon": 0.0}, {"lat": 38.90082016666667, "is_disabled": 0, "type": "electric_scooter", "lon": -77.00354533333334, "bike_id": "568b999852fdc1ce90478eed09b24dc3", "fusion_lat": 0.0, "name": "568b999852fdc1ce90478eed09b24dc3", "is_reserved": 0, "rental_uris": {"android": "https://dc.lft.to/lastmile_qr_scan", "ios": "https://dc.lft.to/lastmile_qr_scan"}, "fusion_lon": 0.0}, {"lat": 38.950947, "is_disabled": 0, "type": "electric_scooter", "lon": -77.02338016666667, "bike_id": "f41b4158f0c7c61653148fefaa0f8c8f", "fusion_lat": 0.0, "name": "f41b4158f0c7c61653148fefaa0f8c8f", "is_reserved": 0, "rental_uris": {"android": "https://dc.lft.to/lastmile_qr_scan", "ios": "https://dc.lft.to/lastmile_qr_scan"}, "fusion_lon": 0.0}, {"lat": 38.90309533333333, "is_disabled": 0, "type": "electric_scooter", "lon": -76.97803033333334, "bike_id": "5692c1696fd57c21d28486c197c807b6", "fusion_lat": 0.0, "name": "5692c1696fd57c21d28486c197c807b6", "is_reserved": 0, "rental_uris": {"android": "https://dc.lft.to/lastmile_qr_scan", "ios": "https://dc.lft.to/lastmile_qr_scan"}, "fusion_lon": 0.0}, {"lat": 38.910090833333335, "is_disabled": 0, "type": "electric_scooter", "lon": -77.0889915, "bike_id": "adf9afca6fb531688828b881cc452b1f", "fusion_lat": 0.0, "name": "adf9afca6fb531688828b881cc452b1f", "is_reserved": 0, "rental_uris": {"android": "https://dc.lft.to/lastmile_qr_scan", "ios": "https://dc.lft.to/lastmile_qr_scan"}, "fusion_lon": 0.0}, {"lat": 38.92458216666667, "is_disabled": 0, "type": "electric_bike", "lon": -76.97556916666667, "bike_id": "440e38af204051d530b46c8602eac0b8", "fusion_lat": 0.0, "name": "440e38af204051d530b46c8602eac0b8", "is_reserved": 0, "rental_uris": {"android": "https://dc.lft.to/lastmile_qr_scan", "ios": "https://dc.lft.to/lastmile_qr_scan"}, "fusion_lon": 0.0}, {"lat": 38.87230783333333, "is_disabled": 0, "type": "electric_bike", "lon": -77.0118775, "bike_id": "4201184c3b230dc15297d480b8067f99", "fusion_lat": 0.0, "name": "4201184c3b230dc15297d480b8067f99", "is_reserved": 0, "rental_uris": {"android": "https://dc.lft.to/lastmile_qr_scan", "ios": "https://dc.lft.to/lastmile_qr_scan"}, "fusion_lon": 0.0}, {"lat": 38.91881083333333, "is_disabled": 0, "type": "electric_scooter", "lon": -77.03494783333333, "bike_id": "816db1184d9dd8bbdf5c3ea25f3e2d40", "fusion_lat": 0.0, "name": "816db1184d9dd8bbdf5c3ea25f3e2d40", "is_reserved": 0, "rental_uris": {"android": "https://dc.lft.to/lastmile_qr_scan", "ios": "https://dc.lft.to/lastmile_qr_scan"}, "fusion_lon": 0.0}, {"lat": 38.810480166666665, "is_disabled": 0, "type": "electric_bike", "lon": -77.0850975, "bike_id": "b896c360ca421fac9e7d104cbdc10efd", "fusion_lat": 0.0, "name": "b896c360ca421fac9e7d104cbdc10efd", "is_reserved": 0, "rental_uris": {"android": "https://dc.lft.to/lastmile_qr_scan", "ios": "https://dc.lft.to/lastmile_qr_scan"}, "fusion_lon": 0.0}, {"lat": 38.8442465, "is_disabled": 0, "type": "electric_scooter", "lon": -76.99775316666667, "bike_id": "bd81c8fe443f47d43a9d602e3f42813d", "fusion_lat": 0.0, "name": "bd81c8fe443f47d43a9d602e3f42813d", "is_reserved": 0, "rental_uris": {"android": "https://dc.lft.to/lastmile_qr_scan", "ios": "https://dc.lft.to/lastmile_qr_scan"}, "fusion_lon": 0.0}, {"lat": 38.94596766666667, "is_disabled": 0, "type": "electric_scooter", "lon": -77.070331, "bike_id": "91553c80ddff8853af08b6a1c7d2fb18", "fusion_lat": 0.0, "name": "91553c80ddff8853af08b6a1c7d2fb18", "is_reserved": 0, "rental_uris": {"android": "https://dc.lft.to/lastmile_qr_scan", "ios": "https://dc.lft.to/lastmile_qr_scan"}, "fusion_lon": 0.0}, {"lat": 38.9260715, "is_disabled": 0, "type": "electric_scooter", "lon": -77.05692033333334, "bike_id": "3f7edbb827e69ea570eb6631cac44c39", "fusion_lat": 0.0, "name": "3f7edbb827e69ea570eb6631cac44c39", "is_reserved": 0, "rental_uris": {"android": "https://dc.lft.to/lastmile_qr_scan", "ios": "https://dc.lft.to/lastmile_qr_scan"}, "fusion_lon": 0.0}, {"lat": 38.90382116666667, "is_disabled": 0, "type": "electric_scooter", "lon": -77.05330583333334, "bike_id": "0c2042d54b29cb096f56faeaf245e51c", "fusion_lat": 0.0, "name": "0c2042d54b29cb096f56faeaf245e51c", "is_reserved": 0, "rental_uris": {"android": "https://dc.lft.to/lastmile_qr_scan", "ios": "https://dc.lft.to/lastmile_qr_scan"}, "fusion_lon": 0.0}, {"lat": 38.89366416666667, "is_disabled": 0, "type": "electric_scooter", "lon": -76.99108583333333, "bike_id": "303e680b83dbfeba9556fe590dd1d6ff", "fusion_lat": 0.0, "name": "303e680b83dbfeba9556fe590dd1d6ff", "is_reserved": 0, "rental_uris": {"android": "https://dc.lft.to/lastmile_qr_scan", "ios": "https://dc.lft.to/lastmile_qr_scan"}, "fusion_lon": 0.0}, {"lat": 38.921095, "is_disabled": 0, "type": "electric_scooter", "lon": -77.04217983333334, "bike_id": "7e5efbc732f831193ea883de96a04903", "fusion_lat": 0.0, "name": "7e5efbc732f831193ea883de96a04903", "is_reserved": 0, "rental_uris": {"android": "https://dc.lft.to/lastmile_qr_scan", "ios": "https://dc.lft.to/lastmile_qr_scan"}, "fusion_lon": 0.0}, {"lat": 38.9155105, "is_disabled": 0, "type": "electric_scooter", "lon": -77.00978866666667, "bike_id": "9dd9d514476045a7927b14e143ba35b0", "fusion_lat": 0.0, "name": "9dd9d514476045a7927b14e143ba35b0", "is_reserved": 0, "rental_uris": {"android": "https://dc.lft.to/lastmile_qr_scan", "ios": "https://dc.lft.to/lastmile_qr_scan"}, "fusion_lon": 0.0}, {"lat": 38.854394166666665, "is_disabled": 0, "type": "electric_bike", "lon": -76.909721, "bike_id": "f50357e34f45ea2fd3dcd8938d85eb39", "fusion_lat": 0.0, "name": "f50357e34f45ea2fd3dcd8938d85eb39", "is_reserved": 0, "rental_uris": {"android": "https://dc.lft.to/lastmile_qr_scan", "ios": "https://dc.lft.to/lastmile_qr_scan"}, "fusion_lon": 0.0}, {"lat": 38.904891666666664, "is_disabled": 0, "type": "electric_scooter", "lon": -76.99547083333333, "bike_id": "196bf936690a165503f40df833fb2d81", "fusion_lat": 0.0, "name": "196bf936690a165503f40df833fb2d81", "is_reserved": 0, "rental_uris": {"android": "https://dc.lft.to/lastmile_qr_scan", "ios": "https://dc.lft.to/lastmile_qr_scan"}, "fusion_lon": 0.0}, {"lat": 38.92379866666667, "is_disabled": 0, "type": "electric_scooter", "lon": -77.02761466666666, "bike_id": "85d4c9bbb959afa2a36ad588fa771c79", "fusion_lat": 0.0, "name": "85d4c9bbb959afa2a36ad588fa771c79", "is_reserved": 0, "rental_uris": {"android": "https://dc.lft.to/lastmile_qr_scan", "ios": "https://dc.lft.to/lastmile_qr_scan"}, "fusion_lon": 0.0}, {"lat": 38.877467, "is_disabled": 0, "type": "electric_bike", "lon": -76.9951595, "bike_id": "69045ac27fed9e3af15f7b234860801c", "fusion_lat": 0.0, "name": "69045ac27fed9e3af15f7b234860801c", "is_reserved": 0, "rental_uris": {"android": "https://dc.lft.to/lastmile_qr_scan", "ios": "https://dc.lft.to/lastmile_qr_scan"}, "fusion_lon": 0.0},