{"data": {"bikes": [{"is_reserved": 0, "fusion_lon": 0.0, "fusion_lat": 0.0, "name": "766adb7fb0713495777dd39754f1cba5", "type": "electric_scooter", "is_disabled": 0, "lat": 38.897468, "rental_uris": {"android": "https://dc.lft.to/lastmile_qr_scan", "ios": "https://dc.lft.to/lastmile_qr_scan"}, "bike_id": "766adb7fb0713495777dd39754f1cba5", "lon": -77.04722833333334}, {"is_reserved": 0, "fusion_lon": 0.0, "fusion_lat": 0.0, "name": "430a6e5cb4ab189078f866f605827314", "type": "electric_scooter", "is_disabled": 0, "lat": 38.912650166666666, "rental_uris": {"android": "https://dc.lft.to/lastmile_qr_scan", "ios": "https://dc.lft.to/lastmile_qr_scan"}, "bike_id": "430a6e5cb4ab189078f866f605827314", "lon": -77.03172716666667}, {"is_reserved": 0, "fusion_lon": 0.0, "fusion_lat": 0.0, "name": "5275619d5bd97c84bea706d2225f0a8d", "type": "electric_scooter", "is_disabled": 0, "lat": 38.899298, "rental_uris": {"android": "https://dc.lft.to/lastmile_qr_scan", "ios": "https://dc.lft.to/lastmile_qr_scan"}, "bike_id": "5275619d5bd97c84bea706d2225f0a8d", "lon": -76.94573433333333}, {"is_reserved": 0, "fusion_lon": 0.0, "fusion_lat": 0.0, "name": "4fa8caea57292bbe4361eb361880d5a7", "type": "electric_scooter", "is_disabled": 0, "lat": 38.8938995, "rental_uris": {"android": "https://dc.lft.to/lastmile_qr_scan", "ios": "https://dc.lft.to/lastmile_qr_scan"}, "bike_id": "4fa8caea57292bbe4361eb361880d5a7", "lon": -77.0225075}, {"is_reserved": 0, "fusion_lon": 0.0, "fusion_lat": 0.0, "name": "4e115b2c543c823c5a84938dad812ed8", "type": "electric_scooter", "is_disabled": 0, "lat": 38.90812366666667, "rental_uris": {"android": "https://dc.lft.to/lastmile_qr_scan", "ios": "https://dc.lft.to/lastmile_qr_scan"}, "bike_id": "4e115b2c543c823c5a84938dad812ed8", "lon": -77.03446766666667}, {"is_reserved": 0, "fusion_lon": 0.0, "fusion_lat": 0.0, "name": "237eb8a9c09dea82610715a31ab48990", "type": "electric_scooter", "is_disabled": 0, "lat": 38.93232866666666, "rental_uris": {"android": "https://dc.lft.to/lastmile_qr_scan", "ios": "https://dc.lft.to/lastmile_qr_scan"}, "bike_id": "237eb8a9c09dea82610715a31ab48990", "lon": -77.03859583333333}, {"is_reserved": 0, "fusion_lon": 0.0, "fusion_lat": 0.0, "name": "d2f332f21f899188283f81910a124efd", "type": "electric_scooter", "is_disabled": 0, "lat": 38.91732366666667, "rental_uris": {"android": "https://dc.lft.to/lastmile_qr_scan", "ios": "https://dc.lft.to/lastmile_qr_scan"}, "bike_id": "d2f332f21f899188283f81910a124efd", "lon": -77.0684395}, {"is_reserved": 0, "fusion_lon": 0.0, "fusion_lat": 0.0, "name": "fe6b7ddef766f66f727ef0b7dcf65cc2", "type": "electric_scooter", "is_disabled": 0, "lat": 38.89900433333333, "rental_uris": {"android": "https://dc.lft.to/lastmile_qr_scan", "ios": "https://dc.lft.to/lastmile_qr_scan"}, "bike_id": "fe6b7ddef766f66f727ef0b7dcf65cc2", "lon": -76.9915885}, {"is_reserved": 0, "fusion_lon": 0.0, "fusion_lat": 0.0, "name": "aff30583401c0c55549aec69dfaf408f", "type": "electric_scooter", "is_disabled": 0, "lat": 38.871159666666664, "rental_uris": {"android": "https://dc.lft.to/lastmile_qr_scan", "ios": "https://dc.lft.to/lastmile_qr_scan"}, "bike_id": "aff30583401c0c55549aec69dfaf408f", "lon": -77.00754033333334}, {"is_reserved": 0, "fusion_lon": 0.0, "fusion_lat": 0.0, "name": "1b3a287a1c2fb6630f0ed711d69c63fc", "type": "electric_scooter", "is_disabled": 0, "lat": 38.90495216666667, "rental_uris": {"android": "https://dc.lft.to/lastmile_qr_scan", "ios": "https://dc.lft.to/lastmile_qr_scan"}, "bike_id": "1b3a287a1c2fb6630f0ed711d69c63fc", "lon": -76.97931266666667}, {"is_reserved": 0, "fusion_lon": 0.0, "fusion_lat": 0.0, "name": "64d809eecb60ea52a6f0af57179e86d3", "type": "electric_scooter", "is_disabled": 0, "lat": 38.89914266666667, "rental_uris": {"android": "https://dc.lft.to/lastmile_qr_scan", "ios": "https://dc.lft.to/lastmile_qr_scan"}, "bike_id": "64d809eecb60ea52a6f0af57179e86d3", "lon": -76.9338535}, {"is_reserved": 0, "fusion_lon": 0.0, "fusion_lat": 0.0, "name": "ddc8b60b5d8b90dcca6d4b8bc348e703", "type": "electric_bike", "is_disabled": 0, "lat": 38.96620716666666, "rental_uris": {"android": "https://dc.lft.to/lastmile_qr_scan", "ios": "https://dc.lft.to/lastmile_qr_scan"}, "bike_id": "ddc8b60b5d8b90dcca6d4b8bc348e703", "lon": -77.0343645}, {"is_reserved": 0, "fusion_lon": 0.0, "fusion_lat": 0.0, "name": "fd6df1035208e99bc17d333612d61317", "type": "electric_bike", "is_disabled": 0, "lat": 38.89348316666667, "rental_uris": {"android": "https://dc.lft.to/lastmile_qr_scan", "ios": "https://dc.lft.to/lastmile_qr_scan"}, "bike_id": "fd6df1035208e99bc17d333612d61317", "lon": -77.18737566666667}, {"is_reserved": 0, "fusion_lon": 0.0, "fusion_lat": 0.0, "name": "f9a1be15b6df7c8779dc07fcb64b2d55", "type": "electric_scooter", "is_disabled": 0, "lat": 38.92165966666666, "rental_uris": {"android": "https://dc.lft.to/lastmile_qr_scan", "ios": "https://dc.lft.to/lastmile_qr_scan"}, "bike_id": "f9a1be15b6df7c8779dc07fcb64b2d55", "lon": -77.043591}, {"is_reserved": 0, "fusion_lon": 0.0, "fusion_lat": 0.0, "name": "03afaaac169ab141ac868ab4e1848b4b", "type": "electric_bike", "is_disabled": 0, "lat": 38.85418033333333, "rental_uris": {"android": "https://dc.lft.to/lastmile_qr_scan", "ios": "https://dc.lft.to/lastmile_qr_scan"}, "bike_id": "03afaaac169ab141ac868ab4e1848b4b", "lon": -77.120797}, {"is_reserved": 0, "fusion_lon": 0.0, "fusion_lat": 0.0, "name": "35fd2dc1e9176e5335f1d4053855737e", "type": "electric_scooter", "is_disabled": 0, "lat": 38.90466966666666, "rental_uris": {"android": "https://dc.lft.to/lastmile_qr_scan", "ios": "https://dc.lft.to/lastmile_qr_scan"}, "bike_id": "35fd2dc1e9176e5335f1d4053855737e", "lon": -77.0356325}, {"is_reserved": 0, "fusion_lon": 0.0, "fusion_lat": 0.0, "name": "0e903870e930db7159c3e40fa20a32a9", "type": "electric_scooter", "is_disabled": 0, "lat": 38.9110125, "rental_uris": {"android": "https://dc.lft.to/lastmile_qr_scan", "ios": "https://dc.lft.to/lastmile_qr_scan"}, "bike_id": "0e903870e930db7159c3e40fa20a32a9", "lon": -77.04482733333333}, {"is_reserved": 0, "fusion_lon": 0.0, "fusion_lat": 0.0, "name": "7d35cd834339fcc7a98523cd93ba5e41", "type": "electric_scooter", "is_disabled": 0, "lat": 38.90413083333333, "rental_uris": {"android": "https://dc.lft.to/lastmile_qr_scan", "ios": "https://dc.lft.to/lastmile_qr_scan"}, "bike_id": "7d35cd834339fcc7a98523cd93ba5e41", "lon": -77.03091566666667}, {"is_reserved": 0, "fusion_lon": 0.0, "fusion_lat": 0.0, "name": "81f2b0e62bf3f0e0622e37e9279f6f93", "type": "electric_bike", "is_disabled": 0, "lat": 38.873031833333336, "rental_uris": {"android": "https://dc.lft.to/lastmile_qr_scan", "ios": "https://dc.lft.to/lastmile_qr_scan"}, "bike_id": "81f2b0e62bf3f0e0622e37e9279f6f93", "lon": -77.13923716666666}, {"is_reserved": 0, "fusion_lon": 0.0, "fusion_lat": 0.0, "name": "6b0ebfc29bc08fd67337e8d9542701c7", "type": "electric_scooter", "is_disabled": 0, "lat": 38.936227333333335, "rental_uris": {"android": "https://dc.lft.to/lastmile_qr_scan", "ios": "https://dc.lft.to/lastmile_qr_scan"}, "bike_id": "6b0ebfc29bc08fd67337e8d9542701c7", "lon": -77.06758116666667}, {"is_reserved": 0, "fusion_lon": 0.0, "fusion_lat": 0.0, "name": "30ed1217fcba6161f59ce12d8ada4f34", "type": "electric_scooter", "is_disabled": 0, "lat": 38.9501525, "rental_uris": {"android": "https://dc.lft.to/lastmile_qr_scan", "ios": "https://dc.lft.to/lastmile_qr_scan"}, "bike_id": "30ed1217fcba6161f59ce12d8ada4f34", "lon": -77.06747166666666}, {"is_reserved": 0, "fusion_lon": 0.0, "fusion_lat": 0.0, "name": "9d353429fd4c6b41b6937386a81b4e86", "type": "electric_scooter", "is_disabled": 0, "lat": 38.916841833333336, "rental_uris": {"android": "https://dc.lft.to/lastmile_qr_scan", "ios": "https://dc.lft.to/lastmile_qr_scan"}, "bike_id": "9d353429fd4c6b41b6937386a81b4e86", "lon": -77.02901133333333}, {"is_reserved": 0, "fusion_lon": 0.0, "fusion_lat": 0.0, "name": "3730c3286261f83383cec6ba29c45ee0", "type": "electric_scooter", "is_disabled": 0, "lat": 38.897474333333335, "rental_uris": {"android": "https://dc.lft.to/lastmile_qr_scan", "ios": "https://dc.lft.to/lastmile_qr_scan"}, "bike_id": "3730c3286261f83383cec6ba29c45ee0", "lon": -77.0441595}, {"is_reserved": 0, "fusion_lon": 0.0, "fusion_lat": 0.0, "name": "c3e30a70fdf9ce797e404f0dc7e9c333", "type": "electric_scooter", "is_disabled": 0, "lat": 38.896181166666665, "rental_uris": {"android": "https://dc.lft.to/lastmile_qr_scan", "ios": "https://dc.lft.to/lastmile_qr_scan"}, "bike_id": "c3e30a70fdf9ce797e404f0dc7e9c333", "lon": -77.03173833333334}, {"is_reserved": 0, "fusion_lon": 0.0, "fusion_lat": 0.0, "name": "5a1679890eb1c8b5684baf3be64e12da", "type": "electric_scooter", "is_disabled": 0, "lat": 38.92345133333333, "rental_uris": {"android": "https://dc.lft.to/lastmile_qr_scan", "ios": "https://dc.lft.to/lastmile_qr_scan"}, "bike_id": "5a1679890eb1c8b5684baf3be64e12da", "lon": -77.0349735}, {"is_reserved": 0, "fusion_lon": 0.0, "fusion_lat": 0.0, "name": "fbdba78777d6d1910fff561595583a6e", "type": "electric_bike", "is_disabled": 0, "lat": 38.85373933333333, "rental_uris": {"android": "https://dc.lft.to/lastmile_qr_scan", "ios": "https://dc.lft.to/lastmile_qr_scan"}, "bike_id": "fbdba78777d6d1910fff561595583a6e", "lon": -77.12463916666667}, {"is_reserved": 0, "fusion_lon": 0.0, "fusion_lat": 0.0, "name": "d88231a5dfa2fae7e32de1eafdbb10fa", "type": "electric_scooter", "is_disabled": 0, "lat": 38.90625683333333, "rental_uris": {"android": "https://dc.lft.to/lastmile_qr_scan", "ios": "https://dc.lft.to/lastmile_qr_scan"}, "bike_id": "d88231a5dfa2fae7e32de1eafdbb10fa", "lon": -77.04129316666666}, {"is_reserved": 0, "fusion_lon": 0.0, "fusion_lat": 0.0, "name": "b09064bff5e1490a63831a13280774d6", "type": "electric_scooter", "is_disabled": 0, "lat": 38.909762666666666, "rental_uris": {"android": "https://dc.lft.to/lastmile_qr_scan", "ios": "https://dc.lft.to/lastmile_qr_scan"}, "bike_id": "b09064bff5e1490a63831a13280774d6", "lon": -77.03184766666666}, {"is_reserved": 0, "fusion_lon": 0.0, "fusion_lat": 0.0, "name": "d011ec218b6172987f6185f33b7877fb", "type": "electric_scooter", "is_disabled": 0, "lat": 38.928507833333335, "rental_uris": {"android": "https://dc.lft.to/lastmile_qr_scan", "ios": "https://dc.lft.to/lastmile_qr_scan"}, "bike_id": "d011ec218b6172987f6185f33b7877fb", "lon": -77.03730983333334}, {"is_reserved": 0, "fusion_lon": 0.0, "fusion_lat": 0.0, "name": "92b3871188f73f26a9aad08c61249bc8", "type": "electric_scooter", "is_disabled": 0, "lat": 38.908038, "rental_uris": {"android": "https://dc.lft.to/lastmile_qr_scan", "ios": "https://dc.lft.to/lastmile_qr_scan"}, "bike_id": "92b3871188f73f26a9aad08c61249bc8", "lon": -77.0435395}, {"is_reserved": 0, "fusion_lon": 0.0, "fusion_lat": 0.0, "name": "48b4f98b37ef7bae7cffe53b974f1a14", "type": "electric_scooter", "is_disabled": 0, "lat": 38.9059355, "rental_uris": {"android": "https://dc.lft.to/lastmile_qr_scan", "ios": "https://dc.lft.to/lastmile_qr_scan"}, "bike_id": "48b4f98b37ef7bae7cffe53b974f1a14", "lon": -77.03469533333333}, {"is_reserved": 0, "fusion_lon": 0.0, "fusion_lat": 0.0, "name": "df4395594e5138f844eed9c45a6b7828", "type": "electric_scooter", "is_disabled": 0, "lat": 38.9182, "rental_uris": {"android": "https://dc.lft.to/lastmile_qr_scan", "ios": "https://dc.lft.to/lastmile_qr_scan"}, "bike_id": "df4395594e5138f844eed9c45a6b7828", "lon": -77.03459066666667}, {"is_reserved": 0, "fusion_lon": 0.0, "fusion_lat": 0.0, "name": "742f9054d8642653d68f9cb77fc1a1fb", "type": "electric_scooter", "is_disabled": 0, "lat": 38.90013883333334, "rental_uris": {"android": "https://dc.lft.to/lastmile_qr_scan", "ios": "https://dc.lft.to/lastmile_qr_scan"}, "bike_id": "742f9054d8642653d68f9cb77fc1a1fb", "lon": -76.93028383333333}, {"is_reserved": 0, "fusion_lon": 0.0, "fusion_lat": 0.0, "name": "ad7e3184f8e643342b47c5a4ab741662", "type": "electric_scooter", "is_disabled": 0, "lat": 38.93256016666667, "rental_uris": {"android": "https://dc.lft.to/lastmile_qr_scan", "ios": "https://dc.lft.to/lastmile_qr_scan"}, "bike_id": "ad7e3184f8e643342b47c5a4ab741662", "lon": -77.03281833333334}, {"is_reserved": 0, "fusion_lon": 0.0, "fusion_lat": 0.0, "name": "03aa71316011142680ae804c808be16f", "type": "electric_scooter", "is_disabled": 0, "lat": 38.892336, "rental_uris": {"android": "https://dc.lft.to/lastmile_qr_scan", "ios": "https://dc.lft.to/lastmile_qr_scan"}, "bike_id": "03aa71316011142680ae804c808be16f", "lon": -77.02385666666666}, {"is_reserved": 0, "fusion_lon": 0.0, "fusion_lat": 0.0, "name": "d2346a1fcdce1e538e529041e8adf95d", "type": "electric_scooter", "is_disabled": 0, "lat": 38.8669855, "rental_uris": {"android": "https://dc.lft.to/lastmile_qr_scan", "ios": "https://dc.lft.to/lastmile_qr_scan"}, "bike_id": "d2346a1fcdce1e538e529041e8adf95d", "lon": -76.9859295}, {"is_reserved": 0, "fusion_lon": 0.0, "fusion_lat": 0.0, "name": "47b0e206ad27fc5c4c698bcd6af88cea", "type": "electric_scooter", "is_disabled": 0, "lat": 38.925366833333335, "rental_uris": {"android": "https://dc.lft.to/lastmile_qr_scan", "ios": "https://dc.lft.to/lastmile_qr_scan"}, "bike_id": "47b0e206ad27fc5c4c698bcd6af88cea", "lon": -76.97219416666667}, {"is_reserved": 0, "fusion_lon": 0.0, "fusion_lat": 0.0, "name": "62a46ff688ee2dc9288973b5933c0f2a", "type": "electric_bike", "is_disabled": 0, "lat": 39.057877833333336, "rental_uris": {"android": "https://dc.lft.to/lastmile_qr_scan", "ios": "https://dc.lft.to/lastmile_qr_scan"}, "bike_id": "62a46ff688ee2dc9288973b5933c0f2a", "lon": -77.15022516666667}, {"is_reserved": 0, "fusion_lon": 0.0, "fusion_lat": 0.0, "name": "00d90e562148f3d5e478eaa5f0a7c94a", "type": "electric_scooter", "is_disabled": 0, "lat": 38.925839333333336, "rental_uris": {"android": "https://dc.lft.to/lastmile_qr_scan", "ios": "https://dc.lft.to/lastmile_qr_scan"}, "bike_id": "00d90e562148f3d5e478eaa5f0a7c94a", "lon": -77.02683616666667}, {"is_reserved": 0, "fusion_lon": 0.0, "fusion_lat": 0.0, "name": "96a0eaf04fb030e0243e52174d2c248f", "type": "electric_scooter", "is_disabled": 0, "lat": 38.8952055, "rental_uris": {"android": "https://dc.lft.to/lastmile_qr_scan", "ios": "https://dc.lft.to/lastmile_qr_scan"}, "bike_id": "96a0eaf04fb030e0243e52174d2c248f", "lon": -77.039633}, {"is_reserved": 0, "fusion_lon": 0.0, "fusion_lat": 0.0, "name": "7fefd438df964df997a9e2730cf53c72", "type": "electric_scooter", "is_disabled": 0, "lat": 38.903557166666666, "rental_uris": {"android": "https://dc.lft.to/lastmile_qr_scan", "ios": "https://dc.lft.to/lastmile_qr_scan"}, "bike_id": "7fefd438df964df997a9e2730cf53c72", "lon": -77.0534305}, {"is_reserved": 0, "fusion_lon": 0.0, "fusion_lat": 0.0, "name": "5c1c62c42ecc37ac885dd564fc83dc29", "type": "electric_scooter", "is_disabled": 0, "lat": 38.9244005, "rental_uris": {"android": "https://dc.lft.to/lastmile_qr_scan", "ios": "https://dc.lft.to/lastmile_qr_scan"}, "bike_id": "5c1c62c42ecc37ac885dd564fc83dc29", "lon": -77.05752783333334}, {"is_reserved": 0, "fusion_lon": 0.0, "fusion_lat": 0.0, "name": "6a3b08bff7f393a7c63246fa1541ab2d", "type": "electric_scooter", "is_disabled": 0, "lat": 38.92323833333333, "rental_uris": {"android": "https://dc.lft.to/lastmile_qr_scan", "ios": "https://dc.lft.to/lastmile_qr_scan"}, "bike_id": "6a3b08bff7f393a7c63246fa1541ab2d", "lon": -77.03547166666667}, {"is_reserved": 0, "fusion_lon": 0.0, "fusion_lat": 0.0, "name": "d173c93a6801f001de0df4badad0d1d9", "type": "electric_scooter", "is_disabled": 0, "lat": 38.91044816666667, "rental_uris": {"android": "https://dc.lft.to/lastmile_qr_scan", "ios": "https://dc.lft.to/lastmile_qr_scan"}, "bike_id": "d173c93a6801f001de0df4badad0d1d9", "lon": -77.04110716666666}, {"is_reserved": 0, "fusion_lon": 0.0, "fusion_lat": 0.0, "name": "e52e1cfc802e22962c4badc4188594c3", "type": "electric_scooter", "is_disabled": 0, "lat": 38.930409833333336, "rental_uris": {"android": "https://dc.lft.to/lastmile_qr_scan", "ios": "https://dc.lft.to/lastmile_qr_scan"}, "bike_id": "e52e1cfc802e22962c4badc4188594c3", "lon": -77.037981}, {"is_reserved": 0, "fusion_lon": 0.0, "fusion_lat": 0.0, "name": "c53762aacf23b298f30bb3e14726644a", "type": "electric_scooter", "is_disabled": 0, "lat": 38.92194633333333, "rental_uris": {"android": "https://dc.lft.to/lastmile_qr_scan", "ios": "https://dc.lft.to/lastmile_qr_scan"}, "bike_id": "c53762aacf23b298f30bb3e14726644a", "lon": -77.0423585}, {"is_reserved": 0, "fusion_lon": 0.0, "fusion_lat": 0.0, "name": "9568b5fb8e0ff397c5c1e65e32d4dac5", "type": "electric_scooter", "is_disabled": 0, "lat": 38.89729416666667, "rental_uris": {"android": "https://dc.lft.to/lastmile_qr_scan", "ios": "https://dc.lft.to/lastmile_qr_scan"}, "bike_id": "9568b5fb8e0ff397c5c1e65e32d4dac5", "lon": -77.05469883333333}, {"is_reserved": 0, "fusion_lon": 0.0, "fusion_lat": 0.0, "name": "17c05d8b7829ff0bad58bf05d78ccc5b", "type": "electric_scooter", "is_disabled": 0, "lat": 38.953284, "rental_uris": {"android": "https://dc.lft.to/lastmile_qr_scan", "ios": "https://dc.lft.to/lastmile_qr_scan"}, "bike_id": "17c05d8b7829ff0bad58bf05d78ccc5b", "lon": -77.07071983333333}, {"is_reserved": 0, "fusion_lon": 0.0, "fusion_lat": 0.0, "name": "298067008305890d2233b34e0702471f", "type": "electric_scooter", "is_disabled": 0, "lat": 38.91118616666667, "rental_uris": {"android": "https://dc.lft.to/lastmile_qr_scan", "ios": "https://dc.lft.to/lastmile_qr_scan"}, "bike_id": "298067008305890d2233b34e0702471f", "lon": -77.03831583333333}, {"is_reserved": 0, "fusion_lon": 0.0, "fusion_lat": 0.0, "name": "e1fa53d9f40a7b78c60acbf475eb0038", "type": "electric_scooter", "is_disabled": 0, "lat": 38.86658083333333, "rental_uris": {"android": "https://dc.lft.to/lastmile_qr_scan", "ios": "https://dc.lft.to/lastmile_qr_scan"}, "bike_id": "e1fa53d9f40a7b78c60acbf475eb0038", "lon": -76.98884616666666}, {"is_reserved": 0, "fusion_lon": 0.0, "fusion_lat": 0.0, "name": "22c77e70ad75b434a1975c6d1c4d0d21", "type": "electric_scooter", "is_disabled": 0, "lat": 38.869976333333334, "rental_uris": {"android": "https://dc.lft.to/lastmile_qr_scan", "ios": "https://dc.lft.to/lastmile_qr_scan"}, "bike_id": "22c77e70ad75b434a1975c6d1c4d0d21", "lon": -76.97591416666667}, {"is_reserved": 0, "fusion_lon": 0.0, "fusion_lat": 0.0, "name": "3b71de5e42e31d8a171672436f1ec924", "type": "electric_scooter", "is_disabled": 0, "lat": 38.9055665, "rental_uris": {"android": "https://dc.lft.to/lastmile_qr_scan", "ios": "https://dc.lft.to/lastmile_qr_scan"}, "bike_id": "3b71de5e42e31d8a171672436f1ec924", "lon": -77.00589533333333}, {"is_reserved": 0, "fusion_lon": 0.0, "fusion_lat": 0.0, "name": "4d61bed2f5567a7194600096a0d892b9", "type": "electric_scooter", "is_disabled": 0, "lat": 38.9025275, "rental_uris": {"android": "https://dc.lft.to/lastmile_qr_scan", "ios": "https://dc.lft.to/lastmile_qr_scan"}, "bike_id": "4d61bed2f5567a7194600096a0d892b9", "lon": -76.99560533333333}, {"is_reserved": 0, "fusion_lon": 0.0, "fusion_lat": 0.0, "name": "fb3a5794f9068e093c4d140683c7416a", "type": "electric_scooter", "is_disabled": 0, "lat": 38.87829516666667, "rental_uris": {"android": "https://dc.lft.to/lastmile_qr_scan", "ios": "https://dc.lft.to/lastmile_qr_scan"}, "bike_id": "fb3a5794f9068e093c4d140683c7416a", "lon": -76.96309233333334}, {"is_reserved": 0, "fusion_lon": 0.0, "fusion_lat": 0.0, "name": "3538a72016a59f6f99e62f5c322bcb09", "type": "electric_scooter", "is_disabled": 0, "lat": 38.984539833333336, "rental_uris": {"android": "https://dc.lft.to/lastmile_qr_scan", "ios": "https://dc.lft.to/lastmile_qr_scan"}, "bike_id": "3538a72016a59f6f99e62f5c322bcb09", "lon": -77.0264335}, {"is_reserved": 0, "fusion_lon": 0.0, "fusion_lat": 0.0, "name": "d479e883ff12faf1deed0dbe24744dcb", "type": "electric_scooter", "is_disabled": 0, "lat": 38.9323255, "rental_uris": {"android": "https://dc.lft.to/lastmile_qr_scan", "ios": "https://dc.lft.to/lastmile_qr_scan"}, "bike_id": "d479e883ff12faf1deed0dbe24744dcb", "lon": -77.038673}, {"is_reserved": 0, "fusion_lon": 0.0, "fusion_lat": 0.0, "name": "beb8a4d41b04a57ff595f2646dcf895d", "type": "electric_scooter", "is_disabled": 0, "lat": 38.915529, "rental_uris": {"android": "https://dc.lft.to/lastmile_qr_scan", "ios": "https://dc.lft.to/lastmile_qr_scan"}, "bike_id": "beb8a4d41b04a57ff595f2646dcf895d", "lon": -77.02046566666667}, {"is_reserved": 0, "fusion_lon": 0.0, "fusion_lat": 0.0, "name": "2ced6298cfc378d1f474fe941b1c39b8", "type": "electric_bike", "is_disabled": 0, "lat": 39.052782666666666, "rental_uris": {"android": "https://dc.lft.to/lastmile_qr_scan", "ios": "https://dc.lft.to/lastmile_qr_scan"}, "bike_id": "2ced6298cfc378d1f474fe941b1c39b8", "lon": -77.08066733333334}, {"is_reserved": 0, "fusion_lon": 0.0, "fusion_lat": 0.0, "name": "36ee838a878331abce212c7d30c33d0e", "type": "electric_scooter", "is_disabled": 0, "lat": 38.921169, "rental_uris": {"android": "https://dc.lft.to/lastmile_qr_scan", "ios": "https://dc.lft.to/lastmile_qr_scan"}, "bike_id": "36ee838a878331abce212c7d30c33d0e", "lon": -77.0411635}, {"is_reserved": 0, "fusion_lon": 0.0, "fusion_lat": 0.0, "name": "854a3c4c7165bdb8d7baca072a3ed939", "type": "electric_scooter", "is_disabled": 0, "lat": 38.887225666666666, "rental_uris": {"android": "https://dc.lft.to/lastmile_qr_scan", "ios": "https://dc.lft.to/lastmile_qr_scan"}, "bike_id": "854a3c4c7165bdb8d7baca072a3ed939", "lon": -77.028332}, {"is_reserved": 0, "fusion_lon": 0.0, "fusion_lat": 0.0, "name": "048c37ed64a1706d44176d505b4ae524", "type": "electric_scooter", "is_disabled": 0, "lat": 38.89875166666667, "rental_uris": {"android": "https://dc.lft.to/lastmile_qr_scan", "ios": "https://dc.lft.to/lastmile_qr_scan"}, "bike_id": "048c37ed64a1706d44176d505b4ae524", "lon": -76.92753283333333}, {"is_reserved": 0, "fusion_lon": 0.0, "fusion_lat": 0.0, "name": "b8e7d2b0b50056b2fa029311f8f062a5", "type": "electric_scooter", "is_disabled": 0, "lat": 38.913482, "rental_uris": {"android": "https://dc.lft.to/lastmile_qr_scan", "ios": "https://dc.lft.to/lastmile_qr_scan"}, "bike_id": "b8e7d2b0b50056b2fa029311f8f062a5", "lon": -77.01549183333333}, {"is_reserved": 0, "fusion_lon": 0.0, "fusion_lat": 0.0, "name": "036ce80de030b7a79f46c461445c22c6", "type": "electric_bike", "is_disabled": 0, "lat": 38.965059, "rental_uris": {"android": "https://dc.lft.to/lastmile_qr_scan", "ios": "https://dc.lft.to/lastmile_qr_scan"}, "bike_id": "036ce80de030b7a79f46c461445c22c6", "lon": -77.02822616666667}, {"is_reserved": 0, "fusion_lon": 0.0, "fusion_lat": 0.0, "name": "2a60ceb5c1bd86b5cefd1e44de127b99", "type": "electric_scooter", "is_disabled": 0, "lat": 38.890003, "rental_uris": {"android": "https://dc.lft.to/lastmile_qr_scan", "ios": "https://dc.lft.to/lastmile_qr_scan"}, "bike_id": "2a60ceb5c1bd86b5cefd1e44de127b99", "lon": -77.04897316666667}, {"is_reserved": 0, "fusion_lon": 0.0, "fusion_lat": 0.0, "name": "0296d165c73db655fc375166bf15f4eb", "type": "electric_scooter", "is_disabled": 0, "lat": 38.941268666666666, "rental_uris": {"android": "https://dc.lft.to/lastmile_qr_scan", "ios": "https://dc.lft.to/lastmile_qr_scan"}, "bike_id": "0296d165c73db655fc375166bf15f4eb", "lon": -77.015438}, {"is_reserved": 0, "fusion_lon": 0.0, "fusion_lat": 0.0, "name": "5384157ceb757ec8c465709e4562398f", "type": "electric_scooter", "is_disabled": 0, "lat": 38.88714783333333, "rental_uris": {"android": "https://dc.lft.to/lastmile_qr_scan", "ios": "https://dc.lft.to/lastmile_qr_scan"}, "bike_id": "5384157ceb757ec8c465709e4562398f", "lon": -77.01776266666667}, {"is_reserved": 0, "fusion_lon": 0.0, "fusion_lat": 0.0, "name": "006837a39a37a2ca6835b8386a66dfcf", "type": "electric_scooter", "is_disabled": 0, "lat": 38.88483883333333, "rental_uris": {"android": "https://dc.lft.to/lastmile_qr_scan", "ios": "https://dc.lft.to/lastmile_qr_scan"}, "bike_id": "006837a39a37a2ca6835b8386a66dfcf", "lon": -76.9261805}, {"is_reserved": 0, "fusion_lon": 0.0, "fusion_lat": 0.0, "name": "d85dd14233272dfbb4f56f989916a2b5", "type": "electric_scooter", "is_disabled": 0, "lat": 38.91476, "rental_uris": {"android": "https://dc.lft.to/lastmile_qr_scan", "ios": "https://dc.lft.to/lastmile_qr_scan"}, "bike_id": "d85dd14233272dfbb4f56f989916a2b5", "lon": -76.98363866666666}, {"is_reserved": 0, "fusion_lon": 0.0, "fusion_lat": 0.0, "name": "0c5eb859d7be990791954142492b379f", "type": "electric_scooter", "is_disabled": 0, "lat": 38.855387, "rental_uris": {"android": "https://dc.lft.to/lastmile_qr_scan", "ios": "https://dc.lft.to/lastmile_qr_scan"}, "bike_id": "0c5eb859d7be990791954142492b379f", "lon": -76.98420133333333}, {"is_reserved": 0, "fusion_lon": 0.0, "fusion_lat": 0.0, "name": "623354539a4b19fbd4fb9b550e2ec2aa", "type": "electric_bike", "is_disabled": 0, "lat": 38.89291433333333, "rental_uris": {"android": "https://dc.lft.to/lastmile_qr_scan", "ios": "https://dc.lft.to/lastmile_qr_scan"}, "bike_id": "623354539a4b19fbd4fb9b550e2ec2aa", "lon": -76.976189}, {"is_reserved": 0, "fusion_lon": 0.0, "fusion_lat": 0.0, "name": "d967b9711da35a934da6bc5999899f5a", "type": "electric_bike", "is_disabled": 0, "lat": 38.935691, "rental_uris": {"android": "https://dc.lft.to/lastmile_qr_scan", "ios": "https://dc.lft.to/lastmile_qr_scan"}, "bike_id": "d967b9711da35a934da6bc5999899f5a", "lon": -77.1085425}, {"is_reserved": 0, "fusion_lon": 0.0, "fusion_lat": 0.0, "name": "f8e5ddf069c1724a509ab28dc3a42b6f", "type": "electric_scooter", "is_disabled": 0, "lat": 38.9008235, "rental_uris": {"android": "https://dc.lft.to/lastmile_qr_scan", "ios": "https://dc.lft.to/lastmile_qr_scan"}, "bike_id": "f8e5ddf069c1724a509ab28dc3a42b6f", "lon": -76.93021733333333}, {"is_reserved": 0, "fusion_lon": 0.0, "fusion_lat": 0.0, "name": "e5a49b0f43472562a80744a8ce7c6248", "type": "electric_bike", "is_disabled": 0, "lat": 38.95653683333333, "rental_uris": {"android": "https://dc.lft.to/lastmile_qr_scan", "ios": "https://dc.lft.to/lastmile_qr_scan"}, "bike_id": "e5a49b0f43472562a80744a8ce7c6248", "lon": -77.01278266666667}, {"is_reserved": 0, "fusion_lon": 0.0, "fusion_lat": 0.0, "name": "6c3a59ce052568473d1477e2e8c851cd", "type": "electric_scooter", "is_disabled": 0, "lat": 38.921454833333335, "rental_uris": {"android": "https://dc.lft.to/lastmile_qr_scan", "ios": "https://dc.lft.to/lastmile_qr_scan"}, "bike_id": "6c3a59ce052568473d1477e2e8c851cd", "lon": -77.04527066666667}, {"is_reserved": 0, "fusion_lon": 0.0, "fusion_lat": 0.0, "name": "4038dc3a1d853c88747e07e83e8b57fa", "type": "electric_scooter", "is_disabled": 0, "lat": 38.90529516666667, "rental_uris": {"android": "https://dc.lft.to/lastmile_qr_scan", "ios": "https://dc.lft.to/lastmile_qr_scan"}, "bike_id": "4038dc3a1d853c88747e07e83e8b57fa", "lon": -77.032011}, {"is_reserved": 0, "fusion_lon": 0.0, "fusion_lat": 0.0, "name": "1d4800244b65f9ff1c6ca3a15d3a8012", "type": "electric_scooter", "is_disabled": 0, "lat": 38.917147, "rental_uris": {"android": "https://dc.lft.to/lastmile_qr_scan", "ios": "https://dc.lft.to/lastmile_qr_scan"}, "bike_id": "1d4800244b65f9ff1c6ca3a15d3a8012", "lon": -77.0386465}, {"is_reserved": 0, "fusion_lon": 0.0, "fusion_lat": 0.0, "name": "9579c036eef6fa0e8c012ced535cd206", "type": "electric_scooter", "is_disabled": 0, "lat": 38.904103166666665, "rental_uris": {"android": "https://dc.lft.to/lastmile_qr_scan", "ios": "https://dc.lft.to/lastmile_qr_scan"}, "bike_id": "9579c036eef6fa0e8c012ced535cd206", "lon": -76.97331816666667}, {"is_reserved": 0, "fusion_lon": 0.0, "fusion_lat": 0.0, "name": "91cc5ec1e100fb610ed54a55cc7a7316", "type": "electric_scooter", "is_disabled": 0, "lat": 38.885653833333336, "rental_uris": {"android": "https://dc.lft.to/lastmile_qr_scan", "ios": "https://dc.lft.to/lastmile_qr_scan"}, "bike_id": "91cc5ec1e100fb610ed54a55cc7a7316", "lon": -76.99797833333334}, {"is_reserved": 0, "fusion_lon": 0.0, "fusion_lat": 0.0, "name": "786f3b60ff9355228b03f90f265eb3cd", "type": "electric_scooter", "is_disabled": 0, "lat": 38.8767215, "rental_uris": {"android": "https://dc.lft.to/lastmile_qr_scan", "ios": "https://dc.lft.to/lastmile_qr_scan"}, "bike_id": "786f3b60ff9355228b03f90f265eb3cd", "lon": -77.00420433333333}, {"is_reserved": 0, "fusion_lon": 0.0, "fusion_lat": 0.0, "name": "d1f3d93abaa6c70ac56f057ce9d7c295", "type": "electric_scooter", "is_disabled": 0, "lat": 38.91098783333333, "rental_uris": {"android": "https://dc.lft.to/lastmile_qr_scan", "ios": "https://dc.lft.to/lastmile_qr_scan"}, "bike_id": "d1f3d93abaa6c70ac56f057ce9d7c295", "lon": -77.02802283333334}, {"is_reserved": 0, "fusion_lon": 0.0, "fusion_lat": 0.0, "name": "1cad9af180e011a402d3ed00a7a4b521", "type": "electric_scooter", "is_disabled": 0, "lat": 38.934057, "rental_uris": {"android": "https://dc.lft.to/lastmile_qr_scan", "ios": "https://dc.lft.to/lastmile_qr_scan"}, "bike_id": "1cad9af180e011a402d3ed00a7a4b521", "lon": -77.03264316666667}, {"is_reserved": 0, "fusion_lon": 0.0, "fusion_lat": 0.0, "name": "190133c5cfdc48409a2ead3f5ecdf178", "type": "electric_scooter", "is_disabled": 0, "lat": 38.93024066666667, "rental_uris": {"android": "https://dc.lft.to/lastmile_qr_scan", "ios": "https://dc.lft.to/lastmile_qr_scan"}, "bike_id": "190133c5cfdc48409a2ead3f5ecdf178", "lon": -77.0631175}, {"is_reserved": 0, "fusion_lon": 0.0, "fusion_lat": 0.0, "name": "c7fc33ef4ff0b5f88ffc70797d572839", "type": "electric_bike", "is_disabled": 0, "lat": 38.92468916666667, "rental_uris": {"android": "https://dc.lft.to/lastmile_qr_scan", "ios": "https://dc.lft.to/lastmile_qr_scan"}, "bike_id": "c7fc33ef4ff0b5f88ffc70797d572839", "lon": -77.03757683333333}, {"is_reserved": 0, "fusion_lon": 0.0, "fusion_lat": 0.0, "name": "79ebddbed1433d8982a0cb47d2f74ad6", "type": "electric_scooter", "is_disabled": 0, "lat": 38.92185666666666, "rental_uris": {"android": "https://dc.lft.to/lastmile_qr_scan", "ios": "https://dc.lft.to/lastmile_qr_scan"}, "bike_id": "79ebddbed1433d8982a0cb47d2f74ad6", "lon": -77.04349916666666}, {"is_reserved": 0, "fusion_lon": 0.0, "fusion_lat": 0.0, "name": "84c74ffabfce50a4d67d979a9e24d21a", "type": "electric_bike", "is_disabled": 0, "lat": 39.0505, "rental_uris": {"android": "https://dc.lft.to/lastmile_qr_scan", "ios": "https://dc.lft.to/lastmile_qr_scan"}, "bike_id": "84c74ffabfce50a4d67d979a9e24d21a", "lon": -77.05150416666666}, {"is_reserved": 0, "fusion_lon": 0.0, "fusion_lat": 0.0, "name": "8f7397ece890af8429ce3ec495345bc4", "type": "electric_scooter", "is_disabled": 0, "lat": 38.902103333333336, "rental_uris": {"android": "https://dc.lft.to/lastmile_qr_scan", "ios": "https://dc.lft.to/lastmile_qr_scan"}, "bike_id": "8f7397ece890af8429ce3ec495345bc4", "lon": -77.04815566666667}, {"is_reserved": 0, "fusion_lon": 0.0, "fusion_lat": 0.0, "name": "7ac5ea45a4321fcf9b1a7a760852fbfc", "type": "electric_bike", "is_disabled": 0, "lat": 38.83231883333333, "rental_uris": {"android": "https://dc.lft.to/lastmile_qr_scan", "ios": "https://dc.lft.to/lastmile_qr_scan"}, "bike_id": "7ac5ea45a4321fcf9b1a7a760852fbfc", "lon": -76.94619233333333}, {"is_reserved": 0, "fusion_lon": 0.0, "fusion_lat": 0.0, "name": "21be652aebabf204e55e298c65da9701", "type": "electric_scooter", "is_disabled": 0, "lat": 38.91552183333334, "rental_uris": {"android": "https://dc.lft.to/lastmile_qr_scan", "ios": "https://dc.lft.to/lastmile_qr_scan"}, "bike_id": "21be652aebabf204e55e298c65da9701", "lon": -77.00362433333333}, {"is_reserved": 0, "fusion_lon": 0.0, "fusion_lat": 0.0, "name": "87f35eee1681c0e359b9de7f0d20d488", "type": "electric_scooter", "is_disabled": 0, "lat": 38.9080375, "rental_uris": {"android": "https://dc.lft.to/lastmile_qr_scan", "ios": "https://dc.lft.to/lastmile_qr_scan"}, "bike_id": "87f35eee1681c0e359b9de7f0d20d488", "lon": -77.0320445}, {"is_reserved": 0, "fusion_lon": 0.0, "fusion_lat": 0.0, "name": "b0cfb2908c3dc3c1f9efffdd2c9130b1", "type": "electric_scooter", "is_disabled": 0, "lat": 38.90538316666667, "rental_uris": {"android": "https://dc.lft.to/lastmile_qr_scan", "ios": "https://dc.lft.to/lastmile_qr_scan"}, "bike_id": "b0cfb2908c3dc3c1f9efffdd2c9130b1", "lon": -77.022155}, {"is_reserved": 0, "fusion_lon": 0.0, "fusion_lat": 0.0, "name": "7cd318468ac9feff6c60578c548a28d9", "type": "electric_bike", "is_disabled": 0, "lat": 38.968146, "rental_uris": {"android": "https://dc.lft.to/lastmile_qr_scan", "ios": "https://dc.lft.to/lastmile_qr_scan"}, "bike_id": "7cd318468ac9feff6c60578c548a28d9", "lon": -77.00030766666667}, {"is_reserved": 0, "fusion_lon": 0.0, "fusion_lat": 0.0, "name": "dcdbbc537bb85efd338f3113a2d1993c", "type": "electric_scooter", "is_disabled": 0, "lat": 38.8974595, "rental_uris": {"android": "https://dc.lft.to/lastmile_qr_scan", "ios": "https://dc.lft.to/lastmile_qr_scan"}, "bike_id": "dcdbbc537bb85efd338f3113a2d1993c", "lon": -77.03347183333334}, {"is_reserved": 0, "fusion_lon": 0.0, "fusion_lat": 0.0, "name": "a6c32c83aaba1d6f4833ff1c6d7955ed", "type": "electric_scooter", "is_disabled": 0, "lat": 38.92329383333333, "rental_uris": {"android": "https://dc.lft.to/lastmile_qr_scan", "ios": "https://dc.lft.to/lastmile_qr_scan"}, "bike_id": "a6c32c83aaba1d6f4833ff1c6d7955ed", "lon": -77.03615666666667}, {"is_reserved": 0, "fusion_lon": 0.0, "fusion_lat": 0.0, "name": "6c36f803c20a6f52812b36b242339ac0", "type": "electric_scooter", "is_disabled": 0, "lat": 38.961126166666666, "rental_uris": {"android": "https://dc.lft.to/lastmile_qr_scan", "ios": "https://dc.lft.to/lastmile_qr_scan"}, "bike_id": "6c36f803c20a6f52812b36b242339ac0", "lon": -77.027933}, {"is_reserved": 0, "fusion_lon": 0.0, "fusion_lat": 0.0, "name": "49cee1dcd9217d536360e45eae204973", "type": "electric_scooter", "is_disabled": 0, "lat": 38.89237716666667, "rental_uris": {"android": "https://dc.lft.to/lastmile_qr_scan", "ios": "https://dc.lft.to/lastmile_qr_scan"}, "bike_id": "49cee1dcd9217d536360e45eae204973", "lon": -77.032113}, {"is_reserved": 0, "fusion_lon": 0.0, "fusion_lat": 0.0, "name": "abb4da371afcd835a5f66f14fdaeba63", "type": "electric_scooter", "is_disabled": 0, "lat": 38.9353615, "rental_uris": {"android": "https://dc.lft.to/lastmile_qr_scan", "ios": "https://dc.lft.to/lastmile_qr_scan"}, "bike_id": "abb4da371afcd835a5f66f14fdaeba63", "lon": -77.02346483333334}, {"is_reserved": 0, "fusion_lon": 0.0, "fusion_lat": 0.0, "name": "5251ecf3311c8fa2a2fa7aeb38aac21c", "type": "electric_scooter", "is_disabled": 0, "lat": 38.901739, "rental_uris": {"android": "https://dc.lft.to/lastmile_qr_scan", "ios": "https://dc.lft.to/lastmile_qr_scan"}, "bike_id": "5251ecf3311c8fa2a2fa7aeb38aac21c", "lon": -76.98010566666666}, {"is_reserved": 0, "fusion_lon": 0.0, "fusion_lat": 0.0, "name": "9e18dccda48499b68fc324d1651f4e3e", "type": "electric_scooter", "is_disabled": 0, "lat": 38.885324, "rental_uris": {"android": "https://dc.lft.to/lastmile_qr_scan", "ios": "https://dc.lft.to/lastmile_qr_scan"}, "bike_id": "9e18dccda48499b68fc324d1651f4e3e", "lon": -76.982758}, {"is_reserved": 0, "fusion_lon": 0.0, "fusion_lat": 0.0, "name": "358ce47896d1ff624be4e6b9a1460c55", "type": "electric_scooter", "is_disabled": 0, "lat": 38.87910216666667, "rental_uris": {"android": "https://dc.lft.to/lastmile_qr_scan", "ios": "https://dc.lft.to/lastmile_qr_scan"}, "bike_id": "358ce47896d1ff624be4e6b9a1460c55", "lon": -77.00711716666666}, {"is_reserved": 0, "fusion_lon": 0.0, "fusion_lat": 0.0, "name": "490003261039fa3ab04cbb68d9d92522", "type": "electric_scooter", "is_disabled": 0, "lat": 38.904611833333334, "rental_uris": {"android": "https://dc.lft.to/lastmile_qr_scan", "ios": "https://dc.lft.to/lastmile_qr_scan"}, "bike_id": "490003261039fa3ab04cbb68d9d92522", "lon": -77.01726466666666}, {"is_reserved": 0, "fusion_lon": 0.0, "fusion_lat": 0.0, "name": "57d44596d7778b3bcba8a314f6063d67", "type": "electric_scooter", "is_disabled": 0, "lat": 38.93321066666667, "rental_uris": {"android": "https://dc.lft.to/lastmile_qr_scan", "ios": "https://dc.lft.to/lastmile_qr_scan"}, "bike_id": "57d44596d7778b3bcba8a314f6063d67", "lon": -77.03413216666667}, {"is_reserved": 0, "fusion_lon": 0.0, "fusion_lat": 0.0, "name": "9d6d40333e654bf056d2d77f021c2a82", "type": "electric_scooter", "is_disabled": 0, "lat": 38.918208166666666, "rental_uris": {"android": "https://dc.lft.to/lastmile_qr_scan", "ios": "https://dc.lft.to/lastmile_qr_scan"}, "bike_id": "9d6d40333e654bf056d2d77f021c2a82", "lon": -77.03456266666667}, {"is_reserved": 0, "fusion_lon": 0.0, "fusion_lat": 0.0, "name": "8183e29db5d9f13bac0c7032003283bc", "type": "electric_scooter", "is_disabled": 0, "lat": 38.93102, "rental_uris": {"android": "https://dc.lft.to/lastmile_qr_scan", "ios": "https://dc.lft.to/lastmile_qr_scan"}, "bike_id": "8183e29db5d9f13bac0c7032003283bc", "lon": -77.02663683333333}, {"is_reserved": 0, "fusion_lon": 0.0, "fusion_lat": 0.0, "name": "e4a8a6e0f84e8f4d98407386d6b32db5", "type": "electric_scooter", "is_disabled": 0, "lat": 38.903922333333334, "rental_uris": {"android": "https://dc.lft.to/lastmile_qr_scan", "ios": "https://dc.lft.to/lastmile_qr_scan"}, "bike_id": "e4a8a6e0f84e8f4d98407386d6b32db5", "lon": -77.03004633333333}, {"is_reserved": 0, "fusion_lon": 0.0, "fusion_lat": 0.0, "name": "522ab0bab6b6d98698f0d85973ade081", "type": "electric_scooter", "is_disabled": 0, "lat": 38.89742566666666, "rental_uris": {"android": "https://dc.lft.to/lastmile_qr_scan", "ios": "https://dc.lft.to/lastmile_qr_scan"}, "bike_id": "522ab0bab6b6d98698f0d85973ade081", "lon": -77.03355016666667}, {"is_reserved": 0, "fusion_lon": 0.0, "fusion_lat": 0.0, "name": "a2b75885710a7c818a20eb6ff0c3f9b6", "type": "electric_bike", "is_disabled": 0, "lat": 38.896156500000004, "rental_uris": {"android": "https://dc.lft.to/lastmile_qr_scan", "ios": "https://dc.lft.to/lastmile_qr_scan"}, "bike_id": "a2b75885710a7c818a20eb6ff0c3f9b6", "lon": -76.907431}, {"is_reserved": 0, "fusion_lon": 0.0, "fusion_lat": 0.0, "name": "4af3b4bd344e222bf0336f785431d730", "type": "electric_scooter", "is_disabled": 0, "lat": 38.9050195, "rental_uris": {"android": "https://dc.lft.to/lastmile_qr_scan", "ios": "https://dc.lft.to/lastmile_qr_scan"}, "bike_id": "4af3b4bd344e222bf0336f785431d730", "lon": -76.974303}, {"is_reserved": 0, "fusion_lon": 0.0, "fusion_lat": 0.0, "name": "78cef0fe6e53a783016a38745ba60fb7", "type": "electric_scooter", "is_disabled": 0, "lat": 38.897343, "rental_uris": {"android": "https://dc.lft.to/lastmile_qr_scan", "ios": "https://dc.lft.to/lastmile_qr_scan"}, "bike_id": "78cef0fe6e53a783016a38745ba60fb7", "lon": -77.05570066666667}, {"is_reserved": 0, "fusion_lon": 0.0, "fusion_lat": 0.0, "name": "926ad1a257821c7d6734d7a4b9da2e4f", "type": "electric_scooter", "is_disabled": 0, "lat": 38.932488666666664, "rental_uris": {"android": "https://dc.lft.to/lastmile_qr_scan", "ios": "https://dc.lft.to/lastmile_qr_scan"}, "bike_id": "926ad1a257821c7d6734d7a4b9da2e4f", "lon": -77.029477}, {"is_reserved": 0, "fusion_lon": 0.0, "fusion_lat": 0.0, "name": "79b1ceb79fe59624d8816e18979a0ba6", "type": "electric_scooter", "is_disabled": 0, "lat": 38.8937055, "rental_uris": {"android": "https://dc.lft.to/lastmile_qr_scan", "ios": "https://dc.lft.to/lastmile_qr_scan"}, "bike_id": "79b1ceb79fe59624d8816e18979a0ba6", "lon": -77.03208866666667}, {"is_reserved": 0, "fusion_lon": 0.0, "fusion_lat": 0.0, "name": "e9a0e386b9ee9d152bcff45ef6fbf319", "type": "electric_scooter", "is_disabled": 0, "lat": 38.915481166666666, "rental_uris": {"android": "https://dc.lft.to/lastmile_qr_scan", "ios": "https://dc.lft.to/lastmile_qr_scan"}, "bike_id": "e9a0e386b9ee9d152bcff45ef6fbf319", "lon": -77.038579}, {"is_reserved": 0, "fusion_lon": 0.0, "fusion_lat": 0.0, "name": "c055a69a4923760d0c1afb363aa8d479", "type": "electric_scooter", "is_disabled": 0, "lat": 38.92318983333333, "rental_uris": {"android": "https://dc.lft.to/lastmile_qr_scan", "ios": "https://dc.lft.to/lastmile_qr_scan"}, "bike_id": "c055a69a4923760d0c1afb363aa8d479", "lon": -77.04387466666667}, {"is_reserved": 0, "fusion_lon": 0.0, "fusion_lat": 0.0, "name": "6be6e2745f88a4522f7140d7b900e38f", "type": "electric_scooter", "is_disabled": 0, "lat": 38.90001516666667, "rental_uris": {"android": "https://dc.lft.to/lastmile_qr_scan", "ios": "https://dc.lft.to/lastmile_qr_scan"}, "bike_id": "6be6e2745f88a4522f7140d7b900e38f", "lon": -76.9962165}, {"is_reserved": 0, "fusion_lon": 0.0, "fusion_lat": 0.0, "name": "24cf7c3bc12ed644fc86703b4543070e", "type": "electric_bike", "is_disabled": 0, "lat": 38.92022733333334, "rental_uris": {"android": "https://dc.lft.to/lastmile_qr_scan", "ios": "https://dc.lft.to/lastmile_qr_scan"}, "bike_id": "24cf7c3bc12ed644fc86703b4543070e", "lon": -77.01312466666667}, {"is_reserved": 0, "fusion_lon": 0.0, "fusion_lat": 0.0, "name": "e9477828436fe57476a3648ccb4a2457", "type": "electric_scooter", "is_disabled": 0, "lat": 38.8238155, "rental_uris": {"android": "https://dc.lft.to/lastmile_qr_scan", "ios": "https://dc.lft.to/lastmile_qr_scan"}, "bike_id": "e9477828436fe57476a3648ccb4a2457", "lon": -77.011899}, {"is_reserved": 0, "fusion_lon": 0.0, "fusion_lat": 0.0, "name": "c8f54038204705d715458378a4b72254", "type": "electric_scooter", "is_disabled": 0, "lat": 38.90012616666667, "rental_uris": {"android": "https://dc.lft.to/lastmile_qr_scan", "ios": "https://dc.lft.to/lastmile_qr_scan"}, "bike_id": "c8f54038204705d715458378a4b72254", "lon": -77.04032983333333}, {"is_reserved": 0, "fusion_lon": 0.0, "fusion_lat": 0.0, "name": "2f900a4bf608268940ea580776e07d73", "type": "electric_bike", "is_disabled": 0, "lat": 38.88049016666667, "rental_uris": {"android": "https://dc.lft.to/lastmile_qr_scan", "ios": "https://dc.lft.to/lastmile_qr_scan"}, "bike_id": "2f900a4bf608268940ea580776e07d73", "lon": -77.01122466666666}, {"is_reserved": 0, "fusion_lon": 0.0, "fusion_lat": 0.0, "name": "edf9fe3dd84f13b8888ecdb9269f1759", "type": "electric_scooter", "is_disabled": 0, "lat": 38.90911033333333, "rental_uris": {"android": "https://dc.lft.to/lastmile_qr_scan", "ios": "https://dc.lft.to/lastmile_qr_scan"}, "bike_id": "edf9fe3dd84f13b8888ecdb9269f1759", "lon": -77.07267566666667}, {"is_reserved": 0, "fusion_lon": 0.0, "fusion_lat": 0.0, "name": "c055145f47eb0243b340948febd33561", "type": "electric_scooter", "is_disabled": 0, "lat": 38.867000833333336, "rental_uris": {"android": "https://dc.lft.to/lastmile_qr_scan", "ios": "https://dc.lft.to/lastmile_qr_scan"}, "bike_id": "c055145f47eb0243b340948febd33561", "lon": -76.98710233333334}, {"is_reserved": 0, "fusion_lon": 0.0, "fusion_lat": 0.0, "name": "18b46e04018bf05dfdb020ee4a97c4ae", "type": "electric_scooter", "is_disabled": 0, "lat": 38.8673335, "rental_uris": {"android": "https://dc.lft.to/lastmile_qr_scan", "ios": "https://dc.lft.to/lastmile_qr_scan"}, "bike_id": "18b46e04018bf05dfdb020ee4a97c4ae", "lon": -76.9878075}, {"is_reserved": 0, "fusion_lon": 0.0, "fusion_lat": 0.0, "name": "3a5fbd5b4378a7fbc227b890527592af", "type": "electric_scooter", "is_disabled": 0, "lat": 38.91406833333333, "rental_uris": {"android": "https://dc.lft.to/lastmile_qr_scan", "ios": "https://dc.lft.to/lastmile_qr_scan"}, "bike_id": "3a5fbd5b4378a7fbc227b890527592af", "lon": -77.03953}, {"is_reserved": 0, "fusion_lon": 0.0, "fusion_lat": 0.0, "name": "85cedc012e847efc0183a8be2e489cb7", "type": "electric_scooter", "is_disabled": 0, "lat": 38.917623166666665, "rental_uris": {"android": "https://dc.lft.to/lastmile_qr_scan", "ios": "https://dc.lft.to/lastmile_qr_scan"}, "bike_id": "85cedc012e847efc0183a8be2e489cb7", "lon": -77.01921983333334}, {"is_reserved": 0, "fusion_lon": 0.0, "fusion_lat": 0.0, "name": "9b5541d2a50cd1b4437ba61e6c785b49", "type": "electric_scooter", "is_disabled": 0, "lat": 38.929177, "rental_uris": {"android": "https://dc.lft.to/lastmile_qr_scan", "ios": "https://dc.lft.to/lastmile_qr_scan"}, "bike_id": "9b5541d2a50cd1b4437ba61e6c785b49", "lon": -77.034695}, {"is_reserved": 0, "fusion_lon": 0.0, "fusion_lat": 0.0, "name": "b75f4ae795ba4156739c6d570c89df48", "type": "electric_scooter", "is_disabled": 0, "lat": 38.918106333333334, "rental_uris": {"android": "https://dc.lft.to/lastmile_qr_scan", "ios": "https://dc.lft.to/lastmile_qr_scan"}, "bike_id": "b75f4ae795ba4156739c6d570c89df48", "lon": -77.03317116666666}, {"is_reserved": 0, "fusion_lon": 0.0, "fusion_lat": 0.0, "name": "ef22ac32be672b024313d059d4aabe77", "type": "electric_scooter", "is_disabled": 0, "lat": 38.908092, "rental_uris": {"android": "https://dc.lft.to/lastmile_qr_scan", "ios": "https://dc.lft.to/lastmile_qr_scan"}, "bike_id": "ef22ac32be672b024313d059d4aabe77", "lon": -77.03447983333334}, {"is_reserved": 0, "fusion_lon": 0.0, "fusion_lat": 0.0, "name": "cb3178ec43ba89c4f6f24d1f08e93963", "type": "electric_scooter", "is_disabled": 0, "lat": 38.9311455, "rental_uris": {"android": "https://dc.lft.to/lastmile_qr_scan", "ios": "https://dc.lft.to/lastmile_qr_scan"}, "bike_id": "cb3178ec43ba89c4f6f24d1f08e93963", "lon": -77.03028433333333}, {"is_reserved": 0, "fusion_lon": 0.0, "fusion_lat": 0.0, "name": "9c898ce39ebcf2c93aceffaca9d8c60f", "type": "electric_scooter", "is_disabled": 0, "lat": 38.9155465, "rental_uris": {"android": "https://dc.lft.to/lastmile_qr_scan", "ios": "https://dc.lft.to/lastmile_qr_scan"}, "bike_id": "9c898ce39ebcf2c93aceffaca9d8c60f", "lon": -77.0242375}, {"is_reserved": 0, "fusion_lon": 0.0, "fusion_lat": 0.0, "name": "01b8b768ad0d84a6edee5a378fb04a6a", "type": "electric_scooter", "is_disabled": 0, "lat": 38.957330666666664, "rental_uris": {"android": "https://dc.lft.to/lastmile_qr_scan", "ios": "https://dc.lft.to/lastmile_qr_scan"}, "bike_id": "01b8b768ad0d84a6edee5a378fb04a6a", "lon": -77.024123}, {"is_reserved": 0, "fusion_lon": 0.0, "fusion_lat": 0.0, "name": "049d63ec3c61afac1123a3a313c2e7bc", "type": "electric_scooter", "is_disabled": 0, "lat": 38.9034285, "rental_uris": {"android": "https://dc.lft.to/lastmile_qr_scan", "ios": "https://dc.lft.to/lastmile_qr_scan"}, "bike_id": "049d63ec3c61afac1123a3a313c2e7bc", "lon": -76.98272766666666}, {"is_reserved": 0, "fusion_lon": 0.0, "fusion_lat": 0.0, "name": "8641b2bcfe3717935557d97ecc6f5fcf", "type": "electric_scooter", "is_disabled": 0, "lat": 38.90571466666667, "rental_uris": {"android": "https://dc.lft.to/lastmile_qr_scan", "ios": "https://dc.lft.to/lastmile_qr_scan"}, "bike_id": "8641b2bcfe3717935557d97ecc6f5fcf", "lon": -77.00499833333333}, {"is_reserved": 0, "fusion_lon": 0.0, "fusion_lat": 0.0, "name": "3a2fda07b264ff9845bece00a2c5617f", "type": "electric_scooter", "is_disabled": 0, "lat": 38.91492733333333, "rental_uris": {"android": "https://dc.lft.to/lastmile_qr_scan", "ios": "https://dc.lft.to/lastmile_qr_scan"}, "bike_id": "3a2fda07b264ff9845bece00a2c5617f", "lon": -77.01998233333333}, {"is_reserved": 0, "fusion_lon": 0.0, "fusion_lat": 0.0, "name": "33e522c4be86f72970c54a964e2df1ae", "type": "electric_scooter", "is_disabled": 0, "lat": 38.907343166666664, "rental_uris": {"android": "https://dc.lft.to/lastmile_qr_scan", "ios": "https://dc.lft.to/lastmile_qr_scan"}, "bike_id": "33e522c4be86f72970c54a964e2df1ae", "lon": -76.9863015}, {"is_reserved": 0, "fusion_lon": 0.0, "fusion_lat": 0.0, "name": "69e918dd70ca64aa8445651d6886153b", "type": "electric_scooter", "is_disabled": 0, "lat": 38.877011333333336, "rental_uris": {"android": "https://dc.lft.to/lastmile_qr_scan", "ios": "https://dc.lft.to/lastmile_qr_scan"}, "bike_id": "69e918dd70ca64aa8445651d6886153b", "lon": -77.0173015}, {"is_reserved": 0, "fusion_lon": 0.0, "fusion_lat": 0.0, "name": "12d5b1c1009595fa3bf44f65d7683ee7", "type": "electric_scooter", "is_disabled": 0, "lat": 38.8935395, "rental_uris": {"android": "https://dc.lft.to/lastmile_qr_scan", "ios": "https://dc.lft.to/lastmile_qr_scan"}, "bike_id": "12d5b1c1009595fa3bf44f65d7683ee7", "lon": -76.98643983333334}, {"is_reserved": 0, "fusion_lon": 0.0, "fusion_lat": 0.0, "name": "c6def66a77c07d80fd07ff836d4ef8e0", "type": "electric_scooter", "is_disabled": 0, "lat": 38.919203, "rental_uris": {"android": "https://dc.lft.to/lastmile_qr_scan", "ios": "https://dc.lft.to/lastmile_qr_scan"}, "bike_id": "c6def66a77c07d80fd07ff836d4ef8e0", "lon": -77.031873}, {"is_reserved": 0, "fusion_lon": 0.0, "fusion_lat": 0.0, "name": "29c18e6861ac60fe3cc5d33a825a1e4b", "type": "electric_scooter", "is_disabled": 0, "lat": 38.905166, "rental_uris": {"android": "https://dc.lft.to/lastmile_qr_scan", "ios": "https://dc.lft.to/lastmile_qr_scan"}, "bike_id": "29c18e6861ac60fe3cc5d33a825a1e4b", "lon": -77.0477635}, {"is_reserved": 0, "fusion_lon": 0.0, "fusion_lat": 0.0, "name": "3964891d9a3da4051a444ae180142433", "type": "electric_scooter", "is_disabled": 0, "lat": 38.90383333333333, "rental_uris": {"android": "https://dc.lft.to/lastmile_qr_scan", "ios": "https://dc.lft.to/lastmile_qr_scan"}, "bike_id": "3964891d9a3da4051a444ae180142433", "lon": -77.04242866666667}, {"is_reserved": 0, "fusion_lon": 0.0, "fusion_lat": 0.0, "name": "1829add1fe8bd4d8bf51c207d0af83ef", "type": "electric_scooter", "is_disabled": 0, "lat": 38.90705083333334, "rental_uris": {"android": "https://dc.lft.to/lastmile_qr_scan", "ios": "https://dc.lft.to/lastmile_qr_scan"}, "bike_id": "1829add1fe8bd4d8bf51c207d0af83ef", "lon": -77.03212783333333}, {"is_reserved": 0, "fusion_lon": 0.0, "fusion_lat": 0.0, "name": "efd5a3d1e3905b159b7949b11adf0ccb", "type": "electric_scooter", "is_disabled": 0, "lat": 38.928429333333334, "rental_uris": {"android": "https://dc.lft.to/lastmile_qr_scan", "ios": "https://dc.lft.to/lastmile_qr_scan"}, "bike_id": "efd5a3d1e3905b159b7949b11adf0ccb", "lon": -77.0141665}, {"is_reserved": 0, "fusion_lon": 0.0, "fusion_lat": 0.0, "name": "b4f6ff092bb1b3b152ec6fa255fd0bea", "type": "electric_scooter", "is_disabled": 0, "lat": 38.915549, "rental_uris": {"android": "https://dc.lft.to/lastmile_qr_scan", "ios": "https://dc.lft.to/lastmile_qr_scan"}, "bike_id": "b4f6ff092bb1b3b152ec6fa255fd0bea", "lon": -77.05323766666666}, {"is_reserved": 0, "fusion_lon": 0.0, "fusion_lat": 0.0, "name": "151ed93d6c9d0de0b629db4adc1cdc20", "type": "electric_bike", "is_disabled": 0, "lat": 38.973986833333335, "rental_uris": {"android": "https://dc.lft.to/lastmile_qr_scan", "ios": "https://dc.lft.to/lastmile_qr_scan"}, "bike_id": "151ed93d6c9d0de0b629db4adc1cdc20", "lon": -77.064544}, {"is_reserved": 0, "fusion_lon": 0.0, "fusion_lat": 0.0, "name": "93eba03b75c0b74fb208724e814d4c9b", "type": "electric_scooter", "is_disabled": 0, "lat": 38.923346333333335, "rental_uris": {"android": "https://dc.lft.to/lastmile_qr_scan", "ios": "https://dc.lft.to/lastmile_qr_scan"}, "bike_id": "93eba03b75c0b74fb208724e814d4c9b", "lon": -77.05088883333333}, {"is_reserved": 0, "fusion_lon": 0.0, "fusion_lat": 0.0, "name": "b40a10fd952a0f1f9630f2054a394621", "type": "electric_scooter", "is_disabled": 0, "lat": 38.892252666666664, "rental_uris": {"android": "https://dc.lft.to/lastmile_qr_scan", "ios": "https://dc.lft.to/lastmile_qr_scan"}, "bike_id": "b40a10fd952a0f1f9630f2054a394621", "lon": -77.04337733333334}, {"is_reserved": 0, "fusion_lon": 0.0, "fusion_lat": 0.0, "name": "b405da4728c194aa0a373080983bf56d", "type": "electric_scooter", "is_disabled": 0, "lat": 38.93673233333333, "rental_uris": {"android": "https://dc.lft.to/lastmile_qr_scan", "ios": "https://dc.lft.to/lastmile_qr_scan"}, "bike_id": "b405da4728c194aa0a373080983bf56d", "lon": -77.03640216666666}, {"is_reserved": 0, "fusion_lon": 0.0, "fusion_lat": 0.0, "name": "dab37297c1968885ca6b9f0a927d2e20", "type": "electric_scooter", "is_disabled": 0, "lat": 38.89548716666667, "rental_uris": {"android": "https://dc.lft.to/lastmile_qr_scan", "ios": "https://dc.lft.to/lastmile_qr_scan"}, "bike_id": "dab37297c1968885ca6b9f0a927d2e20", "lon": -76.9487435}, {"is_reserved": 0, "fusion_lon": 0.0, "fusion_lat": 0.0, "name": "5fc6497da2c2bcc9dc7e8e0be0bcb078", "type": "electric_scooter", "is_disabled": 0, "lat": 38.877861333333335, "rental_uris": {"android": "https://dc.lft.to/lastmile_qr_scan", "ios": "https://dc.lft.to/lastmile_qr_scan"}, "bike_id": "5fc6497da2c2bcc9dc7e8e0be0bcb078", "lon": -77.00350066666667}, {"is_reserved": 0, "fusion_lon": 0.0, "fusion_lat": 0.0, "name": "5964c3dc2e771509827b3c2ad9e4c7b5", "type": "electric_scooter", "is_disabled": 0, "lat": 38.8860105, "rental_uris": {"android": "https://dc.lft.to/lastmile_qr_scan", "ios": "https://dc.lft.to/lastmile_qr_scan"}, "bike_id": "5964c3dc2e771509827b3c2ad9e4c7b5", "lon": -77.0451235}, {"is_reserved": 0, "fusion_lon": 0.0, "fusion_lat": 0.0, "name": "e22a24506645242e1bef95b575349713", "type": "electric_scooter", "is_disabled": 0, "lat": 38.9142865, "rental_uris": {"android": "https://dc.lft.to/lastmile_qr_scan", "ios": "https://dc.lft.to/lastmile_qr_scan"}, "bike_id": "e22a24506645242e1bef95b575349713", "lon": -77.02814533333333}, {"is_reserved": 0, "fusion_lon": 0.0, "fusion_lat": 0.0, "name": "e98bfa44a80f8b9778b1fdea1640a6e6", "type": "electric_scooter", "is_disabled": 0, "lat": 38.901498833333335, "rental_uris": {"android": "https://dc.lft.to/lastmile_qr_scan", "ios": "https://dc.lft.to/lastmile_qr_scan"}, "bike_id": "e98bfa44a80f8b9778b1fdea1640a6e6", "lon": -76.929824}, {"is_reserved": 0, "fusion_lon": 0.0, "fusion_lat": 0.0, "name": "d8e6ff561f2f36187eaad5f515d63086", "type": "electric_scooter", "is_disabled": 0, "lat": 38.89992616666667, "rental_uris": {"android": "https://dc.lft.to/lastmile_qr_scan", "ios": "https://dc.lft.to/lastmile_qr_scan"}, "bike_id": "d8e6ff561f2f36187eaad5f515d63086", "lon": -77.05543783333333}, {"is_reserved": 0, "fusion_lon": 0.0, "fusion_lat": 0.0, "name": "4a5c1106199b4097dc848cbfaae5c411", "type": "electric_scooter", "is_disabled": 0, "lat": 38.908032666666664, "rental_uris": {"android": "https://dc.lft.to/lastmile_qr_scan", "ios": "https://dc.lft.to/lastmile_qr_scan"}, "bike_id": "4a5c1106199b4097dc848cbfaae5c411", "lon": -76.987382}, {"is_reserved": 0, "fusion_lon": 0.0, "fusion_lat": 0.0, "name": "2fa0b4748a1951ef89c64d36e4166386", "type": "electric_scooter", "is_disabled": 0, "lat": 38.903404, "rental_uris": {"android": "https://dc.lft.to/lastmile_qr_scan", "ios": "https://dc.lft.to/lastmile_qr_scan"}, "bike_id": "2fa0b4748a1951ef89c64d36e4166386", "lon": -77.046546}, {"is_reserved": 0, "fusion_lon": 0.0, "fusion_lat": 0.0, "name": "28da6ae5fa26916d815cbbeaec9a788a", "type": "electric_scooter", "is_disabled": 0, "lat": 38.928503166666665, "rental_uris": {"android": "https://dc.lft.to/lastmile_qr_scan", "ios": "https://dc.lft.to/lastmile_qr_scan"}, "bike_id": "28da6ae5fa26916d815cbbeaec9a788a", "lon": -77.02739083333333}, {"is_reserved": 0, "fusion_lon": 0.0, "fusion_lat": 0.0, "name": "d49217ab29f3e4c62bd41eff534fb0be", "type": "electric_scooter", "is_disabled": 0, "lat": 38.90917683333333, "rental_uris": {"android": "https://dc.lft.to/lastmile_qr_scan", "ios": "https://dc.lft.to/lastmile_qr_scan"}, "bike_id": "d49217ab29f3e4c62bd41eff534fb0be", "lon": -77.07264366666666}, {"is_reserved": 0, "fusion_lon": 0.0, "fusion_lat": 0.0, "name": "2ac33293b4694d1fde1ae62a6ff46d85", "type": "electric_scooter", "is_disabled": 0, "lat": 38.919821, "rental_uris": {"android": "https://dc.lft.to/lastmile_qr_scan", "ios": "https://dc.lft.to/lastmile_qr_scan"}, "bike_id": "2ac33293b4694d1fde1ae62a6ff46d85", "lon": -77.02152483333333}, {"is_reserved": 0, "fusion_lon": 0.0, "fusion_lat": 0.0, "name": "a14d1f45a95f1feaf7906198caa4b8a4", "type": "electric_scooter", "is_disabled": 0, "lat": 38.89313716666667, "rental_uris": {"android": "https://dc.lft.to/lastmile_qr_scan", "ios": "https://dc.lft.to/lastmile_qr_scan"}, "bike_id": "a14d1f45a95f1feaf7906198caa4b8a4", "lon": -76.93974133333333}, {"is_reserved": 0, "fusion_lon": 0.0, "fusion_lat": 0.0, "name": "f60b916ce301c67585d2d309de794e6e", "type": "electric_bike", "is_disabled": 0, "lat": 38.9012265, "rental_uris": {"android": "https://dc.lft.to/lastmile_qr_scan", "ios": "https://dc.lft.to/lastmile_qr_scan"}, "bike_id": "f60b916ce301c67585d2d309de794e6e", "lon": -77.01765016666667}, {"is_reserved": 0, "fusion_lon": 0.0, "fusion_lat": 0.0, "name": "028b238512fbd591857328aef5a16d32", "type": "electric_scooter", "is_disabled": 0, "lat": 38.9044145, "rental_uris": {"android": "https://dc.lft.to/lastmile_qr_scan", "ios": "https://dc.lft.to/lastmile_qr_scan"}, "bike_id": "028b238512fbd591857328aef5a16d32", "lon": -77.05161}, {"is_reserved": 0, "fusion_lon": 0.0, "fusion_lat": 0.0, "name": "84ef0ee2789fb5b7633764cbb60343c2", "type": "electric_scooter", "is_disabled": 0, "lat": 38.9014205, "rental_uris": {"android": "https://dc.lft.to/lastmile_qr_scan", "ios": "https://dc.lft.to/lastmile_qr_scan"}, "bike_id": "84ef0ee2789fb5b7633764cbb60343c2", "lon": -77.01307533333333}, {"is_reserved": 0, "fusion_lon": 0.0, "fusion_lat": 0.0, "name": "6a394e1d26faaf6b1cb8a05b22e93f53", "type": "electric_scooter", "is_disabled": 0, "lat": 38.92727933333333, "rental_uris": {"android": "https://dc.lft.to/lastmile_qr_scan", "ios": "https://dc.lft.to/lastmile_qr_scan"}, "bike_id": "6a394e1d26faaf6b1cb8a05b22e93f53", "lon": -77.03522116666667}, {"is_reserved": 0, "fusion_lon": 0.0, "fusion_lat": 0.0, "name": "af6bba462e421f4bb4ca8165a0d400b6", "type": "electric_scooter", "is_disabled": 0, "lat": 38.9215535, "rental_uris": {"android": "https://dc.lft.to/lastmile_qr_scan", "ios": "https://dc.lft.to/lastmile_qr_scan"}, "bike_id": "af6bba462e421f4bb4ca8165a0d400b6", "lon": -77.02092483333334}, {"is_reserved": 0, "fusion_lon": 0.0, "fusion_lat": 0.0, "name": "a2af2156d0b672427d2f722af0da7c5c", "type": "electric_scooter", "is_disabled": 0, "lat": 38.950672833333336, "rental_uris": {"android": "https://dc.lft.to/lastmile_qr_scan", "ios": "https://dc.lft.to/lastmile_qr_scan"}, "bike_id": "a2af2156d0b672427d2f722af0da7c5c", "lon": -77.0653675}, {"is_reserved": 0, "fusion_lon": 0.0, "fusion_lat": 0.0, "name": "51d41abe14fa47a2562a69a0bb4698f6", "type": "electric_scooter", "is_disabled": 0, "lat": 38.92204383333333, "rental_uris": {"android": "https://dc.lft.to/lastmile_qr_scan", "ios": "https://dc.lft.to/lastmile_qr_scan"}, "bike_id": "51d41abe14fa47a2562a69a0bb4698f6", "lon": -77.02961166666667}, {"is_reserved": 0, "fusion_lon": 0.0, "fusion_lat": 0.0, "name": "af43939b3e463693580a242173d0077e", "type": "electric_scooter", "is_disabled": 0, "lat": 38.907234, "rental_uris": {"android": "https://dc.lft.to/lastmile_qr_scan", "ios": "https://dc.lft.to/lastmile_qr_scan"}, "bike_id": "af43939b3e463693580a242173d0077e", "lon": -77.02980016666666}, {"is_reserved": 0, "fusion_lon": 0.0, "fusion_lat": 0.0, "name": "c273de52399f1a44cfb084c8c7cce33f", "type": "electric_scooter", "is_disabled": 0, "lat": 38.928833166666664, "rental_uris": {"android": "https://dc.lft.to/lastmile_qr_scan", "ios": "https://dc.lft.to/lastmile_qr_scan"}, "bike_id": "c273de52399f1a44cfb084c8c7cce33f", "lon": -77.03328}, {"is_reserved": 0, "fusion_lon": 0.0, "fusion_lat": 0.0, "name": "f3f2abc9997c0d849ad91e682e57ce05", "type": "electric_scooter", "is_disabled": 0, "lat": 38.90246166666667, "rental_uris": {"android": "https://dc.lft.to/lastmile_qr_scan", "ios": "https://dc.lft.to/lastmile_qr_scan"}, "bike_id": "f3f2abc9997c0d849ad91e682e57ce05", "lon": -77.045087}, {"is_reserved": 0, "fusion_lon": 0.0, "fusion_lat": 0.0, "name": "85530f484948b46c816c1c30c0510771", "type": "electric_scooter", "is_disabled": 0, "lat": 38.93022066666666, "rental_uris": {"android": "https://dc.lft.to/lastmile_qr_scan", "ios": "https://dc.lft.to/lastmile_qr_scan"}, "bike_id": "85530f484948b46c816c1c30c0510771", "lon": -77.05527}, {"is_reserved": 0, "fusion_lon": 0.0, "fusion_lat": 0.0, "name": "f72889346e87117a6c812ab6348ecccc", "type": "electric_bike", "is_disabled": 0, "lat": 38.993435166666664, "rental_uris": {"android": "https://dc.lft.to/lastmile_qr_scan", "ios": "https://dc.lft.to/lastmile_qr_scan"}, "bike_id": "f72889346e87117a6c812ab6348ecccc", "lon": -77.11568916666667}, {"is_reserved": 0, "fusion_lon": 0.0, "fusion_lat": 0.0, "name": "1f2d40e5c1cf951f11d9453b49dbd09c", "type": "electric_scooter", "is_disabled": 0, "lat": 38.9418335, "rental_uris": {"android": "https://dc.lft.to/lastmile_qr_scan", "ios": "https://dc.lft.to/lastmile_qr_scan"}, "bike_id": "1f2d40e5c1cf951f11d9453b49dbd09c", "lon": -77.0249175}, {"is_reserved": 0, "fusion_lon": 0.0, "fusion_lat": 0.0, "name": "050521bc1bb37d96c1871e74e13a0279", "type": "electric_scooter", "is_disabled": 0, "lat": 38.90462316666667, "rental_uris": {"android": "https://dc.lft.to/lastmile_qr_scan", "ios": "https://dc.lft.to/lastmile_qr_scan"}, "bike_id": "050521bc1bb37d96c1871e74e13a0279", "lon": -77.04805916666666}, {"is_reserved": 0, "fusion_lon": 0.0, "fusion_lat": 0.0, "name": "6428f8aba3378200a8c34b9315cf306b", "type": "electric_scooter", "is_disabled": 0, "lat": 38.9314935, "rental_uris": {"android": "https://dc.lft.to/lastmile_qr_scan", "ios": "https://dc.lft.to/lastmile_qr_scan"}, "bike_id": "6428f8aba3378200a8c34b9315cf306b", "lon": -77.0324485}, {"is_reserved": 0, "fusion_lon": 0.0, "fusion_lat": 0.0, "name": "f302445e5e018c7e97f7dc9ffa6ef3e6", "type": "electric_bike", "is_disabled": 0, "lat": 38.845621333333334, "rental_uris": {"android": "https://dc.lft.to/lastmile_qr_scan", "ios": "https://dc.lft.to/lastmile_qr_scan"}, "bike_id": "f302445e5e018c7e97f7dc9ffa6ef3e6", "lon": -77.06695266666667}, {"is_reserved": 0, "fusion_lon": 0.0, "fusion_lat": 0.0, "name": "0d627a42c7560a3da84679af0341c22e", "type": "electric_scooter", "is_disabled": 0, "lat": 38.9026845, "rental_uris": {"android": "https://dc.lft.to/lastmile_qr_scan", "ios": "https://dc.lft.to/lastmile_qr_scan"}, "bike_id": "0d627a42c7560a3da84679af0341c22e", "lon": -77.03349116666666}, {"is_reserved": 0, "fusion_lon": 0.0, "fusion_lat": 0.0, "name": "c27c24ef972eee996e27eee68b667f25", "type": "electric_scooter", "is_disabled": 0, "lat": 38.90731483333333, "rental_uris": {"android": "https://dc.lft.to/lastmile_qr_scan", "ios": "https://dc.lft.to/lastmile_qr_scan"}, "bike_id": "c27c24ef972eee996e27eee68b667f25", "lon": -77.01074866666667}, {"is_reserved": 0, "fusion_lon": 0.0, "fusion_lat": 0.0, "name": "4c2f665270a5a79ebf785cb577c49172", "type": "electric_scooter", "is_disabled": 0, "lat": 38.921081666666666, "rental_uris": {"android": "https://dc.lft.to/lastmile_qr_scan", "ios": "https://dc.lft.to/lastmile_qr_scan"}, "bike_id": "4c2f665270a5a79ebf785cb577c49172", "lon": -77.03923233333333}, {"is_reserved": 0, "fusion_lon": 0.0, "fusion_lat": 0.0, "name": "214c3f5f2cfb9ecd3220db9b9871084c", "type": "electric_scooter", "is_disabled": 0, "lat": 38.8960785, "rental_uris": {"android": "https://dc.lft.to/lastmile_qr_scan", "ios": "https://dc.lft.to/lastmile_qr_scan"}, "bike_id": "214c3f5f2cfb9ecd3220db9b9871084c", "lon": -76.99970483333334}, {"is_reserved": 0, "fusion_lon": 0.0, "fusion_lat": 0.0, "name": "37785996750e866fffdbae38c181d88e", "type": "electric_scooter", "is_disabled": 0, "lat": 38.9152975, "rental_uris": {"android": "https://dc.lft.to/lastmile_qr_scan", "ios": "https://dc.lft.to/lastmile_qr_scan"}, "bike_id": "37785996750e866fffdbae38c181d88e", "lon": -76.97049283333334}, {"is_reserved": 0, "fusion_lon": 0.0, "fusion_lat": 0.0, "name": "c699179b198147a046f399eb563e7a37", "type": "electric_scooter", "is_disabled": 0, "lat": 38.900061666666666, "rental_uris": {"android": "https://dc.lft.to/lastmile_qr_scan", "ios": "https://dc.lft.to/lastmile_qr_scan"}, "bike_id": "c699179b198147a046f399eb563e7a37", "lon": -76.99630116666667}, {"is_reserved": 0, "fusion_lon": 0.0, "fusion_lat": 0.0, "name": "b6a4a2533ad715aa26017b2366532544", "type": "electric_scooter", "is_disabled": 0, "lat": 38.91188983333333, "rental_uris": {"android": "https://dc.lft.to/lastmile_qr_scan", "ios": "https://dc.lft.to/lastmile_qr_scan"}, "bike_id": "b6a4a2533ad715aa26017b2366532544", "lon": -77.0050685}, {"is_reserved": 0, "fusion_lon": 0.0, "fusion_lat": 0.0, "name": "dce6696250d71f2f6c150fe12a9460db", "type": "electric_scooter", "is_disabled": 0, "lat": 38.8991705, "rental_uris": {"android": "https://dc.lft.to/lastmile_qr_scan", "ios": "https://dc.lft.to/lastmile_qr_scan"}, "bike_id": "dce6696250d71f2f6c150fe12a9460db", "lon": -77.0331}, {"is_reserved": 0, "fusion_lon": 0.0, "fusion_lat": 0.0, "name": "ed9094c7d6f8f09a984d856ef50ca052", "type": "electric_scooter", "is_disabled": 0, "lat": 38.88721783333333, "rental_uris": {"android": "https://dc.lft.to/lastmile_qr_scan", "ios": "https://dc.lft.to/lastmile_qr_scan"}, "bike_id": "ed9094c7d6f8f09a984d856ef50ca052", "lon": -77.032281}, {"is_reserved": 0, "fusion_lon": 0.0, "fusion_lat": 0.0, "name": "5eba5504af05ed67e3fb306afb0fb922", "type": "electric_scooter", "is_disabled": 0, "lat": 38.89223066666667, "rental_uris": {"android": "https://dc.lft.to/lastmile_qr_scan", "ios": "https://dc.lft.to/lastmile_qr_scan"}, "bike_id": "5eba5504af05ed67e3fb306afb0fb922", "lon": -77.04655333333334}, {"is_reserved": 0, "fusion_lon": 0.0, "fusion_lat": 0.0, "name": "38bdfe7402fb6d381e03010759c0d8a1", "type": "electric_scooter", "is_disabled": 0, "lat": 38.90596133333333, "rental_uris": {"android": "https://dc.lft.to/lastmile_qr_scan", "ios": "https://dc.lft.to/lastmile_qr_scan"}, "bike_id": "38bdfe7402fb6d381e03010759c0d8a1", "lon": -77.06417083333334}, {"is_reserved": 0, "fusion_lon": 0.0, "fusion_lat": 0.0, "name": "ac090b9887236b82b50b757a47c242b1", "type": "electric_scooter", "is_disabled": 0, "lat": 38.9221945, "rental_uris": {"android": "https://dc.lft.to/lastmile_qr_scan", "ios": "https://dc.lft.to/lastmile_qr_scan"}, "bike_id": "ac090b9887236b82b50b757a47c242b1", "lon": -77.04332233333334}, {"is_reserved": 0, "fusion_lon": 0.0, "fusion_lat": 0.0, "name": "f6496c5eb8a922238ddffaa3dd141773", "type": "electric_scooter", "is_disabled": 0, "lat": 38.896021166666664, "rental_uris": {"android": "https://dc.lft.to/lastmile_qr_scan", "ios": "https://dc.lft.to/lastmile_qr_scan"}, "bike_id": "f6496c5eb8a922238ddffaa3dd141773", "lon": -77.01152766666667}, {"is_reserved": 0, "fusion_lon": 0.0, "fusion_lat": 0.0, "name": "612809d4f2112828892e6244dd393d34", "type": "electric_scooter", "is_disabled": 0, "lat": 38.917088, "rental_uris": {"android": "https://dc.lft.to/lastmile_qr_scan", "ios": "https://dc.lft.to/lastmile_qr_scan"}, "bike_id": "612809d4f2112828892e6244dd393d34", "lon": -77.0289815}, {"is_reserved": 0, "fusion_lon": 0.0, "fusion_lat": 0.0, "name": "8dcfb2e713952126b3366d2d5bca1796", "type": "electric_scooter", "is_disabled": 0, "lat": 38.907332333333336, "rental_uris": {"android": "https://dc.lft.to/lastmile_qr_scan", "ios": "https://dc.lft.to/lastmile_qr_scan"}, "bike_id": "8dcfb2e713952126b3366d2d5bca1796", "lon": -76.98700183333334}, {"is_reserved": 0, "fusion_lon": 0.0, "fusion_lat": 0.0, "name": "bd2a647346cbdfcfb58f4f25e754e3b9", "type": "electric_scooter", "is_disabled": 0, "lat": 38.86059933333333, "rental_uris": {"android": "https://dc.lft.to/lastmile_qr_scan", "ios": "https://dc.lft.to/lastmile_qr_scan"}, "bike_id": "bd2a647346cbdfcfb58f4f25e754e3b9", "lon": -76.98505633333333}, {"is_reserved": 0, "fusion_lon": 0.0, "fusion_lat": 0.0, "name": "9c43c5ea5e0caf972b4d7ee100a037b3", "type": "electric_scooter", "is_disabled": 0, "lat": 38.92373166666667, "rental_uris": {"android": "https://dc.lft.to/lastmile_qr_scan", "ios": "https://dc.lft.to/lastmile_qr_scan"}, "bike_id": "9c43c5ea5e0caf972b4d7ee100a037b3", "lon": -77.01920616666666}, {"is_reserved": 0, "fusion_lon": 0.0, "fusion_lat": 0.0, "name": "ee4fd6a0dc1c102f3b0ad093954b4ba3", "type": "electric_scooter", "is_disabled": 0, "lat": 38.923441833333335, "rental_uris": {"android": "https://dc.lft.to/lastmile_qr_scan", "ios": "https://dc.lft.to/lastmile_qr_scan"}, "bike_id": "ee4fd6a0dc1c102f3b0ad093954b4ba3", "lon": -77.051197}, {"is_reserved": 0, "fusion_lon": 0.0, "fusion_lat": 0.0, "name": "8585c04078de08d3b63d660003cd8d96", "type": "electric_scooter", "is_disabled": 0, "lat": 38.90368, "rental_uris": {"android": "https://dc.lft.to/lastmile_qr_scan", "ios": "https://dc.lft.to/lastmile_qr_scan"}, "bike_id": "8585c04078de08d3b63d660003cd8d96", "lon": -76.9971285}, {"is_reserved": 0, "fusion_lon": 0.0, "fusion_lat": 0.0, "name": "5bdf7565481fd3082391aa67f6943b25", "type": "electric_scooter", "is_disabled": 0, "lat": 38.92754816666667, "rental_uris": {"android": "https://dc.lft.to/lastmile_qr_scan", "ios": "https://dc.lft.to/lastmile_qr_scan"}, "bike_id": "5bdf7565481fd3082391aa67f6943b25", "lon": -77.02423883333333}, {"is_reserved": 0, "fusion_lon": 0.0, "fusion_lat": 0.0, "name": "5d6bb68b736865af42e31fe2514250ae", "type": "electric_scooter", "is_disabled": 0, "lat": 38.937117666666666, "rental_uris": {"android": "https://dc.lft.to/lastmile_qr_scan", "ios": "https://dc.lft.to/lastmile_qr_scan"}, "bike_id": "5d6bb68b736865af42e31fe2514250ae", "lon": -77.02935566666666}, {"is_reserved": 0, "fusion_lon": 0.0, "fusion_lat": 0.0, "name": "0f255f8d458c88087cb2f16d6e2838bb", "type": "electric_bike", "is_disabled": 0, "lat": 39.043077833333335, "rental_uris": {"android": "https://dc.lft.to/lastmile_qr_scan", "ios": "https://dc.lft.to/lastmile_qr_scan"}, "bike_id": "0f255f8d458c88087cb2f16d6e2838bb", "lon": -77.05162016666667}, {"is_reserved": 0, "fusion_lon": 0.0, "fusion_lat": 0.0, "name": "8b048c7f194e1ec7dd587f303107cd0c", "type": "electric_scooter", "is_disabled": 0, "lat": 38.90027883333333, "rental_uris": {"android": "https://dc.lft.to/lastmile_qr_scan", "ios": "https://dc.lft.to/lastmile_qr_scan"}, "bike_id": "8b048c7f194e1ec7dd587f303107cd0c", "lon": -77.0437605}, {"is_reserved": 0, "fusion_lon": 0.0, "fusion_lat": 0.0, "name": "8db25a38c71a8d4b5a0a623607c1d9bf", "type": "electric_scooter", "is_disabled": 0, "lat": 38.92530683333333, "rental_uris": {"android": "https://dc.lft.to/lastmile_qr_scan", "ios": "https://dc.lft.to/lastmile_qr_scan"}, "bike_id": "8db25a38c71a8d4b5a0a623607c1d9bf", "lon": -77.04424583333333}, {"is_reserved": 0, "fusion_lon": 0.0, "fusion_lat": 0.0, "name": "aeabaa75d13855ee2d3f6cffc1ae682b", "type": "electric_scooter", "is_disabled": 0, "lat": 38.906633166666666, "rental_uris": {"android": "https://dc.lft.to/lastmile_qr_scan", "ios": "https://dc.lft.to/lastmile_qr_scan"}, "bike_id": "aeabaa75d13855ee2d3f6cffc1ae682b", "lon": -77.00205616666666}, {"is_reserved": 0, "fusion_lon": 0.0, "fusion_lat": 0.0, "name": "292b0abbf09af3151fce2efc8fc4fe10", "type": "electric_scooter", "is_disabled": 0, "lat": 38.9043785, "rental_uris": {"android": "https://dc.lft.to/lastmile_qr_scan", "ios": "https://dc.lft.to/lastmile_qr_scan"}, "bike_id": "292b0abbf09af3151fce2efc8fc4fe10", "lon": -77.02590233333333}, {"is_reserved": 0, "fusion_lon": 0.0, "fusion_lat": 0.0, "name": "b716a1aa9ef312929ed03d4c87fe0742", "type": "electric_scooter", "is_disabled": 0, "lat": 38.930419, "rental_uris": {"android": "https://dc.lft.to/lastmile_qr_scan", "ios": "https://dc.lft.to/lastmile_qr_scan"}, "bike_id": "b716a1aa9ef312929ed03d4c87fe0742", "lon": -77.02795783333333}, {"is_reserved": 0, "fusion_lon": 0.0, "fusion_lat": 0.0, "name": "8ab5adb4d5840a4ffe68407c61694d8c", "type": "electric_scooter", "is_disabled": 0, "lat": 38.90557, "rental_uris": {"android": "https://dc.lft.to/lastmile_qr_scan", "ios": "https://dc.lft.to/lastmile_qr_scan"}, "bike_id": "8ab5adb4d5840a4ffe68407c61694d8c", "lon": -77.00595433333334}, {"is_reserved": 0, "fusion_lon": 0.0, "fusion_lat": 0.0, "name": "531bc2068727993dfcd654d92d371eb8", "type": "electric_scooter", "is_disabled": 0, "lat": 38.90738783333333, "rental_uris": {"android": "https://dc.lft.to/lastmile_qr_scan", "ios": "https://dc.lft.to/lastmile_qr_scan"}, "bike_id": "531bc2068727993dfcd654d92d371eb8", "lon": -77.02972183333333}, {"is_reserved": 0, "fusion_lon": 0.0, "fusion_lat": 0.0, "name": "9f8b6ea318c24a853554eac3e69a904e", "type": "electric_scooter", "is_disabled": 0, "lat": 38.93283683333333, "rental_uris": {"android": "https://dc.lft.to/lastmile_qr_scan", "ios": "https://dc.lft.to/lastmile_qr_scan"}, "bike_id": "9f8b6ea318c24a853554eac3e69a904e", "lon": -77.02544433333334}, {"is_reserved": 0, "fusion_lon": 0.0, "fusion_lat": 0.0, "name": "b69829f8be21e9dfdd0be07115647770", "type": "electric_bike", "is_disabled": 0, "lat": 38.911774, "rental_uris": {"android": "https://dc.lft.to/lastmile_qr_scan", "ios": "https://dc.lft.to/lastmile_qr_scan"}, "bike_id": "b69829f8be21e9dfdd0be07115647770", "lon": -77.01149383333333}, {"is_reserved": 0, "fusion_lon": 0.0, "fusion_lat": 0.0, "name": "e4773e11446c6c2774c6f6847d2118e4", "type": "electric_scooter", "is_disabled": 0, "lat": 38.9060385, "rental_uris": {"android": "https://dc.lft.to/lastmile_qr_scan", "ios": "https://dc.lft.to/lastmile_qr_scan"}, "bike_id": "e4773e11446c6c2774c6f6847d2118e4", "lon": -77.04042766666667}, {"is_reserved": 0, "fusion_lon": 0.0, "fusion_lat": 0.0, "name": "1ad7d1b1da6b3f0e9d8fc2713318300a", "type": "electric_scooter", "is_disabled": 0, "lat": 38.899196833333335, "rental_uris": {"android": "https://dc.lft.to/lastmile_qr_scan", "ios": "https://dc.lft.to/lastmile_qr_scan"}, "bike_id": "1ad7d1b1da6b3f0e9d8fc2713318300a", "lon": -77.03278833333333}, {"is_reserved": 0, "fusion_lon": 0.0, "fusion_lat": 0.0, "name": "8923a5f2a30d16cee3ceb7b38ab36030", "type": "electric_scooter", "is_disabled": 0, "lat": 38.911803, "rental_uris": {"android": "https://dc.lft.to/lastmile_qr_scan", "ios": "https://dc.lft.to/lastmile_qr_scan"}, "bike_id": "8923a5f2a30d16cee3ceb7b38ab36030", "lon": -77.003193}, {"is_reserved": 0, "fusion_lon": 0.0, "fusion_lat": 0.0, "name": "9caa2a36268618c3de0048c106592c38", "type": "electric_scooter", "is_disabled": 0, "lat": 38.899614, "rental_uris": {"android": "https://dc.lft.to/lastmile_qr_scan", "ios": "https://dc.lft.to/lastmile_qr_scan"}, "bike_id": "9caa2a36268618c3de0048c106592c38", "lon": -77.04515133333334}, {"is_reserved": 0, "fusion_lon": 0.0, "fusion_lat": 0.0, "name": "7101442b4ebfc97e4500037c68c28582", "type": "electric_scooter", "is_disabled": 0, "lat": 38.92105733333333, "rental_uris": {"android": "https://dc.lft.to/lastmile_qr_scan", "ios": "https://dc.lft.to/lastmile_qr_scan"}, "bike_id": "7101442b4ebfc97e4500037c68c28582", "lon": -76.993958}, {"is_reserved": 0, "fusion_lon": 0.0, "fusion_lat": 0.0, "name": "a36503629a4cc596c536fa6f1a245534", "type": "electric_bike", "is_disabled": 0, "lat": 38.829127666666665, "rental_uris": {"android": "https://dc.lft.to/lastmile_qr_scan", "ios": "https://dc.lft.to/lastmile_qr_scan"}, "bike_id": "a36503629a4cc596c536fa6f1a245534", "lon": -76.99783916666667}, {"is_reserved": 0, "fusion_lon": 0.0, "fusion_lat": 0.0, "name": "0c22b7938d2d54707d3d3a345da2de5a", "type": "electric_scooter", "is_disabled": 0, "lat": 38.948383666666665, "rental_uris": {"android": "https://dc.lft.to/lastmile_qr_scan", "ios": "https://dc.lft.to/lastmile_qr_scan"}, "bike_id": "0c22b7938d2d54707d3d3a345da2de5a", "lon": -77.025441}, {"is_reserved": 0, "fusion_lon": 0.0, "fusion_lat": 0.0, "name": "e85477bdcdd11b84508a5ad82ae44f96", "type": "electric_scooter", "is_disabled": 0, "lat": 38.904109, "rental_uris": {"android": "https://dc.lft.to/lastmile_qr_scan", "ios": "https://dc.lft.to/lastmile_qr_scan"}, "bike_id": "e85477bdcdd11b84508a5ad82ae44f96", "lon": -77.067699}, {"is_reserved": 0, "fusion_lon": 0.0, "fusion_lat": 0.0, "name": "f204dc1b923549f6ee35c97762c6f80f", "type": "electric_scooter", "is_disabled": 0, "lat": 38.900156333333335, "rental_uris": {"android": "https://dc.lft.to/lastmile_qr_scan", "ios": "https://dc.lft.to/lastmile_qr_scan"}, "bike_id": "f204dc1b923549f6ee35c97762c6f80f", "lon": -76.9869385}, {"is_reserved": 0, "fusion_lon": 0.0, "fusion_lat": 0.0, "name": "803516e2e8f695faacdfacb92570a82b", "type": "electric_scooter", "is_disabled": 0, "lat": 38.88831916666667, "rental_uris": {"android": "https://dc.lft.to/lastmile_qr_scan", "ios": "https://dc.lft.to/lastmile_qr_scan"}, "bike_id": "803516e2e8f695faacdfacb92570a82b", "lon": -76.993714}, {"is_reserved": 0, "fusion_lon": 0.0, "fusion_lat": 0.0, "name": "00d926d565d70c88f0de2ce9e9869e47", "type": "electric_scooter", "is_disabled": 0, "lat": 38.918696, "rental_uris": {"android": "https://dc.lft.to/lastmile_qr_scan", "ios": "https://dc.lft.to/lastmile_qr_scan"}, "bike_id": "00d926d565d70c88f0de2ce9e9869e47", "lon": -77.0444275}, {"is_reserved": 0, "fusion_lon": 0.0, "fusion_lat": 0.0, "name": "df72e4a2c3aad5627696f7d0d0048411", "type": "electric_bike", "is_disabled": 0, "lat": 38.962205166666664, "rental_uris": {"android": "https://dc.lft.to/lastmile_qr_scan", "ios": "https://dc.lft.to/lastmile_qr_scan"}, "bike_id": "df72e4a2c3aad5627696f7d0d0048411", "lon": -77.026286}, {"is_reserved": 0, "fusion_lon": 0.0, "fusion_lat": 0.0, "name": "3ac45a643d9f9d432b92acad3613d3da", "type": "electric_scooter", "is_disabled": 0, "lat": 38.863783833333336, "rental_uris": {"android": "https://dc.lft.to/lastmile_qr_scan", "ios": "https://dc.lft.to/lastmile_qr_scan"}, "bike_id": "3ac45a643d9f9d432b92acad3613d3da", "lon": -76.98921266666666}, {"is_reserved": 0, "fusion_lon": 0.0, "fusion_lat": 0.0, "name": "391998fbbcb84e1e7471f6498f5efdff", "type": "electric_scooter", "is_disabled": 0, "lat": 38.9274695, "rental_uris": {"android": "https://dc.lft.to/lastmile_qr_scan", "ios": "https://dc.lft.to/lastmile_qr_scan"}, "bike_id": "391998fbbcb84e1e7471f6498f5efdff", "lon": -77.02538083333333}, {"is_reserved": 0, "fusion_lon": 0.0, "fusion_lat": 0.0, "name": "d8404a97a71f95bbfdd90705789c4ed1", "type": "electric_scooter", "is_disabled": 0, "lat": 38.927391166666666, "rental_uris": {"android": "https://dc.lft.to/lastmile_qr_scan", "ios": "https://dc.lft.to/lastmile_qr_scan"}, "bike_id": "d8404a97a71f95bbfdd90705789c4ed1", "lon": -77.0324215}, {"is_reserved": 0, "fusion_lon": 0.0, "fusion_lat": 0.0, "name": "9d822fa550a66810e311eccd890b73d9", "type": "electric_scooter", "is_disabled": 0, "lat": 38.88606466666667, "rental_uris": {"android": "https://dc.lft.to/lastmile_qr_scan", "ios": "https://dc.lft.to/lastmile_qr_scan"}, "bike_id": "9d822fa550a66810e311eccd890b73d9", "lon": -76.995121}, {"is_reserved": 0, "fusion_lon": 0.0, "fusion_lat": 0.0, "name": "c663889acaec0391f52351bdbbcf48b8", "type": "electric_scooter", "is_disabled": 0, "lat": 38.93294816666667, "rental_uris": {"android": "https://dc.lft.to/lastmile_qr_scan", "ios": "https://dc.lft.to/lastmile_qr_scan"}, "bike_id": "c663889acaec0391f52351bdbbcf48b8", "lon": -77.02190616666667}, {"is_reserved": 0, "fusion_lon": 0.0, "fusion_lat": 0.0, "name": "8d4876aabb326b63ff96d421c8a6c499", "type": "electric_bike", "is_disabled": 0, "lat": 38.896559833333335, "rental_uris": {"android": "https://dc.lft.to/lastmile_qr_scan", "ios": "https://dc.lft.to/lastmile_qr_scan"}, "bike_id": "8d4876aabb326b63ff96d421c8a6c499", "lon": -76.93014933333333}, {"is_reserved": 0, "fusion_lon": 0.0, "fusion_lat": 0.0, "name": "501519d23b710dd7307bea5fdce90e3f", "type": "electric_scooter", "is_disabled": 0, "lat": 38.9267645, "rental_uris": {"android": "https://dc.lft.to/lastmile_qr_scan", "ios": "https://dc.lft.to/lastmile_qr_scan"}, "bike_id": "501519d23b710dd7307bea5fdce90e3f", "lon": -77.04352983333334}, {"is_reserved": 0, "fusion_lon": 0.0, "fusion_lat": 0.0, "name": "363edc3ec11baa187cb650aaf352a39c", "type": "electric_bike", "is_disabled": 0, "lat": 38.90331033333333, "rental_uris": {"android": "https://dc.lft.to/lastmile_qr_scan", "ios": "https://dc.lft.to/lastmile_qr_scan"}, "bike_id": "363edc3ec11baa187cb650aaf352a39c", "lon": -76.97537416666667}, {"is_reserved": 0, "fusion_lon": 0.0, "fusion_lat": 0.0, "name": "cec70c58e59d4a294284734cbc281be8", "type": "electric_bike", "is_disabled": 0, "lat": 38.9673845, "rental_uris": {"android": "https://dc.lft.to/lastmile_qr_scan", "ios": "https://dc.lft.to/lastmile_qr_scan"}, "bike_id": "cec70c58e59d4a294284734cbc281be8", "lon": -76.96047383333334}, {"is_reserved": 0, "fusion_lon": 0.0, "fusion_lat": 0.0, "name": "bad1dedcfd2189383b3ed1bf90bc33a8", "type": "electric_scooter", "is_disabled": 0, "lat": 38.917592666666664, "rental_uris": {"android": "https://dc.lft.to/lastmile_qr_scan", "ios": "https://dc.lft.to/lastmile_qr_scan"}, "bike_id": "bad1dedcfd2189383b3ed1bf90bc33a8", "lon": -77.03644333333334}, {"is_reserved": 0, "fusion_lon": 0.0, "fusion_lat": 0.0, "name": "2ef01e21dbb686374131c1a6d180026e", "type": "electric_scooter", "is_disabled": 0, "lat": 38.89730616666667, "rental_uris": {"android": "https://dc.lft.to/lastmile_qr_scan", "ios": "https://dc.lft.to/lastmile_qr_scan"}, "bike_id": "2ef01e21dbb686374131c1a6d180026e", "lon": -77.0552585}, {"is_reserved": 0, "fusion_lon": 0.0, "fusion_lat": 0.0, "name": "376809c35e9d82761c2f5d23713a277b", "type": "electric_scooter", "is_disabled": 0, "lat": 38.922368, "rental_uris": {"android": "https://dc.lft.to/lastmile_qr_scan", "ios": "https://dc.lft.to/lastmile_qr_scan"}, "bike_id": "376809c35e9d82761c2f5d23713a277b", "lon": -77.018233}, {"is_reserved": 0, "fusion_lon": 0.0, "fusion_lat": 0.0, "name": "18b95b85e980466b58bb775f1ed0b6cf", "type": "electric_scooter", "is_disabled": 0, "lat": 38.92004983333333, "rental_uris": {"android": "https://dc.lft.to/lastmile_qr_scan", "ios": "https://dc.lft.to/lastmile_qr_scan"}, "bike_id": "18b95b85e980466b58bb775f1ed0b6cf", "lon": -77.04169516666667}, {"is_reserved": 0, "fusion_lon": 0.0, "fusion_lat": 0.0, "name": "5de39bfd3be44dc362246e12dfa6a1ea", "type": "electric_scooter", "is_disabled": 0, "lat": 38.95230633333333, "rental_uris": {"android": "https://dc.lft.to/lastmile_qr_scan", "ios": "https://dc.lft.to/lastmile_qr_scan"}, "bike_id": "5de39bfd3be44dc362246e12dfa6a1ea", "lon": -77.01430466666666}, {"is_reserved": 0, "fusion_lon": 0.0, "fusion_lat": 0.0, "name": "439029c2071a88dc3b56cda3e1706dd7", "type": "electric_scooter", "is_disabled": 0, "lat": 38.878808166666666, "rental_uris": {"android": "https://dc.lft.to/lastmile_qr_scan", "ios": "https://dc.lft.to/lastmile_qr_scan"}, "bike_id": "439029c2071a88dc3b56cda3e1706dd7", "lon": -77.02320783333333}, {"is_reserved": 0, "fusion_lon": 0.0, "fusion_lat": 0.0, "name": "c448d3257f9081b8b40d02a98c56cdff", "type": "electric_scooter", "is_disabled": 0, "lat": 38.92274, "rental_uris": {"android": "https://dc.lft.to/lastmile_qr_scan", "ios": "https://dc.lft.to/lastmile_qr_scan"}, "bike_id": "c448d3257f9081b8b40d02a98c56cdff", "lon": -77.03222916666667}, {"is_reserved": 0, "fusion_lon": 0.0, "fusion_lat": 0.0, "name": "7cac12e317cd80d4a1da96999811a5f0", "type": "electric_scooter", "is_disabled": 0, "lat": 38.907169833333334, "rental_uris": {"android": "https://dc.lft.to/lastmile_qr_scan", "ios": "https://dc.lft.to/lastmile_qr_scan"}, "bike_id": "7cac12e317cd80d4a1da96999811a5f0", "lon": -77.03824783333333}, {"is_reserved": 0, "fusion_lon": 0.0, "fusion_lat": 0.0, "name": "d4579274f28c899f920ab23b95a71088", "type": "electric_scooter", "is_disabled": 0, "lat": 38.887206166666665, "rental_uris": {"android": "https://dc.lft.to/lastmile_qr_scan", "ios": "https://dc.lft.to/lastmile_qr_scan"}, "bike_id": "d4579274f28c899f920ab23b95a71088", "lon": -77.021895}, {"is_reserved": 0, "fusion_lon": 0.0, "fusion_lat": 0.0, "name": "86d1911680264c0b2379e7de78547deb", "type": "electric_scooter", "is_disabled": 0, "lat": 38.9193915, "rental_uris": {"android": "https://dc.lft.to/lastmile_qr_scan", "ios": "https://dc.lft.to/lastmile_qr_scan"}, "bike_id": "86d1911680264c0b2379e7de78547deb", "lon": -77.07068483333333}, {"is_reserved": 0, "fusion_lon": 0.0, "fusion_lat": 0.0, "name": "c77bc781da856d9fbddc869042eac797", "type": "electric_scooter", "is_disabled": 0, "lat": 38.89493783333333, "rental_uris": {"android": "https://dc.lft.to/lastmile_qr_scan", "ios": "https://dc.lft.to/lastmile_qr_scan"}, "bike_id": "c77bc781da856d9fbddc869042eac797", "lon": -77.0020815}, {"is_reserved": 0, "fusion_lon": 0.0, "fusion_lat": 0.0, "name": "6b9183d83d17b004bb8c1d1652f6c28a", "type": "electric_scooter", "is_disabled": 0, "lat": 38.908786, "rental_uris": {"android": "https://dc.lft.to/lastmile_qr_scan", "ios": "https://dc.lft.to/lastmile_qr_scan"}, "bike_id": "6b9183d83d17b004bb8c1d1652f6c28a", "lon": -77.00081033333333}, {"is_reserved": 0, "fusion_lon": 0.0, "fusion_lat": 0.0, "name": "db3caf04e85fedec00e5e7ad7504b126", "type": "electric_scooter", "is_disabled": 0, "lat": 38.9248085, "rental_uris": {"android": "https://dc.lft.to/lastmile_qr_scan", "ios": "https://dc.lft.to/lastmile_qr_scan"}, "bike_id": "db3caf04e85fedec00e5e7ad7504b126", "lon": -77.03498183333333}, {"is_reserved": 0, "fusion_lon": 0.0, "fusion_lat": 0.0, "name": "06f83792ede245535491e1ebf2c8e5b5", "type": "electric_scooter", "is_disabled": 0, "lat": 38.9303375, "rental_uris": {"android": "https://dc.lft.to/lastmile_qr_scan", "ios": "https://dc.lft.to/lastmile_qr_scan"}, "bike_id": "06f83792ede245535491e1ebf2c8e5b5", "lon": -77.01299683333333}, {"is_reserved": 0, "fusion_lon": 0.0, "fusion_lat": 0.0, "name": "889949bb71a4b358a4be126706088c96", "type": "electric_scooter", "is_disabled": 0, "lat": 38.918177666666665, "rental_uris": {"android": "https://dc.lft.to/lastmile_qr_scan", "ios": "https://dc.lft.to/lastmile_qr_scan"}, "bike_id": "889949bb71a4b358a4be126706088c96", "lon": -77.03572616666666}, {"is_reserved": 0, "fusion_lon": 0.0, "fusion_lat": 0.0, "name": "61e4b2777163695b608e8249b7e00833", "type": "electric_scooter", "is_disabled": 0, "lat": 38.9071895, "rental_uris": {"android": "https://dc.lft.to/lastmile_qr_scan", "ios": "https://dc.lft.to/lastmile_qr_scan"}, "bike_id": "61e4b2777163695b608e8249b7e00833", "lon": -77.01751783333333}, {"is_reserved": 0, "fusion_lon": 0.0, "fusion_lat": 0.0, "name": "a5e23f7c73c5faaee22e8b1ee677edbb", "type": "electric_scooter", "is_disabled": 0, "lat": 38.9002695, "rental_uris": {"android": "https://dc.lft.to/lastmile_qr_scan", "ios": "https://dc.lft.to/lastmile_qr_scan"}, "bike_id": "a5e23f7c73c5faaee22e8b1ee677edbb", "lon": -77.011866}, {"is_reserved": 0, "fusion_lon": 0.0, "fusion_lat": 0.0, "name": "27b552b22fb3e39b06a7ad4c4d1dad72", "type": "electric_bike", "is_disabled": 0, "lat": 38.89812033333333, "rental_uris": {"android": "https://dc.lft.to/lastmile_qr_scan", "ios": "https://dc.lft.to/lastmile_qr_scan"}, "bike_id": "27b552b22fb3e39b06a7ad4c4d1dad72", "lon": -77.00599733333334}, {"is_reserved": 0, "fusion_lon": 0.0, "fusion_lat": 0.0, "name": "b36fe4f9d338a6bdf606af5c4ef207d3", "type": "electric_scooter", "is_disabled": 0, "lat": 38.892223666666666, "rental_uris": {"android": "https://dc.lft.to/lastmile_qr_scan", "ios": "https://dc.lft.to/lastmile_qr_scan"}, "bike_id": "b36fe4f9d338a6bdf606af5c4ef207d3", "lon": -77.04505816666666}, {"is_reserved": 0, "fusion_lon": 0.0, "fusion_lat": 0.0, "name": "0ebad951b9538f469b4a23760ba7f1a9", "type": "electric_scooter", "is_disabled": 0, "lat": 38.9593715, "rental_uris": {"android": "https://dc.lft.to/lastmile_qr_scan", "ios": "https://dc.lft.to/lastmile_qr_scan"}, "bike_id": "0ebad951b9538f469b4a23760ba7f1a9", "lon": -77.0312945}, {"is_reserved": 0, "fusion_lon": 0.0, "fusion_lat": 0.0, "name": "2b8e58ee17351f0572a7ba4918120272", "type": "electric_scooter", "is_disabled": 0, "lat": 38.90779333333333, "rental_uris": {"android": "https://dc.lft.to/lastmile_qr_scan", "ios": "https://dc.lft.to/lastmile_qr_scan"}, "bike_id": "2b8e58ee17351f0572a7ba4918120272", "lon": -77.038298}, {"is_reserved": 0, "fusion_lon": 0.0, "fusion_lat": 0.0, "name": "4a165411c6bf8173a7e2907a2890c2a2", "type": "electric_scooter", "is_disabled": 0, "lat": 38.8955375, "rental_uris": {"android": "https://dc.lft.to/lastmile_qr_scan", "ios": "https://dc.lft.to/lastmile_qr_scan"}, "bike_id": "4a165411c6bf8173a7e2907a2890c2a2", "lon": -76.99847}, {"is_reserved": 0, "fusion_lon": 0.0, "fusion_lat": 0.0, "name": "7f3b34079d675449cc47e7fbe13110f4", "type": "electric_scooter", "is_disabled": 0, "lat": 38.873641666666664, "rental_uris": {"android": "https://dc.lft.to/lastmile_qr_scan", "ios": "https://dc.lft.to/lastmile_qr_scan"}, "bike_id": "7f3b34079d675449cc47e7fbe13110f4", "lon": -76.97016616666667}, {"is_reserved": 0, "fusion_lon": 0.0, "fusion_lat": 0.0, "name": "3393782c58aebdcc4d6c4c9bee4237ab", "type": "electric_bike", "is_disabled": 0, "lat": 38.91272, "rental_uris": {"android": "https://dc.lft.to/lastmile_qr_scan", "ios": "https://dc.lft.to/lastmile_qr_scan"}, "bike_id": "3393782c58aebdcc4d6c4c9bee4237ab", "lon": -77.012241}, {"is_reserved": 0, "fusion_lon": 0.0, "fusion_lat": 0.0, "name": "7771b8d2cbc407fa57818d3379072dfd", "type": "electric_scooter", "is_disabled": 0, "lat": 38.942951666666666, "rental_uris": {"android": "https://dc.lft.to/lastmile_qr_scan", "ios": "https://dc.lft.to/lastmile_qr_scan"}, "bike_id": "7771b8d2cbc407fa57818d3379072dfd", "lon": -77.02173666666667}, {"is_reserved": 0, "fusion_lon": 0.0, "fusion_lat": 0.0, "name": "3d8909eded2b3e94290551cd25541b06", "type": "electric_scooter", "is_disabled": 0, "lat": 38.91115933333333, "rental_uris": {"android": "https://dc.lft.to/lastmile_qr_scan", "ios": "https://dc.lft.to/lastmile_qr_scan"}, "bike_id": "3d8909eded2b3e94290551cd25541b06", "lon": -77.01025516666667}, {"is_reserved": 0, "fusion_lon": 0.0, "fusion_lat": 0.0, "name": "5a1823b4fa263032236660510b716411", "type": "electric_scooter", "is_disabled": 0, "lat": 38.894946166666664, "rental_uris": {"android": "https://dc.lft.to/lastmile_qr_scan", "ios": "https://dc.lft.to/lastmile_qr_scan"}, "bike_id": "5a1823b4fa263032236660510b716411", "lon": -77.002175}, {"is_reserved": 0, "fusion_lon": 0.0, "fusion_lat": 0.0, "name": "b6f33a8a91c61ac67f00d87e1926660a", "type": "electric_scooter", "is_disabled": 0, "lat": 38.93449916666667, "rental_uris": {"android": "https://dc.lft.to/lastmile_qr_scan", "ios": "https://dc.lft.to/lastmile_qr_scan"}, "bike_id": "b6f33a8a91c61ac67f00d87e1926660a", "lon": -77.03082483333333}, {"is_reserved": 0, "fusion_lon": 0.0, "fusion_lat": 0.0, "name": "e36c9715e6b8039bdbf4305f4087cde8", "type": "electric_scooter", "is_disabled": 0, "lat": 38.89901566666666, "rental_uris": {"android": "https://dc.lft.to/lastmile_qr_scan", "ios": "https://dc.lft.to/lastmile_qr_scan"}, "bike_id": "e36c9715e6b8039bdbf4305f4087cde8", "lon": -77.03180233333333}, {"is_reserved": 0, "fusion_lon": 0.0, "fusion_lat": 0.0, "name": "c3c491b238aa18ca2ac86ff48a46ebeb", "type": "electric_scooter", "is_disabled": 0, "lat": 38.90290016666667, "rental_uris": {"android": "https://dc.lft.to/lastmile_qr_scan", "ios": "https://dc.lft.to/lastmile_qr_scan"}, "bike_id": "c3c491b238aa18ca2ac86ff48a46ebeb", "lon": -77.03473166666667}, {"is_reserved": 0, "fusion_lon": 0.0, "fusion_lat": 0.0, "name": "f4c772f23f66d0e6bc527a0321ca0f6e", "type": "electric_scooter", "is_disabled": 0, "lat": 38.938603666666666, "rental_uris": {"android": "https://dc.lft.to/lastmile_qr_scan", "ios": "https://dc.lft.to/lastmile_qr_scan"}, "bike_id": "f4c772f23f66d0e6bc527a0321ca0f6e", "lon": -77.02651616666667}, {"is_reserved": 0, "fusion_lon": 0.0, "fusion_lat": 0.0, "name": "dce4688c759043d5adb2e60ed6e0aaf9", "type": "electric_scooter", "is_disabled": 0, "lat": 38.909816, "rental_uris": {"android": "https://dc.lft.to/lastmile_qr_scan", "ios": "https://dc.lft.to/lastmile_qr_scan"}, "bike_id": "dce4688c759043d5adb2e60ed6e0aaf9", "lon": -77.04265216666667}, {"is_reserved": 0, "fusion_lon": 0.0, "fusion_lat": 0.0, "name": "8872abac005fe0830133507a080c6fdd", "type": "electric_scooter", "is_disabled": 0, "lat": 38.935369666666666, "rental_uris": {"android": "https://dc.lft.to/lastmile_qr_scan", "ios": "https://dc.lft.to/lastmile_qr_scan"}, "bike_id": "8872abac005fe0830133507a080c6fdd", "lon": -77.023539}, {"is_reserved": 0, "fusion_lon": 0.0, "fusion_lat": 0.0, "name": "b6ebd23726392ca5c3e789a68fa6621b", "type": "electric_scooter", "is_disabled": 0, "lat": 38.88742366666666, "rental_uris": {"android": "https://dc.lft.to/lastmile_qr_scan", "ios": "https://dc.lft.to/lastmile_qr_scan"}, "bike_id": "b6ebd23726392ca5c3e789a68fa6621b", "lon": -77.02740783333333}, {"is_reserved": 0, "fusion_lon": 0.0, "fusion_lat": 0.0, "name": "1b85dde8b99538e649aecf803be67a76", "type": "electric_scooter", "is_disabled": 0, "lat": 38.9155455, "rental_uris": {"android": "https://dc.lft.to/lastmile_qr_scan", "ios": "https://dc.lft.to/lastmile_qr_scan"}, "bike_id": "1b85dde8b99538e649aecf803be67a76", "lon": -77.03163833333333}, {"is_reserved": 0, "fusion_lon": 0.0, "fusion_lat": 0.0, "name": "25c1b50e0ed82394e0464d23a0c808d4", "type": "electric_scooter", "is_disabled": 0, "lat": 38.94198683333333, "rental_uris": {"android": "https://dc.lft.to/lastmile_qr_scan", "ios": "https://dc.lft.to/lastmile_qr_scan"}, "bike_id": "25c1b50e0ed82394e0464d23a0c808d4", "lon": -77.025046}, {"is_reserved": 0, "fusion_lon": 0.0, "fusion_lat": 0.0, "name": "f0bff996632c217e2f30f51f0d4069ac", "type": "electric_scooter", "is_disabled": 0, "lat": 38.926670333333334, "rental_uris": {"android": "https://dc.lft.to/lastmile_qr_scan", "ios": "https://dc.lft.to/lastmile_qr_scan"}, "bike_id": "f0bff996632c217e2f30f51f0d4069ac", "lon": -76.99540033333334}, {"is_reserved": 0, "fusion_lon": 0.0, "fusion_lat": 0.0, "name": "463b9b74541c51c454be165fb9fd7890", "type": "electric_bike", "is_disabled": 0, "lat": 38.8658105, "rental_uris": {"android": "https://dc.lft.to/lastmile_qr_scan", "ios": "https://dc.lft.to/lastmile_qr_scan"}, "bike_id": "463b9b74541c51c454be165fb9fd7890", "lon": -77.0476195}, {"is_reserved": 0, "fusion_lon": 0.0, "fusion_lat": 0.0, "name": "a8d80d47b415943dedc56db6c408dd3e", "type": "electric_scooter", "is_disabled": 0, "lat": 38.90969583333333, "rental_uris": {"android": "https://dc.lft.to/lastmile_qr_scan", "ios": "https://dc.lft.to/lastmile_qr_scan"}, "bike_id": "a8d80d47b415943dedc56db6c408dd3e", "lon": -77.0401385}, {"is_reserved": 0, "fusion_lon": 0.0, "fusion_lat": 0.0, "name": "7578bebea95b0551cfb8339aac16dd95", "type": "electric_scooter", "is_disabled": 0, "lat": 38.912628166666664, "rental_uris": {"android": "https://dc.lft.to/lastmile_qr_scan", "ios": "https://dc.lft.to/lastmile_qr_scan"}, "bike_id": "7578bebea95b0551cfb8339aac16dd95", "lon": -77.0312215}, {"is_reserved": 0, "fusion_lon": 0.0, "fusion_lat": 0.0, "name": "9caeb10bca630d42639b7463b0e85220", "type": "electric_scooter", "is_disabled": 0, "lat": 38.900178833333335, "rental_uris": {"android": "https://dc.lft.to/lastmile_qr_scan", "ios": "https://dc.lft.to/lastmile_qr_scan"}, "bike_id": "9caeb10bca630d42639b7463b0e85220", "lon": -77.01178933333334}, {"is_reserved": 0, "fusion_lon": 0.0, "fusion_lat": 0.0, "name": "0f6e8e78300e1b007318fe0d0a8661aa", "type": "electric_scooter", "is_disabled": 0, "lat": 38.91765383333333, "rental_uris": {"android": "https://dc.lft.to/lastmile_qr_scan", "ios": "https://dc.lft.to/lastmile_qr_scan"}, "bike_id": "0f6e8e78300e1b007318fe0d0a8661aa", "lon": -77.04772316666667}, {"is_reserved": 0, "fusion_lon": 0.0, "fusion_lat": 0.0, "name": "dc02fc49923217f27986c813bb451f64", "type": "electric_scooter", "is_disabled": 0, "lat": 38.916939166666666, "rental_uris": {"android": "https://dc.lft.to/lastmile_qr_scan", "ios": "https://dc.lft.to/lastmile_qr_scan"}, "bike_id": "dc02fc49923217f27986c813bb451f64", "lon": -77.03123233333334}, {"is_reserved": 0, "fusion_lon": 0.0, "fusion_lat": 0.0, "name": "6d263623a8b61d8d035bf400602e6843", "type": "electric_scooter", "is_disabled": 0, "lat": 38.939530166666664, "rental_uris": {"android": "https://dc.lft.to/lastmile_qr_scan", "ios": "https://dc.lft.to/lastmile_qr_scan"}, "bike_id": "6d263623a8b61d8d035bf400602e6843", "lon": -77.072478}, {"is_reserved": 0, "fusion_lon": 0.0, "fusion_lat": 0.0, "name": "f9759fc3a94694481b5e973556348ca5", "type": "electric_scooter", "is_disabled": 0, "lat": 38.90036, "rental_uris": {"android": "https://dc.lft.to/lastmile_qr_scan", "ios": "https://dc.lft.to/lastmile_qr_scan"}, "bike_id": "f9759fc3a94694481b5e973556348ca5", "lon": -77.01760033333333}, {"is_reserved": 0, "fusion_lon": 0.0, "fusion_lat": 0.0, "name": "03d3a559afcad8b3487dad1c5c03eba5", "type": "electric_bike", "is_disabled": 0, "lat": 38.86515283333333, "rental_uris": {"android": "https://dc.lft.to/lastmile_qr_scan", "ios": "https://dc.lft.to/lastmile_qr_scan"}, "bike_id": "03d3a559afcad8b3487dad1c5c03eba5", "lon": -76.97335116666666}, {"is_reserved": 0, "fusion_lon": 0.0, "fusion_lat": 0.0, "name": "f13f79a3a67ba0434566e78e9b683f26", "type": "electric_scooter", "is_disabled": 0, "lat": 38.911165, "rental_uris": {"android": "https://dc.lft.to/lastmile_qr_scan", "ios": "https://dc.lft.to/lastmile_qr_scan"}, "bike_id": "f13f79a3a67ba0434566e78e9b683f26", "lon": -77.02380583333333}, {"is_reserved": 0, "fusion_lon": 0.0, "fusion_lat": 0.0, "name": "884620dd2b2de207c8df671106760eb8", "type": "electric_scooter", "is_disabled": 0, "lat": 38.86382966666667, "rental_uris": {"android": "https://dc.lft.to/lastmile_qr_scan", "ios": "https://dc.lft.to/lastmile_qr_scan"}, "bike_id": "884620dd2b2de207c8df671106760eb8", "lon": -76.9890685}, {"is_reserved": 0, "fusion_lon": 0.0, "fusion_lat": 0.0, "name": "5bafe940b0c5bd3597b1245f5b52052a", "type": "electric_scooter", "is_disabled": 0, "lat": 38.92589866666667, "rental_uris": {"android": "https://dc.lft.to/lastmile_qr_scan", "ios": "https://dc.lft.to/lastmile_qr_scan"}, "bike_id": "5bafe940b0c5bd3597b1245f5b52052a", "lon": -77.03778133333333}, {"is_reserved": 0, "fusion_lon": 0.0, "fusion_lat": 0.0, "name": "54844bf00f4632b61638d53c7cc66046", "type": "electric_scooter", "is_disabled": 0, "lat": 38.902513166666665, "rental_uris": {"android": "https://dc.lft.to/lastmile_qr_scan", "ios": "https://dc.lft.to/lastmile_qr_scan"}, "bike_id": "54844bf00f4632b61638d53c7cc66046", "lon": -77.0177445}, {"is_reserved": 0, "fusion_lon": 0.0, "fusion_lat": 0.0, "name": "3ab64ee4cfbffa3248d963ec8f588628", "type": "electric_scooter", "is_disabled": 0, "lat": 38.95732, "rental_uris": {"android": "https://dc.lft.to/lastmile_qr_scan", "ios": "https://dc.lft.to/lastmile_qr_scan"}, "bike_id": "3ab64ee4cfbffa3248d963ec8f588628", "lon": -77.02403433333333}, {"is_reserved": 0, "fusion_lon": 0.0, "fusion_lat": 0.0, "name": "4c919a5d701b806eb8e53fbff11b172c", "type": "electric_bike", "is_disabled": 0, "lat": 38.80017266666667, "rental_uris": {"android": "https://dc.lft.to/lastmile_qr_scan", "ios": "https://dc.lft.to/lastmile_qr_scan"}, "bike_id": "4c919a5d701b806eb8e53fbff11b172c", "lon": -77.05477616666667}, {"is_reserved": 0, "fusion_lon": 0.0, "fusion_lat": 0.0, "name": "74ea18e02fcf876b2cacb64dbb5d18b0", "type": "electric_scooter", "is_disabled": 0, "lat": 38.91759416666667, "rental_uris": {"android": "https://dc.lft.to/lastmile_qr_scan", "ios": "https://dc.lft.to/lastmile_qr_scan"}, "bike_id": "74ea18e02fcf876b2cacb64dbb5d18b0", "lon": -77.02514766666667}, {"is_reserved": 0, "fusion_lon": 0.0, "fusion_lat": 0.0, "name": "8567e9cfb0cd91de28a670e4c4a41c27", "type": "electric_scooter", "is_disabled": 0, "lat": 38.920118333333335, "rental_uris": {"android": "https://dc.lft.to/lastmile_qr_scan", "ios": "https://dc.lft.to/lastmile_qr_scan"}, "bike_id": "8567e9cfb0cd91de28a670e4c4a41c27", "lon": -77.03905533333334}, {"is_reserved": 0, "fusion_lon": 0.0, "fusion_lat": 0.0, "name": "a17c7a4c56796045733827fc2524fbd2", "type": "electric_scooter", "is_disabled": 0, "lat": 38.88720683333333, "rental_uris": {"android": "https://dc.lft.to/lastmile_qr_scan", "ios": "https://dc.lft.to/lastmile_qr_scan"}, "bike_id": "a17c7a4c56796045733827fc2524fbd2", "lon": -77.02185666666666}, {"is_reserved": 0, "fusion_lon": 0.0, "fusion_lat": 0.0, "name": "ed10c6d0127dfbacaeed47fbb6e82200", "type": "electric_scooter", "is_disabled": 0, "lat": 38.911165, "rental_uris": {"android": "https://dc.lft.to/lastmile_qr_scan", "ios": "https://dc.lft.to/lastmile_qr_scan"}, "bike_id": "ed10c6d0127dfbacaeed47fbb6e82200", "lon": -77.03831466666666}, {"is_reserved": 0, "fusion_lon": 0.0, "fusion_lat": 0.0, "name": "d0d878b0c3c573554bc73f4952cb696c", "type": "electric_scooter", "is_disabled": 0, "lat": 38.92946416666667, "rental_uris": {"android": "https://dc.lft.to/lastmile_qr_scan", "ios": "https://dc.lft.to/lastmile_qr_scan"}, "bike_id": "d0d878b0c3c573554bc73f4952cb696c", "lon": -77.0164545}, {"is_reserved": 0, "fusion_lon": 0.0, "fusion_lat": 0.0, "name": "895b39034755824402c9d6bf30f65c54", "type": "electric_scooter", "is_disabled": 0, "lat": 38.919951, "rental_uris": {"android": "https://dc.lft.to/lastmile_qr_scan", "ios": "https://dc.lft.to/lastmile_qr_scan"}, "bike_id": "895b39034755824402c9d6bf30f65c54", "lon": -77.02171783333333},