{"data": {"bikes": [{"is_disabled": 0, "is_reserved": 0, "type": "electric_scooter", "lon": -77.01643966666667, "fusion_lon": 0.0, "lat": 38.92895683333333, "rental_uris": {"android": "https://dc.lft.to/lastmile_qr_scan", "ios": "https://dc.lft.to/lastmile_qr_scan"}, "fusion_lat": 0.0, "name": "a7dd1041bc6d48505ca8dc2c7ebc9c1f", "bike_id": "a7dd1041bc6d48505ca8dc2c7ebc9c1f"}, {"is_disabled": 0, "is_reserved": 0, "type": "electric_scooter", "lon": -77.04494616666666, "fusion_lon": 0.0, "lat": 38.89611516666667, "rental_uris": {"android": "https://dc.lft.to/lastmile_qr_scan", "ios": "https://dc.lft.to/lastmile_qr_scan"}, "fusion_lat": 0.0, "name": "92981e677cb1fa509b146b48d82a756b", "bike_id": "92981e677cb1fa509b146b48d82a756b"}, {"is_disabled": 0, "is_reserved": 0, "type": "electric_scooter", "lon": -76.99537333333333, "fusion_lon": 0.0, "lat": 38.90025333333333, "rental_uris": {"android": "https://dc.lft.to/lastmile_qr_scan", "ios": "https://dc.lft.to/lastmile_qr_scan"}, "fusion_lat": 0.0, "name": "0276ca8c1ca3e01f8a6e79d04015b83e", "bike_id": "0276ca8c1ca3e01f8a6e79d04015b83e"}, {"is_disabled": 0, "is_reserved": 0, "type": "electric_scooter", "lon": -77.02394266666667, "fusion_lon": 0.0, "lat": 38.892480166666665, "rental_uris": {"android": "https://dc.lft.to/lastmile_qr_scan", "ios": "https://dc.lft.to/lastmile_qr_scan"}, "fusion_lat": 0.0, "name": "7fcf5a0de4eef6444af23baea54ed93c", "bike_id": "7fcf5a0de4eef6444af23baea54ed93c"}, {"is_disabled": 0, "is_reserved": 0, "type": "electric_bike", "lon": -76.96389733333334, "fusion_lon": 0.0, "lat": 38.97578266666667, "rental_uris": {"android": "https://dc.lft.to/lastmile_qr_scan", "ios": "https://dc.lft.to/lastmile_qr_scan"}, "fusion_lat": 0.0, "name": "d9867bcc8ce375572f7fd2d1a20887ac", "bike_id": "d9867bcc8ce375572f7fd2d1a20887ac"}, {"is_disabled": 0, "is_reserved": 0, "type": "electric_bike", "lon": -77.033161, "fusion_lon": 0.0, "lat": 38.892276833333334, "rental_uris": {"android": "https://dc.lft.to/lastmile_qr_scan", "ios": "https://dc.lft.to/lastmile_qr_scan"}, "fusion_lat": 0.0, "name": "2654b6e5c86659d9461761531c95d018", "bike_id": "2654b6e5c86659d9461761531c95d018"}, {"is_disabled": 0, "is_reserved": 0, "type": "electric_bike", "lon": -76.94864716666666, "fusion_lon": 0.0, "lat": 38.889671666666665, "rental_uris": {"android": "https://dc.lft.to/lastmile_qr_scan", "ios": "https://dc.lft.to/lastmile_qr_scan"}, "fusion_lat": 0.0, "name": "2d9eeb830e81f9941916ad7a6de07c48", "bike_id": "2d9eeb830e81f9941916ad7a6de07c48"}, {"is_disabled": 0, "is_reserved": 0, "type": "electric_bike", "lon": -76.87776333333333, "fusion_lon": 0.0, "lat": 38.99224066666667, "rental_uris": {"android": "https://dc.lft.to/lastmile_qr_scan", "ios": "https://dc.lft.to/lastmile_qr_scan"}, "fusion_lat": 0.0, "name": "6fbd6012d5ee030f5a423c905f944f61", "bike_id": "6fbd6012d5ee030f5a423c905f944f61"}, {"is_disabled": 0, "is_reserved": 0, "type": "electric_scooter", "lon": -77.03263666666666, "fusion_lon": 0.0, "lat": 38.91932216666667, "rental_uris": {"android": "https://dc.lft.to/lastmile_qr_scan", "ios": "https://dc.lft.to/lastmile_qr_scan"}, "fusion_lat": 0.0, "name": "cb2946a97c9e68411c274fc804f97080", "bike_id": "cb2946a97c9e68411c274fc804f97080"}, {"is_disabled": 0, "is_reserved": 0, "type": "electric_bike", "lon": -77.107083, "fusion_lon": 0.0, "lat": 38.85532633333333, "rental_uris": {"android": "https://dc.lft.to/lastmile_qr_scan", "ios": "https://dc.lft.to/lastmile_qr_scan"}, "fusion_lat": 0.0, "name": "6dca11f092042993dbde0e3b5a47b045", "bike_id": "6dca11f092042993dbde0e3b5a47b045"}, {"is_disabled": 0, "is_reserved": 0, "type": "electric_scooter", "lon": -76.97821216666667, "fusion_lon": 0.0, "lat": 38.84612766666667, "rental_uris": {"android": "https://dc.lft.to/lastmile_qr_scan", "ios": "https://dc.lft.to/lastmile_qr_scan"}, "fusion_lat": 0.0, "name": "f7e53c4f1fa80669a58b9fdda8125d8d", "bike_id": "f7e53c4f1fa80669a58b9fdda8125d8d"}, {"is_disabled": 0, "is_reserved": 0, "type": "electric_scooter", "lon": -76.9488745, "fusion_lon": 0.0, "lat": 38.8951315, "rental_uris": {"android": "https://dc.lft.to/lastmile_qr_scan", "ios": "https://dc.lft.to/lastmile_qr_scan"}, "fusion_lat": 0.0, "name": "c7e9fba44b328342f6f94b8c4c850320", "bike_id": "c7e9fba44b328342f6f94b8c4c850320"}, {"is_disabled": 0, "is_reserved": 0, "type": "electric_scooter", "lon": -77.00846233333333, "fusion_lon": 0.0, "lat": 38.8765875, "rental_uris": {"android": "https://dc.lft.to/lastmile_qr_scan", "ios": "https://dc.lft.to/lastmile_qr_scan"}, "fusion_lat": 0.0, "name": "b40603dbd8a70c69485107e7e1292c8a", "bike_id": "b40603dbd8a70c69485107e7e1292c8a"}, {"is_disabled": 0, "is_reserved": 0, "type": "electric_scooter", "lon": -77.02176866666667, "fusion_lon": 0.0, "lat": 38.9429295, "rental_uris": {"android": "https://dc.lft.to/lastmile_qr_scan", "ios": "https://dc.lft.to/lastmile_qr_scan"}, "fusion_lat": 0.0, "name": "af064e0f0043878f2164653dc9687029", "bike_id": "af064e0f0043878f2164653dc9687029"}, {"is_disabled": 0, "is_reserved": 0, "type": "electric_scooter", "lon": -77.00439183333333, "fusion_lon": 0.0, "lat": 38.87692083333334, "rental_uris": {"android": "https://dc.lft.to/lastmile_qr_scan", "ios": "https://dc.lft.to/lastmile_qr_scan"}, "fusion_lat": 0.0, "name": "b140d9fb6eb66021bfa6c2cb1ec44a72", "bike_id": "b140d9fb6eb66021bfa6c2cb1ec44a72"}, {"is_disabled": 0, "is_reserved": 0, "type": "electric_scooter", "lon": -77.0015315, "fusion_lon": 0.0, "lat": 38.901327, "rental_uris": {"android": "https://dc.lft.to/lastmile_qr_scan", "ios": "https://dc.lft.to/lastmile_qr_scan"}, "fusion_lat": 0.0, "name": "35ca6eb7bfeca66420fa095f000d8ee2", "bike_id": "35ca6eb7bfeca66420fa095f000d8ee2"}, {"is_disabled": 0, "is_reserved": 0, "type": "electric_bike", "lon": -77.1323195, "fusion_lon": 0.0, "lat": 38.86974633333333, "rental_uris": {"android": "https://dc.lft.to/lastmile_qr_scan", "ios": "https://dc.lft.to/lastmile_qr_scan"}, "fusion_lat": 0.0, "name": "284130d7b080e7643a460065d1059515", "bike_id": "284130d7b080e7643a460065d1059515"}, {"is_disabled": 0, "is_reserved": 0, "type": "electric_scooter", "lon": -77.06606733333334, "fusion_lon": 0.0, "lat": 38.90740533333334, "rental_uris": {"android": "https://dc.lft.to/lastmile_qr_scan", "ios": "https://dc.lft.to/lastmile_qr_scan"}, "fusion_lat": 0.0, "name": "6448ff4d0900095f0b84ca5c6cf30f7e", "bike_id": "6448ff4d0900095f0b84ca5c6cf30f7e"}, {"is_disabled": 0, "is_reserved": 0, "type": "electric_scooter", "lon": -77.035986, "fusion_lon": 0.0, "lat": 38.917018666666664, "rental_uris": {"android": "https://dc.lft.to/lastmile_qr_scan", "ios": "https://dc.lft.to/lastmile_qr_scan"}, "fusion_lat": 0.0, "name": "3c312ca19b2956141da92dc669dd67dc", "bike_id": "3c312ca19b2956141da92dc669dd67dc"}, {"is_disabled": 0, "is_reserved": 0, "type": "electric_scooter", "lon": -77.02526216666666, "fusion_lon": 0.0, "lat": 38.9006755, "rental_uris": {"android": "https://dc.lft.to/lastmile_qr_scan", "ios": "https://dc.lft.to/lastmile_qr_scan"}, "fusion_lat": 0.0, "name": "dae1aec39ec0141f3d806aed4607f21f", "bike_id": "dae1aec39ec0141f3d806aed4607f21f"}, {"is_disabled": 0, "is_reserved": 0, "type": "electric_scooter", "lon": -77.028026, "fusion_lon": 0.0, "lat": 38.907401666666665, "rental_uris": {"android": "https://dc.lft.to/lastmile_qr_scan", "ios": "https://dc.lft.to/lastmile_qr_scan"}, "fusion_lat": 0.0, "name": "53006f6f6341533f03b162fdf16bfbbc", "bike_id": "53006f6f6341533f03b162fdf16bfbbc"}, {"is_disabled": 0, "is_reserved": 0, "type": "electric_scooter", "lon": -77.01536216666666, "fusion_lon": 0.0, "lat": 38.886265333333334, "rental_uris": {"android": "https://dc.lft.to/lastmile_qr_scan", "ios": "https://dc.lft.to/lastmile_qr_scan"}, "fusion_lat": 0.0, "name": "0a7a5d2c2499362985a62aa6e096e44b", "bike_id": "0a7a5d2c2499362985a62aa6e096e44b"}, {"is_disabled": 0, "is_reserved": 0, "type": "electric_scooter", "lon": -77.0275705, "fusion_lon": 0.0, "lat": 38.8814815, "rental_uris": {"android": "https://dc.lft.to/lastmile_qr_scan", "ios": "https://dc.lft.to/lastmile_qr_scan"}, "fusion_lat": 0.0, "name": "cac13f020affcf8dac73082cbce6cbe8", "bike_id": "cac13f020affcf8dac73082cbce6cbe8"}, {"is_disabled": 0, "is_reserved": 0, "type": "electric_scooter", "lon": -77.003762, "fusion_lon": 0.0, "lat": 38.87753, "rental_uris": {"android": "https://dc.lft.to/lastmile_qr_scan", "ios": "https://dc.lft.to/lastmile_qr_scan"}, "fusion_lat": 0.0, "name": "a3b19f70ac1fcc2d2d4ebfa0792d15cb", "bike_id": "a3b19f70ac1fcc2d2d4ebfa0792d15cb"}, {"is_disabled": 0, "is_reserved": 0, "type": "electric_scooter", "lon": -77.03318766666666, "fusion_lon": 0.0, "lat": 38.8985085, "rental_uris": {"android": "https://dc.lft.to/lastmile_qr_scan", "ios": "https://dc.lft.to/lastmile_qr_scan"}, "fusion_lat": 0.0, "name": "c93f84bed818ba7d4bd50ae9ac190eed", "bike_id": "c93f84bed818ba7d4bd50ae9ac190eed"}, {"is_disabled": 0, "is_reserved": 0, "type": "electric_scooter", "lon": -77.00585883333333, "fusion_lon": 0.0, "lat": 38.87521733333333, "rental_uris": {"android": "https://dc.lft.to/lastmile_qr_scan", "ios": "https://dc.lft.to/lastmile_qr_scan"}, "fusion_lat": 0.0, "name": "6a3f910c91f48b37b0156252025f2fb5", "bike_id": "6a3f910c91f48b37b0156252025f2fb5"}, {"is_disabled": 0, "is_reserved": 0, "type": "electric_scooter", "lon": -77.04386833333334, "fusion_lon": 0.0, "lat": 38.91658733333333, "rental_uris": {"android": "https://dc.lft.to/lastmile_qr_scan", "ios": "https://dc.lft.to/lastmile_qr_scan"}, "fusion_lat": 0.0, "name": "e84f986a317646671d1ae8dc9abd6018", "bike_id": "e84f986a317646671d1ae8dc9abd6018"}, {"is_disabled": 0, "is_reserved": 0, "type": "electric_scooter", "lon": -77.03831166666667, "fusion_lon": 0.0, "lat": 38.9125435, "rental_uris": {"android": "https://dc.lft.to/lastmile_qr_scan", "ios": "https://dc.lft.to/lastmile_qr_scan"}, "fusion_lat": 0.0, "name": "c7a46f8081f55d25e878297f7811cff5", "bike_id": "c7a46f8081f55d25e878297f7811cff5"}, {"is_disabled": 0, "is_reserved": 0, "type": "electric_scooter", "lon": -77.04760633333333, "fusion_lon": 0.0, "lat": 38.900808833333336, "rental_uris": {"android": "https://dc.lft.to/lastmile_qr_scan", "ios": "https://dc.lft.to/lastmile_qr_scan"}, "fusion_lat": 0.0, "name": "f8ea1675352ad53aa11456b8e1e1e857", "bike_id": "f8ea1675352ad53aa11456b8e1e1e857"}, {"is_disabled": 0, "is_reserved": 0, "type": "electric_bike", "lon": -76.92918416666667, "fusion_lon": 0.0, "lat": 38.980256833333335, "rental_uris": {"android": "https://dc.lft.to/lastmile_qr_scan", "ios": "https://dc.lft.to/lastmile_qr_scan"}, "fusion_lat": 0.0, "name": "b9a0a3ca3313d72f525f957be4b61676", "bike_id": "b9a0a3ca3313d72f525f957be4b61676"}, {"is_disabled": 0, "is_reserved": 0, "type": "electric_scooter", "lon": -77.05000916666667, "fusion_lon": 0.0, "lat": 38.9008435, "rental_uris": {"android": "https://dc.lft.to/lastmile_qr_scan", "ios": "https://dc.lft.to/lastmile_qr_scan"}, "fusion_lat": 0.0, "name": "bc2f6f7954b59dd2c2dab925a5a2e5b4", "bike_id": "bc2f6f7954b59dd2c2dab925a5a2e5b4"}, {"is_disabled": 0, "is_reserved": 0, "type": "electric_scooter", "lon": -77.04584416666667, "fusion_lon": 0.0, "lat": 38.91704933333333, "rental_uris": {"android": "https://dc.lft.to/lastmile_qr_scan", "ios": "https://dc.lft.to/lastmile_qr_scan"}, "fusion_lat": 0.0, "name": "37ea7fbea5f28f528643aeb1b43c78e6", "bike_id": "37ea7fbea5f28f528643aeb1b43c78e6"}, {"is_disabled": 0, "is_reserved": 0, "type": "electric_scooter", "lon": -76.99808716666666, "fusion_lon": 0.0, "lat": 38.87667016666666, "rental_uris": {"android": "https://dc.lft.to/lastmile_qr_scan", "ios": "https://dc.lft.to/lastmile_qr_scan"}, "fusion_lat": 0.0, "name": "45892542f236c0fec12e8ae836bc1f26", "bike_id": "45892542f236c0fec12e8ae836bc1f26"}, {"is_disabled": 0, "is_reserved": 0, "type": "electric_scooter", "lon": -77.0380025, "fusion_lon": 0.0, "lat": 38.90564666666667, "rental_uris": {"android": "https://dc.lft.to/lastmile_qr_scan", "ios": "https://dc.lft.to/lastmile_qr_scan"}, "fusion_lat": 0.0, "name": "07d3abca0f9b13cd338c6236bdbc5e92", "bike_id": "07d3abca0f9b13cd338c6236bdbc5e92"}, {"is_disabled": 0, "is_reserved": 0, "type": "electric_scooter", "lon": -76.94469433333333, "fusion_lon": 0.0, "lat": 38.902807833333334, "rental_uris": {"android": "https://dc.lft.to/lastmile_qr_scan", "ios": "https://dc.lft.to/lastmile_qr_scan"}, "fusion_lat": 0.0, "name": "70df237b92b639a1cae05563a049ec10", "bike_id": "70df237b92b639a1cae05563a049ec10"}, {"is_disabled": 0, "is_reserved": 0, "type": "electric_scooter", "lon": -77.04281766666666, "fusion_lon": 0.0, "lat": 38.9079425, "rental_uris": {"android": "https://dc.lft.to/lastmile_qr_scan", "ios": "https://dc.lft.to/lastmile_qr_scan"}, "fusion_lat": 0.0, "name": "ef8ae076365a6048029fcffb3167799f", "bike_id": "ef8ae076365a6048029fcffb3167799f"}, {"is_disabled": 0, "is_reserved": 0, "type": "electric_scooter", "lon": -77.02976683333333, "fusion_lon": 0.0, "lat": 38.92040166666666, "rental_uris": {"android": "https://dc.lft.to/lastmile_qr_scan", "ios": "https://dc.lft.to/lastmile_qr_scan"}, "fusion_lat": 0.0, "name": "0cbea79dcdf51779500f67934319d1cf", "bike_id": "0cbea79dcdf51779500f67934319d1cf"}, {"is_disabled": 0, "is_reserved": 0, "type": "electric_scooter", "lon": -77.01979816666666, "fusion_lon": 0.0, "lat": 38.89247133333333, "rental_uris": {"android": "https://dc.lft.to/lastmile_qr_scan", "ios": "https://dc.lft.to/lastmile_qr_scan"}, "fusion_lat": 0.0, "name": "c187c46925448ed777e00603d3d8a013", "bike_id": "c187c46925448ed777e00603d3d8a013"}, {"is_disabled": 0, "is_reserved": 0, "type": "electric_scooter", "lon": -76.94995783333333, "fusion_lon": 0.0, "lat": 38.89390566666667, "rental_uris": {"android": "https://dc.lft.to/lastmile_qr_scan", "ios": "https://dc.lft.to/lastmile_qr_scan"}, "fusion_lat": 0.0, "name": "765a12b1c975d2c39d2ade42bcca704f", "bike_id": "765a12b1c975d2c39d2ade42bcca704f"}, {"is_disabled": 0, "is_reserved": 0, "type": "electric_scooter", "lon": -77.021763, "fusion_lon": 0.0, "lat": 38.897391666666664, "rental_uris": {"android": "https://dc.lft.to/lastmile_qr_scan", "ios": "https://dc.lft.to/lastmile_qr_scan"}, "fusion_lat": 0.0, "name": "a43a339a7a7d4ff5048b2811743b65fb", "bike_id": "a43a339a7a7d4ff5048b2811743b65fb"}, {"is_disabled": 0, "is_reserved": 0, "type": "electric_scooter", "lon": -76.946393, "fusion_lon": 0.0, "lat": 38.898469666666664, "rental_uris": {"android": "https://dc.lft.to/lastmile_qr_scan", "ios": "https://dc.lft.to/lastmile_qr_scan"}, "fusion_lat": 0.0, "name": "a64b6f10e08cc25a61729ec0c4cd83a1", "bike_id": "a64b6f10e08cc25a61729ec0c4cd83a1"}, {"is_disabled": 0, "is_reserved": 0, "type": "electric_scooter", "lon": -77.022722, "fusion_lon": 0.0, "lat": 38.8971145, "rental_uris": {"android": "https://dc.lft.to/lastmile_qr_scan", "ios": "https://dc.lft.to/lastmile_qr_scan"}, "fusion_lat": 0.0, "name": "687b6491cf8bd92eb7cd80f443854a08", "bike_id": "687b6491cf8bd92eb7cd80f443854a08"}, {"is_disabled": 0, "is_reserved": 0, "type": "electric_scooter", "lon": -77.043148, "fusion_lon": 0.0, "lat": 38.918836666666664, "rental_uris": {"android": "https://dc.lft.to/lastmile_qr_scan", "ios": "https://dc.lft.to/lastmile_qr_scan"}, "fusion_lat": 0.0, "name": "f18320a89d8b68a80331940143962947", "bike_id": "f18320a89d8b68a80331940143962947"}, {"is_disabled": 0, "is_reserved": 0, "type": "electric_scooter", "lon": -77.033212, "fusion_lon": 0.0, "lat": 38.89809016666667, "rental_uris": {"android": "https://dc.lft.to/lastmile_qr_scan", "ios": "https://dc.lft.to/lastmile_qr_scan"}, "fusion_lat": 0.0, "name": "43ba1489959ca1f604636e81c162475e", "bike_id": "43ba1489959ca1f604636e81c162475e"}, {"is_disabled": 0, "is_reserved": 0, "type": "electric_scooter", "lon": -77.04495183333333, "fusion_lon": 0.0, "lat": 38.90677633333333, "rental_uris": {"android": "https://dc.lft.to/lastmile_qr_scan", "ios": "https://dc.lft.to/lastmile_qr_scan"}, "fusion_lat": 0.0, "name": "272bf7e798e71a15a1533d1a4c5a3084", "bike_id": "272bf7e798e71a15a1533d1a4c5a3084"}, {"is_disabled": 0, "is_reserved": 0, "type": "electric_scooter", "lon": -77.02122983333334, "fusion_lon": 0.0, "lat": 38.892163833333335, "rental_uris": {"android": "https://dc.lft.to/lastmile_qr_scan", "ios": "https://dc.lft.to/lastmile_qr_scan"}, "fusion_lat": 0.0, "name": "d0438bb6d12ea569ce19d29cd8dbd81e", "bike_id": "d0438bb6d12ea569ce19d29cd8dbd81e"}, {"is_disabled": 0, "is_reserved": 0, "type": "electric_scooter", "lon": -77.03523583333333, "fusion_lon": 0.0, "lat": 38.922587166666666, "rental_uris": {"android": "https://dc.lft.to/lastmile_qr_scan", "ios": "https://dc.lft.to/lastmile_qr_scan"}, "fusion_lat": 0.0, "name": "53f20e1020b0c6e6ecedfe35c54221f7", "bike_id": "53f20e1020b0c6e6ecedfe35c54221f7"}, {"is_disabled": 0, "is_reserved": 0, "type": "electric_scooter", "lon": -77.05791316666667, "fusion_lon": 0.0, "lat": 38.934780833333335, "rental_uris": {"android": "https://dc.lft.to/lastmile_qr_scan", "ios": "https://dc.lft.to/lastmile_qr_scan"}, "fusion_lat": 0.0, "name": "c1225ea01711fe783642737c91afd023", "bike_id": "c1225ea01711fe783642737c91afd023"}, {"is_disabled": 0, "is_reserved": 0, "type": "electric_scooter", "lon": -77.03348083333333, "fusion_lon": 0.0, "lat": 38.92237883333333, "rental_uris": {"android": "https://dc.lft.to/lastmile_qr_scan", "ios": "https://dc.lft.to/lastmile_qr_scan"}, "fusion_lat": 0.0, "name": "0f4e559fc905b9f3f643e253662cdc4f", "bike_id": "0f4e559fc905b9f3f643e253662cdc4f"}, {"is_disabled": 0, "is_reserved": 0, "type": "electric_scooter", "lon": -77.015112, "fusion_lon": 0.0, "lat": 38.88738416666666, "rental_uris": {"android": "https://dc.lft.to/lastmile_qr_scan", "ios": "https://dc.lft.to/lastmile_qr_scan"}, "fusion_lat": 0.0, "name": "f56116c6d1831bd7fc03ba772c8adb2b", "bike_id": "f56116c6d1831bd7fc03ba772c8adb2b"}, {"is_disabled": 0, "is_reserved": 0, "type": "electric_scooter", "lon": -77.06058866666666, "fusion_lon": 0.0, "lat": 38.9051505, "rental_uris": {"android": "https://dc.lft.to/lastmile_qr_scan", "ios": "https://dc.lft.to/lastmile_qr_scan"}, "fusion_lat": 0.0, "name": "2254e8e6619072b372d9b9aac60eab25", "bike_id": "2254e8e6619072b372d9b9aac60eab25"}, {"is_disabled": 0, "is_reserved": 0, "type": "electric_scooter", "lon": -77.0074355, "fusion_lon": 0.0, "lat": 38.91557, "rental_uris": {"android": "https://dc.lft.to/lastmile_qr_scan", "ios": "https://dc.lft.to/lastmile_qr_scan"}, "fusion_lat": 0.0, "name": "f7b80f9f712c8263b34e8d3c735246d5", "bike_id": "f7b80f9f712c8263b34e8d3c735246d5"}, {"is_disabled": 0, "is_reserved": 0, "type": "electric_scooter", "lon": -77.040591, "fusion_lon": 0.0, "lat": 38.92545833333333, "rental_uris": {"android": "https://dc.lft.to/lastmile_qr_scan", "ios": "https://dc.lft.to/lastmile_qr_scan"}, "fusion_lat": 0.0, "name": "8e44cab23f0816af9f6ecbe1c1e9d49b", "bike_id": "8e44cab23f0816af9f6ecbe1c1e9d49b"}, {"is_disabled": 0, "is_reserved": 0, "type": "electric_bike", "lon": -77.08582066666666, "fusion_lon": 0.0, "lat": 38.87410966666667, "rental_uris": {"android": "https://dc.lft.to/lastmile_qr_scan", "ios": "https://dc.lft.to/lastmile_qr_scan"}, "fusion_lat": 0.0, "name": "4b6c6425212342bed7a17e8993375621", "bike_id": "4b6c6425212342bed7a17e8993375621"}, {"is_disabled": 0, "is_reserved": 0, "type": "electric_scooter", "lon": -76.99818583333334, "fusion_lon": 0.0, "lat": 38.844358, "rental_uris": {"android": "https://dc.lft.to/lastmile_qr_scan", "ios": "https://dc.lft.to/lastmile_qr_scan"}, "fusion_lat": 0.0, "name": "11562c0c963c08501bfd34d81d7cb3c1", "bike_id": "11562c0c963c08501bfd34d81d7cb3c1"}, {"is_disabled": 0, "is_reserved": 0, "type": "electric_scooter", "lon": -77.03184466666667, "fusion_lon": 0.0, "lat": 38.9192265, "rental_uris": {"android": "https://dc.lft.to/lastmile_qr_scan", "ios": "https://dc.lft.to/lastmile_qr_scan"}, "fusion_lat": 0.0, "name": "89dcfe3a52a4b759238ef694cbb734d6", "bike_id": "89dcfe3a52a4b759238ef694cbb734d6"}, {"is_disabled": 0, "is_reserved": 0, "type": "electric_scooter", "lon": -77.0212285, "fusion_lon": 0.0, "lat": 38.887409166666664, "rental_uris": {"android": "https://dc.lft.to/lastmile_qr_scan", "ios": "https://dc.lft.to/lastmile_qr_scan"}, "fusion_lat": 0.0, "name": "a7a682c75b524afb250eb97b0f5e11e2", "bike_id": "a7a682c75b524afb250eb97b0f5e11e2"}, {"is_disabled": 0, "is_reserved": 0, "type": "electric_scooter", "lon": -77.02948133333334, "fusion_lon": 0.0, "lat": 38.8920975, "rental_uris": {"android": "https://dc.lft.to/lastmile_qr_scan", "ios": "https://dc.lft.to/lastmile_qr_scan"}, "fusion_lat": 0.0, "name": "65c55bdc5040914b7b88ff71e50f0f0c", "bike_id": "65c55bdc5040914b7b88ff71e50f0f0c"}, {"is_disabled": 0, "is_reserved": 0, "type": "electric_scooter", "lon": -77.02706666666667, "fusion_lon": 0.0, "lat": 38.88139966666667, "rental_uris": {"android": "https://dc.lft.to/lastmile_qr_scan", "ios": "https://dc.lft.to/lastmile_qr_scan"}, "fusion_lat": 0.0, "name": "055ff98144a042ffa7b48883ffc2af19", "bike_id": "055ff98144a042ffa7b48883ffc2af19"}, {"is_disabled": 0, "is_reserved": 0, "type": "electric_bike", "lon": -77.17526966666667, "fusion_lon": 0.0, "lat": 39.09604683333333, "rental_uris": {"android": "https://dc.lft.to/lastmile_qr_scan", "ios": "https://dc.lft.to/lastmile_qr_scan"}, "fusion_lat": 0.0, "name": "11ba4e3fff32c1af0666c34747f60d14", "bike_id": "11ba4e3fff32c1af0666c34747f60d14"}, {"is_disabled": 0, "is_reserved": 0, "type": "electric_scooter", "lon": -77.02714016666667, "fusion_lon": 0.0, "lat": 38.92883116666667, "rental_uris": {"android": "https://dc.lft.to/lastmile_qr_scan", "ios": "https://dc.lft.to/lastmile_qr_scan"}, "fusion_lat": 0.0, "name": "eaa58002f067fdba66ef5d7277373dd3", "bike_id": "eaa58002f067fdba66ef5d7277373dd3"}, {"is_disabled": 0, "is_reserved": 0, "type": "electric_bike", "lon": -77.12626633333333, "fusion_lon": 0.0, "lat": 39.058138166666666, "rental_uris": {"android": "https://dc.lft.to/lastmile_qr_scan", "ios": "https://dc.lft.to/lastmile_qr_scan"}, "fusion_lat": 0.0, "name": "f5e7f6d45daec6065a24124938276b53", "bike_id": "f5e7f6d45daec6065a24124938276b53"}, {"is_disabled": 0, "is_reserved": 0, "type": "electric_scooter", "lon": -77.04407433333333, "fusion_lon": 0.0, "lat": 38.910442333333336, "rental_uris": {"android": "https://dc.lft.to/lastmile_qr_scan", "ios": "https://dc.lft.to/lastmile_qr_scan"}, "fusion_lat": 0.0, "name": "1cf9440c5d84c3811c414c801733b310", "bike_id": "1cf9440c5d84c3811c414c801733b310"}, {"is_disabled": 0, "is_reserved": 0, "type": "electric_scooter", "lon": -77.02711416666666, "fusion_lon": 0.0, "lat": 38.90074533333333, "rental_uris": {"android": "https://dc.lft.to/lastmile_qr_scan", "ios": "https://dc.lft.to/lastmile_qr_scan"}, "fusion_lat": 0.0, "name": "529bd3cecb51491e8fbd9b7f5592e225", "bike_id": "529bd3cecb51491e8fbd9b7f5592e225"}, {"is_disabled": 0, "is_reserved": 0, "type": "electric_scooter", "lon": -77.02998516666666, "fusion_lon": 0.0, "lat": 38.92249533333333, "rental_uris": {"android": "https://dc.lft.to/lastmile_qr_scan", "ios": "https://dc.lft.to/lastmile_qr_scan"}, "fusion_lat": 0.0, "name": "80e2385115f830c4fe4eb51e27238bea", "bike_id": "80e2385115f830c4fe4eb51e27238bea"}, {"is_disabled": 0, "is_reserved": 0, "type": "electric_scooter", "lon": -77.0211565, "fusion_lon": 0.0, "lat": 38.917382333333336, "rental_uris": {"android": "https://dc.lft.to/lastmile_qr_scan", "ios": "https://dc.lft.to/lastmile_qr_scan"}, "fusion_lat": 0.0, "name": "29eab092245d97ed10abbb81ca5290bd", "bike_id": "29eab092245d97ed10abbb81ca5290bd"}, {"is_disabled": 0, "is_reserved": 0, "type": "electric_scooter", "lon": -77.01477183333333, "fusion_lon": 0.0, "lat": 38.87637516666667, "rental_uris": {"android": "https://dc.lft.to/lastmile_qr_scan", "ios": "https://dc.lft.to/lastmile_qr_scan"}, "fusion_lat": 0.0, "name": "1113d9f95a44748b83d1c6e1835cc8a6", "bike_id": "1113d9f95a44748b83d1c6e1835cc8a6"}, {"is_disabled": 0, "is_reserved": 0, "type": "electric_scooter", "lon": -77.00565383333333, "fusion_lon": 0.0, "lat": 38.88504666666667, "rental_uris": {"android": "https://dc.lft.to/lastmile_qr_scan", "ios": "https://dc.lft.to/lastmile_qr_scan"}, "fusion_lat": 0.0, "name": "63424eca537275c6adfa1c40b5dda05e", "bike_id": "63424eca537275c6adfa1c40b5dda05e"}, {"is_disabled": 0, "is_reserved": 0, "type": "electric_scooter", "lon": -76.97976633333333, "fusion_lon": 0.0, "lat": 38.8876595, "rental_uris": {"android": "https://dc.lft.to/lastmile_qr_scan", "ios": "https://dc.lft.to/lastmile_qr_scan"}, "fusion_lat": 0.0, "name": "4b0756d076b9c8b2d13702c223a3f399", "bike_id": "4b0756d076b9c8b2d13702c223a3f399"}, {"is_disabled": 0, "is_reserved": 0, "type": "electric_scooter", "lon": -76.947164, "fusion_lon": 0.0, "lat": 38.89721633333333, "rental_uris": {"android": "https://dc.lft.to/lastmile_qr_scan", "ios": "https://dc.lft.to/lastmile_qr_scan"}, "fusion_lat": 0.0, "name": "7e9347a9205ab01e51a8a042cd53fb64", "bike_id": "7e9347a9205ab01e51a8a042cd53fb64"}, {"is_disabled": 0, "is_reserved": 0, "type": "electric_scooter", "lon": -77.02668166666666, "fusion_lon": 0.0, "lat": 38.924782, "rental_uris": {"android": "https://dc.lft.to/lastmile_qr_scan", "ios": "https://dc.lft.to/lastmile_qr_scan"}, "fusion_lat": 0.0, "name": "92755768655f867f2740ee9b299eca2f", "bike_id": "92755768655f867f2740ee9b299eca2f"}, {"is_disabled": 0, "is_reserved": 0, "type": "electric_scooter", "lon": -77.03458316666666, "fusion_lon": 0.0, "lat": 38.921555833333336, "rental_uris": {"android": "https://dc.lft.to/lastmile_qr_scan", "ios": "https://dc.lft.to/lastmile_qr_scan"}, "fusion_lat": 0.0, "name": "fd9f1e18c26fbdbe5b1511bff3aa6c96", "bike_id": "fd9f1e18c26fbdbe5b1511bff3aa6c96"}, {"is_disabled": 0, "is_reserved": 0, "type": "electric_scooter", "lon": -77.06850783333333, "fusion_lon": 0.0, "lat": 38.95202583333333, "rental_uris": {"android": "https://dc.lft.to/lastmile_qr_scan", "ios": "https://dc.lft.to/lastmile_qr_scan"}, "fusion_lat": 0.0, "name": "51a565261d7da7a0f44ced463a088790", "bike_id": "51a565261d7da7a0f44ced463a088790"}, {"is_disabled": 0, "is_reserved": 0, "type": "electric_scooter", "lon": -77.03831166666667, "fusion_lon": 0.0, "lat": 38.92172266666667, "rental_uris": {"android": "https://dc.lft.to/lastmile_qr_scan", "ios": "https://dc.lft.to/lastmile_qr_scan"}, "fusion_lat": 0.0, "name": "78c215ee89c2ff6a677f85b7723c3bcd", "bike_id": "78c215ee89c2ff6a677f85b7723c3bcd"}, {"is_disabled": 0, "is_reserved": 0, "type": "electric_scooter", "lon": -77.0451615, "fusion_lon": 0.0, "lat": 38.90790633333334, "rental_uris": {"android": "https://dc.lft.to/lastmile_qr_scan", "ios": "https://dc.lft.to/lastmile_qr_scan"}, "fusion_lat": 0.0, "name": "b245eada1d67686c48d12475e140975b", "bike_id": "b245eada1d67686c48d12475e140975b"}, {"is_disabled": 0, "is_reserved": 0, "type": "electric_scooter", "lon": -77.0432395, "fusion_lon": 0.0, "lat": 38.903476833333336, "rental_uris": {"android": "https://dc.lft.to/lastmile_qr_scan", "ios": "https://dc.lft.to/lastmile_qr_scan"}, "fusion_lat": 0.0, "name": "15c1aa87df08ebf72606cde31f84ce25", "bike_id": "15c1aa87df08ebf72606cde31f84ce25"}, {"is_disabled": 0, "is_reserved": 0, "type": "electric_scooter", "lon": -76.99488583333333, "fusion_lon": 0.0, "lat": 38.89969033333333, "rental_uris": {"android": "https://dc.lft.to/lastmile_qr_scan", "ios": "https://dc.lft.to/lastmile_qr_scan"}, "fusion_lat": 0.0, "name": "46b2b6e7d27ae8530fc1dc7fc8e06457", "bike_id": "46b2b6e7d27ae8530fc1dc7fc8e06457"}, {"is_disabled": 0, "is_reserved": 0, "type": "electric_scooter", "lon": -77.03442316666667, "fusion_lon": 0.0, "lat": 38.90393016666667, "rental_uris": {"android": "https://dc.lft.to/lastmile_qr_scan", "ios": "https://dc.lft.to/lastmile_qr_scan"}, "fusion_lat": 0.0, "name": "9f3bb28b23e7eb614ab148351a1e6d84", "bike_id": "9f3bb28b23e7eb614ab148351a1e6d84"}, {"is_disabled": 0, "is_reserved": 0, "type": "electric_scooter", "lon": -77.0343095, "fusion_lon": 0.0, "lat": 38.902615, "rental_uris": {"android": "https://dc.lft.to/lastmile_qr_scan", "ios": "https://dc.lft.to/lastmile_qr_scan"}, "fusion_lat": 0.0, "name": "17813d0367794b5d6f63aa88affc047a", "bike_id": "17813d0367794b5d6f63aa88affc047a"}, {"is_disabled": 0, "is_reserved": 0, "type": "electric_scooter", "lon": -77.02649466666666, "fusion_lon": 0.0, "lat": 38.892172333333335, "rental_uris": {"android": "https://dc.lft.to/lastmile_qr_scan", "ios": "https://dc.lft.to/lastmile_qr_scan"}, "fusion_lat": 0.0, "name": "ec28603a830f70154ae449d35b1615bb", "bike_id": "ec28603a830f70154ae449d35b1615bb"}, {"is_disabled": 0, "is_reserved": 0, "type": "electric_scooter", "lon": -77.04012183333333, "fusion_lon": 0.0, "lat": 38.91043416666667, "rental_uris": {"android": "https://dc.lft.to/lastmile_qr_scan", "ios": "https://dc.lft.to/lastmile_qr_scan"}, "fusion_lat": 0.0, "name": "336cd09ece3447f0247c7a73cb019b52", "bike_id": "336cd09ece3447f0247c7a73cb019b52"}, {"is_disabled": 0, "is_reserved": 0, "type": "electric_scooter", "lon": -76.99903133333333, "fusion_lon": 0.0, "lat": 38.956546333333335, "rental_uris": {"android": "https://dc.lft.to/lastmile_qr_scan", "ios": "https://dc.lft.to/lastmile_qr_scan"}, "fusion_lat": 0.0, "name": "b3cb72514004d68e74187c3ed15287ff", "bike_id": "b3cb72514004d68e74187c3ed15287ff"}, {"is_disabled": 0, "is_reserved": 0, "type": "electric_bike", "lon": -76.99510666666667, "fusion_lon": 0.0, "lat": 38.88360333333333, "rental_uris": {"android": "https://dc.lft.to/lastmile_qr_scan", "ios": "https://dc.lft.to/lastmile_qr_scan"}, "fusion_lat": 0.0, "name": "f408d56458528191a507c7c1f56c9f21", "bike_id": "f408d56458528191a507c7c1f56c9f21"}, {"is_disabled": 0, "is_reserved": 0, "type": "electric_scooter", "lon": -77.0075145, "fusion_lon": 0.0, "lat": 38.8764615, "rental_uris": {"android": "https://dc.lft.to/lastmile_qr_scan", "ios": "https://dc.lft.to/lastmile_qr_scan"}, "fusion_lat": 0.0, "name": "a94f98e47afc056d49ce63d2fe40bb9f", "bike_id": "a94f98e47afc056d49ce63d2fe40bb9f"}, {"is_disabled": 0, "is_reserved": 0, "type": "electric_scooter", "lon": -77.03861066666667, "fusion_lon": 0.0, "lat": 38.917088666666665, "rental_uris": {"android": "https://dc.lft.to/lastmile_qr_scan", "ios": "https://dc.lft.to/lastmile_qr_scan"}, "fusion_lat": 0.0, "name": "476d206decce70c8815051a7d364551c", "bike_id": "476d206decce70c8815051a7d364551c"}, {"is_disabled": 0, "is_reserved": 0, "type": "electric_scooter", "lon": -76.9489475, "fusion_lon": 0.0, "lat": 38.8954035, "rental_uris": {"android": "https://dc.lft.to/lastmile_qr_scan", "ios": "https://dc.lft.to/lastmile_qr_scan"}, "fusion_lat": 0.0, "name": "f8a2732e7b3a57bd665e5295627884c9", "bike_id": "f8a2732e7b3a57bd665e5295627884c9"}, {"is_disabled": 0, "is_reserved": 0, "type": "electric_scooter", "lon": -77.03476683333334, "fusion_lon": 0.0, "lat": 38.918045166666666, "rental_uris": {"android": "https://dc.lft.to/lastmile_qr_scan", "ios": "https://dc.lft.to/lastmile_qr_scan"}, "fusion_lat": 0.0, "name": "b6fb63c8107cd7266186790d5c7ecd02", "bike_id": "b6fb63c8107cd7266186790d5c7ecd02"}, {"is_disabled": 0, "is_reserved": 0, "type": "electric_scooter", "lon": -77.00916866666667, "fusion_lon": 0.0, "lat": 38.895487333333335, "rental_uris": {"android": "https://dc.lft.to/lastmile_qr_scan", "ios": "https://dc.lft.to/lastmile_qr_scan"}, "fusion_lat": 0.0, "name": "eb23303f2dca8dd27a9e11759e0ceab4", "bike_id": "eb23303f2dca8dd27a9e11759e0ceab4"}, {"is_disabled": 0, "is_reserved": 0, "type": "electric_scooter", "lon": -77.03398083333333, "fusion_lon": 0.0, "lat": 38.90976116666667, "rental_uris": {"android": "https://dc.lft.to/lastmile_qr_scan", "ios": "https://dc.lft.to/lastmile_qr_scan"}, "fusion_lat": 0.0, "name": "2a95c26fb438a0ac9d67d53f4a1e82f3", "bike_id": "2a95c26fb438a0ac9d67d53f4a1e82f3"}, {"is_disabled": 0, "is_reserved": 0, "type": "electric_scooter", "lon": -77.03185383333333, "fusion_lon": 0.0, "lat": 38.88341, "rental_uris": {"android": "https://dc.lft.to/lastmile_qr_scan", "ios": "https://dc.lft.to/lastmile_qr_scan"}, "fusion_lat": 0.0, "name": "95ceb8aa7cbb041a9b0ec13347199296", "bike_id": "95ceb8aa7cbb041a9b0ec13347199296"}, {"is_disabled": 0, "is_reserved": 0, "type": "electric_bike", "lon": -76.98025416666667, "fusion_lon": 0.0, "lat": 38.88751933333333, "rental_uris": {"android": "https://dc.lft.to/lastmile_qr_scan", "ios": "https://dc.lft.to/lastmile_qr_scan"}, "fusion_lat": 0.0, "name": "d72be0b4af4de7444e11b4fadb6ed924", "bike_id": "d72be0b4af4de7444e11b4fadb6ed924"}, {"is_disabled": 0, "is_reserved": 0, "type": "electric_scooter", "lon": -77.04919816666667, "fusion_lon": 0.0, "lat": 38.8994675, "rental_uris": {"android": "https://dc.lft.to/lastmile_qr_scan", "ios": "https://dc.lft.to/lastmile_qr_scan"}, "fusion_lat": 0.0, "name": "4989789e1b3bc85ac4fba7fe814d5e54", "bike_id": "4989789e1b3bc85ac4fba7fe814d5e54"}, {"is_disabled": 0, "is_reserved": 0, "type": "electric_scooter", "lon": -77.0861645, "fusion_lon": 0.0, "lat": 38.958730333333335, "rental_uris": {"android": "https://dc.lft.to/lastmile_qr_scan", "ios": "https://dc.lft.to/lastmile_qr_scan"}, "fusion_lat": 0.0, "name": "97bdce31896a66b6171fe74c73f9065e", "bike_id": "97bdce31896a66b6171fe74c73f9065e"}, {"is_disabled": 0, "is_reserved": 0, "type": "electric_scooter", "lon": -77.029799, "fusion_lon": 0.0, "lat": 38.947382833333336, "rental_uris": {"android": "https://dc.lft.to/lastmile_qr_scan", "ios": "https://dc.lft.to/lastmile_qr_scan"}, "fusion_lat": 0.0, "name": "3d412a88172a72f644e828660dfa5841", "bike_id": "3d412a88172a72f644e828660dfa5841"}, {"is_disabled": 0, "is_reserved": 0, "type": "electric_scooter", "lon": -76.98657366666667, "fusion_lon": 0.0, "lat": 38.913145, "rental_uris": {"android": "https://dc.lft.to/lastmile_qr_scan", "ios": "https://dc.lft.to/lastmile_qr_scan"}, "fusion_lat": 0.0, "name": "a00f766f974cc96a63c03dd5c543cd40", "bike_id": "a00f766f974cc96a63c03dd5c543cd40"}, {"is_disabled": 0, "is_reserved": 0, "type": "electric_bike", "lon": -77.04307583333333, "fusion_lon": 0.0, "lat": 39.054520333333336, "rental_uris": {"android": "https://dc.lft.to/lastmile_qr_scan", "ios": "https://dc.lft.to/lastmile_qr_scan"}, "fusion_lat": 0.0, "name": "cf606c4b4401c79be0813996eee2ed75", "bike_id": "cf606c4b4401c79be0813996eee2ed75"}, {"is_disabled": 0, "is_reserved": 0, "type": "electric_scooter", "lon": -77.0365995, "fusion_lon": 0.0, "lat": 38.912464666666665, "rental_uris": {"android": "https://dc.lft.to/lastmile_qr_scan", "ios": "https://dc.lft.to/lastmile_qr_scan"}, "fusion_lat": 0.0, "name": "b0436edec2a3793c849fe0c442b810eb", "bike_id": "b0436edec2a3793c849fe0c442b810eb"}, {"is_disabled": 0, "is_reserved": 0, "type": "electric_scooter", "lon": -76.93185266666667, "fusion_lon": 0.0, "lat": 38.898781166666666, "rental_uris": {"android": "https://dc.lft.to/lastmile_qr_scan", "ios": "https://dc.lft.to/lastmile_qr_scan"}, "fusion_lat": 0.0, "name": "6a9ef82ec7a0fdb36847bd5aaf27dbf1", "bike_id": "6a9ef82ec7a0fdb36847bd5aaf27dbf1"}, {"is_disabled": 0, "is_reserved": 0, "type": "electric_scooter", "lon": -76.986492, "fusion_lon": 0.0, "lat": 38.9013195, "rental_uris": {"android": "https://dc.lft.to/lastmile_qr_scan", "ios": "https://dc.lft.to/lastmile_qr_scan"}, "fusion_lat": 0.0, "name": "9d059301fc25067fb2f6e4b44540308c", "bike_id": "9d059301fc25067fb2f6e4b44540308c"}, {"is_disabled": 0, "is_reserved": 0, "type": "electric_scooter", "lon": -77.018168, "fusion_lon": 0.0, "lat": 38.922007, "rental_uris": {"android": "https://dc.lft.to/lastmile_qr_scan", "ios": "https://dc.lft.to/lastmile_qr_scan"}, "fusion_lat": 0.0, "name": "6d97b218191ede962abdc6e757f553e9", "bike_id": "6d97b218191ede962abdc6e757f553e9"}, {"is_disabled": 0, "is_reserved": 0, "type": "electric_scooter", "lon": -77.04479733333334, "fusion_lon": 0.0, "lat": 38.908423666666664, "rental_uris": {"android": "https://dc.lft.to/lastmile_qr_scan", "ios": "https://dc.lft.to/lastmile_qr_scan"}, "fusion_lat": 0.0, "name": "3e40ab2297f98931bb3566ed7f719442", "bike_id": "3e40ab2297f98931bb3566ed7f719442"}, {"is_disabled": 0, "is_reserved": 0, "type": "electric_scooter", "lon": -77.03255883333334, "fusion_lon": 0.0, "lat": 38.93445766666667, "rental_uris": {"android": "https://dc.lft.to/lastmile_qr_scan", "ios": "https://dc.lft.to/lastmile_qr_scan"}, "fusion_lat": 0.0, "name": "fe9aaf20b284e255987e6ecc33dda91c", "bike_id": "fe9aaf20b284e255987e6ecc33dda91c"}, {"is_disabled": 0, "is_reserved": 0, "type": "electric_scooter", "lon": -77.04192933333333, "fusion_lon": 0.0, "lat": 38.907834333333334, "rental_uris": {"android": "https://dc.lft.to/lastmile_qr_scan", "ios": "https://dc.lft.to/lastmile_qr_scan"}, "fusion_lat": 0.0, "name": "7c0eda553dd1df7f0e4d5935f474b2f5", "bike_id": "7c0eda553dd1df7f0e4d5935f474b2f5"}, {"is_disabled": 0, "is_reserved": 0, "type": "electric_scooter", "lon": -77.03857866666667, "fusion_lon": 0.0, "lat": 38.91837133333333, "rental_uris": {"android": "https://dc.lft.to/lastmile_qr_scan", "ios": "https://dc.lft.to/lastmile_qr_scan"}, "fusion_lat": 0.0, "name": "643112221f35e0078dda22cd3df2d972", "bike_id": "643112221f35e0078dda22cd3df2d972"}, {"is_disabled": 0, "is_reserved": 0, "type": "electric_scooter", "lon": -76.99519116666667, "fusion_lon": 0.0, "lat": 38.89483, "rental_uris": {"android": "https://dc.lft.to/lastmile_qr_scan", "ios": "https://dc.lft.to/lastmile_qr_scan"}, "fusion_lat": 0.0, "name": "6611eb2b84df76f3a60ccb747224dac0", "bike_id": "6611eb2b84df76f3a60ccb747224dac0"}, {"is_disabled": 0, "is_reserved": 0, "type": "electric_scooter", "lon": -77.000445, "fusion_lon": 0.0, "lat": 38.918965, "rental_uris": {"android": "https://dc.lft.to/lastmile_qr_scan", "ios": "https://dc.lft.to/lastmile_qr_scan"}, "fusion_lat": 0.0, "name": "e62ce19af82b0088fd688dfc1ea4281e", "bike_id": "e62ce19af82b0088fd688dfc1ea4281e"}, {"is_disabled": 0, "is_reserved": 0, "type": "electric_scooter", "lon": -77.03176316666666, "fusion_lon": 0.0, "lat": 38.89911466666667, "rental_uris": {"android": "https://dc.lft.to/lastmile_qr_scan", "ios": "https://dc.lft.to/lastmile_qr_scan"}, "fusion_lat": 0.0, "name": "90c47bcb1d9218cb6a9bec7e9c9fe00e", "bike_id": "90c47bcb1d9218cb6a9bec7e9c9fe00e"}, {"is_disabled": 0, "is_reserved": 0, "type": "electric_scooter", "lon": -77.0349925, "fusion_lon": 0.0, "lat": 38.923426, "rental_uris": {"android": "https://dc.lft.to/lastmile_qr_scan", "ios": "https://dc.lft.to/lastmile_qr_scan"}, "fusion_lat": 0.0, "name": "f6d2e0adaa48df80fd277c29387d80a5", "bike_id": "f6d2e0adaa48df80fd277c29387d80a5"}, {"is_disabled": 0, "is_reserved": 0, "type": "electric_scooter", "lon": -77.04207883333333, "fusion_lon": 0.0, "lat": 38.9231375, "rental_uris": {"android": "https://dc.lft.to/lastmile_qr_scan", "ios": "https://dc.lft.to/lastmile_qr_scan"}, "fusion_lat": 0.0, "name": "b926cdd65a89dd914020986db70e97c8", "bike_id": "b926cdd65a89dd914020986db70e97c8"}, {"is_disabled": 0, "is_reserved": 0, "type": "electric_scooter", "lon": -77.0461425, "fusion_lon": 0.0, "lat": 38.902675333333335, "rental_uris": {"android": "https://dc.lft.to/lastmile_qr_scan", "ios": "https://dc.lft.to/lastmile_qr_scan"}, "fusion_lat": 0.0, "name": "c17f3d360d3b6ae660a5d24b0669d2a7", "bike_id": "c17f3d360d3b6ae660a5d24b0669d2a7"}, {"is_disabled": 0, "is_reserved": 0, "type": "electric_scooter", "lon": -77.007267, "fusion_lon": 0.0, "lat": 38.884907166666665, "rental_uris": {"android": "https://dc.lft.to/lastmile_qr_scan", "ios": "https://dc.lft.to/lastmile_qr_scan"}, "fusion_lat": 0.0, "name": "6e39800bc23c603db67831e643a6ad16", "bike_id": "6e39800bc23c603db67831e643a6ad16"}, {"is_disabled": 0, "is_reserved": 0, "type": "electric_scooter", "lon": -77.0481235, "fusion_lon": 0.0, "lat": 38.900592833333334, "rental_uris": {"android": "https://dc.lft.to/lastmile_qr_scan", "ios": "https://dc.lft.to/lastmile_qr_scan"}, "fusion_lat": 0.0, "name": "b9c7c7535f4c82c3d3f091e96e470574", "bike_id": "b9c7c7535f4c82c3d3f091e96e470574"}, {"is_disabled": 0, "is_reserved": 0, "type": "electric_scooter", "lon": -77.05700266666666, "fusion_lon": 0.0, "lat": 38.910578666666666, "rental_uris": {"android": "https://dc.lft.to/lastmile_qr_scan", "ios": "https://dc.lft.to/lastmile_qr_scan"}, "fusion_lat": 0.0, "name": "5d604a308e24cb020be6ea8cc91e8e58", "bike_id": "5d604a308e24cb020be6ea8cc91e8e58"}, {"is_disabled": 0, "is_reserved": 0, "type": "electric_scooter", "lon": -77.04069016666666, "fusion_lon": 0.0, "lat": 38.905029, "rental_uris": {"android": "https://dc.lft.to/lastmile_qr_scan", "ios": "https://dc.lft.to/lastmile_qr_scan"}, "fusion_lat": 0.0, "name": "5e3f14615ef37f73087697cf751dfa8a", "bike_id": "5e3f14615ef37f73087697cf751dfa8a"}, {"is_disabled": 0, "is_reserved": 0, "type": "electric_scooter", "lon": -77.02984133333334, "fusion_lon": 0.0, "lat": 38.924711333333335, "rental_uris": {"android": "https://dc.lft.to/lastmile_qr_scan", "ios": "https://dc.lft.to/lastmile_qr_scan"}, "fusion_lat": 0.0, "name": "a19e50a8544a1f4567018034d4dc24e5", "bike_id": "a19e50a8544a1f4567018034d4dc24e5"}, {"is_disabled": 0, "is_reserved": 0, "type": "electric_scooter", "lon": -77.07295783333333, "fusion_lon": 0.0, "lat": 38.931887833333334, "rental_uris": {"android": "https://dc.lft.to/lastmile_qr_scan", "ios": "https://dc.lft.to/lastmile_qr_scan"}, "fusion_lat": 0.0, "name": "ab6fb7efd97ac57786383e5dc6118036", "bike_id": "ab6fb7efd97ac57786383e5dc6118036"}, {"is_disabled": 0, "is_reserved": 0, "type": "electric_scooter", "lon": -77.0448355, "fusion_lon": 0.0, "lat": 38.89746266666667, "rental_uris": {"android": "https://dc.lft.to/lastmile_qr_scan", "ios": "https://dc.lft.to/lastmile_qr_scan"}, "fusion_lat": 0.0, "name": "55125b791532bd1f4bc13cc136c0fd09", "bike_id": "55125b791532bd1f4bc13cc136c0fd09"}, {"is_disabled": 0, "is_reserved": 0, "type": "electric_scooter", "lon": -77.0485875, "fusion_lon": 0.0, "lat": 38.90435883333333, "rental_uris": {"android": "https://dc.lft.to/lastmile_qr_scan", "ios": "https://dc.lft.to/lastmile_qr_scan"}, "fusion_lat": 0.0, "name": "68ca55c23351a9374e1d5a7563cf7795", "bike_id": "68ca55c23351a9374e1d5a7563cf7795"}, {"is_disabled": 0, "is_reserved": 0, "type": "electric_scooter", "lon": -77.02993166666667, "fusion_lon": 0.0, "lat": 38.9247295, "rental_uris": {"android": "https://dc.lft.to/lastmile_qr_scan", "ios": "https://dc.lft.to/lastmile_qr_scan"}, "fusion_lat": 0.0, "name": "55eaceb9c92ae68c4f14af5d603280d8", "bike_id": "55eaceb9c92ae68c4f14af5d603280d8"}, {"is_disabled": 0, "is_reserved": 0, "type": "electric_scooter", "lon": -77.02959466666667, "fusion_lon": 0.0, "lat": 38.9214415, "rental_uris": {"android": "https://dc.lft.to/lastmile_qr_scan", "ios": "https://dc.lft.to/lastmile_qr_scan"}, "fusion_lat": 0.0, "name": "5dcad7f0e531cc1a2df6bf8c72703ab1", "bike_id": "5dcad7f0e531cc1a2df6bf8c72703ab1"}, {"is_disabled": 0, "is_reserved": 0, "type": "electric_scooter", "lon": -77.02492333333333, "fusion_lon": 0.0, "lat": 38.9418505, "rental_uris": {"android": "https://dc.lft.to/lastmile_qr_scan", "ios": "https://dc.lft.to/lastmile_qr_scan"}, "fusion_lat": 0.0, "name": "f68fedbfe39f591290fe7c3fe5fb9484", "bike_id": "f68fedbfe39f591290fe7c3fe5fb9484"}, {"is_disabled": 0, "is_reserved": 0, "type": "electric_scooter", "lon": -77.05855533333333, "fusion_lon": 0.0, "lat": 38.93703466666667, "rental_uris": {"android": "https://dc.lft.to/lastmile_qr_scan", "ios": "https://dc.lft.to/lastmile_qr_scan"}, "fusion_lat": 0.0, "name": "14e4d53b7078a27f41e090420f36c68b", "bike_id": "14e4d53b7078a27f41e090420f36c68b"}, {"is_disabled": 0, "is_reserved": 0, "type": "electric_scooter", "lon": -77.0464455, "fusion_lon": 0.0, "lat": 38.90488666666667, "rental_uris": {"android": "https://dc.lft.to/lastmile_qr_scan", "ios": "https://dc.lft.to/lastmile_qr_scan"}, "fusion_lat": 0.0, "name": "63c4e9b5aac3427e3f54fa1d4ed1f5e2", "bike_id": "63c4e9b5aac3427e3f54fa1d4ed1f5e2"}, {"is_disabled": 0, "is_reserved": 0, "type": "electric_bike", "lon": -77.07798483333333, "fusion_lon": 0.0, "lat": 38.845153833333335, "rental_uris": {"android": "https://dc.lft.to/lastmile_qr_scan", "ios": "https://dc.lft.to/lastmile_qr_scan"}, "fusion_lat": 0.0, "name": "359e7bcc5ef37b30825b7877c2103327", "bike_id": "359e7bcc5ef37b30825b7877c2103327"}, {"is_disabled": 0, "is_reserved": 0, "type": "electric_scooter", "lon": -77.0416365, "fusion_lon": 0.0, "lat": 38.91619433333334, "rental_uris": {"android": "https://dc.lft.to/lastmile_qr_scan", "ios": "https://dc.lft.to/lastmile_qr_scan"}, "fusion_lat": 0.0, "name": "f335d498e9dd4ac9229e0bb2b1300b03", "bike_id": "f335d498e9dd4ac9229e0bb2b1300b03"}, {"is_disabled": 0, "is_reserved": 0, "type": "electric_scooter", "lon": -77.04834816666667, "fusion_lon": 0.0, "lat": 38.91633866666667, "rental_uris": {"android": "https://dc.lft.to/lastmile_qr_scan", "ios": "https://dc.lft.to/lastmile_qr_scan"}, "fusion_lat": 0.0, "name": "b938863d8163b1b3cc6aa40333ffed6d", "bike_id": "b938863d8163b1b3cc6aa40333ffed6d"}, {"is_disabled": 0, "is_reserved": 0, "type": "electric_scooter", "lon": -76.99596383333333, "fusion_lon": 0.0, "lat": 38.887335666666665, "rental_uris": {"android": "https://dc.lft.to/lastmile_qr_scan", "ios": "https://dc.lft.to/lastmile_qr_scan"}, "fusion_lat": 0.0, "name": "677e346b2c5509e077e78afe00a74a21", "bike_id": "677e346b2c5509e077e78afe00a74a21"}, {"is_disabled": 0, "is_reserved": 0, "type": "electric_scooter", "lon": -76.9798675, "fusion_lon": 0.0, "lat": 38.897599, "rental_uris": {"android": "https://dc.lft.to/lastmile_qr_scan", "ios": "https://dc.lft.to/lastmile_qr_scan"}, "fusion_lat": 0.0, "name": "f8a5d11feb885ab57aa8b15aaedeaa45", "bike_id": "f8a5d11feb885ab57aa8b15aaedeaa45"}, {"is_disabled": 0, "is_reserved": 0, "type": "electric_scooter", "lon": -77.02404816666666, "fusion_lon": 0.0, "lat": 38.915703, "rental_uris": {"android": "https://dc.lft.to/lastmile_qr_scan", "ios": "https://dc.lft.to/lastmile_qr_scan"}, "fusion_lat": 0.0, "name": "e8972b88c500cfc6ae17fe87da35a018", "bike_id": "e8972b88c500cfc6ae17fe87da35a018"}, {"is_disabled": 0, "is_reserved": 0, "type": "electric_scooter", "lon": -77.02245533333334, "fusion_lon": 0.0, "lat": 38.9164765, "rental_uris": {"android": "https://dc.lft.to/lastmile_qr_scan", "ios": "https://dc.lft.to/lastmile_qr_scan"}, "fusion_lat": 0.0, "name": "c364a8072ede9ee0747082b79ede3efd", "bike_id": "c364a8072ede9ee0747082b79ede3efd"}, {"is_disabled": 0, "is_reserved": 0, "type": "electric_scooter", "lon": -77.04212133333333, "fusion_lon": 0.0, "lat": 38.916639833333335, "rental_uris": {"android": "https://dc.lft.to/lastmile_qr_scan", "ios": "https://dc.lft.to/lastmile_qr_scan"}, "fusion_lat": 0.0, "name": "f7e8436faf7fe275b580c020693aefdf", "bike_id": "f7e8436faf7fe275b580c020693aefdf"}, {"is_disabled": 0, "is_reserved": 0, "type": "electric_scooter", "lon": -76.990543, "fusion_lon": 0.0, "lat": 38.9002855, "rental_uris": {"android": "https://dc.lft.to/lastmile_qr_scan", "ios": "https://dc.lft.to/lastmile_qr_scan"}, "fusion_lat": 0.0, "name": "582ade4ece772b97ac22c33ea1b46089", "bike_id": "582ade4ece772b97ac22c33ea1b46089"}, {"is_disabled": 0, "is_reserved": 0, "type": "electric_bike", "lon": -76.98170016666667, "fusion_lon": 0.0, "lat": 38.9595375, "rental_uris": {"android": "https://dc.lft.to/lastmile_qr_scan", "ios": "https://dc.lft.to/lastmile_qr_scan"}, "fusion_lat": 0.0, "name": "a21736853644913ceca1c50cd626742d", "bike_id": "a21736853644913ceca1c50cd626742d"}, {"is_disabled": 0, "is_reserved": 0, "type": "electric_scooter", "lon": -77.01183266666666, "fusion_lon": 0.0, "lat": 38.90639933333333, "rental_uris": {"android": "https://dc.lft.to/lastmile_qr_scan", "ios": "https://dc.lft.to/lastmile_qr_scan"}, "fusion_lat": 0.0, "name": "e497b9d93fdbaa59a1a5cacf8df2c14e", "bike_id": "e497b9d93fdbaa59a1a5cacf8df2c14e"}, {"is_disabled": 0, "is_reserved": 0, "type": "electric_scooter", "lon": -77.0437375, "fusion_lon": 0.0, "lat": 38.902643, "rental_uris": {"android": "https://dc.lft.to/lastmile_qr_scan", "ios": "https://dc.lft.to/lastmile_qr_scan"}, "fusion_lat": 0.0, "name": "5d9b4110b7c7a2848eccc45aa8a2253d", "bike_id": "5d9b4110b7c7a2848eccc45aa8a2253d"}, {"is_disabled": 0, "is_reserved": 0, "type": "electric_scooter", "lon": -77.0024655, "fusion_lon": 0.0, "lat": 38.952322, "rental_uris": {"android": "https://dc.lft.to/lastmile_qr_scan", "ios": "https://dc.lft.to/lastmile_qr_scan"}, "fusion_lat": 0.0, "name": "0864d9c2e62f98f95b62b2dd4d410487", "bike_id": "0864d9c2e62f98f95b62b2dd4d410487"}, {"is_disabled": 0, "is_reserved": 0, "type": "electric_scooter", "lon": -76.9918535, "fusion_lon": 0.0, "lat": 38.92586283333333, "rental_uris": {"android": "https://dc.lft.to/lastmile_qr_scan", "ios": "https://dc.lft.to/lastmile_qr_scan"}, "fusion_lat": 0.0, "name": "eed12409ddea9f00d6dc1d4a94116d89", "bike_id": "eed12409ddea9f00d6dc1d4a94116d89"}, {"is_disabled": 0, "is_reserved": 0, "type": "electric_scooter", "lon": -77.02715666666667, "fusion_lon": 0.0, "lat": 38.91670416666667, "rental_uris": {"android": "https://dc.lft.to/lastmile_qr_scan", "ios": "https://dc.lft.to/lastmile_qr_scan"}, "fusion_lat": 0.0, "name": "95d6136581ef9b2c9f4ec25a42e9cbc9", "bike_id": "95d6136581ef9b2c9f4ec25a42e9cbc9"}, {"is_disabled": 0, "is_reserved": 0, "type": "electric_scooter", "lon": -76.956735, "fusion_lon": 0.0, "lat": 38.88766966666667, "rental_uris": {"android": "https://dc.lft.to/lastmile_qr_scan", "ios": "https://dc.lft.to/lastmile_qr_scan"}, "fusion_lat": 0.0, "name": "f42922a379245b42d6291f0ae8095915", "bike_id": "f42922a379245b42d6291f0ae8095915"}, {"is_disabled": 0, "is_reserved": 0, "type": "electric_scooter", "lon": -77.04681483333333, "fusion_lon": 0.0, "lat": 38.8922455, "rental_uris": {"android": "https://dc.lft.to/lastmile_qr_scan", "ios": "https://dc.lft.to/lastmile_qr_scan"}, "fusion_lat": 0.0, "name": "8346fcab03fa16e834a51c1eb92aeada", "bike_id": "8346fcab03fa16e834a51c1eb92aeada"}, {"is_disabled": 0, "is_reserved": 0, "type": "electric_scooter", "lon": -77.03434766666666, "fusion_lon": 0.0, "lat": 38.93429966666667, "rental_uris": {"android": "https://dc.lft.to/lastmile_qr_scan", "ios": "https://dc.lft.to/lastmile_qr_scan"}, "fusion_lat": 0.0, "name": "859c2412a3be08a439efebd52bcea0ff", "bike_id": "859c2412a3be08a439efebd52bcea0ff"}, {"is_disabled": 0, "is_reserved": 0, "type": "electric_scooter", "lon": -76.93362, "fusion_lon": 0.0, "lat": 38.898993833333336, "rental_uris": {"android": "https://dc.lft.to/lastmile_qr_scan", "ios": "https://dc.lft.to/lastmile_qr_scan"}, "fusion_lat": 0.0, "name": "76ae3e1d92b1b5a1e1e8432ce71d48a5", "bike_id": "76ae3e1d92b1b5a1e1e8432ce71d48a5"}, {"is_disabled": 0, "is_reserved": 0, "type": "electric_scooter", "lon": -77.002149, "fusion_lon": 0.0, "lat": 38.902879666666664, "rental_uris": {"android": "https://dc.lft.to/lastmile_qr_scan", "ios": "https://dc.lft.to/lastmile_qr_scan"}, "fusion_lat": 0.0, "name": "c5021ac00d6e0199603631c582bc3bf9", "bike_id": "c5021ac00d6e0199603631c582bc3bf9"}, {"is_disabled": 0, "is_reserved": 0, "type": "electric_scooter", "lon": -77.02783333333333, "fusion_lon": 0.0, "lat": 38.8922145, "rental_uris": {"android": "https://dc.lft.to/lastmile_qr_scan", "ios": "https://dc.lft.to/lastmile_qr_scan"}, "fusion_lat": 0.0, "name": "6bde2263dd31c9b3786b0250479d48d8", "bike_id": "6bde2263dd31c9b3786b0250479d48d8"}, {"is_disabled": 0, "is_reserved": 0, "type": "electric_scooter", "lon": -77.02405533333334, "fusion_lon": 0.0, "lat": 38.931079833333335, "rental_uris": {"android": "https://dc.lft.to/lastmile_qr_scan", "ios": "https://dc.lft.to/lastmile_qr_scan"}, "fusion_lat": 0.0, "name": "b94e9bf318e528b53219eec9bf064078", "bike_id": "b94e9bf318e528b53219eec9bf064078"}, {"is_disabled": 0, "is_reserved": 0, "type": "electric_bike", "lon": -77.00200233333334, "fusion_lon": 0.0, "lat": 38.8193865, "rental_uris": {"android": "https://dc.lft.to/lastmile_qr_scan", "ios": "https://dc.lft.to/lastmile_qr_scan"}, "fusion_lat": 0.0, "name": "5e323f956269f678620126f3ed052b98", "bike_id": "5e323f956269f678620126f3ed052b98"}, {"is_disabled": 0, "is_reserved": 0, "type": "electric_scooter", "lon": -77.0367455, "fusion_lon": 0.0, "lat": 38.905702833333336, "rental_uris": {"android": "https://dc.lft.to/lastmile_qr_scan", "ios": "https://dc.lft.to/lastmile_qr_scan"}, "fusion_lat": 0.0, "name": "6672828c20b52836bb7b2b36416ed0d9", "bike_id": "6672828c20b52836bb7b2b36416ed0d9"}, {"is_disabled": 0, "is_reserved": 0, "type": "electric_scooter", "lon": -77.05227266666667, "fusion_lon": 0.0, "lat": 38.89809433333333, "rental_uris": {"android": "https://dc.lft.to/lastmile_qr_scan", "ios": "https://dc.lft.to/lastmile_qr_scan"}, "fusion_lat": 0.0, "name": "9d00dce100e46a773d69820907f3a2c0", "bike_id": "9d00dce100e46a773d69820907f3a2c0"}, {"is_disabled": 0, "is_reserved": 0, "type": "electric_scooter", "lon": -77.01049566666667, "fusion_lon": 0.0, "lat": 38.8666065, "rental_uris": {"android": "https://dc.lft.to/lastmile_qr_scan", "ios": "https://dc.lft.to/lastmile_qr_scan"}, "fusion_lat": 0.0, "name": "77e816f18d6710b4b223f10cc0157c0b", "bike_id": "77e816f18d6710b4b223f10cc0157c0b"}, {"is_disabled": 0, "is_reserved": 0, "type": "electric_scooter", "lon": -77.0267155, "fusion_lon": 0.0, "lat": 38.912707833333336, "rental_uris": {"android": "https://dc.lft.to/lastmile_qr_scan", "ios": "https://dc.lft.to/lastmile_qr_scan"}, "fusion_lat": 0.0, "name": "819a83935d6b3963740a542d24e21e89", "bike_id": "819a83935d6b3963740a542d24e21e89"}, {"is_disabled": 0, "is_reserved": 0, "type": "electric_bike", "lon": -76.9276125, "fusion_lon": 0.0, "lat": 38.960342, "rental_uris": {"android": "https://dc.lft.to/lastmile_qr_scan", "ios": "https://dc.lft.to/lastmile_qr_scan"}, "fusion_lat": 0.0, "name": "a501046e72c2abb2f2dd40832a7a6896", "bike_id": "a501046e72c2abb2f2dd40832a7a6896"}, {"is_disabled": 0, "is_reserved": 0, "type": "electric_scooter", "lon": -77.0080765, "fusion_lon": 0.0, "lat": 38.878467, "rental_uris": {"android": "https://dc.lft.to/lastmile_qr_scan", "ios": "https://dc.lft.to/lastmile_qr_scan"}, "fusion_lat": 0.0, "name": "17839c89b44e0fac8f5866b428196ea8", "bike_id": "17839c89b44e0fac8f5866b428196ea8"}, {"is_disabled": 0, "is_reserved": 0, "type": "electric_bike", "lon": -77.0638, "fusion_lon": 0.0, "lat": 39.01737283333333, "rental_uris": {"android": "https://dc.lft.to/lastmile_qr_scan", "ios": "https://dc.lft.to/lastmile_qr_scan"}, "fusion_lat": 0.0, "name": "b8bff675039dfabb87f0eee8834eefc7", "bike_id": "b8bff675039dfabb87f0eee8834eefc7"}, {"is_disabled": 0, "is_reserved": 0, "type": "electric_scooter", "lon": -77.03466366666666, "fusion_lon": 0.0, "lat": 38.91722933333333, "rental_uris": {"android": "https://dc.lft.to/lastmile_qr_scan", "ios": "https://dc.lft.to/lastmile_qr_scan"}, "fusion_lat": 0.0, "name": "7a25347afa07f70ac0dcbe8225200603", "bike_id": "7a25347afa07f70ac0dcbe8225200603"}, {"is_disabled": 0, "is_reserved": 0, "type": "electric_scooter", "lon": -77.00034383333333, "fusion_lon": 0.0, "lat": 38.874985, "rental_uris": {"android": "https://dc.lft.to/lastmile_qr_scan", "ios": "https://dc.lft.to/lastmile_qr_scan"}, "fusion_lat": 0.0, "name": "e6eaab060e4242528bea0913243a808f", "bike_id": "e6eaab060e4242528bea0913243a808f"}, {"is_disabled": 0, "is_reserved": 0, "type": "electric_bike", "lon": -76.96088483333334, "fusion_lon": 0.0, "lat": 38.9185765, "rental_uris": {"android": "https://dc.lft.to/lastmile_qr_scan", "ios": "https://dc.lft.to/lastmile_qr_scan"}, "fusion_lat": 0.0, "name": "c947fcad7b16adb1cc1cf70001280216", "bike_id": "c947fcad7b16adb1cc1cf70001280216"}, {"is_disabled": 0, "is_reserved": 0, "type": "electric_scooter", "lon": -76.9888825, "fusion_lon": 0.0, "lat": 38.86670816666667, "rental_uris": {"android": "https://dc.lft.to/lastmile_qr_scan", "ios": "https://dc.lft.to/lastmile_qr_scan"}, "fusion_lat": 0.0, "name": "aa225bff86a07077ace77bfc1b648396", "bike_id": "aa225bff86a07077ace77bfc1b648396"}, {"is_disabled": 0, "is_reserved": 0, "type": "electric_scooter", "lon": -77.02160216666667, "fusion_lon": 0.0, "lat": 38.92612533333333, "rental_uris": {"android": "https://dc.lft.to/lastmile_qr_scan", "ios": "https://dc.lft.to/lastmile_qr_scan"}, "fusion_lat": 0.0, "name": "14b59adf61410bd270e0de62769a3f8c", "bike_id": "14b59adf61410bd270e0de62769a3f8c"}, {"is_disabled": 0, "is_reserved": 0, "type": "electric_scooter", "lon": -77.00311316666667, "fusion_lon": 0.0, "lat": 38.840287333333336, "rental_uris": {"android": "https://dc.lft.to/lastmile_qr_scan", "ios": "https://dc.lft.to/lastmile_qr_scan"}, "fusion_lat": 0.0, "name": "b49943f9ce10f17186a8572c25b73499", "bike_id": "b49943f9ce10f17186a8572c25b73499"}, {"is_disabled": 0, "is_reserved": 0, "type": "electric_scooter", "lon": -77.04105233333334, "fusion_lon": 0.0, "lat": 38.90040716666667, "rental_uris": {"android": "https://dc.lft.to/lastmile_qr_scan", "ios": "https://dc.lft.to/lastmile_qr_scan"}, "fusion_lat": 0.0, "name": "386de481d1f9c498cc30149c9f0b5ff6", "bike_id": "386de481d1f9c498cc30149c9f0b5ff6"}, {"is_disabled": 0, "is_reserved": 0, "type": "electric_scooter", "lon": -77.0438465, "fusion_lon": 0.0, "lat": 38.905863, "rental_uris": {"android": "https://dc.lft.to/lastmile_qr_scan", "ios": "https://dc.lft.to/lastmile_qr_scan"}, "fusion_lat": 0.0, "name": "26c0c37d16306f342a88803ae6c0fe25", "bike_id": "26c0c37d16306f342a88803ae6c0fe25"}, {"is_disabled": 0, "is_reserved": 0, "type": "electric_scooter", "lon": -76.948966, "fusion_lon": 0.0, "lat": 38.895285666666666, "rental_uris": {"android": "https://dc.lft.to/lastmile_qr_scan", "ios": "https://dc.lft.to/lastmile_qr_scan"}, "fusion_lat": 0.0, "name": "a31d9033da8d20fb1f19655a9c27d368", "bike_id": "a31d9033da8d20fb1f19655a9c27d368"}, {"is_disabled": 0, "is_reserved": 0, "type": "electric_scooter", "lon": -76.97383616666667, "fusion_lon": 0.0, "lat": 38.883767666666664, "rental_uris": {"android": "https://dc.lft.to/lastmile_qr_scan", "ios": "https://dc.lft.to/lastmile_qr_scan"}, "fusion_lat": 0.0, "name": "3afe7c230a82650c01c19b2e7cbeb62f", "bike_id": "3afe7c230a82650c01c19b2e7cbeb62f"}, {"is_disabled": 0, "is_reserved": 0, "type": "electric_scooter", "lon": -76.9478505, "fusion_lon": 0.0, "lat": 38.88461483333333, "rental_uris": {"android": "https://dc.lft.to/lastmile_qr_scan", "ios": "https://dc.lft.to/lastmile_qr_scan"}, "fusion_lat": 0.0, "name": "4e2c046667b2edb4182e9494a2422474", "bike_id": "4e2c046667b2edb4182e9494a2422474"}, {"is_disabled": 0, "is_reserved": 0, "type": "electric_scooter", "lon": -77.05414, "fusion_lon": 0.0, "lat": 38.950533, "rental_uris": {"android": "https://dc.lft.to/lastmile_qr_scan", "ios": "https://dc.lft.to/lastmile_qr_scan"}, "fusion_lat": 0.0, "name": "0d7cf793fcbc5785b80efacd1b6072ba", "bike_id": "0d7cf793fcbc5785b80efacd1b6072ba"}, {"is_disabled": 0, "is_reserved": 0, "type": "electric_scooter", "lon": -77.036597, "fusion_lon": 0.0, "lat": 38.95500066666666, "rental_uris": {"android": "https://dc.lft.to/lastmile_qr_scan", "ios": "https://dc.lft.to/lastmile_qr_scan"}, "fusion_lat": 0.0, "name": "a756d8a6114f9e8cd86ff8f3a0c4205b", "bike_id": "a756d8a6114f9e8cd86ff8f3a0c4205b"}, {"is_disabled": 0, "is_reserved": 0, "type": "electric_scooter", "lon": -77.04073083333333, "fusion_lon": 0.0, "lat": 38.89621433333333, "rental_uris": {"android": "https://dc.lft.to/lastmile_qr_scan", "ios": "https://dc.lft.to/lastmile_qr_scan"}, "fusion_lat": 0.0, "name": "70b6707a2039a0f918aa7d2c0f1875ec", "bike_id": "70b6707a2039a0f918aa7d2c0f1875ec"}, {"is_disabled": 0, "is_reserved": 0, "type": "electric_scooter", "lon": -77.1003195, "fusion_lon": 0.0, "lat": 38.94924533333333, "rental_uris": {"android": "https://dc.lft.to/lastmile_qr_scan", "ios": "https://dc.lft.to/lastmile_qr_scan"}, "fusion_lat": 0.0, "name": "c0e3fd57d93f27f1c751bb82da339b28", "bike_id": "c0e3fd57d93f27f1c751bb82da339b28"}, {"is_disabled": 0, "is_reserved": 0, "type": "electric_bike", "lon": -77.11431533333334, "fusion_lon": 0.0, "lat": 38.85246033333333, "rental_uris": {"android": "https://dc.lft.to/lastmile_qr_scan", "ios": "https://dc.lft.to/lastmile_qr_scan"}, "fusion_lat": 0.0, "name": "88afc1a1f8e124ea5ab6e66b7066de8b", "bike_id": "88afc1a1f8e124ea5ab6e66b7066de8b"}, {"is_disabled": 0, "is_reserved": 0, "type": "electric_scooter", "lon": -77.03213066666666, "fusion_lon": 0.0, "lat": 38.925796, "rental_uris": {"android": "https://dc.lft.to/lastmile_qr_scan", "ios": "https://dc.lft.to/lastmile_qr_scan"}, "fusion_lat": 0.0, "name": "1a73cf6b22f0d37242b309d453b0a872", "bike_id": "1a73cf6b22f0d37242b309d453b0a872"}, {"is_disabled": 0, "is_reserved": 0, "type": "electric_scooter", "lon": -77.01651116666666, "fusion_lon": 0.0, "lat": 38.881175, "rental_uris": {"android": "https://dc.lft.to/lastmile_qr_scan", "ios": "https://dc.lft.to/lastmile_qr_scan"}, "fusion_lat": 0.0, "name": "9ffcac19a347d5af5d86184d2565da35", "bike_id": "9ffcac19a347d5af5d86184d2565da35"}, {"is_disabled": 0, "is_reserved": 0, "type": "electric_scooter", "lon": -77.06351433333333, "fusion_lon": 0.0, "lat": 38.94437283333333, "rental_uris": {"android": "https://dc.lft.to/lastmile_qr_scan", "ios": "https://dc.lft.to/lastmile_qr_scan"}, "fusion_lat": 0.0, "name": "db3ec439745f400a4febab1e0746af8b", "bike_id": "db3ec439745f400a4febab1e0746af8b"}, {"is_disabled": 0, "is_reserved": 0, "type": "electric_scooter", "lon": -76.98952483333333, "fusion_lon": 0.0, "lat": 38.84402166666667, "rental_uris": {"android": "https://dc.lft.to/lastmile_qr_scan", "ios": "https://dc.lft.to/lastmile_qr_scan"}, "fusion_lat": 0.0, "name": "628eb79f3604fa397f5c395258d656b8", "bike_id": "628eb79f3604fa397f5c395258d656b8"}, {"is_disabled": 0, "is_reserved": 0, "type": "electric_scooter", "lon": -77.01886416666666, "fusion_lon": 0.0, "lat": 38.946433999999996, "rental_uris": {"android": "https://dc.lft.to/lastmile_qr_scan", "ios": "https://dc.lft.to/lastmile_qr_scan"}, "fusion_lat": 0.0, "name": "c64384a707be1cf9173d868b9aae9835", "bike_id": "c64384a707be1cf9173d868b9aae9835"}, {"is_disabled": 0, "is_reserved": 0, "type": "electric_scooter", "lon": -77.02199316666666, "fusion_lon": 0.0, "lat": 38.922333, "rental_uris": {"android": "https://dc.lft.to/lastmile_qr_scan", "ios": "https://dc.lft.to/lastmile_qr_scan"}, "fusion_lat": 0.0, "name": "456e1ee6234ad8f57f469110941c6c22", "bike_id": "456e1ee6234ad8f57f469110941c6c22"}, {"is_disabled": 0, "is_reserved": 0, "type": "electric_scooter", "lon": -77.00531266666667, "fusion_lon": 0.0, "lat": 38.87909116666667, "rental_uris": {"android": "https://dc.lft.to/lastmile_qr_scan", "ios": "https://dc.lft.to/lastmile_qr_scan"}, "fusion_lat": 0.0, "name": "9f332c0ec5b98c58e4b492caf425bb37", "bike_id": "9f332c0ec5b98c58e4b492caf425bb37"}, {"is_disabled": 0, "is_reserved": 0, "type": "electric_scooter", "lon": -77.04612383333334, "fusion_lon": 0.0, "lat": 38.905713, "rental_uris": {"android": "https://dc.lft.to/lastmile_qr_scan", "ios": "https://dc.lft.to/lastmile_qr_scan"}, "fusion_lat": 0.0, "name": "853a7ecfe3f3fe60eb37c2e2f06dd5be", "bike_id": "853a7ecfe3f3fe60eb37c2e2f06dd5be"}, {"is_disabled": 0, "is_reserved": 0, "type": "electric_scooter", "lon": -77.04379366666667, "fusion_lon": 0.0, "lat": 38.9257045, "rental_uris": {"android": "https://dc.lft.to/lastmile_qr_scan", "ios": "https://dc.lft.to/lastmile_qr_scan"}, "fusion_lat": 0.0, "name": "755d928336ecb84ac27fc39e8084eae5", "bike_id": "755d928336ecb84ac27fc39e8084eae5"}, {"is_disabled": 0, "is_reserved": 0, "type": "electric_scooter", "lon": -77.0092425, "fusion_lon": 0.0, "lat": 38.898267, "rental_uris": {"android": "https://dc.lft.to/lastmile_qr_scan", "ios": "https://dc.lft.to/lastmile_qr_scan"}, "fusion_lat": 0.0, "name": "0fe92448317ff66b3d2d83c60ff1101f", "bike_id": "0fe92448317ff66b3d2d83c60ff1101f"}, {"is_disabled": 0, "is_reserved": 0, "type": "electric_scooter", "lon": -76.99462716666666, "fusion_lon": 0.0, "lat": 38.861964, "rental_uris": {"android": "https://dc.lft.to/lastmile_qr_scan", "ios": "https://dc.lft.to/lastmile_qr_scan"}, "fusion_lat": 0.0, "name": "10b981b6116e474de370683a23f9419e", "bike_id": "10b981b6116e474de370683a23f9419e"}, {"is_disabled": 0, "is_reserved": 0, "type": "electric_scooter", "lon": -77.02721416666667, "fusion_lon": 0.0, "lat": 38.90481283333333, "rental_uris": {"android": "https://dc.lft.to/lastmile_qr_scan", "ios": "https://dc.lft.to/lastmile_qr_scan"}, "fusion_lat": 0.0, "name": "b107f440a32cc55038028283b4cc804c", "bike_id": "b107f440a32cc55038028283b4cc804c"}, {"is_disabled": 0, "is_reserved": 0, "type": "electric_scooter", "lon": -77.03852716666667, "fusion_lon": 0.0, "lat": 38.918382333333334, "rental_uris": {"android": "https://dc.lft.to/lastmile_qr_scan", "ios": "https://dc.lft.to/lastmile_qr_scan"}, "fusion_lat": 0.0, "name": "35348259aa0da30e8094cf3c3d2ea7ef", "bike_id": "35348259aa0da30e8094cf3c3d2ea7ef"}, {"is_disabled": 0, "is_reserved": 0, "type": "electric_scooter", "lon": -76.98615016666666, "fusion_lon": 0.0, "lat": 38.90351783333333, "rental_uris": {"android": "https://dc.lft.to/lastmile_qr_scan", "ios": "https://dc.lft.to/lastmile_qr_scan"}, "fusion_lat": 0.0, "name": "271aabcc98860c8d5ddfa1ef11240e48", "bike_id": "271aabcc98860c8d5ddfa1ef11240e48"}, {"is_disabled": 0, "is_reserved": 0, "type": "electric_scooter", "lon": -77.02469983333333, "fusion_lon": 0.0, "lat": 38.897293166666664, "rental_uris": {"android": "https://dc.lft.to/lastmile_qr_scan", "ios": "https://dc.lft.to/lastmile_qr_scan"}, "fusion_lat": 0.0, "name": "3b4bee41691225c1d20d2aa39e41d32b", "bike_id": "3b4bee41691225c1d20d2aa39e41d32b"}, {"is_disabled": 0, "is_reserved": 0, "type": "electric_scooter", "lon": -77.03180516666667, "fusion_lon": 0.0, "lat": 38.89175933333333, "rental_uris": {"android": "https://dc.lft.to/lastmile_qr_scan", "ios": "https://dc.lft.to/lastmile_qr_scan"}, "fusion_lat": 0.0, "name": "8bb36680cb5fa07b99c05285af032ca9", "bike_id": "8bb36680cb5fa07b99c05285af032ca9"}, {"is_disabled": 0, "is_reserved": 0, "type": "electric_scooter", "lon": -77.046575, "fusion_lon": 0.0, "lat": 38.89690933333333, "rental_uris": {"android": "https://dc.lft.to/lastmile_qr_scan", "ios": "https://dc.lft.to/lastmile_qr_scan"}, "fusion_lat": 0.0, "name": "8326cca44283c666e8b754e76b48eb7d", "bike_id": "8326cca44283c666e8b754e76b48eb7d"}, {"is_disabled": 0, "is_reserved": 0, "type": "electric_scooter", "lon": -77.02779033333333, "fusion_lon": 0.0, "lat": 38.9102165, "rental_uris": {"android": "https://dc.lft.to/lastmile_qr_scan", "ios": "https://dc.lft.to/lastmile_qr_scan"}, "fusion_lat": 0.0, "name": "5cd99e5564abcc56d03fb109ec8b4e78", "bike_id": "5cd99e5564abcc56d03fb109ec8b4e78"}, {"is_disabled": 0, "is_reserved": 0, "type": "electric_scooter", "lon": -77.010626, "fusion_lon": 0.0, "lat": 38.87245466666667, "rental_uris": {"android": "https://dc.lft.to/lastmile_qr_scan", "ios": "https://dc.lft.to/lastmile_qr_scan"}, "fusion_lat": 0.0, "name": "28011e27a0b0ed9d8cfe0110304a7e7c", "bike_id": "28011e27a0b0ed9d8cfe0110304a7e7c"}, {"is_disabled": 0, "is_reserved": 0, "type": "electric_scooter", "lon": -77.03467783333333, "fusion_lon": 0.0, "lat": 38.92156216666667, "rental_uris": {"android": "https://dc.lft.to/lastmile_qr_scan", "ios": "https://dc.lft.to/lastmile_qr_scan"}, "fusion_lat": 0.0, "name": "0339704b3bb2d1df59ab149f9fad7f14", "bike_id": "0339704b3bb2d1df59ab149f9fad7f14"}, {"is_disabled": 0, "is_reserved": 0, "type": "electric_scooter", "lon": -76.98614666666667, "fusion_lon": 0.0, "lat": 38.88292916666666, "rental_uris": {"android": "https://dc.lft.to/lastmile_qr_scan", "ios": "https://dc.lft.to/lastmile_qr_scan"}, "fusion_lat": 0.0, "name": "d2899b4cef18cccafaec45c1e4b6722f", "bike_id": "d2899b4cef18cccafaec45c1e4b6722f"}, {"is_disabled": 0, "is_reserved": 0, "type": "electric_scooter", "lon": -77.02160283333333, "fusion_lon": 0.0, "lat": 38.926137, "rental_uris": {"android": "https://dc.lft.to/lastmile_qr_scan", "ios": "https://dc.lft.to/lastmile_qr_scan"}, "fusion_lat": 0.0, "name": "373358fb9f069f11f483eb001cac3139", "bike_id": "373358fb9f069f11f483eb001cac3139"}, {"is_disabled": 0, "is_reserved": 0, "type": "electric_scooter", "lon": -77.032362, "fusion_lon": 0.0, "lat": 38.901355333333335, "rental_uris": {"android": "https://dc.lft.to/lastmile_qr_scan", "ios": "https://dc.lft.to/lastmile_qr_scan"}, "fusion_lat": 0.0, "name": "f4766649b80d6f5c55439bf9e03f3b24", "bike_id": "f4766649b80d6f5c55439bf9e03f3b24"}, {"is_disabled": 0, "is_reserved": 0, "type": "electric_scooter", "lon": -77.0434095, "fusion_lon": 0.0, "lat": 38.90045, "rental_uris": {"android": "https://dc.lft.to/lastmile_qr_scan", "ios": "https://dc.lft.to/lastmile_qr_scan"}, "fusion_lat": 0.0, "name": "201657456c2fe124be75394ea67fda01", "bike_id": "201657456c2fe124be75394ea67fda01"}, {"is_disabled": 0, "is_reserved": 0, "type": "electric_scooter", "lon": -77.0218205, "fusion_lon": 0.0, "lat": 38.89512916666666, "rental_uris": {"android": "https://dc.lft.to/lastmile_qr_scan", "ios": "https://dc.lft.to/lastmile_qr_scan"}, "fusion_lat": 0.0, "name": "7a864e718de4a522525d48b12d219f96", "bike_id": "7a864e718de4a522525d48b12d219f96"}, {"is_disabled": 0, "is_reserved": 0, "type": "electric_scooter", "lon": -77.04527333333333, "fusion_lon": 0.0, "lat": 38.9057675, "rental_uris": {"android": "https://dc.lft.to/lastmile_qr_scan", "ios": "https://dc.lft.to/lastmile_qr_scan"}, "fusion_lat": 0.0, "name": "21bfc5714d5b2c1d2d02207e971c79aa", "bike_id": "21bfc5714d5b2c1d2d02207e971c79aa"}, {"is_disabled": 0, "is_reserved": 0, "type": "electric_scooter", "lon": -77.04348266666666, "fusion_lon": 0.0, "lat": 38.9216975, "rental_uris": {"android": "https://dc.lft.to/lastmile_qr_scan", "ios": "https://dc.lft.to/lastmile_qr_scan"}, "fusion_lat": 0.0, "name": "83049fb07588cf6aebbd95190bf4a674", "bike_id": "83049fb07588cf6aebbd95190bf4a674"}, {"is_disabled": 0, "is_reserved": 0, "type": "electric_scooter", "lon": -77.02800216666667, "fusion_lon": 0.0, "lat": 38.90743966666667, "rental_uris": {"android": "https://dc.lft.to/lastmile_qr_scan", "ios": "https://dc.lft.to/lastmile_qr_scan"}, "fusion_lat": 0.0, "name": "12dbd5f22a893596258b54404a554169", "bike_id": "12dbd5f22a893596258b54404a554169"}, {"is_disabled": 0, "is_reserved": 0, "type": "electric_bike", "lon": -76.97218716666667, "fusion_lon": 0.0, "lat": 38.844806166666665, "rental_uris": {"android": "https://dc.lft.to/lastmile_qr_scan", "ios": "https://dc.lft.to/lastmile_qr_scan"}, "fusion_lat": 0.0, "name": "7c2ca251af29bc38329a39f2933f815e", "bike_id": "7c2ca251af29bc38329a39f2933f815e"}, {"is_disabled": 0, "is_reserved": 0, "type": "electric_scooter", "lon": -77.04725, "fusion_lon": 0.0, "lat": 38.89839816666667, "rental_uris": {"android": "https://dc.lft.to/lastmile_qr_scan", "ios": "https://dc.lft.to/lastmile_qr_scan"}, "fusion_lat": 0.0, "name": "5c7e40507236e9823de81c7d847b9bc0", "bike_id": "5c7e40507236e9823de81c7d847b9bc0"}, {"is_disabled": 0, "is_reserved": 0, "type": "electric_scooter", "lon": -77.02155433333333, "fusion_lon": 0.0, "lat": 38.92601533333333, "rental_uris": {"android": "https://dc.lft.to/lastmile_qr_scan", "ios": "https://dc.lft.to/lastmile_qr_scan"}, "fusion_lat": 0.0, "name": "012fc88e5f512888f1a1cc432f9ca2c2", "bike_id": "012fc88e5f512888f1a1cc432f9ca2c2"}, {"is_disabled": 0, "is_reserved": 0, "type": "electric_scooter", "lon": -77.04167666666666, "fusion_lon": 0.0, "lat": 38.91731883333333, "rental_uris": {"android": "https://dc.lft.to/lastmile_qr_scan", "ios": "https://dc.lft.to/lastmile_qr_scan"}, "fusion_lat": 0.0, "name": "df82dfd24cd28fe162b373365084e79e", "bike_id": "df82dfd24cd28fe162b373365084e79e"}, {"is_disabled": 0, "is_reserved": 0, "type": "electric_bike", "lon": -77.02863016666667, "fusion_lon": 0.0, "lat": 38.99854033333333, "rental_uris": {"android": "https://dc.lft.to/lastmile_qr_scan", "ios": "https://dc.lft.to/lastmile_qr_scan"}, "fusion_lat": 0.0, "name": "2a1c02cee13e12353f4be1e6f3b374cd", "bike_id": "2a1c02cee13e12353f4be1e6f3b374cd"}, {"is_disabled": 0, "is_reserved": 0, "type": "electric_scooter", "lon": -76.97343883333333, "fusion_lon": 0.0, "lat": 38.865124, "rental_uris": {"android": "https://dc.lft.to/lastmile_qr_scan", "ios": "https://dc.lft.to/lastmile_qr_scan"}, "fusion_lat": 0.0, "name": "3caa0ead34436dcce8de3e9a83f72570", "bike_id": "3caa0ead34436dcce8de3e9a83f72570"}, {"is_disabled": 0, "is_reserved": 0, "type": "electric_scooter", "lon": -77.0675395, "fusion_lon": 0.0, "lat": 38.949828833333335, "rental_uris": {"android": "https://dc.lft.to/lastmile_qr_scan", "ios": "https://dc.lft.to/lastmile_qr_scan"}, "fusion_lat": 0.0, "name": "a626846768ba8443db8ce3e83eb05f50", "bike_id": "a626846768ba8443db8ce3e83eb05f50"}, {"is_disabled": 0, "is_reserved": 0, "type": "electric_scooter", "lon": -77.05829383333334, "fusion_lon": 0.0, "lat": 38.935361, "rental_uris": {"android": "https://dc.lft.to/lastmile_qr_scan", "ios": "https://dc.lft.to/lastmile_qr_scan"}, "fusion_lat": 0.0, "name": "1f904918d2db4a7b16b12b10a0dc5129", "bike_id": "1f904918d2db4a7b16b12b10a0dc5129"}, {"is_disabled": 0, "is_reserved": 0, "type": "electric_scooter", "lon": -77.02690033333333, "fusion_lon": 0.0, "lat": 38.908658833333334, "rental_uris": {"android": "https://dc.lft.to/lastmile_qr_scan", "ios": "https://dc.lft.to/lastmile_qr_scan"}, "fusion_lat": 0.0, "name": "0a47b5f9d60fb3b145e58a08bdcbac36", "bike_id": "0a47b5f9d60fb3b145e58a08bdcbac36"}, {"is_disabled": 0, "is_reserved": 0, "type": "electric_scooter", "lon": -77.04056783333333, "fusion_lon": 0.0, "lat": 38.924024833333334, "rental_uris": {"android": "https://dc.lft.to/lastmile_qr_scan", "ios": "https://dc.lft.to/lastmile_qr_scan"}, "fusion_lat": 0.0, "name": "a72b15b2343b4936ac1ef52feaea10d2", "bike_id": "a72b15b2343b4936ac1ef52feaea10d2"}, {"is_disabled": 0, "is_reserved": 0, "type": "electric_scooter", "lon": -77.01015216666667, "fusion_lon": 0.0, "lat": 38.86722833333334, "rental_uris": {"android": "https://dc.lft.to/lastmile_qr_scan", "ios": "https://dc.lft.to/lastmile_qr_scan"}, "fusion_lat": 0.0, "name": "a8dd38e220c2bf363d12992c12086d8c", "bike_id": "a8dd38e220c2bf363d12992c12086d8c"}, {"is_disabled": 0, "is_reserved": 0, "type": "electric_scooter", "lon": -77.01412333333333, "fusion_lon": 0.0, "lat": 38.92812816666667, "rental_uris": {"android": "https://dc.lft.to/lastmile_qr_scan", "ios": "https://dc.lft.to/lastmile_qr_scan"}, "fusion_lat": 0.0, "name": "2c8ffbd7880d2e133e466a88068bde62", "bike_id": "2c8ffbd7880d2e133e466a88068bde62"}, {"is_disabled": 0, "is_reserved": 0, "type": "electric_scooter", "lon": -77.033509, "fusion_lon": 0.0, "lat": 38.89627733333333, "rental_uris": {"android": "https://dc.lft.to/lastmile_qr_scan", "ios": "https://dc.lft.to/lastmile_qr_scan"}, "fusion_lat": 0.0, "name": "5038ecd2b3209d1acb54cee68fd3b7d3", "bike_id": "5038ecd2b3209d1acb54cee68fd3b7d3"}, {"is_disabled": 0, "is_reserved": 0, "type": "electric_scooter", "lon": -77.03234566666667, "fusion_lon": 0.0, "lat": 38.9248805, "rental_uris": {"android": "https://dc.lft.to/lastmile_qr_scan", "ios": "https://dc.lft.to/lastmile_qr_scan"}, "fusion_lat": 0.0, "name": "cb4780a1465883e0fdfed47314c5e283", "bike_id": "cb4780a1465883e0fdfed47314c5e283"}, {"is_disabled": 0, "is_reserved": 0, "type": "electric_scooter", "lon": -77.021358, "fusion_lon": 0.0, "lat": 38.915961833333334, "rental_uris": {"android": "https://dc.lft.to/lastmile_qr_scan", "ios": "https://dc.lft.to/lastmile_qr_scan"}, "fusion_lat": 0.0, "name": "ceb080bef1d76c427c0b5d6803207f3b", "bike_id": "ceb080bef1d76c427c0b5d6803207f3b"}, {"is_disabled": 0, "is_reserved": 0, "type": "electric_scooter", "lon": -77.06112983333334, "fusion_lon": 0.0, "lat": 38.943642833333335, "rental_uris": {"android": "https://dc.lft.to/lastmile_qr_scan", "ios": "https://dc.lft.to/lastmile_qr_scan"}, "fusion_lat": 0.0, "name": "7fc0d4537c97aa5631b54334735c2ce2", "bike_id": "7fc0d4537c97aa5631b54334735c2ce2"}, {"is_disabled": 0, "is_reserved": 0, "type": "electric_scooter", "lon": -77.0377225, "fusion_lon": 0.0, "lat": 38.93609333333333, "rental_uris": {"android": "https://dc.lft.to/lastmile_qr_scan", "ios": "https://dc.lft.to/lastmile_qr_scan"}, "fusion_lat": 0.0, "name": "904254679ff1a40c0f58cac03c14e5b9", "bike_id": "904254679ff1a40c0f58cac03c14e5b9"}, {"is_disabled": 0, "is_reserved": 0, "type": "electric_bike", "lon": -77.01232083333333, "fusion_lon": 0.0, "lat": 38.95088633333334, "rental_uris": {"android": "https://dc.lft.to/lastmile_qr_scan", "ios": "https://dc.lft.to/lastmile_qr_scan"}, "fusion_lat": 0.0, "name": "7315db939aeecaaa8195a79c15d12028", "bike_id": "7315db939aeecaaa8195a79c15d12028"}, {"is_disabled": 0, "is_reserved": 0, "type": "electric_scooter", "lon": -77.01783116666667, "fusion_lon": 0.0, "lat": 38.87696716666667, "rental_uris": {"android": "https://dc.lft.to/lastmile_qr_scan", "ios": "https://dc.lft.to/lastmile_qr_scan"}, "fusion_lat": 0.0, "name": "b9f3af009866e7500d70189ecab40569", "bike_id": "b9f3af009866e7500d70189ecab40569"}, {"is_disabled": 0, "is_reserved": 0, "type": "electric_scooter", "lon": -77.0305835, "fusion_lon": 0.0, "lat": 38.901259833333334, "rental_uris": {"android": "https://dc.lft.to/lastmile_qr_scan", "ios": "https://dc.lft.to/lastmile_qr_scan"}, "fusion_lat": 0.0, "name": "0c0ae936b7809747651111911288e27d", "bike_id": "0c0ae936b7809747651111911288e27d"}, {"is_disabled": 0, "is_reserved": 0, "type": "electric_scooter", "lon": -76.94210333333334, "fusion_lon": 0.0, "lat": 38.88994566666667, "rental_uris": {"android": "https://dc.lft.to/lastmile_qr_scan", "ios": "https://dc.lft.to/lastmile_qr_scan"}, "fusion_lat": 0.0, "name": "01376507ecb464ceb55c246440b574c6", "bike_id": "01376507ecb464ceb55c246440b574c6"}, {"is_disabled": 0, "is_reserved": 0, "type": "electric_scooter", "lon": -77.05134133333334, "fusion_lon": 0.0, "lat": 38.90722433333333, "rental_uris": {"android": "https://dc.lft.to/lastmile_qr_scan", "ios": "https://dc.lft.to/lastmile_qr_scan"}, "fusion_lat": 0.0, "name": "29d352a91374dc095825cd4949d697e5", "bike_id": "29d352a91374dc095825cd4949d697e5"}, {"is_disabled": 0, "is_reserved": 0, "type": "electric_bike", "lon": -76.909487, "fusion_lon": 0.0, "lat": 38.854264666666666, "rental_uris": {"android": "https://dc.lft.to/lastmile_qr_scan", "ios": "https://dc.lft.to/lastmile_qr_scan"}, "fusion_lat": 0.0, "name": "0ebc00b09b3e31d023600bd6039fdfc0", "bike_id": "0ebc00b09b3e31d023600bd6039fdfc0"}, {"is_disabled": 0, "is_reserved": 0, "type": "electric_scooter", "lon": -77.02937516666667, "fusion_lon": 0.0, "lat": 38.89867366666667, "rental_uris": {"android": "https://dc.lft.to/lastmile_qr_scan", "ios": "https://dc.lft.to/lastmile_qr_scan"}, "fusion_lat": 0.0, "name": "584e2618ce87eb41fbf06f40e3ac1c25", "bike_id": "584e2618ce87eb41fbf06f40e3ac1c25"}, {"is_disabled": 0, "is_reserved": 0, "type": "electric_scooter", "lon": -76.99031316666667, "fusion_lon": 0.0, "lat": 38.86069583333333, "rental_uris": {"android": "https://dc.lft.to/lastmile_qr_scan", "ios": "https://dc.lft.to/lastmile_qr_scan"}, "fusion_lat": 0.0, "name": "0c423388729d76d75cb2c4d4cb872e1e", "bike_id": "0c423388729d76d75cb2c4d4cb872e1e"}, {"is_disabled": 0, "is_reserved": 0, "type": "electric_scooter", "lon": -77.00366416666667, "fusion_lon": 0.0, "lat": 38.91104516666667, "rental_uris": {"android": "https://dc.lft.to/lastmile_qr_scan", "ios": "https://dc.lft.to/lastmile_qr_scan"}, "fusion_lat": 0.0, "name": "f75d8044558a171261b2e1420445195a", "bike_id": "f75d8044558a171261b2e1420445195a"}, {"is_disabled": 0, "is_reserved": 0, "type": "electric_scooter", "lon": -77.00608316666667, "fusion_lon": 0.0, "lat": 38.911144, "rental_uris": {"android": "https://dc.lft.to/lastmile_qr_scan", "ios": "https://dc.lft.to/lastmile_qr_scan"}, "fusion_lat": 0.0, "name": "67d2b3eb5cc0c8a96b885b929e862500", "bike_id": "67d2b3eb5cc0c8a96b885b929e862500"}, {"is_disabled": 0, "is_reserved": 0, "type": "electric_bike", "lon": -77.3441355, "fusion_lon": 0.0, "lat": 38.94599633333333, "rental_uris": {"android": "https://dc.lft.to/lastmile_qr_scan", "ios": "https://dc.lft.to/lastmile_qr_scan"}, "fusion_lat": 0.0, "name": "baf8f7c61dd84f5a0231cd0e44743f05", "bike_id": "baf8f7c61dd84f5a0231cd0e44743f05"}, {"is_disabled": 0, "is_reserved": 0, "type": "electric_scooter", "lon": -77.03839816666667, "fusion_lon": 0.0, "lat": 38.9038315, "rental_uris": {"android": "https://dc.lft.to/lastmile_qr_scan", "ios": "https://dc.lft.to/lastmile_qr_scan"}, "fusion_lat": 0.0, "name": "4e8fb9721984bb568de7ba094ab3c324", "bike_id": "4e8fb9721984bb568de7ba094ab3c324"}, {"is_disabled": 0, "is_reserved": 0, "type": "electric_bike", "lon": -77.14321333333334, "fusion_lon": 0.0, "lat": 39.05456616666667, "rental_uris": {"android": "https://dc.lft.to/lastmile_qr_scan", "ios": "https://dc.lft.to/lastmile_qr_scan"}, "fusion_lat": 0.0, "name": "020aab85dcdb8b5f37c28ec07e4aa029", "bike_id": "020aab85dcdb8b5f37c28ec07e4aa029"}, {"is_disabled": 0, "is_reserved": 0, "type": "electric_scooter", "lon": -76.99820716666666, "fusion_lon": 0.0, "lat": 38.8443435, "rental_uris": {"android": "https://dc.lft.to/lastmile_qr_scan", "ios": "https://dc.lft.to/lastmile_qr_scan"}, "fusion_lat": 0.0, "name": "6370d948b6e66c5ca72bc6de961bdcc6", "bike_id": "6370d948b6e66c5ca72bc6de961bdcc6"}, {"is_disabled": 0, "is_reserved": 0, "type": "electric_scooter", "lon": -77.01173616666667, "fusion_lon": 0.0, "lat": 38.868017, "rental_uris": {"android": "https://dc.lft.to/lastmile_qr_scan", "ios": "https://dc.lft.to/lastmile_qr_scan"}, "fusion_lat": 0.0, "name": "c75a81287e5d730d94209996ec924eac", "bike_id": "c75a81287e5d730d94209996ec924eac"}, {"is_disabled": 0, "is_reserved": 0, "type": "electric_scooter", "lon": -76.98885283333334, "fusion_lon": 0.0, "lat": 38.86672633333333, "rental_uris": {"android": "https://dc.lft.to/lastmile_qr_scan", "ios": "https://dc.lft.to/lastmile_qr_scan"}, "fusion_lat": 0.0, "name": "85e0ba2a097329ef42148fc37585e637", "bike_id": "85e0ba2a097329ef42148fc37585e637"}, {"is_disabled": 0, "is_reserved": 0, "type": "electric_scooter", "lon": -77.06190966666666, "fusion_lon": 0.0, "lat": 38.93018516666667, "rental_uris": {"android": "https://dc.lft.to/lastmile_qr_scan", "ios": "https://dc.lft.to/lastmile_qr_scan"}, "fusion_lat": 0.0, "name": "2625812aaeba3214b362f17646a0c250", "bike_id": "2625812aaeba3214b362f17646a0c250"}, {"is_disabled": 0, "is_reserved": 0, "type": "electric_scooter", "lon": -77.04503783333334, "fusion_lon": 0.0, "lat": 38.907847, "rental_uris": {"android": "https://dc.lft.to/lastmile_qr_scan", "ios": "https://dc.lft.to/lastmile_qr_scan"}, "fusion_lat": 0.0, "name": "5d2ca1ef794a9cc4f539229c9069e9b8", "bike_id": "5d2ca1ef794a9cc4f539229c9069e9b8"}, {"is_disabled": 0, "is_reserved": 0, "type": "electric_scooter", "lon": -76.948537, "fusion_lon": 0.0, "lat": 38.88302933333333, "rental_uris": {"android": "https://dc.lft.to/lastmile_qr_scan", "ios": "https://dc.lft.to/lastmile_qr_scan"}, "fusion_lat": 0.0, "name": "905d14d6d259f190dac7da2319f0998f", "bike_id": "905d14d6d259f190dac7da2319f0998f"}, {"is_disabled": 0, "is_reserved": 0, "type": "electric_scooter", "lon": -77.05400633333333, "fusion_lon": 0.0, "lat": 38.9025605, "rental_uris": {"android": "https://dc.lft.to/lastmile_qr_scan", "ios": "https://dc.lft.to/lastmile_qr_scan"}, "fusion_lat": 0.0, "name": "2a5bb5d57268c0f66733a4ead596ea3d", "bike_id": "2a5bb5d57268c0f66733a4ead596ea3d"}, {"is_disabled": 0, "is_reserved": 0, "type": "electric_scooter", "lon": -77.01535116666666, "fusion_lon": 0.0, "lat": 38.88741016666667, "rental_uris": {"android": "https://dc.lft.to/lastmile_qr_scan", "ios": "https://dc.lft.to/lastmile_qr_scan"}, "fusion_lat": 0.0, "name": "0c8bb0b873e6089e07a047174f995537", "bike_id": "0c8bb0b873e6089e07a047174f995537"}, {"is_disabled": 0, "is_reserved": 0, "type": "electric_bike", "lon": -76.90539083333333, "fusion_lon": 0.0, "lat": 38.89734883333333, "rental_uris": {"android": "https://dc.lft.to/lastmile_qr_scan", "ios": "https://dc.lft.to/lastmile_qr_scan"}, "fusion_lat": 0.0, "name": "d82c3dfff42ad55c83cba49b037c99e3", "bike_id": "d82c3dfff42ad55c83cba49b037c99e3"}, {"is_disabled": 0, "is_reserved": 0, "type": "electric_scooter", "lon": -77.0635055, "fusion_lon": 0.0, "lat": 38.94442016666667, "rental_uris": {"android": "https://dc.lft.to/lastmile_qr_scan", "ios": "https://dc.lft.to/lastmile_qr_scan"}, "fusion_lat": 0.0, "name": "e0e166fc00741b11db3b92a5c0d20f98", "bike_id": "e0e166fc00741b11db3b92a5c0d20f98"}, {"is_disabled": 0, "is_reserved": 0, "type": "electric_scooter", "lon": -77.0411355, "fusion_lon": 0.0, "lat": 38.91701116666667, "rental_uris": {"android": "https://dc.lft.to/lastmile_qr_scan", "ios": "https://dc.lft.to/lastmile_qr_scan"}, "fusion_lat": 0.0, "name": "21f528f88e3a2d02c3ce255d1bb3a7e6", "bike_id": "21f528f88e3a2d02c3ce255d1bb3a7e6"}, {"is_disabled": 0, "is_reserved": 0, "type": "electric_scooter", "lon": -77.03856666666667, "fusion_lon": 0.0, "lat": 38.916331666666665, "rental_uris": {"android": "https://dc.lft.to/lastmile_qr_scan", "ios": "https://dc.lft.to/lastmile_qr_scan"}, "fusion_lat": 0.0, "name": "75a344bbe1e7c08eadb84b4c1b99f856", "bike_id": "75a344bbe1e7c08eadb84b4c1b99f856"}, {"is_disabled": 0, "is_reserved": 0, "type": "electric_scooter", "lon": -77.01378933333334, "fusion_lon": 0.0, "lat": 38.886424166666664, "rental_uris": {"android": "https://dc.lft.to/lastmile_qr_scan", "ios": "https://dc.lft.to/lastmile_qr_scan"}, "fusion_lat": 0.0, "name": "16e0b3b3ad2157ccd3d643463dd16ab3", "bike_id": "16e0b3b3ad2157ccd3d643463dd16ab3"}, {"is_disabled": 0, "is_reserved": 0, "type": "electric_scooter", "lon": -77.07274083333333, "fusion_lon": 0.0, "lat": 38.93471383333333, "rental_uris": {"android": "https://dc.lft.to/lastmile_qr_scan", "ios": "https://dc.lft.to/lastmile_qr_scan"}, "fusion_lat": 0.0, "name": "0412708ef05f4cfe4bfceb100bc11478", "bike_id": "0412708ef05f4cfe4bfceb100bc11478"}, {"is_disabled": 0, "is_reserved": 0, "type": "electric_scooter", "lon": -77.05010616666667, "fusion_lon": 0.0, "lat": 38.90541116666667, "rental_uris": {"android": "https://dc.lft.to/lastmile_qr_scan", "ios": "https://dc.lft.to/lastmile_qr_scan"}, "fusion_lat": 0.0, "name": "6773bebcf95612d2c4b590deb89176ca", "bike_id": "6773bebcf95612d2c4b590deb89176ca"}, {"is_disabled": 0, "is_reserved": 0, "type": "electric_bike", "lon": -77.0576355, "fusion_lon": 0.0, "lat": 38.924926666666664, "rental_uris": {"android": "https://dc.lft.to/lastmile_qr_scan", "ios": "https://dc.lft.to/lastmile_qr_scan"}, "fusion_lat": 0.0, "name": "c62c168b00092b0273d68735990f522d", "bike_id": "c62c168b00092b0273d68735990f522d"}, {"is_disabled": 0, "is_reserved": 0, "type": "electric_scooter", "lon": -77.022888, "fusion_lon": 0.0, "lat": 38.8906155, "rental_uris": {"android": "https://dc.lft.to/lastmile_qr_scan", "ios": "https://dc.lft.to/lastmile_qr_scan"}, "fusion_lat": 0.0, "name": "160a4a096006ceb40d05b5fcdd9d47d6", "bike_id": "160a4a096006ceb40d05b5fcdd9d47d6"}, {"is_disabled": 0, "is_reserved": 0, "type": "electric_scooter", "lon": -77.04256033333333, "fusion_lon": 0.0, "lat": 38.914100833333336, "rental_uris": {"android": "https://dc.lft.to/lastmile_qr_scan", "ios": "https://dc.lft.to/lastmile_qr_scan"}, "fusion_lat": 0.0, "name": "257eb35f7ef2720140009ebee8518770", "bike_id": "257eb35f7ef2720140009ebee8518770"}, {"is_disabled": 0, "is_reserved": 0, "type": "electric_scooter", "lon": -77.041509, "fusion_lon": 0.0, "lat": 38.9005925, "rental_uris": {"android": "https://dc.lft.to/lastmile_qr_scan", "ios": "https://dc.lft.to/lastmile_qr_scan"}, "fusion_lat": 0.0, "name": "d9c0d04bbe71eb7c15693c7fa7f130c7", "bike_id": "d9c0d04bbe71eb7c15693c7fa7f130c7"}, {"is_disabled": 0, "is_reserved": 0, "type": "electric_scooter", "lon": -77.01351066666666, "fusion_lon": 0.0, "lat": 38.92880516666666, "rental_uris": {"android": "https://dc.lft.to/lastmile_qr_scan", "ios": "https://dc.lft.to/lastmile_qr_scan"}, "fusion_lat": 0.0, "name": "7b448d9b78cae85ac7811a50beadecb1", "bike_id": "7b448d9b78cae85ac7811a50beadecb1"}, {"is_disabled": 0, "is_reserved": 0, "type": "electric_scooter", "lon": -77.04436133333333, "fusion_lon": 0.0, "lat": 38.91264483333333, "rental_uris": {"android": "https://dc.lft.to/lastmile_qr_scan", "ios": "https://dc.lft.to/lastmile_qr_scan"}, "fusion_lat": 0.0, "name": "d2e68827ddb932fd26924636697bf78b", "bike_id": "d2e68827ddb932fd26924636697bf78b"}, {"is_disabled": 0, "is_reserved": 0, "type": "electric_scooter", "lon": -77.03438083333333, "fusion_lon": 0.0, "lat": 38.90971866666667, "rental_uris": {"android": "https://dc.lft.to/lastmile_qr_scan", "ios": "https://dc.lft.to/lastmile_qr_scan"}, "fusion_lat": 0.0, "name": "88b5e96960100e74f6b67f6220547816", "bike_id": "88b5e96960100e74f6b67f6220547816"}, {"is_disabled": 0, "is_reserved": 0, "type": "electric_bike", "lon": -76.95220216666667, "fusion_lon": 0.0, "lat": 38.89236283333334, "rental_uris": {"android": "https://dc.lft.to/lastmile_qr_scan", "ios": "https://dc.lft.to/lastmile_qr_scan"}, "fusion_lat": 0.0, "name": "42bd53cf1f2f82fab00987e0ce9e635f", "bike_id": "42bd53cf1f2f82fab00987e0ce9e635f"}, {"is_disabled": 0, "is_reserved": 0, "type": "electric_scooter", "lon": -77.01405, "fusion_lon": 0.0, "lat": 38.92811066666667, "rental_uris": {"android": "https://dc.lft.to/lastmile_qr_scan", "ios": "https://dc.lft.to/lastmile_qr_scan"}, "fusion_lat": 0.0, "name": "9202e3d6550df5b58ceb81ff780ea9e5", "bike_id": "9202e3d6550df5b58ceb81ff780ea9e5"}, {"is_disabled": 0, "is_reserved": 0, "type": "electric_scooter", "lon": -77.003358, "fusion_lon": 0.0, "lat": 38.893538, "rental_uris": {"android": "https://dc.lft.to/lastmile_qr_scan", "ios": "https://dc.lft.to/lastmile_qr_scan"}, "fusion_lat": 0.0, "name": "83e2b97d25b2d14001fc61b31b1c9ec1", "bike_id": "83e2b97d25b2d14001fc61b31b1c9ec1"}, {"is_disabled": 0, "is_reserved": 0, "type": "electric_scooter", "lon": -77.054226, "fusion_lon": 0.0, "lat": 38.89920883333333, "rental_uris": {"android": "https://dc.lft.to/lastmile_qr_scan", "ios": "https://dc.lft.to/lastmile_qr_scan"}, "fusion_lat": 0.0, "name": "fa6799031d572be46bfa421f1591aa4d", "bike_id": "fa6799031d572be46bfa421f1591aa4d"}, {"is_disabled": 0, "is_reserved": 0, "type": "electric_scooter", "lon": -77.03817833333333, "fusion_lon": 0.0, "lat": 38.90321383333333, "rental_uris": {"android": "https://dc.lft.to/lastmile_qr_scan", "ios": "https://dc.lft.to/lastmile_qr_scan"}, "fusion_lat": 0.0, "name": "9abbe434d2d7872efa7fececedd006cf", "bike_id": "9abbe434d2d7872efa7fececedd006cf"}, {"is_disabled": 0, "is_reserved": 0, "type": "electric_scooter", "lon": -77.00827983333333, "fusion_lon": 0.0, "lat": 38.9125985, "rental_uris": {"android": "https://dc.lft.to/lastmile_qr_scan", "ios": "https://dc.lft.to/lastmile_qr_scan"}, "fusion_lat": 0.0, "name": "e4659ea160be26d588669aaede3981c3", "bike_id": "e4659ea160be26d588669aaede3981c3"}, {"is_disabled": 0, "is_reserved": 0, "type": "electric_bike", "lon": -76.88906583333333, "fusion_lon": 0.0, "lat": 38.92590666666667, "rental_uris": {"android": "https://dc.lft.to/lastmile_qr_scan", "ios": "https://dc.lft.to/lastmile_qr_scan"}, "fusion_lat": 0.0, "name": "bb8dba0e3c2af445b92ce96f25922ca4", "bike_id": "bb8dba0e3c2af445b92ce96f25922ca4"}, {"is_disabled": 0, "is_reserved": 0, "type": "electric_scooter", "lon": -77.020844, "fusion_lon": 0.0, "lat": 38.93016433333333, "rental_uris": {"android": "https://dc.lft.to/lastmile_qr_scan", "ios": "https://dc.lft.to/lastmile_qr_scan"}, "fusion_lat": 0.0, "name": "8ed95ed2ca3b1896d483c73805da892f", "bike_id": "8ed95ed2ca3b1896d483c73805da892f"}, {"is_disabled": 0, "is_reserved": 0, "type": "electric_scooter", "lon": -77.0516545, "fusion_lon": 0.0, "lat": 38.90578633333333, "rental_uris": {"android": "https://dc.lft.to/lastmile_qr_scan", "ios": "https://dc.lft.to/lastmile_qr_scan"}, "fusion_lat": 0.0, "name": "a0bdea01680e0a044cbe47ccb4d0472f", "bike_id": "a0bdea01680e0a044cbe47ccb4d0472f"}, {"is_disabled": 0, "is_reserved": 0, "type": "electric_bike", "lon": -76.96681833333334, "fusion_lon": 0.0, "lat": 38.958890833333335, "rental_uris": {"android": "https://dc.lft.to/lastmile_qr_scan", "ios": "https://dc.lft.to/lastmile_qr_scan"}, "fusion_lat": 0.0, "name": "f2be40eb1874d7319f15debf49849e93", "bike_id": "f2be40eb1874d7319f15debf49849e93"}, {"is_disabled": 0, "is_reserved": 0, "type": "electric_bike", "lon": -76.982451, "fusion_lon": 0.0, "lat": 38.95325966666667, "rental_uris": {"android": "https://dc.lft.to/lastmile_qr_scan", "ios": "https://dc.lft.to/lastmile_qr_scan"}, "fusion_lat": 0.0, "name": "d47dbfde42c4dbaaa53cd178db120fcc", "bike_id": "d47dbfde42c4dbaaa53cd178db120fcc"}, {"is_disabled": 0, "is_reserved": 0, "type": "electric_scooter", "lon": -77.031864, "fusion_lon": 0.0, "lat": 38.892280166666666, "rental_uris": {"android": "https://dc.lft.to/lastmile_qr_scan", "ios": "https://dc.lft.to/lastmile_qr_scan"}, "fusion_lat": 0.0, "name": "a30be65883a799ee2bbe4ce1fcdd2567", "bike_id": "a30be65883a799ee2bbe4ce1fcdd2567"}, {"is_disabled": 0, "is_reserved": 0, "type": "electric_scooter", "lon": -77.05194966666667, "fusion_lon": 0.0, "lat": 38.92546816666667, "rental_uris": {"android": "https://dc.lft.to/lastmile_qr_scan", "ios": "https://dc.lft.to/lastmile_qr_scan"}, "fusion_lat": 0.0, "name": "72f892fb344a56ffa53801655455117e", "bike_id": "72f892fb344a56ffa53801655455117e"}, {"is_disabled": 0, "is_reserved": 0, "type": "electric_scooter", "lon": -77.04593816666667, "fusion_lon": 0.0, "lat": 38.9170935, "rental_uris": {"android": "https://dc.lft.to/lastmile_qr_scan", "ios": "https://dc.lft.to/lastmile_qr_scan"}, "fusion_lat": 0.0, "name": "0b3bdd84cb28dade8a243d0070f4c072", "bike_id": "0b3bdd84cb28dade8a243d0070f4c072"}, {"is_disabled": 0, "is_reserved": 0, "type": "electric_scooter", "lon": -77.02902183333333, "fusion_lon": 0.0, "lat": 38.916972666666666, "rental_uris": {"android": "https://dc.lft.to/lastmile_qr_scan", "ios": "https://dc.lft.to/lastmile_qr_scan"}, "fusion_lat": 0.0, "name": "6ffe90eca2e42810efd993d62ae2ac2a", "bike_id": "6ffe90eca2e42810efd993d62ae2ac2a"}, {"is_disabled": 0, "is_reserved": 0, "type": "electric_scooter", "lon": -77.0033925, "fusion_lon": 0.0, "lat": 38.893561166666665, "rental_uris": {"android": "https://dc.lft.to/lastmile_qr_scan", "ios": "https://dc.lft.to/lastmile_qr_scan"}, "fusion_lat": 0.0, "name": "2f2cc4a146d13b183817cbdf1c8f6c80", "bike_id": "2f2cc4a146d13b183817cbdf1c8f6c80"}, {"is_disabled": 0, "is_reserved": 0, "type": "electric_scooter", "lon": -76.994643, "fusion_lon": 0.0, "lat": 38.86028866666667, "rental_uris": {"android": "https://dc.lft.to/lastmile_qr_scan", "ios": "https://dc.lft.to/lastmile_qr_scan"}, "fusion_lat": 0.0, "name": "79558f25c3366eb3bbd5c438fbf645e8", "bike_id": "79558f25c3366eb3bbd5c438fbf645e8"}, {"is_disabled": 0, "is_reserved": 0, "type": "electric_scooter", "lon": -77.02405483333334, "fusion_lon": 0.0, "lat": 38.918992833333334, "rental_uris": {"android": "https://dc.lft.to/lastmile_qr_scan", "ios": "https://dc.lft.to/lastmile_qr_scan"}, "fusion_lat": 0.0, "name": "c8b8f8b1fb972d6c924ce16d749cd672", "bike_id": "c8b8f8b1fb972d6c924ce16d749cd672"}, {"is_disabled": 0, "is_reserved": 0, "type": "electric_scooter", "lon": -77.065297, "fusion_lon": 0.0, "lat": 38.905202333333335, "rental_uris": {"android": "https://dc.lft.to/lastmile_qr_scan", "ios": "https://dc.lft.to/lastmile_qr_scan"}, "fusion_lat": 0.0, "name": "72bed68b8575342093a415fba50eddbe", "bike_id": "72bed68b8575342093a415fba50eddbe"}, {"is_disabled": 0, "is_reserved": 0, "type": "electric_scooter", "lon": -76.99820233333334, "fusion_lon": 0.0, "lat": 38.844354333333335, "rental_uris": {"android": "https://dc.lft.to/lastmile_qr_scan", "ios": "https://dc.lft.to/lastmile_qr_scan"}, "fusion_lat": 0.0, "name": "ee6edad0a248c54398d212ddb8b2769f", "bike_id": "ee6edad0a248c54398d212ddb8b2769f"}, {"is_disabled": 0, "is_reserved": 0, "type": "electric_scooter", "lon": -77.022272, "fusion_lon": 0.0, "lat": 38.887457166666664, "rental_uris": {"android": "https://dc.lft.to/lastmile_qr_scan", "ios": "https://dc.lft.to/lastmile_qr_scan"}, "fusion_lat": 0.0, "name": "927b4d5d2985adc730cec9f275d7e6f2", "bike_id": "927b4d5d2985adc730cec9f275d7e6f2"}, {"is_disabled": 0, "is_reserved": 0, "type": "electric_bike", "lon": -77.08047383333333, "fusion_lon": 0.0, "lat": 38.84840633333334, "rental_uris": {"android": "https://dc.lft.to/lastmile_qr_scan", "ios": "https://dc.lft.to/lastmile_qr_scan"}, "fusion_lat": 0.0, "name": "5d9a5e3bd93ec01cf87cc63067f93f19", "bike_id": "5d9a5e3bd93ec01cf87cc63067f93f19"}, {"is_disabled": 0, "is_reserved": 0, "type": "electric_scooter", "lon": -76.94997833333333, "fusion_lon": 0.0, "lat": 38.893890166666665, "rental_uris": {"android": "https://dc.lft.to/lastmile_qr_scan", "ios": "https://dc.lft.to/lastmile_qr_scan"}, "fusion_lat": 0.0, "name": "561669837bd0ffef59f73d87d733204d", "bike_id": "561669837bd0ffef59f73d87d733204d"}, {"is_disabled": 0, "is_reserved": 0, "type": "electric_scooter", "lon": -77.0232095, "fusion_lon": 0.0, "lat": 38.92763333333333, "rental_uris": {"android": "https://dc.lft.to/lastmile_qr_scan", "ios": "https://dc.lft.to/lastmile_qr_scan"}, "fusion_lat": 0.0, "name": "d5143531c5660e8cd01f476745c7301f", "bike_id": "d5143531c5660e8cd01f476745c7301f"}, {"is_disabled": 0, "is_reserved": 0, "type": "electric_scooter", "lon": -77.03465166666666, "fusion_lon": 0.0, "lat": 38.9098295, "rental_uris": {"android": "https://dc.lft.to/lastmile_qr_scan", "ios": "https://dc.lft.to/lastmile_qr_scan"}, "fusion_lat": 0.0, "name": "e3b3578899924706319826902e7956c8", "bike_id": "e3b3578899924706319826902e7956c8"}, {"is_disabled": 0, "is_reserved": 0, "type": "electric_scooter", "lon": -77.046576, "fusion_lon": 0.0, "lat": 38.893367166666664, "rental_uris": {"android": "https://dc.lft.to/lastmile_qr_scan", "ios": "https://dc.lft.to/lastmile_qr_scan"}, "fusion_lat": 0.0, "name": "0c91e6b4037275c2fbf8cf864ee98b5b", "bike_id": "0c91e6b4037275c2fbf8cf864ee98b5b"}, {"is_disabled": 0, "is_reserved": 0, "type": "electric_scooter", "lon": -77.03931983333334, "fusion_lon": 0.0, "lat": 38.90240816666667, "rental_uris": {"android": "https://dc.lft.to/lastmile_qr_scan", "ios": "https://dc.lft.to/lastmile_qr_scan"}, "fusion_lat": 0.0, "name": "242dfcc228a1f9f8009076091c69627e", "bike_id": "242dfcc228a1f9f8009076091c69627e"}, {"is_disabled": 0, "is_reserved": 0, "type": "electric_scooter", "lon": -76.95758366666666, "fusion_lon": 0.0, "lat": 38.884300333333336, "rental_uris": {"android": "https://dc.lft.to/lastmile_qr_scan", "ios": "https://dc.lft.to/lastmile_qr_scan"}, "fusion_lat": 0.0, "name": "46b52aa181d83cff06d39653b0208054", "bike_id": "46b52aa181d83cff06d39653b0208054"}, {"is_disabled": 0, "is_reserved": 0, "type": "electric_scooter", "lon": -77.03319833333333, "fusion_lon": 0.0, "lat": 38.898046666666666, "rental_uris": {"android": "https://dc.lft.to/lastmile_qr_scan", "ios": "https://dc.lft.to/lastmile_qr_scan"}, "fusion_lat": 0.0, "name": "8d4ab9cd5a8394df63ab6f15b463e246", "bike_id": "8d4ab9cd5a8394df63ab6f15b463e246"}, {"is_disabled": 0, "is_reserved": 0, "type": "electric_scooter", "lon": -77.0323825, "fusion_lon": 0.0, "lat": 38.89669683333334, "rental_uris": {"android": "https://dc.lft.to/lastmile_qr_scan", "ios": "https://dc.lft.to/lastmile_qr_scan"}, "fusion_lat": 0.0, "name": "48049e2bf36de157f5f584b0cec6c3b7", "bike_id": "48049e2bf36de157f5f584b0cec6c3b7"}, {"is_disabled": 0, "is_reserved": 0, "type": "electric_scooter", "lon": -77.01026433333334, "fusion_lon": 0.0, "lat": 38.911177333333335, "rental_uris": {"android": "https://dc.lft.to/lastmile_qr_scan", "ios": "https://dc.lft.to/lastmile_qr_scan"}, "fusion_lat": 0.0, "name": "5941b4a5c8cbbc7e827cd830b08c9c64", "bike_id": "5941b4a5c8cbbc7e827cd830b08c9c64"}, {"is_disabled": 0, "is_reserved": 0, "type": "electric_scooter", "lon": -77.0199495, "fusion_lon": 0.0, "lat": 38.875758833333336, "rental_uris": {"android": "https://dc.lft.to/lastmile_qr_scan", "ios": "https://dc.lft.to/lastmile_qr_scan"}, "fusion_lat": 0.0, "name": "fdbd1f4962bfd02f3a7f6f483df9551b", "bike_id": "fdbd1f4962bfd02f3a7f6f483df9551b"}, {"is_disabled": 0, "is_reserved": 0, "type": "electric_scooter", "lon": -77.04471716666667, "fusion_lon": 0.0, "lat": 38.90848583333333, "rental_uris": {"android": "https://dc.lft.to/lastmile_qr_scan", "ios": "https://dc.lft.to/lastmile_qr_scan"}, "fusion_lat": 0.0, "name": "2b0bfc710b6103a4831ffa5248cdeaeb", "bike_id": "2b0bfc710b6103a4831ffa5248cdeaeb"},