{"data": {"bikes": [{"type": "electric_scooter", "fusion_lon": 0.0, "bike_id": "fff24d158bdd1b2f5c46284c483e81e2", "is_disabled": 0, "lat": 38.905473666666666, "rental_uris": {"ios": "https://dc.lft.to/lastmile_qr_scan", "android": "https://dc.lft.to/lastmile_qr_scan"}, "is_reserved": 0, "lon": -77.04912083333333, "fusion_lat": 0.0, "name": "fff24d158bdd1b2f5c46284c483e81e2"}, {"type": "electric_scooter", "fusion_lon": 0.0, "bike_id": "ea7fdc2d951b97b4770c2b49aa4d7d42", "is_disabled": 0, "lat": 38.90156733333333, "rental_uris": {"ios": "https://dc.lft.to/lastmile_qr_scan", "android": "https://dc.lft.to/lastmile_qr_scan"}, "is_reserved": 0, "lon": -77.02280683333333, "fusion_lat": 0.0, "name": "ea7fdc2d951b97b4770c2b49aa4d7d42"}, {"type": "electric_bike", "fusion_lon": 0.0, "bike_id": "3106e85545a628dee80cd4f2e7d83c11", "is_disabled": 0, "lat": 38.91993766666667, "rental_uris": {"ios": "https://dc.lft.to/lastmile_qr_scan", "android": "https://dc.lft.to/lastmile_qr_scan"}, "is_reserved": 0, "lon": -76.95818216666666, "fusion_lat": 0.0, "name": "3106e85545a628dee80cd4f2e7d83c11"}, {"type": "electric_scooter", "fusion_lon": 0.0, "bike_id": "96fbd812b0a75be894ce87892c19ba6a", "is_disabled": 0, "lat": 38.92504666666667, "rental_uris": {"ios": "https://dc.lft.to/lastmile_qr_scan", "android": "https://dc.lft.to/lastmile_qr_scan"}, "is_reserved": 0, "lon": -77.023998, "fusion_lat": 0.0, "name": "96fbd812b0a75be894ce87892c19ba6a"}, {"type": "electric_bike", "fusion_lon": 0.0, "bike_id": "f60422c3e6d6d65c1e579dece4f075ba", "is_disabled": 0, "lat": 38.946349833333336, "rental_uris": {"ios": "https://dc.lft.to/lastmile_qr_scan", "android": "https://dc.lft.to/lastmile_qr_scan"}, "is_reserved": 0, "lon": -76.99309933333333, "fusion_lat": 0.0, "name": "f60422c3e6d6d65c1e579dece4f075ba"}, {"type": "electric_scooter", "fusion_lon": 0.0, "bike_id": "f3556b9c2827adc656a1bf309a1c09b6", "is_disabled": 0, "lat": 38.9213065, "rental_uris": {"ios": "https://dc.lft.to/lastmile_qr_scan", "android": "https://dc.lft.to/lastmile_qr_scan"}, "is_reserved": 0, "lon": -77.0185505, "fusion_lat": 0.0, "name": "f3556b9c2827adc656a1bf309a1c09b6"}, {"type": "electric_scooter", "fusion_lon": 0.0, "bike_id": "ca0dd5e399795672b0fc4d784edf95a4", "is_disabled": 0, "lat": 38.89261666666667, "rental_uris": {"ios": "https://dc.lft.to/lastmile_qr_scan", "android": "https://dc.lft.to/lastmile_qr_scan"}, "is_reserved": 0, "lon": -77.00349616666666, "fusion_lat": 0.0, "name": "ca0dd5e399795672b0fc4d784edf95a4"}, {"type": "electric_scooter", "fusion_lon": 0.0, "bike_id": "c022083d9a3ea4e552020c4f2d8d103a", "is_disabled": 0, "lat": 38.9270485, "rental_uris": {"ios": "https://dc.lft.to/lastmile_qr_scan", "android": "https://dc.lft.to/lastmile_qr_scan"}, "is_reserved": 0, "lon": -77.02085766666667, "fusion_lat": 0.0, "name": "c022083d9a3ea4e552020c4f2d8d103a"}, {"type": "electric_scooter", "fusion_lon": 0.0, "bike_id": "b7a047a63cc450886ebbf0f00d726830", "is_disabled": 0, "lat": 38.907341, "rental_uris": {"ios": "https://dc.lft.to/lastmile_qr_scan", "android": "https://dc.lft.to/lastmile_qr_scan"}, "is_reserved": 0, "lon": -76.97976066666666, "fusion_lat": 0.0, "name": "b7a047a63cc450886ebbf0f00d726830"}, {"type": "electric_scooter", "fusion_lon": 0.0, "bike_id": "ec24f54aa6cfbdf56dad92e1f05ab48e", "is_disabled": 0, "lat": 38.92351083333333, "rental_uris": {"ios": "https://dc.lft.to/lastmile_qr_scan", "android": "https://dc.lft.to/lastmile_qr_scan"}, "is_reserved": 0, "lon": -77.02119983333333, "fusion_lat": 0.0, "name": "ec24f54aa6cfbdf56dad92e1f05ab48e"}, {"type": "electric_scooter", "fusion_lon": 0.0, "bike_id": "9702066fbb3c12f5dc8782ac14967520", "is_disabled": 0, "lat": 38.88694366666667, "rental_uris": {"ios": "https://dc.lft.to/lastmile_qr_scan", "android": "https://dc.lft.to/lastmile_qr_scan"}, "is_reserved": 0, "lon": -76.94032983333334, "fusion_lat": 0.0, "name": "9702066fbb3c12f5dc8782ac14967520"}, {"type": "electric_scooter", "fusion_lon": 0.0, "bike_id": "293a43a3132eab3df130fb060ea6f12a", "is_disabled": 0, "lat": 38.920527166666666, "rental_uris": {"ios": "https://dc.lft.to/lastmile_qr_scan", "android": "https://dc.lft.to/lastmile_qr_scan"}, "is_reserved": 0, "lon": -77.02436183333333, "fusion_lat": 0.0, "name": "293a43a3132eab3df130fb060ea6f12a"}, {"type": "electric_scooter", "fusion_lon": 0.0, "bike_id": "847fa0f484faf5372a5e3f1df0d3427f", "is_disabled": 0, "lat": 38.92174166666667, "rental_uris": {"ios": "https://dc.lft.to/lastmile_qr_scan", "android": "https://dc.lft.to/lastmile_qr_scan"}, "is_reserved": 0, "lon": -76.99858366666666, "fusion_lat": 0.0, "name": "847fa0f484faf5372a5e3f1df0d3427f"}, {"type": "electric_scooter", "fusion_lon": 0.0, "bike_id": "9f4fa294e001fc5a1e943babc1b2207f", "is_disabled": 0, "lat": 38.9193355, "rental_uris": {"ios": "https://dc.lft.to/lastmile_qr_scan", "android": "https://dc.lft.to/lastmile_qr_scan"}, "is_reserved": 0, "lon": -77.01791233333333, "fusion_lat": 0.0, "name": "9f4fa294e001fc5a1e943babc1b2207f"}, {"type": "electric_scooter", "fusion_lon": 0.0, "bike_id": "c7f5251ad135acb4550e4136ddb7f745", "is_disabled": 0, "lat": 38.926101, "rental_uris": {"ios": "https://dc.lft.to/lastmile_qr_scan", "android": "https://dc.lft.to/lastmile_qr_scan"}, "is_reserved": 0, "lon": -77.02152333333333, "fusion_lat": 0.0, "name": "c7f5251ad135acb4550e4136ddb7f745"}, {"type": "electric_scooter", "fusion_lon": 0.0, "bike_id": "ee06ed30ce1aa1a0afd132e29c597b56", "is_disabled": 0, "lat": 38.87997683333333, "rental_uris": {"ios": "https://dc.lft.to/lastmile_qr_scan", "android": "https://dc.lft.to/lastmile_qr_scan"}, "is_reserved": 0, "lon": -77.01286583333334, "fusion_lat": 0.0, "name": "ee06ed30ce1aa1a0afd132e29c597b56"}, {"type": "electric_scooter", "fusion_lon": 0.0, "bike_id": "08323d307d65322c0577aa12b909a7a9", "is_disabled": 0, "lat": 38.944494, "rental_uris": {"ios": "https://dc.lft.to/lastmile_qr_scan", "android": "https://dc.lft.to/lastmile_qr_scan"}, "is_reserved": 0, "lon": -77.02803083333333, "fusion_lat": 0.0, "name": "08323d307d65322c0577aa12b909a7a9"}, {"type": "electric_scooter", "fusion_lon": 0.0, "bike_id": "b34b52691e9934936afb9fcc6af80051", "is_disabled": 0, "lat": 38.933945666666666, "rental_uris": {"ios": "https://dc.lft.to/lastmile_qr_scan", "android": "https://dc.lft.to/lastmile_qr_scan"}, "is_reserved": 0, "lon": -77.04544666666666, "fusion_lat": 0.0, "name": "b34b52691e9934936afb9fcc6af80051"}, {"type": "electric_scooter", "fusion_lon": 0.0, "bike_id": "2f7aa509a7039f4e6703d4985ed002db", "is_disabled": 0, "lat": 38.903360166666666, "rental_uris": {"ios": "https://dc.lft.to/lastmile_qr_scan", "android": "https://dc.lft.to/lastmile_qr_scan"}, "is_reserved": 0, "lon": -77.0344165, "fusion_lat": 0.0, "name": "2f7aa509a7039f4e6703d4985ed002db"}, {"type": "electric_scooter", "fusion_lon": 0.0, "bike_id": "c061752acdd00772ad9bcb82d23daa50", "is_disabled": 0, "lat": 38.89196466666667, "rental_uris": {"ios": "https://dc.lft.to/lastmile_qr_scan", "android": "https://dc.lft.to/lastmile_qr_scan"}, "is_reserved": 0, "lon": -77.02380216666667, "fusion_lat": 0.0, "name": "c061752acdd00772ad9bcb82d23daa50"}, {"type": "electric_scooter", "fusion_lon": 0.0, "bike_id": "9c8cd69235f91b3966dc6a8c2c6d17a2", "is_disabled": 0, "lat": 38.90828333333333, "rental_uris": {"ios": "https://dc.lft.to/lastmile_qr_scan", "android": "https://dc.lft.to/lastmile_qr_scan"}, "is_reserved": 0, "lon": -77.04289, "fusion_lat": 0.0, "name": "9c8cd69235f91b3966dc6a8c2c6d17a2"}, {"type": "electric_scooter", "fusion_lon": 0.0, "bike_id": "c63ab9cc5034b685345d25138c694d5e", "is_disabled": 0, "lat": 38.917509, "rental_uris": {"ios": "https://dc.lft.to/lastmile_qr_scan", "android": "https://dc.lft.to/lastmile_qr_scan"}, "is_reserved": 0, "lon": -77.03903083333333, "fusion_lat": 0.0, "name": "c63ab9cc5034b685345d25138c694d5e"}, {"type": "electric_scooter", "fusion_lon": 0.0, "bike_id": "9c24b42600d826130b96bdf4dce328a9", "is_disabled": 0, "lat": 38.86356516666667, "rental_uris": {"ios": "https://dc.lft.to/lastmile_qr_scan", "android": "https://dc.lft.to/lastmile_qr_scan"}, "is_reserved": 0, "lon": -76.99038083333333, "fusion_lat": 0.0, "name": "9c24b42600d826130b96bdf4dce328a9"}, {"type": "electric_scooter", "fusion_lon": 0.0, "bike_id": "54233d7f59842994c4bd6c44f7b5c2c7", "is_disabled": 0, "lat": 38.898877166666665, "rental_uris": {"ios": "https://dc.lft.to/lastmile_qr_scan", "android": "https://dc.lft.to/lastmile_qr_scan"}, "is_reserved": 0, "lon": -76.9317535, "fusion_lat": 0.0, "name": "54233d7f59842994c4bd6c44f7b5c2c7"}, {"type": "electric_scooter", "fusion_lon": 0.0, "bike_id": "0e5405a4f1860d6af241c898b6c8b7e2", "is_disabled": 0, "lat": 38.90467133333333, "rental_uris": {"ios": "https://dc.lft.to/lastmile_qr_scan", "android": "https://dc.lft.to/lastmile_qr_scan"}, "is_reserved": 0, "lon": -77.03559616666666, "fusion_lat": 0.0, "name": "0e5405a4f1860d6af241c898b6c8b7e2"}, {"type": "electric_scooter", "fusion_lon": 0.0, "bike_id": "9f863cfe4fb884a4778af9c0ce9b3225", "is_disabled": 0, "lat": 38.907372333333335, "rental_uris": {"ios": "https://dc.lft.to/lastmile_qr_scan", "android": "https://dc.lft.to/lastmile_qr_scan"}, "is_reserved": 0, "lon": -77.0033315, "fusion_lat": 0.0, "name": "9f863cfe4fb884a4778af9c0ce9b3225"}, {"type": "electric_scooter", "fusion_lon": 0.0, "bike_id": "d13228df09807d1594bc9cbda2995c0d", "is_disabled": 0, "lat": 38.89730016666667, "rental_uris": {"ios": "https://dc.lft.to/lastmile_qr_scan", "android": "https://dc.lft.to/lastmile_qr_scan"}, "is_reserved": 0, "lon": -77.02703433333333, "fusion_lat": 0.0, "name": "d13228df09807d1594bc9cbda2995c0d"}, {"type": "electric_scooter", "fusion_lon": 0.0, "bike_id": "56f2f0787168e32e8d3ac8b1a9a464f6", "is_disabled": 0, "lat": 38.91818816666667, "rental_uris": {"ios": "https://dc.lft.to/lastmile_qr_scan", "android": "https://dc.lft.to/lastmile_qr_scan"}, "is_reserved": 0, "lon": -77.02711583333334, "fusion_lat": 0.0, "name": "56f2f0787168e32e8d3ac8b1a9a464f6"}, {"type": "electric_bike", "fusion_lon": 0.0, "bike_id": "529f1ec966ab2b60592eaa5b14cd16d3", "is_disabled": 0, "lat": 38.857237166666664, "rental_uris": {"ios": "https://dc.lft.to/lastmile_qr_scan", "android": "https://dc.lft.to/lastmile_qr_scan"}, "is_reserved": 0, "lon": -76.97774766666667, "fusion_lat": 0.0, "name": "529f1ec966ab2b60592eaa5b14cd16d3"}, {"type": "electric_scooter", "fusion_lon": 0.0, "bike_id": "7f6d92c10fbda01cfb06085dd2633b0c", "is_disabled": 0, "lat": 38.91802633333333, "rental_uris": {"ios": "https://dc.lft.to/lastmile_qr_scan", "android": "https://dc.lft.to/lastmile_qr_scan"}, "is_reserved": 0, "lon": -77.03923133333333, "fusion_lat": 0.0, "name": "7f6d92c10fbda01cfb06085dd2633b0c"}, {"type": "electric_scooter", "fusion_lon": 0.0, "bike_id": "72125e2b8b1faccec761af0cef3613d5", "is_disabled": 0, "lat": 38.886774833333334, "rental_uris": {"ios": "https://dc.lft.to/lastmile_qr_scan", "android": "https://dc.lft.to/lastmile_qr_scan"}, "is_reserved": 0, "lon": -77.01368333333333, "fusion_lat": 0.0, "name": "72125e2b8b1faccec761af0cef3613d5"}, {"type": "electric_scooter", "fusion_lon": 0.0, "bike_id": "5c7a14d5e10e99157009f2a5ef640956", "is_disabled": 0, "lat": 38.91183933333333, "rental_uris": {"ios": "https://dc.lft.to/lastmile_qr_scan", "android": "https://dc.lft.to/lastmile_qr_scan"}, "is_reserved": 0, "lon": -77.042253, "fusion_lat": 0.0, "name": "5c7a14d5e10e99157009f2a5ef640956"}, {"type": "electric_scooter", "fusion_lon": 0.0, "bike_id": "1642505aad880c3c8fec4e3e26fdade7", "is_disabled": 0, "lat": 38.91476183333333, "rental_uris": {"ios": "https://dc.lft.to/lastmile_qr_scan", "android": "https://dc.lft.to/lastmile_qr_scan"}, "is_reserved": 0, "lon": -77.0217915, "fusion_lat": 0.0, "name": "1642505aad880c3c8fec4e3e26fdade7"}, {"type": "electric_scooter", "fusion_lon": 0.0, "bike_id": "d87fc9f079c4554408c653f5dd2ce23f", "is_disabled": 0, "lat": 38.90452966666667, "rental_uris": {"ios": "https://dc.lft.to/lastmile_qr_scan", "android": "https://dc.lft.to/lastmile_qr_scan"}, "is_reserved": 0, "lon": -77.046717, "fusion_lat": 0.0, "name": "d87fc9f079c4554408c653f5dd2ce23f"}, {"type": "electric_scooter", "fusion_lon": 0.0, "bike_id": "1a1853ea07d6e1b39b6b069f77d162fb", "is_disabled": 0, "lat": 38.90749016666667, "rental_uris": {"ios": "https://dc.lft.to/lastmile_qr_scan", "android": "https://dc.lft.to/lastmile_qr_scan"}, "is_reserved": 0, "lon": -77.00320016666667, "fusion_lat": 0.0, "name": "1a1853ea07d6e1b39b6b069f77d162fb"}, {"type": "electric_scooter", "fusion_lon": 0.0, "bike_id": "f568012ea296f8b7e705160e6730a322", "is_disabled": 0, "lat": 38.89367, "rental_uris": {"ios": "https://dc.lft.to/lastmile_qr_scan", "android": "https://dc.lft.to/lastmile_qr_scan"}, "is_reserved": 0, "lon": -76.99750766666666, "fusion_lat": 0.0, "name": "f568012ea296f8b7e705160e6730a322"}, {"type": "electric_scooter", "fusion_lon": 0.0, "bike_id": "582c4cc1a8481759cb230861cf63a82e", "is_disabled": 0, "lat": 38.907877, "rental_uris": {"ios": "https://dc.lft.to/lastmile_qr_scan", "android": "https://dc.lft.to/lastmile_qr_scan"}, "is_reserved": 0, "lon": -77.07264266666667, "fusion_lat": 0.0, "name": "582c4cc1a8481759cb230861cf63a82e"}, {"type": "electric_scooter", "fusion_lon": 0.0, "bike_id": "9d5007c43c07ac9b905164fb79a4b3c8", "is_disabled": 0, "lat": 38.862162166666664, "rental_uris": {"ios": "https://dc.lft.to/lastmile_qr_scan", "android": "https://dc.lft.to/lastmile_qr_scan"}, "is_reserved": 0, "lon": -76.994774, "fusion_lat": 0.0, "name": "9d5007c43c07ac9b905164fb79a4b3c8"}, {"type": "electric_scooter", "fusion_lon": 0.0, "bike_id": "df294b618e4f6f8caed97dca671f1baf", "is_disabled": 0, "lat": 38.9210065, "rental_uris": {"ios": "https://dc.lft.to/lastmile_qr_scan", "android": "https://dc.lft.to/lastmile_qr_scan"}, "is_reserved": 0, "lon": -77.02512966666667, "fusion_lat": 0.0, "name": "df294b618e4f6f8caed97dca671f1baf"}, {"type": "electric_scooter", "fusion_lon": 0.0, "bike_id": "3dc0cff72a7d5a53667e19ec4fa31d15", "is_disabled": 0, "lat": 38.91244416666667, "rental_uris": {"ios": "https://dc.lft.to/lastmile_qr_scan", "android": "https://dc.lft.to/lastmile_qr_scan"}, "is_reserved": 0, "lon": -77.062858, "fusion_lat": 0.0, "name": "3dc0cff72a7d5a53667e19ec4fa31d15"}, {"type": "electric_scooter", "fusion_lon": 0.0, "bike_id": "2f6189d864b23585581a574d1e571653", "is_disabled": 0, "lat": 38.926703333333336, "rental_uris": {"ios": "https://dc.lft.to/lastmile_qr_scan", "android": "https://dc.lft.to/lastmile_qr_scan"}, "is_reserved": 0, "lon": -77.02114266666666, "fusion_lat": 0.0, "name": "2f6189d864b23585581a574d1e571653"}, {"type": "electric_scooter", "fusion_lon": 0.0, "bike_id": "3e39ef78fbe4fa75e3ca4035036bd1b9", "is_disabled": 0, "lat": 38.919160166666664, "rental_uris": {"ios": "https://dc.lft.to/lastmile_qr_scan", "android": "https://dc.lft.to/lastmile_qr_scan"}, "is_reserved": 0, "lon": -77.01901233333334, "fusion_lat": 0.0, "name": "3e39ef78fbe4fa75e3ca4035036bd1b9"}, {"type": "electric_scooter", "fusion_lon": 0.0, "bike_id": "d4fecd47fa7bae55f67706c86d241e9c", "is_disabled": 0, "lat": 38.889611, "rental_uris": {"ios": "https://dc.lft.to/lastmile_qr_scan", "android": "https://dc.lft.to/lastmile_qr_scan"}, "is_reserved": 0, "lon": -76.98087716666667, "fusion_lat": 0.0, "name": "d4fecd47fa7bae55f67706c86d241e9c"}, {"type": "electric_scooter", "fusion_lon": 0.0, "bike_id": "9d1777efb8172ef36d6b31eef59de76a", "is_disabled": 0, "lat": 38.90236683333333, "rental_uris": {"ios": "https://dc.lft.to/lastmile_qr_scan", "android": "https://dc.lft.to/lastmile_qr_scan"}, "is_reserved": 0, "lon": -77.00197283333334, "fusion_lat": 0.0, "name": "9d1777efb8172ef36d6b31eef59de76a"}, {"type": "electric_scooter", "fusion_lon": 0.0, "bike_id": "2f332442c0c3576934cdd24b930719d0", "is_disabled": 0, "lat": 38.930499833333336, "rental_uris": {"ios": "https://dc.lft.to/lastmile_qr_scan", "android": "https://dc.lft.to/lastmile_qr_scan"}, "is_reserved": 0, "lon": -77.04020716666666, "fusion_lat": 0.0, "name": "2f332442c0c3576934cdd24b930719d0"}, {"type": "electric_scooter", "fusion_lon": 0.0, "bike_id": "968318351dd749f94f2e1825724970a6", "is_disabled": 0, "lat": 38.8873735, "rental_uris": {"ios": "https://dc.lft.to/lastmile_qr_scan", "android": "https://dc.lft.to/lastmile_qr_scan"}, "is_reserved": 0, "lon": -77.0152835, "fusion_lat": 0.0, "name": "968318351dd749f94f2e1825724970a6"}, {"type": "electric_scooter", "fusion_lon": 0.0, "bike_id": "df0c3426c52e5f05c9340a788ee1b4b9", "is_disabled": 0, "lat": 38.90731816666667, "rental_uris": {"ios": "https://dc.lft.to/lastmile_qr_scan", "android": "https://dc.lft.to/lastmile_qr_scan"}, "is_reserved": 0, "lon": -77.04337633333333, "fusion_lat": 0.0, "name": "df0c3426c52e5f05c9340a788ee1b4b9"}, {"type": "electric_scooter", "fusion_lon": 0.0, "bike_id": "5accfc7892ddab5b813391c012f4ef7e", "is_disabled": 0, "lat": 38.9352785, "rental_uris": {"ios": "https://dc.lft.to/lastmile_qr_scan", "android": "https://dc.lft.to/lastmile_qr_scan"}, "is_reserved": 0, "lon": -77.0284955, "fusion_lat": 0.0, "name": "5accfc7892ddab5b813391c012f4ef7e"}, {"type": "electric_scooter", "fusion_lon": 0.0, "bike_id": "6ab9dc500cce894c0d72ed3d473f92ff", "is_disabled": 0, "lat": 38.8766445, "rental_uris": {"ios": "https://dc.lft.to/lastmile_qr_scan", "android": "https://dc.lft.to/lastmile_qr_scan"}, "is_reserved": 0, "lon": -77.00464733333334, "fusion_lat": 0.0, "name": "6ab9dc500cce894c0d72ed3d473f92ff"}, {"type": "electric_scooter", "fusion_lon": 0.0, "bike_id": "4c78b68116fa35d70241a0ec5354d7b2", "is_disabled": 0, "lat": 38.921557666666665, "rental_uris": {"ios": "https://dc.lft.to/lastmile_qr_scan", "android": "https://dc.lft.to/lastmile_qr_scan"}, "is_reserved": 0, "lon": -77.02087116666667, "fusion_lat": 0.0, "name": "4c78b68116fa35d70241a0ec5354d7b2"}, {"type": "electric_scooter", "fusion_lon": 0.0, "bike_id": "65840e827e350ecaf50b366b4d7b5866", "is_disabled": 0, "lat": 38.92584633333333, "rental_uris": {"ios": "https://dc.lft.to/lastmile_qr_scan", "android": "https://dc.lft.to/lastmile_qr_scan"}, "is_reserved": 0, "lon": -77.02604333333333, "fusion_lat": 0.0, "name": "65840e827e350ecaf50b366b4d7b5866"}, {"type": "electric_scooter", "fusion_lon": 0.0, "bike_id": "cf0e777390821265af0c7c6f16a6e51d", "is_disabled": 0, "lat": 38.91743783333333, "rental_uris": {"ios": "https://dc.lft.to/lastmile_qr_scan", "android": "https://dc.lft.to/lastmile_qr_scan"}, "is_reserved": 0, "lon": -77.03654016666667, "fusion_lat": 0.0, "name": "cf0e777390821265af0c7c6f16a6e51d"}, {"type": "electric_bike", "fusion_lon": 0.0, "bike_id": "d04d3702e8e5b0ba92127a9ef42e80e4", "is_disabled": 0, "lat": 39.00288316666666, "rental_uris": {"ios": "https://dc.lft.to/lastmile_qr_scan", "android": "https://dc.lft.to/lastmile_qr_scan"}, "is_reserved": 0, "lon": -76.90291616666667, "fusion_lat": 0.0, "name": "d04d3702e8e5b0ba92127a9ef42e80e4"}, {"type": "electric_scooter", "fusion_lon": 0.0, "bike_id": "6d0b521cc824a1fe49b6d5f28f89909f", "is_disabled": 0, "lat": 38.9382845, "rental_uris": {"ios": "https://dc.lft.to/lastmile_qr_scan", "android": "https://dc.lft.to/lastmile_qr_scan"}, "is_reserved": 0, "lon": -77.06173716666666, "fusion_lat": 0.0, "name": "6d0b521cc824a1fe49b6d5f28f89909f"}, {"type": "electric_scooter", "fusion_lon": 0.0, "bike_id": "35fb33b2c523167ab9e156d2ddd593a8", "is_disabled": 0, "lat": 38.896687, "rental_uris": {"ios": "https://dc.lft.to/lastmile_qr_scan", "android": "https://dc.lft.to/lastmile_qr_scan"}, "is_reserved": 0, "lon": -76.9330405, "fusion_lat": 0.0, "name": "35fb33b2c523167ab9e156d2ddd593a8"}, {"type": "electric_scooter", "fusion_lon": 0.0, "bike_id": "72b1a0cd361e155bdf72da88fca368e2", "is_disabled": 0, "lat": 38.88608216666667, "rental_uris": {"ios": "https://dc.lft.to/lastmile_qr_scan", "android": "https://dc.lft.to/lastmile_qr_scan"}, "is_reserved": 0, "lon": -77.017935, "fusion_lat": 0.0, "name": "72b1a0cd361e155bdf72da88fca368e2"}, {"type": "electric_bike", "fusion_lon": 0.0, "bike_id": "9b7a56fd7fcd951ff577d57155e5749b", "is_disabled": 0, "lat": 38.9441035, "rental_uris": {"ios": "https://dc.lft.to/lastmile_qr_scan", "android": "https://dc.lft.to/lastmile_qr_scan"}, "is_reserved": 0, "lon": -77.05515733333333, "fusion_lat": 0.0, "name": "9b7a56fd7fcd951ff577d57155e5749b"}, {"type": "electric_scooter", "fusion_lon": 0.0, "bike_id": "ee1dc5f5e99a08b1e11ad9d0006af305", "is_disabled": 0, "lat": 38.89419816666667, "rental_uris": {"ios": "https://dc.lft.to/lastmile_qr_scan", "android": "https://dc.lft.to/lastmile_qr_scan"}, "is_reserved": 0, "lon": -76.99961, "fusion_lat": 0.0, "name": "ee1dc5f5e99a08b1e11ad9d0006af305"}, {"type": "electric_scooter", "fusion_lon": 0.0, "bike_id": "9f831f6f5b650427da00a832987ac2a2", "is_disabled": 0, "lat": 38.94506716666667, "rental_uris": {"ios": "https://dc.lft.to/lastmile_qr_scan", "android": "https://dc.lft.to/lastmile_qr_scan"}, "is_reserved": 0, "lon": -77.03357916666667, "fusion_lat": 0.0, "name": "9f831f6f5b650427da00a832987ac2a2"}, {"type": "electric_scooter", "fusion_lon": 0.0, "bike_id": "de103c161bb8330bbb6928202e852340", "is_disabled": 0, "lat": 38.93426133333333, "rental_uris": {"ios": "https://dc.lft.to/lastmile_qr_scan", "android": "https://dc.lft.to/lastmile_qr_scan"}, "is_reserved": 0, "lon": -77.04001983333333, "fusion_lat": 0.0, "name": "de103c161bb8330bbb6928202e852340"}, {"type": "electric_scooter", "fusion_lon": 0.0, "bike_id": "36d8ca65d4c5e3efea80575cff85cc83", "is_disabled": 0, "lat": 38.94180733333334, "rental_uris": {"ios": "https://dc.lft.to/lastmile_qr_scan", "android": "https://dc.lft.to/lastmile_qr_scan"}, "is_reserved": 0, "lon": -77.02376133333334, "fusion_lat": 0.0, "name": "36d8ca65d4c5e3efea80575cff85cc83"}, {"type": "electric_scooter", "fusion_lon": 0.0, "bike_id": "bc155f75194974058e777139faa4cefe", "is_disabled": 0, "lat": 38.91778933333333, "rental_uris": {"ios": "https://dc.lft.to/lastmile_qr_scan", "android": "https://dc.lft.to/lastmile_qr_scan"}, "is_reserved": 0, "lon": -77.02301783333333, "fusion_lat": 0.0, "name": "bc155f75194974058e777139faa4cefe"}, {"type": "electric_bike", "fusion_lon": 0.0, "bike_id": "ec5205864275633fc3cecc65b82d6354", "is_disabled": 0, "lat": 38.94150916666667, "rental_uris": {"ios": "https://dc.lft.to/lastmile_qr_scan", "android": "https://dc.lft.to/lastmile_qr_scan"}, "is_reserved": 0, "lon": -77.00188883333334, "fusion_lat": 0.0, "name": "ec5205864275633fc3cecc65b82d6354"}, {"type": "electric_scooter", "fusion_lon": 0.0, "bike_id": "c1f41726a62b3e1105cf6a07fbac4733", "is_disabled": 0, "lat": 38.89981066666667, "rental_uris": {"ios": "https://dc.lft.to/lastmile_qr_scan", "android": "https://dc.lft.to/lastmile_qr_scan"}, "is_reserved": 0, "lon": -77.02208083333333, "fusion_lat": 0.0, "name": "c1f41726a62b3e1105cf6a07fbac4733"}, {"type": "electric_scooter", "fusion_lon": 0.0, "bike_id": "b2d8bc066caf57e184bef146ae6bcb33", "is_disabled": 0, "lat": 38.86467616666667, "rental_uris": {"ios": "https://dc.lft.to/lastmile_qr_scan", "android": "https://dc.lft.to/lastmile_qr_scan"}, "is_reserved": 0, "lon": -76.98229466666666, "fusion_lat": 0.0, "name": "b2d8bc066caf57e184bef146ae6bcb33"}, {"type": "electric_scooter", "fusion_lon": 0.0, "bike_id": "bd5a1e81647c7555e5db0ab2147434fc", "is_disabled": 0, "lat": 38.92466133333333, "rental_uris": {"ios": "https://dc.lft.to/lastmile_qr_scan", "android": "https://dc.lft.to/lastmile_qr_scan"}, "is_reserved": 0, "lon": -77.02208883333333, "fusion_lat": 0.0, "name": "bd5a1e81647c7555e5db0ab2147434fc"}, {"type": "electric_scooter", "fusion_lon": 0.0, "bike_id": "e3074992aa5d5f4ff04c620d212cba53", "is_disabled": 0, "lat": 38.90587983333333, "rental_uris": {"ios": "https://dc.lft.to/lastmile_qr_scan", "android": "https://dc.lft.to/lastmile_qr_scan"}, "is_reserved": 0, "lon": -77.04612416666667, "fusion_lat": 0.0, "name": "e3074992aa5d5f4ff04c620d212cba53"}, {"type": "electric_scooter", "fusion_lon": 0.0, "bike_id": "d632c9f2d6c7789d22630a662ae6ec29", "is_disabled": 0, "lat": 38.915569, "rental_uris": {"ios": "https://dc.lft.to/lastmile_qr_scan", "android": "https://dc.lft.to/lastmile_qr_scan"}, "is_reserved": 0, "lon": -77.0325355, "fusion_lat": 0.0, "name": "d632c9f2d6c7789d22630a662ae6ec29"}, {"type": "electric_scooter", "fusion_lon": 0.0, "bike_id": "7347421da3f18c779a318274aca2cf7a", "is_disabled": 0, "lat": 38.901909333333336, "rental_uris": {"ios": "https://dc.lft.to/lastmile_qr_scan", "android": "https://dc.lft.to/lastmile_qr_scan"}, "is_reserved": 0, "lon": -76.9263175, "fusion_lat": 0.0, "name": "7347421da3f18c779a318274aca2cf7a"}, {"type": "electric_scooter", "fusion_lon": 0.0, "bike_id": "c013e85bf56271f27805a57b811d9f28", "is_disabled": 0, "lat": 38.9207445, "rental_uris": {"ios": "https://dc.lft.to/lastmile_qr_scan", "android": "https://dc.lft.to/lastmile_qr_scan"}, "is_reserved": 0, "lon": -77.0253065, "fusion_lat": 0.0, "name": "c013e85bf56271f27805a57b811d9f28"}, {"type": "electric_scooter", "fusion_lon": 0.0, "bike_id": "8fe7d3288253ac08de37a196a0599e2c", "is_disabled": 0, "lat": 38.8962685, "rental_uris": {"ios": "https://dc.lft.to/lastmile_qr_scan", "android": "https://dc.lft.to/lastmile_qr_scan"}, "is_reserved": 0, "lon": -77.0115055, "fusion_lat": 0.0, "name": "8fe7d3288253ac08de37a196a0599e2c"}, {"type": "electric_scooter", "fusion_lon": 0.0, "bike_id": "2d81d382537b17f40fc334b0ecc63801", "is_disabled": 0, "lat": 38.909534, "rental_uris": {"ios": "https://dc.lft.to/lastmile_qr_scan", "android": "https://dc.lft.to/lastmile_qr_scan"}, "is_reserved": 0, "lon": -77.04885683333333, "fusion_lat": 0.0, "name": "2d81d382537b17f40fc334b0ecc63801"}, {"type": "electric_scooter", "fusion_lon": 0.0, "bike_id": "3ca8fc0c69445806b0050a633122f557", "is_disabled": 0, "lat": 38.90029033333333, "rental_uris": {"ios": "https://dc.lft.to/lastmile_qr_scan", "android": "https://dc.lft.to/lastmile_qr_scan"}, "is_reserved": 0, "lon": -77.040351, "fusion_lat": 0.0, "name": "3ca8fc0c69445806b0050a633122f557"}, {"type": "electric_scooter", "fusion_lon": 0.0, "bike_id": "dd6e20b9d6275e528d09e9908dfd9a51", "is_disabled": 0, "lat": 38.927766, "rental_uris": {"ios": "https://dc.lft.to/lastmile_qr_scan", "android": "https://dc.lft.to/lastmile_qr_scan"}, "is_reserved": 0, "lon": -77.01526766666667, "fusion_lat": 0.0, "name": "dd6e20b9d6275e528d09e9908dfd9a51"}, {"type": "electric_scooter", "fusion_lon": 0.0, "bike_id": "0334fe42a27ceb1af70a4501794588c3", "is_disabled": 0, "lat": 38.90383116666667, "rental_uris": {"ios": "https://dc.lft.to/lastmile_qr_scan", "android": "https://dc.lft.to/lastmile_qr_scan"}, "is_reserved": 0, "lon": -76.98484166666667, "fusion_lat": 0.0, "name": "0334fe42a27ceb1af70a4501794588c3"}, {"type": "electric_scooter", "fusion_lon": 0.0, "bike_id": "757f8906954a87108f9748ff79532901", "is_disabled": 0, "lat": 38.92260816666667, "rental_uris": {"ios": "https://dc.lft.to/lastmile_qr_scan", "android": "https://dc.lft.to/lastmile_qr_scan"}, "is_reserved": 0, "lon": -77.0429045, "fusion_lat": 0.0, "name": "757f8906954a87108f9748ff79532901"}, {"type": "electric_scooter", "fusion_lon": 0.0, "bike_id": "69201cc8dae725b2a0069a38e9bb8244", "is_disabled": 0, "lat": 38.890357333333334, "rental_uris": {"ios": "https://dc.lft.to/lastmile_qr_scan", "android": "https://dc.lft.to/lastmile_qr_scan"}, "is_reserved": 0, "lon": -76.937629, "fusion_lat": 0.0, "name": "69201cc8dae725b2a0069a38e9bb8244"}, {"type": "electric_scooter", "fusion_lon": 0.0, "bike_id": "6147508de354dd7d99fa985f845b20f0", "is_disabled": 0, "lat": 38.864080666666666, "rental_uris": {"ios": "https://dc.lft.to/lastmile_qr_scan", "android": "https://dc.lft.to/lastmile_qr_scan"}, "is_reserved": 0, "lon": -77.0135155, "fusion_lat": 0.0, "name": "6147508de354dd7d99fa985f845b20f0"}, {"type": "electric_scooter", "fusion_lon": 0.0, "bike_id": "d00c4695070aa6786f99c9922c579980", "is_disabled": 0, "lat": 38.896102666666664, "rental_uris": {"ios": "https://dc.lft.to/lastmile_qr_scan", "android": "https://dc.lft.to/lastmile_qr_scan"}, "is_reserved": 0, "lon": -76.98092766666667, "fusion_lat": 0.0, "name": "d00c4695070aa6786f99c9922c579980"}, {"type": "electric_scooter", "fusion_lon": 0.0, "bike_id": "9356cd79ecc800b838201d5e8e4b2db9", "is_disabled": 0, "lat": 38.89306766666667, "rental_uris": {"ios": "https://dc.lft.to/lastmile_qr_scan", "android": "https://dc.lft.to/lastmile_qr_scan"}, "is_reserved": 0, "lon": -77.0203505, "fusion_lat": 0.0, "name": "9356cd79ecc800b838201d5e8e4b2db9"}, {"type": "electric_scooter", "fusion_lon": 0.0, "bike_id": "69584ad4693d55d96818e2d451a31ed0", "is_disabled": 0, "lat": 38.901288666666666, "rental_uris": {"ios": "https://dc.lft.to/lastmile_qr_scan", "android": "https://dc.lft.to/lastmile_qr_scan"}, "is_reserved": 0, "lon": -77.0089075, "fusion_lat": 0.0, "name": "69584ad4693d55d96818e2d451a31ed0"}, {"type": "electric_scooter", "fusion_lon": 0.0, "bike_id": "83b8a67b5c1d34ab62ff16abc94fe072", "is_disabled": 0, "lat": 38.9059435, "rental_uris": {"ios": "https://dc.lft.to/lastmile_qr_scan", "android": "https://dc.lft.to/lastmile_qr_scan"}, "is_reserved": 0, "lon": -77.04332766666667, "fusion_lat": 0.0, "name": "83b8a67b5c1d34ab62ff16abc94fe072"}, {"type": "electric_scooter", "fusion_lon": 0.0, "bike_id": "247aa7749dcb3a99346ab5bb0a6e8e3e", "is_disabled": 0, "lat": 38.90766583333333, "rental_uris": {"ios": "https://dc.lft.to/lastmile_qr_scan", "android": "https://dc.lft.to/lastmile_qr_scan"}, "is_reserved": 0, "lon": -77.03859783333333, "fusion_lat": 0.0, "name": "247aa7749dcb3a99346ab5bb0a6e8e3e"}, {"type": "electric_scooter", "fusion_lon": 0.0, "bike_id": "0c3f440d31c30fd205bad7d451789771", "is_disabled": 0, "lat": 38.908802333333334, "rental_uris": {"ios": "https://dc.lft.to/lastmile_qr_scan", "android": "https://dc.lft.to/lastmile_qr_scan"}, "is_reserved": 0, "lon": -77.067785, "fusion_lat": 0.0, "name": "0c3f440d31c30fd205bad7d451789771"}, {"type": "electric_scooter", "fusion_lon": 0.0, "bike_id": "02bd5fe7d39b9e02869e1fe9e51c6536", "is_disabled": 0, "lat": 38.9202775, "rental_uris": {"ios": "https://dc.lft.to/lastmile_qr_scan", "android": "https://dc.lft.to/lastmile_qr_scan"}, "is_reserved": 0, "lon": -77.01431016666666, "fusion_lat": 0.0, "name": "02bd5fe7d39b9e02869e1fe9e51c6536"}, {"type": "electric_scooter", "fusion_lon": 0.0, "bike_id": "817937ae000816fb1bab2f29fd70c7b5", "is_disabled": 0, "lat": 38.8922315, "rental_uris": {"ios": "https://dc.lft.to/lastmile_qr_scan", "android": "https://dc.lft.to/lastmile_qr_scan"}, "is_reserved": 0, "lon": -77.0240965, "fusion_lat": 0.0, "name": "817937ae000816fb1bab2f29fd70c7b5"}, {"type": "electric_scooter", "fusion_lon": 0.0, "bike_id": "0852799bed6b147a25ed051d1e451ec0", "is_disabled": 0, "lat": 38.909725333333334, "rental_uris": {"ios": "https://dc.lft.to/lastmile_qr_scan", "android": "https://dc.lft.to/lastmile_qr_scan"}, "is_reserved": 0, "lon": -77.04553733333333, "fusion_lat": 0.0, "name": "0852799bed6b147a25ed051d1e451ec0"}, {"type": "electric_scooter", "fusion_lon": 0.0, "bike_id": "b96eb7035e7bbd4937d27f9a116914cd", "is_disabled": 0, "lat": 38.902523333333335, "rental_uris": {"ios": "https://dc.lft.to/lastmile_qr_scan", "android": "https://dc.lft.to/lastmile_qr_scan"}, "is_reserved": 0, "lon": -77.02681583333333, "fusion_lat": 0.0, "name": "b96eb7035e7bbd4937d27f9a116914cd"}, {"type": "electric_bike", "fusion_lon": 0.0, "bike_id": "a4ee21833247f10787e244fa9e34e312", "is_disabled": 0, "lat": 38.888532166666664, "rental_uris": {"ios": "https://dc.lft.to/lastmile_qr_scan", "android": "https://dc.lft.to/lastmile_qr_scan"}, "is_reserved": 0, "lon": -76.95739833333333, "fusion_lat": 0.0, "name": "a4ee21833247f10787e244fa9e34e312"}, {"type": "electric_scooter", "fusion_lon": 0.0, "bike_id": "d85edcacc82dc0c88708e9b80f85571c", "is_disabled": 0, "lat": 38.890141666666665, "rental_uris": {"ios": "https://dc.lft.to/lastmile_qr_scan", "android": "https://dc.lft.to/lastmile_qr_scan"}, "is_reserved": 0, "lon": -76.937438, "fusion_lat": 0.0, "name": "d85edcacc82dc0c88708e9b80f85571c"}, {"type": "electric_scooter", "fusion_lon": 0.0, "bike_id": "7b0bc31a6a37537163819fd480a8b6ad", "is_disabled": 0, "lat": 38.88764616666667, "rental_uris": {"ios": "https://dc.lft.to/lastmile_qr_scan", "android": "https://dc.lft.to/lastmile_qr_scan"}, "is_reserved": 0, "lon": -77.033439, "fusion_lat": 0.0, "name": "7b0bc31a6a37537163819fd480a8b6ad"}, {"type": "electric_scooter", "fusion_lon": 0.0, "bike_id": "564526710529c67da12890b66cbd532f", "is_disabled": 0, "lat": 38.91949483333333, "rental_uris": {"ios": "https://dc.lft.to/lastmile_qr_scan", "android": "https://dc.lft.to/lastmile_qr_scan"}, "is_reserved": 0, "lon": -77.0259655, "fusion_lat": 0.0, "name": "564526710529c67da12890b66cbd532f"}, {"type": "electric_scooter", "fusion_lon": 0.0, "bike_id": "d0f1da88abfaa5de896e32c17022dfa4", "is_disabled": 0, "lat": 38.94191583333333, "rental_uris": {"ios": "https://dc.lft.to/lastmile_qr_scan", "android": "https://dc.lft.to/lastmile_qr_scan"}, "is_reserved": 0, "lon": -77.0251835, "fusion_lat": 0.0, "name": "d0f1da88abfaa5de896e32c17022dfa4"}, {"type": "electric_scooter", "fusion_lon": 0.0, "bike_id": "ca2dd0ed3610774d78cab223b6d89746", "is_disabled": 0, "lat": 38.88997083333334, "rental_uris": {"ios": "https://dc.lft.to/lastmile_qr_scan", "android": "https://dc.lft.to/lastmile_qr_scan"}, "is_reserved": 0, "lon": -77.003481, "fusion_lat": 0.0, "name": "ca2dd0ed3610774d78cab223b6d89746"}, {"type": "electric_scooter", "fusion_lon": 0.0, "bike_id": "c41c3260dc34591d59cd6060f3be7410", "is_disabled": 0, "lat": 38.922639833333335, "rental_uris": {"ios": "https://dc.lft.to/lastmile_qr_scan", "android": "https://dc.lft.to/lastmile_qr_scan"}, "is_reserved": 0, "lon": -77.022479, "fusion_lat": 0.0, "name": "c41c3260dc34591d59cd6060f3be7410"}, {"type": "electric_bike", "fusion_lon": 0.0, "bike_id": "ed65a86288ea6ba6770cb501c533ed88", "is_disabled": 0, "lat": 38.98045116666667, "rental_uris": {"ios": "https://dc.lft.to/lastmile_qr_scan", "android": "https://dc.lft.to/lastmile_qr_scan"}, "is_reserved": 0, "lon": -76.95793566666667, "fusion_lat": 0.0, "name": "ed65a86288ea6ba6770cb501c533ed88"}, {"type": "electric_scooter", "fusion_lon": 0.0, "bike_id": "111d9c121b9f979a53de312b8f7699c0", "is_disabled": 0, "lat": 38.920450333333335, "rental_uris": {"ios": "https://dc.lft.to/lastmile_qr_scan", "android": "https://dc.lft.to/lastmile_qr_scan"}, "is_reserved": 0, "lon": -77.0347545, "fusion_lat": 0.0, "name": "111d9c121b9f979a53de312b8f7699c0"}, {"type": "electric_scooter", "fusion_lon": 0.0, "bike_id": "7ec1415a689accba0bc39b28d0481658", "is_disabled": 0, "lat": 38.910396166666665, "rental_uris": {"ios": "https://dc.lft.to/lastmile_qr_scan", "android": "https://dc.lft.to/lastmile_qr_scan"}, "is_reserved": 0, "lon": -77.07547666666666, "fusion_lat": 0.0, "name": "7ec1415a689accba0bc39b28d0481658"}, {"type": "electric_scooter", "fusion_lon": 0.0, "bike_id": "15e8c4f5e019bb65cd41b67f7f6f1a51", "is_disabled": 0, "lat": 38.928431333333336, "rental_uris": {"ios": "https://dc.lft.to/lastmile_qr_scan", "android": "https://dc.lft.to/lastmile_qr_scan"}, "is_reserved": 0, "lon": -77.01588866666667, "fusion_lat": 0.0, "name": "15e8c4f5e019bb65cd41b67f7f6f1a51"}, {"type": "electric_scooter", "fusion_lon": 0.0, "bike_id": "1559293aac701530cfaad4d33e3fcbc8", "is_disabled": 0, "lat": 38.96108916666667, "rental_uris": {"ios": "https://dc.lft.to/lastmile_qr_scan", "android": "https://dc.lft.to/lastmile_qr_scan"}, "is_reserved": 0, "lon": -77.0332375, "fusion_lat": 0.0, "name": "1559293aac701530cfaad4d33e3fcbc8"}, {"type": "electric_scooter", "fusion_lon": 0.0, "bike_id": "4e309e691d2066acc32ec9e849851f82", "is_disabled": 0, "lat": 38.90217466666667, "rental_uris": {"ios": "https://dc.lft.to/lastmile_qr_scan", "android": "https://dc.lft.to/lastmile_qr_scan"}, "is_reserved": 0, "lon": -77.03371233333333, "fusion_lat": 0.0, "name": "4e309e691d2066acc32ec9e849851f82"}, {"type": "electric_scooter", "fusion_lon": 0.0, "bike_id": "53b2827badbea4eb87a0431ec7408216", "is_disabled": 0, "lat": 38.876365, "rental_uris": {"ios": "https://dc.lft.to/lastmile_qr_scan", "android": "https://dc.lft.to/lastmile_qr_scan"}, "is_reserved": 0, "lon": -76.99798066666666, "fusion_lat": 0.0, "name": "53b2827badbea4eb87a0431ec7408216"}, {"type": "electric_scooter", "fusion_lon": 0.0, "bike_id": "ca6f5fc418b8ddc9d1a3b7a0015a8470", "is_disabled": 0, "lat": 38.95038483333333, "rental_uris": {"ios": "https://dc.lft.to/lastmile_qr_scan", "android": "https://dc.lft.to/lastmile_qr_scan"}, "is_reserved": 0, "lon": -77.07790916666667, "fusion_lat": 0.0, "name": "ca6f5fc418b8ddc9d1a3b7a0015a8470"}, {"type": "electric_scooter", "fusion_lon": 0.0, "bike_id": "fbe3dc8685fe22a32695aabbd5f6cc45", "is_disabled": 0, "lat": 38.90327833333333, "rental_uris": {"ios": "https://dc.lft.to/lastmile_qr_scan", "android": "https://dc.lft.to/lastmile_qr_scan"}, "is_reserved": 0, "lon": -77.026563, "fusion_lat": 0.0, "name": "fbe3dc8685fe22a32695aabbd5f6cc45"}, {"type": "electric_bike", "fusion_lon": 0.0, "bike_id": "466e9b04344eb037a43442d7dc2827c9", "is_disabled": 0, "lat": 38.8198795, "rental_uris": {"ios": "https://dc.lft.to/lastmile_qr_scan", "android": "https://dc.lft.to/lastmile_qr_scan"}, "is_reserved": 0, "lon": -76.998108, "fusion_lat": 0.0, "name": "466e9b04344eb037a43442d7dc2827c9"}, {"type": "electric_scooter", "fusion_lon": 0.0, "bike_id": "4920728b9f494853252cfd601f5cda0b", "is_disabled": 0, "lat": 38.89173433333333, "rental_uris": {"ios": "https://dc.lft.to/lastmile_qr_scan", "android": "https://dc.lft.to/lastmile_qr_scan"}, "is_reserved": 0, "lon": -76.9265575, "fusion_lat": 0.0, "name": "4920728b9f494853252cfd601f5cda0b"}, {"type": "electric_scooter", "fusion_lon": 0.0, "bike_id": "87841ebc714e97ad24a78839c917037d", "is_disabled": 0, "lat": 38.906431, "rental_uris": {"ios": "https://dc.lft.to/lastmile_qr_scan", "android": "https://dc.lft.to/lastmile_qr_scan"}, "is_reserved": 0, "lon": -76.98370566666667, "fusion_lat": 0.0, "name": "87841ebc714e97ad24a78839c917037d"}, {"type": "electric_scooter", "fusion_lon": 0.0, "bike_id": "f2864f6a08c1f4c4d8a443b183e7de60", "is_disabled": 0, "lat": 38.8922155, "rental_uris": {"ios": "https://dc.lft.to/lastmile_qr_scan", "android": "https://dc.lft.to/lastmile_qr_scan"}, "is_reserved": 0, "lon": -77.03339666666666, "fusion_lat": 0.0, "name": "f2864f6a08c1f4c4d8a443b183e7de60"}, {"type": "electric_scooter", "fusion_lon": 0.0, "bike_id": "68a35423093e96d59605e402b65550e3", "is_disabled": 0, "lat": 38.911973, "rental_uris": {"ios": "https://dc.lft.to/lastmile_qr_scan", "android": "https://dc.lft.to/lastmile_qr_scan"}, "is_reserved": 0, "lon": -76.98770516666667, "fusion_lat": 0.0, "name": "68a35423093e96d59605e402b65550e3"}, {"type": "electric_scooter", "fusion_lon": 0.0, "bike_id": "18377b5af427f8357d3d2dd27bdaf310", "is_disabled": 0, "lat": 38.895946, "rental_uris": {"ios": "https://dc.lft.to/lastmile_qr_scan", "android": "https://dc.lft.to/lastmile_qr_scan"}, "is_reserved": 0, "lon": -77.04750966666667, "fusion_lat": 0.0, "name": "18377b5af427f8357d3d2dd27bdaf310"}, {"type": "electric_scooter", "fusion_lon": 0.0, "bike_id": "d2c3250d3f26a41b1d44e432c511559d", "is_disabled": 0, "lat": 38.8921895, "rental_uris": {"ios": "https://dc.lft.to/lastmile_qr_scan", "android": "https://dc.lft.to/lastmile_qr_scan"}, "is_reserved": 0, "lon": -77.02010516666667, "fusion_lat": 0.0, "name": "d2c3250d3f26a41b1d44e432c511559d"}, {"type": "electric_scooter", "fusion_lon": 0.0, "bike_id": "3278ab066f012833acf909f235299e2a", "is_disabled": 0, "lat": 38.89234066666667, "rental_uris": {"ios": "https://dc.lft.to/lastmile_qr_scan", "android": "https://dc.lft.to/lastmile_qr_scan"}, "is_reserved": 0, "lon": -77.04674316666667, "fusion_lat": 0.0, "name": "3278ab066f012833acf909f235299e2a"}, {"type": "electric_scooter", "fusion_lon": 0.0, "bike_id": "7152db91e0e6b2fc7a4d7291dc4380d4", "is_disabled": 0, "lat": 38.925088833333334, "rental_uris": {"ios": "https://dc.lft.to/lastmile_qr_scan", "android": "https://dc.lft.to/lastmile_qr_scan"}, "is_reserved": 0, "lon": -77.02254116666667, "fusion_lat": 0.0, "name": "7152db91e0e6b2fc7a4d7291dc4380d4"}, {"type": "electric_scooter", "fusion_lon": 0.0, "bike_id": "d3834a40517c40c0206e469dba052a28", "is_disabled": 0, "lat": 38.8871535, "rental_uris": {"ios": "https://dc.lft.to/lastmile_qr_scan", "android": "https://dc.lft.to/lastmile_qr_scan"}, "is_reserved": 0, "lon": -77.022014, "fusion_lat": 0.0, "name": "d3834a40517c40c0206e469dba052a28"}, {"type": "electric_scooter", "fusion_lon": 0.0, "bike_id": "8bc2f7fdbe385f33d5875385bc40c807", "is_disabled": 0, "lat": 38.8922315, "rental_uris": {"ios": "https://dc.lft.to/lastmile_qr_scan", "android": "https://dc.lft.to/lastmile_qr_scan"}, "is_reserved": 0, "lon": -77.0450895, "fusion_lat": 0.0, "name": "8bc2f7fdbe385f33d5875385bc40c807"}, {"type": "electric_scooter", "fusion_lon": 0.0, "bike_id": "473ad6d888a441267c73bd1e8b0ce31f", "is_disabled": 0, "lat": 38.91850733333333, "rental_uris": {"ios": "https://dc.lft.to/lastmile_qr_scan", "android": "https://dc.lft.to/lastmile_qr_scan"}, "is_reserved": 0, "lon": -77.08996266666666, "fusion_lat": 0.0, "name": "473ad6d888a441267c73bd1e8b0ce31f"}, {"type": "electric_scooter", "fusion_lon": 0.0, "bike_id": "e9367a6d7bb60acc802f55bcfbf0240a", "is_disabled": 0, "lat": 38.9178355, "rental_uris": {"ios": "https://dc.lft.to/lastmile_qr_scan", "android": "https://dc.lft.to/lastmile_qr_scan"}, "is_reserved": 0, "lon": -77.02306, "fusion_lat": 0.0, "name": "e9367a6d7bb60acc802f55bcfbf0240a"}, {"type": "electric_scooter", "fusion_lon": 0.0, "bike_id": "837a32c05a900d6ef284d5740c3aa137", "is_disabled": 0, "lat": 38.871716, "rental_uris": {"ios": "https://dc.lft.to/lastmile_qr_scan", "android": "https://dc.lft.to/lastmile_qr_scan"}, "is_reserved": 0, "lon": -77.00576133333334, "fusion_lat": 0.0, "name": "837a32c05a900d6ef284d5740c3aa137"}, {"type": "electric_scooter", "fusion_lon": 0.0, "bike_id": "796f98467c51d7207628b3d48269394d", "is_disabled": 0, "lat": 38.91359333333333, "rental_uris": {"ios": "https://dc.lft.to/lastmile_qr_scan", "android": "https://dc.lft.to/lastmile_qr_scan"}, "is_reserved": 0, "lon": -77.02238833333334, "fusion_lat": 0.0, "name": "796f98467c51d7207628b3d48269394d"}, {"type": "electric_scooter", "fusion_lon": 0.0, "bike_id": "0e10cd74aa36680ef6dfdd9f0c2c799f", "is_disabled": 0, "lat": 38.914188333333335, "rental_uris": {"ios": "https://dc.lft.to/lastmile_qr_scan", "android": "https://dc.lft.to/lastmile_qr_scan"}, "is_reserved": 0, "lon": -77.02119916666666, "fusion_lat": 0.0, "name": "0e10cd74aa36680ef6dfdd9f0c2c799f"}, {"type": "electric_scooter", "fusion_lon": 0.0, "bike_id": "1ebbd3942d5ad685aa8757e3816e95ea", "is_disabled": 0, "lat": 38.93395433333333, "rental_uris": {"ios": "https://dc.lft.to/lastmile_qr_scan", "android": "https://dc.lft.to/lastmile_qr_scan"}, "is_reserved": 0, "lon": -77.05741766666667, "fusion_lat": 0.0, "name": "1ebbd3942d5ad685aa8757e3816e95ea"}, {"type": "electric_scooter", "fusion_lon": 0.0, "bike_id": "cf2ffaf05cce684a05721f770f44c981", "is_disabled": 0, "lat": 38.90022866666666, "rental_uris": {"ios": "https://dc.lft.to/lastmile_qr_scan", "android": "https://dc.lft.to/lastmile_qr_scan"}, "is_reserved": 0, "lon": -77.023755, "fusion_lat": 0.0, "name": "cf2ffaf05cce684a05721f770f44c981"}, {"type": "electric_scooter", "fusion_lon": 0.0, "bike_id": "67037d67c7a280635f83d882e5d87592", "is_disabled": 0, "lat": 38.9393805, "rental_uris": {"ios": "https://dc.lft.to/lastmile_qr_scan", "android": "https://dc.lft.to/lastmile_qr_scan"}, "is_reserved": 0, "lon": -77.07514133333333, "fusion_lat": 0.0, "name": "67037d67c7a280635f83d882e5d87592"}, {"type": "electric_scooter", "fusion_lon": 0.0, "bike_id": "43c800d5b3a38218913271da04be1f83", "is_disabled": 0, "lat": 38.874682666666665, "rental_uris": {"ios": "https://dc.lft.to/lastmile_qr_scan", "android": "https://dc.lft.to/lastmile_qr_scan"}, "is_reserved": 0, "lon": -77.005549, "fusion_lat": 0.0, "name": "43c800d5b3a38218913271da04be1f83"}, {"type": "electric_scooter", "fusion_lon": 0.0, "bike_id": "5b63f47fac32d00f0e4d2b4e8be5f5fe", "is_disabled": 0, "lat": 38.89230233333333, "rental_uris": {"ios": "https://dc.lft.to/lastmile_qr_scan", "android": "https://dc.lft.to/lastmile_qr_scan"}, "is_reserved": 0, "lon": -77.05006883333333, "fusion_lat": 0.0, "name": "5b63f47fac32d00f0e4d2b4e8be5f5fe"}, {"type": "electric_scooter", "fusion_lon": 0.0, "bike_id": "1ce44066e8549dad72a0ba2c588cff09", "is_disabled": 0, "lat": 38.89461266666667, "rental_uris": {"ios": "https://dc.lft.to/lastmile_qr_scan", "android": "https://dc.lft.to/lastmile_qr_scan"}, "is_reserved": 0, "lon": -77.02178183333334, "fusion_lat": 0.0, "name": "1ce44066e8549dad72a0ba2c588cff09"}, {"type": "electric_scooter", "fusion_lon": 0.0, "bike_id": "d9e7df97083eb5538440601122b1b317", "is_disabled": 0, "lat": 38.9660795, "rental_uris": {"ios": "https://dc.lft.to/lastmile_qr_scan", "android": "https://dc.lft.to/lastmile_qr_scan"}, "is_reserved": 0, "lon": -77.02741516666667, "fusion_lat": 0.0, "name": "d9e7df97083eb5538440601122b1b317"}, {"type": "electric_scooter", "fusion_lon": 0.0, "bike_id": "2635a6c42c89d0c8fde180bf99049d91", "is_disabled": 0, "lat": 38.92340083333333, "rental_uris": {"ios": "https://dc.lft.to/lastmile_qr_scan", "android": "https://dc.lft.to/lastmile_qr_scan"}, "is_reserved": 0, "lon": -77.018852, "fusion_lat": 0.0, "name": "2635a6c42c89d0c8fde180bf99049d91"}, {"type": "electric_scooter", "fusion_lon": 0.0, "bike_id": "68e575439e64d85d85c0f4c738547a96", "is_disabled": 0, "lat": 38.896204166666664, "rental_uris": {"ios": "https://dc.lft.to/lastmile_qr_scan", "android": "https://dc.lft.to/lastmile_qr_scan"}, "is_reserved": 0, "lon": -76.99891066666666, "fusion_lat": 0.0, "name": "68e575439e64d85d85c0f4c738547a96"}, {"type": "electric_scooter", "fusion_lon": 0.0, "bike_id": "3085fb152fede008c4ec88fd95c905ef", "is_disabled": 0, "lat": 38.91636533333333, "rental_uris": {"ios": "https://dc.lft.to/lastmile_qr_scan", "android": "https://dc.lft.to/lastmile_qr_scan"}, "is_reserved": 0, "lon": -77.02262516666667, "fusion_lat": 0.0, "name": "3085fb152fede008c4ec88fd95c905ef"}, {"type": "electric_scooter", "fusion_lon": 0.0, "bike_id": "96c99a23df841fe3ac3c08d569def6f8", "is_disabled": 0, "lat": 38.91783183333333, "rental_uris": {"ios": "https://dc.lft.to/lastmile_qr_scan", "android": "https://dc.lft.to/lastmile_qr_scan"}, "is_reserved": 0, "lon": -77.0317165, "fusion_lat": 0.0, "name": "96c99a23df841fe3ac3c08d569def6f8"}, {"type": "electric_scooter", "fusion_lon": 0.0, "bike_id": "6fae55903c832e89e9a73b099921e3da", "is_disabled": 0, "lat": 38.86268583333333, "rental_uris": {"ios": "https://dc.lft.to/lastmile_qr_scan", "android": "https://dc.lft.to/lastmile_qr_scan"}, "is_reserved": 0, "lon": -76.9952855, "fusion_lat": 0.0, "name": "6fae55903c832e89e9a73b099921e3da"}, {"type": "electric_scooter", "fusion_lon": 0.0, "bike_id": "0e2f529fe7254417a53fef4a2f95b0fb", "is_disabled": 0, "lat": 38.862134833333336, "rental_uris": {"ios": "https://dc.lft.to/lastmile_qr_scan", "android": "https://dc.lft.to/lastmile_qr_scan"}, "is_reserved": 0, "lon": -76.99472366666667, "fusion_lat": 0.0, "name": "0e2f529fe7254417a53fef4a2f95b0fb"}, {"type": "electric_scooter", "fusion_lon": 0.0, "bike_id": "010b4ebd085e9ddf409a6dc1c2b9e8f8", "is_disabled": 0, "lat": 38.9189515, "rental_uris": {"ios": "https://dc.lft.to/lastmile_qr_scan", "android": "https://dc.lft.to/lastmile_qr_scan"}, "is_reserved": 0, "lon": -77.03571383333333, "fusion_lat": 0.0, "name": "010b4ebd085e9ddf409a6dc1c2b9e8f8"}, {"type": "electric_scooter", "fusion_lon": 0.0, "bike_id": "8a27ef6a29cd7b46347236978d68ae89", "is_disabled": 0, "lat": 38.91871716666667, "rental_uris": {"ios": "https://dc.lft.to/lastmile_qr_scan", "android": "https://dc.lft.to/lastmile_qr_scan"}, "is_reserved": 0, "lon": -77.02458516666667, "fusion_lat": 0.0, "name": "8a27ef6a29cd7b46347236978d68ae89"}, {"type": "electric_scooter", "fusion_lon": 0.0, "bike_id": "e9ca7f4d5b5a4a82db1326f28233ecc6", "is_disabled": 0, "lat": 38.910419833333336, "rental_uris": {"ios": "https://dc.lft.to/lastmile_qr_scan", "android": "https://dc.lft.to/lastmile_qr_scan"}, "is_reserved": 0, "lon": -77.019805, "fusion_lat": 0.0, "name": "e9ca7f4d5b5a4a82db1326f28233ecc6"}, {"type": "electric_scooter", "fusion_lon": 0.0, "bike_id": "d0f8b56a58678385da66c0d729282143", "is_disabled": 0, "lat": 38.912673833333336, "rental_uris": {"ios": "https://dc.lft.to/lastmile_qr_scan", "android": "https://dc.lft.to/lastmile_qr_scan"}, "is_reserved": 0, "lon": -77.01766883333333, "fusion_lat": 0.0, "name": "d0f8b56a58678385da66c0d729282143"}, {"type": "electric_scooter", "fusion_lon": 0.0, "bike_id": "7179e5617ec660cb767d271a67816b51", "is_disabled": 0, "lat": 38.90138016666667, "rental_uris": {"ios": "https://dc.lft.to/lastmile_qr_scan", "android": "https://dc.lft.to/lastmile_qr_scan"}, "is_reserved": 0, "lon": -77.04030766666666, "fusion_lat": 0.0, "name": "7179e5617ec660cb767d271a67816b51"}, {"type": "electric_scooter", "fusion_lon": 0.0, "bike_id": "74cf48b99ddd17f6b52b0e02dea8d82f", "is_disabled": 0, "lat": 38.90757083333333, "rental_uris": {"ios": "https://dc.lft.to/lastmile_qr_scan", "android": "https://dc.lft.to/lastmile_qr_scan"}, "is_reserved": 0, "lon": -77.02292983333334, "fusion_lat": 0.0, "name": "74cf48b99ddd17f6b52b0e02dea8d82f"}, {"type": "electric_scooter", "fusion_lon": 0.0, "bike_id": "13376d049c0d70e1ee92e38625d64c11", "is_disabled": 0, "lat": 38.896210333333336, "rental_uris": {"ios": "https://dc.lft.to/lastmile_qr_scan", "android": "https://dc.lft.to/lastmile_qr_scan"}, "is_reserved": 0, "lon": -77.0465875, "fusion_lat": 0.0, "name": "13376d049c0d70e1ee92e38625d64c11"}, {"type": "electric_scooter", "fusion_lon": 0.0, "bike_id": "2c02b573d0fd34b206797bf408724626", "is_disabled": 0, "lat": 38.88069016666667, "rental_uris": {"ios": "https://dc.lft.to/lastmile_qr_scan", "android": "https://dc.lft.to/lastmile_qr_scan"}, "is_reserved": 0, "lon": -76.99024816666666, "fusion_lat": 0.0, "name": "2c02b573d0fd34b206797bf408724626"}, {"type": "electric_scooter", "fusion_lon": 0.0, "bike_id": "01dd68d28905d2ab4c13f74a59aaeb2d", "is_disabled": 0, "lat": 38.91189416666667, "rental_uris": {"ios": "https://dc.lft.to/lastmile_qr_scan", "android": "https://dc.lft.to/lastmile_qr_scan"}, "is_reserved": 0, "lon": -77.0107085, "fusion_lat": 0.0, "name": "01dd68d28905d2ab4c13f74a59aaeb2d"}, {"type": "electric_scooter", "fusion_lon": 0.0, "bike_id": "640cf05ca6c23876cea33b7004a8e17a", "is_disabled": 0, "lat": 38.9099565, "rental_uris": {"ios": "https://dc.lft.to/lastmile_qr_scan", "android": "https://dc.lft.to/lastmile_qr_scan"}, "is_reserved": 0, "lon": -76.99452666666667, "fusion_lat": 0.0, "name": "640cf05ca6c23876cea33b7004a8e17a"}, {"type": "electric_scooter", "fusion_lon": 0.0, "bike_id": "db98ac06296f2c75b979d6e161c9f148", "is_disabled": 0, "lat": 38.93304166666667, "rental_uris": {"ios": "https://dc.lft.to/lastmile_qr_scan", "android": "https://dc.lft.to/lastmile_qr_scan"}, "is_reserved": 0, "lon": -77.03261083333334, "fusion_lat": 0.0, "name": "db98ac06296f2c75b979d6e161c9f148"}, {"type": "electric_scooter", "fusion_lon": 0.0, "bike_id": "30e1225659b6ccc9e1121638087d6a8c", "is_disabled": 0, "lat": 38.9419715, "rental_uris": {"ios": "https://dc.lft.to/lastmile_qr_scan", "android": "https://dc.lft.to/lastmile_qr_scan"}, "is_reserved": 0, "lon": -77.02430133333333, "fusion_lat": 0.0, "name": "30e1225659b6ccc9e1121638087d6a8c"}, {"type": "electric_scooter", "fusion_lon": 0.0, "bike_id": "3f0fe1b70de0738bf3450a897e8fe909", "is_disabled": 0, "lat": 38.93058516666667, "rental_uris": {"ios": "https://dc.lft.to/lastmile_qr_scan", "android": "https://dc.lft.to/lastmile_qr_scan"}, "is_reserved": 0, "lon": -77.032157, "fusion_lat": 0.0, "name": "3f0fe1b70de0738bf3450a897e8fe909"}, {"type": "electric_bike", "fusion_lon": 0.0, "bike_id": "001caaa93210412cbd106f3f8a35f968", "is_disabled": 0, "lat": 38.8576195, "rental_uris": {"ios": "https://dc.lft.to/lastmile_qr_scan", "android": "https://dc.lft.to/lastmile_qr_scan"}, "is_reserved": 0, "lon": -76.98756516666667, "fusion_lat": 0.0, "name": "001caaa93210412cbd106f3f8a35f968"}, {"type": "electric_scooter", "fusion_lon": 0.0, "bike_id": "e17d3bddf7e5671019a5aed6c93a7792", "is_disabled": 0, "lat": 38.899620666666664, "rental_uris": {"ios": "https://dc.lft.to/lastmile_qr_scan", "android": "https://dc.lft.to/lastmile_qr_scan"}, "is_reserved": 0, "lon": -77.01631266666666, "fusion_lat": 0.0, "name": "e17d3bddf7e5671019a5aed6c93a7792"}, {"type": "electric_scooter", "fusion_lon": 0.0, "bike_id": "ecef291c87a383dbd084ff41218511d4", "is_disabled": 0, "lat": 38.88739783333333, "rental_uris": {"ios": "https://dc.lft.to/lastmile_qr_scan", "android": "https://dc.lft.to/lastmile_qr_scan"}, "is_reserved": 0, "lon": -77.022031, "fusion_lat": 0.0, "name": "ecef291c87a383dbd084ff41218511d4"}, {"type": "electric_scooter", "fusion_lon": 0.0, "bike_id": "698bef5853fa8228eb1e7c7fb8c9e47b", "is_disabled": 0, "lat": 38.892167666666666, "rental_uris": {"ios": "https://dc.lft.to/lastmile_qr_scan", "android": "https://dc.lft.to/lastmile_qr_scan"}, "is_reserved": 0, "lon": -77.0277805, "fusion_lat": 0.0, "name": "698bef5853fa8228eb1e7c7fb8c9e47b"}, {"type": "electric_scooter", "fusion_lon": 0.0, "bike_id": "ca02b80a66c9ade7cb3f51cef2d58a72", "is_disabled": 0, "lat": 38.92283966666667, "rental_uris": {"ios": "https://dc.lft.to/lastmile_qr_scan", "android": "https://dc.lft.to/lastmile_qr_scan"}, "is_reserved": 0, "lon": -77.03195333333333, "fusion_lat": 0.0, "name": "ca02b80a66c9ade7cb3f51cef2d58a72"}, {"type": "electric_scooter", "fusion_lon": 0.0, "bike_id": "54444e5822c837bd2f6516cba7ec9ca3", "is_disabled": 0, "lat": 38.87688933333333, "rental_uris": {"ios": "https://dc.lft.to/lastmile_qr_scan", "android": "https://dc.lft.to/lastmile_qr_scan"}, "is_reserved": 0, "lon": -77.0068065, "fusion_lat": 0.0, "name": "54444e5822c837bd2f6516cba7ec9ca3"}, {"type": "electric_scooter", "fusion_lon": 0.0, "bike_id": "ac5fc2df79671ef4d87d0e1d0ffa9de3", "is_disabled": 0, "lat": 38.9248645, "rental_uris": {"ios": "https://dc.lft.to/lastmile_qr_scan", "android": "https://dc.lft.to/lastmile_qr_scan"}, "is_reserved": 0, "lon": -77.03939866666667, "fusion_lat": 0.0, "name": "ac5fc2df79671ef4d87d0e1d0ffa9de3"}, {"type": "electric_scooter", "fusion_lon": 0.0, "bike_id": "4a8bb0038cb255c85e6f5544f768c542", "is_disabled": 0, "lat": 38.906160666666665, "rental_uris": {"ios": "https://dc.lft.to/lastmile_qr_scan", "android": "https://dc.lft.to/lastmile_qr_scan"}, "is_reserved": 0, "lon": -77.03297866666666, "fusion_lat": 0.0, "name": "4a8bb0038cb255c85e6f5544f768c542"}, {"type": "electric_scooter", "fusion_lon": 0.0, "bike_id": "08cfebd39f6fa1b459f9ddd4c902cef2", "is_disabled": 0, "lat": 38.902350166666665, "rental_uris": {"ios": "https://dc.lft.to/lastmile_qr_scan", "android": "https://dc.lft.to/lastmile_qr_scan"}, "is_reserved": 0, "lon": -77.03704183333333, "fusion_lat": 0.0, "name": "08cfebd39f6fa1b459f9ddd4c902cef2"}, {"type": "electric_scooter", "fusion_lon": 0.0, "bike_id": "6386a62a1cf3b03d5fe11283f0f3b4ec", "is_disabled": 0, "lat": 38.9125245, "rental_uris": {"ios": "https://dc.lft.to/lastmile_qr_scan", "android": "https://dc.lft.to/lastmile_qr_scan"}, "is_reserved": 0, "lon": -77.03472983333333, "fusion_lat": 0.0, "name": "6386a62a1cf3b03d5fe11283f0f3b4ec"}, {"type": "electric_scooter", "fusion_lon": 0.0, "bike_id": "7261fc80fb1cebdbbae900a03bc2ecc2", "is_disabled": 0, "lat": 38.898367, "rental_uris": {"ios": "https://dc.lft.to/lastmile_qr_scan", "android": "https://dc.lft.to/lastmile_qr_scan"}, "is_reserved": 0, "lon": -77.0236725, "fusion_lat": 0.0, "name": "7261fc80fb1cebdbbae900a03bc2ecc2"}, {"type": "electric_bike", "fusion_lon": 0.0, "bike_id": "cc97b73a85a943a4cc84554675656338", "is_disabled": 0, "lat": 38.950887, "rental_uris": {"ios": "https://dc.lft.to/lastmile_qr_scan", "android": "https://dc.lft.to/lastmile_qr_scan"}, "is_reserved": 0, "lon": -77.01227283333333, "fusion_lat": 0.0, "name": "cc97b73a85a943a4cc84554675656338"}, {"type": "electric_scooter", "fusion_lon": 0.0, "bike_id": "aeb458d83d10700f116072e8fb239ea2", "is_disabled": 0, "lat": 38.8922315, "rental_uris": {"ios": "https://dc.lft.to/lastmile_qr_scan", "android": "https://dc.lft.to/lastmile_qr_scan"}, "is_reserved": 0, "lon": -77.04508566666667, "fusion_lat": 0.0, "name": "aeb458d83d10700f116072e8fb239ea2"}, {"type": "electric_scooter", "fusion_lon": 0.0, "bike_id": "6c10475fb48576a7bf2fa7ed88c1e486", "is_disabled": 0, "lat": 38.9314325, "rental_uris": {"ios": "https://dc.lft.to/lastmile_qr_scan", "android": "https://dc.lft.to/lastmile_qr_scan"}, "is_reserved": 0, "lon": -77.07717483333333, "fusion_lat": 0.0, "name": "6c10475fb48576a7bf2fa7ed88c1e486"}, {"type": "electric_scooter", "fusion_lon": 0.0, "bike_id": "0d4890a0f36ed8133c5b4b12760dabf4", "is_disabled": 0, "lat": 38.922367666666666, "rental_uris": {"ios": "https://dc.lft.to/lastmile_qr_scan", "android": "https://dc.lft.to/lastmile_qr_scan"}, "is_reserved": 0, "lon": -77.04448516666666, "fusion_lat": 0.0, "name": "0d4890a0f36ed8133c5b4b12760dabf4"}, {"type": "electric_scooter", "fusion_lon": 0.0, "bike_id": "ff93db61d33c8c73d47ec7cb19c02415", "is_disabled": 0, "lat": 38.892783666666666, "rental_uris": {"ios": "https://dc.lft.to/lastmile_qr_scan", "android": "https://dc.lft.to/lastmile_qr_scan"}, "is_reserved": 0, "lon": -77.04661216666666, "fusion_lat": 0.0, "name": "ff93db61d33c8c73d47ec7cb19c02415"}, {"type": "electric_scooter", "fusion_lon": 0.0, "bike_id": "778ff2d27d33cf6f543eb954df76332e", "is_disabled": 0, "lat": 38.91167166666666, "rental_uris": {"ios": "https://dc.lft.to/lastmile_qr_scan", "android": "https://dc.lft.to/lastmile_qr_scan"}, "is_reserved": 0, "lon": -77.01613333333333, "fusion_lat": 0.0, "name": "778ff2d27d33cf6f543eb954df76332e"}, {"type": "electric_scooter", "fusion_lon": 0.0, "bike_id": "e7b1b8d5f6f32db5865e5cfb94ab9e0e", "is_disabled": 0, "lat": 38.8953395, "rental_uris": {"ios": "https://dc.lft.to/lastmile_qr_scan", "android": "https://dc.lft.to/lastmile_qr_scan"}, "is_reserved": 0, "lon": -77.04642716666666, "fusion_lat": 0.0, "name": "e7b1b8d5f6f32db5865e5cfb94ab9e0e"}, {"type": "electric_bike", "fusion_lon": 0.0, "bike_id": "cd0c0e4688b60cb3e147b6f4637eb4a6", "is_disabled": 0, "lat": 38.944069999999996, "rental_uris": {"ios": "https://dc.lft.to/lastmile_qr_scan", "android": "https://dc.lft.to/lastmile_qr_scan"}, "is_reserved": 0, "lon": -77.0550715, "fusion_lat": 0.0, "name": "cd0c0e4688b60cb3e147b6f4637eb4a6"}, {"type": "electric_scooter", "fusion_lon": 0.0, "bike_id": "ef59c393924ef95a1b2340219588e210", "is_disabled": 0, "lat": 38.90772233333333, "rental_uris": {"ios": "https://dc.lft.to/lastmile_qr_scan", "android": "https://dc.lft.to/lastmile_qr_scan"}, "is_reserved": 0, "lon": -77.03765266666667, "fusion_lat": 0.0, "name": "ef59c393924ef95a1b2340219588e210"}, {"type": "electric_scooter", "fusion_lon": 0.0, "bike_id": "fb3ae7a387fbb1d8a2e7f13ada5cecd1", "is_disabled": 0, "lat": 38.89221033333333, "rental_uris": {"ios": "https://dc.lft.to/lastmile_qr_scan", "android": "https://dc.lft.to/lastmile_qr_scan"}, "is_reserved": 0, "lon": -77.0398905, "fusion_lat": 0.0, "name": "fb3ae7a387fbb1d8a2e7f13ada5cecd1"}, {"type": "electric_scooter", "fusion_lon": 0.0, "bike_id": "a4b866d433b73a2bc385841f49ac62a0", "is_disabled": 0, "lat": 38.9055105, "rental_uris": {"ios": "https://dc.lft.to/lastmile_qr_scan", "android": "https://dc.lft.to/lastmile_qr_scan"}, "is_reserved": 0, "lon": -77.04649666666667, "fusion_lat": 0.0, "name": "a4b866d433b73a2bc385841f49ac62a0"}, {"type": "electric_scooter", "fusion_lon": 0.0, "bike_id": "572b51ee084337e830cf4f2dc5157b83", "is_disabled": 0, "lat": 38.924330499999996, "rental_uris": {"ios": "https://dc.lft.to/lastmile_qr_scan", "android": "https://dc.lft.to/lastmile_qr_scan"}, "is_reserved": 0, "lon": -77.04248183333333, "fusion_lat": 0.0, "name": "572b51ee084337e830cf4f2dc5157b83"}, {"type": "electric_scooter", "fusion_lon": 0.0, "bike_id": "11ee8377f763c72ed18cb4da8e35c8fc", "is_disabled": 0, "lat": 38.914162166666664, "rental_uris": {"ios": "https://dc.lft.to/lastmile_qr_scan", "android": "https://dc.lft.to/lastmile_qr_scan"}, "is_reserved": 0, "lon": -77.04593816666667, "fusion_lat": 0.0, "name": "11ee8377f763c72ed18cb4da8e35c8fc"}, {"type": "electric_scooter", "fusion_lon": 0.0, "bike_id": "4a8645448734d4b95a4b7cf892e642fe", "is_disabled": 0, "lat": 38.9181795, "rental_uris": {"ios": "https://dc.lft.to/lastmile_qr_scan", "android": "https://dc.lft.to/lastmile_qr_scan"}, "is_reserved": 0, "lon": -77.03152166666666, "fusion_lat": 0.0, "name": "4a8645448734d4b95a4b7cf892e642fe"}, {"type": "electric_scooter", "fusion_lon": 0.0, "bike_id": "ef8cea2f95f2ea5651413e07a9ce1516", "is_disabled": 0, "lat": 38.9187335, "rental_uris": {"ios": "https://dc.lft.to/lastmile_qr_scan", "android": "https://dc.lft.to/lastmile_qr_scan"}, "is_reserved": 0, "lon": -77.044868, "fusion_lat": 0.0, "name": "ef8cea2f95f2ea5651413e07a9ce1516"}, {"type": "electric_scooter", "fusion_lon": 0.0, "bike_id": "cf797f801c5a8076b1a627c97f6e0f43", "is_disabled": 0, "lat": 38.9046515, "rental_uris": {"ios": "https://dc.lft.to/lastmile_qr_scan", "android": "https://dc.lft.to/lastmile_qr_scan"}, "is_reserved": 0, "lon": -76.9949815, "fusion_lat": 0.0, "name": "cf797f801c5a8076b1a627c97f6e0f43"}, {"type": "electric_scooter", "fusion_lon": 0.0, "bike_id": "00233a6948dc76c0570608c71ef5bf93", "is_disabled": 0, "lat": 38.90553766666667, "rental_uris": {"ios": "https://dc.lft.to/lastmile_qr_scan", "android": "https://dc.lft.to/lastmile_qr_scan"}, "is_reserved": 0, "lon": -77.03247233333333, "fusion_lat": 0.0, "name": "00233a6948dc76c0570608c71ef5bf93"}, {"type": "electric_scooter", "fusion_lon": 0.0, "bike_id": "37754381bd453257348eabd28c5673b9", "is_disabled": 0, "lat": 38.92250216666667, "rental_uris": {"ios": "https://dc.lft.to/lastmile_qr_scan", "android": "https://dc.lft.to/lastmile_qr_scan"}, "is_reserved": 0, "lon": -77.02003933333333, "fusion_lat": 0.0, "name": "37754381bd453257348eabd28c5673b9"}, {"type": "electric_scooter", "fusion_lon": 0.0, "bike_id": "9396d0b3278458f0205bfa6f9453dffa", "is_disabled": 0, "lat": 38.919192333333335, "rental_uris": {"ios": "https://dc.lft.to/lastmile_qr_scan", "android": "https://dc.lft.to/lastmile_qr_scan"}, "is_reserved": 0, "lon": -77.07943866666666, "fusion_lat": 0.0, "name": "9396d0b3278458f0205bfa6f9453dffa"}, {"type": "electric_scooter", "fusion_lon": 0.0, "bike_id": "8ea8a092336da1ce98429dcc3592e189", "is_disabled": 0, "lat": 38.923365, "rental_uris": {"ios": "https://dc.lft.to/lastmile_qr_scan", "android": "https://dc.lft.to/lastmile_qr_scan"}, "is_reserved": 0, "lon": -77.01894333333334, "fusion_lat": 0.0, "name": "8ea8a092336da1ce98429dcc3592e189"}, {"type": "electric_scooter", "fusion_lon": 0.0, "bike_id": "4a3d59ed5cb856760ebde65856546df4", "is_disabled": 0, "lat": 38.884844666666666, "rental_uris": {"ios": "https://dc.lft.to/lastmile_qr_scan", "android": "https://dc.lft.to/lastmile_qr_scan"}, "is_reserved": 0, "lon": -77.03473766666667, "fusion_lat": 0.0, "name": "4a3d59ed5cb856760ebde65856546df4"}, {"type": "electric_scooter", "fusion_lon": 0.0, "bike_id": "4d2bd81d09edeac8c2c494bf22cacf8e", "is_disabled": 0, "lat": 38.87661533333333, "rental_uris": {"ios": "https://dc.lft.to/lastmile_qr_scan", "android": "https://dc.lft.to/lastmile_qr_scan"}, "is_reserved": 0, "lon": -77.0030285, "fusion_lat": 0.0, "name": "4d2bd81d09edeac8c2c494bf22cacf8e"}, {"type": "electric_scooter", "fusion_lon": 0.0, "bike_id": "6dd37bb2835ee47be9e1843d1ac0e9a8", "is_disabled": 0, "lat": 38.933206, "rental_uris": {"ios": "https://dc.lft.to/lastmile_qr_scan", "android": "https://dc.lft.to/lastmile_qr_scan"}, "is_reserved": 0, "lon": -77.02923433333333, "fusion_lat": 0.0, "name": "6dd37bb2835ee47be9e1843d1ac0e9a8"}, {"type": "electric_scooter", "fusion_lon": 0.0, "bike_id": "b684e5a7209a6fdd3a4a2c43679cf694", "is_disabled": 0, "lat": 38.923009, "rental_uris": {"ios": "https://dc.lft.to/lastmile_qr_scan", "android": "https://dc.lft.to/lastmile_qr_scan"}, "is_reserved": 0, "lon": -77.0232595, "fusion_lat": 0.0, "name": "b684e5a7209a6fdd3a4a2c43679cf694"}, {"type": "electric_scooter", "fusion_lon": 0.0, "bike_id": "b3371b42f2b544586414382ce1b4fcd4", "is_disabled": 0, "lat": 38.913184333333334, "rental_uris": {"ios": "https://dc.lft.to/lastmile_qr_scan", "android": "https://dc.lft.to/lastmile_qr_scan"}, "is_reserved": 0, "lon": -77.046993, "fusion_lat": 0.0, "name": "b3371b42f2b544586414382ce1b4fcd4"}, {"type": "electric_scooter", "fusion_lon": 0.0, "bike_id": "770807096e5f0021f75cc526b1ca9bd4", "is_disabled": 0, "lat": 38.83788883333333, "rental_uris": {"ios": "https://dc.lft.to/lastmile_qr_scan", "android": "https://dc.lft.to/lastmile_qr_scan"}, "is_reserved": 0, "lon": -77.00449166666667, "fusion_lat": 0.0, "name": "770807096e5f0021f75cc526b1ca9bd4"}, {"type": "electric_scooter", "fusion_lon": 0.0, "bike_id": "ed7f4cf52febc7fa27a733d2643a0d58", "is_disabled": 0, "lat": 38.9212485, "rental_uris": {"ios": "https://dc.lft.to/lastmile_qr_scan", "android": "https://dc.lft.to/lastmile_qr_scan"}, "is_reserved": 0, "lon": -77.04215133333334, "fusion_lat": 0.0, "name": "ed7f4cf52febc7fa27a733d2643a0d58"}, {"type": "electric_scooter", "fusion_lon": 0.0, "bike_id": "4996c85eef08a6e84449a448ee77deda", "is_disabled": 0, "lat": 38.892234, "rental_uris": {"ios": "https://dc.lft.to/lastmile_qr_scan", "android": "https://dc.lft.to/lastmile_qr_scan"}, "is_reserved": 0, "lon": -77.043644, "fusion_lat": 0.0, "name": "4996c85eef08a6e84449a448ee77deda"}, {"type": "electric_bike", "fusion_lon": 0.0, "bike_id": "5b8d67c7a8b76dd083c5fcd8ac242e30", "is_disabled": 0, "lat": 38.896319166666665, "rental_uris": {"ios": "https://dc.lft.to/lastmile_qr_scan", "android": "https://dc.lft.to/lastmile_qr_scan"}, "is_reserved": 0, "lon": -77.02210383333333, "fusion_lat": 0.0, "name": "5b8d67c7a8b76dd083c5fcd8ac242e30"}, {"type": "electric_scooter", "fusion_lon": 0.0, "bike_id": "71fe94794e07cfe8d21ed86e45af9858", "is_disabled": 0, "lat": 38.89928666666667, "rental_uris": {"ios": "https://dc.lft.to/lastmile_qr_scan", "android": "https://dc.lft.to/lastmile_qr_scan"}, "is_reserved": 0, "lon": -77.0419355, "fusion_lat": 0.0, "name": "71fe94794e07cfe8d21ed86e45af9858"}, {"type": "electric_scooter", "fusion_lon": 0.0, "bike_id": "2db3467545e2a6ac1ff85bf7706834d0", "is_disabled": 0, "lat": 38.8971505, "rental_uris": {"ios": "https://dc.lft.to/lastmile_qr_scan", "android": "https://dc.lft.to/lastmile_qr_scan"}, "is_reserved": 0, "lon": -77.00798183333333, "fusion_lat": 0.0, "name": "2db3467545e2a6ac1ff85bf7706834d0"}, {"type": "electric_scooter", "fusion_lon": 0.0, "bike_id": "37f5304f57a5ef9ea7a940bd6fb12f4d", "is_disabled": 0, "lat": 38.87723116666667, "rental_uris": {"ios": "https://dc.lft.to/lastmile_qr_scan", "android": "https://dc.lft.to/lastmile_qr_scan"}, "is_reserved": 0, "lon": -77.01770883333333, "fusion_lat": 0.0, "name": "37f5304f57a5ef9ea7a940bd6fb12f4d"}, {"type": "electric_scooter", "fusion_lon": 0.0, "bike_id": "794d45b223a6bffb43f76c06e52891ac", "is_disabled": 0, "lat": 38.924706666666665, "rental_uris": {"ios": "https://dc.lft.to/lastmile_qr_scan", "android": "https://dc.lft.to/lastmile_qr_scan"}, "is_reserved": 0, "lon": -77.03916133333334, "fusion_lat": 0.0, "name": "794d45b223a6bffb43f76c06e52891ac"}, {"type": "electric_scooter", "fusion_lon": 0.0, "bike_id": "77043472579b0b495c624fb2c5f7cac1", "is_disabled": 0, "lat": 38.966088, "rental_uris": {"ios": "https://dc.lft.to/lastmile_qr_scan", "android": "https://dc.lft.to/lastmile_qr_scan"}, "is_reserved": 0, "lon": -77.02753233333334, "fusion_lat": 0.0, "name": "77043472579b0b495c624fb2c5f7cac1"}, {"type": "electric_bike", "fusion_lon": 0.0, "bike_id": "577b70553e18e32e99e33033523bc10b", "is_disabled": 0, "lat": 38.96780916666667, "rental_uris": {"ios": "https://dc.lft.to/lastmile_qr_scan", "android": "https://dc.lft.to/lastmile_qr_scan"}, "is_reserved": 0, "lon": -76.96253916666667, "fusion_lat": 0.0, "name": "577b70553e18e32e99e33033523bc10b"}, {"type": "electric_scooter", "fusion_lon": 0.0, "bike_id": "13d8e7ff06a8611579a793abbab203d3", "is_disabled": 0, "lat": 38.86026733333333, "rental_uris": {"ios": "https://dc.lft.to/lastmile_qr_scan", "android": "https://dc.lft.to/lastmile_qr_scan"}, "is_reserved": 0, "lon": -76.96999316666667, "fusion_lat": 0.0, "name": "13d8e7ff06a8611579a793abbab203d3"}, {"type": "electric_bike", "fusion_lon": 0.0, "bike_id": "4221f848173fd3bb6e9604b70ca00046", "is_disabled": 0, "lat": 38.944689833333335, "rental_uris": {"ios": "https://dc.lft.to/lastmile_qr_scan", "android": "https://dc.lft.to/lastmile_qr_scan"}, "is_reserved": 0, "lon": -76.98680533333334, "fusion_lat": 0.0, "name": "4221f848173fd3bb6e9604b70ca00046"}, {"type": "electric_scooter", "fusion_lon": 0.0, "bike_id": "b8997f2107d2ebb5092474778c0f73b1", "is_disabled": 0, "lat": 38.89589216666667, "rental_uris": {"ios": "https://dc.lft.to/lastmile_qr_scan", "android": "https://dc.lft.to/lastmile_qr_scan"}, "is_reserved": 0, "lon": -77.0296985, "fusion_lat": 0.0, "name": "b8997f2107d2ebb5092474778c0f73b1"}, {"type": "electric_scooter", "fusion_lon": 0.0, "bike_id": "be0b478e69dd02c915a14f53cb5644b5", "is_disabled": 0, "lat": 38.912748, "rental_uris": {"ios": "https://dc.lft.to/lastmile_qr_scan", "android": "https://dc.lft.to/lastmile_qr_scan"}, "is_reserved": 0, "lon": -77.03839183333334, "fusion_lat": 0.0, "name": "be0b478e69dd02c915a14f53cb5644b5"}, {"type": "electric_scooter", "fusion_lon": 0.0, "bike_id": "d28d55b32d7a44c6a2f871707c9ecc73", "is_disabled": 0, "lat": 38.89937, "rental_uris": {"ios": "https://dc.lft.to/lastmile_qr_scan", "android": "https://dc.lft.to/lastmile_qr_scan"}, "is_reserved": 0, "lon": -76.99731033333333, "fusion_lat": 0.0, "name": "d28d55b32d7a44c6a2f871707c9ecc73"}, {"type": "electric_scooter", "fusion_lon": 0.0, "bike_id": "06eea9ed297591fbf53f9c704d3d2563", "is_disabled": 0, "lat": 38.926818833333336, "rental_uris": {"ios": "https://dc.lft.to/lastmile_qr_scan", "android": "https://dc.lft.to/lastmile_qr_scan"}, "is_reserved": 0, "lon": -77.02790316666666, "fusion_lat": 0.0, "name": "06eea9ed297591fbf53f9c704d3d2563"}, {"type": "electric_bike", "fusion_lon": 0.0, "bike_id": "23bb4e2b8e13e8aed2dd779f8a896da9", "is_disabled": 0, "lat": 38.891029333333336, "rental_uris": {"ios": "https://dc.lft.to/lastmile_qr_scan", "android": "https://dc.lft.to/lastmile_qr_scan"}, "is_reserved": 0, "lon": -76.93476683333333, "fusion_lat": 0.0, "name": "23bb4e2b8e13e8aed2dd779f8a896da9"}, {"type": "electric_scooter", "fusion_lon": 0.0, "bike_id": "61019a79094c73e2e887dc8ddec2e492", "is_disabled": 0, "lat": 38.9067625, "rental_uris": {"ios": "https://dc.lft.to/lastmile_qr_scan", "android": "https://dc.lft.to/lastmile_qr_scan"}, "is_reserved": 0, "lon": -77.03481033333334, "fusion_lat": 0.0, "name": "61019a79094c73e2e887dc8ddec2e492"}, {"type": "electric_scooter", "fusion_lon": 0.0, "bike_id": "043313fdccdb03373caec7c958ea39c5", "is_disabled": 0, "lat": 38.94456983333333, "rental_uris": {"ios": "https://dc.lft.to/lastmile_qr_scan", "android": "https://dc.lft.to/lastmile_qr_scan"}, "is_reserved": 0, "lon": -77.0280835, "fusion_lat": 0.0, "name": "043313fdccdb03373caec7c958ea39c5"}, {"type": "electric_scooter", "fusion_lon": 0.0, "bike_id": "611892dd9dfcd7eb4fcf41b2344bb48d", "is_disabled": 0, "lat": 38.9058155, "rental_uris": {"ios": "https://dc.lft.to/lastmile_qr_scan", "android": "https://dc.lft.to/lastmile_qr_scan"}, "is_reserved": 0, "lon": -77.04201966666666, "fusion_lat": 0.0, "name": "611892dd9dfcd7eb4fcf41b2344bb48d"}, {"type": "electric_scooter", "fusion_lon": 0.0, "bike_id": "87ea59fae004117878086c05d722c8a3", "is_disabled": 0, "lat": 38.926286, "rental_uris": {"ios": "https://dc.lft.to/lastmile_qr_scan", "android": "https://dc.lft.to/lastmile_qr_scan"}, "is_reserved": 0, "lon": -77.04189916666667, "fusion_lat": 0.0, "name": "87ea59fae004117878086c05d722c8a3"}, {"type": "electric_scooter", "fusion_lon": 0.0, "bike_id": "be356254f9070aa0ae89aeea9c6407e4", "is_disabled": 0, "lat": 38.90242, "rental_uris": {"ios": "https://dc.lft.to/lastmile_qr_scan", "android": "https://dc.lft.to/lastmile_qr_scan"}, "is_reserved": 0, "lon": -77.03437833333334, "fusion_lat": 0.0, "name": "be356254f9070aa0ae89aeea9c6407e4"}, {"type": "electric_scooter", "fusion_lon": 0.0, "bike_id": "310fd5a7cebbba1b3b6b5ad8ac0c8ed0", "is_disabled": 0, "lat": 38.899796, "rental_uris": {"ios": "https://dc.lft.to/lastmile_qr_scan", "android": "https://dc.lft.to/lastmile_qr_scan"}, "is_reserved": 0, "lon": -76.99486166666667, "fusion_lat": 0.0, "name": "310fd5a7cebbba1b3b6b5ad8ac0c8ed0"}, {"type": "electric_scooter", "fusion_lon": 0.0, "bike_id": "82417865ff1107d8793a0a96b503b3e9", "is_disabled": 0, "lat": 38.88485033333333, "rental_uris": {"ios": "https://dc.lft.to/lastmile_qr_scan", "android": "https://dc.lft.to/lastmile_qr_scan"}, "is_reserved": 0, "lon": -77.02160266666667, "fusion_lat": 0.0, "name": "82417865ff1107d8793a0a96b503b3e9"}, {"type": "electric_scooter", "fusion_lon": 0.0, "bike_id": "e88edf69c731f7ee1f99fa66b72d6a0b", "is_disabled": 0, "lat": 38.928498, "rental_uris": {"ios": "https://dc.lft.to/lastmile_qr_scan", "android": "https://dc.lft.to/lastmile_qr_scan"}, "is_reserved": 0, "lon": -77.03722916666666, "fusion_lat": 0.0, "name": "e88edf69c731f7ee1f99fa66b72d6a0b"}, {"type": "electric_scooter", "fusion_lon": 0.0, "bike_id": "f5fabe99267ab1876e4a7fcc85de2422", "is_disabled": 0, "lat": 38.907311, "rental_uris": {"ios": "https://dc.lft.to/lastmile_qr_scan", "android": "https://dc.lft.to/lastmile_qr_scan"}, "is_reserved": 0, "lon": -77.03187066666666, "fusion_lat": 0.0, "name": "f5fabe99267ab1876e4a7fcc85de2422"}, {"type": "electric_scooter", "fusion_lon": 0.0, "bike_id": "935a4896f13ebd771b538f30cf0956c5", "is_disabled": 0, "lat": 38.90405883333333, "rental_uris": {"ios": "https://dc.lft.to/lastmile_qr_scan", "android": "https://dc.lft.to/lastmile_qr_scan"}, "is_reserved": 0, "lon": -76.97329966666666, "fusion_lat": 0.0, "name": "935a4896f13ebd771b538f30cf0956c5"}, {"type": "electric_scooter", "fusion_lon": 0.0, "bike_id": "9e78c5b46cf4860b15d507b5207f45e7", "is_disabled": 0, "lat": 38.89410066666667, "rental_uris": {"ios": "https://dc.lft.to/lastmile_qr_scan", "android": "https://dc.lft.to/lastmile_qr_scan"}, "is_reserved": 0, "lon": -77.0221295, "fusion_lat": 0.0, "name": "9e78c5b46cf4860b15d507b5207f45e7"}, {"type": "electric_scooter", "fusion_lon": 0.0, "bike_id": "c7457d320a3783abf6fc884300d992c6", "is_disabled": 0, "lat": 38.904982, "rental_uris": {"ios": "https://dc.lft.to/lastmile_qr_scan", "android": "https://dc.lft.to/lastmile_qr_scan"}, "is_reserved": 0, "lon": -77.06113066666667, "fusion_lat": 0.0, "name": "c7457d320a3783abf6fc884300d992c6"}, {"type": "electric_scooter", "fusion_lon": 0.0, "bike_id": "c945c60d42df012aef73efc5a3129dd4", "is_disabled": 0, "lat": 38.837772333333334, "rental_uris": {"ios": "https://dc.lft.to/lastmile_qr_scan", "android": "https://dc.lft.to/lastmile_qr_scan"}, "is_reserved": 0, "lon": -76.99835833333333, "fusion_lat": 0.0, "name": "c945c60d42df012aef73efc5a3129dd4"}, {"type": "electric_scooter", "fusion_lon": 0.0, "bike_id": "a42425e13981bd6839b236db26e2bb2c", "is_disabled": 0, "lat": 38.910518333333336, "rental_uris": {"ios": "https://dc.lft.to/lastmile_qr_scan", "android": "https://dc.lft.to/lastmile_qr_scan"}, "is_reserved": 0, "lon": -77.0501165, "fusion_lat": 0.0, "name": "a42425e13981bd6839b236db26e2bb2c"}, {"type": "electric_scooter", "fusion_lon": 0.0, "bike_id": "11f6890996dc28236678f9dda273d253", "is_disabled": 0, "lat": 38.9103915, "rental_uris": {"ios": "https://dc.lft.to/lastmile_qr_scan", "android": "https://dc.lft.to/lastmile_qr_scan"}, "is_reserved": 0, "lon": -76.9856695, "fusion_lat": 0.0, "name": "11f6890996dc28236678f9dda273d253"}, {"type": "electric_scooter", "fusion_lon": 0.0, "bike_id": "24617dc1753f9b7d2ff2660f05ca5537", "is_disabled": 0, "lat": 38.87573283333333, "rental_uris": {"ios": "https://dc.lft.to/lastmile_qr_scan", "android": "https://dc.lft.to/lastmile_qr_scan"}, "is_reserved": 0, "lon": -77.00600416666667, "fusion_lat": 0.0, "name": "24617dc1753f9b7d2ff2660f05ca5537"}, {"type": "electric_scooter", "fusion_lon": 0.0, "bike_id": "8abc6ed94e5eb89682f054e238efb8d1", "is_disabled": 0, "lat": 38.89237416666667, "rental_uris": {"ios": "https://dc.lft.to/lastmile_qr_scan", "android": "https://dc.lft.to/lastmile_qr_scan"}, "is_reserved": 0, "lon": -77.04675066666667, "fusion_lat": 0.0, "name": "8abc6ed94e5eb89682f054e238efb8d1"}, {"type": "electric_scooter", "fusion_lon": 0.0, "bike_id": "e3a98ba10d1d5640bc5c60fe4e2b1219", "is_disabled": 0, "lat": 38.93788033333333, "rental_uris": {"ios": "https://dc.lft.to/lastmile_qr_scan", "android": "https://dc.lft.to/lastmile_qr_scan"}, "is_reserved": 0, "lon": -77.023284, "fusion_lat": 0.0, "name": "e3a98ba10d1d5640bc5c60fe4e2b1219"}, {"type": "electric_scooter", "fusion_lon": 0.0, "bike_id": "4a118e2a9b3049aa975d74c3bab45e0d", "is_disabled": 0, "lat": 38.92611433333333, "rental_uris": {"ios": "https://dc.lft.to/lastmile_qr_scan", "android": "https://dc.lft.to/lastmile_qr_scan"}, "is_reserved": 0, "lon": -77.02153616666666, "fusion_lat": 0.0, "name": "4a118e2a9b3049aa975d74c3bab45e0d"}, {"type": "electric_scooter", "fusion_lon": 0.0, "bike_id": "e9d1f60103a9760d6f610dd661932265", "is_disabled": 0, "lat": 38.898021666666665, "rental_uris": {"ios": "https://dc.lft.to/lastmile_qr_scan", "android": "https://dc.lft.to/lastmile_qr_scan"}, "is_reserved": 0, "lon": -77.04185166666667, "fusion_lat": 0.0, "name": "e9d1f60103a9760d6f610dd661932265"}, {"type": "electric_scooter", "fusion_lon": 0.0, "bike_id": "ad319ab7a6293515beac57c6925dafe3", "is_disabled": 0, "lat": 38.8901405, "rental_uris": {"ios": "https://dc.lft.to/lastmile_qr_scan", "android": "https://dc.lft.to/lastmile_qr_scan"}, "is_reserved": 0, "lon": -76.93741116666666, "fusion_lat": 0.0, "name": "ad319ab7a6293515beac57c6925dafe3"}, {"type": "electric_scooter", "fusion_lon": 0.0, "bike_id": "f02a7c5eed963063c88b63b01fd58db0", "is_disabled": 0, "lat": 38.925718333333336, "rental_uris": {"ios": "https://dc.lft.to/lastmile_qr_scan", "android": "https://dc.lft.to/lastmile_qr_scan"}, "is_reserved": 0, "lon": -77.0327635, "fusion_lat": 0.0, "name": "f02a7c5eed963063c88b63b01fd58db0"}, {"type": "electric_scooter", "fusion_lon": 0.0, "bike_id": "1367cd0bed43a48111c3147de6f9a84a", "is_disabled": 0, "lat": 38.933060833333336, "rental_uris": {"ios": "https://dc.lft.to/lastmile_qr_scan", "android": "https://dc.lft.to/lastmile_qr_scan"}, "is_reserved": 0, "lon": -77.03262133333334, "fusion_lat": 0.0, "name": "1367cd0bed43a48111c3147de6f9a84a"}, {"type": "electric_scooter", "fusion_lon": 0.0, "bike_id": "f1132ea1ea29d998423e1124571df4ff", "is_disabled": 0, "lat": 38.905124666666666, "rental_uris": {"ios": "https://dc.lft.to/lastmile_qr_scan", "android": "https://dc.lft.to/lastmile_qr_scan"}, "is_reserved": 0, "lon": -77.04963966666666, "fusion_lat": 0.0, "name": "f1132ea1ea29d998423e1124571df4ff"}, {"type": "electric_scooter", "fusion_lon": 0.0, "bike_id": "1354bfcabfb812296c686acd13df6b83", "is_disabled": 0, "lat": 38.90271583333333, "rental_uris": {"ios": "https://dc.lft.to/lastmile_qr_scan", "android": "https://dc.lft.to/lastmile_qr_scan"}, "is_reserved": 0, "lon": -77.03812933333333, "fusion_lat": 0.0, "name": "1354bfcabfb812296c686acd13df6b83"}, {"type": "electric_scooter", "fusion_lon": 0.0, "bike_id": "75ebc4c4c89f9191e1a62f7e341e3a64", "is_disabled": 0, "lat": 38.937157, "rental_uris": {"ios": "https://dc.lft.to/lastmile_qr_scan", "android": "https://dc.lft.to/lastmile_qr_scan"}, "is_reserved": 0, "lon": -77.02461533333333, "fusion_lat": 0.0, "name": "75ebc4c4c89f9191e1a62f7e341e3a64"}, {"type": "electric_scooter", "fusion_lon": 0.0, "bike_id": "222f236646b26ec3c27fc94d4f6913a3", "is_disabled": 0, "lat": 38.91691516666667, "rental_uris": {"ios": "https://dc.lft.to/lastmile_qr_scan", "android": "https://dc.lft.to/lastmile_qr_scan"}, "is_reserved": 0, "lon": -77.035071, "fusion_lat": 0.0, "name": "222f236646b26ec3c27fc94d4f6913a3"}, {"type": "electric_scooter", "fusion_lon": 0.0, "bike_id": "e6e09653a5a2d9abb5a1b58b10e483cd", "is_disabled": 0, "lat": 38.907528, "rental_uris": {"ios": "https://dc.lft.to/lastmile_qr_scan", "android": "https://dc.lft.to/lastmile_qr_scan"}, "is_reserved": 0, "lon": -77.03580466666666, "fusion_lat": 0.0, "name": "e6e09653a5a2d9abb5a1b58b10e483cd"}, {"type": "electric_scooter", "fusion_lon": 0.0, "bike_id": "201f4331485f4be42d27b19dcba2e938", "is_disabled": 0, "lat": 38.915568, "rental_uris": {"ios": "https://dc.lft.to/lastmile_qr_scan", "android": "https://dc.lft.to/lastmile_qr_scan"}, "is_reserved": 0, "lon": -77.02056216666666, "fusion_lat": 0.0, "name": "201f4331485f4be42d27b19dcba2e938"}, {"type": "electric_scooter", "fusion_lon": 0.0, "bike_id": "b2dc0310b0ed96f63c213f48ec327fc1", "is_disabled": 0, "lat": 38.8960665, "rental_uris": {"ios": "https://dc.lft.to/lastmile_qr_scan", "android": "https://dc.lft.to/lastmile_qr_scan"}, "is_reserved": 0, "lon": -77.045578, "fusion_lat": 0.0, "name": "b2dc0310b0ed96f63c213f48ec327fc1"}, {"type": "electric_scooter", "fusion_lon": 0.0, "bike_id": "ba55cbb9fc178d82b9102dd69198532b", "is_disabled": 0, "lat": 38.933259, "rental_uris": {"ios": "https://dc.lft.to/lastmile_qr_scan", "android": "https://dc.lft.to/lastmile_qr_scan"}, "is_reserved": 0, "lon": -77.0302435, "fusion_lat": 0.0, "name": "ba55cbb9fc178d82b9102dd69198532b"}, {"type": "electric_scooter", "fusion_lon": 0.0, "bike_id": "ad5088ee1abf087fe0a1ea7cb29a89d3", "is_disabled": 0, "lat": 38.913979499999996, "rental_uris": {"ios": "https://dc.lft.to/lastmile_qr_scan", "android": "https://dc.lft.to/lastmile_qr_scan"}, "is_reserved": 0, "lon": -77.06419566666666, "fusion_lat": 0.0, "name": "ad5088ee1abf087fe0a1ea7cb29a89d3"}, {"type": "electric_scooter", "fusion_lon": 0.0, "bike_id": "869b1f86f69c99e7d15e0487553234bd", "is_disabled": 0, "lat": 38.893812, "rental_uris": {"ios": "https://dc.lft.to/lastmile_qr_scan", "android": "https://dc.lft.to/lastmile_qr_scan"}, "is_reserved": 0, "lon": -77.05566033333334, "fusion_lat": 0.0, "name": "869b1f86f69c99e7d15e0487553234bd"}, {"type": "electric_scooter", "fusion_lon": 0.0, "bike_id": "41b88f0e3a52540440cb4078c29a3ca3", "is_disabled": 0, "lat": 38.87700483333333, "rental_uris": {"ios": "https://dc.lft.to/lastmile_qr_scan", "android": "https://dc.lft.to/lastmile_qr_scan"}, "is_reserved": 0, "lon": -77.01762716666667, "fusion_lat": 0.0, "name": "41b88f0e3a52540440cb4078c29a3ca3"}, {"type": "electric_scooter", "fusion_lon": 0.0, "bike_id": "9661b158e6ede5c564dd8f36937291c1", "is_disabled": 0, "lat": 38.902793833333334, "rental_uris": {"ios": "https://dc.lft.to/lastmile_qr_scan", "android": "https://dc.lft.to/lastmile_qr_scan"}, "is_reserved": 0, "lon": -77.045133, "fusion_lat": 0.0, "name": "9661b158e6ede5c564dd8f36937291c1"}, {"type": "electric_scooter", "fusion_lon": 0.0, "bike_id": "cced7b3a3860d1b5b6694bc7dc5f9c98", "is_disabled": 0, "lat": 38.905490666666665, "rental_uris": {"ios": "https://dc.lft.to/lastmile_qr_scan", "android": "https://dc.lft.to/lastmile_qr_scan"}, "is_reserved": 0, "lon": -77.03237966666667, "fusion_lat": 0.0, "name": "cced7b3a3860d1b5b6694bc7dc5f9c98"}, {"type": "electric_scooter", "fusion_lon": 0.0, "bike_id": "4892cdb9f3c08fd281cf46fb08b7ef6b", "is_disabled": 0, "lat": 38.90023333333333, "rental_uris": {"ios": "https://dc.lft.to/lastmile_qr_scan", "android": "https://dc.lft.to/lastmile_qr_scan"}, "is_reserved": 0, "lon": -77.037172, "fusion_lat": 0.0, "name": "4892cdb9f3c08fd281cf46fb08b7ef6b"}, {"type": "electric_scooter", "fusion_lon": 0.0, "bike_id": "b5957f545eb7eda82a6333f3f6dcc4d0", "is_disabled": 0, "lat": 38.893414666666665, "rental_uris": {"ios": "https://dc.lft.to/lastmile_qr_scan", "android": "https://dc.lft.to/lastmile_qr_scan"}, "is_reserved": 0, "lon": -76.9915755, "fusion_lat": 0.0, "name": "b5957f545eb7eda82a6333f3f6dcc4d0"}, {"type": "electric_scooter", "fusion_lon": 0.0, "bike_id": "48d6c34de3cce7d7e834f39c0d9e7c44", "is_disabled": 0, "lat": 38.98434066666667, "rental_uris": {"ios": "https://dc.lft.to/lastmile_qr_scan", "android": "https://dc.lft.to/lastmile_qr_scan"}, "is_reserved": 0, "lon": -77.02675616666667, "fusion_lat": 0.0, "name": "48d6c34de3cce7d7e834f39c0d9e7c44"}, {"type": "electric_scooter", "fusion_lon": 0.0, "bike_id": "adfa0c26adf6542b4a84207b01b6c8f5", "is_disabled": 0, "lat": 38.89225716666667, "rental_uris": {"ios": "https://dc.lft.to/lastmile_qr_scan", "android": "https://dc.lft.to/lastmile_qr_scan"}, "is_reserved": 0, "lon": -77.04864783333333, "fusion_lat": 0.0, "name": "adfa0c26adf6542b4a84207b01b6c8f5"}, {"type": "electric_scooter", "fusion_lon": 0.0, "bike_id": "7b6560d445a5c5993b84573648544a64", "is_disabled": 0, "lat": 38.907627, "rental_uris": {"ios": "https://dc.lft.to/lastmile_qr_scan", "android": "https://dc.lft.to/lastmile_qr_scan"}, "is_reserved": 0, "lon": -77.003351, "fusion_lat": 0.0, "name": "7b6560d445a5c5993b84573648544a64"}, {"type": "electric_scooter", "fusion_lon": 0.0, "bike_id": "48eef1f060d417fa71e053eac8514194", "is_disabled": 0, "lat": 38.93736666666667, "rental_uris": {"ios": "https://dc.lft.to/lastmile_qr_scan", "android": "https://dc.lft.to/lastmile_qr_scan"}, "is_reserved": 0, "lon": -77.06863733333333, "fusion_lat": 0.0, "name": "48eef1f060d417fa71e053eac8514194"}, {"type": "electric_scooter", "fusion_lon": 0.0, "bike_id": "074075b8a1adb24c14daf9c2649128ae", "is_disabled": 0, "lat": 38.866645166666665, "rental_uris": {"ios": "https://dc.lft.to/lastmile_qr_scan", "android": "https://dc.lft.to/lastmile_qr_scan"}, "is_reserved": 0, "lon": -76.98369166666667, "fusion_lat": 0.0, "name": "074075b8a1adb24c14daf9c2649128ae"}, {"type": "electric_scooter", "fusion_lon": 0.0, "bike_id": "46a3b54ffd5c54522dd1d14ce9a165bb", "is_disabled": 0, "lat": 38.90317316666667, "rental_uris": {"ios": "https://dc.lft.to/lastmile_qr_scan", "android": "https://dc.lft.to/lastmile_qr_scan"}, "is_reserved": 0, "lon": -77.0500825, "fusion_lat": 0.0, "name": "46a3b54ffd5c54522dd1d14ce9a165bb"}, {"type": "electric_scooter", "fusion_lon": 0.0, "bike_id": "4be0fe12e3239e8083a4c8458e696b02", "is_disabled": 0, "lat": 38.9097435, "rental_uris": {"ios": "https://dc.lft.to/lastmile_qr_scan", "android": "https://dc.lft.to/lastmile_qr_scan"}, "is_reserved": 0, "lon": -77.03844716666667, "fusion_lat": 0.0, "name": "4be0fe12e3239e8083a4c8458e696b02"}, {"type": "electric_scooter", "fusion_lon": 0.0, "bike_id": "d747e69f55807642fce0863591b919ec", "is_disabled": 0, "lat": 38.94193966666667, "rental_uris": {"ios": "https://dc.lft.to/lastmile_qr_scan", "android": "https://dc.lft.to/lastmile_qr_scan"}, "is_reserved": 0, "lon": -77.033242, "fusion_lat": 0.0, "name": "d747e69f55807642fce0863591b919ec"}, {"type": "electric_scooter", "fusion_lon": 0.0, "bike_id": "78b470a743f5c55e64f47c4136c21573", "is_disabled": 0, "lat": 38.910519, "rental_uris": {"ios": "https://dc.lft.to/lastmile_qr_scan", "android": "https://dc.lft.to/lastmile_qr_scan"}, "is_reserved": 0, "lon": -77.04353666666667, "fusion_lat": 0.0, "name": "78b470a743f5c55e64f47c4136c21573"}, {"type": "electric_scooter", "fusion_lon": 0.0, "bike_id": "9fefb02740650854808c267c04e33266", "is_disabled": 0, "lat": 38.90321633333333, "rental_uris": {"ios": "https://dc.lft.to/lastmile_qr_scan", "android": "https://dc.lft.to/lastmile_qr_scan"}, "is_reserved": 0, "lon": -77.0516925, "fusion_lat": 0.0, "name": "9fefb02740650854808c267c04e33266"}, {"type": "electric_scooter", "fusion_lon": 0.0, "bike_id": "24359945fd39afda385c48698654bba8", "is_disabled": 0, "lat": 38.938938666666665, "rental_uris": {"ios": "https://dc.lft.to/lastmile_qr_scan", "android": "https://dc.lft.to/lastmile_qr_scan"}, "is_reserved": 0, "lon": -77.02485383333334, "fusion_lat": 0.0, "name": "24359945fd39afda385c48698654bba8"}, {"type": "electric_scooter", "fusion_lon": 0.0, "bike_id": "f9059b1b833fff0916a03da7f4e61d68", "is_disabled": 0, "lat": 38.8765365, "rental_uris": {"ios": "https://dc.lft.to/lastmile_qr_scan", "android": "https://dc.lft.to/lastmile_qr_scan"}, "is_reserved": 0, "lon": -77.00318366666667, "fusion_lat": 0.0, "name": "f9059b1b833fff0916a03da7f4e61d68"}, {"type": "electric_scooter", "fusion_lon": 0.0, "bike_id": "f5f3d45d8ab3c140ea8c9f62a11a1bfa", "is_disabled": 0, "lat": 38.914123333333336, "rental_uris": {"ios": "https://dc.lft.to/lastmile_qr_scan", "android": "https://dc.lft.to/lastmile_qr_scan"}, "is_reserved": 0, "lon": -77.04151733333333, "fusion_lat": 0.0, "name": "f5f3d45d8ab3c140ea8c9f62a11a1bfa"}, {"type": "electric_bike", "fusion_lon": 0.0, "bike_id": "25884a5372122a3c29b078694c609aee", "is_disabled": 0, "lat": 38.89556133333333, "rental_uris": {"ios": "https://dc.lft.to/lastmile_qr_scan", "android": "https://dc.lft.to/lastmile_qr_scan"}, "is_reserved": 0, "lon": -77.1273705, "fusion_lat": 0.0, "name": "25884a5372122a3c29b078694c609aee"}, {"type": "electric_scooter", "fusion_lon": 0.0, "bike_id": "b1cbf5091514f3347df9b627c1d0093e", "is_disabled": 0, "lat": 38.887410833333334, "rental_uris": {"ios": "https://dc.lft.to/lastmile_qr_scan", "android": "https://dc.lft.to/lastmile_qr_scan"}, "is_reserved": 0, "lon": -77.01528466666667, "fusion_lat": 0.0, "name": "b1cbf5091514f3347df9b627c1d0093e"}, {"type": "electric_scooter", "fusion_lon": 0.0, "bike_id": "d4aebf28dfad8c8e6e2aecdf4fbcca8e", "is_disabled": 0, "lat": 38.899130666666665, "rental_uris": {"ios": "https://dc.lft.to/lastmile_qr_scan", "android": "https://dc.lft.to/lastmile_qr_scan"}, "is_reserved": 0, "lon": -76.93380983333333, "fusion_lat": 0.0, "name": "d4aebf28dfad8c8e6e2aecdf4fbcca8e"}, {"type": "electric_scooter", "fusion_lon": 0.0, "bike_id": "23d9ef305fd7c6a2fd84b0bb6270f94a", "is_disabled": 0, "lat": 38.90556566666667, "rental_uris": {"ios": "https://dc.lft.to/lastmile_qr_scan", "android": "https://dc.lft.to/lastmile_qr_scan"}, "is_reserved": 0, "lon": -77.029642, "fusion_lat": 0.0, "name": "23d9ef305fd7c6a2fd84b0bb6270f94a"}, {"type": "electric_scooter", "fusion_lon": 0.0, "bike_id": "c1266edb292ca9ad884ae7b04391e6b9", "is_disabled": 0, "lat": 38.9207775, "rental_uris": {"ios": "https://dc.lft.to/lastmile_qr_scan", "android": "https://dc.lft.to/lastmile_qr_scan"}, "is_reserved": 0, "lon": -77.03804583333333, "fusion_lat": 0.0, "name": "c1266edb292ca9ad884ae7b04391e6b9"}, {"type": "electric_scooter", "fusion_lon": 0.0, "bike_id": "08549c0b1209a59d8cecda3ec42b3887", "is_disabled": 0, "lat": 38.91973433333333, "rental_uris": {"ios": "https://dc.lft.to/lastmile_qr_scan", "android": "https://dc.lft.to/lastmile_qr_scan"}, "is_reserved": 0, "lon": -77.02177516666667, "fusion_lat": 0.0, "name": "08549c0b1209a59d8cecda3ec42b3887"}, {"type": "electric_scooter", "fusion_lon": 0.0, "bike_id": "1806bfc276ab1caa8124b1e1430ece2f", "is_disabled": 0, "lat": 38.87707566666667, "rental_uris": {"ios": "https://dc.lft.to/lastmile_qr_scan", "android": "https://dc.lft.to/lastmile_qr_scan"}, "is_reserved": 0, "lon": -77.017557, "fusion_lat": 0.0, "name": "1806bfc276ab1caa8124b1e1430ece2f"}, {"type": "electric_scooter", "fusion_lon": 0.0, "bike_id": "d3c9d6ae3a4761b71edfce4ef1dfeebb", "is_disabled": 0, "lat": 38.920147666666665, "rental_uris": {"ios": "https://dc.lft.to/lastmile_qr_scan", "android": "https://dc.lft.to/lastmile_qr_scan"}, "is_reserved": 0, "lon": -77.04191316666666, "fusion_lat": 0.0, "name": "d3c9d6ae3a4761b71edfce4ef1dfeebb"}, {"type": "electric_scooter", "fusion_lon": 0.0, "bike_id": "2ec46f8258031d41f59861737edd8aaf", "is_disabled": 0, "lat": 38.921049333333336, "rental_uris": {"ios": "https://dc.lft.to/lastmile_qr_scan", "android": "https://dc.lft.to/lastmile_qr_scan"}, "is_reserved": 0, "lon": -77.017561, "fusion_lat": 0.0, "name": "2ec46f8258031d41f59861737edd8aaf"}, {"type": "electric_scooter", "fusion_lon": 0.0, "bike_id": "f3df65f4e7d7a2454785f118cd168494", "is_disabled": 0, "lat": 38.9445415, "rental_uris": {"ios": "https://dc.lft.to/lastmile_qr_scan", "android": "https://dc.lft.to/lastmile_qr_scan"}, "is_reserved": 0, "lon": -77.02804183333333, "fusion_lat": 0.0, "name": "f3df65f4e7d7a2454785f118cd168494"}, {"type": "electric_scooter", "fusion_lon": 0.0, "bike_id": "f08a500ee4cd8eb2fa8ce521dd67d03b", "is_disabled": 0, "lat": 38.90360866666666, "rental_uris": {"ios": "https://dc.lft.to/lastmile_qr_scan", "android": "https://dc.lft.to/lastmile_qr_scan"}, "is_reserved": 0, "lon": -77.066877, "fusion_lat": 0.0, "name": "f08a500ee4cd8eb2fa8ce521dd67d03b"}, {"type": "electric_scooter", "fusion_lon": 0.0, "bike_id": "601e7b57880534e2a890a23c9de76704", "is_disabled": 0, "lat": 38.89485783333333, "rental_uris": {"ios": "https://dc.lft.to/lastmile_qr_scan", "android": "https://dc.lft.to/lastmile_qr_scan"}, "is_reserved": 0, "lon": -77.02776466666667, "fusion_lat": 0.0, "name": "601e7b57880534e2a890a23c9de76704"}, {"type": "electric_scooter", "fusion_lon": 0.0, "bike_id": "6d6e6d1189af42dbdaf8ecdd45f6e9a8", "is_disabled": 0, "lat": 38.924692666666665, "rental_uris": {"ios": "https://dc.lft.to/lastmile_qr_scan", "android": "https://dc.lft.to/lastmile_qr_scan"}, "is_reserved": 0, "lon": -77.03064033333334, "fusion_lat": 0.0, "name": "6d6e6d1189af42dbdaf8ecdd45f6e9a8"}, {"type": "electric_scooter", "fusion_lon": 0.0, "bike_id": "815f2619fa4d7c34e2fd8d431c5e28ee", "is_disabled": 0, "lat": 38.86267133333333, "rental_uris": {"ios": "https://dc.lft.to/lastmile_qr_scan", "android": "https://dc.lft.to/lastmile_qr_scan"}, "is_reserved": 0, "lon": -76.99570233333333, "fusion_lat": 0.0, "name": "815f2619fa4d7c34e2fd8d431c5e28ee"}, {"type": "electric_scooter", "fusion_lon": 0.0, "bike_id": "85f7e7892be734c6715e77b07739b9d8", "is_disabled": 0, "lat": 38.900112666666665, "rental_uris": {"ios": "https://dc.lft.to/lastmile_qr_scan", "android": "https://dc.lft.to/lastmile_qr_scan"}, "is_reserved": 0, "lon": -76.9889065, "fusion_lat": 0.0, "name": "85f7e7892be734c6715e77b07739b9d8"}, {"type": "electric_scooter", "fusion_lon": 0.0, "bike_id": "ece6643230881bf86dc38589a465711e", "is_disabled": 0, "lat": 38.86496433333333, "rental_uris": {"ios": "https://dc.lft.to/lastmile_qr_scan", "android": "https://dc.lft.to/lastmile_qr_scan"}, "is_reserved": 0, "lon": -76.98982716666667, "fusion_lat": 0.0, "name": "ece6643230881bf86dc38589a465711e"}, {"type": "electric_scooter", "fusion_lon": 0.0, "bike_id": "edceec6d323b5d29452cda902097c03e", "is_disabled": 0, "lat": 38.92226933333333, "rental_uris": {"ios": "https://dc.lft.to/lastmile_qr_scan", "android": "https://dc.lft.to/lastmile_qr_scan"}, "is_reserved": 0, "lon": -77.04710816666666, "fusion_lat": 0.0, "name": "edceec6d323b5d29452cda902097c03e"}, {"type": "electric_scooter", "fusion_lon": 0.0, "bike_id": "cb1fc150ff61b46c3b05fea38c09bb00", "is_disabled": 0, "lat": 38.9041825, "rental_uris": {"ios": "https://dc.lft.to/lastmile_qr_scan", "android": "https://dc.lft.to/lastmile_qr_scan"}, "is_reserved": 0, "lon": -76.9732755, "fusion_lat": 0.0, "name": "cb1fc150ff61b46c3b05fea38c09bb00"}, {"type": "electric_scooter", "fusion_lon": 0.0, "bike_id": "f5d03c23c9f30a079a09006a8ba1d494", "is_disabled": 0, "lat": 38.91731216666667, "rental_uris": {"ios": "https://dc.lft.to/lastmile_qr_scan", "android": "https://dc.lft.to/lastmile_qr_scan"}, "is_reserved": 0, "lon": -77.06945233333333, "fusion_lat": 0.0, "name": "f5d03c23c9f30a079a09006a8ba1d494"}, {"type": "electric_scooter", "fusion_lon": 0.0, "bike_id": "fafc2a360cc27b6474e2daf7c3492000", "is_disabled": 0, "lat": 38.900448, "rental_uris": {"ios": "https://dc.lft.to/lastmile_qr_scan", "android": "https://dc.lft.to/lastmile_qr_scan"}, "is_reserved": 0, "lon": -76.99840183333333, "fusion_lat": 0.0, "name": "fafc2a360cc27b6474e2daf7c3492000"}, {"type": "electric_scooter", "fusion_lon": 0.0, "bike_id": "db7297e1c087cb421bf6818632b2a112", "is_disabled": 0, "lat": 38.883958, "rental_uris": {"ios": "https://dc.lft.to/lastmile_qr_scan", "android": "https://dc.lft.to/lastmile_qr_scan"}, "is_reserved": 0, "lon": -77.02938716666667, "fusion_lat": 0.0, "name": "db7297e1c087cb421bf6818632b2a112"}, {"type": "electric_scooter", "fusion_lon": 0.0, "bike_id": "a6724e9cf081629982208b02c73ce737", "is_disabled": 0, "lat": 38.92258733333333, "rental_uris": {"ios": "https://dc.lft.to/lastmile_qr_scan", "android": "https://dc.lft.to/lastmile_qr_scan"}, "is_reserved": 0, "lon": -77.01822166666666, "fusion_lat": 0.0, "name": "a6724e9cf081629982208b02c73ce737"}, {"type": "electric_scooter", "fusion_lon": 0.0, "bike_id": "7abf9be46f1089ee91c88ff1083530da", "is_disabled": 0, "lat": 38.88540016666666, "rental_uris": {"ios": "https://dc.lft.to/lastmile_qr_scan", "android": "https://dc.lft.to/lastmile_qr_scan"}, "is_reserved": 0, "lon": -77.01100483333333, "fusion_lat": 0.0, "name": "7abf9be46f1089ee91c88ff1083530da"}, {"type": "electric_bike", "fusion_lon": 0.0, "bike_id": "6957afbe3c65c8798809be3ceacab06a", "is_disabled": 0, "lat": 38.902441, "rental_uris": {"ios": "https://dc.lft.to/lastmile_qr_scan", "android": "https://dc.lft.to/lastmile_qr_scan"}, "is_reserved": 0, "lon": -77.04735433333333, "fusion_lat": 0.0, "name": "6957afbe3c65c8798809be3ceacab06a"}, {"type": "electric_scooter", "fusion_lon": 0.0, "bike_id": "989560954551be5de7bf4b9d65651743", "is_disabled": 0, "lat": 38.88730983333333, "rental_uris": {"ios": "https://dc.lft.to/lastmile_qr_scan", "android": "https://dc.lft.to/lastmile_qr_scan"}, "is_reserved": 0, "lon": -77.03174066666666, "fusion_lat": 0.0, "name": "989560954551be5de7bf4b9d65651743"}, {"type": "electric_scooter", "fusion_lon": 0.0, "bike_id": "6a6bd0035f12bdbd8eb1e08d77698de9", "is_disabled": 0, "lat": 38.90581533333334, "rental_uris": {"ios": "https://dc.lft.to/lastmile_qr_scan", "android": "https://dc.lft.to/lastmile_qr_scan"}, "is_reserved": 0, "lon": -77.00666033333333, "fusion_lat": 0.0, "name": "6a6bd0035f12bdbd8eb1e08d77698de9"}, {"type": "electric_scooter", "fusion_lon": 0.0, "bike_id": "8025d4aedc81d284aef42713be5ee4d8", "is_disabled": 0, "lat": 38.927034, "rental_uris": {"ios": "https://dc.lft.to/lastmile_qr_scan", "android": "https://dc.lft.to/lastmile_qr_scan"}, "is_reserved": 0, "lon": -77.03759716666667, "fusion_lat": 0.0, "name": "8025d4aedc81d284aef42713be5ee4d8"}, {"type": "electric_scooter", "fusion_lon": 0.0, "bike_id": "f91cd1cb418ac4521a86475ef3d90c89", "is_disabled": 0, "lat": 38.933264, "rental_uris": {"ios": "https://dc.lft.to/lastmile_qr_scan", "android": "https://dc.lft.to/lastmile_qr_scan"}, "is_reserved": 0, "lon": -77.032664, "fusion_lat": 0.0, "name": "f91cd1cb418ac4521a86475ef3d90c89"}, {"type": "electric_scooter", "fusion_lon": 0.0, "bike_id": "b6f0d2c396d6d50a96fe3688961dbfa2", "is_disabled": 0, "lat": 38.8947035, "rental_uris": {"ios": "https://dc.lft.to/lastmile_qr_scan", "android": "https://dc.lft.to/lastmile_qr_scan"}, "is_reserved": 0, "lon": -76.949602, "fusion_lat": 0.0, "name": "b6f0d2c396d6d50a96fe3688961dbfa2"}, {"type": "electric_bike", "fusion_lon": 0.0, "bike_id": "b39c62693e85723774309e512d3b1660", "is_disabled": 0, "lat": 38.88267316666666, "rental_uris": {"ios": "https://dc.lft.to/lastmile_qr_scan", "android": "https://dc.lft.to/lastmile_qr_scan"}, "is_reserved": 0, "lon": -77.22822683333334, "fusion_lat": 0.0, "name": "b39c62693e85723774309e512d3b1660"}, {"type": "electric_scooter", "fusion_lon": 0.0, "bike_id": "c454c356d675ccc01a2778873a2a5b3b", "is_disabled": 0, "lat": 38.89288716666667, "rental_uris": {"ios": "https://dc.lft.to/lastmile_qr_scan", "android": "https://dc.lft.to/lastmile_qr_scan"}, "is_reserved": 0, "lon": -77.02107183333334, "fusion_lat": 0.0, "name": "c454c356d675ccc01a2778873a2a5b3b"}, {"type": "electric_scooter", "fusion_lon": 0.0, "bike_id": "44ed72d70159a96e6458bc21dd59ab65", "is_disabled": 0, "lat": 38.90472783333333, "rental_uris": {"ios": "https://dc.lft.to/lastmile_qr_scan", "android": "https://dc.lft.to/lastmile_qr_scan"}, "is_reserved": 0, "lon": -77.035513, "fusion_lat": 0.0, "name": "44ed72d70159a96e6458bc21dd59ab65"},