{"data": {"bikes": [{"fusion_lat": 0.0, "name": "8332ccfaab0209de3594bc76bd8a212d", "is_disabled": 0, "rental_uris": {"android": "https://dc.lft.to/lastmile_qr_scan", "ios": "https://dc.lft.to/lastmile_qr_scan"}, "fusion_lon": 0.0, "lat": 38.92152883333333, "bike_id": "8332ccfaab0209de3594bc76bd8a212d", "type": "electric_scooter", "is_reserved": 0, "lon": -77.04239216666667}, {"fusion_lat": 0.0, "name": "0093bb236a4187f430fd12e10017fabb", "is_disabled": 0, "rental_uris": {"android": "https://dc.lft.to/lastmile_qr_scan", "ios": "https://dc.lft.to/lastmile_qr_scan"}, "fusion_lon": 0.0, "lat": 38.92063183333333, "bike_id": "0093bb236a4187f430fd12e10017fabb", "type": "electric_bike", "is_reserved": 0, "lon": -77.239545}, {"fusion_lat": 0.0, "name": "0f8aee1afd7f2a8843fbe5b3047c05f1", "is_disabled": 0, "rental_uris": {"android": "https://dc.lft.to/lastmile_qr_scan", "ios": "https://dc.lft.to/lastmile_qr_scan"}, "fusion_lon": 0.0, "lat": 38.905665166666665, "bike_id": "0f8aee1afd7f2a8843fbe5b3047c05f1", "type": "electric_scooter", "is_reserved": 0, "lon": -77.0240745}, {"fusion_lat": 0.0, "name": "1f918439add300b7f766a621518590fd", "is_disabled": 0, "rental_uris": {"android": "https://dc.lft.to/lastmile_qr_scan", "ios": "https://dc.lft.to/lastmile_qr_scan"}, "fusion_lon": 0.0, "lat": 38.91168583333334, "bike_id": "1f918439add300b7f766a621518590fd", "type": "electric_scooter", "is_reserved": 0, "lon": -77.0317905}, {"fusion_lat": 0.0, "name": "cabd2a0e9dba1250b511413f6e1a7151", "is_disabled": 0, "rental_uris": {"android": "https://dc.lft.to/lastmile_qr_scan", "ios": "https://dc.lft.to/lastmile_qr_scan"}, "fusion_lon": 0.0, "lat": 38.8985625, "bike_id": "cabd2a0e9dba1250b511413f6e1a7151", "type": "electric_scooter", "is_reserved": 0, "lon": -76.9504755}, {"fusion_lat": 0.0, "name": "a4132c67126d0be0deafc47cec6b85c1", "is_disabled": 0, "rental_uris": {"android": "https://dc.lft.to/lastmile_qr_scan", "ios": "https://dc.lft.to/lastmile_qr_scan"}, "fusion_lon": 0.0, "lat": 38.891682, "bike_id": "a4132c67126d0be0deafc47cec6b85c1", "type": "electric_scooter", "is_reserved": 0, "lon": -76.9994325}, {"fusion_lat": 0.0, "name": "26e333eccb030f7d27433e7f127d5d55", "is_disabled": 0, "rental_uris": {"android": "https://dc.lft.to/lastmile_qr_scan", "ios": "https://dc.lft.to/lastmile_qr_scan"}, "fusion_lon": 0.0, "lat": 38.8999235, "bike_id": "26e333eccb030f7d27433e7f127d5d55", "type": "electric_scooter", "is_reserved": 0, "lon": -77.02707716666667}, {"fusion_lat": 0.0, "name": "77089127e81accd03a9a5968b76da364", "is_disabled": 0, "rental_uris": {"android": "https://dc.lft.to/lastmile_qr_scan", "ios": "https://dc.lft.to/lastmile_qr_scan"}, "fusion_lon": 0.0, "lat": 38.93600133333333, "bike_id": "77089127e81accd03a9a5968b76da364", "type": "electric_scooter", "is_reserved": 0, "lon": -77.03536916666667}, {"fusion_lat": 0.0, "name": "60cfc70d4af36ad29c7f6f4c929d890a", "is_disabled": 0, "rental_uris": {"android": "https://dc.lft.to/lastmile_qr_scan", "ios": "https://dc.lft.to/lastmile_qr_scan"}, "fusion_lon": 0.0, "lat": 38.892228833333334, "bike_id": "60cfc70d4af36ad29c7f6f4c929d890a", "type": "electric_scooter", "is_reserved": 0, "lon": -77.0480535}, {"fusion_lat": 0.0, "name": "172d23c71708797954a8596a5d2193d0", "is_disabled": 0, "rental_uris": {"android": "https://dc.lft.to/lastmile_qr_scan", "ios": "https://dc.lft.to/lastmile_qr_scan"}, "fusion_lon": 0.0, "lat": 38.892171166666664, "bike_id": "172d23c71708797954a8596a5d2193d0", "type": "electric_scooter", "is_reserved": 0, "lon": -77.02506216666667}, {"fusion_lat": 0.0, "name": "c723bf6c273e74b461d1402924697e21", "is_disabled": 0, "rental_uris": {"android": "https://dc.lft.to/lastmile_qr_scan", "ios": "https://dc.lft.to/lastmile_qr_scan"}, "fusion_lon": 0.0, "lat": 38.90951166666667, "bike_id": "c723bf6c273e74b461d1402924697e21", "type": "electric_scooter", "is_reserved": 0, "lon": -77.01885783333333}, {"fusion_lat": 0.0, "name": "3de2bd626a405cf24ef25ff537694f2e", "is_disabled": 0, "rental_uris": {"android": "https://dc.lft.to/lastmile_qr_scan", "ios": "https://dc.lft.to/lastmile_qr_scan"}, "fusion_lon": 0.0, "lat": 38.920794666666666, "bike_id": "3de2bd626a405cf24ef25ff537694f2e", "type": "electric_scooter", "is_reserved": 0, "lon": -77.01395916666667}, {"fusion_lat": 0.0, "name": "6d503fb64b225583c6df52fc639e3a90", "is_disabled": 0, "rental_uris": {"android": "https://dc.lft.to/lastmile_qr_scan", "ios": "https://dc.lft.to/lastmile_qr_scan"}, "fusion_lon": 0.0, "lat": 38.82999733333333, "bike_id": "6d503fb64b225583c6df52fc639e3a90", "type": "electric_scooter", "is_reserved": 0, "lon": -76.9901755}, {"fusion_lat": 0.0, "name": "1f965ccbcb31020c8e2a13e9019b9773", "is_disabled": 0, "rental_uris": {"android": "https://dc.lft.to/lastmile_qr_scan", "ios": "https://dc.lft.to/lastmile_qr_scan"}, "fusion_lon": 0.0, "lat": 38.90088216666667, "bike_id": "1f965ccbcb31020c8e2a13e9019b9773", "type": "electric_scooter", "is_reserved": 0, "lon": -76.98331816666666}, {"fusion_lat": 0.0, "name": "af8a6ae8ac7aa1ec92c2a485b04948e7", "is_disabled": 0, "rental_uris": {"android": "https://dc.lft.to/lastmile_qr_scan", "ios": "https://dc.lft.to/lastmile_qr_scan"}, "fusion_lon": 0.0, "lat": 38.93466683333333, "bike_id": "af8a6ae8ac7aa1ec92c2a485b04948e7", "type": "electric_scooter", "is_reserved": 0, "lon": -77.07215316666667}, {"fusion_lat": 0.0, "name": "08ba563906bfcccafa6ad5187705bfaf", "is_disabled": 0, "rental_uris": {"android": "https://dc.lft.to/lastmile_qr_scan", "ios": "https://dc.lft.to/lastmile_qr_scan"}, "fusion_lon": 0.0, "lat": 38.901489166666664, "bike_id": "08ba563906bfcccafa6ad5187705bfaf", "type": "electric_scooter", "is_reserved": 0, "lon": -77.041744}, {"fusion_lat": 0.0, "name": "2f16455b870327360937da66d0ee59d5", "is_disabled": 0, "rental_uris": {"android": "https://dc.lft.to/lastmile_qr_scan", "ios": "https://dc.lft.to/lastmile_qr_scan"}, "fusion_lon": 0.0, "lat": 38.9112855, "bike_id": "2f16455b870327360937da66d0ee59d5", "type": "electric_scooter", "is_reserved": 0, "lon": -77.05271483333334}, {"fusion_lat": 0.0, "name": "3fe1da5b6dc59b4b51afbba7dcdb3f15", "is_disabled": 0, "rental_uris": {"android": "https://dc.lft.to/lastmile_qr_scan", "ios": "https://dc.lft.to/lastmile_qr_scan"}, "fusion_lon": 0.0, "lat": 38.893159833333335, "bike_id": "3fe1da5b6dc59b4b51afbba7dcdb3f15", "type": "electric_scooter", "is_reserved": 0, "lon": -77.032141}, {"fusion_lat": 0.0, "name": "f25b473df2ede3764e75f619caf63068", "is_disabled": 0, "rental_uris": {"android": "https://dc.lft.to/lastmile_qr_scan", "ios": "https://dc.lft.to/lastmile_qr_scan"}, "fusion_lon": 0.0, "lat": 38.892203, "bike_id": "f25b473df2ede3764e75f619caf63068", "type": "electric_scooter", "is_reserved": 0, "lon": -77.04867483333334}, {"fusion_lat": 0.0, "name": "6a5234877e0f1de14339cb67c8195f13", "is_disabled": 0, "rental_uris": {"android": "https://dc.lft.to/lastmile_qr_scan", "ios": "https://dc.lft.to/lastmile_qr_scan"}, "fusion_lon": 0.0, "lat": 38.90019266666667, "bike_id": "6a5234877e0f1de14339cb67c8195f13", "type": "electric_scooter", "is_reserved": 0, "lon": -76.9881585}, {"fusion_lat": 0.0, "name": "bd178759f9d78278b0c838601bbd884b", "is_disabled": 0, "rental_uris": {"android": "https://dc.lft.to/lastmile_qr_scan", "ios": "https://dc.lft.to/lastmile_qr_scan"}, "fusion_lon": 0.0, "lat": 38.898744, "bike_id": "bd178759f9d78278b0c838601bbd884b", "type": "electric_scooter", "is_reserved": 0, "lon": -76.931842}, {"fusion_lat": 0.0, "name": "be0eb4a8a0fd9563914df8016a594362", "is_disabled": 0, "rental_uris": {"android": "https://dc.lft.to/lastmile_qr_scan", "ios": "https://dc.lft.to/lastmile_qr_scan"}, "fusion_lon": 0.0, "lat": 38.92333716666667, "bike_id": "be0eb4a8a0fd9563914df8016a594362", "type": "electric_scooter", "is_reserved": 0, "lon": -77.01899316666666}, {"fusion_lat": 0.0, "name": "4e0dfe4b076c86d78b698d7264bf260e", "is_disabled": 0, "rental_uris": {"android": "https://dc.lft.to/lastmile_qr_scan", "ios": "https://dc.lft.to/lastmile_qr_scan"}, "fusion_lon": 0.0, "lat": 38.90425233333333, "bike_id": "4e0dfe4b076c86d78b698d7264bf260e", "type": "electric_scooter", "is_reserved": 0, "lon": -77.02585766666667}, {"fusion_lat": 0.0, "name": "46e0108da5e08cb6bddb2e9a1e32f418", "is_disabled": 0, "rental_uris": {"android": "https://dc.lft.to/lastmile_qr_scan", "ios": "https://dc.lft.to/lastmile_qr_scan"}, "fusion_lon": 0.0, "lat": 38.911212166666665, "bike_id": "46e0108da5e08cb6bddb2e9a1e32f418", "type": "electric_scooter", "is_reserved": 0, "lon": -77.00771166666667}, {"fusion_lat": 0.0, "name": "7107a0c0052e6bc2b3e229e0431c1899", "is_disabled": 0, "rental_uris": {"android": "https://dc.lft.to/lastmile_qr_scan", "ios": "https://dc.lft.to/lastmile_qr_scan"}, "fusion_lon": 0.0, "lat": 38.929732, "bike_id": "7107a0c0052e6bc2b3e229e0431c1899", "type": "electric_scooter", "is_reserved": 0, "lon": -77.02797016666666}, {"fusion_lat": 0.0, "name": "1beec343c37d370e6ddd60a79af19d78", "is_disabled": 0, "rental_uris": {"android": "https://dc.lft.to/lastmile_qr_scan", "ios": "https://dc.lft.to/lastmile_qr_scan"}, "fusion_lon": 0.0, "lat": 38.92018366666667, "bike_id": "1beec343c37d370e6ddd60a79af19d78", "type": "electric_scooter", "is_reserved": 0, "lon": -77.01314816666667}, {"fusion_lat": 0.0, "name": "3dc0a9988720c64212d83201ecf5a20b", "is_disabled": 0, "rental_uris": {"android": "https://dc.lft.to/lastmile_qr_scan", "ios": "https://dc.lft.to/lastmile_qr_scan"}, "fusion_lon": 0.0, "lat": 38.940686, "bike_id": "3dc0a9988720c64212d83201ecf5a20b", "type": "electric_bike", "is_reserved": 0, "lon": -76.99460383333333}, {"fusion_lat": 0.0, "name": "bf4bc831ddeacd523f40a98389d9c26f", "is_disabled": 0, "rental_uris": {"android": "https://dc.lft.to/lastmile_qr_scan", "ios": "https://dc.lft.to/lastmile_qr_scan"}, "fusion_lon": 0.0, "lat": 38.93461766666667, "bike_id": "bf4bc831ddeacd523f40a98389d9c26f", "type": "electric_scooter", "is_reserved": 0, "lon": -77.04117866666667}, {"fusion_lat": 0.0, "name": "d3cb6f145a49c13bdaefe6154e8ec4c7", "is_disabled": 0, "rental_uris": {"android": "https://dc.lft.to/lastmile_qr_scan", "ios": "https://dc.lft.to/lastmile_qr_scan"}, "fusion_lon": 0.0, "lat": 38.902963, "bike_id": "d3cb6f145a49c13bdaefe6154e8ec4c7", "type": "electric_scooter", "is_reserved": 0, "lon": -77.0118765}, {"fusion_lat": 0.0, "name": "9169b1c3febd604e1c09713c8276e255", "is_disabled": 0, "rental_uris": {"android": "https://dc.lft.to/lastmile_qr_scan", "ios": "https://dc.lft.to/lastmile_qr_scan"}, "fusion_lon": 0.0, "lat": 38.874664833333334, "bike_id": "9169b1c3febd604e1c09713c8276e255", "type": "electric_scooter", "is_reserved": 0, "lon": -77.00566916666666}, {"fusion_lat": 0.0, "name": "8b3653ae2449364756d64b4b67a34683", "is_disabled": 0, "rental_uris": {"android": "https://dc.lft.to/lastmile_qr_scan", "ios": "https://dc.lft.to/lastmile_qr_scan"}, "fusion_lon": 0.0, "lat": 38.88734316666667, "bike_id": "8b3653ae2449364756d64b4b67a34683", "type": "electric_scooter", "is_reserved": 0, "lon": -77.00344616666666}, {"fusion_lat": 0.0, "name": "215f3fe2a4b7faef8e89e18d260f491c", "is_disabled": 0, "rental_uris": {"android": "https://dc.lft.to/lastmile_qr_scan", "ios": "https://dc.lft.to/lastmile_qr_scan"}, "fusion_lon": 0.0, "lat": 38.907276833333334, "bike_id": "215f3fe2a4b7faef8e89e18d260f491c", "type": "electric_scooter", "is_reserved": 0, "lon": -77.04813566666667}, {"fusion_lat": 0.0, "name": "226e551b409a2bf4bb43a08ee37a7579", "is_disabled": 0, "rental_uris": {"android": "https://dc.lft.to/lastmile_qr_scan", "ios": "https://dc.lft.to/lastmile_qr_scan"}, "fusion_lon": 0.0, "lat": 38.91626216666667, "bike_id": "226e551b409a2bf4bb43a08ee37a7579", "type": "electric_scooter", "is_reserved": 0, "lon": -77.01347416666667}, {"fusion_lat": 0.0, "name": "31c88e0d76eb497c81b2ff3cc36e5431", "is_disabled": 0, "rental_uris": {"android": "https://dc.lft.to/lastmile_qr_scan", "ios": "https://dc.lft.to/lastmile_qr_scan"}, "fusion_lon": 0.0, "lat": 38.906665833333335, "bike_id": "31c88e0d76eb497c81b2ff3cc36e5431", "type": "electric_scooter", "is_reserved": 0, "lon": -77.03856}, {"fusion_lat": 0.0, "name": "646a1e05aafc1f0aa6a997a293d1f045", "is_disabled": 0, "rental_uris": {"android": "https://dc.lft.to/lastmile_qr_scan", "ios": "https://dc.lft.to/lastmile_qr_scan"}, "fusion_lon": 0.0, "lat": 38.931504833333335, "bike_id": "646a1e05aafc1f0aa6a997a293d1f045", "type": "electric_scooter", "is_reserved": 0, "lon": -77.07848083333333}, {"fusion_lat": 0.0, "name": "c2e1d0560452ace4b717021313f88638", "is_disabled": 0, "rental_uris": {"android": "https://dc.lft.to/lastmile_qr_scan", "ios": "https://dc.lft.to/lastmile_qr_scan"}, "fusion_lon": 0.0, "lat": 38.92324633333333, "bike_id": "c2e1d0560452ace4b717021313f88638", "type": "electric_scooter", "is_reserved": 0, "lon": -77.020725}, {"fusion_lat": 0.0, "name": "fe95f942ad84d1d04d76e51f6d6b468b", "is_disabled": 0, "rental_uris": {"android": "https://dc.lft.to/lastmile_qr_scan", "ios": "https://dc.lft.to/lastmile_qr_scan"}, "fusion_lon": 0.0, "lat": 38.92011383333333, "bike_id": "fe95f942ad84d1d04d76e51f6d6b468b", "type": "electric_bike", "is_reserved": 0, "lon": -76.99068216666667}, {"fusion_lat": 0.0, "name": "a2626c088329352643cdfa5e654b91c4", "is_disabled": 0, "rental_uris": {"android": "https://dc.lft.to/lastmile_qr_scan", "ios": "https://dc.lft.to/lastmile_qr_scan"}, "fusion_lon": 0.0, "lat": 38.90188216666667, "bike_id": "a2626c088329352643cdfa5e654b91c4", "type": "electric_scooter", "is_reserved": 0, "lon": -77.05050466666667}, {"fusion_lat": 0.0, "name": "c8f88a9e7dc388925113004db5e44274", "is_disabled": 0, "rental_uris": {"android": "https://dc.lft.to/lastmile_qr_scan", "ios": "https://dc.lft.to/lastmile_qr_scan"}, "fusion_lon": 0.0, "lat": 38.908068, "bike_id": "c8f88a9e7dc388925113004db5e44274", "type": "electric_scooter", "is_reserved": 0, "lon": -77.034503}, {"fusion_lat": 0.0, "name": "0f8926d4baa529a3381e4a7284ddd1ff", "is_disabled": 0, "rental_uris": {"android": "https://dc.lft.to/lastmile_qr_scan", "ios": "https://dc.lft.to/lastmile_qr_scan"}, "fusion_lon": 0.0, "lat": 38.91111683333333, "bike_id": "0f8926d4baa529a3381e4a7284ddd1ff", "type": "electric_scooter", "is_reserved": 0, "lon": -77.01}, {"fusion_lat": 0.0, "name": "b21cdd36718d30e5249d7c7ea23eb532", "is_disabled": 0, "rental_uris": {"android": "https://dc.lft.to/lastmile_qr_scan", "ios": "https://dc.lft.to/lastmile_qr_scan"}, "fusion_lon": 0.0, "lat": 38.89604033333333, "bike_id": "b21cdd36718d30e5249d7c7ea23eb532", "type": "electric_scooter", "is_reserved": 0, "lon": -76.98106766666666}, {"fusion_lat": 0.0, "name": "41045ae44122cef07c953338c2c396e0", "is_disabled": 0, "rental_uris": {"android": "https://dc.lft.to/lastmile_qr_scan", "ios": "https://dc.lft.to/lastmile_qr_scan"}, "fusion_lon": 0.0, "lat": 38.899709333333334, "bike_id": "41045ae44122cef07c953338c2c396e0", "type": "electric_scooter", "is_reserved": 0, "lon": -77.0526685}, {"fusion_lat": 0.0, "name": "e75e4653b0b0ac8e1a884f7c49343113", "is_disabled": 0, "rental_uris": {"android": "https://dc.lft.to/lastmile_qr_scan", "ios": "https://dc.lft.to/lastmile_qr_scan"}, "fusion_lon": 0.0, "lat": 38.892213, "bike_id": "e75e4653b0b0ac8e1a884f7c49343113", "type": "electric_scooter", "is_reserved": 0, "lon": -77.0237195}, {"fusion_lat": 0.0, "name": "e363b7acfc963cbde5dbef9e1bbb60bd", "is_disabled": 0, "rental_uris": {"android": "https://dc.lft.to/lastmile_qr_scan", "ios": "https://dc.lft.to/lastmile_qr_scan"}, "fusion_lon": 0.0, "lat": 38.92499866666667, "bike_id": "e363b7acfc963cbde5dbef9e1bbb60bd", "type": "electric_scooter", "is_reserved": 0, "lon": -77.052243}, {"fusion_lat": 0.0, "name": "26a5cf09efe81eb4a7f3b9ef93e92de4", "is_disabled": 0, "rental_uris": {"android": "https://dc.lft.to/lastmile_qr_scan", "ios": "https://dc.lft.to/lastmile_qr_scan"}, "fusion_lon": 0.0, "lat": 38.89016616666667, "bike_id": "26a5cf09efe81eb4a7f3b9ef93e92de4", "type": "electric_scooter", "is_reserved": 0, "lon": -76.93737583333333}, {"fusion_lat": 0.0, "name": "33a44efbb2e0a3c6ffb0d0dfd74d6a7a", "is_disabled": 0, "rental_uris": {"android": "https://dc.lft.to/lastmile_qr_scan", "ios": "https://dc.lft.to/lastmile_qr_scan"}, "fusion_lon": 0.0, "lat": 38.92474816666667, "bike_id": "33a44efbb2e0a3c6ffb0d0dfd74d6a7a", "type": "electric_scooter", "is_reserved": 0, "lon": -77.02662983333333}, {"fusion_lat": 0.0, "name": "2c81eeb84d0c5278624e91512d9bedfa", "is_disabled": 0, "rental_uris": {"android": "https://dc.lft.to/lastmile_qr_scan", "ios": "https://dc.lft.to/lastmile_qr_scan"}, "fusion_lon": 0.0, "lat": 38.94331783333333, "bike_id": "2c81eeb84d0c5278624e91512d9bedfa", "type": "electric_scooter", "is_reserved": 0, "lon": -77.01552783333334}, {"fusion_lat": 0.0, "name": "2cb925b23a75e46c993c4b5574e1e335", "is_disabled": 0, "rental_uris": {"android": "https://dc.lft.to/lastmile_qr_scan", "ios": "https://dc.lft.to/lastmile_qr_scan"}, "fusion_lon": 0.0, "lat": 38.913222, "bike_id": "2cb925b23a75e46c993c4b5574e1e335", "type": "electric_scooter", "is_reserved": 0, "lon": -77.01504583333333}, {"fusion_lat": 0.0, "name": "676e398f90eabf12bbbbc19ab16c35fa", "is_disabled": 0, "rental_uris": {"android": "https://dc.lft.to/lastmile_qr_scan", "ios": "https://dc.lft.to/lastmile_qr_scan"}, "fusion_lon": 0.0, "lat": 38.90647766666667, "bike_id": "676e398f90eabf12bbbbc19ab16c35fa", "type": "electric_scooter", "is_reserved": 0, "lon": -77.04162666666667}, {"fusion_lat": 0.0, "name": "872a6663aee4ac0b54e11e9950bf3ae6", "is_disabled": 0, "rental_uris": {"android": "https://dc.lft.to/lastmile_qr_scan", "ios": "https://dc.lft.to/lastmile_qr_scan"}, "fusion_lon": 0.0, "lat": 38.917629833333336, "bike_id": "872a6663aee4ac0b54e11e9950bf3ae6", "type": "electric_scooter", "is_reserved": 0, "lon": -77.03643083333333}, {"fusion_lat": 0.0, "name": "cec931a4e5ba8054817d0fecf1c791a9", "is_disabled": 0, "rental_uris": {"android": "https://dc.lft.to/lastmile_qr_scan", "ios": "https://dc.lft.to/lastmile_qr_scan"}, "fusion_lon": 0.0, "lat": 38.914160833333334, "bike_id": "cec931a4e5ba8054817d0fecf1c791a9", "type": "electric_scooter", "is_reserved": 0, "lon": -77.04077366666667}, {"fusion_lat": 0.0, "name": "ac5ad13d4b5cf0234bb4630b50645fbf", "is_disabled": 0, "rental_uris": {"android": "https://dc.lft.to/lastmile_qr_scan", "ios": "https://dc.lft.to/lastmile_qr_scan"}, "fusion_lon": 0.0, "lat": 38.9009875, "bike_id": "ac5ad13d4b5cf0234bb4630b50645fbf", "type": "electric_scooter", "is_reserved": 0, "lon": -77.02225183333333}, {"fusion_lat": 0.0, "name": "0cc545c5ec3eb222172ee0edb54021b0", "is_disabled": 0, "rental_uris": {"android": "https://dc.lft.to/lastmile_qr_scan", "ios": "https://dc.lft.to/lastmile_qr_scan"}, "fusion_lon": 0.0, "lat": 38.911057666666665, "bike_id": "0cc545c5ec3eb222172ee0edb54021b0", "type": "electric_scooter", "is_reserved": 0, "lon": -77.01443466666667}, {"fusion_lat": 0.0, "name": "bed978ec3accca2b2ec7cdfd8c18b03c", "is_disabled": 0, "rental_uris": {"android": "https://dc.lft.to/lastmile_qr_scan", "ios": "https://dc.lft.to/lastmile_qr_scan"}, "fusion_lon": 0.0, "lat": 38.8450665, "bike_id": "bed978ec3accca2b2ec7cdfd8c18b03c", "type": "electric_bike", "is_reserved": 0, "lon": -76.99350633333333}, {"fusion_lat": 0.0, "name": "0780258a027569f551b76bf9404a61d2", "is_disabled": 0, "rental_uris": {"android": "https://dc.lft.to/lastmile_qr_scan", "ios": "https://dc.lft.to/lastmile_qr_scan"}, "fusion_lon": 0.0, "lat": 38.94197616666666, "bike_id": "0780258a027569f551b76bf9404a61d2", "type": "electric_scooter", "is_reserved": 0, "lon": -77.02594983333333}, {"fusion_lat": 0.0, "name": "6382ea6a8eacb8381830a55959908587", "is_disabled": 0, "rental_uris": {"android": "https://dc.lft.to/lastmile_qr_scan", "ios": "https://dc.lft.to/lastmile_qr_scan"}, "fusion_lon": 0.0, "lat": 38.907318, "bike_id": "6382ea6a8eacb8381830a55959908587", "type": "electric_scooter", "is_reserved": 0, "lon": -77.02803483333334}, {"fusion_lat": 0.0, "name": "514977119bc7f54036bd01d359e867cf", "is_disabled": 0, "rental_uris": {"android": "https://dc.lft.to/lastmile_qr_scan", "ios": "https://dc.lft.to/lastmile_qr_scan"}, "fusion_lon": 0.0, "lat": 38.91994016666666, "bike_id": "514977119bc7f54036bd01d359e867cf", "type": "electric_scooter", "is_reserved": 0, "lon": -77.03276666666666}, {"fusion_lat": 0.0, "name": "f5ff68081fb4a1e3f72142ce56bfd014", "is_disabled": 0, "rental_uris": {"android": "https://dc.lft.to/lastmile_qr_scan", "ios": "https://dc.lft.to/lastmile_qr_scan"}, "fusion_lon": 0.0, "lat": 38.926924666666665, "bike_id": "f5ff68081fb4a1e3f72142ce56bfd014", "type": "electric_scooter", "is_reserved": 0, "lon": -77.025603}, {"fusion_lat": 0.0, "name": "ef451521b91443fded436549f6c4bffb", "is_disabled": 0, "rental_uris": {"android": "https://dc.lft.to/lastmile_qr_scan", "ios": "https://dc.lft.to/lastmile_qr_scan"}, "fusion_lon": 0.0, "lat": 38.90841916666667, "bike_id": "ef451521b91443fded436549f6c4bffb", "type": "electric_scooter", "is_reserved": 0, "lon": -77.02694883333334}, {"fusion_lat": 0.0, "name": "b04e960c1c8d96a00409e132743405ae", "is_disabled": 0, "rental_uris": {"android": "https://dc.lft.to/lastmile_qr_scan", "ios": "https://dc.lft.to/lastmile_qr_scan"}, "fusion_lon": 0.0, "lat": 38.903512166666665, "bike_id": "b04e960c1c8d96a00409e132743405ae", "type": "electric_scooter", "is_reserved": 0, "lon": -77.0363265}, {"fusion_lat": 0.0, "name": "b66652ac6567f2dc441d86d302c8dec9", "is_disabled": 0, "rental_uris": {"android": "https://dc.lft.to/lastmile_qr_scan", "ios": "https://dc.lft.to/lastmile_qr_scan"}, "fusion_lon": 0.0, "lat": 38.93079683333333, "bike_id": "b66652ac6567f2dc441d86d302c8dec9", "type": "electric_scooter", "is_reserved": 0, "lon": -77.03650766666667}, {"fusion_lat": 0.0, "name": "93346a6cf948905dcf6177c44fc3f178", "is_disabled": 0, "rental_uris": {"android": "https://dc.lft.to/lastmile_qr_scan", "ios": "https://dc.lft.to/lastmile_qr_scan"}, "fusion_lon": 0.0, "lat": 38.877346333333335, "bike_id": "93346a6cf948905dcf6177c44fc3f178", "type": "electric_scooter", "is_reserved": 0, "lon": -76.970325}, {"fusion_lat": 0.0, "name": "d12cdfa5edd7dd7eca16fc1d28ca518d", "is_disabled": 0, "rental_uris": {"android": "https://dc.lft.to/lastmile_qr_scan", "ios": "https://dc.lft.to/lastmile_qr_scan"}, "fusion_lon": 0.0, "lat": 38.984724, "bike_id": "d12cdfa5edd7dd7eca16fc1d28ca518d", "type": "electric_scooter", "is_reserved": 0, "lon": -77.02640333333333}, {"fusion_lat": 0.0, "name": "d1dff67d564d7defc897bd790720bdda", "is_disabled": 0, "rental_uris": {"android": "https://dc.lft.to/lastmile_qr_scan", "ios": "https://dc.lft.to/lastmile_qr_scan"}, "fusion_lon": 0.0, "lat": 38.92132616666667, "bike_id": "d1dff67d564d7defc897bd790720bdda", "type": "electric_scooter", "is_reserved": 0, "lon": -77.00403916666667}, {"fusion_lat": 0.0, "name": "7a13061ea56fc6ce87f5f98e6f264bd5", "is_disabled": 0, "rental_uris": {"android": "https://dc.lft.to/lastmile_qr_scan", "ios": "https://dc.lft.to/lastmile_qr_scan"}, "fusion_lon": 0.0, "lat": 38.909552833333336, "bike_id": "7a13061ea56fc6ce87f5f98e6f264bd5", "type": "electric_scooter", "is_reserved": 0, "lon": -77.04605366666667}, {"fusion_lat": 0.0, "name": "f3f70fa4ec5a8063cbbb0f89864c77a7", "is_disabled": 0, "rental_uris": {"android": "https://dc.lft.to/lastmile_qr_scan", "ios": "https://dc.lft.to/lastmile_qr_scan"}, "fusion_lon": 0.0, "lat": 38.91981883333333, "bike_id": "f3f70fa4ec5a8063cbbb0f89864c77a7", "type": "electric_scooter", "is_reserved": 0, "lon": -77.04086616666666}, {"fusion_lat": 0.0, "name": "a485e28a6bf9dcb87b5beca66ed1929c", "is_disabled": 0, "rental_uris": {"android": "https://dc.lft.to/lastmile_qr_scan", "ios": "https://dc.lft.to/lastmile_qr_scan"}, "fusion_lon": 0.0, "lat": 38.99224666666667, "bike_id": "a485e28a6bf9dcb87b5beca66ed1929c", "type": "electric_bike", "is_reserved": 0, "lon": -76.94413483333334}, {"fusion_lat": 0.0, "name": "4628f0f8ae157de0ece59c9f827554e8", "is_disabled": 0, "rental_uris": {"android": "https://dc.lft.to/lastmile_qr_scan", "ios": "https://dc.lft.to/lastmile_qr_scan"}, "fusion_lon": 0.0, "lat": 38.87663333333333, "bike_id": "4628f0f8ae157de0ece59c9f827554e8", "type": "electric_scooter", "is_reserved": 0, "lon": -77.00066516666666}, {"fusion_lat": 0.0, "name": "89a48f3b31e15360c05e1a960d91ce85", "is_disabled": 0, "rental_uris": {"android": "https://dc.lft.to/lastmile_qr_scan", "ios": "https://dc.lft.to/lastmile_qr_scan"}, "fusion_lon": 0.0, "lat": 38.905731333333335, "bike_id": "89a48f3b31e15360c05e1a960d91ce85", "type": "electric_scooter", "is_reserved": 0, "lon": -77.02402316666667}, {"fusion_lat": 0.0, "name": "c5f347c73a570b7afce2f9e44327baf5", "is_disabled": 0, "rental_uris": {"android": "https://dc.lft.to/lastmile_qr_scan", "ios": "https://dc.lft.to/lastmile_qr_scan"}, "fusion_lon": 0.0, "lat": 38.928959, "bike_id": "c5f347c73a570b7afce2f9e44327baf5", "type": "electric_scooter", "is_reserved": 0, "lon": -77.03250683333333}, {"fusion_lat": 0.0, "name": "093adad7147e5c25242190081919d8ec", "is_disabled": 0, "rental_uris": {"android": "https://dc.lft.to/lastmile_qr_scan", "ios": "https://dc.lft.to/lastmile_qr_scan"}, "fusion_lon": 0.0, "lat": 38.904614, "bike_id": "093adad7147e5c25242190081919d8ec", "type": "electric_scooter", "is_reserved": 0, "lon": -77.05335533333333}, {"fusion_lat": 0.0, "name": "baa5882201b78928cab9ae46180fcda2", "is_disabled": 0, "rental_uris": {"android": "https://dc.lft.to/lastmile_qr_scan", "ios": "https://dc.lft.to/lastmile_qr_scan"}, "fusion_lon": 0.0, "lat": 38.91591916666667, "bike_id": "baa5882201b78928cab9ae46180fcda2", "type": "electric_scooter", "is_reserved": 0, "lon": -77.04326916666666}, {"fusion_lat": 0.0, "name": "991b6716d9c3e8e76b7a9f38db917866", "is_disabled": 0, "rental_uris": {"android": "https://dc.lft.to/lastmile_qr_scan", "ios": "https://dc.lft.to/lastmile_qr_scan"}, "fusion_lon": 0.0, "lat": 38.9527785, "bike_id": "991b6716d9c3e8e76b7a9f38db917866", "type": "electric_scooter", "is_reserved": 0, "lon": -77.06878283333333}, {"fusion_lat": 0.0, "name": "3451e2bb56fd2c122ec2d564f3db7f5c", "is_disabled": 0, "rental_uris": {"android": "https://dc.lft.to/lastmile_qr_scan", "ios": "https://dc.lft.to/lastmile_qr_scan"}, "fusion_lon": 0.0, "lat": 38.8919495, "bike_id": "3451e2bb56fd2c122ec2d564f3db7f5c", "type": "electric_scooter", "is_reserved": 0, "lon": -77.02257966666667}, {"fusion_lat": 0.0, "name": "ee98f047d216999bd23cf209c585df43", "is_disabled": 0, "rental_uris": {"android": "https://dc.lft.to/lastmile_qr_scan", "ios": "https://dc.lft.to/lastmile_qr_scan"}, "fusion_lon": 0.0, "lat": 38.916502333333334, "bike_id": "ee98f047d216999bd23cf209c585df43", "type": "electric_bike", "is_reserved": 0, "lon": -76.98227016666667}, {"fusion_lat": 0.0, "name": "e11100baac1d007e55befabdd1e13e1b", "is_disabled": 0, "rental_uris": {"android": "https://dc.lft.to/lastmile_qr_scan", "ios": "https://dc.lft.to/lastmile_qr_scan"}, "fusion_lon": 0.0, "lat": 38.950866, "bike_id": "e11100baac1d007e55befabdd1e13e1b", "type": "electric_scooter", "is_reserved": 0, "lon": -77.02713183333333}, {"fusion_lat": 0.0, "name": "c56e058d504945c53f433b18e152f2d1", "is_disabled": 0, "rental_uris": {"android": "https://dc.lft.to/lastmile_qr_scan", "ios": "https://dc.lft.to/lastmile_qr_scan"}, "fusion_lon": 0.0, "lat": 38.923732666666666, "bike_id": "c56e058d504945c53f433b18e152f2d1", "type": "electric_scooter", "is_reserved": 0, "lon": -77.05144883333334}, {"fusion_lat": 0.0, "name": "5c6ba376db6046db2c929c639ccdf4ad", "is_disabled": 0, "rental_uris": {"android": "https://dc.lft.to/lastmile_qr_scan", "ios": "https://dc.lft.to/lastmile_qr_scan"}, "fusion_lon": 0.0, "lat": 38.8849555, "bike_id": "5c6ba376db6046db2c929c639ccdf4ad", "type": "electric_scooter", "is_reserved": 0, "lon": -77.01473816666666}, {"fusion_lat": 0.0, "name": "b7bf6bb838c2c49435485657aad1e307", "is_disabled": 0, "rental_uris": {"android": "https://dc.lft.to/lastmile_qr_scan", "ios": "https://dc.lft.to/lastmile_qr_scan"}, "fusion_lon": 0.0, "lat": 38.91008266666667, "bike_id": "b7bf6bb838c2c49435485657aad1e307", "type": "electric_scooter", "is_reserved": 0, "lon": -77.01618633333334}, {"fusion_lat": 0.0, "name": "ed0f7205453a08cb1b198b34f6b07e16", "is_disabled": 0, "rental_uris": {"android": "https://dc.lft.to/lastmile_qr_scan", "ios": "https://dc.lft.to/lastmile_qr_scan"}, "fusion_lon": 0.0, "lat": 38.945097833333335, "bike_id": "ed0f7205453a08cb1b198b34f6b07e16", "type": "electric_bike", "is_reserved": 0, "lon": -77.00675933333333}, {"fusion_lat": 0.0, "name": "23cc733a259bf887ba9b4cd992e1871f", "is_disabled": 0, "rental_uris": {"android": "https://dc.lft.to/lastmile_qr_scan", "ios": "https://dc.lft.to/lastmile_qr_scan"}, "fusion_lon": 0.0, "lat": 38.901687833333334, "bike_id": "23cc733a259bf887ba9b4cd992e1871f", "type": "electric_scooter", "is_reserved": 0, "lon": -77.02289433333333}, {"fusion_lat": 0.0, "name": "515d17808e5712de4159d53b7d7b1e73", "is_disabled": 0, "rental_uris": {"android": "https://dc.lft.to/lastmile_qr_scan", "ios": "https://dc.lft.to/lastmile_qr_scan"}, "fusion_lon": 0.0, "lat": 38.91691766666667, "bike_id": "515d17808e5712de4159d53b7d7b1e73", "type": "electric_scooter", "is_reserved": 0, "lon": -77.025967}, {"fusion_lat": 0.0, "name": "ff15498a29fe75b66d801722900f36fe", "is_disabled": 0, "rental_uris": {"android": "https://dc.lft.to/lastmile_qr_scan", "ios": "https://dc.lft.to/lastmile_qr_scan"}, "fusion_lon": 0.0, "lat": 38.91553283333333, "bike_id": "ff15498a29fe75b66d801722900f36fe", "type": "electric_scooter", "is_reserved": 0, "lon": -77.03858983333333}, {"fusion_lat": 0.0, "name": "b5495f9c2572f6e9b6ca949546d6b7fa", "is_disabled": 0, "rental_uris": {"android": "https://dc.lft.to/lastmile_qr_scan", "ios": "https://dc.lft.to/lastmile_qr_scan"}, "fusion_lon": 0.0, "lat": 38.91599083333333, "bike_id": "b5495f9c2572f6e9b6ca949546d6b7fa", "type": "electric_scooter", "is_reserved": 0, "lon": -77.04558583333333}, {"fusion_lat": 0.0, "name": "c7a3a2856462646f7debf6bf798a5c9e", "is_disabled": 0, "rental_uris": {"android": "https://dc.lft.to/lastmile_qr_scan", "ios": "https://dc.lft.to/lastmile_qr_scan"}, "fusion_lon": 0.0, "lat": 38.89826216666667, "bike_id": "c7a3a2856462646f7debf6bf798a5c9e", "type": "electric_scooter", "is_reserved": 0, "lon": -77.049977}, {"fusion_lat": 0.0, "name": "f96f9ef96d280910cac860a714852b03", "is_disabled": 0, "rental_uris": {"android": "https://dc.lft.to/lastmile_qr_scan", "ios": "https://dc.lft.to/lastmile_qr_scan"}, "fusion_lon": 0.0, "lat": 38.92811583333334, "bike_id": "f96f9ef96d280910cac860a714852b03", "type": "electric_scooter", "is_reserved": 0, "lon": -77.04360733333333}, {"fusion_lat": 0.0, "name": "074bb9c9e19f0591945f88b015ea9711", "is_disabled": 0, "rental_uris": {"android": "https://dc.lft.to/lastmile_qr_scan", "ios": "https://dc.lft.to/lastmile_qr_scan"}, "fusion_lon": 0.0, "lat": 38.9010995, "bike_id": "074bb9c9e19f0591945f88b015ea9711", "type": "electric_scooter", "is_reserved": 0, "lon": -76.97428716666667}, {"fusion_lat": 0.0, "name": "8709ec53aa3a772779be268f5595c12b", "is_disabled": 0, "rental_uris": {"android": "https://dc.lft.to/lastmile_qr_scan", "ios": "https://dc.lft.to/lastmile_qr_scan"}, "fusion_lon": 0.0, "lat": 38.9080685, "bike_id": "8709ec53aa3a772779be268f5595c12b", "type": "electric_scooter", "is_reserved": 0, "lon": -77.034551}, {"fusion_lat": 0.0, "name": "29beaf5bd7ae13ecfab55b2e07057a40", "is_disabled": 0, "rental_uris": {"android": "https://dc.lft.to/lastmile_qr_scan", "ios": "https://dc.lft.to/lastmile_qr_scan"}, "fusion_lon": 0.0, "lat": 38.90445016666666, "bike_id": "29beaf5bd7ae13ecfab55b2e07057a40", "type": "electric_scooter", "is_reserved": 0, "lon": -77.058729}, {"fusion_lat": 0.0, "name": "bdc11f2eb9fad7e8ce3c03f14686f4bc", "is_disabled": 0, "rental_uris": {"android": "https://dc.lft.to/lastmile_qr_scan", "ios": "https://dc.lft.to/lastmile_qr_scan"}, "fusion_lon": 0.0, "lat": 38.921483, "bike_id": "bdc11f2eb9fad7e8ce3c03f14686f4bc", "type": "electric_scooter", "is_reserved": 0, "lon": -77.03673066666667}, {"fusion_lat": 0.0, "name": "6d5131cd60b13e8e6a42c13e48f6195e", "is_disabled": 0, "rental_uris": {"android": "https://dc.lft.to/lastmile_qr_scan", "ios": "https://dc.lft.to/lastmile_qr_scan"}, "fusion_lon": 0.0, "lat": 38.900166, "bike_id": "6d5131cd60b13e8e6a42c13e48f6195e", "type": "electric_scooter", "is_reserved": 0, "lon": -77.00332333333333}, {"fusion_lat": 0.0, "name": "3a707687dfa3f9559805a0085b3e5116", "is_disabled": 0, "rental_uris": {"android": "https://dc.lft.to/lastmile_qr_scan", "ios": "https://dc.lft.to/lastmile_qr_scan"}, "fusion_lon": 0.0, "lat": 38.911026166666666, "bike_id": "3a707687dfa3f9559805a0085b3e5116", "type": "electric_scooter", "is_reserved": 0, "lon": -77.03842133333333}, {"fusion_lat": 0.0, "name": "5674b777dfc16ca20881c3f3f306c509", "is_disabled": 0, "rental_uris": {"android": "https://dc.lft.to/lastmile_qr_scan", "ios": "https://dc.lft.to/lastmile_qr_scan"}, "fusion_lon": 0.0, "lat": 38.905567, "bike_id": "5674b777dfc16ca20881c3f3f306c509", "type": "electric_scooter", "is_reserved": 0, "lon": -77.042016}, {"fusion_lat": 0.0, "name": "11a51ff3e078ff318a65fb325055478b", "is_disabled": 0, "rental_uris": {"android": "https://dc.lft.to/lastmile_qr_scan", "ios": "https://dc.lft.to/lastmile_qr_scan"}, "fusion_lon": 0.0, "lat": 38.907305666666666, "bike_id": "11a51ff3e078ff318a65fb325055478b", "type": "electric_scooter", "is_reserved": 0, "lon": -77.023562}, {"fusion_lat": 0.0, "name": "ebda90f396dc8025246b194a990904f3", "is_disabled": 0, "rental_uris": {"android": "https://dc.lft.to/lastmile_qr_scan", "ios": "https://dc.lft.to/lastmile_qr_scan"}, "fusion_lon": 0.0, "lat": 38.926133666666665, "bike_id": "ebda90f396dc8025246b194a990904f3", "type": "electric_scooter", "is_reserved": 0, "lon": -77.07570483333333}, {"fusion_lat": 0.0, "name": "6a616581be13ccaf3fc5cd5253cb7bf0", "is_disabled": 0, "rental_uris": {"android": "https://dc.lft.to/lastmile_qr_scan", "ios": "https://dc.lft.to/lastmile_qr_scan"}, "fusion_lon": 0.0, "lat": 38.93380366666667, "bike_id": "6a616581be13ccaf3fc5cd5253cb7bf0", "type": "electric_scooter", "is_reserved": 0, "lon": -77.01957166666666}, {"fusion_lat": 0.0, "name": "1dd6269829564cc1cb3ba0e4469230e2", "is_disabled": 0, "rental_uris": {"android": "https://dc.lft.to/lastmile_qr_scan", "ios": "https://dc.lft.to/lastmile_qr_scan"}, "fusion_lon": 0.0, "lat": 38.89657183333333, "bike_id": "1dd6269829564cc1cb3ba0e4469230e2", "type": "electric_scooter", "is_reserved": 0, "lon": -77.01180933333333}, {"fusion_lat": 0.0, "name": "940a47a21ea35ec153530f1d8637ff73", "is_disabled": 0, "rental_uris": {"android": "https://dc.lft.to/lastmile_qr_scan", "ios": "https://dc.lft.to/lastmile_qr_scan"}, "fusion_lon": 0.0, "lat": 38.87127433333333, "bike_id": "940a47a21ea35ec153530f1d8637ff73", "type": "electric_scooter", "is_reserved": 0, "lon": -77.01223683333333}, {"fusion_lat": 0.0, "name": "9a74ba5dcdd8c74d9d5f6a992996d88e", "is_disabled": 0, "rental_uris": {"android": "https://dc.lft.to/lastmile_qr_scan", "ios": "https://dc.lft.to/lastmile_qr_scan"}, "fusion_lon": 0.0, "lat": 38.90552666666667, "bike_id": "9a74ba5dcdd8c74d9d5f6a992996d88e", "type": "electric_scooter", "is_reserved": 0, "lon": -77.04654683333334}, {"fusion_lat": 0.0, "name": "a0da421b08da385b1e9c1ff27a9cf1ec", "is_disabled": 0, "rental_uris": {"android": "https://dc.lft.to/lastmile_qr_scan", "ios": "https://dc.lft.to/lastmile_qr_scan"}, "fusion_lon": 0.0, "lat": 38.9026015, "bike_id": "a0da421b08da385b1e9c1ff27a9cf1ec", "type": "electric_scooter", "is_reserved": 0, "lon": -77.0632295}, {"fusion_lat": 0.0, "name": "86db08cb74b59fb8b1d6279a94634476", "is_disabled": 0, "rental_uris": {"android": "https://dc.lft.to/lastmile_qr_scan", "ios": "https://dc.lft.to/lastmile_qr_scan"}, "fusion_lon": 0.0, "lat": 38.918971666666664, "bike_id": "86db08cb74b59fb8b1d6279a94634476", "type": "electric_scooter", "is_reserved": 0, "lon": -77.00046483333334}, {"fusion_lat": 0.0, "name": "a685332bf7ffda48f9757275eaab4d14", "is_disabled": 0, "rental_uris": {"android": "https://dc.lft.to/lastmile_qr_scan", "ios": "https://dc.lft.to/lastmile_qr_scan"}, "fusion_lon": 0.0, "lat": 38.966632, "bike_id": "a685332bf7ffda48f9757275eaab4d14", "type": "electric_scooter", "is_reserved": 0, "lon": -77.02549333333333}, {"fusion_lat": 0.0, "name": "bfc442fe375c03d325b010bd2a7c8de7", "is_disabled": 0, "rental_uris": {"android": "https://dc.lft.to/lastmile_qr_scan", "ios": "https://dc.lft.to/lastmile_qr_scan"}, "fusion_lon": 0.0, "lat": 38.90577483333333, "bike_id": "bfc442fe375c03d325b010bd2a7c8de7", "type": "electric_scooter", "is_reserved": 0, "lon": -77.03470733333333}, {"fusion_lat": 0.0, "name": "cb1e60a24763a5f6fd5d39ac1c7c9c24", "is_disabled": 0, "rental_uris": {"android": "https://dc.lft.to/lastmile_qr_scan", "ios": "https://dc.lft.to/lastmile_qr_scan"}, "fusion_lon": 0.0, "lat": 38.89197683333333, "bike_id": "cb1e60a24763a5f6fd5d39ac1c7c9c24", "type": "electric_scooter", "is_reserved": 0, "lon": -77.02258733333333}, {"fusion_lat": 0.0, "name": "539c0c05b02510c8b6917580e3c44315", "is_disabled": 0, "rental_uris": {"android": "https://dc.lft.to/lastmile_qr_scan", "ios": "https://dc.lft.to/lastmile_qr_scan"}, "fusion_lon": 0.0, "lat": 38.8405325, "bike_id": "539c0c05b02510c8b6917580e3c44315", "type": "electric_scooter", "is_reserved": 0, "lon": -76.97662166666667}, {"fusion_lat": 0.0, "name": "cbc42a6a61cb431056d3352a84ead5ad", "is_disabled": 0, "rental_uris": {"android": "https://dc.lft.to/lastmile_qr_scan", "ios": "https://dc.lft.to/lastmile_qr_scan"}, "fusion_lon": 0.0, "lat": 38.889852, "bike_id": "cbc42a6a61cb431056d3352a84ead5ad", "type": "electric_scooter", "is_reserved": 0, "lon": -76.99247016666666}, {"fusion_lat": 0.0, "name": "148cd8124a96ca70b0e21fcc7226c1cf", "is_disabled": 0, "rental_uris": {"android": "https://dc.lft.to/lastmile_qr_scan", "ios": "https://dc.lft.to/lastmile_qr_scan"}, "fusion_lon": 0.0, "lat": 38.915309666666666, "bike_id": "148cd8124a96ca70b0e21fcc7226c1cf", "type": "electric_scooter", "is_reserved": 0, "lon": -77.01220483333333}, {"fusion_lat": 0.0, "name": "73366b6b63fabd1570833267b22a2f86", "is_disabled": 0, "rental_uris": {"android": "https://dc.lft.to/lastmile_qr_scan", "ios": "https://dc.lft.to/lastmile_qr_scan"}, "fusion_lon": 0.0, "lat": 38.936062166666666, "bike_id": "73366b6b63fabd1570833267b22a2f86", "type": "electric_scooter", "is_reserved": 0, "lon": -77.05858916666666}, {"fusion_lat": 0.0, "name": "edde227c385d57b213c4b3400440288b", "is_disabled": 0, "rental_uris": {"android": "https://dc.lft.to/lastmile_qr_scan", "ios": "https://dc.lft.to/lastmile_qr_scan"}, "fusion_lon": 0.0, "lat": 38.91425433333333, "bike_id": "edde227c385d57b213c4b3400440288b", "type": "electric_scooter", "is_reserved": 0, "lon": -76.98447033333333}, {"fusion_lat": 0.0, "name": "ceb94e5f408d7c846c8d164f19f546a8", "is_disabled": 0, "rental_uris": {"android": "https://dc.lft.to/lastmile_qr_scan", "ios": "https://dc.lft.to/lastmile_qr_scan"}, "fusion_lon": 0.0, "lat": 38.89760233333333, "bike_id": "ceb94e5f408d7c846c8d164f19f546a8", "type": "electric_scooter", "is_reserved": 0, "lon": -77.02680616666666}, {"fusion_lat": 0.0, "name": "fe2a53b2ed14ddf2c05ca7ae7532c278", "is_disabled": 0, "rental_uris": {"android": "https://dc.lft.to/lastmile_qr_scan", "ios": "https://dc.lft.to/lastmile_qr_scan"}, "fusion_lon": 0.0, "lat": 38.8774915, "bike_id": "fe2a53b2ed14ddf2c05ca7ae7532c278", "type": "electric_scooter", "is_reserved": 0, "lon": -76.99661016666667}, {"fusion_lat": 0.0, "name": "4d72252721332d98797d8f796eecd62c", "is_disabled": 0, "rental_uris": {"android": "https://dc.lft.to/lastmile_qr_scan", "ios": "https://dc.lft.to/lastmile_qr_scan"}, "fusion_lon": 0.0, "lat": 38.933810333333334, "bike_id": "4d72252721332d98797d8f796eecd62c", "type": "electric_scooter", "is_reserved": 0, "lon": -77.032512}, {"fusion_lat": 0.0, "name": "4d4bf8f0ad3c0d4efa81df6770c7eb50", "is_disabled": 0, "rental_uris": {"android": "https://dc.lft.to/lastmile_qr_scan", "ios": "https://dc.lft.to/lastmile_qr_scan"}, "fusion_lon": 0.0, "lat": 38.88302933333333, "bike_id": "4d4bf8f0ad3c0d4efa81df6770c7eb50", "type": "electric_scooter", "is_reserved": 0, "lon": -77.01744433333333}, {"fusion_lat": 0.0, "name": "04263a3086e7d886f70d3fad08fcd908", "is_disabled": 0, "rental_uris": {"android": "https://dc.lft.to/lastmile_qr_scan", "ios": "https://dc.lft.to/lastmile_qr_scan"}, "fusion_lon": 0.0, "lat": 38.918239, "bike_id": "04263a3086e7d886f70d3fad08fcd908", "type": "electric_scooter", "is_reserved": 0, "lon": -77.03150983333333}, {"fusion_lat": 0.0, "name": "f3bbde470500bb40707d6ec1c7bf048b", "is_disabled": 0, "rental_uris": {"android": "https://dc.lft.to/lastmile_qr_scan", "ios": "https://dc.lft.to/lastmile_qr_scan"}, "fusion_lon": 0.0, "lat": 38.85364766666667, "bike_id": "f3bbde470500bb40707d6ec1c7bf048b", "type": "electric_bike", "is_reserved": 0, "lon": -77.11483016666666}, {"fusion_lat": 0.0, "name": "8f56a5f60df80d12b8338cbeddb237dc", "is_disabled": 0, "rental_uris": {"android": "https://dc.lft.to/lastmile_qr_scan", "ios": "https://dc.lft.to/lastmile_qr_scan"}, "fusion_lon": 0.0, "lat": 38.92080683333333, "bike_id": "8f56a5f60df80d12b8338cbeddb237dc", "type": "electric_scooter", "is_reserved": 0, "lon": -77.02394183333334}, {"fusion_lat": 0.0, "name": "f455ba14ad8f5fb2e813e7f46d6a78cb", "is_disabled": 0, "rental_uris": {"android": "https://dc.lft.to/lastmile_qr_scan", "ios": "https://dc.lft.to/lastmile_qr_scan"}, "fusion_lon": 0.0, "lat": 38.88721616666667, "bike_id": "f455ba14ad8f5fb2e813e7f46d6a78cb", "type": "electric_scooter", "is_reserved": 0, "lon": -77.02581083333334}, {"fusion_lat": 0.0, "name": "fae466f55ec3d4b7ca661c4d09ab365d", "is_disabled": 0, "rental_uris": {"android": "https://dc.lft.to/lastmile_qr_scan", "ios": "https://dc.lft.to/lastmile_qr_scan"}, "fusion_lon": 0.0, "lat": 38.93863183333333, "bike_id": "fae466f55ec3d4b7ca661c4d09ab365d", "type": "electric_scooter", "is_reserved": 0, "lon": -77.03203066666667}, {"fusion_lat": 0.0, "name": "2860ddc71a336e408c3998b1b1bb1525", "is_disabled": 0, "rental_uris": {"android": "https://dc.lft.to/lastmile_qr_scan", "ios": "https://dc.lft.to/lastmile_qr_scan"}, "fusion_lon": 0.0, "lat": 38.873777, "bike_id": "2860ddc71a336e408c3998b1b1bb1525", "type": "electric_scooter", "is_reserved": 0, "lon": -77.00045366666667}, {"fusion_lat": 0.0, "name": "85d38b177c61fa526dcba9ab3287a8b2", "is_disabled": 0, "rental_uris": {"android": "https://dc.lft.to/lastmile_qr_scan", "ios": "https://dc.lft.to/lastmile_qr_scan"}, "fusion_lon": 0.0, "lat": 38.89774966666667, "bike_id": "85d38b177c61fa526dcba9ab3287a8b2", "type": "electric_scooter", "is_reserved": 0, "lon": -76.98463366666667}, {"fusion_lat": 0.0, "name": "b38bfb8678369e1305a98b455045ed2b", "is_disabled": 0, "rental_uris": {"android": "https://dc.lft.to/lastmile_qr_scan", "ios": "https://dc.lft.to/lastmile_qr_scan"}, "fusion_lon": 0.0, "lat": 38.9137445, "bike_id": "b38bfb8678369e1305a98b455045ed2b", "type": "electric_scooter", "is_reserved": 0, "lon": -77.01990616666667}, {"fusion_lat": 0.0, "name": "010107bfd921e08314a7be3ae6d24171", "is_disabled": 0, "rental_uris": {"android": "https://dc.lft.to/lastmile_qr_scan", "ios": "https://dc.lft.to/lastmile_qr_scan"}, "fusion_lon": 0.0, "lat": 38.919144833333334, "bike_id": "010107bfd921e08314a7be3ae6d24171", "type": "electric_scooter", "is_reserved": 0, "lon": -77.024042}, {"fusion_lat": 0.0, "name": "7d2738532a03b2fc43af91db7bddc328", "is_disabled": 0, "rental_uris": {"android": "https://dc.lft.to/lastmile_qr_scan", "ios": "https://dc.lft.to/lastmile_qr_scan"}, "fusion_lon": 0.0, "lat": 38.8783195, "bike_id": "7d2738532a03b2fc43af91db7bddc328", "type": "electric_scooter", "is_reserved": 0, "lon": -76.99035666666667}, {"fusion_lat": 0.0, "name": "4065a37dbfe9f788d0d193b57e507174", "is_disabled": 0, "rental_uris": {"android": "https://dc.lft.to/lastmile_qr_scan", "ios": "https://dc.lft.to/lastmile_qr_scan"}, "fusion_lon": 0.0, "lat": 38.91005333333333, "bike_id": "4065a37dbfe9f788d0d193b57e507174", "type": "electric_scooter", "is_reserved": 0, "lon": -77.0346095}, {"fusion_lat": 0.0, "name": "542dff1e065fffac3bc8c5a889080688", "is_disabled": 0, "rental_uris": {"android": "https://dc.lft.to/lastmile_qr_scan", "ios": "https://dc.lft.to/lastmile_qr_scan"}, "fusion_lon": 0.0, "lat": 39.0342205, "bike_id": "542dff1e065fffac3bc8c5a889080688", "type": "electric_bike", "is_reserved": 0, "lon": -77.0431105}, {"fusion_lat": 0.0, "name": "4c8ddc9fa80517418b5f53917fbe78b4", "is_disabled": 0, "rental_uris": {"android": "https://dc.lft.to/lastmile_qr_scan", "ios": "https://dc.lft.to/lastmile_qr_scan"}, "fusion_lon": 0.0, "lat": 38.90945966666666, "bike_id": "4c8ddc9fa80517418b5f53917fbe78b4", "type": "electric_scooter", "is_reserved": 0, "lon": -77.0344805}, {"fusion_lat": 0.0, "name": "eace0aba644d50a95a15d9195b103824", "is_disabled": 0, "rental_uris": {"android": "https://dc.lft.to/lastmile_qr_scan", "ios": "https://dc.lft.to/lastmile_qr_scan"}, "fusion_lon": 0.0, "lat": 38.90674633333333, "bike_id": "eace0aba644d50a95a15d9195b103824", "type": "electric_scooter", "is_reserved": 0, "lon": -77.01098016666667}, {"fusion_lat": 0.0, "name": "7bf3cf534c2d37f26b8e31b04f09edf1", "is_disabled": 0, "rental_uris": {"android": "https://dc.lft.to/lastmile_qr_scan", "ios": "https://dc.lft.to/lastmile_qr_scan"}, "fusion_lon": 0.0, "lat": 38.918198833333335, "bike_id": "7bf3cf534c2d37f26b8e31b04f09edf1", "type": "electric_scooter", "is_reserved": 0, "lon": -77.0368305}, {"fusion_lat": 0.0, "name": "a0e272a4d98c070d6c0488fb24d1f24a", "is_disabled": 0, "rental_uris": {"android": "https://dc.lft.to/lastmile_qr_scan", "ios": "https://dc.lft.to/lastmile_qr_scan"}, "fusion_lon": 0.0, "lat": 38.928849, "bike_id": "a0e272a4d98c070d6c0488fb24d1f24a", "type": "electric_scooter", "is_reserved": 0, "lon": -77.03744016666667}, {"fusion_lat": 0.0, "name": "fd835bfb4cbc637335d64b4b057bf83a", "is_disabled": 0, "rental_uris": {"android": "https://dc.lft.to/lastmile_qr_scan", "ios": "https://dc.lft.to/lastmile_qr_scan"}, "fusion_lon": 0.0, "lat": 38.918502333333336, "bike_id": "fd835bfb4cbc637335d64b4b057bf83a", "type": "electric_scooter", "is_reserved": 0, "lon": -76.96545883333333}, {"fusion_lat": 0.0, "name": "f50448562b01cf6f0a69b911ff01ba3f", "is_disabled": 0, "rental_uris": {"android": "https://dc.lft.to/lastmile_qr_scan", "ios": "https://dc.lft.to/lastmile_qr_scan"}, "fusion_lon": 0.0, "lat": 38.9175175, "bike_id": "f50448562b01cf6f0a69b911ff01ba3f", "type": "electric_scooter", "is_reserved": 0, "lon": -77.02116166666667}, {"fusion_lat": 0.0, "name": "4044b3698a9fd480c6bb8b89907cdd5f", "is_disabled": 0, "rental_uris": {"android": "https://dc.lft.to/lastmile_qr_scan", "ios": "https://dc.lft.to/lastmile_qr_scan"}, "fusion_lon": 0.0, "lat": 38.92062716666667, "bike_id": "4044b3698a9fd480c6bb8b89907cdd5f", "type": "electric_scooter", "is_reserved": 0, "lon": -77.0238005}, {"fusion_lat": 0.0, "name": "07cf09c1937b66aef66e45dce411809c", "is_disabled": 0, "rental_uris": {"android": "https://dc.lft.to/lastmile_qr_scan", "ios": "https://dc.lft.to/lastmile_qr_scan"}, "fusion_lon": 0.0, "lat": 38.94997683333333, "bike_id": "07cf09c1937b66aef66e45dce411809c", "type": "electric_scooter", "is_reserved": 0, "lon": -77.01950266666667}, {"fusion_lat": 0.0, "name": "01d059816c3e3644f01fb006d17d4338", "is_disabled": 0, "rental_uris": {"android": "https://dc.lft.to/lastmile_qr_scan", "ios": "https://dc.lft.to/lastmile_qr_scan"}, "fusion_lon": 0.0, "lat": 38.90030133333333, "bike_id": "01d059816c3e3644f01fb006d17d4338", "type": "electric_scooter", "is_reserved": 0, "lon": -77.0171625}, {"fusion_lat": 0.0, "name": "f49385a62c0079811ca04cffa9a88362", "is_disabled": 0, "rental_uris": {"android": "https://dc.lft.to/lastmile_qr_scan", "ios": "https://dc.lft.to/lastmile_qr_scan"}, "fusion_lon": 0.0, "lat": 38.904826666666665, "bike_id": "f49385a62c0079811ca04cffa9a88362", "type": "electric_scooter", "is_reserved": 0, "lon": -77.02718083333333}, {"fusion_lat": 0.0, "name": "e9fd6bd838aed4cb457b1b0c02ff2d3c", "is_disabled": 0, "rental_uris": {"android": "https://dc.lft.to/lastmile_qr_scan", "ios": "https://dc.lft.to/lastmile_qr_scan"}, "fusion_lon": 0.0, "lat": 38.90852, "bike_id": "e9fd6bd838aed4cb457b1b0c02ff2d3c", "type": "electric_scooter", "is_reserved": 0, "lon": -77.01017716666667}, {"fusion_lat": 0.0, "name": "abe2f6c8cbf2e0a7acfcbce9ada7698a", "is_disabled": 0, "rental_uris": {"android": "https://dc.lft.to/lastmile_qr_scan", "ios": "https://dc.lft.to/lastmile_qr_scan"}, "fusion_lon": 0.0, "lat": 38.92189883333333, "bike_id": "abe2f6c8cbf2e0a7acfcbce9ada7698a", "type": "electric_scooter", "is_reserved": 0, "lon": -77.04019116666667}, {"fusion_lat": 0.0, "name": "e8fbe69123079d6282a402b3b7ccd63f", "is_disabled": 0, "rental_uris": {"android": "https://dc.lft.to/lastmile_qr_scan", "ios": "https://dc.lft.to/lastmile_qr_scan"}, "fusion_lon": 0.0, "lat": 38.922915833333334, "bike_id": "e8fbe69123079d6282a402b3b7ccd63f", "type": "electric_scooter", "is_reserved": 0, "lon": -77.0420355}, {"fusion_lat": 0.0, "name": "146ccfde2e936d3f0d516bfb91a2431b", "is_disabled": 0, "rental_uris": {"android": "https://dc.lft.to/lastmile_qr_scan", "ios": "https://dc.lft.to/lastmile_qr_scan"}, "fusion_lon": 0.0, "lat": 38.926439333333335, "bike_id": "146ccfde2e936d3f0d516bfb91a2431b", "type": "electric_scooter", "is_reserved": 0, "lon": -77.041301}, {"fusion_lat": 0.0, "name": "7c5cd98e3ef888a72c3daf0e4cf0ff82", "is_disabled": 0, "rental_uris": {"android": "https://dc.lft.to/lastmile_qr_scan", "ios": "https://dc.lft.to/lastmile_qr_scan"}, "fusion_lon": 0.0, "lat": 38.90240166666667, "bike_id": "7c5cd98e3ef888a72c3daf0e4cf0ff82", "type": "electric_scooter", "is_reserved": 0, "lon": -77.00196783333334}, {"fusion_lat": 0.0, "name": "e7ad98bd4af3c96ad44e29f2d95593ba", "is_disabled": 0, "rental_uris": {"android": "https://dc.lft.to/lastmile_qr_scan", "ios": "https://dc.lft.to/lastmile_qr_scan"}, "fusion_lon": 0.0, "lat": 38.87373216666667, "bike_id": "e7ad98bd4af3c96ad44e29f2d95593ba", "type": "electric_scooter", "is_reserved": 0, "lon": -77.00064933333333}, {"fusion_lat": 0.0, "name": "c4d25effc84c7b9228ba114ac7aaae79", "is_disabled": 0, "rental_uris": {"android": "https://dc.lft.to/lastmile_qr_scan", "ios": "https://dc.lft.to/lastmile_qr_scan"}, "fusion_lon": 0.0, "lat": 38.90976883333333, "bike_id": "c4d25effc84c7b9228ba114ac7aaae79", "type": "electric_scooter", "is_reserved": 0, "lon": -77.03442333333334}, {"fusion_lat": 0.0, "name": "94e1077f6bd31f7f464e8f92cce987e1", "is_disabled": 0, "rental_uris": {"android": "https://dc.lft.to/lastmile_qr_scan", "ios": "https://dc.lft.to/lastmile_qr_scan"}, "fusion_lon": 0.0, "lat": 38.89468166666666, "bike_id": "94e1077f6bd31f7f464e8f92cce987e1", "type": "electric_scooter", "is_reserved": 0, "lon": -77.0176605}, {"fusion_lat": 0.0, "name": "6c3fe4a9bc52688bd019c1dd443d38ec", "is_disabled": 0, "rental_uris": {"android": "https://dc.lft.to/lastmile_qr_scan", "ios": "https://dc.lft.to/lastmile_qr_scan"}, "fusion_lon": 0.0, "lat": 38.923342833333336, "bike_id": "6c3fe4a9bc52688bd019c1dd443d38ec", "type": "electric_scooter", "is_reserved": 0, "lon": -77.036172}, {"fusion_lat": 0.0, "name": "cc62ec55b5e7a418983267601ac5d092", "is_disabled": 0, "rental_uris": {"android": "https://dc.lft.to/lastmile_qr_scan", "ios": "https://dc.lft.to/lastmile_qr_scan"}, "fusion_lon": 0.0, "lat": 38.90558, "bike_id": "cc62ec55b5e7a418983267601ac5d092", "type": "electric_scooter", "is_reserved": 0, "lon": -77.0486925}, {"fusion_lat": 0.0, "name": "b520d5af55c17121f6af2d20a04976f6", "is_disabled": 0, "rental_uris": {"android": "https://dc.lft.to/lastmile_qr_scan", "ios": "https://dc.lft.to/lastmile_qr_scan"}, "fusion_lon": 0.0, "lat": 38.9076285, "bike_id": "b520d5af55c17121f6af2d20a04976f6", "type": "electric_scooter", "is_reserved": 0, "lon": -77.03574866666666}, {"fusion_lat": 0.0, "name": "67d66009fcadbf71f4a3e2a125b926dc", "is_disabled": 0, "rental_uris": {"android": "https://dc.lft.to/lastmile_qr_scan", "ios": "https://dc.lft.to/lastmile_qr_scan"}, "fusion_lon": 0.0, "lat": 38.93533216666667, "bike_id": "67d66009fcadbf71f4a3e2a125b926dc", "type": "electric_scooter", "is_reserved": 0, "lon": -77.02344316666667}, {"fusion_lat": 0.0, "name": "7dc0271b0c8a7e908b01ef5a68bd42e4", "is_disabled": 0, "rental_uris": {"android": "https://dc.lft.to/lastmile_qr_scan", "ios": "https://dc.lft.to/lastmile_qr_scan"}, "fusion_lon": 0.0, "lat": 38.931477, "bike_id": "7dc0271b0c8a7e908b01ef5a68bd42e4", "type": "electric_scooter", "is_reserved": 0, "lon": -77.02141466666667}, {"fusion_lat": 0.0, "name": "13dcc46904927f1c865f70a13d575cd0", "is_disabled": 0, "rental_uris": {"android": "https://dc.lft.to/lastmile_qr_scan", "ios": "https://dc.lft.to/lastmile_qr_scan"}, "fusion_lon": 0.0, "lat": 38.89216233333333, "bike_id": "13dcc46904927f1c865f70a13d575cd0", "type": "electric_scooter", "is_reserved": 0, "lon": -77.0222325}, {"fusion_lat": 0.0, "name": "3f70d74a539eb1156cbe980f3e59c119", "is_disabled": 0, "rental_uris": {"android": "https://dc.lft.to/lastmile_qr_scan", "ios": "https://dc.lft.to/lastmile_qr_scan"}, "fusion_lon": 0.0, "lat": 38.9417745, "bike_id": "3f70d74a539eb1156cbe980f3e59c119", "type": "electric_scooter", "is_reserved": 0, "lon": -77.036533}, {"fusion_lat": 0.0, "name": "3e531f09d2f1348001ad4841fdb2b944", "is_disabled": 0, "rental_uris": {"android": "https://dc.lft.to/lastmile_qr_scan", "ios": "https://dc.lft.to/lastmile_qr_scan"}, "fusion_lon": 0.0, "lat": 38.89232633333334, "bike_id": "3e531f09d2f1348001ad4841fdb2b944", "type": "electric_scooter", "is_reserved": 0, "lon": -77.0489435}, {"fusion_lat": 0.0, "name": "9c36c94b4734a206901e88d362185b38", "is_disabled": 0, "rental_uris": {"android": "https://dc.lft.to/lastmile_qr_scan", "ios": "https://dc.lft.to/lastmile_qr_scan"}, "fusion_lon": 0.0, "lat": 38.924541833333336, "bike_id": "9c36c94b4734a206901e88d362185b38", "type": "electric_scooter", "is_reserved": 0, "lon": -76.9933385}, {"fusion_lat": 0.0, "name": "e7e4dca8040ba0fa4dc2a6c4e20eb88e", "is_disabled": 0, "rental_uris": {"android": "https://dc.lft.to/lastmile_qr_scan", "ios": "https://dc.lft.to/lastmile_qr_scan"}, "fusion_lon": 0.0, "lat": 38.91982566666667, "bike_id": "e7e4dca8040ba0fa4dc2a6c4e20eb88e", "type": "electric_scooter", "is_reserved": 0, "lon": -77.040846}, {"fusion_lat": 0.0, "name": "ceed1c19b2c90e20bc8d482fd284c803", "is_disabled": 0, "rental_uris": {"android": "https://dc.lft.to/lastmile_qr_scan", "ios": "https://dc.lft.to/lastmile_qr_scan"}, "fusion_lon": 0.0, "lat": 38.91026133333333, "bike_id": "ceed1c19b2c90e20bc8d482fd284c803", "type": "electric_scooter", "is_reserved": 0, "lon": -77.00758166666667}, {"fusion_lat": 0.0, "name": "a114d33963a5c1f56370e2eb69ad7557", "is_disabled": 0, "rental_uris": {"android": "https://dc.lft.to/lastmile_qr_scan", "ios": "https://dc.lft.to/lastmile_qr_scan"}, "fusion_lon": 0.0, "lat": 38.9009335, "bike_id": "a114d33963a5c1f56370e2eb69ad7557", "type": "electric_scooter", "is_reserved": 0, "lon": -77.01976166666667}, {"fusion_lat": 0.0, "name": "cbea2aa925878d69d1f0e0dc78279f2f", "is_disabled": 0, "rental_uris": {"android": "https://dc.lft.to/lastmile_qr_scan", "ios": "https://dc.lft.to/lastmile_qr_scan"}, "fusion_lon": 0.0, "lat": 38.862536, "bike_id": "cbea2aa925878d69d1f0e0dc78279f2f", "type": "electric_bike", "is_reserved": 0, "lon": -76.9833265}, {"fusion_lat": 0.0, "name": "186f08c9ac3dedd6fc36279cac9448c0", "is_disabled": 0, "rental_uris": {"android": "https://dc.lft.to/lastmile_qr_scan", "ios": "https://dc.lft.to/lastmile_qr_scan"}, "fusion_lon": 0.0, "lat": 38.92838183333333, "bike_id": "186f08c9ac3dedd6fc36279cac9448c0", "type": "electric_scooter", "is_reserved": 0, "lon": -76.9802845}, {"fusion_lat": 0.0, "name": "68aaaa85dded81e12e176ebe48126c6a", "is_disabled": 0, "rental_uris": {"android": "https://dc.lft.to/lastmile_qr_scan", "ios": "https://dc.lft.to/lastmile_qr_scan"}, "fusion_lon": 0.0, "lat": 38.857976, "bike_id": "68aaaa85dded81e12e176ebe48126c6a", "type": "electric_bike", "is_reserved": 0, "lon": -76.9871465}, {"fusion_lat": 0.0, "name": "5b8fbc20ffff17355dd2a85dab50bc80", "is_disabled": 0, "rental_uris": {"android": "https://dc.lft.to/lastmile_qr_scan", "ios": "https://dc.lft.to/lastmile_qr_scan"}, "fusion_lon": 0.0, "lat": 38.92059733333333, "bike_id": "5b8fbc20ffff17355dd2a85dab50bc80", "type": "electric_scooter", "is_reserved": 0, "lon": -76.99864266666667}, {"fusion_lat": 0.0, "name": "9642cc5f69d83da89bddfdcf62089370", "is_disabled": 0, "rental_uris": {"android": "https://dc.lft.to/lastmile_qr_scan", "ios": "https://dc.lft.to/lastmile_qr_scan"}, "fusion_lon": 0.0, "lat": 38.9142775, "bike_id": "9642cc5f69d83da89bddfdcf62089370", "type": "electric_scooter", "is_reserved": 0, "lon": -77.0449205}, {"fusion_lat": 0.0, "name": "09643c72b36ccfba87c5f0acda572e8e", "is_disabled": 0, "rental_uris": {"android": "https://dc.lft.to/lastmile_qr_scan", "ios": "https://dc.lft.to/lastmile_qr_scan"}, "fusion_lon": 0.0, "lat": 38.88872033333333, "bike_id": "09643c72b36ccfba87c5f0acda572e8e", "type": "electric_scooter", "is_reserved": 0, "lon": -77.0285445}, {"fusion_lat": 0.0, "name": "aef7395a442641ba1797db5551f1bfbb", "is_disabled": 0, "rental_uris": {"android": "https://dc.lft.to/lastmile_qr_scan", "ios": "https://dc.lft.to/lastmile_qr_scan"}, "fusion_lon": 0.0, "lat": 38.917191833333334, "bike_id": "aef7395a442641ba1797db5551f1bfbb", "type": "electric_scooter", "is_reserved": 0, "lon": -77.00813766666667}, {"fusion_lat": 0.0, "name": "adacc9213392ac2c17a1e4a1d0c0fba1", "is_disabled": 0, "rental_uris": {"android": "https://dc.lft.to/lastmile_qr_scan", "ios": "https://dc.lft.to/lastmile_qr_scan"}, "fusion_lon": 0.0, "lat": 38.923330166666666, "bike_id": "adacc9213392ac2c17a1e4a1d0c0fba1", "type": "electric_scooter", "is_reserved": 0, "lon": -77.035619}, {"fusion_lat": 0.0, "name": "c10e3f7e763839950cec6abbdc0b5376", "is_disabled": 0, "rental_uris": {"android": "https://dc.lft.to/lastmile_qr_scan", "ios": "https://dc.lft.to/lastmile_qr_scan"}, "fusion_lon": 0.0, "lat": 38.90873066666666, "bike_id": "c10e3f7e763839950cec6abbdc0b5376", "type": "electric_scooter", "is_reserved": 0, "lon": -77.02385183333334}, {"fusion_lat": 0.0, "name": "e6f21fb0e5cc6dc97930d0389bd3c92e", "is_disabled": 0, "rental_uris": {"android": "https://dc.lft.to/lastmile_qr_scan", "ios": "https://dc.lft.to/lastmile_qr_scan"}, "fusion_lon": 0.0, "lat": 38.98786033333333, "bike_id": "e6f21fb0e5cc6dc97930d0389bd3c92e", "type": "electric_bike", "is_reserved": 0, "lon": -77.14101516666666}, {"fusion_lat": 0.0, "name": "3df77f101019be192ed36b10af912df4", "is_disabled": 0, "rental_uris": {"android": "https://dc.lft.to/lastmile_qr_scan", "ios": "https://dc.lft.to/lastmile_qr_scan"}, "fusion_lon": 0.0, "lat": 38.941665666666665, "bike_id": "3df77f101019be192ed36b10af912df4", "type": "electric_bike", "is_reserved": 0, "lon": -76.9664705}, {"fusion_lat": 0.0, "name": "86aeb4775218ce3613676a237684e11e", "is_disabled": 0, "rental_uris": {"android": "https://dc.lft.to/lastmile_qr_scan", "ios": "https://dc.lft.to/lastmile_qr_scan"}, "fusion_lon": 0.0, "lat": 38.913242833333335, "bike_id": "86aeb4775218ce3613676a237684e11e", "type": "electric_scooter", "is_reserved": 0, "lon": -77.01213233333333}, {"fusion_lat": 0.0, "name": "fb1a17ce232823f023bf76dbb5d2542a", "is_disabled": 0, "rental_uris": {"android": "https://dc.lft.to/lastmile_qr_scan", "ios": "https://dc.lft.to/lastmile_qr_scan"}, "fusion_lon": 0.0, "lat": 38.904535, "bike_id": "fb1a17ce232823f023bf76dbb5d2542a", "type": "electric_scooter", "is_reserved": 0, "lon": -77.05878516666667}, {"fusion_lat": 0.0, "name": "f3bb574b819465094705ce2f715e0767", "is_disabled": 0, "rental_uris": {"android": "https://dc.lft.to/lastmile_qr_scan", "ios": "https://dc.lft.to/lastmile_qr_scan"}, "fusion_lon": 0.0, "lat": 38.941529833333334, "bike_id": "f3bb574b819465094705ce2f715e0767", "type": "electric_bike", "is_reserved": 0, "lon": -77.001899}, {"fusion_lat": 0.0, "name": "9d706e73ac1c63342b3264ecd6aa459b", "is_disabled": 0, "rental_uris": {"android": "https://dc.lft.to/lastmile_qr_scan", "ios": "https://dc.lft.to/lastmile_qr_scan"}, "fusion_lon": 0.0, "lat": 38.883590166666664, "bike_id": "9d706e73ac1c63342b3264ecd6aa459b", "type": "electric_scooter", "is_reserved": 0, "lon": -77.019887}, {"fusion_lat": 0.0, "name": "c09aa214f4156857f05fb8d0186fb982", "is_disabled": 0, "rental_uris": {"android": "https://dc.lft.to/lastmile_qr_scan", "ios": "https://dc.lft.to/lastmile_qr_scan"}, "fusion_lon": 0.0, "lat": 38.887194, "bike_id": "c09aa214f4156857f05fb8d0186fb982", "type": "electric_scooter", "is_reserved": 0, "lon": -77.025788}, {"fusion_lat": 0.0, "name": "a726c93bcb9833b80c7f31e8883776ac", "is_disabled": 0, "rental_uris": {"android": "https://dc.lft.to/lastmile_qr_scan", "ios": "https://dc.lft.to/lastmile_qr_scan"}, "fusion_lon": 0.0, "lat": 38.8956095, "bike_id": "a726c93bcb9833b80c7f31e8883776ac", "type": "electric_scooter", "is_reserved": 0, "lon": -77.023986}, {"fusion_lat": 0.0, "name": "09fe650b1d46fd396eb22088396596e0", "is_disabled": 0, "rental_uris": {"android": "https://dc.lft.to/lastmile_qr_scan", "ios": "https://dc.lft.to/lastmile_qr_scan"}, "fusion_lon": 0.0, "lat": 38.900254333333336, "bike_id": "09fe650b1d46fd396eb22088396596e0", "type": "electric_scooter", "is_reserved": 0, "lon": -77.02391466666667}, {"fusion_lat": 0.0, "name": "f7432eede09025fc2217aab4077b0b35", "is_disabled": 0, "rental_uris": {"android": "https://dc.lft.to/lastmile_qr_scan", "ios": "https://dc.lft.to/lastmile_qr_scan"}, "fusion_lon": 0.0, "lat": 38.92860916666667, "bike_id": "f7432eede09025fc2217aab4077b0b35", "type": "electric_scooter", "is_reserved": 0, "lon": -77.03436666666667}, {"fusion_lat": 0.0, "name": "6d6f6e1c8af041c9e8d17adbf3894f0d", "is_disabled": 0, "rental_uris": {"android": "https://dc.lft.to/lastmile_qr_scan", "ios": "https://dc.lft.to/lastmile_qr_scan"}, "fusion_lon": 0.0, "lat": 38.87370716666667, "bike_id": "6d6f6e1c8af041c9e8d17adbf3894f0d", "type": "electric_scooter", "is_reserved": 0, "lon": -77.00125366666667}, {"fusion_lat": 0.0, "name": "5a9dac28367c13c0dbb426bdd20d5582", "is_disabled": 0, "rental_uris": {"android": "https://dc.lft.to/lastmile_qr_scan", "ios": "https://dc.lft.to/lastmile_qr_scan"}, "fusion_lon": 0.0, "lat": 38.90065, "bike_id": "5a9dac28367c13c0dbb426bdd20d5582", "type": "electric_scooter", "is_reserved": 0, "lon": -76.93383933333334}, {"fusion_lat": 0.0, "name": "c242e3dfd916a1722e3415ddf88b13bb", "is_disabled": 0, "rental_uris": {"android": "https://dc.lft.to/lastmile_qr_scan", "ios": "https://dc.lft.to/lastmile_qr_scan"}, "fusion_lon": 0.0, "lat": 38.915511, "bike_id": "c242e3dfd916a1722e3415ddf88b13bb", "type": "electric_scooter", "is_reserved": 0, "lon": -77.01131683333334}, {"fusion_lat": 0.0, "name": "fa66789fa3fe16dc926835f4d0723fdc", "is_disabled": 0, "rental_uris": {"android": "https://dc.lft.to/lastmile_qr_scan", "ios": "https://dc.lft.to/lastmile_qr_scan"}, "fusion_lon": 0.0, "lat": 38.939991166666665, "bike_id": "fa66789fa3fe16dc926835f4d0723fdc", "type": "electric_scooter", "is_reserved": 0, "lon": -77.08425966666667}, {"fusion_lat": 0.0, "name": "93517853f07fa02cbce7ef1ceb632d30", "is_disabled": 0, "rental_uris": {"android": "https://dc.lft.to/lastmile_qr_scan", "ios": "https://dc.lft.to/lastmile_qr_scan"}, "fusion_lon": 0.0, "lat": 38.897217, "bike_id": "93517853f07fa02cbce7ef1ceb632d30", "type": "electric_scooter", "is_reserved": 0, "lon": -77.031211}, {"fusion_lat": 0.0, "name": "c517eac157b24ff901664425b2b9a1ab", "is_disabled": 0, "rental_uris": {"android": "https://dc.lft.to/lastmile_qr_scan", "ios": "https://dc.lft.to/lastmile_qr_scan"}, "fusion_lon": 0.0, "lat": 38.942725833333334, "bike_id": "c517eac157b24ff901664425b2b9a1ab", "type": "electric_scooter", "is_reserved": 0, "lon": -77.03257733333334}, {"fusion_lat": 0.0, "name": "2e525cc6edb11075bd73c1ab0fad5922", "is_disabled": 0, "rental_uris": {"android": "https://dc.lft.to/lastmile_qr_scan", "ios": "https://dc.lft.to/lastmile_qr_scan"}, "fusion_lon": 0.0, "lat": 38.9142935, "bike_id": "2e525cc6edb11075bd73c1ab0fad5922", "type": "electric_scooter", "is_reserved": 0, "lon": -77.0219955}, {"fusion_lat": 0.0, "name": "b700308e49fe468f59e74a9d3ef8dc3e", "is_disabled": 0, "rental_uris": {"android": "https://dc.lft.to/lastmile_qr_scan", "ios": "https://dc.lft.to/lastmile_qr_scan"}, "fusion_lon": 0.0, "lat": 38.906805166666665, "bike_id": "b700308e49fe468f59e74a9d3ef8dc3e", "type": "electric_scooter", "is_reserved": 0, "lon": -77.07214033333334}, {"fusion_lat": 0.0, "name": "06b26360904d96c16a7b8ab114abf46a", "is_disabled": 0, "rental_uris": {"android": "https://dc.lft.to/lastmile_qr_scan", "ios": "https://dc.lft.to/lastmile_qr_scan"}, "fusion_lon": 0.0, "lat": 38.83512233333333, "bike_id": "06b26360904d96c16a7b8ab114abf46a", "type": "electric_bike", "is_reserved": 0, "lon": -76.98681666666667}, {"fusion_lat": 0.0, "name": "0b221114f6d35164610490667d55c1a0", "is_disabled": 0, "rental_uris": {"android": "https://dc.lft.to/lastmile_qr_scan", "ios": "https://dc.lft.to/lastmile_qr_scan"}, "fusion_lon": 0.0, "lat": 38.912674, "bike_id": "0b221114f6d35164610490667d55c1a0", "type": "electric_scooter", "is_reserved": 0, "lon": -77.038252}, {"fusion_lat": 0.0, "name": "a3b727dcb73c9d595ac78f9441caa7b7", "is_disabled": 0, "rental_uris": {"android": "https://dc.lft.to/lastmile_qr_scan", "ios": "https://dc.lft.to/lastmile_qr_scan"}, "fusion_lon": 0.0, "lat": 38.902463166666664, "bike_id": "a3b727dcb73c9d595ac78f9441caa7b7", "type": "electric_scooter", "is_reserved": 0, "lon": -77.04348066666667}, {"fusion_lat": 0.0, "name": "2446a331a8e7788cfe19797f72282f13", "is_disabled": 0, "rental_uris": {"android": "https://dc.lft.to/lastmile_qr_scan", "ios": "https://dc.lft.to/lastmile_qr_scan"}, "fusion_lon": 0.0, "lat": 38.91290766666667, "bike_id": "2446a331a8e7788cfe19797f72282f13", "type": "electric_scooter", "is_reserved": 0, "lon": -77.045178}, {"fusion_lat": 0.0, "name": "a946620f62b4981cf15579008796fdd4", "is_disabled": 0, "rental_uris": {"android": "https://dc.lft.to/lastmile_qr_scan", "ios": "https://dc.lft.to/lastmile_qr_scan"}, "fusion_lon": 0.0, "lat": 38.92249483333333, "bike_id": "a946620f62b4981cf15579008796fdd4", "type": "electric_scooter", "is_reserved": 0, "lon": -77.04254633333333}, {"fusion_lat": 0.0, "name": "c93d75567fb131d5d3282a7ef160b6fa", "is_disabled": 0, "rental_uris": {"android": "https://dc.lft.to/lastmile_qr_scan", "ios": "https://dc.lft.to/lastmile_qr_scan"}, "fusion_lon": 0.0, "lat": 38.89761383333333, "bike_id": "c93d75567fb131d5d3282a7ef160b6fa", "type": "electric_scooter", "is_reserved": 0, "lon": -77.02682016666667}, {"fusion_lat": 0.0, "name": "1ff116b7f66d973502529708986e41c4", "is_disabled": 0, "rental_uris": {"android": "https://dc.lft.to/lastmile_qr_scan", "ios": "https://dc.lft.to/lastmile_qr_scan"}, "fusion_lon": 0.0, "lat": 38.89740966666667, "bike_id": "1ff116b7f66d973502529708986e41c4", "type": "electric_scooter", "is_reserved": 0, "lon": -77.048267}, {"fusion_lat": 0.0, "name": "cca9007f0a1141118c0978aa1388bc77", "is_disabled": 0, "rental_uris": {"android": "https://dc.lft.to/lastmile_qr_scan", "ios": "https://dc.lft.to/lastmile_qr_scan"}, "fusion_lon": 0.0, "lat": 38.8780865, "bike_id": "cca9007f0a1141118c0978aa1388bc77", "type": "electric_scooter", "is_reserved": 0, "lon": -77.01532516666667}, {"fusion_lat": 0.0, "name": "2290a5a6e0625487c73ab8d846259a54", "is_disabled": 0, "rental_uris": {"android": "https://dc.lft.to/lastmile_qr_scan", "ios": "https://dc.lft.to/lastmile_qr_scan"}, "fusion_lon": 0.0, "lat": 38.871349, "bike_id": "2290a5a6e0625487c73ab8d846259a54", "type": "electric_scooter", "is_reserved": 0, "lon": -77.01225533333333}, {"fusion_lat": 0.0, "name": "193764400c81407b938192da98fb5e89", "is_disabled": 0, "rental_uris": {"android": "https://dc.lft.to/lastmile_qr_scan", "ios": "https://dc.lft.to/lastmile_qr_scan"}, "fusion_lon": 0.0, "lat": 38.935737833333334, "bike_id": "193764400c81407b938192da98fb5e89", "type": "electric_scooter", "is_reserved": 0, "lon": -77.01927283333333}, {"fusion_lat": 0.0, "name": "c5cecd78461061179d02bac400bae70c", "is_disabled": 0, "rental_uris": {"android": "https://dc.lft.to/lastmile_qr_scan", "ios": "https://dc.lft.to/lastmile_qr_scan"}, "fusion_lon": 0.0, "lat": 38.91608633333333, "bike_id": "c5cecd78461061179d02bac400bae70c", "type": "electric_scooter", "is_reserved": 0, "lon": -77.04582733333334}, {"fusion_lat": 0.0, "name": "d99b6a212bad77d9235b39cd737d4434", "is_disabled": 0, "rental_uris": {"android": "https://dc.lft.to/lastmile_qr_scan", "ios": "https://dc.lft.to/lastmile_qr_scan"}, "fusion_lon": 0.0, "lat": 38.92250516666667, "bike_id": "d99b6a212bad77d9235b39cd737d4434", "type": "electric_scooter", "is_reserved": 0, "lon": -77.03385416666667}, {"fusion_lat": 0.0, "name": "42bc1c1878f96826987ba04f0785cfc8", "is_disabled": 0, "rental_uris": {"android": "https://dc.lft.to/lastmile_qr_scan", "ios": "https://dc.lft.to/lastmile_qr_scan"}, "fusion_lon": 0.0, "lat": 38.892275833333336, "bike_id": "42bc1c1878f96826987ba04f0785cfc8", "type": "electric_scooter", "is_reserved": 0, "lon": -77.02656316666666}, {"fusion_lat": 0.0, "name": "b4812b902e2627f86d7780065b42fb29", "is_disabled": 0, "rental_uris": {"android": "https://dc.lft.to/lastmile_qr_scan", "ios": "https://dc.lft.to/lastmile_qr_scan"}, "fusion_lon": 0.0, "lat": 38.932598, "bike_id": "b4812b902e2627f86d7780065b42fb29", "type": "electric_scooter", "is_reserved": 0, "lon": -77.03457133333333}, {"fusion_lat": 0.0, "name": "74ed58e8d18bea2a26e6e39d96ed0744", "is_disabled": 0, "rental_uris": {"android": "https://dc.lft.to/lastmile_qr_scan", "ios": "https://dc.lft.to/lastmile_qr_scan"}, "fusion_lon": 0.0, "lat": 38.914095, "bike_id": "74ed58e8d18bea2a26e6e39d96ed0744", "type": "electric_scooter", "is_reserved": 0, "lon": -77.0393695}, {"fusion_lat": 0.0, "name": "2ea10596ccc9396c54d07cabde3dd3e7", "is_disabled": 0, "rental_uris": {"android": "https://dc.lft.to/lastmile_qr_scan", "ios": "https://dc.lft.to/lastmile_qr_scan"}, "fusion_lon": 0.0, "lat": 38.90204416666667, "bike_id": "2ea10596ccc9396c54d07cabde3dd3e7", "type": "electric_scooter", "is_reserved": 0, "lon": -77.023787}, {"fusion_lat": 0.0, "name": "94262295680adfa69ad92414a4afb39c", "is_disabled": 0, "rental_uris": {"android": "https://dc.lft.to/lastmile_qr_scan", "ios": "https://dc.lft.to/lastmile_qr_scan"}, "fusion_lon": 0.0, "lat": 38.927646833333334, "bike_id": "94262295680adfa69ad92414a4afb39c", "type": "electric_scooter", "is_reserved": 0, "lon": -77.022913}, {"fusion_lat": 0.0, "name": "e3d81d469a0cc79502261fe1f90c987e", "is_disabled": 0, "rental_uris": {"android": "https://dc.lft.to/lastmile_qr_scan", "ios": "https://dc.lft.to/lastmile_qr_scan"}, "fusion_lon": 0.0, "lat": 38.9170405, "bike_id": "e3d81d469a0cc79502261fe1f90c987e", "type": "electric_scooter", "is_reserved": 0, "lon": -77.03466433333334}, {"fusion_lat": 0.0, "name": "18d4ef92905d385476dfb181a961fc0c", "is_disabled": 0, "rental_uris": {"android": "https://dc.lft.to/lastmile_qr_scan", "ios": "https://dc.lft.to/lastmile_qr_scan"}, "fusion_lon": 0.0, "lat": 38.9385855, "bike_id": "18d4ef92905d385476dfb181a961fc0c", "type": "electric_scooter", "is_reserved": 0, "lon": -77.034317}, {"fusion_lat": 0.0, "name": "be7445189dee3ba4b52eb238a2b405f6", "is_disabled": 0, "rental_uris": {"android": "https://dc.lft.to/lastmile_qr_scan", "ios": "https://dc.lft.to/lastmile_qr_scan"}, "fusion_lon": 0.0, "lat": 38.89908883333333, "bike_id": "be7445189dee3ba4b52eb238a2b405f6", "type": "electric_scooter", "is_reserved": 0, "lon": -76.93348016666667}, {"fusion_lat": 0.0, "name": "debd298537ec5b25448169a70c6d312c", "is_disabled": 0, "rental_uris": {"android": "https://dc.lft.to/lastmile_qr_scan", "ios": "https://dc.lft.to/lastmile_qr_scan"}, "fusion_lon": 0.0, "lat": 38.897358833333335, "bike_id": "debd298537ec5b25448169a70c6d312c", "type": "electric_scooter", "is_reserved": 0, "lon": -77.0275005}, {"fusion_lat": 0.0, "name": "ec41ef4a3b3fa38f65a951bc97e56bb5", "is_disabled": 0, "rental_uris": {"android": "https://dc.lft.to/lastmile_qr_scan", "ios": "https://dc.lft.to/lastmile_qr_scan"}, "fusion_lon": 0.0, "lat": 38.93407333333333, "bike_id": "ec41ef4a3b3fa38f65a951bc97e56bb5", "type": "electric_scooter", "is_reserved": 0, "lon": -77.04155816666666}, {"fusion_lat": 0.0, "name": "b98d8b5dfc2be8cd7723a81650ed298a", "is_disabled": 0, "rental_uris": {"android": "https://dc.lft.to/lastmile_qr_scan", "ios": "https://dc.lft.to/lastmile_qr_scan"}, "fusion_lon": 0.0, "lat": 38.918494833333334, "bike_id": "b98d8b5dfc2be8cd7723a81650ed298a", "type": "electric_scooter", "is_reserved": 0, "lon": -77.0244355}, {"fusion_lat": 0.0, "name": "c820d109208c33b57090ae45d9a0a919", "is_disabled": 0, "rental_uris": {"android": "https://dc.lft.to/lastmile_qr_scan", "ios": "https://dc.lft.to/lastmile_qr_scan"}, "fusion_lon": 0.0, "lat": 38.90560983333334, "bike_id": "c820d109208c33b57090ae45d9a0a919", "type": "electric_scooter", "is_reserved": 0, "lon": -77.04661416666667}, {"fusion_lat": 0.0, "name": "fa0122e6b4334e31dd416b5602671ac4", "is_disabled": 0, "rental_uris": {"android": "https://dc.lft.to/lastmile_qr_scan", "ios": "https://dc.lft.to/lastmile_qr_scan"}, "fusion_lon": 0.0, "lat": 38.876537166666665, "bike_id": "fa0122e6b4334e31dd416b5602671ac4", "type": "electric_scooter", "is_reserved": 0, "lon": -77.0006135}, {"fusion_lat": 0.0, "name": "f26e1caa463ce46fb4549fb6c8accae0", "is_disabled": 0, "rental_uris": {"android": "https://dc.lft.to/lastmile_qr_scan", "ios": "https://dc.lft.to/lastmile_qr_scan"}, "fusion_lon": 0.0, "lat": 38.89996283333333, "bike_id": "f26e1caa463ce46fb4549fb6c8accae0", "type": "electric_scooter", "is_reserved": 0, "lon": -77.02283416666667}, {"fusion_lat": 0.0, "name": "d91cff7625ffbd5439a2b6be9b7f42da", "is_disabled": 0, "rental_uris": {"android": "https://dc.lft.to/lastmile_qr_scan", "ios": "https://dc.lft.to/lastmile_qr_scan"}, "fusion_lon": 0.0, "lat": 38.89754533333333, "bike_id": "d91cff7625ffbd5439a2b6be9b7f42da", "type": "electric_scooter", "is_reserved": 0, "lon": -77.02200533333334}, {"fusion_lat": 0.0, "name": "2f1930c0e49f51254992f1d26011d763", "is_disabled": 0, "rental_uris": {"android": "https://dc.lft.to/lastmile_qr_scan", "ios": "https://dc.lft.to/lastmile_qr_scan"}, "fusion_lon": 0.0, "lat": 38.923349, "bike_id": "2f1930c0e49f51254992f1d26011d763", "type": "electric_scooter", "is_reserved": 0, "lon": -77.03616933333333}, {"fusion_lat": 0.0, "name": "2e86886191db04534f7ac95a34b1ea8d", "is_disabled": 0, "rental_uris": {"android": "https://dc.lft.to/lastmile_qr_scan", "ios": "https://dc.lft.to/lastmile_qr_scan"}, "fusion_lon": 0.0, "lat": 38.898335833333334, "bike_id": "2e86886191db04534f7ac95a34b1ea8d", "type": "electric_scooter", "is_reserved": 0, "lon": -77.00747666666666}, {"fusion_lat": 0.0, "name": "145a37b6e5488281b1f4c37e1e2ceea9", "is_disabled": 0, "rental_uris": {"android": "https://dc.lft.to/lastmile_qr_scan", "ios": "https://dc.lft.to/lastmile_qr_scan"}, "fusion_lon": 0.0, "lat": 39.070518, "bike_id": "145a37b6e5488281b1f4c37e1e2ceea9", "type": "electric_bike", "is_reserved": 0, "lon": -77.11482333333333}, {"fusion_lat": 0.0, "name": "794b49b5cb070bb3bf003007d8ce1b17", "is_disabled": 0, "rental_uris": {"android": "https://dc.lft.to/lastmile_qr_scan", "ios": "https://dc.lft.to/lastmile_qr_scan"}, "fusion_lon": 0.0, "lat": 38.9016925, "bike_id": "794b49b5cb070bb3bf003007d8ce1b17", "type": "electric_scooter", "is_reserved": 0, "lon": -77.05324133333333}, {"fusion_lat": 0.0, "name": "a60cc869e0ed9d79c2242053bd638868", "is_disabled": 0, "rental_uris": {"android": "https://dc.lft.to/lastmile_qr_scan", "ios": "https://dc.lft.to/lastmile_qr_scan"}, "fusion_lon": 0.0, "lat": 38.92356783333334, "bike_id": "a60cc869e0ed9d79c2242053bd638868", "type": "electric_scooter", "is_reserved": 0, "lon": -77.03370383333333}, {"fusion_lat": 0.0, "name": "8f9f5b7a1bc5648041e37a96eff12ef7", "is_disabled": 0, "rental_uris": {"android": "https://dc.lft.to/lastmile_qr_scan", "ios": "https://dc.lft.to/lastmile_qr_scan"}, "fusion_lon": 0.0, "lat": 38.9285605, "bike_id": "8f9f5b7a1bc5648041e37a96eff12ef7", "type": "electric_scooter", "is_reserved": 0, "lon": -77.03528216666666}, {"fusion_lat": 0.0, "name": "c78087f602c7a7d55704d06e267a1887", "is_disabled": 0, "rental_uris": {"android": "https://dc.lft.to/lastmile_qr_scan", "ios": "https://dc.lft.to/lastmile_qr_scan"}, "fusion_lon": 0.0, "lat": 38.902109833333334, "bike_id": "c78087f602c7a7d55704d06e267a1887", "type": "electric_scooter", "is_reserved": 0, "lon": -76.98613666666667}, {"fusion_lat": 0.0, "name": "355efb4f45925b793569314890b0ac87", "is_disabled": 0, "rental_uris": {"android": "https://dc.lft.to/lastmile_qr_scan", "ios": "https://dc.lft.to/lastmile_qr_scan"}, "fusion_lon": 0.0, "lat": 38.83106816666667, "bike_id": "355efb4f45925b793569314890b0ac87", "type": "electric_bike", "is_reserved": 0, "lon": -76.99440016666667}, {"fusion_lat": 0.0, "name": "b052fc91ac1069d33cecf833be5da603", "is_disabled": 0, "rental_uris": {"android": "https://dc.lft.to/lastmile_qr_scan", "ios": "https://dc.lft.to/lastmile_qr_scan"}, "fusion_lon": 0.0, "lat": 38.904871166666666, "bike_id": "b052fc91ac1069d33cecf833be5da603", "type": "electric_scooter", "is_reserved": 0, "lon": -77.0295865}, {"fusion_lat": 0.0, "name": "6092949279b0745391118300948456df", "is_disabled": 0, "rental_uris": {"android": "https://dc.lft.to/lastmile_qr_scan", "ios": "https://dc.lft.to/lastmile_qr_scan"}, "fusion_lon": 0.0, "lat": 38.9291875, "bike_id": "6092949279b0745391118300948456df", "type": "electric_bike", "is_reserved": 0, "lon": -77.03765316666667}, {"fusion_lat": 0.0, "name": "24233ae3add36f773faa4fb916809b2b", "is_disabled": 0, "rental_uris": {"android": "https://dc.lft.to/lastmile_qr_scan", "ios": "https://dc.lft.to/lastmile_qr_scan"}, "fusion_lon": 0.0, "lat": 38.9648255, "bike_id": "24233ae3add36f773faa4fb916809b2b", "type": "electric_bike", "is_reserved": 0, "lon": -77.10710866666666}, {"fusion_lat": 0.0, "name": "67ead4b9d81efcb3b06627b5719d770c", "is_disabled": 0, "rental_uris": {"android": "https://dc.lft.to/lastmile_qr_scan", "ios": "https://dc.lft.to/lastmile_qr_scan"}, "fusion_lon": 0.0, "lat": 38.90835333333333, "bike_id": "67ead4b9d81efcb3b06627b5719d770c", "type": "electric_scooter", "is_reserved": 0, "lon": -77.00209183333334}, {"fusion_lat": 0.0, "name": "91b5411cec582a1120d3070596f62794", "is_disabled": 0, "rental_uris": {"android": "https://dc.lft.to/lastmile_qr_scan", "ios": "https://dc.lft.to/lastmile_qr_scan"}, "fusion_lon": 0.0, "lat": 38.92329266666667, "bike_id": "91b5411cec582a1120d3070596f62794", "type": "electric_scooter", "is_reserved": 0, "lon": -77.038101}, {"fusion_lat": 0.0, "name": "09a81f8f79b395c7bde0433596413e8e", "is_disabled": 0, "rental_uris": {"android": "https://dc.lft.to/lastmile_qr_scan", "ios": "https://dc.lft.to/lastmile_qr_scan"}, "fusion_lon": 0.0, "lat": 38.8850735, "bike_id": "09a81f8f79b395c7bde0433596413e8e", "type": "electric_scooter", "is_reserved": 0, "lon": -77.01114733333333}, {"fusion_lat": 0.0, "name": "e30ee744f63b6befc7ce3eb10ff4b306", "is_disabled": 0, "rental_uris": {"android": "https://dc.lft.to/lastmile_qr_scan", "ios": "https://dc.lft.to/lastmile_qr_scan"}, "fusion_lon": 0.0, "lat": 38.91433983333334, "bike_id": "e30ee744f63b6befc7ce3eb10ff4b306", "type": "electric_scooter", "is_reserved": 0, "lon": -76.9935395}, {"fusion_lat": 0.0, "name": "c5abcaa43b0e91c163ef624c9e0b223f", "is_disabled": 0, "rental_uris": {"android": "https://dc.lft.to/lastmile_qr_scan", "ios": "https://dc.lft.to/lastmile_qr_scan"}, "fusion_lon": 0.0, "lat": 38.939612833333335, "bike_id": "c5abcaa43b0e91c163ef624c9e0b223f", "type": "electric_scooter", "is_reserved": 0, "lon": -77.03283216666667}, {"fusion_lat": 0.0, "name": "15ac261cfddfea267e11e04e0e832d4c", "is_disabled": 0, "rental_uris": {"android": "https://dc.lft.to/lastmile_qr_scan", "ios": "https://dc.lft.to/lastmile_qr_scan"}, "fusion_lon": 0.0, "lat": 38.879111333333334, "bike_id": "15ac261cfddfea267e11e04e0e832d4c", "type": "electric_scooter", "is_reserved": 0, "lon": -77.00578333333333}, {"fusion_lat": 0.0, "name": "68b2788ae47cd1e09fed2a7c602d6284", "is_disabled": 0, "rental_uris": {"android": "https://dc.lft.to/lastmile_qr_scan", "ios": "https://dc.lft.to/lastmile_qr_scan"}, "fusion_lon": 0.0, "lat": 38.90065583333333, "bike_id": "68b2788ae47cd1e09fed2a7c602d6284", "type": "electric_bike", "is_reserved": 0, "lon": -76.97958166666666}, {"fusion_lat": 0.0, "name": "c6975b1562e2ec597f6565fa579d00d6", "is_disabled": 0, "rental_uris": {"android": "https://dc.lft.to/lastmile_qr_scan", "ios": "https://dc.lft.to/lastmile_qr_scan"}, "fusion_lon": 0.0, "lat": 38.892165166666665, "bike_id": "c6975b1562e2ec597f6565fa579d00d6", "type": "electric_scooter", "is_reserved": 0, "lon": -77.03218233333334}, {"fusion_lat": 0.0, "name": "b751dea3cff294e277436fadff9b3cd0", "is_disabled": 0, "rental_uris": {"android": "https://dc.lft.to/lastmile_qr_scan", "ios": "https://dc.lft.to/lastmile_qr_scan"}, "fusion_lon": 0.0, "lat": 38.917604833333336, "bike_id": "b751dea3cff294e277436fadff9b3cd0", "type": "electric_scooter", "is_reserved": 0, "lon": -77.017589}, {"fusion_lat": 0.0, "name": "01a65d7b80521301697fe7a31a41ed9f", "is_disabled": 0, "rental_uris": {"android": "https://dc.lft.to/lastmile_qr_scan", "ios": "https://dc.lft.to/lastmile_qr_scan"}, "fusion_lon": 0.0, "lat": 38.930781833333334, "bike_id": "01a65d7b80521301697fe7a31a41ed9f", "type": "electric_scooter", "is_reserved": 0, "lon": -77.01989533333334}, {"fusion_lat": 0.0, "name": "ea2ce3ce2be3c20a0959eed797c144fb", "is_disabled": 0, "rental_uris": {"android": "https://dc.lft.to/lastmile_qr_scan", "ios": "https://dc.lft.to/lastmile_qr_scan"}, "fusion_lon": 0.0, "lat": 38.901297, "bike_id": "ea2ce3ce2be3c20a0959eed797c144fb", "type": "electric_scooter", "is_reserved": 0, "lon": -77.04489033333333}, {"fusion_lat": 0.0, "name": "e45f8cb2b7a6f0587f20f495bd237b2c", "is_disabled": 0, "rental_uris": {"android": "https://dc.lft.to/lastmile_qr_scan", "ios": "https://dc.lft.to/lastmile_qr_scan"}, "fusion_lon": 0.0, "lat": 38.920441333333336, "bike_id": "e45f8cb2b7a6f0587f20f495bd237b2c", "type": "electric_scooter", "is_reserved": 0, "lon": -77.03409583333334}, {"fusion_lat": 0.0, "name": "266684c268ba22a9fb9244db3a0e1623", "is_disabled": 0, "rental_uris": {"android": "https://dc.lft.to/lastmile_qr_scan", "ios": "https://dc.lft.to/lastmile_qr_scan"}, "fusion_lon": 0.0, "lat": 38.92615266666667, "bike_id": "266684c268ba22a9fb9244db3a0e1623", "type": "electric_scooter", "is_reserved": 0, "lon": -77.0418815}, {"fusion_lat": 0.0, "name": "00a12365c622d8c38b9dc2483af32c58", "is_disabled": 0, "rental_uris": {"android": "https://dc.lft.to/lastmile_qr_scan", "ios": "https://dc.lft.to/lastmile_qr_scan"}, "fusion_lon": 0.0, "lat": 38.9336145, "bike_id": "00a12365c622d8c38b9dc2483af32c58", "type": "electric_scooter", "is_reserved": 0, "lon": -77.03884933333333}, {"fusion_lat": 0.0, "name": "64ac9dd9163fbf7664fcfd0e9fef60e7", "is_disabled": 0, "rental_uris": {"android": "https://dc.lft.to/lastmile_qr_scan", "ios": "https://dc.lft.to/lastmile_qr_scan"}, "fusion_lon": 0.0, "lat": 38.93633766666667, "bike_id": "64ac9dd9163fbf7664fcfd0e9fef60e7", "type": "electric_scooter", "is_reserved": 0, "lon": -77.0365895}, {"fusion_lat": 0.0, "name": "740e7ee6edc6cfb20f7f2339e88c5bbf", "is_disabled": 0, "rental_uris": {"android": "https://dc.lft.to/lastmile_qr_scan", "ios": "https://dc.lft.to/lastmile_qr_scan"}, "fusion_lon": 0.0, "lat": 38.90688866666667, "bike_id": "740e7ee6edc6cfb20f7f2339e88c5bbf", "type": "electric_scooter", "is_reserved": 0, "lon": -77.01539533333333}, {"fusion_lat": 0.0, "name": "a6281f0c803a4c7f79a47acfb7b0dfb2", "is_disabled": 0, "rental_uris": {"android": "https://dc.lft.to/lastmile_qr_scan", "ios": "https://dc.lft.to/lastmile_qr_scan"}, "fusion_lon": 0.0, "lat": 38.90340283333333, "bike_id": "a6281f0c803a4c7f79a47acfb7b0dfb2", "type": "electric_scooter", "is_reserved": 0, "lon": -76.972523}, {"fusion_lat": 0.0, "name": "9b9eaa31f07bc4f82bfd55304ae976b6", "is_disabled": 0, "rental_uris": {"android": "https://dc.lft.to/lastmile_qr_scan", "ios": "https://dc.lft.to/lastmile_qr_scan"}, "fusion_lon": 0.0, "lat": 38.94133183333334, "bike_id": "9b9eaa31f07bc4f82bfd55304ae976b6", "type": "electric_scooter", "is_reserved": 0, "lon": -77.00608883333334}, {"fusion_lat": 0.0, "name": "89ff864c030b7cc36845eab69e05c3b8", "is_disabled": 0, "rental_uris": {"android": "https://dc.lft.to/lastmile_qr_scan", "ios": "https://dc.lft.to/lastmile_qr_scan"}, "fusion_lon": 0.0, "lat": 38.90368333333333, "bike_id": "89ff864c030b7cc36845eab69e05c3b8", "type": "electric_scooter", "is_reserved": 0, "lon": -77.03860133333333}, {"fusion_lat": 0.0, "name": "268e348d1030eccd7a81b2c64f883e84", "is_disabled": 0, "rental_uris": {"android": "https://dc.lft.to/lastmile_qr_scan", "ios": "https://dc.lft.to/lastmile_qr_scan"}, "fusion_lon": 0.0, "lat": 38.905759333333336, "bike_id": "268e348d1030eccd7a81b2c64f883e84", "type": "electric_scooter", "is_reserved": 0, "lon": -77.03468983333333}, {"fusion_lat": 0.0, "name": "7f83f01e37acc60b162c63eaa8e7512b", "is_disabled": 0, "rental_uris": {"android": "https://dc.lft.to/lastmile_qr_scan", "ios": "https://dc.lft.to/lastmile_qr_scan"}, "fusion_lon": 0.0, "lat": 38.83930216666667, "bike_id": "7f83f01e37acc60b162c63eaa8e7512b", "type": "electric_bike", "is_reserved": 0, "lon": -77.07900616666667}, {"fusion_lat": 0.0, "name": "86ddbce71dedda9c88f0169cb2680da1", "is_disabled": 0, "rental_uris": {"android": "https://dc.lft.to/lastmile_qr_scan", "ios": "https://dc.lft.to/lastmile_qr_scan"}, "fusion_lon": 0.0, "lat": 38.92600233333334, "bike_id": "86ddbce71dedda9c88f0169cb2680da1", "type": "electric_scooter", "is_reserved": 0, "lon": -77.02387783333333}, {"fusion_lat": 0.0, "name": "56477bf44556f340380af1f9b1f0b0db", "is_disabled": 0, "rental_uris": {"android": "https://dc.lft.to/lastmile_qr_scan", "ios": "https://dc.lft.to/lastmile_qr_scan"}, "fusion_lon": 0.0, "lat": 38.906832, "bike_id": "56477bf44556f340380af1f9b1f0b0db", "type": "electric_bike", "is_reserved": 0, "lon": -76.944937}, {"fusion_lat": 0.0, "name": "bdfd66eec1036c6cb80f45be8401f7f9", "is_disabled": 0, "rental_uris": {"android": "https://dc.lft.to/lastmile_qr_scan", "ios": "https://dc.lft.to/lastmile_qr_scan"}, "fusion_lon": 0.0, "lat": 38.9231245, "bike_id": "bdfd66eec1036c6cb80f45be8401f7f9", "type": "electric_scooter", "is_reserved": 0, "lon": -77.0413045}, {"fusion_lat": 0.0, "name": "c2e8a1b1ab95c3f77ce4909b5473e12b", "is_disabled": 0, "rental_uris": {"android": "https://dc.lft.to/lastmile_qr_scan", "ios": "https://dc.lft.to/lastmile_qr_scan"}, "fusion_lon": 0.0, "lat": 38.91722166666667, "bike_id": "c2e8a1b1ab95c3f77ce4909b5473e12b", "type": "electric_scooter", "is_reserved": 0, "lon": -77.04173566666667}, {"fusion_lat": 0.0, "name": "2421cc4a8af3a0ebfb543c093a75251d", "is_disabled": 0, "rental_uris": {"android": "https://dc.lft.to/lastmile_qr_scan", "ios": "https://dc.lft.to/lastmile_qr_scan"}, "fusion_lon": 0.0, "lat": 38.9170675, "bike_id": "2421cc4a8af3a0ebfb543c093a75251d", "type": "electric_scooter", "is_reserved": 0, "lon": -77.0387185}, {"fusion_lat": 0.0, "name": "3517e418cc6fc3d0971a8bb80cdaccb8", "is_disabled": 0, "rental_uris": {"android": "https://dc.lft.to/lastmile_qr_scan", "ios": "https://dc.lft.to/lastmile_qr_scan"}, "fusion_lon": 0.0, "lat": 38.90979466666667, "bike_id": "3517e418cc6fc3d0971a8bb80cdaccb8", "type": "electric_scooter", "is_reserved": 0, "lon": -77.03201383333334}, {"fusion_lat": 0.0, "name": "d49f74d2407edb2c4ccce6571ceec871", "is_disabled": 0, "rental_uris": {"android": "https://dc.lft.to/lastmile_qr_scan", "ios": "https://dc.lft.to/lastmile_qr_scan"}, "fusion_lon": 0.0, "lat": 38.91711316666667, "bike_id": "d49f74d2407edb2c4ccce6571ceec871", "type": "electric_scooter", "is_reserved": 0, "lon": -77.02425116666667}, {"fusion_lat": 0.0, "name": "18547801678514276325d7b066215bd6", "is_disabled": 0, "rental_uris": {"android": "https://dc.lft.to/lastmile_qr_scan", "ios": "https://dc.lft.to/lastmile_qr_scan"}, "fusion_lon": 0.0, "lat": 38.92812816666667, "bike_id": "18547801678514276325d7b066215bd6", "type": "electric_scooter", "is_reserved": 0, "lon": -77.04358783333333}, {"fusion_lat": 0.0, "name": "71834ce1f7ef5463818038065ebb217c", "is_disabled": 0, "rental_uris": {"android": "https://dc.lft.to/lastmile_qr_scan", "ios": "https://dc.lft.to/lastmile_qr_scan"}, "fusion_lon": 0.0, "lat": 38.9612725, "bike_id": "71834ce1f7ef5463818038065ebb217c", "type": "electric_bike", "is_reserved": 0, "lon": -77.03272933333334}, {"fusion_lat": 0.0, "name": "52e93ec36d5854fe2d072d103a40f2b9", "is_disabled": 0, "rental_uris": {"android": "https://dc.lft.to/lastmile_qr_scan", "ios": "https://dc.lft.to/lastmile_qr_scan"}, "fusion_lon": 0.0, "lat": 38.90146716666667, "bike_id": "52e93ec36d5854fe2d072d103a40f2b9", "type": "electric_scooter", "is_reserved": 0, "lon": -76.93070116666667}, {"fusion_lat": 0.0, "name": "c374795f3ed19e9d22788444e5dabcc9", "is_disabled": 0, "rental_uris": {"android": "https://dc.lft.to/lastmile_qr_scan", "ios": "https://dc.lft.to/lastmile_qr_scan"}, "fusion_lon": 0.0, "lat": 38.91338833333333, "bike_id": "c374795f3ed19e9d22788444e5dabcc9", "type": "electric_scooter", "is_reserved": 0, "lon": -77.042777}, {"fusion_lat": 0.0, "name": "3054bd8654db5e42c13c22fc72fb0525", "is_disabled": 0, "rental_uris": {"android": "https://dc.lft.to/lastmile_qr_scan", "ios": "https://dc.lft.to/lastmile_qr_scan"}, "fusion_lon": 0.0, "lat": 38.90846916666667, "bike_id": "3054bd8654db5e42c13c22fc72fb0525", "type": "electric_scooter", "is_reserved": 0, "lon": -76.99768216666666}, {"fusion_lat": 0.0, "name": "c0ac2a6a05ce2c412e5465c54ae0a052", "is_disabled": 0, "rental_uris": {"android": "https://dc.lft.to/lastmile_qr_scan", "ios": "https://dc.lft.to/lastmile_qr_scan"}, "fusion_lon": 0.0, "lat": 38.92234766666667, "bike_id": "c0ac2a6a05ce2c412e5465c54ae0a052", "type": "electric_scooter", "is_reserved": 0, "lon": -77.04247916666667}, {"fusion_lat": 0.0, "name": "00b41738f487b180a90c36a2789dfcfe", "is_disabled": 0, "rental_uris": {"android": "https://dc.lft.to/lastmile_qr_scan", "ios": "https://dc.lft.to/lastmile_qr_scan"}, "fusion_lon": 0.0, "lat": 38.92738683333334, "bike_id": "00b41738f487b180a90c36a2789dfcfe", "type": "electric_bike", "is_reserved": 0, "lon": -76.99361483333334}, {"fusion_lat": 0.0, "name": "353945f753a17c9a7b8bff66b1dd8de8", "is_disabled": 0, "rental_uris": {"android": "https://dc.lft.to/lastmile_qr_scan", "ios": "https://dc.lft.to/lastmile_qr_scan"}, "fusion_lon": 0.0, "lat": 38.9116215, "bike_id": "353945f753a17c9a7b8bff66b1dd8de8", "type": "electric_scooter", "is_reserved": 0, "lon": -76.98723783333334}, {"fusion_lat": 0.0, "name": "f07bdd0c08c100387dec4b124ecb18ba", "is_disabled": 0, "rental_uris": {"android": "https://dc.lft.to/lastmile_qr_scan", "ios": "https://dc.lft.to/lastmile_qr_scan"}, "fusion_lon": 0.0, "lat": 38.92257716666667, "bike_id": "f07bdd0c08c100387dec4b124ecb18ba", "type": "electric_scooter", "is_reserved": 0, "lon": -77.03660983333333}, {"fusion_lat": 0.0, "name": "6edbbeaab4b3ab2d947b046fc28c06bb", "is_disabled": 0, "rental_uris": {"android": "https://dc.lft.to/lastmile_qr_scan", "ios": "https://dc.lft.to/lastmile_qr_scan"}, "fusion_lon": 0.0, "lat": 38.906396666666666, "bike_id": "6edbbeaab4b3ab2d947b046fc28c06bb", "type": "electric_scooter", "is_reserved": 0, "lon": -77.04866216666667}, {"fusion_lat": 0.0, "name": "fa8e6c0e885744900e027127a13e1ee1", "is_disabled": 0, "rental_uris": {"android": "https://dc.lft.to/lastmile_qr_scan", "ios": "https://dc.lft.to/lastmile_qr_scan"}, "fusion_lon": 0.0, "lat": 38.89836366666667, "bike_id": "fa8e6c0e885744900e027127a13e1ee1", "type": "electric_scooter", "is_reserved": 0, "lon": -77.02218833333333}, {"fusion_lat": 0.0, "name": "c3d79847aaa379f4b14c7cc59533277a", "is_disabled": 0, "rental_uris": {"android": "https://dc.lft.to/lastmile_qr_scan", "ios": "https://dc.lft.to/lastmile_qr_scan"}, "fusion_lon": 0.0, "lat": 38.90955833333334, "bike_id": "c3d79847aaa379f4b14c7cc59533277a", "type": "electric_scooter", "is_reserved": 0, "lon": -77.0237755}, {"fusion_lat": 0.0, "name": "662d439cb4c03a400524a26a5579d212", "is_disabled": 0, "rental_uris": {"android": "https://dc.lft.to/lastmile_qr_scan", "ios": "https://dc.lft.to/lastmile_qr_scan"}, "fusion_lon": 0.0, "lat": 38.8788485, "bike_id": "662d439cb4c03a400524a26a5579d212", "type": "electric_scooter", "is_reserved": 0, "lon": -76.96543483333333}, {"fusion_lat": 0.0, "name": "9a892d6203fd95f146a4f987ae60deb4", "is_disabled": 0, "rental_uris": {"android": "https://dc.lft.to/lastmile_qr_scan", "ios": "https://dc.lft.to/lastmile_qr_scan"}, "fusion_lon": 0.0, "lat": 38.90402566666667, "bike_id": "9a892d6203fd95f146a4f987ae60deb4", "type": "electric_scooter", "is_reserved": 0, "lon": -77.03631466666667}, {"fusion_lat": 0.0, "name": "aed40d435eb2fa2c832e1471caae22a3", "is_disabled": 0, "rental_uris": {"android": "https://dc.lft.to/lastmile_qr_scan", "ios": "https://dc.lft.to/lastmile_qr_scan"}, "fusion_lon": 0.0, "lat": 38.89518066666667, "bike_id": "aed40d435eb2fa2c832e1471caae22a3", "type": "electric_scooter", "is_reserved": 0, "lon": -77.0092095}, {"fusion_lat": 0.0, "name": "84311971315f70dd5d27a2fe9b27207d", "is_disabled": 0, "rental_uris": {"android": "https://dc.lft.to/lastmile_qr_scan", "ios": "https://dc.lft.to/lastmile_qr_scan"}, "fusion_lon": 0.0, "lat": 38.922508, "bike_id": "84311971315f70dd5d27a2fe9b27207d", "type": "electric_scooter", "is_reserved": 0, "lon": -77.04249866666666}, {"fusion_lat": 0.0, "name": "f448e6886e7b1b9720451fe9bf65ebe5", "is_disabled": 0, "rental_uris": {"android": "https://dc.lft.to/lastmile_qr_scan", "ios": "https://dc.lft.to/lastmile_qr_scan"}, "fusion_lon": 0.0, "lat": 38.90162683333333, "bike_id": "f448e6886e7b1b9720451fe9bf65ebe5", "type": "electric_scooter", "is_reserved": 0, "lon": -77.03171633333334}, {"fusion_lat": 0.0, "name": "1b1f57a5a4aaafd682b882e8eab0d60f", "is_disabled": 0, "rental_uris": {"android": "https://dc.lft.to/lastmile_qr_scan", "ios": "https://dc.lft.to/lastmile_qr_scan"}, "fusion_lon": 0.0, "lat": 38.92379416666667, "bike_id": "1b1f57a5a4aaafd682b882e8eab0d60f", "type": "electric_scooter", "is_reserved": 0, "lon": -77.02742533333333}, {"fusion_lat": 0.0, "name": "948074abd51f4f7287b143b5a2b7aa5b", "is_disabled": 0, "rental_uris": {"android": "https://dc.lft.to/lastmile_qr_scan", "ios": "https://dc.lft.to/lastmile_qr_scan"}, "fusion_lon": 0.0, "lat": 38.912929, "bike_id": "948074abd51f4f7287b143b5a2b7aa5b", "type": "electric_scooter", "is_reserved": 0, "lon": -77.04518033333333}, {"fusion_lat": 0.0, "name": "4bd1ad9094619b23a901576b88668cf0", "is_disabled": 0, "rental_uris": {"android": "https://dc.lft.to/lastmile_qr_scan", "ios": "https://dc.lft.to/lastmile_qr_scan"}, "fusion_lon": 0.0, "lat": 38.90366916666667, "bike_id": "4bd1ad9094619b23a901576b88668cf0", "type": "electric_scooter", "is_reserved": 0, "lon": -77.04489816666667}, {"fusion_lat": 0.0, "name": "f9ce9ce85ab5be7a7413f709a3fa6359", "is_disabled": 0, "rental_uris": {"android": "https://dc.lft.to/lastmile_qr_scan", "ios": "https://dc.lft.to/lastmile_qr_scan"}, "fusion_lon": 0.0, "lat": 38.81944816666667, "bike_id": "f9ce9ce85ab5be7a7413f709a3fa6359", "type": "electric_bike", "is_reserved": 0, "lon": -77.12715616666667}, {"fusion_lat": 0.0, "name": "fa8c96f49a59de04bce249bca100968f", "is_disabled": 0, "rental_uris": {"android": "https://dc.lft.to/lastmile_qr_scan", "ios": "https://dc.lft.to/lastmile_qr_scan"}, "fusion_lon": 0.0, "lat": 38.90709983333333, "bike_id": "fa8c96f49a59de04bce249bca100968f", "type": "electric_scooter", "is_reserved": 0, "lon": -77.041713}, {"fusion_lat": 0.0, "name": "a4264c8c3144d73c54f450abde891f61", "is_disabled": 0, "rental_uris": {"android": "https://dc.lft.to/lastmile_qr_scan", "ios": "https://dc.lft.to/lastmile_qr_scan"}, "fusion_lon": 0.0, "lat": 38.924951666666665, "bike_id": "a4264c8c3144d73c54f450abde891f61", "type": "electric_scooter", "is_reserved": 0, "lon": -76.985379}, {"fusion_lat": 0.0, "name": "f505e851b54c8d203868cda80e720d52", "is_disabled": 0, "rental_uris": {"android": "https://dc.lft.to/lastmile_qr_scan", "ios": "https://dc.lft.to/lastmile_qr_scan"}, "fusion_lon": 0.0, "lat": 38.9040675, "bike_id": "f505e851b54c8d203868cda80e720d52", "type": "electric_scooter", "is_reserved": 0, "lon": -77.04860183333334}, {"fusion_lat": 0.0, "name": "3f5429f7b97d654c73dce609d3564d54", "is_disabled": 0, "rental_uris": {"android": "https://dc.lft.to/lastmile_qr_scan", "ios": "https://dc.lft.to/lastmile_qr_scan"}, "fusion_lon": 0.0, "lat": 38.878307666666664, "bike_id": "3f5429f7b97d654c73dce609d3564d54", "type": "electric_scooter", "is_reserved": 0, "lon": -76.96322466666666}, {"fusion_lat": 0.0, "name": "5cd139466eda58a66390e282e119af1a", "is_disabled": 0, "rental_uris": {"android": "https://dc.lft.to/lastmile_qr_scan", "ios": "https://dc.lft.to/lastmile_qr_scan"}, "fusion_lon": 0.0, "lat": 38.915659, "bike_id": "5cd139466eda58a66390e282e119af1a", "type": "electric_scooter", "is_reserved": 0, "lon": -77.022346}, {"fusion_lat": 0.0, "name": "1565c0efecac7e1cc1e6c41dcbfac182", "is_disabled": 0, "rental_uris": {"android": "https://dc.lft.to/lastmile_qr_scan", "ios": "https://dc.lft.to/lastmile_qr_scan"}, "fusion_lon": 0.0, "lat": 38.92052066666667, "bike_id": "1565c0efecac7e1cc1e6c41dcbfac182", "type": "electric_scooter", "is_reserved": 0, "lon": -77.03393983333333}, {"fusion_lat": 0.0, "name": "8ced52274ea20fc70f370c31b0b0b3be", "is_disabled": 0, "rental_uris": {"android": "https://dc.lft.to/lastmile_qr_scan", "ios": "https://dc.lft.to/lastmile_qr_scan"}, "fusion_lon": 0.0, "lat": 38.921059166666666, "bike_id": "8ced52274ea20fc70f370c31b0b0b3be", "type": "electric_scooter", "is_reserved": 0, "lon": -77.0469155}, {"fusion_lat": 0.0, "name": "222fc5a3eeb9a4b8577a97d46335e69d", "is_disabled": 0, "rental_uris": {"android": "https://dc.lft.to/lastmile_qr_scan", "ios": "https://dc.lft.to/lastmile_qr_scan"}, "fusion_lon": 0.0, "lat": 38.91254633333333, "bike_id": "222fc5a3eeb9a4b8577a97d46335e69d", "type": "electric_scooter", "is_reserved": 0, "lon": -77.03633783333333}, {"fusion_lat": 0.0, "name": "0ff015748e8a3e6e8089b4a3c4d1dea4", "is_disabled": 0, "rental_uris": {"android": "https://dc.lft.to/lastmile_qr_scan", "ios": "https://dc.lft.to/lastmile_qr_scan"}, "fusion_lon": 0.0, "lat": 38.9057895, "bike_id": "0ff015748e8a3e6e8089b4a3c4d1dea4", "type": "electric_scooter", "is_reserved": 0, "lon": -77.03463}, {"fusion_lat": 0.0, "name": "dbe221c2763ef47353782c1e0a9843b3", "is_disabled": 0, "rental_uris": {"android": "https://dc.lft.to/lastmile_qr_scan", "ios": "https://dc.lft.to/lastmile_qr_scan"}, "fusion_lon": 0.0, "lat": 38.956387666666664, "bike_id": "dbe221c2763ef47353782c1e0a9843b3", "type": "electric_scooter", "is_reserved": 0, "lon": -77.02418516666667}, {"fusion_lat": 0.0, "name": "49872963d011b19424e792eedf5d2942", "is_disabled": 0, "rental_uris": {"android": "https://dc.lft.to/lastmile_qr_scan", "ios": "https://dc.lft.to/lastmile_qr_scan"}, "fusion_lon": 0.0, "lat": 38.9125615, "bike_id": "49872963d011b19424e792eedf5d2942", "type": "electric_scooter", "is_reserved": 0, "lon": -77.01029333333334}, {"fusion_lat": 0.0, "name": "a459faba3ed475e9a673e4bf099898e0", "is_disabled": 0, "rental_uris": {"android": "https://dc.lft.to/lastmile_qr_scan", "ios": "https://dc.lft.to/lastmile_qr_scan"}, "fusion_lon": 0.0, "lat": 38.917714333333336, "bike_id": "a459faba3ed475e9a673e4bf099898e0", "type": "electric_scooter", "is_reserved": 0, "lon": -77.03568083333333}, {"fusion_lat": 0.0, "name": "be1f1d75e3b3b18877cfbde74848dc74", "is_disabled": 0, "rental_uris": {"android": "https://dc.lft.to/lastmile_qr_scan", "ios": "https://dc.lft.to/lastmile_qr_scan"}, "fusion_lon": 0.0, "lat": 38.89572733333333, "bike_id": "be1f1d75e3b3b18877cfbde74848dc74", "type": "electric_scooter", "is_reserved": 0, "lon": -77.02180016666667},