{"data": {"bikes": [{"fusion_lat": 0.0, "name": "2b63b276d8fa0c6e9c2b2b8b3088b900", "is_disabled": 0, "rental_uris": {"android": "https://dc.lft.to/lastmile_qr_scan", "ios": "https://dc.lft.to/lastmile_qr_scan"}, "fusion_lon": 0.0, "lat": 38.902441333333336, "bike_id": "2b63b276d8fa0c6e9c2b2b8b3088b900", "type": "electric_scooter", "is_reserved": 0, "lon": -77.060056}, {"fusion_lat": 0.0, "name": "be56f1d877dab9b42cfea078c7d789c7", "is_disabled": 0, "rental_uris": {"android": "https://dc.lft.to/lastmile_qr_scan", "ios": "https://dc.lft.to/lastmile_qr_scan"}, "fusion_lon": 0.0, "lat": 38.941601166666665, "bike_id": "be56f1d877dab9b42cfea078c7d789c7", "type": "electric_bike", "is_reserved": 0, "lon": -77.00191183333334}, {"fusion_lat": 0.0, "name": "88e7d0bf0f9000a1dd32d2c69228cdfd", "is_disabled": 0, "rental_uris": {"android": "https://dc.lft.to/lastmile_qr_scan", "ios": "https://dc.lft.to/lastmile_qr_scan"}, "fusion_lon": 0.0, "lat": 38.90410416666667, "bike_id": "88e7d0bf0f9000a1dd32d2c69228cdfd", "type": "electric_scooter", "is_reserved": 0, "lon": -76.97329466666666}, {"fusion_lat": 0.0, "name": "2b5740f86cb669feebe7fb38be83e1af", "is_disabled": 0, "rental_uris": {"android": "https://dc.lft.to/lastmile_qr_scan", "ios": "https://dc.lft.to/lastmile_qr_scan"}, "fusion_lon": 0.0, "lat": 38.941659333333334, "bike_id": "2b5740f86cb669feebe7fb38be83e1af", "type": "electric_bike", "is_reserved": 0, "lon": -76.96648866666666}, {"fusion_lat": 0.0, "name": "1c8ed55c9dc84b6de90a36c1479eb9ae", "is_disabled": 0, "rental_uris": {"android": "https://dc.lft.to/lastmile_qr_scan", "ios": "https://dc.lft.to/lastmile_qr_scan"}, "fusion_lon": 0.0, "lat": 38.885155833333336, "bike_id": "1c8ed55c9dc84b6de90a36c1479eb9ae", "type": "electric_scooter", "is_reserved": 0, "lon": -76.997582}, {"fusion_lat": 0.0, "name": "07b11dd5bd7d92a301ddabb62ecb560c", "is_disabled": 0, "rental_uris": {"android": "https://dc.lft.to/lastmile_qr_scan", "ios": "https://dc.lft.to/lastmile_qr_scan"}, "fusion_lon": 0.0, "lat": 38.91579616666667, "bike_id": "07b11dd5bd7d92a301ddabb62ecb560c", "type": "electric_scooter", "is_reserved": 0, "lon": -77.01255333333333}, {"fusion_lat": 0.0, "name": "e8fe448d31bb770b96459e38991d0130", "is_disabled": 0, "rental_uris": {"android": "https://dc.lft.to/lastmile_qr_scan", "ios": "https://dc.lft.to/lastmile_qr_scan"}, "fusion_lon": 0.0, "lat": 38.98788916666667, "bike_id": "e8fe448d31bb770b96459e38991d0130", "type": "electric_bike", "is_reserved": 0, "lon": -77.14099633333333}, {"fusion_lat": 0.0, "name": "77a9d176338fae2e5c1ae87d51d57a0b", "is_disabled": 0, "rental_uris": {"android": "https://dc.lft.to/lastmile_qr_scan", "ios": "https://dc.lft.to/lastmile_qr_scan"}, "fusion_lon": 0.0, "lat": 38.92974016666667, "bike_id": "77a9d176338fae2e5c1ae87d51d57a0b", "type": "electric_scooter", "is_reserved": 0, "lon": -77.03141233333334}, {"fusion_lat": 0.0, "name": "f5892c54d3760f06a1d83d8535f32da7", "is_disabled": 0, "rental_uris": {"android": "https://dc.lft.to/lastmile_qr_scan", "ios": "https://dc.lft.to/lastmile_qr_scan"}, "fusion_lon": 0.0, "lat": 38.9192525, "bike_id": "f5892c54d3760f06a1d83d8535f32da7", "type": "electric_scooter", "is_reserved": 0, "lon": -77.0317935}, {"fusion_lat": 0.0, "name": "bcde08f1dd78c1fde23fa96e484c21ec", "is_disabled": 0, "rental_uris": {"android": "https://dc.lft.to/lastmile_qr_scan", "ios": "https://dc.lft.to/lastmile_qr_scan"}, "fusion_lon": 0.0, "lat": 38.95280116666667, "bike_id": "bcde08f1dd78c1fde23fa96e484c21ec", "type": "electric_bike", "is_reserved": 0, "lon": -77.0686955}, {"fusion_lat": 0.0, "name": "fdf4d1c383d33f2eac334d3ba243720a", "is_disabled": 0, "rental_uris": {"android": "https://dc.lft.to/lastmile_qr_scan", "ios": "https://dc.lft.to/lastmile_qr_scan"}, "fusion_lon": 0.0, "lat": 38.912637333333336, "bike_id": "fdf4d1c383d33f2eac334d3ba243720a", "type": "electric_scooter", "is_reserved": 0, "lon": -77.02257933333334}, {"fusion_lat": 0.0, "name": "9c4cfb77991d710a33ed533e417a3206", "is_disabled": 0, "rental_uris": {"android": "https://dc.lft.to/lastmile_qr_scan", "ios": "https://dc.lft.to/lastmile_qr_scan"}, "fusion_lon": 0.0, "lat": 38.906511333333334, "bike_id": "9c4cfb77991d710a33ed533e417a3206", "type": "electric_scooter", "is_reserved": 0, "lon": -77.04287666666667}, {"fusion_lat": 0.0, "name": "2104a0ee02341359ebba320a5a1e9648", "is_disabled": 0, "rental_uris": {"android": "https://dc.lft.to/lastmile_qr_scan", "ios": "https://dc.lft.to/lastmile_qr_scan"}, "fusion_lon": 0.0, "lat": 38.920869, "bike_id": "2104a0ee02341359ebba320a5a1e9648", "type": "electric_scooter", "is_reserved": 0, "lon": -77.02407733333334}, {"fusion_lat": 0.0, "name": "900a80bce0feffb07b32ff6841239b64", "is_disabled": 0, "rental_uris": {"android": "https://dc.lft.to/lastmile_qr_scan", "ios": "https://dc.lft.to/lastmile_qr_scan"}, "fusion_lon": 0.0, "lat": 38.89873466666667, "bike_id": "900a80bce0feffb07b32ff6841239b64", "type": "electric_scooter", "is_reserved": 0, "lon": -76.94631733333334}, {"fusion_lat": 0.0, "name": "08342772799fbd7fcbe5e8fccbb2b190", "is_disabled": 0, "rental_uris": {"android": "https://dc.lft.to/lastmile_qr_scan", "ios": "https://dc.lft.to/lastmile_qr_scan"}, "fusion_lon": 0.0, "lat": 38.949104166666665, "bike_id": "08342772799fbd7fcbe5e8fccbb2b190", "type": "electric_bike", "is_reserved": 0, "lon": -77.03806166666666}, {"fusion_lat": 0.0, "name": "a37cf9aab16c784cebe33bb49dcbc008", "is_disabled": 0, "rental_uris": {"android": "https://dc.lft.to/lastmile_qr_scan", "ios": "https://dc.lft.to/lastmile_qr_scan"}, "fusion_lon": 0.0, "lat": 38.916763833333334, "bike_id": "a37cf9aab16c784cebe33bb49dcbc008", "type": "electric_scooter", "is_reserved": 0, "lon": -77.02891733333334}, {"fusion_lat": 0.0, "name": "4d55859d7eea1c7bf79b5ea1b67f1a87", "is_disabled": 0, "rental_uris": {"android": "https://dc.lft.to/lastmile_qr_scan", "ios": "https://dc.lft.to/lastmile_qr_scan"}, "fusion_lon": 0.0, "lat": 38.92899383333334, "bike_id": "4d55859d7eea1c7bf79b5ea1b67f1a87", "type": "electric_scooter", "is_reserved": 0, "lon": -77.05455516666666}, {"fusion_lat": 0.0, "name": "df4a5266fe48ebf49ff6750198082614", "is_disabled": 0, "rental_uris": {"android": "https://dc.lft.to/lastmile_qr_scan", "ios": "https://dc.lft.to/lastmile_qr_scan"}, "fusion_lon": 0.0, "lat": 38.88759683333333, "bike_id": "df4a5266fe48ebf49ff6750198082614", "type": "electric_scooter", "is_reserved": 0, "lon": -77.00258916666667}, {"fusion_lat": 0.0, "name": "01a78bdbb68fbafa2f4f5cb146bf2a1f", "is_disabled": 0, "rental_uris": {"android": "https://dc.lft.to/lastmile_qr_scan", "ios": "https://dc.lft.to/lastmile_qr_scan"}, "fusion_lon": 0.0, "lat": 38.87630683333333, "bike_id": "01a78bdbb68fbafa2f4f5cb146bf2a1f", "type": "electric_scooter", "is_reserved": 0, "lon": -77.016434}, {"fusion_lat": 0.0, "name": "71d87605ab076194e7cda194d46fc339", "is_disabled": 0, "rental_uris": {"android": "https://dc.lft.to/lastmile_qr_scan", "ios": "https://dc.lft.to/lastmile_qr_scan"}, "fusion_lon": 0.0, "lat": 38.931919666666666, "bike_id": "71d87605ab076194e7cda194d46fc339", "type": "electric_scooter", "is_reserved": 0, "lon": -77.04298}, {"fusion_lat": 0.0, "name": "78dac60126c4aa103d4e20e33da63123", "is_disabled": 0, "rental_uris": {"android": "https://dc.lft.to/lastmile_qr_scan", "ios": "https://dc.lft.to/lastmile_qr_scan"}, "fusion_lon": 0.0, "lat": 38.84136633333333, "bike_id": "78dac60126c4aa103d4e20e33da63123", "type": "electric_bike", "is_reserved": 0, "lon": -76.947583}, {"fusion_lat": 0.0, "name": "8f72ef59ad100c34d7a17f5624e087ee", "is_disabled": 0, "rental_uris": {"android": "https://dc.lft.to/lastmile_qr_scan", "ios": "https://dc.lft.to/lastmile_qr_scan"}, "fusion_lon": 0.0, "lat": 38.90553033333333, "bike_id": "8f72ef59ad100c34d7a17f5624e087ee", "type": "electric_scooter", "is_reserved": 0, "lon": -77.062577}, {"fusion_lat": 0.0, "name": "210cabaed2f43c5873904bacf6c68cc1", "is_disabled": 0, "rental_uris": {"android": "https://dc.lft.to/lastmile_qr_scan", "ios": "https://dc.lft.to/lastmile_qr_scan"}, "fusion_lon": 0.0, "lat": 38.90552533333333, "bike_id": "210cabaed2f43c5873904bacf6c68cc1", "type": "electric_scooter", "is_reserved": 0, "lon": -77.04658216666667}, {"fusion_lat": 0.0, "name": "56f6d8c60e506a72e77fb40c96367203", "is_disabled": 0, "rental_uris": {"android": "https://dc.lft.to/lastmile_qr_scan", "ios": "https://dc.lft.to/lastmile_qr_scan"}, "fusion_lon": 0.0, "lat": 38.88434733333333, "bike_id": "56f6d8c60e506a72e77fb40c96367203", "type": "electric_scooter", "is_reserved": 0, "lon": -77.0245365}, {"fusion_lat": 0.0, "name": "1e49c1a4a1f16809a12e2cffc7a33481", "is_disabled": 0, "rental_uris": {"android": "https://dc.lft.to/lastmile_qr_scan", "ios": "https://dc.lft.to/lastmile_qr_scan"}, "fusion_lon": 0.0, "lat": 38.9239645, "bike_id": "1e49c1a4a1f16809a12e2cffc7a33481", "type": "electric_scooter", "is_reserved": 0, "lon": -77.0363665}, {"fusion_lat": 0.0, "name": "03c1666bb36bedc17e7ed2efde533e70", "is_disabled": 0, "rental_uris": {"android": "https://dc.lft.to/lastmile_qr_scan", "ios": "https://dc.lft.to/lastmile_qr_scan"}, "fusion_lon": 0.0, "lat": 38.887277833333336, "bike_id": "03c1666bb36bedc17e7ed2efde533e70", "type": "electric_scooter", "is_reserved": 0, "lon": -76.98358}, {"fusion_lat": 0.0, "name": "a2347cdcbe56a8a367e18ae6a8699642", "is_disabled": 0, "rental_uris": {"android": "https://dc.lft.to/lastmile_qr_scan", "ios": "https://dc.lft.to/lastmile_qr_scan"}, "fusion_lon": 0.0, "lat": 38.925413666666664, "bike_id": "a2347cdcbe56a8a367e18ae6a8699642", "type": "electric_scooter", "is_reserved": 0, "lon": -77.05120116666667}, {"fusion_lat": 0.0, "name": "19a7f263f14cc937005b821475db3a69", "is_disabled": 0, "rental_uris": {"android": "https://dc.lft.to/lastmile_qr_scan", "ios": "https://dc.lft.to/lastmile_qr_scan"}, "fusion_lon": 0.0, "lat": 38.92253783333334, "bike_id": "19a7f263f14cc937005b821475db3a69", "type": "electric_scooter", "is_reserved": 0, "lon": -77.050851}, {"fusion_lat": 0.0, "name": "3d3236dfdb8c3b8f99c87c099e703afa", "is_disabled": 0, "rental_uris": {"android": "https://dc.lft.to/lastmile_qr_scan", "ios": "https://dc.lft.to/lastmile_qr_scan"}, "fusion_lon": 0.0, "lat": 38.91712316666667, "bike_id": "3d3236dfdb8c3b8f99c87c099e703afa", "type": "electric_scooter", "is_reserved": 0, "lon": -77.0386605}, {"fusion_lat": 0.0, "name": "874d1c78757ebf0c8cf432a669e76ce2", "is_disabled": 0, "rental_uris": {"android": "https://dc.lft.to/lastmile_qr_scan", "ios": "https://dc.lft.to/lastmile_qr_scan"}, "fusion_lon": 0.0, "lat": 38.949471, "bike_id": "874d1c78757ebf0c8cf432a669e76ce2", "type": "electric_scooter", "is_reserved": 0, "lon": -77.0231225}, {"fusion_lat": 0.0, "name": "1f9228dc08cbe9f47f7ee429ffc5336c", "is_disabled": 0, "rental_uris": {"android": "https://dc.lft.to/lastmile_qr_scan", "ios": "https://dc.lft.to/lastmile_qr_scan"}, "fusion_lon": 0.0, "lat": 38.8795485, "bike_id": "1f9228dc08cbe9f47f7ee429ffc5336c", "type": "electric_scooter", "is_reserved": 0, "lon": -77.00828633333333}, {"fusion_lat": 0.0, "name": "1523c2bf7a2d3df97849b87d8f8d8702", "is_disabled": 0, "rental_uris": {"android": "https://dc.lft.to/lastmile_qr_scan", "ios": "https://dc.lft.to/lastmile_qr_scan"}, "fusion_lon": 0.0, "lat": 38.93298983333333, "bike_id": "1523c2bf7a2d3df97849b87d8f8d8702", "type": "electric_scooter", "is_reserved": 0, "lon": -77.02794783333333}, {"fusion_lat": 0.0, "name": "07ce36aef162a8938c4f58c1b8185ce8", "is_disabled": 0, "rental_uris": {"android": "https://dc.lft.to/lastmile_qr_scan", "ios": "https://dc.lft.to/lastmile_qr_scan"}, "fusion_lon": 0.0, "lat": 38.91944266666667, "bike_id": "07ce36aef162a8938c4f58c1b8185ce8", "type": "electric_scooter", "is_reserved": 0, "lon": -77.03950316666666}, {"fusion_lat": 0.0, "name": "67f08d4ba4b2816e47f1259c9685c149", "is_disabled": 0, "rental_uris": {"android": "https://dc.lft.to/lastmile_qr_scan", "ios": "https://dc.lft.to/lastmile_qr_scan"}, "fusion_lon": 0.0, "lat": 38.922252666666665, "bike_id": "67f08d4ba4b2816e47f1259c9685c149", "type": "electric_scooter", "is_reserved": 0, "lon": -77.04337416666667}, {"fusion_lat": 0.0, "name": "ab79199735bba958b68213b0131d65bb", "is_disabled": 0, "rental_uris": {"android": "https://dc.lft.to/lastmile_qr_scan", "ios": "https://dc.lft.to/lastmile_qr_scan"}, "fusion_lon": 0.0, "lat": 38.9283405, "bike_id": "ab79199735bba958b68213b0131d65bb", "type": "electric_scooter", "is_reserved": 0, "lon": -77.03292383333333}, {"fusion_lat": 0.0, "name": "4c2a8405fb94ceea643de411db175d7f", "is_disabled": 0, "rental_uris": {"android": "https://dc.lft.to/lastmile_qr_scan", "ios": "https://dc.lft.to/lastmile_qr_scan"}, "fusion_lon": 0.0, "lat": 38.902499166666665, "bike_id": "4c2a8405fb94ceea643de411db175d7f", "type": "electric_scooter", "is_reserved": 0, "lon": -77.031527}, {"fusion_lat": 0.0, "name": "1b25a3cafdca427343539cd32d423eb8", "is_disabled": 0, "rental_uris": {"android": "https://dc.lft.to/lastmile_qr_scan", "ios": "https://dc.lft.to/lastmile_qr_scan"}, "fusion_lon": 0.0, "lat": 38.906141, "bike_id": "1b25a3cafdca427343539cd32d423eb8", "type": "electric_scooter", "is_reserved": 0, "lon": -77.0331925}, {"fusion_lat": 0.0, "name": "e8c274dd88e7fdc5373b2f35122ddd5d", "is_disabled": 0, "rental_uris": {"android": "https://dc.lft.to/lastmile_qr_scan", "ios": "https://dc.lft.to/lastmile_qr_scan"}, "fusion_lon": 0.0, "lat": 38.923993, "bike_id": "e8c274dd88e7fdc5373b2f35122ddd5d", "type": "electric_scooter", "is_reserved": 0, "lon": -77.0226275}, {"fusion_lat": 0.0, "name": "ad8630ad6351fcdf67fbaa7c7a9eeba4", "is_disabled": 0, "rental_uris": {"android": "https://dc.lft.to/lastmile_qr_scan", "ios": "https://dc.lft.to/lastmile_qr_scan"}, "fusion_lon": 0.0, "lat": 38.95690966666667, "bike_id": "ad8630ad6351fcdf67fbaa7c7a9eeba4", "type": "electric_scooter", "is_reserved": 0, "lon": -77.03259666666666}, {"fusion_lat": 0.0, "name": "3cc7105d0da3007489abbb7129457003", "is_disabled": 0, "rental_uris": {"android": "https://dc.lft.to/lastmile_qr_scan", "ios": "https://dc.lft.to/lastmile_qr_scan"}, "fusion_lon": 0.0, "lat": 38.91702566666667, "bike_id": "3cc7105d0da3007489abbb7129457003", "type": "electric_scooter", "is_reserved": 0, "lon": -77.03477833333334}, {"fusion_lat": 0.0, "name": "4131dc49b2efc488484ee7a309dc08c3", "is_disabled": 0, "rental_uris": {"android": "https://dc.lft.to/lastmile_qr_scan", "ios": "https://dc.lft.to/lastmile_qr_scan"}, "fusion_lon": 0.0, "lat": 38.866822166666665, "bike_id": "4131dc49b2efc488484ee7a309dc08c3", "type": "electric_bike", "is_reserved": 0, "lon": -76.98236116666666}, {"fusion_lat": 0.0, "name": "efe9dbcf13275a3091bb971aa8952db5", "is_disabled": 0, "rental_uris": {"android": "https://dc.lft.to/lastmile_qr_scan", "ios": "https://dc.lft.to/lastmile_qr_scan"}, "fusion_lon": 0.0, "lat": 38.892217, "bike_id": "efe9dbcf13275a3091bb971aa8952db5", "type": "electric_scooter", "is_reserved": 0, "lon": -77.0468425}, {"fusion_lat": 0.0, "name": "ef9778c8f7b8c4a615966e83513723da", "is_disabled": 0, "rental_uris": {"android": "https://dc.lft.to/lastmile_qr_scan", "ios": "https://dc.lft.to/lastmile_qr_scan"}, "fusion_lon": 0.0, "lat": 38.92076133333333, "bike_id": "ef9778c8f7b8c4a615966e83513723da", "type": "electric_scooter", "is_reserved": 0, "lon": -77.02416733333334}, {"fusion_lat": 0.0, "name": "c311ba98cb9e2887833af0e6d5f8609e", "is_disabled": 0, "rental_uris": {"android": "https://dc.lft.to/lastmile_qr_scan", "ios": "https://dc.lft.to/lastmile_qr_scan"}, "fusion_lon": 0.0, "lat": 38.9184695, "bike_id": "c311ba98cb9e2887833af0e6d5f8609e", "type": "electric_scooter", "is_reserved": 0, "lon": -77.0242095}, {"fusion_lat": 0.0, "name": "3cae2473cf613c68ea2a3eb4a2972fc9", "is_disabled": 0, "rental_uris": {"android": "https://dc.lft.to/lastmile_qr_scan", "ios": "https://dc.lft.to/lastmile_qr_scan"}, "fusion_lon": 0.0, "lat": 38.962349833333334, "bike_id": "3cae2473cf613c68ea2a3eb4a2972fc9", "type": "electric_bike", "is_reserved": 0, "lon": -76.92759033333333}, {"fusion_lat": 0.0, "name": "738c23b69d53d1f68a6cbcd80582415a", "is_disabled": 0, "rental_uris": {"android": "https://dc.lft.to/lastmile_qr_scan", "ios": "https://dc.lft.to/lastmile_qr_scan"}, "fusion_lon": 0.0, "lat": 38.897406333333336, "bike_id": "738c23b69d53d1f68a6cbcd80582415a", "type": "electric_scooter", "is_reserved": 0, "lon": -77.04863183333333}, {"fusion_lat": 0.0, "name": "7caf2c2e634ea1fd151b84140e7f459c", "is_disabled": 0, "rental_uris": {"android": "https://dc.lft.to/lastmile_qr_scan", "ios": "https://dc.lft.to/lastmile_qr_scan"}, "fusion_lon": 0.0, "lat": 38.91063616666667, "bike_id": "7caf2c2e634ea1fd151b84140e7f459c", "type": "electric_scooter", "is_reserved": 0, "lon": -77.00469766666667}, {"fusion_lat": 0.0, "name": "9041f64fc532210b57b25d2ce2044ea0", "is_disabled": 0, "rental_uris": {"android": "https://dc.lft.to/lastmile_qr_scan", "ios": "https://dc.lft.to/lastmile_qr_scan"}, "fusion_lon": 0.0, "lat": 38.905654, "bike_id": "9041f64fc532210b57b25d2ce2044ea0", "type": "electric_scooter", "is_reserved": 0, "lon": -77.02202433333333}, {"fusion_lat": 0.0, "name": "357b783673a8784f358e1a0c9e55f260", "is_disabled": 0, "rental_uris": {"android": "https://dc.lft.to/lastmile_qr_scan", "ios": "https://dc.lft.to/lastmile_qr_scan"}, "fusion_lon": 0.0, "lat": 38.94203433333333, "bike_id": "357b783673a8784f358e1a0c9e55f260", "type": "electric_scooter", "is_reserved": 0, "lon": -77.02592983333334}, {"fusion_lat": 0.0, "name": "73434bed74b9137988e877286b330845", "is_disabled": 0, "rental_uris": {"android": "https://dc.lft.to/lastmile_qr_scan", "ios": "https://dc.lft.to/lastmile_qr_scan"}, "fusion_lon": 0.0, "lat": 38.917937333333334, "bike_id": "73434bed74b9137988e877286b330845", "type": "electric_scooter", "is_reserved": 0, "lon": -77.03433883333334}, {"fusion_lat": 0.0, "name": "3d868f66b90c9364447c8b07164708c1", "is_disabled": 0, "rental_uris": {"android": "https://dc.lft.to/lastmile_qr_scan", "ios": "https://dc.lft.to/lastmile_qr_scan"}, "fusion_lon": 0.0, "lat": 38.90212983333333, "bike_id": "3d868f66b90c9364447c8b07164708c1", "type": "electric_scooter", "is_reserved": 0, "lon": -77.02202316666667}, {"fusion_lat": 0.0, "name": "55d4d9622ea806574c73cba3f9d5b92a", "is_disabled": 0, "rental_uris": {"android": "https://dc.lft.to/lastmile_qr_scan", "ios": "https://dc.lft.to/lastmile_qr_scan"}, "fusion_lon": 0.0, "lat": 38.90561066666667, "bike_id": "55d4d9622ea806574c73cba3f9d5b92a", "type": "electric_scooter", "is_reserved": 0, "lon": -77.03350616666667}, {"fusion_lat": 0.0, "name": "fd1b2ec8539b2e90918d56a3e4880f2f", "is_disabled": 0, "rental_uris": {"android": "https://dc.lft.to/lastmile_qr_scan", "ios": "https://dc.lft.to/lastmile_qr_scan"}, "fusion_lon": 0.0, "lat": 38.90521433333333, "bike_id": "fd1b2ec8539b2e90918d56a3e4880f2f", "type": "electric_scooter", "is_reserved": 0, "lon": -77.0649325}, {"fusion_lat": 0.0, "name": "576971fb05b95716a8286c7e9a1f0666", "is_disabled": 0, "rental_uris": {"android": "https://dc.lft.to/lastmile_qr_scan", "ios": "https://dc.lft.to/lastmile_qr_scan"}, "fusion_lon": 0.0, "lat": 38.8812415, "bike_id": "576971fb05b95716a8286c7e9a1f0666", "type": "electric_scooter", "is_reserved": 0, "lon": -77.01649116666667}, {"fusion_lat": 0.0, "name": "c94a4617c5efd56c01bb0a435faf97fd", "is_disabled": 0, "rental_uris": {"android": "https://dc.lft.to/lastmile_qr_scan", "ios": "https://dc.lft.to/lastmile_qr_scan"}, "fusion_lon": 0.0, "lat": 38.902915666666665, "bike_id": "c94a4617c5efd56c01bb0a435faf97fd", "type": "electric_scooter", "is_reserved": 0, "lon": -76.97636383333334}, {"fusion_lat": 0.0, "name": "85d6bcd36f0966969ee362c7b34ad76c", "is_disabled": 0, "rental_uris": {"android": "https://dc.lft.to/lastmile_qr_scan", "ios": "https://dc.lft.to/lastmile_qr_scan"}, "fusion_lon": 0.0, "lat": 38.901397, "bike_id": "85d6bcd36f0966969ee362c7b34ad76c", "type": "electric_scooter", "is_reserved": 0, "lon": -77.0305095}, {"fusion_lat": 0.0, "name": "cf4f0cee7f9528f803cecb7e1c5237e0", "is_disabled": 0, "rental_uris": {"android": "https://dc.lft.to/lastmile_qr_scan", "ios": "https://dc.lft.to/lastmile_qr_scan"}, "fusion_lon": 0.0, "lat": 38.80763233333333, "bike_id": "cf4f0cee7f9528f803cecb7e1c5237e0", "type": "electric_bike", "is_reserved": 0, "lon": -77.09470433333334}, {"fusion_lat": 0.0, "name": "10c89cf9706c0c9247aa34895f1adc90", "is_disabled": 0, "rental_uris": {"android": "https://dc.lft.to/lastmile_qr_scan", "ios": "https://dc.lft.to/lastmile_qr_scan"}, "fusion_lon": 0.0, "lat": 38.91641933333333, "bike_id": "10c89cf9706c0c9247aa34895f1adc90", "type": "electric_scooter", "is_reserved": 0, "lon": -77.03162366666666}, {"fusion_lat": 0.0, "name": "d0a381148e2746ab55096237e6104a89", "is_disabled": 0, "rental_uris": {"android": "https://dc.lft.to/lastmile_qr_scan", "ios": "https://dc.lft.to/lastmile_qr_scan"}, "fusion_lon": 0.0, "lat": 38.99776933333333, "bike_id": "d0a381148e2746ab55096237e6104a89", "type": "electric_bike", "is_reserved": 0, "lon": -77.04718783333334}, {"fusion_lat": 0.0, "name": "720cb0ff8536b68c06e66eef051436cb", "is_disabled": 0, "rental_uris": {"android": "https://dc.lft.to/lastmile_qr_scan", "ios": "https://dc.lft.to/lastmile_qr_scan"}, "fusion_lon": 0.0, "lat": 38.926384666666664, "bike_id": "720cb0ff8536b68c06e66eef051436cb", "type": "electric_scooter", "is_reserved": 0, "lon": -77.03244133333334}, {"fusion_lat": 0.0, "name": "578378ca15040a994c6bdb0e54cafc36", "is_disabled": 0, "rental_uris": {"android": "https://dc.lft.to/lastmile_qr_scan", "ios": "https://dc.lft.to/lastmile_qr_scan"}, "fusion_lon": 0.0, "lat": 38.8874435, "bike_id": "578378ca15040a994c6bdb0e54cafc36", "type": "electric_scooter", "is_reserved": 0, "lon": -77.0257045}, {"fusion_lat": 0.0, "name": "8fd57f81cc68971f8f1784c9fdc78be1", "is_disabled": 0, "rental_uris": {"android": "https://dc.lft.to/lastmile_qr_scan", "ios": "https://dc.lft.to/lastmile_qr_scan"}, "fusion_lon": 0.0, "lat": 38.9241615, "bike_id": "8fd57f81cc68971f8f1784c9fdc78be1", "type": "electric_scooter", "is_reserved": 0, "lon": -77.02102916666666}, {"fusion_lat": 0.0, "name": "f60da6e2d4145d0a10812aed712bdd1a", "is_disabled": 0, "rental_uris": {"android": "https://dc.lft.to/lastmile_qr_scan", "ios": "https://dc.lft.to/lastmile_qr_scan"}, "fusion_lon": 0.0, "lat": 38.921657833333335, "bike_id": "f60da6e2d4145d0a10812aed712bdd1a", "type": "electric_scooter", "is_reserved": 0, "lon": -77.04028733333334}, {"fusion_lat": 0.0, "name": "040bac0d148359b959bddf9e63829ba6", "is_disabled": 0, "rental_uris": {"android": "https://dc.lft.to/lastmile_qr_scan", "ios": "https://dc.lft.to/lastmile_qr_scan"}, "fusion_lon": 0.0, "lat": 38.905721, "bike_id": "040bac0d148359b959bddf9e63829ba6", "type": "electric_scooter", "is_reserved": 0, "lon": -77.022031}, {"fusion_lat": 0.0, "name": "8a65ddb2577460d2462bbba85d27bedf", "is_disabled": 0, "rental_uris": {"android": "https://dc.lft.to/lastmile_qr_scan", "ios": "https://dc.lft.to/lastmile_qr_scan"}, "fusion_lon": 0.0, "lat": 38.90549733333334, "bike_id": "8a65ddb2577460d2462bbba85d27bedf", "type": "electric_scooter", "is_reserved": 0, "lon": -77.00611316666667}, {"fusion_lat": 0.0, "name": "5e47fa053c010cb4ef96df891ac1cecd", "is_disabled": 0, "rental_uris": {"android": "https://dc.lft.to/lastmile_qr_scan", "ios": "https://dc.lft.to/lastmile_qr_scan"}, "fusion_lon": 0.0, "lat": 38.9412915, "bike_id": "5e47fa053c010cb4ef96df891ac1cecd", "type": "electric_scooter", "is_reserved": 0, "lon": -77.02649566666666}, {"fusion_lat": 0.0, "name": "b6ff655edb24cdf0584204bb15d5e6bc", "is_disabled": 0, "rental_uris": {"android": "https://dc.lft.to/lastmile_qr_scan", "ios": "https://dc.lft.to/lastmile_qr_scan"}, "fusion_lon": 0.0, "lat": 38.8973295, "bike_id": "b6ff655edb24cdf0584204bb15d5e6bc", "type": "electric_scooter", "is_reserved": 0, "lon": -77.04638116666666}, {"fusion_lat": 0.0, "name": "1618849bedfa187753631630c848cce4", "is_disabled": 0, "rental_uris": {"android": "https://dc.lft.to/lastmile_qr_scan", "ios": "https://dc.lft.to/lastmile_qr_scan"}, "fusion_lon": 0.0, "lat": 38.93962883333333, "bike_id": "1618849bedfa187753631630c848cce4", "type": "electric_scooter", "is_reserved": 0, "lon": -77.03283566666667}, {"fusion_lat": 0.0, "name": "98d0041bf78aa91c30a5fc79fe046ce6", "is_disabled": 0, "rental_uris": {"android": "https://dc.lft.to/lastmile_qr_scan", "ios": "https://dc.lft.to/lastmile_qr_scan"}, "fusion_lon": 0.0, "lat": 38.911091166666665, "bike_id": "98d0041bf78aa91c30a5fc79fe046ce6", "type": "electric_scooter", "is_reserved": 0, "lon": -77.0813135}, {"fusion_lat": 0.0, "name": "19e53a621928faddbb1fdd21639427ba", "is_disabled": 0, "rental_uris": {"android": "https://dc.lft.to/lastmile_qr_scan", "ios": "https://dc.lft.to/lastmile_qr_scan"}, "fusion_lon": 0.0, "lat": 38.92154683333333, "bike_id": "19e53a621928faddbb1fdd21639427ba", "type": "electric_scooter", "is_reserved": 0, "lon": -77.0335855}, {"fusion_lat": 0.0, "name": "717949e4a5d3f93ca04e42327c349914", "is_disabled": 0, "rental_uris": {"android": "https://dc.lft.to/lastmile_qr_scan", "ios": "https://dc.lft.to/lastmile_qr_scan"}, "fusion_lon": 0.0, "lat": 38.883298333333336, "bike_id": "717949e4a5d3f93ca04e42327c349914", "type": "electric_bike", "is_reserved": 0, "lon": -76.96060366666667}, {"fusion_lat": 0.0, "name": "f060fd58f9f05d2fcaa2196582c44ed1", "is_disabled": 0, "rental_uris": {"android": "https://dc.lft.to/lastmile_qr_scan", "ios": "https://dc.lft.to/lastmile_qr_scan"}, "fusion_lon": 0.0, "lat": 38.937723166666665, "bike_id": "f060fd58f9f05d2fcaa2196582c44ed1", "type": "electric_scooter", "is_reserved": 0, "lon": -77.03262266666667}, {"fusion_lat": 0.0, "name": "d4cd02e2055bb03c02c791c49f510dae", "is_disabled": 0, "rental_uris": {"android": "https://dc.lft.to/lastmile_qr_scan", "ios": "https://dc.lft.to/lastmile_qr_scan"}, "fusion_lon": 0.0, "lat": 38.914886833333334, "bike_id": "d4cd02e2055bb03c02c791c49f510dae", "type": "electric_scooter", "is_reserved": 0, "lon": -77.04018916666666}, {"fusion_lat": 0.0, "name": "011ff545e82722d1675fcdbbd847fe81", "is_disabled": 0, "rental_uris": {"android": "https://dc.lft.to/lastmile_qr_scan", "ios": "https://dc.lft.to/lastmile_qr_scan"}, "fusion_lon": 0.0, "lat": 38.897085833333335, "bike_id": "011ff545e82722d1675fcdbbd847fe81", "type": "electric_scooter", "is_reserved": 0, "lon": -77.02291683333333}, {"fusion_lat": 0.0, "name": "d126d8988b9027c46d2e28f81a5ff511", "is_disabled": 0, "rental_uris": {"android": "https://dc.lft.to/lastmile_qr_scan", "ios": "https://dc.lft.to/lastmile_qr_scan"}, "fusion_lon": 0.0, "lat": 38.9282255, "bike_id": "d126d8988b9027c46d2e28f81a5ff511", "type": "electric_scooter", "is_reserved": 0, "lon": -77.02261066666667}, {"fusion_lat": 0.0, "name": "ae9236d6fc4481fdcb6a34fb3c30708b", "is_disabled": 0, "rental_uris": {"android": "https://dc.lft.to/lastmile_qr_scan", "ios": "https://dc.lft.to/lastmile_qr_scan"}, "fusion_lon": 0.0, "lat": 38.827888, "bike_id": "ae9236d6fc4481fdcb6a34fb3c30708b", "type": "electric_bike", "is_reserved": 0, "lon": -77.12487183333333}, {"fusion_lat": 0.0, "name": "da40f209e6f5e8790f5742a19910fa9c", "is_disabled": 0, "rental_uris": {"android": "https://dc.lft.to/lastmile_qr_scan", "ios": "https://dc.lft.to/lastmile_qr_scan"}, "fusion_lon": 0.0, "lat": 38.9222575, "bike_id": "da40f209e6f5e8790f5742a19910fa9c", "type": "electric_scooter", "is_reserved": 0, "lon": -77.02368966666667}, {"fusion_lat": 0.0, "name": "243853bd599f3f90ea20cc54cbd3025e", "is_disabled": 0, "rental_uris": {"android": "https://dc.lft.to/lastmile_qr_scan", "ios": "https://dc.lft.to/lastmile_qr_scan"}, "fusion_lon": 0.0, "lat": 38.8923895, "bike_id": "243853bd599f3f90ea20cc54cbd3025e", "type": "electric_scooter", "is_reserved": 0, "lon": -77.00290866666667}, {"fusion_lat": 0.0, "name": "3d23baa5c3de2653ec57bcbbdf0b191a", "is_disabled": 0, "rental_uris": {"android": "https://dc.lft.to/lastmile_qr_scan", "ios": "https://dc.lft.to/lastmile_qr_scan"}, "fusion_lon": 0.0, "lat": 38.90238866666667, "bike_id": "3d23baa5c3de2653ec57bcbbdf0b191a", "type": "electric_scooter", "is_reserved": 0, "lon": -77.0347075}, {"fusion_lat": 0.0, "name": "0e781e82bc0a703b9550c0689417cb17", "is_disabled": 0, "rental_uris": {"android": "https://dc.lft.to/lastmile_qr_scan", "ios": "https://dc.lft.to/lastmile_qr_scan"}, "fusion_lon": 0.0, "lat": 38.91632416666667, "bike_id": "0e781e82bc0a703b9550c0689417cb17", "type": "electric_scooter", "is_reserved": 0, "lon": -77.00098983333334}, {"fusion_lat": 0.0, "name": "e1add39c3aa30bdab421a9cbeb69d4aa", "is_disabled": 0, "rental_uris": {"android": "https://dc.lft.to/lastmile_qr_scan", "ios": "https://dc.lft.to/lastmile_qr_scan"}, "fusion_lon": 0.0, "lat": 38.9076325, "bike_id": "e1add39c3aa30bdab421a9cbeb69d4aa", "type": "electric_scooter", "is_reserved": 0, "lon": -77.0564885}, {"fusion_lat": 0.0, "name": "d73fae0fc17e0a230d11d8600b026f74", "is_disabled": 0, "rental_uris": {"android": "https://dc.lft.to/lastmile_qr_scan", "ios": "https://dc.lft.to/lastmile_qr_scan"}, "fusion_lon": 0.0, "lat": 38.9308025, "bike_id": "d73fae0fc17e0a230d11d8600b026f74", "type": "electric_scooter", "is_reserved": 0, "lon": -77.02182716666667}, {"fusion_lat": 0.0, "name": "399e826b3bac773c9b2dd9956040089f", "is_disabled": 0, "rental_uris": {"android": "https://dc.lft.to/lastmile_qr_scan", "ios": "https://dc.lft.to/lastmile_qr_scan"}, "fusion_lon": 0.0, "lat": 38.948419666666666, "bike_id": "399e826b3bac773c9b2dd9956040089f", "type": "electric_scooter", "is_reserved": 0, "lon": -77.02568383333333}, {"fusion_lat": 0.0, "name": "9cbe02105441a818be6e0e1484ab0c49", "is_disabled": 0, "rental_uris": {"android": "https://dc.lft.to/lastmile_qr_scan", "ios": "https://dc.lft.to/lastmile_qr_scan"}, "fusion_lon": 0.0, "lat": 38.90789066666667, "bike_id": "9cbe02105441a818be6e0e1484ab0c49", "type": "electric_scooter", "is_reserved": 0, "lon": -77.04358133333334}, {"fusion_lat": 0.0, "name": "a6bb6c54d624507fa2186c30860d9145", "is_disabled": 0, "rental_uris": {"android": "https://dc.lft.to/lastmile_qr_scan", "ios": "https://dc.lft.to/lastmile_qr_scan"}, "fusion_lon": 0.0, "lat": 38.911065, "bike_id": "a6bb6c54d624507fa2186c30860d9145", "type": "electric_scooter", "is_reserved": 0, "lon": -77.0115165}, {"fusion_lat": 0.0, "name": "c001b390c57f5848c054561403356fe6", "is_disabled": 0, "rental_uris": {"android": "https://dc.lft.to/lastmile_qr_scan", "ios": "https://dc.lft.to/lastmile_qr_scan"}, "fusion_lon": 0.0, "lat": 38.9570725, "bike_id": "c001b390c57f5848c054561403356fe6", "type": "electric_scooter", "is_reserved": 0, "lon": -77.02406716666667}, {"fusion_lat": 0.0, "name": "a721b89cc2d8407153839ce1a2f6f656", "is_disabled": 0, "rental_uris": {"android": "https://dc.lft.to/lastmile_qr_scan", "ios": "https://dc.lft.to/lastmile_qr_scan"}, "fusion_lon": 0.0, "lat": 38.93178066666667, "bike_id": "a721b89cc2d8407153839ce1a2f6f656", "type": "electric_scooter", "is_reserved": 0, "lon": -77.04299416666667}, {"fusion_lat": 0.0, "name": "7175b748c617166661f4b3ab15985bcb", "is_disabled": 0, "rental_uris": {"android": "https://dc.lft.to/lastmile_qr_scan", "ios": "https://dc.lft.to/lastmile_qr_scan"}, "fusion_lon": 0.0, "lat": 38.9205575, "bike_id": "7175b748c617166661f4b3ab15985bcb", "type": "electric_scooter", "is_reserved": 0, "lon": -77.03190316666667}, {"fusion_lat": 0.0, "name": "04459f1d035ccc76b257800127a249f5", "is_disabled": 0, "rental_uris": {"android": "https://dc.lft.to/lastmile_qr_scan", "ios": "https://dc.lft.to/lastmile_qr_scan"}, "fusion_lon": 0.0, "lat": 38.88458216666667, "bike_id": "04459f1d035ccc76b257800127a249f5", "type": "electric_scooter", "is_reserved": 0, "lon": -76.998302}, {"fusion_lat": 0.0, "name": "a8322129588abc0fdab56ae7d8d94d98", "is_disabled": 0, "rental_uris": {"android": "https://dc.lft.to/lastmile_qr_scan", "ios": "https://dc.lft.to/lastmile_qr_scan"}, "fusion_lon": 0.0, "lat": 38.90029583333333, "bike_id": "a8322129588abc0fdab56ae7d8d94d98", "type": "electric_scooter", "is_reserved": 0, "lon": -76.99135366666667}, {"fusion_lat": 0.0, "name": "fbfbe674e51e15eebbd5ad7fd7538ba5", "is_disabled": 0, "rental_uris": {"android": "https://dc.lft.to/lastmile_qr_scan", "ios": "https://dc.lft.to/lastmile_qr_scan"}, "fusion_lon": 0.0, "lat": 38.884822666666665, "bike_id": "fbfbe674e51e15eebbd5ad7fd7538ba5", "type": "electric_scooter", "is_reserved": 0, "lon": -76.92965183333334}, {"fusion_lat": 0.0, "name": "01c33bb834b3f937f55b21a98ab0d0dd", "is_disabled": 0, "rental_uris": {"android": "https://dc.lft.to/lastmile_qr_scan", "ios": "https://dc.lft.to/lastmile_qr_scan"}, "fusion_lon": 0.0, "lat": 38.92991116666666, "bike_id": "01c33bb834b3f937f55b21a98ab0d0dd", "type": "electric_scooter", "is_reserved": 0, "lon": -77.03236666666666}, {"fusion_lat": 0.0, "name": "35bb6aa6fbeec5569b2f1715607abcf5", "is_disabled": 0, "rental_uris": {"android": "https://dc.lft.to/lastmile_qr_scan", "ios": "https://dc.lft.to/lastmile_qr_scan"}, "fusion_lon": 0.0, "lat": 38.947044166666664, "bike_id": "35bb6aa6fbeec5569b2f1715607abcf5", "type": "electric_scooter", "is_reserved": 0, "lon": -77.01939816666666}, {"fusion_lat": 0.0, "name": "7ba654a419ba0c1ae66faa7127bf4c17", "is_disabled": 0, "rental_uris": {"android": "https://dc.lft.to/lastmile_qr_scan", "ios": "https://dc.lft.to/lastmile_qr_scan"}, "fusion_lon": 0.0, "lat": 38.92445883333333, "bike_id": "7ba654a419ba0c1ae66faa7127bf4c17", "type": "electric_scooter", "is_reserved": 0, "lon": -77.03358383333334}, {"fusion_lat": 0.0, "name": "8b3e453aa820bd42ed013dcfc1af014f", "is_disabled": 0, "rental_uris": {"android": "https://dc.lft.to/lastmile_qr_scan", "ios": "https://dc.lft.to/lastmile_qr_scan"}, "fusion_lon": 0.0, "lat": 38.9358595, "bike_id": "8b3e453aa820bd42ed013dcfc1af014f", "type": "electric_scooter", "is_reserved": 0, "lon": -77.02364833333333}, {"fusion_lat": 0.0, "name": "98f4d6c050a7e42b9f38bac726fce9df", "is_disabled": 0, "rental_uris": {"android": "https://dc.lft.to/lastmile_qr_scan", "ios": "https://dc.lft.to/lastmile_qr_scan"}, "fusion_lon": 0.0, "lat": 38.94679983333333, "bike_id": "98f4d6c050a7e42b9f38bac726fce9df", "type": "electric_scooter", "is_reserved": 0, "lon": -77.03094166666666}, {"fusion_lat": 0.0, "name": "46fcbd00b25b77dc99866b47355fec56", "is_disabled": 0, "rental_uris": {"android": "https://dc.lft.to/lastmile_qr_scan", "ios": "https://dc.lft.to/lastmile_qr_scan"}, "fusion_lon": 0.0, "lat": 38.930984333333335, "bike_id": "46fcbd00b25b77dc99866b47355fec56", "type": "electric_scooter", "is_reserved": 0, "lon": -77.0266425}, {"fusion_lat": 0.0, "name": "36b43f478cdf925cec926f73e1c5f453", "is_disabled": 0, "rental_uris": {"android": "https://dc.lft.to/lastmile_qr_scan", "ios": "https://dc.lft.to/lastmile_qr_scan"}, "fusion_lon": 0.0, "lat": 38.90372633333333, "bike_id": "36b43f478cdf925cec926f73e1c5f453", "type": "electric_scooter", "is_reserved": 0, "lon": -77.03214333333334}, {"fusion_lat": 0.0, "name": "93941f7382eb7951d0300a140f935205", "is_disabled": 0, "rental_uris": {"android": "https://dc.lft.to/lastmile_qr_scan", "ios": "https://dc.lft.to/lastmile_qr_scan"}, "fusion_lon": 0.0, "lat": 38.903718, "bike_id": "93941f7382eb7951d0300a140f935205", "type": "electric_scooter", "is_reserved": 0, "lon": -77.06715733333333}, {"fusion_lat": 0.0, "name": "0dce578e17b018ecb7feec4d51f0b976", "is_disabled": 0, "rental_uris": {"android": "https://dc.lft.to/lastmile_qr_scan", "ios": "https://dc.lft.to/lastmile_qr_scan"}, "fusion_lon": 0.0, "lat": 38.90309583333333, "bike_id": "0dce578e17b018ecb7feec4d51f0b976", "type": "electric_scooter", "is_reserved": 0, "lon": -77.05336616666666}, {"fusion_lat": 0.0, "name": "2c62f4d9fe98051d8149e366268d0bb2", "is_disabled": 0, "rental_uris": {"android": "https://dc.lft.to/lastmile_qr_scan", "ios": "https://dc.lft.to/lastmile_qr_scan"}, "fusion_lon": 0.0, "lat": 38.8830755, "bike_id": "2c62f4d9fe98051d8149e366268d0bb2", "type": "electric_scooter", "is_reserved": 0, "lon": -77.0137385}, {"fusion_lat": 0.0, "name": "ad076a74b219430dfc29ff456d7e17da", "is_disabled": 0, "rental_uris": {"android": "https://dc.lft.to/lastmile_qr_scan", "ios": "https://dc.lft.to/lastmile_qr_scan"}, "fusion_lon": 0.0, "lat": 38.922156666666666, "bike_id": "ad076a74b219430dfc29ff456d7e17da", "type": "electric_scooter", "is_reserved": 0, "lon": -77.03517766666667}, {"fusion_lat": 0.0, "name": "09a19585d444cfc41e715ffd65b24940", "is_disabled": 0, "rental_uris": {"android": "https://dc.lft.to/lastmile_qr_scan", "ios": "https://dc.lft.to/lastmile_qr_scan"}, "fusion_lon": 0.0, "lat": 38.897158166666664, "bike_id": "09a19585d444cfc41e715ffd65b24940", "type": "electric_scooter", "is_reserved": 0, "lon": -77.0214705}, {"fusion_lat": 0.0, "name": "28e8416ecf9de2a8a73293ad34741565", "is_disabled": 0, "rental_uris": {"android": "https://dc.lft.to/lastmile_qr_scan", "ios": "https://dc.lft.to/lastmile_qr_scan"}, "fusion_lon": 0.0, "lat": 38.8840065, "bike_id": "28e8416ecf9de2a8a73293ad34741565", "type": "electric_scooter", "is_reserved": 0, "lon": -76.93044783333333}, {"fusion_lat": 0.0, "name": "6bc601b2bdbe79b109a7c565f8577e7e", "is_disabled": 0, "rental_uris": {"android": "https://dc.lft.to/lastmile_qr_scan", "ios": "https://dc.lft.to/lastmile_qr_scan"}, "fusion_lon": 0.0, "lat": 38.9073355, "bike_id": "6bc601b2bdbe79b109a7c565f8577e7e", "type": "electric_scooter", "is_reserved": 0, "lon": -77.034458}, {"fusion_lat": 0.0, "name": "cbc3c2278a453bf6a5a5cd54d2b7e994", "is_disabled": 0, "rental_uris": {"android": "https://dc.lft.to/lastmile_qr_scan", "ios": "https://dc.lft.to/lastmile_qr_scan"}, "fusion_lon": 0.0, "lat": 38.9098525, "bike_id": "cbc3c2278a453bf6a5a5cd54d2b7e994", "type": "electric_scooter", "is_reserved": 0, "lon": -77.05485016666667}, {"fusion_lat": 0.0, "name": "2ee435f8ef38ed0f833e681e5e42af3c", "is_disabled": 0, "rental_uris": {"android": "https://dc.lft.to/lastmile_qr_scan", "ios": "https://dc.lft.to/lastmile_qr_scan"}, "fusion_lon": 0.0, "lat": 38.90393983333333, "bike_id": "2ee435f8ef38ed0f833e681e5e42af3c", "type": "electric_scooter", "is_reserved": 0, "lon": -77.01722416666667}, {"fusion_lat": 0.0, "name": "fca82a276d16bb27d2a8e474c36c2906", "is_disabled": 0, "rental_uris": {"android": "https://dc.lft.to/lastmile_qr_scan", "ios": "https://dc.lft.to/lastmile_qr_scan"}, "fusion_lon": 0.0, "lat": 38.935005, "bike_id": "fca82a276d16bb27d2a8e474c36c2906", "type": "electric_scooter", "is_reserved": 0, "lon": -77.07372316666667}, {"fusion_lat": 0.0, "name": "27d4294e953a89ff365ac053d0d41864", "is_disabled": 0, "rental_uris": {"android": "https://dc.lft.to/lastmile_qr_scan", "ios": "https://dc.lft.to/lastmile_qr_scan"}, "fusion_lon": 0.0, "lat": 38.926611333333334, "bike_id": "27d4294e953a89ff365ac053d0d41864", "type": "electric_scooter", "is_reserved": 0, "lon": -77.03706033333333}, {"fusion_lat": 0.0, "name": "3deee83c634c4857ca20af96ac9feb5c", "is_disabled": 0, "rental_uris": {"android": "https://dc.lft.to/lastmile_qr_scan", "ios": "https://dc.lft.to/lastmile_qr_scan"}, "fusion_lon": 0.0, "lat": 38.98391983333333, "bike_id": "3deee83c634c4857ca20af96ac9feb5c", "type": "electric_scooter", "is_reserved": 0, "lon": -77.02630766666667}, {"fusion_lat": 0.0, "name": "be66c9de22a17abe72e7f17268c6788a", "is_disabled": 0, "rental_uris": {"android": "https://dc.lft.to/lastmile_qr_scan", "ios": "https://dc.lft.to/lastmile_qr_scan"}, "fusion_lon": 0.0, "lat": 38.90361033333333, "bike_id": "be66c9de22a17abe72e7f17268c6788a", "type": "electric_scooter", "is_reserved": 0, "lon": -77.036496}, {"fusion_lat": 0.0, "name": "874760f840dcb629c50ccbf81488bec6", "is_disabled": 0, "rental_uris": {"android": "https://dc.lft.to/lastmile_qr_scan", "ios": "https://dc.lft.to/lastmile_qr_scan"}, "fusion_lon": 0.0, "lat": 38.910460666666665, "bike_id": "874760f840dcb629c50ccbf81488bec6", "type": "electric_scooter", "is_reserved": 0, "lon": -77.03322766666666}, {"fusion_lat": 0.0, "name": "62aa04e999c14ee957df9eed04f4a399", "is_disabled": 0, "rental_uris": {"android": "https://dc.lft.to/lastmile_qr_scan", "ios": "https://dc.lft.to/lastmile_qr_scan"}, "fusion_lon": 0.0, "lat": 38.912729666666664, "bike_id": "62aa04e999c14ee957df9eed04f4a399", "type": "electric_scooter", "is_reserved": 0, "lon": -77.04656833333334}, {"fusion_lat": 0.0, "name": "b16222d9946dcd6aba78843507627a1a", "is_disabled": 0, "rental_uris": {"android": "https://dc.lft.to/lastmile_qr_scan", "ios": "https://dc.lft.to/lastmile_qr_scan"}, "fusion_lon": 0.0, "lat": 38.891960166666664, "bike_id": "b16222d9946dcd6aba78843507627a1a", "type": "electric_scooter", "is_reserved": 0, "lon": -77.02231366666666}, {"fusion_lat": 0.0, "name": "66d0fcb4dd03b1ca51b6269c42c752e7", "is_disabled": 0, "rental_uris": {"android": "https://dc.lft.to/lastmile_qr_scan", "ios": "https://dc.lft.to/lastmile_qr_scan"}, "fusion_lon": 0.0, "lat": 38.919120666666664, "bike_id": "66d0fcb4dd03b1ca51b6269c42c752e7", "type": "electric_scooter", "is_reserved": 0, "lon": -77.01216633333334}, {"fusion_lat": 0.0, "name": "86c97f890f26cca877e16657e6f9400d", "is_disabled": 0, "rental_uris": {"android": "https://dc.lft.to/lastmile_qr_scan", "ios": "https://dc.lft.to/lastmile_qr_scan"}, "fusion_lon": 0.0, "lat": 38.89018433333333, "bike_id": "86c97f890f26cca877e16657e6f9400d", "type": "electric_scooter", "is_reserved": 0, "lon": -76.937332}, {"fusion_lat": 0.0, "name": "ecc3eef7bb1d75298593cb94916c2591", "is_disabled": 0, "rental_uris": {"android": "https://dc.lft.to/lastmile_qr_scan", "ios": "https://dc.lft.to/lastmile_qr_scan"}, "fusion_lon": 0.0, "lat": 38.915169666666664, "bike_id": "ecc3eef7bb1d75298593cb94916c2591", "type": "electric_scooter", "is_reserved": 0, "lon": -77.02696383333334}, {"fusion_lat": 0.0, "name": "4dc84fcda8971f3a97e4f33fc4eda896", "is_disabled": 0, "rental_uris": {"android": "https://dc.lft.to/lastmile_qr_scan", "ios": "https://dc.lft.to/lastmile_qr_scan"}, "fusion_lon": 0.0, "lat": 38.94523366666667, "bike_id": "4dc84fcda8971f3a97e4f33fc4eda896", "type": "electric_scooter", "is_reserved": 0, "lon": -77.02271083333333}, {"fusion_lat": 0.0, "name": "1f0a323d6f59d70de58bab070e0959ae", "is_disabled": 0, "rental_uris": {"android": "https://dc.lft.to/lastmile_qr_scan", "ios": "https://dc.lft.to/lastmile_qr_scan"}, "fusion_lon": 0.0, "lat": 38.87715266666667, "bike_id": "1f0a323d6f59d70de58bab070e0959ae", "type": "electric_scooter", "is_reserved": 0, "lon": -76.99389566666666}, {"fusion_lat": 0.0, "name": "45fb665842e872fbb2de18f1ef206f84", "is_disabled": 0, "rental_uris": {"android": "https://dc.lft.to/lastmile_qr_scan", "ios": "https://dc.lft.to/lastmile_qr_scan"}, "fusion_lon": 0.0, "lat": 38.92948716666667, "bike_id": "45fb665842e872fbb2de18f1ef206f84", "type": "electric_scooter", "is_reserved": 0, "lon": -77.03475066666667}, {"fusion_lat": 0.0, "name": "a30e12c3747649b8436d874286353fb1", "is_disabled": 0, "rental_uris": {"android": "https://dc.lft.to/lastmile_qr_scan", "ios": "https://dc.lft.to/lastmile_qr_scan"}, "fusion_lon": 0.0, "lat": 38.892961166666666, "bike_id": "a30e12c3747649b8436d874286353fb1", "type": "electric_scooter", "is_reserved": 0, "lon": -77.046592}, {"fusion_lat": 0.0, "name": "aa49bbee9517fb0d05b7207c96db292a", "is_disabled": 0, "rental_uris": {"android": "https://dc.lft.to/lastmile_qr_scan", "ios": "https://dc.lft.to/lastmile_qr_scan"}, "fusion_lon": 0.0, "lat": 38.91133683333334, "bike_id": "aa49bbee9517fb0d05b7207c96db292a", "type": "electric_scooter", "is_reserved": 0, "lon": -77.010521}, {"fusion_lat": 0.0, "name": "936122a45cdb0245864a9460e9b6f4b9", "is_disabled": 0, "rental_uris": {"android": "https://dc.lft.to/lastmile_qr_scan", "ios": "https://dc.lft.to/lastmile_qr_scan"}, "fusion_lon": 0.0, "lat": 38.90258133333333, "bike_id": "936122a45cdb0245864a9460e9b6f4b9", "type": "electric_scooter", "is_reserved": 0, "lon": -77.03359883333333}, {"fusion_lat": 0.0, "name": "0758b69f7cf9ec156fef35b679ffadd6", "is_disabled": 0, "rental_uris": {"android": "https://dc.lft.to/lastmile_qr_scan", "ios": "https://dc.lft.to/lastmile_qr_scan"}, "fusion_lon": 0.0, "lat": 38.842796666666665, "bike_id": "0758b69f7cf9ec156fef35b679ffadd6", "type": "electric_bike", "is_reserved": 0, "lon": -77.04502183333334}, {"fusion_lat": 0.0, "name": "9a9012ece8853cb18b48c80489016354", "is_disabled": 0, "rental_uris": {"android": "https://dc.lft.to/lastmile_qr_scan", "ios": "https://dc.lft.to/lastmile_qr_scan"}, "fusion_lon": 0.0, "lat": 38.895644, "bike_id": "9a9012ece8853cb18b48c80489016354", "type": "electric_bike", "is_reserved": 0, "lon": -77.12739216666667}, {"fusion_lat": 0.0, "name": "a1c714c1adcaf3431c6f02cbdc1a24df", "is_disabled": 0, "rental_uris": {"android": "https://dc.lft.to/lastmile_qr_scan", "ios": "https://dc.lft.to/lastmile_qr_scan"}, "fusion_lon": 0.0, "lat": 38.85312283333333, "bike_id": "a1c714c1adcaf3431c6f02cbdc1a24df", "type": "electric_bike", "is_reserved": 0, "lon": -77.04599066666667}, {"fusion_lat": 0.0, "name": "2b55a1511ca924421a0411083b2ee702", "is_disabled": 0, "rental_uris": {"android": "https://dc.lft.to/lastmile_qr_scan", "ios": "https://dc.lft.to/lastmile_qr_scan"}, "fusion_lon": 0.0, "lat": 38.90707233333333, "bike_id": "2b55a1511ca924421a0411083b2ee702", "type": "electric_scooter", "is_reserved": 0, "lon": -77.01026833333333}, {"fusion_lat": 0.0, "name": "6e287e3fc2a36d9124ada8d14458b2b8", "is_disabled": 0, "rental_uris": {"android": "https://dc.lft.to/lastmile_qr_scan", "ios": "https://dc.lft.to/lastmile_qr_scan"}, "fusion_lon": 0.0, "lat": 38.9169015, "bike_id": "6e287e3fc2a36d9124ada8d14458b2b8", "type": "electric_scooter", "is_reserved": 0, "lon": -77.03470433333334}, {"fusion_lat": 0.0, "name": "f5932a9ce938bc5eae22a53b2937f6dc", "is_disabled": 0, "rental_uris": {"android": "https://dc.lft.to/lastmile_qr_scan", "ios": "https://dc.lft.to/lastmile_qr_scan"}, "fusion_lon": 0.0, "lat": 38.92687433333333, "bike_id": "f5932a9ce938bc5eae22a53b2937f6dc", "type": "electric_scooter", "is_reserved": 0, "lon": -77.00778383333333}, {"fusion_lat": 0.0, "name": "8650851723bf33f619050568501fabf5", "is_disabled": 0, "rental_uris": {"android": "https://dc.lft.to/lastmile_qr_scan", "ios": "https://dc.lft.to/lastmile_qr_scan"}, "fusion_lon": 0.0, "lat": 38.91028033333333, "bike_id": "8650851723bf33f619050568501fabf5", "type": "electric_scooter", "is_reserved": 0, "lon": -77.0075405}, {"fusion_lat": 0.0, "name": "483e77de6290ace816ae0d1d1c2326b8", "is_disabled": 0, "rental_uris": {"android": "https://dc.lft.to/lastmile_qr_scan", "ios": "https://dc.lft.to/lastmile_qr_scan"}, "fusion_lon": 0.0, "lat": 38.90890683333333, "bike_id": "483e77de6290ace816ae0d1d1c2326b8", "type": "electric_bike", "is_reserved": 0, "lon": -77.03222916666667}, {"fusion_lat": 0.0, "name": "cfe47fd3bbaec4893446c401de4f52c9", "is_disabled": 0, "rental_uris": {"android": "https://dc.lft.to/lastmile_qr_scan", "ios": "https://dc.lft.to/lastmile_qr_scan"}, "fusion_lon": 0.0, "lat": 38.9355275, "bike_id": "cfe47fd3bbaec4893446c401de4f52c9", "type": "electric_bike", "is_reserved": 0, "lon": -77.037128}, {"fusion_lat": 0.0, "name": "bd9654bef9ca9ca0e8242f535a2ff50e", "is_disabled": 0, "rental_uris": {"android": "https://dc.lft.to/lastmile_qr_scan", "ios": "https://dc.lft.to/lastmile_qr_scan"}, "fusion_lon": 0.0, "lat": 38.9205825, "bike_id": "bd9654bef9ca9ca0e8242f535a2ff50e", "type": "electric_scooter", "is_reserved": 0, "lon": -76.9985895}, {"fusion_lat": 0.0, "name": "5b65ca98dc86861176cfc0a909744160", "is_disabled": 0, "rental_uris": {"android": "https://dc.lft.to/lastmile_qr_scan", "ios": "https://dc.lft.to/lastmile_qr_scan"}, "fusion_lon": 0.0, "lat": 38.90110216666667, "bike_id": "5b65ca98dc86861176cfc0a909744160", "type": "electric_scooter", "is_reserved": 0, "lon": -77.01927716666667}, {"fusion_lat": 0.0, "name": "a780a2b8081b8a3e9de038dfebe6d7fa", "is_disabled": 0, "rental_uris": {"android": "https://dc.lft.to/lastmile_qr_scan", "ios": "https://dc.lft.to/lastmile_qr_scan"}, "fusion_lon": 0.0, "lat": 38.903597500000004, "bike_id": "a780a2b8081b8a3e9de038dfebe6d7fa", "type": "electric_scooter", "is_reserved": 0, "lon": -77.04674183333333}, {"fusion_lat": 0.0, "name": "abde574431ecc665c8bea41aeb629820", "is_disabled": 0, "rental_uris": {"android": "https://dc.lft.to/lastmile_qr_scan", "ios": "https://dc.lft.to/lastmile_qr_scan"}, "fusion_lon": 0.0, "lat": 38.89477133333333, "bike_id": "abde574431ecc665c8bea41aeb629820", "type": "electric_scooter", "is_reserved": 0, "lon": -77.021845}, {"fusion_lat": 0.0, "name": "b99d1e186cb6058502406f9d8541ae7c", "is_disabled": 0, "rental_uris": {"android": "https://dc.lft.to/lastmile_qr_scan", "ios": "https://dc.lft.to/lastmile_qr_scan"}, "fusion_lon": 0.0, "lat": 39.00784783333334, "bike_id": "b99d1e186cb6058502406f9d8541ae7c", "type": "electric_bike", "is_reserved": 0, "lon": -76.8898075}, {"fusion_lat": 0.0, "name": "6eaf1fc45820acba46c76f92766bc739", "is_disabled": 0, "rental_uris": {"android": "https://dc.lft.to/lastmile_qr_scan", "ios": "https://dc.lft.to/lastmile_qr_scan"}, "fusion_lon": 0.0, "lat": 38.9235465, "bike_id": "6eaf1fc45820acba46c76f92766bc739", "type": "electric_scooter", "is_reserved": 0, "lon": -77.042323}, {"fusion_lat": 0.0, "name": "2c154fe41a2db3e9f330dd57a01eb689", "is_disabled": 0, "rental_uris": {"android": "https://dc.lft.to/lastmile_qr_scan", "ios": "https://dc.lft.to/lastmile_qr_scan"}, "fusion_lon": 0.0, "lat": 38.920585833333334, "bike_id": "2c154fe41a2db3e9f330dd57a01eb689", "type": "electric_scooter", "is_reserved": 0, "lon": -77.04191616666667}, {"fusion_lat": 0.0, "name": "775f94aa22be82c784b374d669a48235", "is_disabled": 0, "rental_uris": {"android": "https://dc.lft.to/lastmile_qr_scan", "ios": "https://dc.lft.to/lastmile_qr_scan"}, "fusion_lon": 0.0, "lat": 38.918594666666664, "bike_id": "775f94aa22be82c784b374d669a48235", "type": "electric_scooter", "is_reserved": 0, "lon": -77.0448285}, {"fusion_lat": 0.0, "name": "3293e328d60487bb1ed683330559b992", "is_disabled": 0, "rental_uris": {"android": "https://dc.lft.to/lastmile_qr_scan", "ios": "https://dc.lft.to/lastmile_qr_scan"}, "fusion_lon": 0.0, "lat": 38.927892166666666, "bike_id": "3293e328d60487bb1ed683330559b992", "type": "electric_scooter", "is_reserved": 0, "lon": -76.97976016666667}, {"fusion_lat": 0.0, "name": "96f228a7cd9c7c9c03cb662ada26f6de", "is_disabled": 0, "rental_uris": {"android": "https://dc.lft.to/lastmile_qr_scan", "ios": "https://dc.lft.to/lastmile_qr_scan"}, "fusion_lon": 0.0, "lat": 38.92462966666667, "bike_id": "96f228a7cd9c7c9c03cb662ada26f6de", "type": "electric_scooter", "is_reserved": 0, "lon": -76.993356}, {"fusion_lat": 0.0, "name": "74b0a0f34308207cf6d5a8c6cb45b54f", "is_disabled": 0, "rental_uris": {"android": "https://dc.lft.to/lastmile_qr_scan", "ios": "https://dc.lft.to/lastmile_qr_scan"}, "fusion_lon": 0.0, "lat": 38.90961016666667, "bike_id": "74b0a0f34308207cf6d5a8c6cb45b54f", "type": "electric_scooter", "is_reserved": 0, "lon": -77.04867166666666}, {"fusion_lat": 0.0, "name": "b909af7de30c48b22df9cd58e0036064", "is_disabled": 0, "rental_uris": {"android": "https://dc.lft.to/lastmile_qr_scan", "ios": "https://dc.lft.to/lastmile_qr_scan"}, "fusion_lon": 0.0, "lat": 38.92276916666667, "bike_id": "b909af7de30c48b22df9cd58e0036064", "type": "electric_scooter", "is_reserved": 0, "lon": -77.073136}, {"fusion_lat": 0.0, "name": "e28569b40d11edb92361910a6ef7a1a2", "is_disabled": 0, "rental_uris": {"android": "https://dc.lft.to/lastmile_qr_scan", "ios": "https://dc.lft.to/lastmile_qr_scan"}, "fusion_lon": 0.0, "lat": 38.91709566666667, "bike_id": "e28569b40d11edb92361910a6ef7a1a2", "type": "electric_scooter", "is_reserved": 0, "lon": -77.03229183333333}, {"fusion_lat": 0.0, "name": "27426af82762c50bfe538326308514d3", "is_disabled": 0, "rental_uris": {"android": "https://dc.lft.to/lastmile_qr_scan", "ios": "https://dc.lft.to/lastmile_qr_scan"}, "fusion_lon": 0.0, "lat": 38.899494833333335, "bike_id": "27426af82762c50bfe538326308514d3", "type": "electric_scooter", "is_reserved": 0, "lon": -77.045311}, {"fusion_lat": 0.0, "name": "a3ea75ab59d17bb80115e7e7fe5fe8e9", "is_disabled": 0, "rental_uris": {"android": "https://dc.lft.to/lastmile_qr_scan", "ios": "https://dc.lft.to/lastmile_qr_scan"}, "fusion_lon": 0.0, "lat": 38.90740983333333, "bike_id": "a3ea75ab59d17bb80115e7e7fe5fe8e9", "type": "electric_scooter", "is_reserved": 0, "lon": -76.99821266666666}, {"fusion_lat": 0.0, "name": "c9529d3b8e6a14d86ec145bb965bd334", "is_disabled": 0, "rental_uris": {"android": "https://dc.lft.to/lastmile_qr_scan", "ios": "https://dc.lft.to/lastmile_qr_scan"}, "fusion_lon": 0.0, "lat": 38.9952255, "bike_id": "c9529d3b8e6a14d86ec145bb965bd334", "type": "electric_bike", "is_reserved": 0, "lon": -77.02907966666666}, {"fusion_lat": 0.0, "name": "65fa79242ae193fcfd16bb79c3b1670d", "is_disabled": 0, "rental_uris": {"android": "https://dc.lft.to/lastmile_qr_scan", "ios": "https://dc.lft.to/lastmile_qr_scan"}, "fusion_lon": 0.0, "lat": 38.91797116666667, "bike_id": "65fa79242ae193fcfd16bb79c3b1670d", "type": "electric_scooter", "is_reserved": 0, "lon": -77.03440983333333}, {"fusion_lat": 0.0, "name": "e9b91a02a7b4d118be288fe2fe1a1bbf", "is_disabled": 0, "rental_uris": {"android": "https://dc.lft.to/lastmile_qr_scan", "ios": "https://dc.lft.to/lastmile_qr_scan"}, "fusion_lon": 0.0, "lat": 38.9029135, "bike_id": "e9b91a02a7b4d118be288fe2fe1a1bbf", "type": "electric_scooter", "is_reserved": 0, "lon": -76.99038616666667}, {"fusion_lat": 0.0, "name": "fc521428e8eee9ae5a46d1dfe03f9907", "is_disabled": 0, "rental_uris": {"android": "https://dc.lft.to/lastmile_qr_scan", "ios": "https://dc.lft.to/lastmile_qr_scan"}, "fusion_lon": 0.0, "lat": 38.924257, "bike_id": "fc521428e8eee9ae5a46d1dfe03f9907", "type": "electric_scooter", "is_reserved": 0, "lon": -77.0254325}, {"fusion_lat": 0.0, "name": "1962c0f4b3d220b97664cbc1cfc8a28a", "is_disabled": 0, "rental_uris": {"android": "https://dc.lft.to/lastmile_qr_scan", "ios": "https://dc.lft.to/lastmile_qr_scan"}, "fusion_lon": 0.0, "lat": 38.935817666666665, "bike_id": "1962c0f4b3d220b97664cbc1cfc8a28a", "type": "electric_scooter", "is_reserved": 0, "lon": -77.02847433333334}, {"fusion_lat": 0.0, "name": "ba93104fff4eedc8974ea0aeeeffa655", "is_disabled": 0, "rental_uris": {"android": "https://dc.lft.to/lastmile_qr_scan", "ios": "https://dc.lft.to/lastmile_qr_scan"}, "fusion_lon": 0.0, "lat": 38.95221333333333, "bike_id": "ba93104fff4eedc8974ea0aeeeffa655", "type": "electric_scooter", "is_reserved": 0, "lon": -77.0821705}, {"fusion_lat": 0.0, "name": "6da7dae304652d69b7db087739e92e85", "is_disabled": 0, "rental_uris": {"android": "https://dc.lft.to/lastmile_qr_scan", "ios": "https://dc.lft.to/lastmile_qr_scan"}, "fusion_lon": 0.0, "lat": 38.85410316666667, "bike_id": "6da7dae304652d69b7db087739e92e85", "type": "electric_bike", "is_reserved": 0, "lon": -77.12073216666667}, {"fusion_lat": 0.0, "name": "8a5dcb1d478a135cbd78eed92d96195c", "is_disabled": 0, "rental_uris": {"android": "https://dc.lft.to/lastmile_qr_scan", "ios": "https://dc.lft.to/lastmile_qr_scan"}, "fusion_lon": 0.0, "lat": 38.9314735, "bike_id": "8a5dcb1d478a135cbd78eed92d96195c", "type": "electric_scooter", "is_reserved": 0, "lon": -77.03959983333333}, {"fusion_lat": 0.0, "name": "d4a3087c0ffd00c24417b08bda6ebfb8", "is_disabled": 0, "rental_uris": {"android": "https://dc.lft.to/lastmile_qr_scan", "ios": "https://dc.lft.to/lastmile_qr_scan"}, "fusion_lon": 0.0, "lat": 38.88220033333333, "bike_id": "d4a3087c0ffd00c24417b08bda6ebfb8", "type": "electric_scooter", "is_reserved": 0, "lon": -77.029383}, {"fusion_lat": 0.0, "name": "5296bffce6de9834bb47d0f8b9a0b4e0", "is_disabled": 0, "rental_uris": {"android": "https://dc.lft.to/lastmile_qr_scan", "ios": "https://dc.lft.to/lastmile_qr_scan"}, "fusion_lon": 0.0, "lat": 38.948654833333336, "bike_id": "5296bffce6de9834bb47d0f8b9a0b4e0", "type": "electric_scooter", "is_reserved": 0, "lon": -77.02566416666667}, {"fusion_lat": 0.0, "name": "0cedba441dd221cbc8b265dbedcdb140", "is_disabled": 0, "rental_uris": {"android": "https://dc.lft.to/lastmile_qr_scan", "ios": "https://dc.lft.to/lastmile_qr_scan"}, "fusion_lon": 0.0, "lat": 38.91994183333333, "bike_id": "0cedba441dd221cbc8b265dbedcdb140", "type": "electric_scooter", "is_reserved": 0, "lon": -77.07188083333334}, {"fusion_lat": 0.0, "name": "6bfc9974489239760e00f1b0f14b34be", "is_disabled": 0, "rental_uris": {"android": "https://dc.lft.to/lastmile_qr_scan", "ios": "https://dc.lft.to/lastmile_qr_scan"}, "fusion_lon": 0.0, "lat": 38.883029666666665, "bike_id": "6bfc9974489239760e00f1b0f14b34be", "type": "electric_scooter", "is_reserved": 0, "lon": -76.94853533333334}, {"fusion_lat": 0.0, "name": "ecd494bda564655f0e337508ba23d413", "is_disabled": 0, "rental_uris": {"android": "https://dc.lft.to/lastmile_qr_scan", "ios": "https://dc.lft.to/lastmile_qr_scan"}, "fusion_lon": 0.0, "lat": 38.91263933333333, "bike_id": "ecd494bda564655f0e337508ba23d413", "type": "electric_scooter", "is_reserved": 0, "lon": -77.0062535}, {"fusion_lat": 0.0, "name": "a85e44eda25e42cecb346b01c1890d25", "is_disabled": 0, "rental_uris": {"android": "https://dc.lft.to/lastmile_qr_scan", "ios": "https://dc.lft.to/lastmile_qr_scan"}, "fusion_lon": 0.0, "lat": 38.88615633333333, "bike_id": "a85e44eda25e42cecb346b01c1890d25", "type": "electric_scooter", "is_reserved": 0, "lon": -77.01798883333333}, {"fusion_lat": 0.0, "name": "b1c1d3782834a8195a9c3a64365504b3", "is_disabled": 0, "rental_uris": {"android": "https://dc.lft.to/lastmile_qr_scan", "ios": "https://dc.lft.to/lastmile_qr_scan"}, "fusion_lon": 0.0, "lat": 38.93897916666667, "bike_id": "b1c1d3782834a8195a9c3a64365504b3", "type": "electric_scooter", "is_reserved": 0, "lon": -77.0326535}, {"fusion_lat": 0.0, "name": "d4f6c021c203e668f9153f75389c9adc", "is_disabled": 0, "rental_uris": {"android": "https://dc.lft.to/lastmile_qr_scan", "ios": "https://dc.lft.to/lastmile_qr_scan"}, "fusion_lon": 0.0, "lat": 38.90075233333334, "bike_id": "d4f6c021c203e668f9153f75389c9adc", "type": "electric_scooter", "is_reserved": 0, "lon": -77.0495255}, {"fusion_lat": 0.0, "name": "2b894aee728b2ad5260331109116924e", "is_disabled": 0, "rental_uris": {"android": "https://dc.lft.to/lastmile_qr_scan", "ios": "https://dc.lft.to/lastmile_qr_scan"}, "fusion_lon": 0.0, "lat": 38.92470816666667, "bike_id": "2b894aee728b2ad5260331109116924e", "type": "electric_scooter", "is_reserved": 0, "lon": -77.0207435}, {"fusion_lat": 0.0, "name": "6f358bb3c13778f7d1093dc4f36e2437", "is_disabled": 0, "rental_uris": {"android": "https://dc.lft.to/lastmile_qr_scan", "ios": "https://dc.lft.to/lastmile_qr_scan"}, "fusion_lon": 0.0, "lat": 38.920721, "bike_id": "6f358bb3c13778f7d1093dc4f36e2437", "type": "electric_scooter", "is_reserved": 0, "lon": -77.0241175}, {"fusion_lat": 0.0, "name": "9e78dfd9a2b570a7128db4f48537b9cc", "is_disabled": 0, "rental_uris": {"android": "https://dc.lft.to/lastmile_qr_scan", "ios": "https://dc.lft.to/lastmile_qr_scan"}, "fusion_lon": 0.0, "lat": 38.892296333333334, "bike_id": "9e78dfd9a2b570a7128db4f48537b9cc", "type": "electric_scooter", "is_reserved": 0, "lon": -77.03218766666667}, {"fusion_lat": 0.0, "name": "7fe27d36a37e92b6e6aa448bd1331499", "is_disabled": 0, "rental_uris": {"android": "https://dc.lft.to/lastmile_qr_scan", "ios": "https://dc.lft.to/lastmile_qr_scan"}, "fusion_lon": 0.0, "lat": 38.898767666666664, "bike_id": "7fe27d36a37e92b6e6aa448bd1331499", "type": "electric_scooter", "is_reserved": 0, "lon": -76.931844}, {"fusion_lat": 0.0, "name": "d05fe3d4e127369331fa465cb1cff4ab", "is_disabled": 0, "rental_uris": {"android": "https://dc.lft.to/lastmile_qr_scan", "ios": "https://dc.lft.to/lastmile_qr_scan"}, "fusion_lon": 0.0, "lat": 38.9352685, "bike_id": "d05fe3d4e127369331fa465cb1cff4ab", "type": "electric_scooter", "is_reserved": 0, "lon": -77.028428}, {"fusion_lat": 0.0, "name": "4d5613ab3fb9dd63ff1f448822a2515c", "is_disabled": 0, "rental_uris": {"android": "https://dc.lft.to/lastmile_qr_scan", "ios": "https://dc.lft.to/lastmile_qr_scan"}, "fusion_lon": 0.0, "lat": 38.907119, "bike_id": "4d5613ab3fb9dd63ff1f448822a2515c", "type": "electric_scooter", "is_reserved": 0, "lon": -77.04760566666667}, {"fusion_lat": 0.0, "name": "492b78ebd29e2a507a7c5c63c6f9c501", "is_disabled": 0, "rental_uris": {"android": "https://dc.lft.to/lastmile_qr_scan", "ios": "https://dc.lft.to/lastmile_qr_scan"}, "fusion_lon": 0.0, "lat": 38.891995, "bike_id": "492b78ebd29e2a507a7c5c63c6f9c501", "type": "electric_scooter", "is_reserved": 0, "lon": -77.02230616666667}, {"fusion_lat": 0.0, "name": "190ba863e12580a1662196a33763693f", "is_disabled": 0, "rental_uris": {"android": "https://dc.lft.to/lastmile_qr_scan", "ios": "https://dc.lft.to/lastmile_qr_scan"}, "fusion_lon": 0.0, "lat": 38.906781, "bike_id": "190ba863e12580a1662196a33763693f", "type": "electric_scooter", "is_reserved": 0, "lon": -77.02176283333333}, {"fusion_lat": 0.0, "name": "6c0c2a055f4cf656cfd424a5bb1e6b51", "is_disabled": 0, "rental_uris": {"android": "https://dc.lft.to/lastmile_qr_scan", "ios": "https://dc.lft.to/lastmile_qr_scan"}, "fusion_lon": 0.0, "lat": 38.92870283333333, "bike_id": "6c0c2a055f4cf656cfd424a5bb1e6b51", "type": "electric_scooter", "is_reserved": 0, "lon": -77.03493083333333}, {"fusion_lat": 0.0, "name": "20311e91457a0e91b20d370f247ccd88", "is_disabled": 0, "rental_uris": {"android": "https://dc.lft.to/lastmile_qr_scan", "ios": "https://dc.lft.to/lastmile_qr_scan"}, "fusion_lon": 0.0, "lat": 38.905512, "bike_id": "20311e91457a0e91b20d370f247ccd88", "type": "electric_scooter", "is_reserved": 0, "lon": -77.00485033333334}, {"fusion_lat": 0.0, "name": "fb4a0c897c1e8e04b1e905d6f8ee0070", "is_disabled": 0, "rental_uris": {"android": "https://dc.lft.to/lastmile_qr_scan", "ios": "https://dc.lft.to/lastmile_qr_scan"}, "fusion_lon": 0.0, "lat": 38.91815066666667, "bike_id": "fb4a0c897c1e8e04b1e905d6f8ee0070", "type": "electric_scooter", "is_reserved": 0, "lon": -77.04513916666667}, {"fusion_lat": 0.0, "name": "8d1e77bc7ea6706da1c4d6571d0a5520", "is_disabled": 0, "rental_uris": {"android": "https://dc.lft.to/lastmile_qr_scan", "ios": "https://dc.lft.to/lastmile_qr_scan"}, "fusion_lon": 0.0, "lat": 38.937077, "bike_id": "8d1e77bc7ea6706da1c4d6571d0a5520", "type": "electric_scooter", "is_reserved": 0, "lon": -77.061028}, {"fusion_lat": 0.0, "name": "55f76bf72b5a97a42e03f03628aeba75", "is_disabled": 0, "rental_uris": {"android": "https://dc.lft.to/lastmile_qr_scan", "ios": "https://dc.lft.to/lastmile_qr_scan"}, "fusion_lon": 0.0, "lat": 38.919762666666664, "bike_id": "55f76bf72b5a97a42e03f03628aeba75", "type": "electric_scooter", "is_reserved": 0, "lon": -77.0709515}, {"fusion_lat": 0.0, "name": "0c45e15003edd3e370b0eb9b735bb0c7", "is_disabled": 0, "rental_uris": {"android": "https://dc.lft.to/lastmile_qr_scan", "ios": "https://dc.lft.to/lastmile_qr_scan"}, "fusion_lon": 0.0, "lat": 38.903909666666664, "bike_id": "0c45e15003edd3e370b0eb9b735bb0c7", "type": "electric_scooter", "is_reserved": 0, "lon": -77.05033166666666}, {"fusion_lat": 0.0, "name": "c3de81293b8a65728a7bd0b5ddbf7d21", "is_disabled": 0, "rental_uris": {"android": "https://dc.lft.to/lastmile_qr_scan", "ios": "https://dc.lft.to/lastmile_qr_scan"}, "fusion_lon": 0.0, "lat": 38.8840585, "bike_id": "c3de81293b8a65728a7bd0b5ddbf7d21", "type": "electric_bike", "is_reserved": 0, "lon": -76.986079}, {"fusion_lat": 0.0, "name": "629f4b9ff0db43f84d623996574df4c4", "is_disabled": 0, "rental_uris": {"android": "https://dc.lft.to/lastmile_qr_scan", "ios": "https://dc.lft.to/lastmile_qr_scan"}, "fusion_lon": 0.0, "lat": 38.949256, "bike_id": "629f4b9ff0db43f84d623996574df4c4", "type": "electric_scooter", "is_reserved": 0, "lon": -77.0185525}, {"fusion_lat": 0.0, "name": "4f0af2be4134fe0c396810b89443015b", "is_disabled": 0, "rental_uris": {"android": "https://dc.lft.to/lastmile_qr_scan", "ios": "https://dc.lft.to/lastmile_qr_scan"}, "fusion_lon": 0.0, "lat": 38.9023475, "bike_id": "4f0af2be4134fe0c396810b89443015b", "type": "electric_scooter", "is_reserved": 0, "lon": -77.019288}, {"fusion_lat": 0.0, "name": "5d3cd118f1d94e544373f2a01848474a", "is_disabled": 0, "rental_uris": {"android": "https://dc.lft.to/lastmile_qr_scan", "ios": "https://dc.lft.to/lastmile_qr_scan"}, "fusion_lon": 0.0, "lat": 38.85798283333333, "bike_id": "5d3cd118f1d94e544373f2a01848474a", "type": "electric_bike", "is_reserved": 0, "lon": -77.1201385}, {"fusion_lat": 0.0, "name": "5e7f0d065249aaa1e4664325a1d8c684", "is_disabled": 0, "rental_uris": {"android": "https://dc.lft.to/lastmile_qr_scan", "ios": "https://dc.lft.to/lastmile_qr_scan"}, "fusion_lon": 0.0, "lat": 38.935604, "bike_id": "5e7f0d065249aaa1e4664325a1d8c684", "type": "electric_scooter", "is_reserved": 0, "lon": -77.03488866666666}, {"fusion_lat": 0.0, "name": "501efa46bda067b556353ef33fa0a04f", "is_disabled": 0, "rental_uris": {"android": "https://dc.lft.to/lastmile_qr_scan", "ios": "https://dc.lft.to/lastmile_qr_scan"}, "fusion_lon": 0.0, "lat": 38.930520666666666, "bike_id": "501efa46bda067b556353ef33fa0a04f", "type": "electric_scooter", "is_reserved": 0, "lon": -77.033575}, {"fusion_lat": 0.0, "name": "92d5192e472179aa41a1ca853f790060", "is_disabled": 0, "rental_uris": {"android": "https://dc.lft.to/lastmile_qr_scan", "ios": "https://dc.lft.to/lastmile_qr_scan"}, "fusion_lon": 0.0, "lat": 38.93071883333333, "bike_id": "92d5192e472179aa41a1ca853f790060", "type": "electric_scooter", "is_reserved": 0, "lon": -77.02983516666667}, {"fusion_lat": 0.0, "name": "8412fd9ad2c526865a7c03791a9fe343", "is_disabled": 0, "rental_uris": {"android": "https://dc.lft.to/lastmile_qr_scan", "ios": "https://dc.lft.to/lastmile_qr_scan"}, "fusion_lon": 0.0, "lat": 38.89510633333333, "bike_id": "8412fd9ad2c526865a7c03791a9fe343", "type": "electric_scooter", "is_reserved": 0, "lon": -77.01114016666666}, {"fusion_lat": 0.0, "name": "a0bc15b83f1b00a1614ebb29e7d319b5", "is_disabled": 0, "rental_uris": {"android": "https://dc.lft.to/lastmile_qr_scan", "ios": "https://dc.lft.to/lastmile_qr_scan"}, "fusion_lon": 0.0, "lat": 38.916680666666664, "bike_id": "a0bc15b83f1b00a1614ebb29e7d319b5", "type": "electric_scooter", "is_reserved": 0, "lon": -77.02717616666666}, {"fusion_lat": 0.0, "name": "a1017791140e4f06f14cada15bc0d2ed", "is_disabled": 0, "rental_uris": {"android": "https://dc.lft.to/lastmile_qr_scan", "ios": "https://dc.lft.to/lastmile_qr_scan"}, "fusion_lon": 0.0, "lat": 38.94108166666667, "bike_id": "a1017791140e4f06f14cada15bc0d2ed", "type": "electric_scooter", "is_reserved": 0, "lon": -77.0347765}, {"fusion_lat": 0.0, "name": "b55b4eb979c6c9b2be15a22c17520313", "is_disabled": 0, "rental_uris": {"android": "https://dc.lft.to/lastmile_qr_scan", "ios": "https://dc.lft.to/lastmile_qr_scan"}, "fusion_lon": 0.0, "lat": 38.90124983333333, "bike_id": "b55b4eb979c6c9b2be15a22c17520313", "type": "electric_scooter", "is_reserved": 0, "lon": -77.0403705}, {"fusion_lat": 0.0, "name": "e002cada7f7a1bcb3051dc780aab655d", "is_disabled": 0, "rental_uris": {"android": "https://dc.lft.to/lastmile_qr_scan", "ios": "https://dc.lft.to/lastmile_qr_scan"}, "fusion_lon": 0.0, "lat": 38.903088333333336, "bike_id": "e002cada7f7a1bcb3051dc780aab655d", "type": "electric_scooter", "is_reserved": 0, "lon": -77.03210616666667}, {"fusion_lat": 0.0, "name": "f3017f012a3d757c897ee19aee5307ca", "is_disabled": 0, "rental_uris": {"android": "https://dc.lft.to/lastmile_qr_scan", "ios": "https://dc.lft.to/lastmile_qr_scan"}, "fusion_lon": 0.0, "lat": 38.88757066666667, "bike_id": "f3017f012a3d757c897ee19aee5307ca", "type": "electric_scooter", "is_reserved": 0, "lon": -76.99789216666667}, {"fusion_lat": 0.0, "name": "64c5a2546595b49a37bf51aade210738", "is_disabled": 0, "rental_uris": {"android": "https://dc.lft.to/lastmile_qr_scan", "ios": "https://dc.lft.to/lastmile_qr_scan"}, "fusion_lon": 0.0, "lat": 38.935861333333335, "bike_id": "64c5a2546595b49a37bf51aade210738", "type": "electric_scooter", "is_reserved": 0, "lon": -77.02383516666667}, {"fusion_lat": 0.0, "name": "19f18e52e0d4c20f4aa6138ccb6b1b30", "is_disabled": 0, "rental_uris": {"android": "https://dc.lft.to/lastmile_qr_scan", "ios": "https://dc.lft.to/lastmile_qr_scan"}, "fusion_lon": 0.0, "lat": 38.9065215, "bike_id": "19f18e52e0d4c20f4aa6138ccb6b1b30", "type": "electric_scooter", "is_reserved": 0, "lon": -77.02959216666666}, {"fusion_lat": 0.0, "name": "5f59a730f60b7c34306ce6f5e243f621", "is_disabled": 0, "rental_uris": {"android": "https://dc.lft.to/lastmile_qr_scan", "ios": "https://dc.lft.to/lastmile_qr_scan"}, "fusion_lon": 0.0, "lat": 38.88989266666667, "bike_id": "5f59a730f60b7c34306ce6f5e243f621", "type": "electric_scooter", "is_reserved": 0, "lon": -76.929845}, {"fusion_lat": 0.0, "name": "11e73d70337affa71ff424c012264161", "is_disabled": 0, "rental_uris": {"android": "https://dc.lft.to/lastmile_qr_scan", "ios": "https://dc.lft.to/lastmile_qr_scan"}, "fusion_lon": 0.0, "lat": 38.91692233333333, "bike_id": "11e73d70337affa71ff424c012264161", "type": "electric_scooter", "is_reserved": 0, "lon": -77.02751716666667}, {"fusion_lat": 0.0, "name": "dcfbe7f428723f40193d2b6eb179c652", "is_disabled": 0, "rental_uris": {"android": "https://dc.lft.to/lastmile_qr_scan", "ios": "https://dc.lft.to/lastmile_qr_scan"}, "fusion_lon": 0.0, "lat": 38.94517166666667, "bike_id": "dcfbe7f428723f40193d2b6eb179c652", "type": "electric_scooter", "is_reserved": 0, "lon": -77.03889983333333}, {"fusion_lat": 0.0, "name": "e1876298282a730a23ac2295f9eafcf0", "is_disabled": 0, "rental_uris": {"android": "https://dc.lft.to/lastmile_qr_scan", "ios": "https://dc.lft.to/lastmile_qr_scan"}, "fusion_lon": 0.0, "lat": 38.92351083333333, "bike_id": "e1876298282a730a23ac2295f9eafcf0", "type": "electric_scooter", "is_reserved": 0, "lon": -76.992495}, {"fusion_lat": 0.0, "name": "45c2cf4296592cc21bf838256fdebe46", "is_disabled": 0, "rental_uris": {"android": "https://dc.lft.to/lastmile_qr_scan", "ios": "https://dc.lft.to/lastmile_qr_scan"}, "fusion_lon": 0.0, "lat": 38.8475795, "bike_id": "45c2cf4296592cc21bf838256fdebe46", "type": "electric_scooter", "is_reserved": 0, "lon": -76.994995}, {"fusion_lat": 0.0, "name": "b865c50baceb61c2f4b65dbb3f38552f", "is_disabled": 0, "rental_uris": {"android": "https://dc.lft.to/lastmile_qr_scan", "ios": "https://dc.lft.to/lastmile_qr_scan"}, "fusion_lon": 0.0, "lat": 38.9370915, "bike_id": "b865c50baceb61c2f4b65dbb3f38552f", "type": "electric_scooter", "is_reserved": 0, "lon": -77.0610755}, {"fusion_lat": 0.0, "name": "4f6c1364708a452a6fa8b7a2db6a94af", "is_disabled": 0, "rental_uris": {"android": "https://dc.lft.to/lastmile_qr_scan", "ios": "https://dc.lft.to/lastmile_qr_scan"}, "fusion_lon": 0.0, "lat": 38.879033, "bike_id": "4f6c1364708a452a6fa8b7a2db6a94af", "type": "electric_scooter", "is_reserved": 0, "lon": -77.01360566666666}, {"fusion_lat": 0.0, "name": "8bab6ea7dc5a93d0b51de0919a3a7230", "is_disabled": 0, "rental_uris": {"android": "https://dc.lft.to/lastmile_qr_scan", "ios": "https://dc.lft.to/lastmile_qr_scan"}, "fusion_lon": 0.0, "lat": 38.912671833333334, "bike_id": "8bab6ea7dc5a93d0b51de0919a3a7230", "type": "electric_scooter", "is_reserved": 0, "lon": -77.02256416666667}, {"fusion_lat": 0.0, "name": "9b758a6792662b403ba4bc5e594a99ac", "is_disabled": 0, "rental_uris": {"android": "https://dc.lft.to/lastmile_qr_scan", "ios": "https://dc.lft.to/lastmile_qr_scan"}, "fusion_lon": 0.0, "lat": 38.903546166666665, "bike_id": "9b758a6792662b403ba4bc5e594a99ac", "type": "electric_scooter", "is_reserved": 0, "lon": -77.04495216666666}, {"fusion_lat": 0.0, "name": "d2bd957e5b1a8182fbde0ae82ba38a1d", "is_disabled": 0, "rental_uris": {"android": "https://dc.lft.to/lastmile_qr_scan", "ios": "https://dc.lft.to/lastmile_qr_scan"}, "fusion_lon": 0.0, "lat": 38.9192795, "bike_id": "d2bd957e5b1a8182fbde0ae82ba38a1d", "type": "electric_scooter", "is_reserved": 0, "lon": -77.07073933333334}, {"fusion_lat": 0.0, "name": "62f85673ca7cd7234bc94720738d3e07", "is_disabled": 0, "rental_uris": {"android": "https://dc.lft.to/lastmile_qr_scan", "ios": "https://dc.lft.to/lastmile_qr_scan"}, "fusion_lon": 0.0, "lat": 38.8953, "bike_id": "62f85673ca7cd7234bc94720738d3e07", "type": "electric_scooter", "is_reserved": 0, "lon": -76.93410016666667}, {"fusion_lat": 0.0, "name": "8375a20bb3173dd59c0b59fb499f3247", "is_disabled": 0, "rental_uris": {"android": "https://dc.lft.to/lastmile_qr_scan", "ios": "https://dc.lft.to/lastmile_qr_scan"}, "fusion_lon": 0.0, "lat": 38.906511333333334, "bike_id": "8375a20bb3173dd59c0b59fb499f3247", "type": "electric_scooter", "is_reserved": 0, "lon": -77.05326133333334}, {"fusion_lat": 0.0, "name": "4e4e0cdc9bdbcada7940cc6fbbacf9e5", "is_disabled": 0, "rental_uris": {"android": "https://dc.lft.to/lastmile_qr_scan", "ios": "https://dc.lft.to/lastmile_qr_scan"}, "fusion_lon": 0.0, "lat": 38.927937666666665, "bike_id": "4e4e0cdc9bdbcada7940cc6fbbacf9e5", "type": "electric_scooter", "is_reserved": 0, "lon": -77.013984}, {"fusion_lat": 0.0, "name": "862212d0f23d7bd5d995d4f7daf6a61e", "is_disabled": 0, "rental_uris": {"android": "https://dc.lft.to/lastmile_qr_scan", "ios": "https://dc.lft.to/lastmile_qr_scan"}, "fusion_lon": 0.0, "lat": 38.90726866666667, "bike_id": "862212d0f23d7bd5d995d4f7daf6a61e", "type": "electric_scooter", "is_reserved": 0, "lon": -77.047348}, {"fusion_lat": 0.0, "name": "4ddc43d892e3d35d51d68aec3c716009", "is_disabled": 0, "rental_uris": {"android": "https://dc.lft.to/lastmile_qr_scan", "ios": "https://dc.lft.to/lastmile_qr_scan"}, "fusion_lon": 0.0, "lat": 38.90970133333333, "bike_id": "4ddc43d892e3d35d51d68aec3c716009", "type": "electric_scooter", "is_reserved": 0, "lon": -77.03443166666666}, {"fusion_lat": 0.0, "name": "19b47e0ddc2de1fcc8544451a88aecd5", "is_disabled": 0, "rental_uris": {"android": "https://dc.lft.to/lastmile_qr_scan", "ios": "https://dc.lft.to/lastmile_qr_scan"}, "fusion_lon": 0.0, "lat": 38.908554, "bike_id": "19b47e0ddc2de1fcc8544451a88aecd5", "type": "electric_scooter", "is_reserved": 0, "lon": -77.02361516666667}, {"fusion_lat": 0.0, "name": "330f30f02e5c748c1045d1f6fc3736f0", "is_disabled": 0, "rental_uris": {"android": "https://dc.lft.to/lastmile_qr_scan", "ios": "https://dc.lft.to/lastmile_qr_scan"}, "fusion_lon": 0.0, "lat": 38.9229345, "bike_id": "330f30f02e5c748c1045d1f6fc3736f0", "type": "electric_scooter", "is_reserved": 0, "lon": -77.02525166666666}, {"fusion_lat": 0.0, "name": "840c96898fe95ce4b807bdc33dfb4b0d", "is_disabled": 0, "rental_uris": {"android": "https://dc.lft.to/lastmile_qr_scan", "ios": "https://dc.lft.to/lastmile_qr_scan"}, "fusion_lon": 0.0, "lat": 38.91905416666667, "bike_id": "840c96898fe95ce4b807bdc33dfb4b0d", "type": "electric_scooter", "is_reserved": 0, "lon": -77.03258616666666}, {"fusion_lat": 0.0, "name": "6491eb3bf4d764045b883146151dc243", "is_disabled": 0, "rental_uris": {"android": "https://dc.lft.to/lastmile_qr_scan", "ios": "https://dc.lft.to/lastmile_qr_scan"}, "fusion_lon": 0.0, "lat": 38.9497665, "bike_id": "6491eb3bf4d764045b883146151dc243", "type": "electric_scooter", "is_reserved": 0, "lon": -77.0244865}, {"fusion_lat": 0.0, "name": "6b9fc68223da91e3dcf93d9ac6f29195", "is_disabled": 0, "rental_uris": {"android": "https://dc.lft.to/lastmile_qr_scan", "ios": "https://dc.lft.to/lastmile_qr_scan"}, "fusion_lon": 0.0, "lat": 38.892269166666665, "bike_id": "6b9fc68223da91e3dcf93d9ac6f29195", "type": "electric_scooter", "is_reserved": 0, "lon": -77.05038466666667}, {"fusion_lat": 0.0, "name": "ac552fcd4294805431ca191cee95e14d", "is_disabled": 0, "rental_uris": {"android": "https://dc.lft.to/lastmile_qr_scan", "ios": "https://dc.lft.to/lastmile_qr_scan"}, "fusion_lon": 0.0, "lat": 38.911119, "bike_id": "ac552fcd4294805431ca191cee95e14d", "type": "electric_scooter", "is_reserved": 0, "lon": -77.04332483333333}, {"fusion_lat": 0.0, "name": "25e9cdd70d85a488f43d5df9fb83ab6e", "is_disabled": 0, "rental_uris": {"android": "https://dc.lft.to/lastmile_qr_scan", "ios": "https://dc.lft.to/lastmile_qr_scan"}, "fusion_lon": 0.0, "lat": 38.93094283333333, "bike_id": "25e9cdd70d85a488f43d5df9fb83ab6e", "type": "electric_scooter", "is_reserved": 0, "lon": -77.0247575}, {"fusion_lat": 0.0, "name": "e9f01b885c7b253301a5685bbe20ccc9", "is_disabled": 0, "rental_uris": {"android": "https://dc.lft.to/lastmile_qr_scan", "ios": "https://dc.lft.to/lastmile_qr_scan"}, "fusion_lon": 0.0, "lat": 38.90959466666666, "bike_id": "e9f01b885c7b253301a5685bbe20ccc9", "type": "electric_scooter", "is_reserved": 0, "lon": -77.02713633333333}, {"fusion_lat": 0.0, "name": "4186445f3189177288869a480e6b92e8", "is_disabled": 0, "rental_uris": {"android": "https://dc.lft.to/lastmile_qr_scan", "ios": "https://dc.lft.to/lastmile_qr_scan"}, "fusion_lon": 0.0, "lat": 38.88716816666667, "bike_id": "4186445f3189177288869a480e6b92e8", "type": "electric_scooter", "is_reserved": 0, "lon": -76.99675366666666}, {"fusion_lat": 0.0, "name": "49712f7234b6dd2a3767ebbef992ec44", "is_disabled": 0, "rental_uris": {"android": "https://dc.lft.to/lastmile_qr_scan", "ios": "https://dc.lft.to/lastmile_qr_scan"}, "fusion_lon": 0.0, "lat": 38.90472483333333, "bike_id": "49712f7234b6dd2a3767ebbef992ec44", "type": "electric_scooter", "is_reserved": 0, "lon": -77.01704416666666}, {"fusion_lat": 0.0, "name": "3d77009e36cd2a05661d17fd4f640c6b", "is_disabled": 0, "rental_uris": {"android": "https://dc.lft.to/lastmile_qr_scan", "ios": "https://dc.lft.to/lastmile_qr_scan"}, "fusion_lon": 0.0, "lat": 38.922388833333336, "bike_id": "3d77009e36cd2a05661d17fd4f640c6b", "type": "electric_scooter", "is_reserved": 0, "lon": -77.04244283333334}, {"fusion_lat": 0.0, "name": "b568363ac34bc58c57c5c4897bea2a42", "is_disabled": 0, "rental_uris": {"android": "https://dc.lft.to/lastmile_qr_scan", "ios": "https://dc.lft.to/lastmile_qr_scan"}, "fusion_lon": 0.0, "lat": 38.92600766666666, "bike_id": "b568363ac34bc58c57c5c4897bea2a42", "type": "electric_scooter", "is_reserved": 0, "lon": -77.0735}, {"fusion_lat": 0.0, "name": "9159ad45055e323732236c4aadcb9126", "is_disabled": 0, "rental_uris": {"android": "https://dc.lft.to/lastmile_qr_scan", "ios": "https://dc.lft.to/lastmile_qr_scan"}, "fusion_lon": 0.0, "lat": 38.90816266666667, "bike_id": "9159ad45055e323732236c4aadcb9126", "type": "electric_scooter", "is_reserved": 0, "lon": -77.038386}, {"fusion_lat": 0.0, "name": "b7303e081371a396cfc4817fba326656", "is_disabled": 0, "rental_uris": {"android": "https://dc.lft.to/lastmile_qr_scan", "ios": "https://dc.lft.to/lastmile_qr_scan"}, "fusion_lon": 0.0, "lat": 38.941816333333335, "bike_id": "b7303e081371a396cfc4817fba326656", "type": "electric_scooter", "is_reserved": 0, "lon": -77.0328935}, {"fusion_lat": 0.0, "name": "f92ffbbcd004a2f72f80636b159d9fcc", "is_disabled": 0, "rental_uris": {"android": "https://dc.lft.to/lastmile_qr_scan", "ios": "https://dc.lft.to/lastmile_qr_scan"}, "fusion_lon": 0.0, "lat": 38.926882666666664, "bike_id": "f92ffbbcd004a2f72f80636b159d9fcc", "type": "electric_scooter", "is_reserved": 0, "lon": -77.032382}, {"fusion_lat": 0.0, "name": "bbce8ea165d60b62cf312390b7955cba", "is_disabled": 0, "rental_uris": {"android": "https://dc.lft.to/lastmile_qr_scan", "ios": "https://dc.lft.to/lastmile_qr_scan"}, "fusion_lon": 0.0, "lat": 38.9030625, "bike_id": "bbce8ea165d60b62cf312390b7955cba", "type": "electric_scooter", "is_reserved": 0, "lon": -76.97652016666666}, {"fusion_lat": 0.0, "name": "88d8f0f59ff44d3be301a9233d8a30c2", "is_disabled": 0, "rental_uris": {"android": "https://dc.lft.to/lastmile_qr_scan", "ios": "https://dc.lft.to/lastmile_qr_scan"}, "fusion_lon": 0.0, "lat": 38.986716, "bike_id": "88d8f0f59ff44d3be301a9233d8a30c2", "type": "electric_bike", "is_reserved": 0, "lon": -77.00000533333333}, {"fusion_lat": 0.0, "name": "ce7c53fd4f45753a55a67d0c3d8b113b", "is_disabled": 0, "rental_uris": {"android": "https://dc.lft.to/lastmile_qr_scan", "ios": "https://dc.lft.to/lastmile_qr_scan"}, "fusion_lon": 0.0, "lat": 38.943793666666664, "bike_id": "ce7c53fd4f45753a55a67d0c3d8b113b", "type": "electric_scooter", "is_reserved": 0, "lon": -77.02614833333334}, {"fusion_lat": 0.0, "name": "2a7f936c09ecc0a634b33dc398b068ab", "is_disabled": 0, "rental_uris": {"android": "https://dc.lft.to/lastmile_qr_scan", "ios": "https://dc.lft.to/lastmile_qr_scan"}, "fusion_lon": 0.0, "lat": 38.994466, "bike_id": "2a7f936c09ecc0a634b33dc398b068ab", "type": "electric_bike", "is_reserved": 0, "lon": -76.9959115}, {"fusion_lat": 0.0, "name": "a5975019e1daab259b9d4425bb79b15b", "is_disabled": 0, "rental_uris": {"android": "https://dc.lft.to/lastmile_qr_scan", "ios": "https://dc.lft.to/lastmile_qr_scan"}, "fusion_lon": 0.0, "lat": 38.886739, "bike_id": "a5975019e1daab259b9d4425bb79b15b", "type": "electric_scooter", "is_reserved": 0, "lon": -77.02832016666666}, {"fusion_lat": 0.0, "name": "237b6df0cd313877d075f49134d3519d", "is_disabled": 0, "rental_uris": {"android": "https://dc.lft.to/lastmile_qr_scan", "ios": "https://dc.lft.to/lastmile_qr_scan"}, "fusion_lon": 0.0, "lat": 38.92101666666667, "bike_id": "237b6df0cd313877d075f49134d3519d", "type": "electric_scooter", "is_reserved": 0, "lon": -77.04691483333333}, {"fusion_lat": 0.0, "name": "23f217ae5be2080aa1f7577c92d234bc", "is_disabled": 0, "rental_uris": {"android": "https://dc.lft.to/lastmile_qr_scan", "ios": "https://dc.lft.to/lastmile_qr_scan"}, "fusion_lon": 0.0, "lat": 38.93201616666666, "bike_id": "23f217ae5be2080aa1f7577c92d234bc", "type": "electric_scooter", "is_reserved": 0, "lon": -77.037488}, {"fusion_lat": 0.0, "name": "c517dd534e11097db018cfcab8cf5c1b", "is_disabled": 0, "rental_uris": {"android": "https://dc.lft.to/lastmile_qr_scan", "ios": "https://dc.lft.to/lastmile_qr_scan"}, "fusion_lon": 0.0, "lat": 38.940547333333335, "bike_id": "c517dd534e11097db018cfcab8cf5c1b", "type": "electric_bike", "is_reserved": 0, "lon": -76.90418}, {"fusion_lat": 0.0, "name": "c1ff906fb9430ec9c00fd9002c914d60", "is_disabled": 0, "rental_uris": {"android": "https://dc.lft.to/lastmile_qr_scan", "ios": "https://dc.lft.to/lastmile_qr_scan"}, "fusion_lon": 0.0, "lat": 38.90722733333333, "bike_id": "c1ff906fb9430ec9c00fd9002c914d60", "type": "electric_scooter", "is_reserved": 0, "lon": -77.02974383333333}, {"fusion_lat": 0.0, "name": "74e724ffcc82f38b4f5f74630c2b13fc", "is_disabled": 0, "rental_uris": {"android": "https://dc.lft.to/lastmile_qr_scan", "ios": "https://dc.lft.to/lastmile_qr_scan"}, "fusion_lon": 0.0, "lat": 38.90177283333333, "bike_id": "74e724ffcc82f38b4f5f74630c2b13fc", "type": "electric_scooter", "is_reserved": 0, "lon": -76.980772}, {"fusion_lat": 0.0, "name": "63e71af299a829974f3c027aace5fe03", "is_disabled": 0, "rental_uris": {"android": "https://dc.lft.to/lastmile_qr_scan", "ios": "https://dc.lft.to/lastmile_qr_scan"}, "fusion_lon": 0.0, "lat": 38.9155125, "bike_id": "63e71af299a829974f3c027aace5fe03", "type": "electric_scooter", "is_reserved": 0, "lon": -77.012664}, {"fusion_lat": 0.0, "name": "3c81943661d28afbaee55300eccdade1", "is_disabled": 0, "rental_uris": {"android": "https://dc.lft.to/lastmile_qr_scan", "ios": "https://dc.lft.to/lastmile_qr_scan"}, "fusion_lon": 0.0, "lat": 38.885309666666664, "bike_id": "3c81943661d28afbaee55300eccdade1", "type": "electric_scooter", "is_reserved": 0, "lon": -76.92911}, {"fusion_lat": 0.0, "name": "7fef0ba0aefc0010246b19311d6faa22", "is_disabled": 0, "rental_uris": {"android": "https://dc.lft.to/lastmile_qr_scan", "ios": "https://dc.lft.to/lastmile_qr_scan"}, "fusion_lon": 0.0, "lat": 38.8757785, "bike_id": "7fef0ba0aefc0010246b19311d6faa22", "type": "electric_bike", "is_reserved": 0, "lon": -77.23411466666667}, {"fusion_lat": 0.0, "name": "0ae67baf61819103229d63e5fa7b25c2", "is_disabled": 0, "rental_uris": {"android": "https://dc.lft.to/lastmile_qr_scan", "ios": "https://dc.lft.to/lastmile_qr_scan"}, "fusion_lon": 0.0, "lat": 38.899040666666664, "bike_id": "0ae67baf61819103229d63e5fa7b25c2", "type": "electric_scooter", "is_reserved": 0, "lon": -76.93353816666666}, {"fusion_lat": 0.0, "name": "0a8721149487ac968d71591736ab411f", "is_disabled": 0, "rental_uris": {"android": "https://dc.lft.to/lastmile_qr_scan", "ios": "https://dc.lft.to/lastmile_qr_scan"}, "fusion_lon": 0.0, "lat": 38.89325, "bike_id": "0a8721149487ac968d71591736ab411f", "type": "electric_scooter", "is_reserved": 0, "lon": -77.03956933333333}, {"fusion_lat": 0.0, "name": "7bdff7504e4b4c2ff57413bce5ca510d", "is_disabled": 0, "rental_uris": {"android": "https://dc.lft.to/lastmile_qr_scan", "ios": "https://dc.lft.to/lastmile_qr_scan"}, "fusion_lon": 0.0, "lat": 38.90016983333334, "bike_id": "7bdff7504e4b4c2ff57413bce5ca510d", "type": "electric_scooter", "is_reserved": 0, "lon": -77.016255}, {"fusion_lat": 0.0, "name": "f2b90ee3114f7e40f80c21e4722da7c9", "is_disabled": 0, "rental_uris": {"android": "https://dc.lft.to/lastmile_qr_scan", "ios": "https://dc.lft.to/lastmile_qr_scan"}, "fusion_lon": 0.0, "lat": 38.930961333333336, "bike_id": "f2b90ee3114f7e40f80c21e4722da7c9", "type": "electric_scooter", "is_reserved": 0, "lon": -77.025544}, {"fusion_lat": 0.0, "name": "65df44f96cecc3c2ae2c772d55ae493e", "is_disabled": 0, "rental_uris": {"android": "https://dc.lft.to/lastmile_qr_scan", "ios": "https://dc.lft.to/lastmile_qr_scan"}, "fusion_lon": 0.0, "lat": 38.916203, "bike_id": "65df44f96cecc3c2ae2c772d55ae493e", "type": "electric_scooter", "is_reserved": 0, "lon": -77.0033205}, {"fusion_lat": 0.0, "name": "837494fa2c4251bd0d7e47a451adf80a", "is_disabled": 0, "rental_uris": {"android": "https://dc.lft.to/lastmile_qr_scan", "ios": "https://dc.lft.to/lastmile_qr_scan"}, "fusion_lon": 0.0, "lat": 38.96313383333333, "bike_id": "837494fa2c4251bd0d7e47a451adf80a", "type": "electric_scooter", "is_reserved": 0, "lon": -77.074915}, {"fusion_lat": 0.0, "name": "05aaa51e491df750bfcfe923a526faf1", "is_disabled": 0, "rental_uris": {"android": "https://dc.lft.to/lastmile_qr_scan", "ios": "https://dc.lft.to/lastmile_qr_scan"}, "fusion_lon": 0.0, "lat": 38.935327, "bike_id": "05aaa51e491df750bfcfe923a526faf1", "type": "electric_scooter", "is_reserved": 0, "lon": -77.02351433333334}, {"fusion_lat": 0.0, "name": "bcf212f09167e5e699a2397844024658", "is_disabled": 0, "rental_uris": {"android": "https://dc.lft.to/lastmile_qr_scan", "ios": "https://dc.lft.to/lastmile_qr_scan"}, "fusion_lon": 0.0, "lat": 38.91846316666667, "bike_id": "bcf212f09167e5e699a2397844024658", "type": "electric_scooter", "is_reserved": 0, "lon": -77.02418716666666}, {"fusion_lat": 0.0, "name": "9ac139ca7dd00e0f27b7a2029f490f70", "is_disabled": 0, "rental_uris": {"android": "https://dc.lft.to/lastmile_qr_scan", "ios": "https://dc.lft.to/lastmile_qr_scan"}, "fusion_lon": 0.0, "lat": 38.92832283333333, "bike_id": "9ac139ca7dd00e0f27b7a2029f490f70", "type": "electric_scooter", "is_reserved": 0, "lon": -77.01601083333334}, {"fusion_lat": 0.0, "name": "9047da9e012cc82bc3aba09cf9af0b6c", "is_disabled": 0, "rental_uris": {"android": "https://dc.lft.to/lastmile_qr_scan", "ios": "https://dc.lft.to/lastmile_qr_scan"}, "fusion_lon": 0.0, "lat": 38.89911, "bike_id": "9047da9e012cc82bc3aba09cf9af0b6c", "type": "electric_scooter", "is_reserved": 0, "lon": -76.94585983333333}, {"fusion_lat": 0.0, "name": "51168a3a217a8dfd8688f41407dc2b2d", "is_disabled": 0, "rental_uris": {"android": "https://dc.lft.to/lastmile_qr_scan", "ios": "https://dc.lft.to/lastmile_qr_scan"}, "fusion_lon": 0.0, "lat": 38.887315, "bike_id": "51168a3a217a8dfd8688f41407dc2b2d", "type": "electric_scooter", "is_reserved": 0, "lon": -76.99489666666666}, {"fusion_lat": 0.0, "name": "dd0338e157097195a53df47ef68811ed", "is_disabled": 0, "rental_uris": {"android": "https://dc.lft.to/lastmile_qr_scan", "ios": "https://dc.lft.to/lastmile_qr_scan"}, "fusion_lon": 0.0, "lat": 38.863366166666665, "bike_id": "dd0338e157097195a53df47ef68811ed", "type": "electric_bike", "is_reserved": 0, "lon": -76.98724333333334}, {"fusion_lat": 0.0, "name": "d17b1b171ed2719cc4e0aa93c414063b", "is_disabled": 0, "rental_uris": {"android": "https://dc.lft.to/lastmile_qr_scan", "ios": "https://dc.lft.to/lastmile_qr_scan"}, "fusion_lon": 0.0, "lat": 38.892264, "bike_id": "d17b1b171ed2719cc4e0aa93c414063b", "type": "electric_scooter", "is_reserved": 0, "lon": -77.04507183333334}, {"fusion_lat": 0.0, "name": "d6c7c1a4450ffe9bdd465e707537469c", "is_disabled": 0, "rental_uris": {"android": "https://dc.lft.to/lastmile_qr_scan", "ios": "https://dc.lft.to/lastmile_qr_scan"}, "fusion_lon": 0.0, "lat": 38.8973195, "bike_id": "d6c7c1a4450ffe9bdd465e707537469c", "type": "electric_scooter", "is_reserved": 0, "lon": -77.0272695}, {"fusion_lat": 0.0, "name": "3c80b103e3bd1e7f1bd244e04b65cce4", "is_disabled": 0, "rental_uris": {"android": "https://dc.lft.to/lastmile_qr_scan", "ios": "https://dc.lft.to/lastmile_qr_scan"}, "fusion_lon": 0.0, "lat": 38.902190833333336, "bike_id": "3c80b103e3bd1e7f1bd244e04b65cce4", "type": "electric_scooter", "is_reserved": 0, "lon": -77.0439545}, {"fusion_lat": 0.0, "name": "b3ae60efa9f9ba6c1a21c26dac12f24d", "is_disabled": 0, "rental_uris": {"android": "https://dc.lft.to/lastmile_qr_scan", "ios": "https://dc.lft.to/lastmile_qr_scan"}, "fusion_lon": 0.0, "lat": 38.845088833333335, "bike_id": "b3ae60efa9f9ba6c1a21c26dac12f24d", "type": "electric_bike", "is_reserved": 0, "lon": -76.9935265}, {"fusion_lat": 0.0, "name": "a537c6c370d3499ec01f1e3ba1d344b3", "is_disabled": 0, "rental_uris": {"android": "https://dc.lft.to/lastmile_qr_scan", "ios": "https://dc.lft.to/lastmile_qr_scan"}, "fusion_lon": 0.0, "lat": 38.9001165, "bike_id": "a537c6c370d3499ec01f1e3ba1d344b3", "type": "electric_scooter", "is_reserved": 0, "lon": -76.99561366666667}, {"fusion_lat": 0.0, "name": "b37a0dc9dc0238aa09dcee33b5f83620", "is_disabled": 0, "rental_uris": {"android": "https://dc.lft.to/lastmile_qr_scan", "ios": "https://dc.lft.to/lastmile_qr_scan"}, "fusion_lon": 0.0, "lat": 38.9311905, "bike_id": "b37a0dc9dc0238aa09dcee33b5f83620", "type": "electric_scooter", "is_reserved": 0, "lon": -77.02982733333333}, {"fusion_lat": 0.0, "name": "191e21c4e9811c363393e15c0cf16298", "is_disabled": 0, "rental_uris": {"android": "https://dc.lft.to/lastmile_qr_scan", "ios": "https://dc.lft.to/lastmile_qr_scan"}, "fusion_lon": 0.0, "lat": 38.94202466666667, "bike_id": "191e21c4e9811c363393e15c0cf16298", "type": "electric_scooter", "is_reserved": 0, "lon": -77.0259035}, {"fusion_lat": 0.0, "name": "b34712d706c0c828ba45f48b66cf5c3a", "is_disabled": 0, "rental_uris": {"android": "https://dc.lft.to/lastmile_qr_scan", "ios": "https://dc.lft.to/lastmile_qr_scan"}, "fusion_lon": 0.0, "lat": 38.9563395, "bike_id": "b34712d706c0c828ba45f48b66cf5c3a", "type": "electric_scooter", "is_reserved": 0, "lon": -77.033061}, {"fusion_lat": 0.0, "name": "c3750ba6f4fec0ce1781cdf8569735ac", "is_disabled": 0, "rental_uris": {"android": "https://dc.lft.to/lastmile_qr_scan", "ios": "https://dc.lft.to/lastmile_qr_scan"}, "fusion_lon": 0.0, "lat": 38.927731666666666, "bike_id": "c3750ba6f4fec0ce1781cdf8569735ac", "type": "electric_scooter", "is_reserved": 0, "lon": -77.02872416666666}, {"fusion_lat": 0.0, "name": "298c7b800f9fdc8b1dcdefd73467e160", "is_disabled": 0, "rental_uris": {"android": "https://dc.lft.to/lastmile_qr_scan", "ios": "https://dc.lft.to/lastmile_qr_scan"}, "fusion_lon": 0.0, "lat": 38.89117816666667, "bike_id": "298c7b800f9fdc8b1dcdefd73467e160", "type": "electric_scooter", "is_reserved": 0, "lon": -76.94384133333334}, {"fusion_lat": 0.0, "name": "0f6cbf1210bb8eccb9b937729e1c9168", "is_disabled": 0, "rental_uris": {"android": "https://dc.lft.to/lastmile_qr_scan", "ios": "https://dc.lft.to/lastmile_qr_scan"}, "fusion_lon": 0.0, "lat": 38.89239233333333, "bike_id": "0f6cbf1210bb8eccb9b937729e1c9168", "type": "electric_scooter", "is_reserved": 0, "lon": -77.03350133333333}, {"fusion_lat": 0.0, "name": "a9b21db130ca000c1a80d0b384ab09c7", "is_disabled": 0, "rental_uris": {"android": "https://dc.lft.to/lastmile_qr_scan", "ios": "https://dc.lft.to/lastmile_qr_scan"}, "fusion_lon": 0.0, "lat": 38.911980166666666, "bike_id": "a9b21db130ca000c1a80d0b384ab09c7", "type": "electric_scooter", "is_reserved": 0, "lon": -77.012006}, {"fusion_lat": 0.0, "name": "db212ecc87e21d70dc8275cc0fc65e5a", "is_disabled": 0, "rental_uris": {"android": "https://dc.lft.to/lastmile_qr_scan", "ios": "https://dc.lft.to/lastmile_qr_scan"}, "fusion_lon": 0.0, "lat": 38.902338, "bike_id": "db212ecc87e21d70dc8275cc0fc65e5a", "type": "electric_scooter", "is_reserved": 0, "lon": -77.03662483333333}, {"fusion_lat": 0.0, "name": "5cf6c5654b13112ef81729fd708daf26", "is_disabled": 0, "rental_uris": {"android": "https://dc.lft.to/lastmile_qr_scan", "ios": "https://dc.lft.to/lastmile_qr_scan"}, "fusion_lon": 0.0, "lat": 38.969911, "bike_id": "5cf6c5654b13112ef81729fd708daf26", "type": "electric_scooter", "is_reserved": 0, "lon": -77.01160766666666}, {"fusion_lat": 0.0, "name": "363406646b98a5562134a3b0637df65d", "is_disabled": 0, "rental_uris": {"android": "https://dc.lft.to/lastmile_qr_scan", "ios": "https://dc.lft.to/lastmile_qr_scan"}, "fusion_lon": 0.0, "lat": 38.915730833333335, "bike_id": "363406646b98a5562134a3b0637df65d", "type": "electric_scooter", "is_reserved": 0, "lon": -77.03851283333333}, {"fusion_lat": 0.0, "name": "a712f85030956543e2a21224521aa07c", "is_disabled": 0, "rental_uris": {"android": "https://dc.lft.to/lastmile_qr_scan", "ios": "https://dc.lft.to/lastmile_qr_scan"}, "fusion_lon": 0.0, "lat": 38.90464466666667, "bike_id": "a712f85030956543e2a21224521aa07c", "type": "electric_scooter", "is_reserved": 0, "lon": -77.04860566666666}, {"fusion_lat": 0.0, "name": "afded6c32440a3e797deaf53964d656f", "is_disabled": 0, "rental_uris": {"android": "https://dc.lft.to/lastmile_qr_scan", "ios": "https://dc.lft.to/lastmile_qr_scan"}, "fusion_lon": 0.0, "lat": 38.9618405, "bike_id": "afded6c32440a3e797deaf53964d656f", "type": "electric_bike", "is_reserved": 0, "lon": -77.0526785}, {"fusion_lat": 0.0, "name": "ad6ece2eb27f95639a53b28d51830160", "is_disabled": 0, "rental_uris": {"android": "https://dc.lft.to/lastmile_qr_scan", "ios": "https://dc.lft.to/lastmile_qr_scan"}, "fusion_lon": 0.0, "lat": 38.911127666666665, "bike_id": "ad6ece2eb27f95639a53b28d51830160", "type": "electric_scooter", "is_reserved": 0, "lon": -77.02926566666666}, {"fusion_lat": 0.0, "name": "4d17d7c38bb9acf086e27637a36b95cb", "is_disabled": 0, "rental_uris": {"android": "https://dc.lft.to/lastmile_qr_scan", "ios": "https://dc.lft.to/lastmile_qr_scan"}, "fusion_lon": 0.0, "lat": 38.8973915, "bike_id": "4d17d7c38bb9acf086e27637a36b95cb", "type": "electric_scooter", "is_reserved": 0, "lon": -77.02494333333334}, {"fusion_lat": 0.0, "name": "eca270891c1fdc9b560358bb5d2d5f00", "is_disabled": 0, "rental_uris": {"android": "https://dc.lft.to/lastmile_qr_scan", "ios": "https://dc.lft.to/lastmile_qr_scan"}, "fusion_lon": 0.0, "lat": 38.930662166666664, "bike_id": "eca270891c1fdc9b560358bb5d2d5f00", "type": "electric_scooter", "is_reserved": 0, "lon": -77.04058033333334}, {"fusion_lat": 0.0, "name": "c413503a15da167b85c87ce86dabf1cc", "is_disabled": 0, "rental_uris": {"android": "https://dc.lft.to/lastmile_qr_scan", "ios": "https://dc.lft.to/lastmile_qr_scan"}, "fusion_lon": 0.0, "lat": 38.92434883333333, "bike_id": "c413503a15da167b85c87ce86dabf1cc", "type": "electric_scooter", "is_reserved": 0, "lon": -77.044771}, {"fusion_lat": 0.0, "name": "1fa15e43dd4073a7aed437cf76927a8e", "is_disabled": 0, "rental_uris": {"android": "https://dc.lft.to/lastmile_qr_scan", "ios": "https://dc.lft.to/lastmile_qr_scan"}, "fusion_lon": 0.0, "lat": 38.9041865, "bike_id": "1fa15e43dd4073a7aed437cf76927a8e", "type": "electric_scooter", "is_reserved": 0, "lon": -77.01883533333333}, {"fusion_lat": 0.0, "name": "7f78799e5a343c4c711b55a763bdbf19", "is_disabled": 0, "rental_uris": {"android": "https://dc.lft.to/lastmile_qr_scan", "ios": "https://dc.lft.to/lastmile_qr_scan"}, "fusion_lon": 0.0, "lat": 38.97376666666667, "bike_id": "7f78799e5a343c4c711b55a763bdbf19", "type": "electric_scooter", "is_reserved": 0, "lon": -77.01285333333334}, {"fusion_lat": 0.0, "name": "66690b7a9f2b48712a7284fc50a44543", "is_disabled": 0, "rental_uris": {"android": "https://dc.lft.to/lastmile_qr_scan", "ios": "https://dc.lft.to/lastmile_qr_scan"}, "fusion_lon": 0.0, "lat": 38.901762166666664, "bike_id": "66690b7a9f2b48712a7284fc50a44543", "type": "electric_scooter", "is_reserved": 0, "lon": -77.0249025}, {"fusion_lat": 0.0, "name": "e5dd0d7ecb0f833a4bc14e66d7a3b56d", "is_disabled": 0, "rental_uris": {"android": "https://dc.lft.to/lastmile_qr_scan", "ios": "https://dc.lft.to/lastmile_qr_scan"}, "fusion_lon": 0.0, "lat": 38.92080216666667, "bike_id": "e5dd0d7ecb0f833a4bc14e66d7a3b56d", "type": "electric_scooter", "is_reserved": 0, "lon": -77.02359983333334}, {"fusion_lat": 0.0, "name": "90a7be436c8ee411c719ec5d2a5d24c5", "is_disabled": 0, "rental_uris": {"android": "https://dc.lft.to/lastmile_qr_scan", "ios": "https://dc.lft.to/lastmile_qr_scan"}, "fusion_lon": 0.0, "lat": 38.89832116666667, "bike_id": "90a7be436c8ee411c719ec5d2a5d24c5", "type": "electric_scooter", "is_reserved": 0, "lon": -77.0271845}, {"fusion_lat": 0.0, "name": "cabe33592f0831e956cdfeb945bfd812", "is_disabled": 0, "rental_uris": {"android": "https://dc.lft.to/lastmile_qr_scan", "ios": "https://dc.lft.to/lastmile_qr_scan"}, "fusion_lon": 0.0, "lat": 38.9423075, "bike_id": "cabe33592f0831e956cdfeb945bfd812", "type": "electric_scooter", "is_reserved": 0, "lon": -77.01414116666666}, {"fusion_lat": 0.0, "name": "63e7e75df948d596be4c98bcc0458bfb", "is_disabled": 0, "rental_uris": {"android": "https://dc.lft.to/lastmile_qr_scan", "ios": "https://dc.lft.to/lastmile_qr_scan"}, "fusion_lon": 0.0, "lat": 38.91171416666667, "bike_id": "63e7e75df948d596be4c98bcc0458bfb", "type": "electric_scooter", "is_reserved": 0, "lon": -77.06861966666666}, {"fusion_lat": 0.0, "name": "222528a13f88384535a308c36f705a77", "is_disabled": 0, "rental_uris": {"android": "https://dc.lft.to/lastmile_qr_scan", "ios": "https://dc.lft.to/lastmile_qr_scan"}, "fusion_lon": 0.0, "lat": 38.934639833333335, "bike_id": "222528a13f88384535a308c36f705a77", "type": "electric_scooter", "is_reserved": 0, "lon": -77.0224265}, {"fusion_lat": 0.0, "name": "bf35d83e929b3b14c9f769b7bb28274a", "is_disabled": 0, "rental_uris": {"android": "https://dc.lft.to/lastmile_qr_scan", "ios": "https://dc.lft.to/lastmile_qr_scan"}, "fusion_lon": 0.0, "lat": 38.8614095, "bike_id": "bf35d83e929b3b14c9f769b7bb28274a", "type": "electric_bike", "is_reserved": 0, "lon": -76.97168883333333}, {"fusion_lat": 0.0, "name": "e0c67d3acbb21b2750718e6a9fe82ea1", "is_disabled": 0, "rental_uris": {"android": "https://dc.lft.to/lastmile_qr_scan", "ios": "https://dc.lft.to/lastmile_qr_scan"}, "fusion_lon": 0.0, "lat": 38.9044955, "bike_id": "e0c67d3acbb21b2750718e6a9fe82ea1", "type": "electric_scooter", "is_reserved": 0, "lon": -76.982593}, {"fusion_lat": 0.0, "name": "7c636b48b6ced778bfc6e33eda97262b", "is_disabled": 0, "rental_uris": {"android": "https://dc.lft.to/lastmile_qr_scan", "ios": "https://dc.lft.to/lastmile_qr_scan"}, "fusion_lon": 0.0, "lat": 38.89248666666667, "bike_id": "7c636b48b6ced778bfc6e33eda97262b", "type": "electric_scooter", "is_reserved": 0, "lon": -77.03955866666666}, {"fusion_lat": 0.0, "name": "6994afd40460c5a4cd002a3c4a119627", "is_disabled": 0, "rental_uris": {"android": "https://dc.lft.to/lastmile_qr_scan", "ios": "https://dc.lft.to/lastmile_qr_scan"}, "fusion_lon": 0.0, "lat": 38.926996833333334, "bike_id": "6994afd40460c5a4cd002a3c4a119627", "type": "electric_scooter", "is_reserved": 0, "lon": -77.02131816666666}, {"fusion_lat": 0.0, "name": "39fc211215aa92253b3eebedad327cd6", "is_disabled": 0, "rental_uris": {"android": "https://dc.lft.to/lastmile_qr_scan", "ios": "https://dc.lft.to/lastmile_qr_scan"}, "fusion_lon": 0.0, "lat": 38.8930995, "bike_id": "39fc211215aa92253b3eebedad327cd6", "type": "electric_scooter", "is_reserved": 0, "lon": -77.055911}, {"fusion_lat": 0.0, "name": "4c51740e68ec2d52d4db9190882fb5f8", "is_disabled": 0, "rental_uris": {"android": "https://dc.lft.to/lastmile_qr_scan", "ios": "https://dc.lft.to/lastmile_qr_scan"}, "fusion_lon": 0.0, "lat": 38.919938, "bike_id": "4c51740e68ec2d52d4db9190882fb5f8", "type": "electric_scooter", "is_reserved": 0, "lon": -77.032796}, {"fusion_lat": 0.0, "name": "cb64db831b84d273dd1645610c3f2f78", "is_disabled": 0, "rental_uris": {"android": "https://dc.lft.to/lastmile_qr_scan", "ios": "https://dc.lft.to/lastmile_qr_scan"},