{"data": {"bikes": [{"rental_uris": {"android": "https://dc.lft.to/lastmile_qr_scan", "ios": "https://dc.lft.to/lastmile_qr_scan"}, "type": "electric_scooter", "lon": -77.0468115, "name": "66b2b7cd390689d073e11f2edf7715d6", "bike_id": "66b2b7cd390689d073e11f2edf7715d6", "fusion_lat": 0.0, "is_reserved": 0, "lat": 38.90007883333333, "fusion_lon": 0.0, "is_disabled": 0}, {"rental_uris": {"android": "https://dc.lft.to/lastmile_qr_scan", "ios": "https://dc.lft.to/lastmile_qr_scan"}, "type": "electric_scooter", "lon": -77.04980266666666, "name": "e61aaa37c4738c554629841f064aa0df", "bike_id": "e61aaa37c4738c554629841f064aa0df", "fusion_lat": 0.0, "is_reserved": 0, "lat": 38.896063166666664, "fusion_lon": 0.0, "is_disabled": 0}, {"rental_uris": {"android": "https://dc.lft.to/lastmile_qr_scan", "ios": "https://dc.lft.to/lastmile_qr_scan"}, "type": "electric_scooter", "lon": -76.99978716666666, "name": "44aa00b517cab76cc3caf6c336cd2fe0", "bike_id": "44aa00b517cab76cc3caf6c336cd2fe0", "fusion_lat": 0.0, "is_reserved": 0, "lat": 38.83841116666667, "fusion_lon": 0.0, "is_disabled": 0}, {"rental_uris": {"android": "https://dc.lft.to/lastmile_qr_scan", "ios": "https://dc.lft.to/lastmile_qr_scan"}, "type": "electric_scooter", "lon": -76.99365133333333, "name": "f9bb339d3e18533dbadd72b98fee01dc", "bike_id": "f9bb339d3e18533dbadd72b98fee01dc", "fusion_lat": 0.0, "is_reserved": 0, "lat": 38.928428333333336, "fusion_lon": 0.0, "is_disabled": 0}, {"rental_uris": {"android": "https://dc.lft.to/lastmile_qr_scan", "ios": "https://dc.lft.to/lastmile_qr_scan"}, "type": "electric_scooter", "lon": -76.99005616666666, "name": "f4588a1022defd0c7a0a0582464eb28a", "bike_id": "f4588a1022defd0c7a0a0582464eb28a", "fusion_lat": 0.0, "is_reserved": 0, "lat": 38.865079333333334, "fusion_lon": 0.0, "is_disabled": 0}, {"rental_uris": {"android": "https://dc.lft.to/lastmile_qr_scan", "ios": "https://dc.lft.to/lastmile_qr_scan"}, "type": "electric_scooter", "lon": -77.04303966666667, "name": "9fa7b1b322efac993cd1455b1b834e25", "bike_id": "9fa7b1b322efac993cd1455b1b834e25", "fusion_lat": 0.0, "is_reserved": 0, "lat": 38.92333683333333, "fusion_lon": 0.0, "is_disabled": 0}, {"rental_uris": {"android": "https://dc.lft.to/lastmile_qr_scan", "ios": "https://dc.lft.to/lastmile_qr_scan"}, "type": "electric_scooter", "lon": -76.9908075, "name": "1d93f457ed7c6b527d336eb2ade42b7d", "bike_id": "1d93f457ed7c6b527d336eb2ade42b7d", "fusion_lat": 0.0, "is_reserved": 0, "lat": 38.86048733333333, "fusion_lon": 0.0, "is_disabled": 0}, {"rental_uris": {"android": "https://dc.lft.to/lastmile_qr_scan", "ios": "https://dc.lft.to/lastmile_qr_scan"}, "type": "electric_scooter", "lon": -76.994072, "name": "ac8934afd1576278ba55a0822ac09063", "bike_id": "ac8934afd1576278ba55a0822ac09063", "fusion_lat": 0.0, "is_reserved": 0, "lat": 38.92264516666667, "fusion_lon": 0.0, "is_disabled": 0}, {"rental_uris": {"android": "https://dc.lft.to/lastmile_qr_scan", "ios": "https://dc.lft.to/lastmile_qr_scan"}, "type": "electric_bike", "lon": -76.9580965, "name": "ff18746d3b53f8c312bd7df1645273a0", "bike_id": "ff18746d3b53f8c312bd7df1645273a0", "fusion_lat": 0.0, "is_reserved": 0, "lat": 38.98048716666667, "fusion_lon": 0.0, "is_disabled": 0}, {"rental_uris": {"android": "https://dc.lft.to/lastmile_qr_scan", "ios": "https://dc.lft.to/lastmile_qr_scan"}, "type": "electric_scooter", "lon": -77.045065, "name": "89790cc4f548578f48febc0ed4881d76", "bike_id": "89790cc4f548578f48febc0ed4881d76", "fusion_lat": 0.0, "is_reserved": 0, "lat": 38.91857683333333, "fusion_lon": 0.0, "is_disabled": 0}, {"rental_uris": {"android": "https://dc.lft.to/lastmile_qr_scan", "ios": "https://dc.lft.to/lastmile_qr_scan"}, "type": "electric_scooter", "lon": -77.02450133333333, "name": "9f29ceded671bd209e8b8e131ad36b06", "bike_id": "9f29ceded671bd209e8b8e131ad36b06", "fusion_lat": 0.0, "is_reserved": 0, "lat": 38.89213516666667, "fusion_lon": 0.0, "is_disabled": 0}, {"rental_uris": {"android": "https://dc.lft.to/lastmile_qr_scan", "ios": "https://dc.lft.to/lastmile_qr_scan"}, "type": "electric_scooter", "lon": -77.0450965, "name": "fb169d79c79dd434cde3a3e587b68df7", "bike_id": "fb169d79c79dd434cde3a3e587b68df7", "fusion_lat": 0.0, "is_reserved": 0, "lat": 38.9036705, "fusion_lon": 0.0, "is_disabled": 0}, {"rental_uris": {"android": "https://dc.lft.to/lastmile_qr_scan", "ios": "https://dc.lft.to/lastmile_qr_scan"}, "type": "electric_scooter", "lon": -77.0240145, "name": "e40538eee92c995859dc27bdea901b89", "bike_id": "e40538eee92c995859dc27bdea901b89", "fusion_lat": 0.0, "is_reserved": 0, "lat": 38.95731833333333, "fusion_lon": 0.0, "is_disabled": 0}, {"rental_uris": {"android": "https://dc.lft.to/lastmile_qr_scan", "ios": "https://dc.lft.to/lastmile_qr_scan"}, "type": "electric_scooter", "lon": -77.03753866666666, "name": "ea7e135a586c7691fcf8f218bde5fd07", "bike_id": "ea7e135a586c7691fcf8f218bde5fd07", "fusion_lat": 0.0, "is_reserved": 0, "lat": 38.906873, "fusion_lon": 0.0, "is_disabled": 0}, {"rental_uris": {"android": "https://dc.lft.to/lastmile_qr_scan", "ios": "https://dc.lft.to/lastmile_qr_scan"}, "type": "electric_scooter", "lon": -76.99947583333334, "name": "66cc20bc24f6c3facbfde9fcd8c8025d", "bike_id": "66cc20bc24f6c3facbfde9fcd8c8025d", "fusion_lat": 0.0, "is_reserved": 0, "lat": 38.84290266666667, "fusion_lon": 0.0, "is_disabled": 0}, {"rental_uris": {"android": "https://dc.lft.to/lastmile_qr_scan", "ios": "https://dc.lft.to/lastmile_qr_scan"}, "type": "electric_scooter", "lon": -77.019237, "name": "7c8c9b154c8642fd7c43f8b58f4cede0", "bike_id": "7c8c9b154c8642fd7c43f8b58f4cede0", "fusion_lat": 0.0, "is_reserved": 0, "lat": 38.902402333333335, "fusion_lon": 0.0, "is_disabled": 0}, {"rental_uris": {"android": "https://dc.lft.to/lastmile_qr_scan", "ios": "https://dc.lft.to/lastmile_qr_scan"}, "type": "electric_scooter", "lon": -76.99016483333334, "name": "cefbd92459d70772323563c45ed9d54d", "bike_id": "cefbd92459d70772323563c45ed9d54d", "fusion_lat": 0.0, "is_reserved": 0, "lat": 38.899008333333335, "fusion_lon": 0.0, "is_disabled": 0}, {"rental_uris": {"android": "https://dc.lft.to/lastmile_qr_scan", "ios": "https://dc.lft.to/lastmile_qr_scan"}, "type": "electric_scooter", "lon": -77.03284366666666, "name": "c535f7ad2ee23eb240440a75d5d395e8", "bike_id": "c535f7ad2ee23eb240440a75d5d395e8", "fusion_lat": 0.0, "is_reserved": 0, "lat": 38.936816, "fusion_lon": 0.0, "is_disabled": 0}, {"rental_uris": {"android": "https://dc.lft.to/lastmile_qr_scan", "ios": "https://dc.lft.to/lastmile_qr_scan"}, "type": "electric_bike", "lon": -77.077928, "name": "ebc44b3282a57a7b691ecc052fa84743", "bike_id": "ebc44b3282a57a7b691ecc052fa84743", "fusion_lat": 0.0, "is_reserved": 0, "lat": 38.84516033333333, "fusion_lon": 0.0, "is_disabled": 0}, {"rental_uris": {"android": "https://dc.lft.to/lastmile_qr_scan", "ios": "https://dc.lft.to/lastmile_qr_scan"}, "type": "electric_scooter", "lon": -77.03653866666667, "name": "58b47ce47819c93939db3b40b5c1b6f3", "bike_id": "58b47ce47819c93939db3b40b5c1b6f3", "fusion_lat": 0.0, "is_reserved": 0, "lat": 38.903123666666666, "fusion_lon": 0.0, "is_disabled": 0}, {"rental_uris": {"android": "https://dc.lft.to/lastmile_qr_scan", "ios": "https://dc.lft.to/lastmile_qr_scan"}, "type": "electric_scooter", "lon": -76.98340433333334, "name": "af067d841ca46d6e07cd0a46a5781ec5", "bike_id": "af067d841ca46d6e07cd0a46a5781ec5", "fusion_lat": 0.0, "is_reserved": 0, "lat": 38.86251983333333, "fusion_lon": 0.0, "is_disabled": 0}, {"rental_uris": {"android": "https://dc.lft.to/lastmile_qr_scan", "ios": "https://dc.lft.to/lastmile_qr_scan"}, "type": "electric_scooter", "lon": -77.036968, "name": "a90286428154fc4908927120055c5372", "bike_id": "a90286428154fc4908927120055c5372", "fusion_lat": 0.0, "is_reserved": 0, "lat": 38.926417, "fusion_lon": 0.0, "is_disabled": 0}, {"rental_uris": {"android": "https://dc.lft.to/lastmile_qr_scan", "ios": "https://dc.lft.to/lastmile_qr_scan"}, "type": "electric_scooter", "lon": -77.0677945, "name": "0faa26feb18c44fcb816c1669b2c353d", "bike_id": "0faa26feb18c44fcb816c1669b2c353d", "fusion_lat": 0.0, "is_reserved": 0, "lat": 38.95211583333333, "fusion_lon": 0.0, "is_disabled": 0}, {"rental_uris": {"android": "https://dc.lft.to/lastmile_qr_scan", "ios": "https://dc.lft.to/lastmile_qr_scan"}, "type": "electric_scooter", "lon": -77.00741766666667, "name": "983ce619eaf28d02b5639bebcb5380f9", "bike_id": "983ce619eaf28d02b5639bebcb5380f9", "fusion_lat": 0.0, "is_reserved": 0, "lat": 38.95523633333333, "fusion_lon": 0.0, "is_disabled": 0}, {"rental_uris": {"android": "https://dc.lft.to/lastmile_qr_scan", "ios": "https://dc.lft.to/lastmile_qr_scan"}, "type": "electric_scooter", "lon": -77.020061, "name": "f161169faba681796f777f1fc83bc63c", "bike_id": "f161169faba681796f777f1fc83bc63c", "fusion_lat": 0.0, "is_reserved": 0, "lat": 38.92414766666667, "fusion_lon": 0.0, "is_disabled": 0}, {"rental_uris": {"android": "https://dc.lft.to/lastmile_qr_scan", "ios": "https://dc.lft.to/lastmile_qr_scan"}, "type": "electric_scooter", "lon": -77.00962533333333, "name": "d61e5215a1a406546159f2cfb2e1d14f", "bike_id": "d61e5215a1a406546159f2cfb2e1d14f", "fusion_lat": 0.0, "is_reserved": 0, "lat": 38.8812445, "fusion_lon": 0.0, "is_disabled": 0}, {"rental_uris": {"android": "https://dc.lft.to/lastmile_qr_scan", "ios": "https://dc.lft.to/lastmile_qr_scan"}, "type": "electric_scooter", "lon": -77.018484, "name": "5f4075c07d7920ee928595b4a26e2ea0", "bike_id": "5f4075c07d7920ee928595b4a26e2ea0", "fusion_lat": 0.0, "is_reserved": 0, "lat": 38.94994633333334, "fusion_lon": 0.0, "is_disabled": 0}, {"rental_uris": {"android": "https://dc.lft.to/lastmile_qr_scan", "ios": "https://dc.lft.to/lastmile_qr_scan"}, "type": "electric_scooter", "lon": -77.03335116666666, "name": "97c6124e1f85e647b382db25da3f24ea", "bike_id": "97c6124e1f85e647b382db25da3f24ea", "fusion_lat": 0.0, "is_reserved": 0, "lat": 38.902352, "fusion_lon": 0.0, "is_disabled": 0}, {"rental_uris": {"android": "https://dc.lft.to/lastmile_qr_scan", "ios": "https://dc.lft.to/lastmile_qr_scan"}, "type": "electric_scooter", "lon": -77.032668, "name": "19da18463deb938cc7e1413b957090ee", "bike_id": "19da18463deb938cc7e1413b957090ee", "fusion_lat": 0.0, "is_reserved": 0, "lat": 38.935250833333335, "fusion_lon": 0.0, "is_disabled": 0}, {"rental_uris": {"android": "https://dc.lft.to/lastmile_qr_scan", "ios": "https://dc.lft.to/lastmile_qr_scan"}, "type": "electric_scooter", "lon": -77.04368466666666, "name": "3e078e8e258e8fc7d5fbc3ce353e6631", "bike_id": "3e078e8e258e8fc7d5fbc3ce353e6631", "fusion_lat": 0.0, "is_reserved": 0, "lat": 38.902676, "fusion_lon": 0.0, "is_disabled": 0}, {"rental_uris": {"android": "https://dc.lft.to/lastmile_qr_scan", "ios": "https://dc.lft.to/lastmile_qr_scan"}, "type": "electric_scooter", "lon": -76.99065766666666, "name": "192f58a883901450d553b31715f495d6", "bike_id": "192f58a883901450d553b31715f495d6", "fusion_lat": 0.0, "is_reserved": 0, "lat": 38.929417, "fusion_lon": 0.0, "is_disabled": 0}, {"rental_uris": {"android": "https://dc.lft.to/lastmile_qr_scan", "ios": "https://dc.lft.to/lastmile_qr_scan"}, "type": "electric_scooter", "lon": -77.027938, "name": "7bd881d25994f3158010331883daea48", "bike_id": "7bd881d25994f3158010331883daea48", "fusion_lat": 0.0, "is_reserved": 0, "lat": 38.96147083333334, "fusion_lon": 0.0, "is_disabled": 0}, {"rental_uris": {"android": "https://dc.lft.to/lastmile_qr_scan", "ios": "https://dc.lft.to/lastmile_qr_scan"}, "type": "electric_bike", "lon": -76.99565366666667, "name": "8243e6219a2dc7ab33bdc698b6a2af6f", "bike_id": "8243e6219a2dc7ab33bdc698b6a2af6f", "fusion_lat": 0.0, "is_reserved": 0, "lat": 39.00782816666667, "fusion_lon": 0.0, "is_disabled": 0}, {"rental_uris": {"android": "https://dc.lft.to/lastmile_qr_scan", "ios": "https://dc.lft.to/lastmile_qr_scan"}, "type": "electric_bike", "lon": -77.125075, "name": "1271863d0f3b7c84fb545f76428c38ca", "bike_id": "1271863d0f3b7c84fb545f76428c38ca", "fusion_lat": 0.0, "is_reserved": 0, "lat": 39.02421016666667, "fusion_lon": 0.0, "is_disabled": 0}, {"rental_uris": {"android": "https://dc.lft.to/lastmile_qr_scan", "ios": "https://dc.lft.to/lastmile_qr_scan"}, "type": "electric_scooter", "lon": -76.98715083333333, "name": "997fd4d852f9c1cb307b8ab4e18a77e1", "bike_id": "997fd4d852f9c1cb307b8ab4e18a77e1", "fusion_lat": 0.0, "is_reserved": 0, "lat": 38.866963166666665, "fusion_lon": 0.0, "is_disabled": 0}, {"rental_uris": {"android": "https://dc.lft.to/lastmile_qr_scan", "ios": "https://dc.lft.to/lastmile_qr_scan"}, "type": "electric_bike", "lon": -77.09563416666667, "name": "7b0157620a6640c92d2d35b6036cfbfa", "bike_id": "7b0157620a6640c92d2d35b6036cfbfa", "fusion_lat": 0.0, "is_reserved": 0, "lat": 38.91706516666667, "fusion_lon": 0.0, "is_disabled": 0}, {"rental_uris": {"android": "https://dc.lft.to/lastmile_qr_scan", "ios": "https://dc.lft.to/lastmile_qr_scan"}, "type": "electric_scooter", "lon": -77.00458833333333, "name": "a1216e9363c5eab36b9179749ae7f8cb", "bike_id": "a1216e9363c5eab36b9179749ae7f8cb", "fusion_lat": 0.0, "is_reserved": 0, "lat": 38.897137, "fusion_lon": 0.0, "is_disabled": 0}, {"rental_uris": {"android": "https://dc.lft.to/lastmile_qr_scan", "ios": "https://dc.lft.to/lastmile_qr_scan"}, "type": "electric_scooter", "lon": -77.039663, "name": "04d8946d69646de10300c26e9cf0f4e6", "bike_id": "04d8946d69646de10300c26e9cf0f4e6", "fusion_lat": 0.0, "is_reserved": 0, "lat": 38.90121283333333, "fusion_lon": 0.0, "is_disabled": 0}, {"rental_uris": {"android": "https://dc.lft.to/lastmile_qr_scan", "ios": "https://dc.lft.to/lastmile_qr_scan"}, "type": "electric_scooter", "lon": -77.00166833333333, "name": "df5f544117b3898120a7c1e8834b2173", "bike_id": "df5f544117b3898120a7c1e8834b2173", "fusion_lat": 0.0, "is_reserved": 0, "lat": 38.90514433333333, "fusion_lon": 0.0, "is_disabled": 0}, {"rental_uris": {"android": "https://dc.lft.to/lastmile_qr_scan", "ios": "https://dc.lft.to/lastmile_qr_scan"}, "type": "electric_scooter", "lon": -77.04505066666667, "name": "cbd969a1cdb30774ca7066aa57b8c0a7", "bike_id": "cbd969a1cdb30774ca7066aa57b8c0a7", "fusion_lat": 0.0, "is_reserved": 0, "lat": 38.89218266666666, "fusion_lon": 0.0, "is_disabled": 0}, {"rental_uris": {"android": "https://dc.lft.to/lastmile_qr_scan", "ios": "https://dc.lft.to/lastmile_qr_scan"}, "type": "electric_scooter", "lon": -77.07158616666666, "name": "ffd212a8172238a57868994d655f3b9c", "bike_id": "ffd212a8172238a57868994d655f3b9c", "fusion_lat": 0.0, "is_reserved": 0, "lat": 38.958360666666664, "fusion_lon": 0.0, "is_disabled": 0}, {"rental_uris": {"android": "https://dc.lft.to/lastmile_qr_scan", "ios": "https://dc.lft.to/lastmile_qr_scan"}, "type": "electric_scooter", "lon": -77.01097733333333, "name": "5f727809de1b7b673a6955e915226a08", "bike_id": "5f727809de1b7b673a6955e915226a08", "fusion_lat": 0.0, "is_reserved": 0, "lat": 38.894761333333335, "fusion_lon": 0.0, "is_disabled": 0}, {"rental_uris": {"android": "https://dc.lft.to/lastmile_qr_scan", "ios": "https://dc.lft.to/lastmile_qr_scan"}, "type": "electric_scooter", "lon": -77.04335083333334, "name": "6161623b5ac78e385959845ad431f4eb", "bike_id": "6161623b5ac78e385959845ad431f4eb", "fusion_lat": 0.0, "is_reserved": 0, "lat": 38.90854566666667, "fusion_lon": 0.0, "is_disabled": 0}, {"rental_uris": {"android": "https://dc.lft.to/lastmile_qr_scan", "ios": "https://dc.lft.to/lastmile_qr_scan"}, "type": "electric_scooter", "lon": -77.01822616666666, "name": "6da1570a70a60c3f1decd31ad9d8bfed", "bike_id": "6da1570a70a60c3f1decd31ad9d8bfed", "fusion_lat": 0.0, "is_reserved": 0, "lat": 38.92167533333333, "fusion_lon": 0.0, "is_disabled": 0}, {"rental_uris": {"android": "https://dc.lft.to/lastmile_qr_scan", "ios": "https://dc.lft.to/lastmile_qr_scan"}, "type": "electric_scooter", "lon": -77.04355016666666, "name": "93e538402586293b1c19d07912d882b2", "bike_id": "93e538402586293b1c19d07912d882b2", "fusion_lat": 0.0, "is_reserved": 0, "lat": 38.90532016666667, "fusion_lon": 0.0, "is_disabled": 0}, {"rental_uris": {"android": "https://dc.lft.to/lastmile_qr_scan", "ios": "https://dc.lft.to/lastmile_qr_scan"}, "type": "electric_scooter", "lon": -77.03179366666667, "name": "764a6997c0417300c593e36d33884ca8", "bike_id": "764a6997c0417300c593e36d33884ca8", "fusion_lat": 0.0, "is_reserved": 0, "lat": 38.913095166666665, "fusion_lon": 0.0, "is_disabled": 0}, {"rental_uris": {"android": "https://dc.lft.to/lastmile_qr_scan", "ios": "https://dc.lft.to/lastmile_qr_scan"}, "type": "electric_scooter", "lon": -77.00929266666667, "name": "45117e8053a9d0f7926a451ad62e300f", "bike_id": "45117e8053a9d0f7926a451ad62e300f", "fusion_lat": 0.0, "is_reserved": 0, "lat": 38.91251666666667, "fusion_lon": 0.0, "is_disabled": 0}, {"rental_uris": {"android": "https://dc.lft.to/lastmile_qr_scan", "ios": "https://dc.lft.to/lastmile_qr_scan"}, "type": "electric_scooter", "lon": -77.00573916666667, "name": "5ab178573af4c02d47b62a253f9a0cd8", "bike_id": "5ab178573af4c02d47b62a253f9a0cd8", "fusion_lat": 0.0, "is_reserved": 0, "lat": 38.905666333333336, "fusion_lon": 0.0, "is_disabled": 0}, {"rental_uris": {"android": "https://dc.lft.to/lastmile_qr_scan", "ios": "https://dc.lft.to/lastmile_qr_scan"}, "type": "electric_scooter", "lon": -77.07323333333333, "name": "4a2ec2af824afce919fc3f4315843eed", "bike_id": "4a2ec2af824afce919fc3f4315843eed", "fusion_lat": 0.0, "is_reserved": 0, "lat": 38.93348866666667, "fusion_lon": 0.0, "is_disabled": 0}, {"rental_uris": {"android": "https://dc.lft.to/lastmile_qr_scan", "ios": "https://dc.lft.to/lastmile_qr_scan"}, "type": "electric_bike", "lon": -77.12962933333333, "name": "b9eaeee6387d3999e07945d121f33ebb", "bike_id": "b9eaeee6387d3999e07945d121f33ebb", "fusion_lat": 0.0, "is_reserved": 0, "lat": 38.85217933333333, "fusion_lon": 0.0, "is_disabled": 0}, {"rental_uris": {"android": "https://dc.lft.to/lastmile_qr_scan", "ios": "https://dc.lft.to/lastmile_qr_scan"}, "type": "electric_bike", "lon": -76.93233166666667, "name": "69751ea92c824ed136de4f45d277c448", "bike_id": "69751ea92c824ed136de4f45d277c448", "fusion_lat": 0.0, "is_reserved": 0, "lat": 38.86594616666667, "fusion_lon": 0.0, "is_disabled": 0}, {"rental_uris": {"android": "https://dc.lft.to/lastmile_qr_scan", "ios": "https://dc.lft.to/lastmile_qr_scan"}, "type": "electric_scooter", "lon": -76.99517083333333, "name": "f124286e579a382b1b4cf21c98346238", "bike_id": "f124286e579a382b1b4cf21c98346238", "fusion_lat": 0.0, "is_reserved": 0, "lat": 38.8947985, "fusion_lon": 0.0, "is_disabled": 0}, {"rental_uris": {"android": "https://dc.lft.to/lastmile_qr_scan", "ios": "https://dc.lft.to/lastmile_qr_scan"}, "type": "electric_scooter", "lon": -77.00221433333333, "name": "985c987031affed2772be4e3559f6d98", "bike_id": "985c987031affed2772be4e3559f6d98", "fusion_lat": 0.0, "is_reserved": 0, "lat": 38.95722966666666, "fusion_lon": 0.0, "is_disabled": 0}, {"rental_uris": {"android": "https://dc.lft.to/lastmile_qr_scan", "ios": "https://dc.lft.to/lastmile_qr_scan"}, "type": "electric_scooter", "lon": -77.034247, "name": "00b56030ed76050f1094add22b161c1e", "bike_id": "00b56030ed76050f1094add22b161c1e", "fusion_lat": 0.0, "is_reserved": 0, "lat": 38.919238666666665, "fusion_lon": 0.0, "is_disabled": 0}, {"rental_uris": {"android": "https://dc.lft.to/lastmile_qr_scan", "ios": "https://dc.lft.to/lastmile_qr_scan"}, "type": "electric_scooter", "lon": -77.02555533333333, "name": "9c995138c8f05a47409b05093a8ccca2", "bike_id": "9c995138c8f05a47409b05093a8ccca2", "fusion_lat": 0.0, "is_reserved": 0, "lat": 38.9170075, "fusion_lon": 0.0, "is_disabled": 0}, {"rental_uris": {"android": "https://dc.lft.to/lastmile_qr_scan", "ios": "https://dc.lft.to/lastmile_qr_scan"}, "type": "electric_scooter", "lon": -77.0060965, "name": "fa055971952a25d765315fa781578158", "bike_id": "fa055971952a25d765315fa781578158", "fusion_lat": 0.0, "is_reserved": 0, "lat": 38.87460466666667, "fusion_lon": 0.0, "is_disabled": 0}, {"rental_uris": {"android": "https://dc.lft.to/lastmile_qr_scan", "ios": "https://dc.lft.to/lastmile_qr_scan"}, "type": "electric_scooter", "lon": -77.04547183333334, "name": "60dec7f4c222194217e4afc53f4dddff", "bike_id": "60dec7f4c222194217e4afc53f4dddff", "fusion_lat": 0.0, "is_reserved": 0, "lat": 38.908606666666664, "fusion_lon": 0.0, "is_disabled": 0}, {"rental_uris": {"android": "https://dc.lft.to/lastmile_qr_scan", "ios": "https://dc.lft.to/lastmile_qr_scan"}, "type": "electric_scooter", "lon": -77.04566233333334, "name": "ca625eacd39f1a2306d6e210de525849", "bike_id": "ca625eacd39f1a2306d6e210de525849", "fusion_lat": 0.0, "is_reserved": 0, "lat": 38.914944, "fusion_lon": 0.0, "is_disabled": 0}, {"rental_uris": {"android": "https://dc.lft.to/lastmile_qr_scan", "ios": "https://dc.lft.to/lastmile_qr_scan"}, "type": "electric_scooter", "lon": -77.02682916666667, "name": "b74368cef6d459661c809cc0ceeab3b4", "bike_id": "b74368cef6d459661c809cc0ceeab3b4", "fusion_lat": 0.0, "is_reserved": 0, "lat": 38.896426166666664, "fusion_lon": 0.0, "is_disabled": 0}, {"rental_uris": {"android": "https://dc.lft.to/lastmile_qr_scan", "ios": "https://dc.lft.to/lastmile_qr_scan"}, "type": "electric_scooter", "lon": -77.026467, "name": "99a7b880262a7674202fc058167a80fa", "bike_id": "99a7b880262a7674202fc058167a80fa", "fusion_lat": 0.0, "is_reserved": 0, "lat": 38.89750816666667, "fusion_lon": 0.0, "is_disabled": 0}, {"rental_uris": {"android": "https://dc.lft.to/lastmile_qr_scan", "ios": "https://dc.lft.to/lastmile_qr_scan"}, "type": "electric_bike", "lon": -76.94622716666666, "name": "56abcb07d596d0e35fc9ad8a8bf568e8", "bike_id": "56abcb07d596d0e35fc9ad8a8bf568e8", "fusion_lat": 0.0, "is_reserved": 0, "lat": 38.83231033333333, "fusion_lon": 0.0, "is_disabled": 0}, {"rental_uris": {"android": "https://dc.lft.to/lastmile_qr_scan", "ios": "https://dc.lft.to/lastmile_qr_scan"}, "type": "electric_scooter", "lon": -77.02726333333334, "name": "533edcc6aeea521bcd7c61d246c9f4a0", "bike_id": "533edcc6aeea521bcd7c61d246c9f4a0", "fusion_lat": 0.0, "is_reserved": 0, "lat": 38.951237, "fusion_lon": 0.0, "is_disabled": 0}, {"rental_uris": {"android": "https://dc.lft.to/lastmile_qr_scan", "ios": "https://dc.lft.to/lastmile_qr_scan"}, "type": "electric_scooter", "lon": -77.02579783333333, "name": "9441532f2f023a43a9ddf7921be5c72f", "bike_id": "9441532f2f023a43a9ddf7921be5c72f", "fusion_lat": 0.0, "is_reserved": 0, "lat": 38.925039, "fusion_lon": 0.0, "is_disabled": 0}, {"rental_uris": {"android": "https://dc.lft.to/lastmile_qr_scan", "ios": "https://dc.lft.to/lastmile_qr_scan"}, "type": "electric_scooter", "lon": -77.04673783333334, "name": "ee7159c038368be0ca59b0b32a960a89", "bike_id": "ee7159c038368be0ca59b0b32a960a89", "fusion_lat": 0.0, "is_reserved": 0, "lat": 38.895063, "fusion_lon": 0.0, "is_disabled": 0}, {"rental_uris": {"android": "https://dc.lft.to/lastmile_qr_scan", "ios": "https://dc.lft.to/lastmile_qr_scan"}, "type": "electric_scooter", "lon": -77.0378745, "name": "a951a9a75e4612811f00d062d4e29ea0", "bike_id": "a951a9a75e4612811f00d062d4e29ea0", "fusion_lat": 0.0, "is_reserved": 0, "lat": 38.93327083333333, "fusion_lon": 0.0, "is_disabled": 0}, {"rental_uris": {"android": "https://dc.lft.to/lastmile_qr_scan", "ios": "https://dc.lft.to/lastmile_qr_scan"}, "type": "electric_scooter", "lon": -76.9877255, "name": "051157374216c4ea8d9aa7fb12e25304", "bike_id": "051157374216c4ea8d9aa7fb12e25304", "fusion_lat": 0.0, "is_reserved": 0, "lat": 38.88312033333333, "fusion_lon": 0.0, "is_disabled": 0}, {"rental_uris": {"android": "https://dc.lft.to/lastmile_qr_scan", "ios": "https://dc.lft.to/lastmile_qr_scan"}, "type": "electric_scooter", "lon": -77.04884316666667, "name": "1717c0507f326c60700fdb97d0a54c96", "bike_id": "1717c0507f326c60700fdb97d0a54c96", "fusion_lat": 0.0, "is_reserved": 0, "lat": 38.90290266666667, "fusion_lon": 0.0, "is_disabled": 0}, {"rental_uris": {"android": "https://dc.lft.to/lastmile_qr_scan", "ios": "https://dc.lft.to/lastmile_qr_scan"}, "type": "electric_scooter", "lon": -77.02920866666666, "name": "93e5cda6a6e867f353c9aed82be97cff", "bike_id": "93e5cda6a6e867f353c9aed82be97cff", "fusion_lat": 0.0, "is_reserved": 0, "lat": 38.9036395, "fusion_lon": 0.0, "is_disabled": 0}, {"rental_uris": {"android": "https://dc.lft.to/lastmile_qr_scan", "ios": "https://dc.lft.to/lastmile_qr_scan"}, "type": "electric_scooter", "lon": -77.04149266666667, "name": "ba1bc7fc5f01c9282c26ba1863e45115", "bike_id": "ba1bc7fc5f01c9282c26ba1863e45115", "fusion_lat": 0.0, "is_reserved": 0, "lat": 38.92351933333333, "fusion_lon": 0.0, "is_disabled": 0}, {"rental_uris": {"android": "https://dc.lft.to/lastmile_qr_scan", "ios": "https://dc.lft.to/lastmile_qr_scan"}, "type": "electric_scooter", "lon": -77.01381616666667, "name": "4f3469d439cba78546de7c4f38fabac6", "bike_id": "4f3469d439cba78546de7c4f38fabac6", "fusion_lat": 0.0, "is_reserved": 0, "lat": 38.9287435, "fusion_lon": 0.0, "is_disabled": 0}, {"rental_uris": {"android": "https://dc.lft.to/lastmile_qr_scan", "ios": "https://dc.lft.to/lastmile_qr_scan"}, "type": "electric_scooter", "lon": -77.0329065, "name": "7f59d557c3157d706b3437a611516d61", "bike_id": "7f59d557c3157d706b3437a611516d61", "fusion_lat": 0.0, "is_reserved": 0, "lat": 38.92838233333333, "fusion_lon": 0.0, "is_disabled": 0}, {"rental_uris": {"android": "https://dc.lft.to/lastmile_qr_scan", "ios": "https://dc.lft.to/lastmile_qr_scan"}, "type": "electric_bike", "lon": -76.94871383333333, "name": "585fe29c988165bfc6357975c7be3107", "bike_id": "585fe29c988165bfc6357975c7be3107", "fusion_lat": 0.0, "is_reserved": 0, "lat": 38.88965983333333, "fusion_lon": 0.0, "is_disabled": 0}, {"rental_uris": {"android": "https://dc.lft.to/lastmile_qr_scan", "ios": "https://dc.lft.to/lastmile_qr_scan"}, "type": "electric_scooter", "lon": -77.0397165, "name": "b14225b30704721f38bdfab4fb5f0ec4", "bike_id": "b14225b30704721f38bdfab4fb5f0ec4", "fusion_lat": 0.0, "is_reserved": 0, "lat": 38.90132333333333, "fusion_lon": 0.0, "is_disabled": 0}, {"rental_uris": {"android": "https://dc.lft.to/lastmile_qr_scan", "ios": "https://dc.lft.to/lastmile_qr_scan"}, "type": "electric_scooter", "lon": -77.00336816666666, "name": "7f30b54c4b84de308a8c9f7f5dc7f783", "bike_id": "7f30b54c4b84de308a8c9f7f5dc7f783", "fusion_lat": 0.0, "is_reserved": 0, "lat": 38.893547, "fusion_lon": 0.0, "is_disabled": 0}, {"rental_uris": {"android": "https://dc.lft.to/lastmile_qr_scan", "ios": "https://dc.lft.to/lastmile_qr_scan"}, "type": "electric_bike", "lon": -77.10700366666667, "name": "c3d4b4f65a5e792f9fa03d0f32e56286", "bike_id": "c3d4b4f65a5e792f9fa03d0f32e56286", "fusion_lat": 0.0, "is_reserved": 0, "lat": 38.85537583333333, "fusion_lon": 0.0, "is_disabled": 0}, {"rental_uris": {"android": "https://dc.lft.to/lastmile_qr_scan", "ios": "https://dc.lft.to/lastmile_qr_scan"}, "type": "electric_scooter", "lon": -77.03531266666667, "name": "e1addf3e067334ce1751c24ee254fb57", "bike_id": "e1addf3e067334ce1751c24ee254fb57", "fusion_lat": 0.0, "is_reserved": 0, "lat": 38.923460166666665, "fusion_lon": 0.0, "is_disabled": 0}, {"rental_uris": {"android": "https://dc.lft.to/lastmile_qr_scan", "ios": "https://dc.lft.to/lastmile_qr_scan"}, "type": "electric_bike", "lon": -76.96384983333333, "name": "4232e834157495324ee5085f94be0210", "bike_id": "4232e834157495324ee5085f94be0210", "fusion_lat": 0.0, "is_reserved": 0, "lat": 38.9757765, "fusion_lon": 0.0, "is_disabled": 0}, {"rental_uris": {"android": "https://dc.lft.to/lastmile_qr_scan", "ios": "https://dc.lft.to/lastmile_qr_scan"}, "type": "electric_bike", "lon": -76.9853145, "name": "c527ecee55afa5a730b9201bd8645546", "bike_id": "c527ecee55afa5a730b9201bd8645546", "fusion_lat": 0.0, "is_reserved": 0, "lat": 38.919898833333335, "fusion_lon": 0.0, "is_disabled": 0}, {"rental_uris": {"android": "https://dc.lft.to/lastmile_qr_scan", "ios": "https://dc.lft.to/lastmile_qr_scan"}, "type": "electric_bike", "lon": -76.99470483333333, "name": "b05bab3f2052e34f88ce155838fb6ec0", "bike_id": "b05bab3f2052e34f88ce155838fb6ec0", "fusion_lat": 0.0, "is_reserved": 0, "lat": 38.862661833333334, "fusion_lon": 0.0, "is_disabled": 0}, {"rental_uris": {"android": "https://dc.lft.to/lastmile_qr_scan", "ios": "https://dc.lft.to/lastmile_qr_scan"}, "type": "electric_scooter", "lon": -77.02788316666667, "name": "09747e6ccf79ab5e23b78c3790cee1c4", "bike_id": "09747e6ccf79ab5e23b78c3790cee1c4", "fusion_lat": 0.0, "is_reserved": 0, "lat": 38.898245333333335, "fusion_lon": 0.0, "is_disabled": 0}, {"rental_uris": {"android": "https://dc.lft.to/lastmile_qr_scan", "ios": "https://dc.lft.to/lastmile_qr_scan"}, "type": "electric_scooter", "lon": -76.98779816666666, "name": "3daae3c58195cc210809042c12a80b58", "bike_id": "3daae3c58195cc210809042c12a80b58", "fusion_lat": 0.0, "is_reserved": 0, "lat": 38.9002635, "fusion_lon": 0.0, "is_disabled": 0}, {"rental_uris": {"android": "https://dc.lft.to/lastmile_qr_scan", "ios": "https://dc.lft.to/lastmile_qr_scan"}, "type": "electric_scooter", "lon": -76.98780866666667, "name": "ebe24412348ffde459f9349822ce374e", "bike_id": "ebe24412348ffde459f9349822ce374e", "fusion_lat": 0.0, "is_reserved": 0, "lat": 38.900200166666664, "fusion_lon": 0.0, "is_disabled": 0}, {"rental_uris": {"android": "https://dc.lft.to/lastmile_qr_scan", "ios": "https://dc.lft.to/lastmile_qr_scan"}, "type": "electric_bike", "lon": -77.05172533333334, "name": "9211b20935c16e2e8a6025999aab716e", "bike_id": "9211b20935c16e2e8a6025999aab716e", "fusion_lat": 0.0, "is_reserved": 0, "lat": 38.903152, "fusion_lon": 0.0, "is_disabled": 0}, {"rental_uris": {"android": "https://dc.lft.to/lastmile_qr_scan", "ios": "https://dc.lft.to/lastmile_qr_scan"}, "type": "electric_bike", "lon": -76.87774983333334, "name": "a1bab682ae03c4639173704c9d999e3c", "bike_id": "a1bab682ae03c4639173704c9d999e3c", "fusion_lat": 0.0, "is_reserved": 0, "lat": 38.992284, "fusion_lon": 0.0, "is_disabled": 0}, {"rental_uris": {"android": "https://dc.lft.to/lastmile_qr_scan", "ios": "https://dc.lft.to/lastmile_qr_scan"}, "type": "electric_scooter", "lon": -77.03782616666666, "name": "833dfd429d25e8acded62cf4a45c6362", "bike_id": "833dfd429d25e8acded62cf4a45c6362", "fusion_lat": 0.0, "is_reserved": 0, "lat": 38.926239, "fusion_lon": 0.0, "is_disabled": 0}, {"rental_uris": {"android": "https://dc.lft.to/lastmile_qr_scan", "ios": "https://dc.lft.to/lastmile_qr_scan"}, "type": "electric_scooter", "lon": -77.0328105, "name": "d6ce8461d1a12328ad3001ef4548f3b8", "bike_id": "d6ce8461d1a12328ad3001ef4548f3b8", "fusion_lat": 0.0, "is_reserved": 0, "lat": 38.89879666666667, "fusion_lon": 0.0, "is_disabled": 0}, {"rental_uris": {"android": "https://dc.lft.to/lastmile_qr_scan", "ios": "https://dc.lft.to/lastmile_qr_scan"}, "type": "electric_bike", "lon": -77.0790195, "name": "f7a44d80a773d3f8d9ac6e349348551b", "bike_id": "f7a44d80a773d3f8d9ac6e349348551b", "fusion_lat": 0.0, "is_reserved": 0, "lat": 38.83935133333333, "fusion_lon": 0.0, "is_disabled": 0}, {"rental_uris": {"android": "https://dc.lft.to/lastmile_qr_scan", "ios": "https://dc.lft.to/lastmile_qr_scan"}, "type": "electric_scooter", "lon": -76.98362783333333, "name": "f82027d8ae450008f8b403820d3391e1", "bike_id": "f82027d8ae450008f8b403820d3391e1", "fusion_lat": 0.0, "is_reserved": 0, "lat": 38.86099083333333, "fusion_lon": 0.0, "is_disabled": 0}, {"rental_uris": {"android": "https://dc.lft.to/lastmile_qr_scan", "ios": "https://dc.lft.to/lastmile_qr_scan"}, "type": "electric_scooter", "lon": -77.0318395, "name": "c692fe607a21449fe4b2d600a94f35e8", "bike_id": "c692fe607a21449fe4b2d600a94f35e8", "fusion_lat": 0.0, "is_reserved": 0, "lat": 38.9073635, "fusion_lon": 0.0, "is_disabled": 0}, {"rental_uris": {"android": "https://dc.lft.to/lastmile_qr_scan", "ios": "https://dc.lft.to/lastmile_qr_scan"}, "type": "electric_scooter", "lon": -77.0282545, "name": "f41da779f46942ccfdf1f868b2cc2620", "bike_id": "f41da779f46942ccfdf1f868b2cc2620", "fusion_lat": 0.0, "is_reserved": 0, "lat": 38.91551166666667, "fusion_lon": 0.0, "is_disabled": 0}, {"rental_uris": {"android": "https://dc.lft.to/lastmile_qr_scan", "ios": "https://dc.lft.to/lastmile_qr_scan"}, "type": "electric_scooter", "lon": -77.02353933333333, "name": "9404cd5ee5eddd320dae86770ea96794", "bike_id": "9404cd5ee5eddd320dae86770ea96794", "fusion_lat": 0.0, "is_reserved": 0, "lat": 38.89221783333333, "fusion_lon": 0.0, "is_disabled": 0}, {"rental_uris": {"android": "https://dc.lft.to/lastmile_qr_scan", "ios": "https://dc.lft.to/lastmile_qr_scan"}, "type": "electric_bike", "lon": -77.11431083333333, "name": "5863d0f50921fb30de2917a4ecf9ff82", "bike_id": "5863d0f50921fb30de2917a4ecf9ff82", "fusion_lat": 0.0, "is_reserved": 0, "lat": 38.843107833333335, "fusion_lon": 0.0, "is_disabled": 0}, {"rental_uris": {"android": "https://dc.lft.to/lastmile_qr_scan", "ios": "https://dc.lft.to/lastmile_qr_scan"}, "type": "electric_bike", "lon": -77.05091433333334, "name": "8c3eadea9e6b936fcaf520257822c8bb", "bike_id": "8c3eadea9e6b936fcaf520257822c8bb", "fusion_lat": 0.0, "is_reserved": 0, "lat": 38.8132035, "fusion_lon": 0.0, "is_disabled": 0}, {"rental_uris": {"android": "https://dc.lft.to/lastmile_qr_scan", "ios": "https://dc.lft.to/lastmile_qr_scan"}, "type": "electric_bike", "lon": -76.9446955, "name": "3bfd441aa1c13ac103b9b83633e5a275", "bike_id": "3bfd441aa1c13ac103b9b83633e5a275", "fusion_lat": 0.0, "is_reserved": 0, "lat": 38.945585333333334, "fusion_lon": 0.0, "is_disabled": 0}, {"rental_uris": {"android": "https://dc.lft.to/lastmile_qr_scan", "ios": "https://dc.lft.to/lastmile_qr_scan"}, "type": "electric_scooter", "lon": -77.03219266666666, "name": "fb1400b494d65cd818e8993999b9203e", "bike_id": "fb1400b494d65cd818e8993999b9203e", "fusion_lat": 0.0, "is_reserved": 0, "lat": 38.91194216666667, "fusion_lon": 0.0, "is_disabled": 0}, {"rental_uris": {"android": "https://dc.lft.to/lastmile_qr_scan", "ios": "https://dc.lft.to/lastmile_qr_scan"}, "type": "electric_scooter", "lon": -77.0450445, "name": "83ffb3401ee47432145e41d6c9da9f45", "bike_id": "83ffb3401ee47432145e41d6c9da9f45", "fusion_lat": 0.0, "is_reserved": 0, "lat": 38.912064, "fusion_lon": 0.0, "is_disabled": 0}, {"rental_uris": {"android": "https://dc.lft.to/lastmile_qr_scan", "ios": "https://dc.lft.to/lastmile_qr_scan"}, "type": "electric_scooter", "lon": -76.9949025, "name": "2d078ab4127ff0b1c67ff8f4169a9058", "bike_id": "2d078ab4127ff0b1c67ff8f4169a9058", "fusion_lat": 0.0, "is_reserved": 0, "lat": 38.8773455, "fusion_lon": 0.0, "is_disabled": 0}, {"rental_uris": {"android": "https://dc.lft.to/lastmile_qr_scan", "ios": "https://dc.lft.to/lastmile_qr_scan"}, "type": "electric_scooter", "lon": -77.0386415, "name": "2cd0510c8b289fbf055fffc86c132d76", "bike_id": "2cd0510c8b289fbf055fffc86c132d76", "fusion_lat": 0.0, "is_reserved": 0, "lat": 38.91257733333333, "fusion_lon": 0.0, "is_disabled": 0}, {"rental_uris": {"android": "https://dc.lft.to/lastmile_qr_scan", "ios": "https://dc.lft.to/lastmile_qr_scan"}, "type": "electric_scooter", "lon": -77.042992, "name": "2f74457cefbafcaa5f328c4788dc1447", "bike_id": "2f74457cefbafcaa5f328c4788dc1447", "fusion_lat": 0.0, "is_reserved": 0, "lat": 38.92253916666667, "fusion_lon": 0.0, "is_disabled": 0}, {"rental_uris": {"android": "https://dc.lft.to/lastmile_qr_scan", "ios": "https://dc.lft.to/lastmile_qr_scan"}, "type": "electric_scooter", "lon": -77.02152916666667, "name": "bbe95a49ffac9219578e6b5a515206ec", "bike_id": "bbe95a49ffac9219578e6b5a515206ec", "fusion_lat": 0.0, "is_reserved": 0, "lat": 38.88497133333333, "fusion_lon": 0.0, "is_disabled": 0}, {"rental_uris": {"android": "https://dc.lft.to/lastmile_qr_scan", "ios": "https://dc.lft.to/lastmile_qr_scan"}, "type": "electric_scooter", "lon": -77.05125366666667, "name": "7cbe21f76613e6126dd37939bba2bec2", "bike_id": "7cbe21f76613e6126dd37939bba2bec2", "fusion_lat": 0.0, "is_reserved": 0, "lat": 38.906635, "fusion_lon": 0.0, "is_disabled": 0}, {"rental_uris": {"android": "https://dc.lft.to/lastmile_qr_scan", "ios": "https://dc.lft.to/lastmile_qr_scan"}, "type": "electric_scooter", "lon": -77.02354083333333, "name": "caefb31d3b5678247b86d85519d1f248", "bike_id": "caefb31d3b5678247b86d85519d1f248", "fusion_lat": 0.0, "is_reserved": 0, "lat": 38.89220666666667, "fusion_lon": 0.0, "is_disabled": 0}, {"rental_uris": {"android": "https://dc.lft.to/lastmile_qr_scan", "ios": "https://dc.lft.to/lastmile_qr_scan"}, "type": "electric_scooter", "lon": -77.04168183333333, "name": "93d0abebc4471da0de1053a4324228eb", "bike_id": "93d0abebc4471da0de1053a4324228eb", "fusion_lat": 0.0, "is_reserved": 0, "lat": 38.9133615, "fusion_lon": 0.0, "is_disabled": 0}, {"rental_uris": {"android": "https://dc.lft.to/lastmile_qr_scan", "ios": "https://dc.lft.to/lastmile_qr_scan"}, "type": "electric_scooter", "lon": -77.02517566666667, "name": "0fa6ee32ad727a339f34607560eef23f", "bike_id": "0fa6ee32ad727a339f34607560eef23f", "fusion_lat": 0.0, "is_reserved": 0, "lat": 38.90180483333333, "fusion_lon": 0.0, "is_disabled": 0}, {"rental_uris": {"android": "https://dc.lft.to/lastmile_qr_scan", "ios": "https://dc.lft.to/lastmile_qr_scan"}, "type": "electric_scooter", "lon": -77.01925833333334, "name": "ff3eab462dadba768c423af667748911", "bike_id": "ff3eab462dadba768c423af667748911", "fusion_lat": 0.0, "is_reserved": 0, "lat": 38.93572066666667, "fusion_lon": 0.0, "is_disabled": 0}, {"rental_uris": {"android": "https://dc.lft.to/lastmile_qr_scan", "ios": "https://dc.lft.to/lastmile_qr_scan"}, "type": "electric_scooter", "lon": -76.98994183333333, "name": "c7e56e4b111a94f1e06693f1789535ed", "bike_id": "c7e56e4b111a94f1e06693f1789535ed", "fusion_lat": 0.0, "is_reserved": 0, "lat": 38.86442233333333, "fusion_lon": 0.0, "is_disabled": 0}, {"rental_uris": {"android": "https://dc.lft.to/lastmile_qr_scan", "ios": "https://dc.lft.to/lastmile_qr_scan"}, "type": "electric_scooter", "lon": -77.00758083333334, "name": "bb80bd62f06781a798848efb7a00bff4", "bike_id": "bb80bd62f06781a798848efb7a00bff4", "fusion_lat": 0.0, "is_reserved": 0, "lat": 38.926798166666664, "fusion_lon": 0.0, "is_disabled": 0}, {"rental_uris": {"android": "https://dc.lft.to/lastmile_qr_scan", "ios": "https://dc.lft.to/lastmile_qr_scan"}, "type": "electric_scooter", "lon": -76.94636166666666, "name": "0b31b0c69cf6a9a50f1664caa61fde82", "bike_id": "0b31b0c69cf6a9a50f1664caa61fde82", "fusion_lat": 0.0, "is_reserved": 0, "lat": 38.89842316666667, "fusion_lon": 0.0, "is_disabled": 0}, {"rental_uris": {"android": "https://dc.lft.to/lastmile_qr_scan", "ios": "https://dc.lft.to/lastmile_qr_scan"}, "type": "electric_scooter", "lon": -76.96416266666667, "name": "4d421d9754de77f39980496f5e7e07f5", "bike_id": "4d421d9754de77f39980496f5e7e07f5", "fusion_lat": 0.0, "is_reserved": 0, "lat": 38.93455516666667, "fusion_lon": 0.0, "is_disabled": 0}, {"rental_uris": {"android": "https://dc.lft.to/lastmile_qr_scan", "ios": "https://dc.lft.to/lastmile_qr_scan"}, "type": "electric_scooter", "lon": -77.0379395, "name": "494faeba1032f9e302ae576294fc28f1", "bike_id": "494faeba1032f9e302ae576294fc28f1", "fusion_lat": 0.0, "is_reserved": 0, "lat": 38.9310415, "fusion_lon": 0.0, "is_disabled": 0}, {"rental_uris": {"android": "https://dc.lft.to/lastmile_qr_scan", "ios": "https://dc.lft.to/lastmile_qr_scan"}, "type": "electric_scooter", "lon": -77.03477483333333, "name": "1de894be33118177fc7a7c8a5cb69f9a", "bike_id": "1de894be33118177fc7a7c8a5cb69f9a", "fusion_lat": 0.0, "is_reserved": 0, "lat": 38.903236666666665, "fusion_lon": 0.0, "is_disabled": 0}, {"rental_uris": {"android": "https://dc.lft.to/lastmile_qr_scan", "ios": "https://dc.lft.to/lastmile_qr_scan"}, "type": "electric_scooter", "lon": -77.02343333333333, "name": "0746ce23965cc684af67401a9b140412", "bike_id": "0746ce23965cc684af67401a9b140412", "fusion_lat": 0.0, "is_reserved": 0, "lat": 38.96204916666667, "fusion_lon": 0.0, "is_disabled": 0}, {"rental_uris": {"android": "https://dc.lft.to/lastmile_qr_scan", "ios": "https://dc.lft.to/lastmile_qr_scan"}, "type": "electric_scooter", "lon": -77.00558066666666, "name": "84dcf871e7a07bad91be18a416d7ec35", "bike_id": "84dcf871e7a07bad91be18a416d7ec35", "fusion_lat": 0.0, "is_reserved": 0, "lat": 38.90567566666667, "fusion_lon": 0.0, "is_disabled": 0}, {"rental_uris": {"android": "https://dc.lft.to/lastmile_qr_scan", "ios": "https://dc.lft.to/lastmile_qr_scan"}, "type": "electric_scooter", "lon": -77.05730233333334, "name": "2cd4507887885fa5380c03e1d1725bca", "bike_id": "2cd4507887885fa5380c03e1d1725bca", "fusion_lat": 0.0, "is_reserved": 0, "lat": 38.933682833333336, "fusion_lon": 0.0, "is_disabled": 0}, {"rental_uris": {"android": "https://dc.lft.to/lastmile_qr_scan", "ios": "https://dc.lft.to/lastmile_qr_scan"}, "type": "electric_bike", "lon": -77.109927, "name": "36fc165c31bfffbf70297244045bd0ca", "bike_id": "36fc165c31bfffbf70297244045bd0ca", "fusion_lat": 0.0, "is_reserved": 0, "lat": 38.870490333333336, "fusion_lon": 0.0, "is_disabled": 0}, {"rental_uris": {"android": "https://dc.lft.to/lastmile_qr_scan", "ios": "https://dc.lft.to/lastmile_qr_scan"}, "type": "electric_scooter", "lon": -76.99628783333333, "name": "3010278b0bb01f7e48b1389430bca904", "bike_id": "3010278b0bb01f7e48b1389430bca904", "fusion_lat": 0.0, "is_reserved": 0, "lat": 38.9003785, "fusion_lon": 0.0, "is_disabled": 0}, {"rental_uris": {"android": "https://dc.lft.to/lastmile_qr_scan", "ios": "https://dc.lft.to/lastmile_qr_scan"}, "type": "electric_scooter", "lon": -76.99515566666666, "name": "14a5600bec0fb8b7c4dfa14ebe77988b", "bike_id": "14a5600bec0fb8b7c4dfa14ebe77988b", "fusion_lat": 0.0, "is_reserved": 0, "lat": 38.89480783333333, "fusion_lon": 0.0, "is_disabled": 0}, {"rental_uris": {"android": "https://dc.lft.to/lastmile_qr_scan", "ios": "https://dc.lft.to/lastmile_qr_scan"}, "type": "electric_scooter", "lon": -77.04319333333333, "name": "b131fb3cdca84d8afce5b8fe579318c1", "bike_id": "b131fb3cdca84d8afce5b8fe579318c1", "fusion_lat": 0.0, "is_reserved": 0, "lat": 38.911151333333336, "fusion_lon": 0.0, "is_disabled": 0}, {"rental_uris": {"android": "https://dc.lft.to/lastmile_qr_scan", "ios": "https://dc.lft.to/lastmile_qr_scan"}, "type": "electric_scooter", "lon": -77.03154083333334, "name": "1aa9737d16b8f7a6768666544210cd75", "bike_id": "1aa9737d16b8f7a6768666544210cd75", "fusion_lat": 0.0, "is_reserved": 0, "lat": 38.887539833333335, "fusion_lon": 0.0, "is_disabled": 0}, {"rental_uris": {"android": "https://dc.lft.to/lastmile_qr_scan", "ios": "https://dc.lft.to/lastmile_qr_scan"}, "type": "electric_scooter", "lon": -77.0529905, "name": "36e9e7334ae545957072ddbf8b88baab", "bike_id": "36e9e7334ae545957072ddbf8b88baab", "fusion_lat": 0.0, "is_reserved": 0, "lat": 38.9262525, "fusion_lon": 0.0, "is_disabled": 0}, {"rental_uris": {"android": "https://dc.lft.to/lastmile_qr_scan", "ios": "https://dc.lft.to/lastmile_qr_scan"}, "type": "electric_scooter", "lon": -77.02383866666666, "name": "8066b499084b66145046a2f66ac4984a", "bike_id": "8066b499084b66145046a2f66ac4984a", "fusion_lat": 0.0, "is_reserved": 0, "lat": 38.893919333333336, "fusion_lon": 0.0, "is_disabled": 0}, {"rental_uris": {"android": "https://dc.lft.to/lastmile_qr_scan", "ios": "https://dc.lft.to/lastmile_qr_scan"}, "type": "electric_scooter", "lon": -77.055136, "name": "2408fa1bad4c18ba0b0d1fb1914aec75", "bike_id": "2408fa1bad4c18ba0b0d1fb1914aec75", "fusion_lat": 0.0, "is_reserved": 0, "lat": 38.944158333333334, "fusion_lon": 0.0, "is_disabled": 0}, {"rental_uris": {"android": "https://dc.lft.to/lastmile_qr_scan", "ios": "https://dc.lft.to/lastmile_qr_scan"}, "type": "electric_scooter", "lon": -77.03574383333333, "name": "913afd8e47f8e945f586e96ece4f6b42", "bike_id": "913afd8e47f8e945f586e96ece4f6b42", "fusion_lat": 0.0, "is_reserved": 0, "lat": 38.9038835, "fusion_lon": 0.0, "is_disabled": 0}, {"rental_uris": {"android": "https://dc.lft.to/lastmile_qr_scan", "ios": "https://dc.lft.to/lastmile_qr_scan"}, "type": "electric_scooter", "lon": -76.948409, "name": "6e7a114b71fa4df49ad97772e032a198", "bike_id": "6e7a114b71fa4df49ad97772e032a198", "fusion_lat": 0.0, "is_reserved": 0, "lat": 38.89486133333333, "fusion_lon": 0.0, "is_disabled": 0}, {"rental_uris": {"android": "https://dc.lft.to/lastmile_qr_scan", "ios": "https://dc.lft.to/lastmile_qr_scan"}, "type": "electric_scooter", "lon": -77.0344535, "name": "d16fa21d129f00a57a94f512a79eaabd", "bike_id": "d16fa21d129f00a57a94f512a79eaabd", "fusion_lat": 0.0, "is_reserved": 0, "lat": 38.902558166666665, "fusion_lon": 0.0, "is_disabled": 0}, {"rental_uris": {"android": "https://dc.lft.to/lastmile_qr_scan", "ios": "https://dc.lft.to/lastmile_qr_scan"}, "type": "electric_scooter", "lon": -77.00107433333334, "name": "198ce320bba96470f87d57312acd6bd4", "bike_id": "198ce320bba96470f87d57312acd6bd4", "fusion_lat": 0.0, "is_reserved": 0, "lat": 38.91627483333333, "fusion_lon": 0.0, "is_disabled": 0}, {"rental_uris": {"android": "https://dc.lft.to/lastmile_qr_scan", "ios": "https://dc.lft.to/lastmile_qr_scan"}, "type": "electric_scooter", "lon": -76.9860405, "name": "904fc3bbb34fef9033a46c20c15a0916", "bike_id": "904fc3bbb34fef9033a46c20c15a0916", "fusion_lat": 0.0, "is_reserved": 0, "lat": 38.8544095, "fusion_lon": 0.0, "is_disabled": 0}, {"rental_uris": {"android": "https://dc.lft.to/lastmile_qr_scan", "ios": "https://dc.lft.to/lastmile_qr_scan"}, "type": "electric_bike", "lon": -76.99394483333333, "name": "286f424f74cad4ac5f6717e6f8bf7f4b", "bike_id": "286f424f74cad4ac5f6717e6f8bf7f4b", "fusion_lat": 0.0, "is_reserved": 0, "lat": 38.922688, "fusion_lon": 0.0, "is_disabled": 0}, {"rental_uris": {"android": "https://dc.lft.to/lastmile_qr_scan", "ios": "https://dc.lft.to/lastmile_qr_scan"}, "type": "electric_scooter", "lon": -77.04576583333333, "name": "2e381bba24fa8e396cfbf104b8b6d7d2", "bike_id": "2e381bba24fa8e396cfbf104b8b6d7d2", "fusion_lat": 0.0, "is_reserved": 0, "lat": 38.921223166666664, "fusion_lon": 0.0, "is_disabled": 0}, {"rental_uris": {"android": "https://dc.lft.to/lastmile_qr_scan", "ios": "https://dc.lft.to/lastmile_qr_scan"}, "type": "electric_bike", "lon": -76.990571, "name": "daac56887b0331ae003fb1b05384e6ad", "bike_id": "daac56887b0331ae003fb1b05384e6ad", "fusion_lat": 0.0, "is_reserved": 0, "lat": 38.936908333333335, "fusion_lon": 0.0, "is_disabled": 0}, {"rental_uris": {"android": "https://dc.lft.to/lastmile_qr_scan", "ios": "https://dc.lft.to/lastmile_qr_scan"}, "type": "electric_scooter", "lon": -76.94855383333334, "name": "4adb20cb175bdb74e9a8e062e67941d0", "bike_id": "4adb20cb175bdb74e9a8e062e67941d0", "fusion_lat": 0.0, "is_reserved": 0, "lat": 38.883018666666665, "fusion_lon": 0.0, "is_disabled": 0}, {"rental_uris": {"android": "https://dc.lft.to/lastmile_qr_scan", "ios": "https://dc.lft.to/lastmile_qr_scan"}, "type": "electric_bike", "lon": -77.08948066666666, "name": "0a4bc4c1feb4e7910905b9180dffd239", "bike_id": "0a4bc4c1feb4e7910905b9180dffd239", "fusion_lat": 0.0, "is_reserved": 0, "lat": 38.934593, "fusion_lon": 0.0, "is_disabled": 0}, {"rental_uris": {"android": "https://dc.lft.to/lastmile_qr_scan", "ios": "https://dc.lft.to/lastmile_qr_scan"}, "type": "electric_scooter", "lon": -77.03537516666667, "name": "156ef93524e6587c14f349b806819a38", "bike_id": "156ef93524e6587c14f349b806819a38", "fusion_lat": 0.0, "is_reserved": 0, "lat": 38.92468866666667, "fusion_lon": 0.0, "is_disabled": 0}, {"rental_uris": {"android": "https://dc.lft.to/lastmile_qr_scan", "ios": "https://dc.lft.to/lastmile_qr_scan"}, "type": "electric_scooter", "lon": -76.98328116666667, "name": "9fda42d3543acbcbec50eacdbf9f49c5", "bike_id": "9fda42d3543acbcbec50eacdbf9f49c5", "fusion_lat": 0.0, "is_reserved": 0, "lat": 38.9074125, "fusion_lon": 0.0, "is_disabled": 0}, {"rental_uris": {"android": "https://dc.lft.to/lastmile_qr_scan", "ios": "https://dc.lft.to/lastmile_qr_scan"}, "type": "electric_scooter", "lon": -77.01200033333333, "name": "e2720c1a7e488244b001b493cac30eb9", "bike_id": "e2720c1a7e488244b001b493cac30eb9", "fusion_lat": 0.0, "is_reserved": 0, "lat": 38.9130895, "fusion_lon": 0.0, "is_disabled": 0}, {"rental_uris": {"android": "https://dc.lft.to/lastmile_qr_scan", "ios": "https://dc.lft.to/lastmile_qr_scan"}, "type": "electric_scooter", "lon": -77.01159683333333, "name": "3deee1930190e7f2509b3095024bd1b9", "bike_id": "3deee1930190e7f2509b3095024bd1b9", "fusion_lat": 0.0, "is_reserved": 0, "lat": 38.895969666666666, "fusion_lon": 0.0, "is_disabled": 0}, {"rental_uris": {"android": "https://dc.lft.to/lastmile_qr_scan", "ios": "https://dc.lft.to/lastmile_qr_scan"}, "type": "electric_scooter", "lon": -77.011723, "name": "983ad1afe1e393c79d0f231ffa3aa144", "bike_id": "983ad1afe1e393c79d0f231ffa3aa144", "fusion_lat": 0.0, "is_reserved": 0, "lat": 38.90035916666667, "fusion_lon": 0.0, "is_disabled": 0}, {"rental_uris": {"android": "https://dc.lft.to/lastmile_qr_scan", "ios": "https://dc.lft.to/lastmile_qr_scan"}, "type": "electric_scooter", "lon": -76.94665416666666, "name": "b87da1513f8a137cd3c9ddd6ce94ee53", "bike_id": "b87da1513f8a137cd3c9ddd6ce94ee53", "fusion_lat": 0.0, "is_reserved": 0, "lat": 38.8986795, "fusion_lon": 0.0, "is_disabled": 0}, {"rental_uris": {"android": "https://dc.lft.to/lastmile_qr_scan", "ios": "https://dc.lft.to/lastmile_qr_scan"}, "type": "electric_scooter", "lon": -77.03176083333334, "name": "f8563814b98a4d95968759209402c521", "bike_id": "f8563814b98a4d95968759209402c521", "fusion_lat": 0.0, "is_reserved": 0, "lat": 38.8999015, "fusion_lon": 0.0, "is_disabled": 0}, {"rental_uris": {"android": "https://dc.lft.to/lastmile_qr_scan", "ios": "https://dc.lft.to/lastmile_qr_scan"}, "type": "electric_scooter", "lon": -77.00195216666667, "name": "653d30e0c8c211b830cae3535deafbf1", "bike_id": "653d30e0c8c211b830cae3535deafbf1", "fusion_lat": 0.0, "is_reserved": 0, "lat": 38.914304666666666, "fusion_lon": 0.0, "is_disabled": 0}, {"rental_uris": {"android": "https://dc.lft.to/lastmile_qr_scan", "ios": "https://dc.lft.to/lastmile_qr_scan"}, "type": "electric_scooter", "lon": -77.04472516666667, "name": "f80020b2b905fde97f1ba9062097f907", "bike_id": "f80020b2b905fde97f1ba9062097f907", "fusion_lat": 0.0, "is_reserved": 0, "lat": 38.914092, "fusion_lon": 0.0, "is_disabled": 0}, {"rental_uris": {"android": "https://dc.lft.to/lastmile_qr_scan", "ios": "https://dc.lft.to/lastmile_qr_scan"}, "type": "electric_scooter", "lon": -77.03175033333333, "name": "18735dde23ef27c165b596d7ec08081a", "bike_id": "18735dde23ef27c165b596d7ec08081a", "fusion_lat": 0.0, "is_reserved": 0, "lat": 38.90063633333333, "fusion_lon": 0.0, "is_disabled": 0}, {"rental_uris": {"android": "https://dc.lft.to/lastmile_qr_scan", "ios": "https://dc.lft.to/lastmile_qr_scan"}, "type": "electric_scooter", "lon": -77.03856933333333, "name": "7584502c73f0c26150d18a814921b59a", "bike_id": "7584502c73f0c26150d18a814921b59a", "fusion_lat": 0.0, "is_reserved": 0, "lat": 38.9117395, "fusion_lon": 0.0, "is_disabled": 0}, {"rental_uris": {"android": "https://dc.lft.to/lastmile_qr_scan", "ios": "https://dc.lft.to/lastmile_qr_scan"}, "type": "electric_scooter", "lon": -77.07362583333334, "name": "9e4c75635c2dcbce959d7913b64e6b9c", "bike_id": "9e4c75635c2dcbce959d7913b64e6b9c", "fusion_lat": 0.0, "is_reserved": 0, "lat": 38.94324816666666, "fusion_lon": 0.0, "is_disabled": 0}, {"rental_uris": {"android": "https://dc.lft.to/lastmile_qr_scan", "ios": "https://dc.lft.to/lastmile_qr_scan"}, "type": "electric_scooter", "lon": -76.96491066666667, "name": "5ca5d15ab7255cbea1f8c9fa213afaea", "bike_id": "5ca5d15ab7255cbea1f8c9fa213afaea", "fusion_lat": 0.0, "is_reserved": 0, "lat": 38.875485833333336, "fusion_lon": 0.0, "is_disabled": 0}, {"rental_uris": {"android": "https://dc.lft.to/lastmile_qr_scan", "ios": "https://dc.lft.to/lastmile_qr_scan"}, "type": "electric_scooter", "lon": -77.03271316666667, "name": "6a23dbae7891b4242effe33ea3c1c242", "bike_id": "6a23dbae7891b4242effe33ea3c1c242", "fusion_lat": 0.0, "is_reserved": 0, "lat": 38.92845483333333, "fusion_lon": 0.0, "is_disabled": 0}, {"rental_uris": {"android": "https://dc.lft.to/lastmile_qr_scan", "ios": "https://dc.lft.to/lastmile_qr_scan"}, "type": "electric_bike", "lon": -77.00868216666667, "name": "a6df75e98a738722dad89313b86ae086", "bike_id": "a6df75e98a738722dad89313b86ae086", "fusion_lat": 0.0, "is_reserved": 0, "lat": 38.82722616666667, "fusion_lon": 0.0, "is_disabled": 0}, {"rental_uris": {"android": "https://dc.lft.to/lastmile_qr_scan", "ios": "https://dc.lft.to/lastmile_qr_scan"}, "type": "electric_scooter", "lon": -77.03835383333333, "name": "89207e2984a507d03bbc8794458af81d", "bike_id": "89207e2984a507d03bbc8794458af81d", "fusion_lat": 0.0, "is_reserved": 0, "lat": 38.93100733333333, "fusion_lon": 0.0, "is_disabled": 0}, {"rental_uris": {"android": "https://dc.lft.to/lastmile_qr_scan", "ios": "https://dc.lft.to/lastmile_qr_scan"}, "type": "electric_scooter", "lon": -77.03475666666667, "name": "f077d5a9b989ffe41d268e66bf6e89e9", "bike_id": "f077d5a9b989ffe41d268e66bf6e89e9", "fusion_lat": 0.0, "is_reserved": 0, "lat": 38.90882766666667, "fusion_lon": 0.0, "is_disabled": 0}, {"rental_uris": {"android": "https://dc.lft.to/lastmile_qr_scan", "ios": "https://dc.lft.to/lastmile_qr_scan"}, "type": "electric_scooter", "lon": -77.01719233333333, "name": "20dda0708881284e4278d1d8ef88da33", "bike_id": "20dda0708881284e4278d1d8ef88da33", "fusion_lat": 0.0, "is_reserved": 0, "lat": 38.879324, "fusion_lon": 0.0, "is_disabled": 0}, {"rental_uris": {"android": "https://dc.lft.to/lastmile_qr_scan", "ios": "https://dc.lft.to/lastmile_qr_scan"}, "type": "electric_scooter", "lon": -76.985674, "name": "e83b61a809c1dcad80c1b43ce202ee24", "bike_id": "e83b61a809c1dcad80c1b43ce202ee24", "fusion_lat": 0.0, "is_reserved": 0, "lat": 38.85583716666667, "fusion_lon": 0.0, "is_disabled": 0}, {"rental_uris": {"android": "https://dc.lft.to/lastmile_qr_scan", "ios": "https://dc.lft.to/lastmile_qr_scan"}, "type": "electric_scooter", "lon": -77.0176265, "name": "2360f5b604eacaad906eb25de8f07699", "bike_id": "2360f5b604eacaad906eb25de8f07699", "fusion_lat": 0.0, "is_reserved": 0, "lat": 38.901835, "fusion_lon": 0.0, "is_disabled": 0}, {"rental_uris": {"android": "https://dc.lft.to/lastmile_qr_scan", "ios": "https://dc.lft.to/lastmile_qr_scan"}, "type": "electric_scooter", "lon": -77.03425433333334, "name": "a6d8c8374caf06788f56a83271356178", "bike_id": "a6d8c8374caf06788f56a83271356178", "fusion_lat": 0.0, "is_reserved": 0, "lat": 38.91920666666667, "fusion_lon": 0.0, "is_disabled": 0}, {"rental_uris": {"android": "https://dc.lft.to/lastmile_qr_scan", "ios": "https://dc.lft.to/lastmile_qr_scan"}, "type": "electric_scooter", "lon": -77.02480116666666, "name": "21444635d577296a91c4c6f7ba676fea", "bike_id": "21444635d577296a91c4c6f7ba676fea", "fusion_lat": 0.0, "is_reserved": 0, "lat": 38.938753166666665, "fusion_lon": 0.0, "is_disabled": 0}, {"rental_uris": {"android": "https://dc.lft.to/lastmile_qr_scan", "ios": "https://dc.lft.to/lastmile_qr_scan"}, "type": "electric_scooter", "lon": -77.07270716666666, "name": "21b17b08436ca21ac17e9aaa0c1b7977", "bike_id": "21b17b08436ca21ac17e9aaa0c1b7977", "fusion_lat": 0.0, "is_reserved": 0, "lat": 38.93474583333333, "fusion_lon": 0.0, "is_disabled": 0}, {"rental_uris": {"android": "https://dc.lft.to/lastmile_qr_scan", "ios": "https://dc.lft.to/lastmile_qr_scan"}, "type": "electric_scooter", "lon": -77.04030966666667, "name": "15def72718167eeb1bb38c08e9664a56", "bike_id": "15def72718167eeb1bb38c08e9664a56", "fusion_lat": 0.0, "is_reserved": 0, "lat": 38.90009466666667, "fusion_lon": 0.0, "is_disabled": 0}, {"rental_uris": {"android": "https://dc.lft.to/lastmile_qr_scan", "ios": "https://dc.lft.to/lastmile_qr_scan"}, "type": "electric_scooter", "lon": -76.99371466666666, "name": "ce36c9ccfee723e16cf69d1ffc63aa81", "bike_id": "ce36c9ccfee723e16cf69d1ffc63aa81", "fusion_lat": 0.0, "is_reserved": 0, "lat": 38.923999333333335, "fusion_lon": 0.0, "is_disabled": 0}, {"rental_uris": {"android": "https://dc.lft.to/lastmile_qr_scan", "ios": "https://dc.lft.to/lastmile_qr_scan"}, "type": "electric_scooter", "lon": -77.03312533333333, "name": "68409ea5c062bd39477013937ff80622", "bike_id": "68409ea5c062bd39477013937ff80622", "fusion_lat": 0.0, "is_reserved": 0, "lat": 38.898458166666664, "fusion_lon": 0.0, "is_disabled": 0}, {"rental_uris": {"android": "https://dc.lft.to/lastmile_qr_scan", "ios": "https://dc.lft.to/lastmile_qr_scan"}, "type": "electric_scooter", "lon": -77.02009866666667, "name": "f391a227d8d5e65d03ecae0b6ae7cf08", "bike_id": "f391a227d8d5e65d03ecae0b6ae7cf08", "fusion_lat": 0.0, "is_reserved": 0, "lat": 38.879354166666666, "fusion_lon": 0.0, "is_disabled": 0}, {"rental_uris": {"android": "https://dc.lft.to/lastmile_qr_scan", "ios": "https://dc.lft.to/lastmile_qr_scan"}, "type": "electric_scooter", "lon": -77.017699, "name": "42d225b61c29b99390c42f5c94fad03d", "bike_id": "42d225b61c29b99390c42f5c94fad03d", "fusion_lat": 0.0, "is_reserved": 0, "lat": 38.872864166666666, "fusion_lon": 0.0, "is_disabled": 0}, {"rental_uris": {"android": "https://dc.lft.to/lastmile_qr_scan", "ios": "https://dc.lft.to/lastmile_qr_scan"}, "type": "electric_scooter", "lon": -77.020393, "name": "06f86a449b7b357196e09ae3dc1b6a5c", "bike_id": "06f86a449b7b357196e09ae3dc1b6a5c", "fusion_lat": 0.0, "is_reserved": 0, "lat": 38.89265433333333, "fusion_lon": 0.0, "is_disabled": 0}, {"rental_uris": {"android": "https://dc.lft.to/lastmile_qr_scan", "ios": "https://dc.lft.to/lastmile_qr_scan"}, "type": "electric_scooter", "lon": -77.036555, "name": "49d1d756f1082d62aed3af18ecc3133c", "bike_id": "49d1d756f1082d62aed3af18ecc3133c", "fusion_lat": 0.0, "is_reserved": 0, "lat": 38.91630283333333, "fusion_lon": 0.0, "is_disabled": 0}, {"rental_uris": {"android": "https://dc.lft.to/lastmile_qr_scan", "ios": "https://dc.lft.to/lastmile_qr_scan"}, "type": "electric_scooter", "lon": -77.0634775, "name": "54a5d66ebdb013922294c3eec7bcf9a8", "bike_id": "54a5d66ebdb013922294c3eec7bcf9a8", "fusion_lat": 0.0, "is_reserved": 0, "lat": 38.90847333333333, "fusion_lon": 0.0, "is_disabled": 0}, {"rental_uris": {"android": "https://dc.lft.to/lastmile_qr_scan", "ios": "https://dc.lft.to/lastmile_qr_scan"}, "type": "electric_scooter", "lon": -76.99762133333333, "name": "95f66009a282aee8949bb0622ff3eced", "bike_id": "95f66009a282aee8949bb0622ff3eced", "fusion_lat": 0.0, "is_reserved": 0, "lat": 38.922756166666666, "fusion_lon": 0.0, "is_disabled": 0}, {"rental_uris": {"android": "https://dc.lft.to/lastmile_qr_scan", "ios": "https://dc.lft.to/lastmile_qr_scan"}, "type": "electric_scooter", "lon": -77.0217165, "name": "2f3b82ce064636bf561ecb20b9599e2b", "bike_id": "2f3b82ce064636bf561ecb20b9599e2b", "fusion_lat": 0.0, "is_reserved": 0, "lat": 38.940803, "fusion_lon": 0.0, "is_disabled": 0}, {"rental_uris": {"android": "https://dc.lft.to/lastmile_qr_scan", "ios": "https://dc.lft.to/lastmile_qr_scan"}, "type": "electric_scooter", "lon": -77.0335235, "name": "e7e1fbf51087c9639438f5ab345de21e", "bike_id": "e7e1fbf51087c9639438f5ab345de21e", "fusion_lat": 0.0, "is_reserved": 0, "lat": 38.91707783333333, "fusion_lon": 0.0, "is_disabled": 0}, {"rental_uris": {"android": "https://dc.lft.to/lastmile_qr_scan", "ios": "https://dc.lft.to/lastmile_qr_scan"}, "type": "electric_scooter", "lon": -77.02971683333334, "name": "b11cca2afe9138f07d3fa938877d67d5", "bike_id": "b11cca2afe9138f07d3fa938877d67d5", "fusion_lat": 0.0, "is_reserved": 0, "lat": 38.89904533333333, "fusion_lon": 0.0, "is_disabled": 0}, {"rental_uris": {"android": "https://dc.lft.to/lastmile_qr_scan", "ios": "https://dc.lft.to/lastmile_qr_scan"}, "type": "electric_scooter", "lon": -77.02938916666666, "name": "c4a2ceb0be627b06196c569380184928", "bike_id": "c4a2ceb0be627b06196c569380184928", "fusion_lat": 0.0, "is_reserved": 0, "lat": 38.90476366666667, "fusion_lon": 0.0, "is_disabled": 0}, {"rental_uris": {"android": "https://dc.lft.to/lastmile_qr_scan", "ios": "https://dc.lft.to/lastmile_qr_scan"}, "type": "electric_scooter", "lon": -76.9973075, "name": "0df43ba12d6a12b51732d35c47b3c267", "bike_id": "0df43ba12d6a12b51732d35c47b3c267", "fusion_lat": 0.0, "is_reserved": 0, "lat": 38.90790533333333, "fusion_lon": 0.0, "is_disabled": 0}, {"rental_uris": {"android": "https://dc.lft.to/lastmile_qr_scan", "ios": "https://dc.lft.to/lastmile_qr_scan"}, "type": "electric_scooter", "lon": -76.983612, "name": "28748844e7d2af2a041a58c76eac1ca7", "bike_id": "28748844e7d2af2a041a58c76eac1ca7", "fusion_lat": 0.0, "is_reserved": 0, "lat": 38.86479383333333, "fusion_lon": 0.0, "is_disabled": 0}, {"rental_uris": {"android": "https://dc.lft.to/lastmile_qr_scan", "ios": "https://dc.lft.to/lastmile_qr_scan"}, "type": "electric_scooter", "lon": -77.0402955, "name": "e7754164e22f373bf98247bf709409e9", "bike_id": "e7754164e22f373bf98247bf709409e9", "fusion_lat": 0.0, "is_reserved": 0, "lat": 38.92376083333333, "fusion_lon": 0.0, "is_disabled": 0}, {"rental_uris": {"android": "https://dc.lft.to/lastmile_qr_scan", "ios": "https://dc.lft.to/lastmile_qr_scan"}, "type": "electric_scooter", "lon": -77.0406965, "name": "e9edf86868fbfc2856fc71ffb7e24f05", "bike_id": "e9edf86868fbfc2856fc71ffb7e24f05", "fusion_lat": 0.0, "is_reserved": 0, "lat": 38.90505316666667, "fusion_lon": 0.0, "is_disabled": 0}, {"rental_uris": {"android": "https://dc.lft.to/lastmile_qr_scan", "ios": "https://dc.lft.to/lastmile_qr_scan"}, "type": "electric_bike", "lon": -76.99768683333333, "name": "04398dd19142e91859411a40dfac7ebb", "bike_id": "04398dd19142e91859411a40dfac7ebb", "fusion_lat": 0.0, "is_reserved": 0, "lat": 39.005906833333334, "fusion_lon": 0.0, "is_disabled": 0}, {"rental_uris": {"android": "https://dc.lft.to/lastmile_qr_scan", "ios": "https://dc.lft.to/lastmile_qr_scan"}, "type": "electric_scooter", "lon": -77.03387733333334, "name": "13ddf4c9779370b486c3b97b04fed79c", "bike_id": "13ddf4c9779370b486c3b97b04fed79c", "fusion_lat": 0.0, "is_reserved": 0, "lat": 38.90973983333333, "fusion_lon": 0.0, "is_disabled": 0}, {"rental_uris": {"android": "https://dc.lft.to/lastmile_qr_scan", "ios": "https://dc.lft.to/lastmile_qr_scan"}, "type": "electric_scooter", "lon": -76.993354, "name": "5adc559e353c02879b7c10b0ac11b1a2", "bike_id": "5adc559e353c02879b7c10b0ac11b1a2", "fusion_lat": 0.0, "is_reserved": 0, "lat": 38.87653366666667, "fusion_lon": 0.0, "is_disabled": 0}, {"rental_uris": {"android": "https://dc.lft.to/lastmile_qr_scan", "ios": "https://dc.lft.to/lastmile_qr_scan"}, "type": "electric_bike", "lon": -77.114317, "name": "d7ff04f0e001329ef1a9b4c4e93095c6", "bike_id": "d7ff04f0e001329ef1a9b4c4e93095c6", "fusion_lat": 0.0, "is_reserved": 0, "lat": 38.85246266666667, "fusion_lon": 0.0, "is_disabled": 0}, {"rental_uris": {"android": "https://dc.lft.to/lastmile_qr_scan", "ios": "https://dc.lft.to/lastmile_qr_scan"}, "type": "electric_scooter", "lon": -76.9909585, "name": "abaebe9f5bb87c82e1c112e520f46ad9", "bike_id": "abaebe9f5bb87c82e1c112e520f46ad9", "fusion_lat": 0.0, "is_reserved": 0, "lat": 38.86356133333334, "fusion_lon": 0.0, "is_disabled": 0}, {"rental_uris": {"android": "https://dc.lft.to/lastmile_qr_scan", "ios": "https://dc.lft.to/lastmile_qr_scan"}, "type": "electric_scooter", "lon": -77.0362305, "name": "7ffd30ee462ddf69b8aa19436f5cf6b1", "bike_id": "7ffd30ee462ddf69b8aa19436f5cf6b1", "fusion_lat": 0.0, "is_reserved": 0, "lat": 38.931582, "fusion_lon": 0.0, "is_disabled": 0}, {"rental_uris": {"android": "https://dc.lft.to/lastmile_qr_scan", "ios": "https://dc.lft.to/lastmile_qr_scan"}, "type": "electric_scooter", "lon": -77.0354585, "name": "21d1530415e0850ac617253744408746", "bike_id": "21d1530415e0850ac617253744408746", "fusion_lat": 0.0, "is_reserved": 0, "lat": 38.90473083333333, "fusion_lon": 0.0, "is_disabled": 0}, {"rental_uris": {"android": "https://dc.lft.to/lastmile_qr_scan", "ios": "https://dc.lft.to/lastmile_qr_scan"}, "type": "electric_scooter", "lon": -77.03190983333333, "name": "c41042d9afb6880c1421a9a19dccd6b8", "bike_id": "c41042d9afb6880c1421a9a19dccd6b8", "fusion_lat": 0.0, "is_reserved": 0, "lat": 38.907326166666664, "fusion_lon": 0.0, "is_disabled": 0}, {"rental_uris": {"android": "https://dc.lft.to/lastmile_qr_scan", "ios": "https://dc.lft.to/lastmile_qr_scan"}, "type": "electric_scooter", "lon": -76.98730883333333, "name": "e5d66e2a71aa6ce48c1042dc6ef88a63", "bike_id": "e5d66e2a71aa6ce48c1042dc6ef88a63", "fusion_lat": 0.0, "is_reserved": 0, "lat": 38.867080333333334, "fusion_lon": 0.0, "is_disabled": 0}, {"rental_uris": {"android": "https://dc.lft.to/lastmile_qr_scan", "ios": "https://dc.lft.to/lastmile_qr_scan"}, "type": "electric_bike", "lon": -77.09245483333333, "name": "9c37a6a185004bdd026f6948801d1059", "bike_id": "9c37a6a185004bdd026f6948801d1059", "fusion_lat": 0.0, "is_reserved": 0, "lat": 38.886277666666665, "fusion_lon": 0.0, "is_disabled": 0}, {"rental_uris": {"android": "https://dc.lft.to/lastmile_qr_scan", "ios": "https://dc.lft.to/lastmile_qr_scan"}, "type": "electric_scooter", "lon": -77.02763133333333, "name": "acf24a7dccff2e82e6c797917d34edf7", "bike_id": "acf24a7dccff2e82e6c797917d34edf7", "fusion_lat": 0.0, "is_reserved": 0, "lat": 38.953940833333334, "fusion_lon": 0.0, "is_disabled": 0}, {"rental_uris": {"android": "https://dc.lft.to/lastmile_qr_scan", "ios": "https://dc.lft.to/lastmile_qr_scan"}, "type": "electric_scooter", "lon": -77.023517, "name": "a64219f063a3beb22714cc9125059e54", "bike_id": "a64219f063a3beb22714cc9125059e54", "fusion_lat": 0.0, "is_reserved": 0, "lat": 38.922604166666666, "fusion_lon": 0.0, "is_disabled": 0}, {"rental_uris": {"android": "https://dc.lft.to/lastmile_qr_scan", "ios": "https://dc.lft.to/lastmile_qr_scan"}, "type": "electric_bike", "lon": -76.952044, "name": "3ce45717aca63c30c9af56827ecca9f9", "bike_id": "3ce45717aca63c30c9af56827ecca9f9", "fusion_lat": 0.0, "is_reserved": 0, "lat": 38.936690166666665, "fusion_lon": 0.0, "is_disabled": 0}, {"rental_uris": {"android": "https://dc.lft.to/lastmile_qr_scan", "ios": "https://dc.lft.to/lastmile_qr_scan"}, "type": "electric_scooter", "lon": -77.0402765, "name": "58da81d52c747134180e7f83676b4207", "bike_id": "58da81d52c747134180e7f83676b4207", "fusion_lat": 0.0, "is_reserved": 0, "lat": 38.903588666666664, "fusion_lon": 0.0, "is_disabled": 0}, {"rental_uris": {"android": "https://dc.lft.to/lastmile_qr_scan", "ios": "https://dc.lft.to/lastmile_qr_scan"}, "type": "electric_bike", "lon": -77.23312033333333, "name": "0a6226b0cf8f3059af3ebfdb9fa124ca", "bike_id": "0a6226b0cf8f3059af3ebfdb9fa124ca", "fusion_lat": 0.0, "is_reserved": 0, "lat": 38.925071833333334, "fusion_lon": 0.0, "is_disabled": 0}, {"rental_uris": {"android": "https://dc.lft.to/lastmile_qr_scan", "ios": "https://dc.lft.to/lastmile_qr_scan"}, "type": "electric_scooter", "lon": -77.0421695, "name": "f37f0d8d1419757bc3ec0cd940aa203b", "bike_id": "f37f0d8d1419757bc3ec0cd940aa203b", "fusion_lat": 0.0, "is_reserved": 0, "lat": 38.903794166666664, "fusion_lon": 0.0, "is_disabled": 0}, {"rental_uris": {"android": "https://dc.lft.to/lastmile_qr_scan", "ios": "https://dc.lft.to/lastmile_qr_scan"}, "type": "electric_scooter", "lon": -76.9541115, "name": "1b17634275fec286b3d042c365d272ca", "bike_id": "1b17634275fec286b3d042c365d272ca", "fusion_lat": 0.0, "is_reserved": 0, "lat": 38.891598333333334, "fusion_lon": 0.0, "is_disabled": 0}, {"rental_uris": {"android": "https://dc.lft.to/lastmile_qr_scan", "ios": "https://dc.lft.to/lastmile_qr_scan"}, "type": "electric_bike", "lon": -77.12266683333333, "name": "60ab2b05524f282b0fbd806b4951ea44", "bike_id": "60ab2b05524f282b0fbd806b4951ea44", "fusion_lat": 0.0, "is_reserved": 0, "lat": 38.897329, "fusion_lon": 0.0, "is_disabled": 0}, {"rental_uris": {"android": "https://dc.lft.to/lastmile_qr_scan", "ios": "https://dc.lft.to/lastmile_qr_scan"}, "type": "electric_scooter", "lon": -77.0257745, "name": "c9984e16a85c0c98648ebf83eddafdf7", "bike_id": "c9984e16a85c0c98648ebf83eddafdf7", "fusion_lat": 0.0, "is_reserved": 0, "lat": 38.925053, "fusion_lon": 0.0, "is_disabled": 0}, {"rental_uris": {"android": "https://dc.lft.to/lastmile_qr_scan", "ios": "https://dc.lft.to/lastmile_qr_scan"}, "type": "electric_scooter", "lon": -77.04004916666666, "name": "cbb1519b8014838886dd11e802a8f5c3", "bike_id": "cbb1519b8014838886dd11e802a8f5c3", "fusion_lat": 0.0, "is_reserved": 0, "lat": 38.913072666666665, "fusion_lon": 0.0, "is_disabled": 0}, {"rental_uris": {"android": "https://dc.lft.to/lastmile_qr_scan", "ios": "https://dc.lft.to/lastmile_qr_scan"}, "type": "electric_scooter", "lon": -77.043901, "name": "d01b52d049e8b1bfee9c46fab698195d", "bike_id": "d01b52d049e8b1bfee9c46fab698195d", "fusion_lat": 0.0, "is_reserved": 0, "lat": 38.9063565, "fusion_lon": 0.0, "is_disabled": 0}, {"rental_uris": {"android": "https://dc.lft.to/lastmile_qr_scan", "ios": "https://dc.lft.to/lastmile_qr_scan"}, "type": "electric_scooter", "lon": -77.07346933333334, "name": "e7f786fc69a4ee4f7a4fd2495f07da53", "bike_id": "e7f786fc69a4ee4f7a4fd2495f07da53", "fusion_lat": 0.0, "is_reserved": 0, "lat": 38.91099583333333, "fusion_lon": 0.0, "is_disabled": 0}, {"rental_uris": {"android": "https://dc.lft.to/lastmile_qr_scan", "ios": "https://dc.lft.to/lastmile_qr_scan"}, "type": "electric_bike", "lon": -76.91659666666666, "name": "0e677cf04a718e5c7b0b502bfd346235", "bike_id": "0e677cf04a718e5c7b0b502bfd346235", "fusion_lat": 0.0, "is_reserved": 0, "lat": 38.86858683333333, "fusion_lon": 0.0, "is_disabled": 0}, {"rental_uris": {"android": "https://dc.lft.to/lastmile_qr_scan", "ios": "https://dc.lft.to/lastmile_qr_scan"}, "type": "electric_scooter", "lon": -77.04812266666667, "name": "06f9a3235e6a20573b81c0e77a48942b", "bike_id": "06f9a3235e6a20573b81c0e77a48942b", "fusion_lat": 0.0, "is_reserved": 0, "lat": 38.911033, "fusion_lon": 0.0, "is_disabled": 0}, {"rental_uris": {"android": "https://dc.lft.to/lastmile_qr_scan", "ios": "https://dc.lft.to/lastmile_qr_scan"}, "type": "electric_scooter", "lon": -77.04201133333333, "name": "05e79aaad94c46a1e82a99372a2f0372", "bike_id": "05e79aaad94c46a1e82a99372a2f0372", "fusion_lat": 0.0, "is_reserved": 0, "lat": 38.8922155, "fusion_lon": 0.0, "is_disabled": 0}, {"rental_uris": {"android": "https://dc.lft.to/lastmile_qr_scan", "ios": "https://dc.lft.to/lastmile_qr_scan"}, "type": "electric_scooter", "lon": -77.00588316666666, "name": "9c0879272e57faa2985766150ad14cbe", "bike_id": "9c0879272e57faa2985766150ad14cbe", "fusion_lat": 0.0, "is_reserved": 0, "lat": 38.905582, "fusion_lon": 0.0, "is_disabled": 0}, {"rental_uris": {"android": "https://dc.lft.to/lastmile_qr_scan", "ios": "https://dc.lft.to/lastmile_qr_scan"}, "type": "electric_scooter", "lon": -77.026381, "name": "5d79b2a75d8ca4b107394a12686a8eea", "bike_id": "5d79b2a75d8ca4b107394a12686a8eea", "fusion_lat": 0.0, "is_reserved": 0, "lat": 38.8811145, "fusion_lon": 0.0, "is_disabled": 0}, {"rental_uris": {"android": "https://dc.lft.to/lastmile_qr_scan", "ios": "https://dc.lft.to/lastmile_qr_scan"}, "type": "electric_scooter", "lon": -76.98823983333334, "name": "da7a540b48b9f6e93c2213e9c62b3fd3", "bike_id": "da7a540b48b9f6e93c2213e9c62b3fd3", "fusion_lat": 0.0, "is_reserved": 0, "lat": 38.88031, "fusion_lon": 0.0, "is_disabled": 0}, {"rental_uris": {"android": "https://dc.lft.to/lastmile_qr_scan", "ios": "https://dc.lft.to/lastmile_qr_scan"}, "type": "electric_scooter", "lon": -77.03464416666667, "name": "8c1c164cef54b9f03461d5a3cd23e91e", "bike_id": "8c1c164cef54b9f03461d5a3cd23e91e", "fusion_lat": 0.0, "is_reserved": 0, "lat": 38.90286866666667, "fusion_lon": 0.0, "is_disabled": 0}, {"rental_uris": {"android": "https://dc.lft.to/lastmile_qr_scan", "ios": "https://dc.lft.to/lastmile_qr_scan"}, "type": "electric_scooter", "lon": -76.9745375, "name": "fac1498a70a303d8d7712b9c53d54083", "bike_id": "fac1498a70a303d8d7712b9c53d54083", "fusion_lat": 0.0, "is_reserved": 0, "lat": 38.86373966666667, "fusion_lon": 0.0, "is_disabled": 0}, {"rental_uris": {"android": "https://dc.lft.to/lastmile_qr_scan", "ios": "https://dc.lft.to/lastmile_qr_scan"}, "type": "electric_scooter", "lon": -77.04227266666666, "name": "134210cf7cd483818286789d37272b71", "bike_id": "134210cf7cd483818286789d37272b71", "fusion_lat": 0.0, "is_reserved": 0, "lat": 38.91105866666667, "fusion_lon": 0.0, "is_disabled": 0}, {"rental_uris": {"android": "https://dc.lft.to/lastmile_qr_scan", "ios": "https://dc.lft.to/lastmile_qr_scan"}, "type": "electric_scooter", "lon": -77.03659383333333, "name": "8622deef9872c6b39d0aa6b119801ce1", "bike_id": "8622deef9872c6b39d0aa6b119801ce1", "fusion_lat": 0.0, "is_reserved": 0, "lat": 38.91861866666667, "fusion_lon": 0.0, "is_disabled": 0}, {"rental_uris": {"android": "https://dc.lft.to/lastmile_qr_scan", "ios": "https://dc.lft.to/lastmile_qr_scan"}, "type": "electric_scooter", "lon": -77.04179116666667, "name": "15773872852b4d7093e54f89481420c4", "bike_id": "15773872852b4d7093e54f89481420c4", "fusion_lat": 0.0, "is_reserved": 0, "lat": 38.920514833333336, "fusion_lon": 0.0, "is_disabled": 0}, {"rental_uris": {"android": "https://dc.lft.to/lastmile_qr_scan", "ios": "https://dc.lft.to/lastmile_qr_scan"}, "type": "electric_scooter", "lon": -77.03312583333333, "name": "365a76228ee94281023f95888b6aeda9", "bike_id": "365a76228ee94281023f95888b6aeda9", "fusion_lat": 0.0, "is_reserved": 0, "lat": 38.898490333333335, "fusion_lon": 0.0, "is_disabled": 0}, {"rental_uris": {"android": "https://dc.lft.to/lastmile_qr_scan", "ios": "https://dc.lft.to/lastmile_qr_scan"}, "type": "electric_scooter", "lon": -77.04482016666667, "name": "caf509d5e5c45735e7b5c94611a4df4d", "bike_id": "caf509d5e5c45735e7b5c94611a4df4d", "fusion_lat": 0.0, "is_reserved": 0, "lat": 38.912384833333334, "fusion_lon": 0.0, "is_disabled": 0}, {"rental_uris": {"android": "https://dc.lft.to/lastmile_qr_scan", "ios": "https://dc.lft.to/lastmile_qr_scan"}, "type": "electric_scooter", "lon": -77.02195433333333, "name": "1e579550d6618b435f79e94f1cf592a5", "bike_id": "1e579550d6618b435f79e94f1cf592a5", "fusion_lat": 0.0, "is_reserved": 0, "lat": 38.897591166666665, "fusion_lon": 0.0, "is_disabled": 0}, {"rental_uris": {"android": "https://dc.lft.to/lastmile_qr_scan", "ios": "https://dc.lft.to/lastmile_qr_scan"}, "type": "electric_scooter", "lon": -76.99028883333334, "name": "f314f43a8874cdd7fdb55df7f36b406d", "bike_id": "f314f43a8874cdd7fdb55df7f36b406d", "fusion_lat": 0.0, "is_reserved": 0, "lat": 38.86066983333333, "fusion_lon": 0.0, "is_disabled": 0}, {"rental_uris": {"android": "https://dc.lft.to/lastmile_qr_scan", "ios": "https://dc.lft.to/lastmile_qr_scan"}, "type": "electric_scooter", "lon": -77.01907516666667, "name": "15475f3a969f4cafcb70de064da52f30", "bike_id": "15475f3a969f4cafcb70de064da52f30", "fusion_lat": 0.0, "is_reserved": 0, "lat": 38.92340766666667, "fusion_lon": 0.0, "is_disabled": 0}, {"rental_uris": {"android": "https://dc.lft.to/lastmile_qr_scan", "ios": "https://dc.lft.to/lastmile_qr_scan"}, "type": "electric_scooter", "lon": -77.01443483333334, "name": "b7770820f36e9a1ddce40b830183c358", "bike_id": "b7770820f36e9a1ddce40b830183c358", "fusion_lat": 0.0, "is_reserved": 0, "lat": 38.87781, "fusion_lon": 0.0, "is_disabled": 0}, {"rental_uris": {"android": "https://dc.lft.to/lastmile_qr_scan", "ios": "https://dc.lft.to/lastmile_qr_scan"}, "type": "electric_bike", "lon": -76.9795165, "name": "d2834cfe6edf250fe600c6b82a767d31", "bike_id": "d2834cfe6edf250fe600c6b82a767d31", "fusion_lat": 0.0, "is_reserved": 0, "lat": 38.89803766666667, "fusion_lon": 0.0, "is_disabled": 0}, {"rental_uris": {"android": "https://dc.lft.to/lastmile_qr_scan", "ios": "https://dc.lft.to/lastmile_qr_scan"}, "type": "electric_scooter", "lon": -77.03482333333334, "name": "700d210ffbfe26852aafd4d137366ca6", "bike_id": "700d210ffbfe26852aafd4d137366ca6", "fusion_lat": 0.0, "is_reserved": 0, "lat": 38.92852166666667, "fusion_lon": 0.0, "is_disabled": 0}, {"rental_uris": {"android": "https://dc.lft.to/lastmile_qr_scan", "ios": "https://dc.lft.to/lastmile_qr_scan"}, "type": "electric_scooter", "lon": -77.02948616666667, "name": "37be142713306c05236c0a0cc998feb9", "bike_id": "37be142713306c05236c0a0cc998feb9", "fusion_lat": 0.0, "is_reserved": 0, "lat": 38.9171885, "fusion_lon": 0.0, "is_disabled": 0}, {"rental_uris": {"android": "https://dc.lft.to/lastmile_qr_scan", "ios": "https://dc.lft.to/lastmile_qr_scan"}, "type": "electric_scooter", "lon": -76.94853316666666, "name": "57bdc47797222bdd9a0ea76629eb06b5", "bike_id": "57bdc47797222bdd9a0ea76629eb06b5", "fusion_lat": 0.0, "is_reserved": 0, "lat": 38.883037333333334, "fusion_lon": 0.0, "is_disabled": 0}, {"rental_uris": {"android": "https://dc.lft.to/lastmile_qr_scan", "ios": "https://dc.lft.to/lastmile_qr_scan"}, "type": "electric_scooter", "lon": -77.03459783333334, "name": "2a24cbd86abc6f8de33f885ca14d00b1", "bike_id": "2a24cbd86abc6f8de33f885ca14d00b1", "fusion_lat": 0.0, "is_reserved": 0, "lat": 38.90519183333333, "fusion_lon": 0.0, "is_disabled": 0}, {"rental_uris": {"android": "https://dc.lft.to/lastmile_qr_scan", "ios": "https://dc.lft.to/lastmile_qr_scan"}, "type": "electric_scooter", "lon": -77.06191316666667, "name": "9ed9345d276bbc778ebf2a0338624b9d", "bike_id": "9ed9345d276bbc778ebf2a0338624b9d", "fusion_lat": 0.0, "is_reserved": 0, "lat": 38.930166166666666, "fusion_lon": 0.0, "is_disabled": 0}, {"rental_uris": {"android": "https://dc.lft.to/lastmile_qr_scan", "ios": "https://dc.lft.to/lastmile_qr_scan"}, "type": "electric_scooter", "lon": -77.03426116666667, "name": "a88a8e0b4d2393f473159bbf18704586", "bike_id": "a88a8e0b4d2393f473159bbf18704586", "fusion_lat": 0.0, "is_reserved": 0, "lat": 38.903816666666664, "fusion_lon": 0.0, "is_disabled": 0}, {"rental_uris": {"android": "https://dc.lft.to/lastmile_qr_scan", "ios": "https://dc.lft.to/lastmile_qr_scan"}, "type": "electric_scooter", "lon": -77.01160716666666, "name": "a714ce4181ca8c8062084b5668a42a6f", "bike_id": "a714ce4181ca8c8062084b5668a42a6f", "fusion_lat": 0.0, "is_reserved": 0, "lat": 38.9030005, "fusion_lon": 0.0, "is_disabled": 0}, {"rental_uris": {"android": "https://dc.lft.to/lastmile_qr_scan", "ios": "https://dc.lft.to/lastmile_qr_scan"}, "type": "electric_scooter", "lon": -76.9875595, "name": "7fd0e7af9e6b665f5839c56c1effeaa6", "bike_id": "7fd0e7af9e6b665f5839c56c1effeaa6", "fusion_lat": 0.0, "is_reserved": 0, "lat": 38.845016, "fusion_lon": 0.0, "is_disabled": 0}, {"rental_uris": {"android": "https://dc.lft.to/lastmile_qr_scan", "ios": "https://dc.lft.to/lastmile_qr_scan"}, "type": "electric_bike", "lon": -77.14322933333334, "name": "b57d8d63c4b93b894d0b81e6968b743a", "bike_id": "b57d8d63c4b93b894d0b81e6968b743a", "fusion_lat": 0.0, "is_reserved": 0, "lat": 39.054516666666665, "fusion_lon": 0.0, "is_disabled": 0}, {"rental_uris": {"android": "https://dc.lft.to/lastmile_qr_scan", "ios": "https://dc.lft.to/lastmile_qr_scan"}, "type": "electric_scooter", "lon": -77.04342233333334, "name": "124bf75c621b1b019e81bebd2ed041d5", "bike_id": "124bf75c621b1b019e81bebd2ed041d5", "fusion_lat": 0.0, "is_reserved": 0, "lat": 38.913750666666665, "fusion_lon": 0.0, "is_disabled": 0}, {"rental_uris": {"android": "https://dc.lft.to/lastmile_qr_scan", "ios": "https://dc.lft.to/lastmile_qr_scan"}, "type": "electric_scooter", "lon": -76.99010816666667, "name": "15e1ec4d4afef32dbb6e42638e8fe9e5", "bike_id": "15e1ec4d4afef32dbb6e42638e8fe9e5", "fusion_lat": 0.0, "is_reserved": 0, "lat": 38.911374333333335, "fusion_lon": 0.0, "is_disabled": 0}, {"rental_uris": {"android": "https://dc.lft.to/lastmile_qr_scan", "ios": "https://dc.lft.to/lastmile_qr_scan"}, "type": "electric_bike", "lon": -77.02420566666666, "name": "262731dba0f8471bbba768f242fbffec", "bike_id": "262731dba0f8471bbba768f242fbffec", "fusion_lat": 0.0, "is_reserved": 0, "lat": 38.949071, "fusion_lon": 0.0, "is_disabled": 0}, {"rental_uris": {"android": "https://dc.lft.to/lastmile_qr_scan", "ios": "https://dc.lft.to/lastmile_qr_scan"}, "type": "electric_bike", "lon": -76.911266, "name": "1f84757e79a07fe555545580dc8bc848", "bike_id": "1f84757e79a07fe555545580dc8bc848", "fusion_lat": 0.0, "is_reserved": 0, "lat": 39.010350333333335, "fusion_lon": 0.0, "is_disabled": 0}, {"rental_uris": {"android": "https://dc.lft.to/lastmile_qr_scan", "ios": "https://dc.lft.to/lastmile_qr_scan"}, "type": "electric_scooter", "lon": -77.01037883333333, "name": "f89b38b13de942aec4a79202e3df628e", "bike_id": "f89b38b13de942aec4a79202e3df628e", "fusion_lat": 0.0, "is_reserved": 0, "lat": 38.88447516666667, "fusion_lon": 0.0, "is_disabled": 0}, {"rental_uris": {"android": "https://dc.lft.to/lastmile_qr_scan", "ios": "https://dc.lft.to/lastmile_qr_scan"}, "type": "electric_scooter", "lon": -76.9790745, "name": "f14d2a705eb62d25073b067e94012e33", "bike_id": "f14d2a705eb62d25073b067e94012e33", "fusion_lat": 0.0, "is_reserved": 0, "lat": 38.903878666666664, "fusion_lon": 0.0, "is_disabled": 0}, {"rental_uris": {"android": "https://dc.lft.to/lastmile_qr_scan", "ios": "https://dc.lft.to/lastmile_qr_scan"}, "type": "electric_scooter", "lon": -77.0135455, "name": "48d7606eabfb48640f7c84732d3473ba", "bike_id": "48d7606eabfb48640f7c84732d3473ba", "fusion_lat": 0.0, "is_reserved": 0, "lat": 38.903830666666664, "fusion_lon": 0.0, "is_disabled": 0}, {"rental_uris": {"android": "https://dc.lft.to/lastmile_qr_scan", "ios": "https://dc.lft.to/lastmile_qr_scan"}, "type": "electric_scooter", "lon": -76.9429635, "name": "3a08548ad4d3e0ee58e7ad578a7a453e", "bike_id": "3a08548ad4d3e0ee58e7ad578a7a453e", "fusion_lat": 0.0, "is_reserved": 0, "lat": 38.890970833333334, "fusion_lon": 0.0, "is_disabled": 0}, {"rental_uris": {"android": "https://dc.lft.to/lastmile_qr_scan", "ios": "https://dc.lft.to/lastmile_qr_scan"}, "type": "electric_scooter", "lon": -77.03860133333333, "name": "30b6a973bbd3011596a36486106cb618", "bike_id": "30b6a973bbd3011596a36486106cb618", "fusion_lat": 0.0, "is_reserved": 0, "lat": 38.911931833333334, "fusion_lon": 0.0, "is_disabled": 0}, {"rental_uris": {"android": "https://dc.lft.to/lastmile_qr_scan", "ios": "https://dc.lft.to/lastmile_qr_scan"}, "type": "electric_scooter", "lon": -77.03179266666666, "name": "7c6fd38e1a0bd7fef1652e9463667ec7", "bike_id": "7c6fd38e1a0bd7fef1652e9463667ec7", "fusion_lat": 0.0, "is_reserved": 0, "lat": 38.9188905, "fusion_lon": 0.0, "is_disabled": 0}, {"rental_uris": {"android": "https://dc.lft.to/lastmile_qr_scan", "ios": "https://dc.lft.to/lastmile_qr_scan"}, "type": "electric_scooter", "lon": -77.02982983333334, "name": "a50a23b7cafdcb4adc32563d8c62eac6", "bike_id": "a50a23b7cafdcb4adc32563d8c62eac6", "fusion_lat": 0.0, "is_reserved": 0, "lat": 38.9003875, "fusion_lon": 0.0, "is_disabled": 0}, {"rental_uris": {"android": "https://dc.lft.to/lastmile_qr_scan", "ios": "https://dc.lft.to/lastmile_qr_scan"}, "type": "electric_scooter", "lon": -76.99959616666666, "name": "015f3ce5b75173241a17d77a9cb1cf23", "bike_id": "015f3ce5b75173241a17d77a9cb1cf23", "fusion_lat": 0.0, "is_reserved": 0, "lat": 38.88995533333333, "fusion_lon": 0.0, "is_disabled": 0}, {"rental_uris": {"android": "https://dc.lft.to/lastmile_qr_scan", "ios": "https://dc.lft.to/lastmile_qr_scan"}, "type": "electric_scooter", "lon": -77.041609, "name": "1a61b5db4977f9ca8115624373fc2a91", "bike_id": "1a61b5db4977f9ca8115624373fc2a91", "fusion_lat": 0.0, "is_reserved": 0, "lat": 38.919859, "fusion_lon": 0.0, "is_disabled": 0}, {"rental_uris": {"android": "https://dc.lft.to/lastmile_qr_scan", "ios": "https://dc.lft.to/lastmile_qr_scan"}, "type": "electric_scooter", "lon": -77.001463, "name": "d497508100dcfa07e365daba57eb40ce", "bike_id": "d497508100dcfa07e365daba57eb40ce", "fusion_lat": 0.0, "is_reserved": 0, "lat": 38.90030083333333, "fusion_lon": 0.0, "is_disabled": 0}, {"rental_uris": {"android": "https://dc.lft.to/lastmile_qr_scan", "ios": "https://dc.lft.to/lastmile_qr_scan"}, "type": "electric_scooter", "lon": -77.04990116666667, "name": "51a65d1ea71b90e3e876f7bb67dc5353", "bike_id": "51a65d1ea71b90e3e876f7bb67dc5353", "fusion_lat": 0.0, "is_reserved": 0, "lat": 38.89729966666667, "fusion_lon": 0.0, "is_disabled": 0}, {"rental_uris": {"android": "https://dc.lft.to/lastmile_qr_scan", "ios": "https://dc.lft.to/lastmile_qr_scan"}, "type": "electric_scooter", "lon": -77.03189516666667, "name": "d6f03e62d10349efa2312ae3367ace07", "bike_id": "d6f03e62d10349efa2312ae3367ace07", "fusion_lat": 0.0, "is_reserved": 0, "lat": 38.89252966666667, "fusion_lon": 0.0, "is_disabled": 0}, {"rental_uris": {"android": "https://dc.lft.to/lastmile_qr_scan", "ios": "https://dc.lft.to/lastmile_qr_scan"}, "type": "electric_scooter", "lon": -76.97020683333334, "name": "a5247cad4108aea3eba1a25fe80a4a5a", "bike_id": "a5247cad4108aea3eba1a25fe80a4a5a", "fusion_lat": 0.0, "is_reserved": 0, "lat": 38.920327666666665, "fusion_lon": 0.0, "is_disabled": 0}, {"rental_uris": {"android": "https://dc.lft.to/lastmile_qr_scan", "ios": "https://dc.lft.to/lastmile_qr_scan"}, "type": "electric_bike", "lon": -76.99105133333333, "name": "e6acb71290b4144a41244ce0bd3e5907", "bike_id": "e6acb71290b4144a41244ce0bd3e5907", "fusion_lat": 0.0, "is_reserved": 0, "lat": 38.93371716666667, "fusion_lon": 0.0, "is_disabled": 0}, {"rental_uris": {"android": "https://dc.lft.to/lastmile_qr_scan", "ios": "https://dc.lft.to/lastmile_qr_scan"}, "type": "electric_scooter", "lon": -77.0297905, "name": "4890636425535a74cd4a80fbe3085584", "bike_id": "4890636425535a74cd4a80fbe3085584", "fusion_lat": 0.0, "is_reserved": 0, "lat": 38.92308583333333, "fusion_lon": 0.0, "is_disabled": 0}, {"rental_uris": {"android": "https://dc.lft.to/lastmile_qr_scan", "ios": "https://dc.lft.to/lastmile_qr_scan"}, "type": "electric_scooter", "lon": -77.0208895, "name": "a658a32ef4c94ec8d3c14a3ac4d8f03e", "bike_id": "a658a32ef4c94ec8d3c14a3ac4d8f03e", "fusion_lat": 0.0, "is_reserved": 0, "lat": 38.885088, "fusion_lon": 0.0, "is_disabled": 0}, {"rental_uris": {"android": "https://dc.lft.to/lastmile_qr_scan", "ios": "https://dc.lft.to/lastmile_qr_scan"}, "type": "electric_scooter", "lon": -76.99079216666667, "name": "e677930d82fce3c4f617bb29fe72ac50", "bike_id": "e677930d82fce3c4f617bb29fe72ac50", "fusion_lat": 0.0, "is_reserved": 0, "lat": 38.842811833333336, "fusion_lon": 0.0, "is_disabled": 0}, {"rental_uris": {"android": "https://dc.lft.to/lastmile_qr_scan", "ios": "https://dc.lft.to/lastmile_qr_scan"}, "type": "electric_scooter", "lon": -77.02378333333333, "name": "5a171b48b574a275679ad228eafba275", "bike_id": "5a171b48b574a275679ad228eafba275", "fusion_lat": 0.0, "is_reserved": 0, "lat": 38.901992666666665, "fusion_lon": 0.0, "is_disabled": 0}, {"rental_uris": {"android": "https://dc.lft.to/lastmile_qr_scan", "ios": "https://dc.lft.to/lastmile_qr_scan"}, "type": "electric_scooter", "lon": -77.05133683333334, "name": "111a1fd7a2278a82354e323606b3e480", "bike_id": "111a1fd7a2278a82354e323606b3e480", "fusion_lat": 0.0, "is_reserved": 0, "lat": 38.904046, "fusion_lon": 0.0, "is_disabled": 0}, {"rental_uris": {"android": "https://dc.lft.to/lastmile_qr_scan", "ios": "https://dc.lft.to/lastmile_qr_scan"}, "type": "electric_scooter", "lon": -77.01897266666667, "name": "6a938d692cd54922789b8069c078a622", "bike_id": "6a938d692cd54922789b8069c078a622", "fusion_lat": 0.0, "is_reserved": 0, "lat": 38.939181, "fusion_lon": 0.0, "is_disabled": 0}, {"rental_uris": {"android": "https://dc.lft.to/lastmile_qr_scan", "ios": "https://dc.lft.to/lastmile_qr_scan"}, "type": "electric_bike", "lon": -76.94766783333333, "name": "c3f50a3c71e882b51db26d17a7330a8e", "bike_id": "c3f50a3c71e882b51db26d17a7330a8e", "fusion_lat": 0.0, "is_reserved": 0, "lat": 38.896321666666665, "fusion_lon": 0.0, "is_disabled": 0}, {"rental_uris": {"android": "https://dc.lft.to/lastmile_qr_scan", "ios": "https://dc.lft.to/lastmile_qr_scan"}, "type": "electric_scooter", "lon": -77.02380816666667, "name": "038c18687fe74abaeaf3bf252e1b9222", "bike_id": "038c18687fe74abaeaf3bf252e1b9222", "fusion_lat": 0.0, "is_reserved": 0, "lat": 38.902002333333336, "fusion_lon": 0.0, "is_disabled": 0}, {"rental_uris": {"android": "https://dc.lft.to/lastmile_qr_scan", "ios": "https://dc.lft.to/lastmile_qr_scan"}, "type": "electric_scooter", "lon": -77.03458783333333, "name": "ffa7a4d342d26d223a2afcee50cdf2cf", "bike_id": "ffa7a4d342d26d223a2afcee50cdf2cf", "fusion_lat": 0.0, "is_reserved": 0, "lat": 38.935573166666664, "fusion_lon": 0.0, "is_disabled": 0}, {"rental_uris": {"android": "https://dc.lft.to/lastmile_qr_scan", "ios": "https://dc.lft.to/lastmile_qr_scan"}, "type": "electric_scooter", "lon": -77.02119683333333, "name": "874b908eddfaf2851f16d0db02b7d37c", "bike_id": "874b908eddfaf2851f16d0db02b7d37c", "fusion_lat": 0.0, "is_reserved": 0, "lat": 38.93009033333333, "fusion_lon": 0.0, "is_disabled": 0}, {"rental_uris": {"android": "https://dc.lft.to/lastmile_qr_scan", "ios": "https://dc.lft.to/lastmile_qr_scan"}, "type": "electric_scooter", "lon": -77.00594066666666, "name": "5aaae80daa0de156b96f3fb5e0c10597", "bike_id": "5aaae80daa0de156b96f3fb5e0c10597", "fusion_lat": 0.0, "is_reserved": 0, "lat": 38.88518533333333, "fusion_lon": 0.0, "is_disabled": 0}, {"rental_uris": {"android": "https://dc.lft.to/lastmile_qr_scan", "ios": "https://dc.lft.to/lastmile_qr_scan"}, "type": "electric_bike", "lon": -77.05115416666666, "name": "626a81295830bc38801c13404bd4c0ce", "bike_id": "626a81295830bc38801c13404bd4c0ce", "fusion_lat": 0.0, "is_reserved": 0, "lat": 38.94552616666667, "fusion_lon": 0.0, "is_disabled": 0}, {"rental_uris": {"android": "https://dc.lft.to/lastmile_qr_scan", "ios": "https://dc.lft.to/lastmile_qr_scan"}, "type": "electric_scooter", "lon": -77.043519, "name": "a9c45d91970c54618a2e225bbe82bd9a", "bike_id": "a9c45d91970c54618a2e225bbe82bd9a", "fusion_lat": 0.0, "is_reserved": 0, "lat": 38.91048833333333, "fusion_lon": 0.0, "is_disabled": 0}, {"rental_uris": {"android": "https://dc.lft.to/lastmile_qr_scan", "ios": "https://dc.lft.to/lastmile_qr_scan"}, "type": "electric_scooter", "lon": -77.04319066666666, "name": "300d134cf3a8895f602ba083091848a8", "bike_id": "300d134cf3a8895f602ba083091848a8", "fusion_lat": 0.0, "is_reserved": 0, "lat": 38.903669666666666, "fusion_lon": 0.0, "is_disabled": 0}, {"rental_uris": {"android": "https://dc.lft.to/lastmile_qr_scan", "ios": "https://dc.lft.to/lastmile_qr_scan"}, "type": "electric_scooter", "lon": -77.0387965, "name": "0f6389cc362dda7b8d89f73ec1c60548", "bike_id": "0f6389cc362dda7b8d89f73ec1c60548", "fusion_lat": 0.0, "is_reserved": 0, "lat": 38.934291, "fusion_lon": 0.0, "is_disabled": 0}, {"rental_uris": {"android": "https://dc.lft.to/lastmile_qr_scan", "ios": "https://dc.lft.to/lastmile_qr_scan"}, "type": "electric_scooter", "lon": -77.05016166666667, "name": "b9a70d6209653dc9c4e992b519a46600", "bike_id": "b9a70d6209653dc9c4e992b519a46600", "fusion_lat": 0.0, "is_reserved": 0, "lat": 38.90759933333333, "fusion_lon": 0.0, "is_disabled": 0}, {"rental_uris": {"android": "https://dc.lft.to/lastmile_qr_scan", "ios": "https://dc.lft.to/lastmile_qr_scan"}, "type": "electric_scooter", "lon": -77.009149, "name": "890ea49d9b38bc70633f0c0e64411587", "bike_id": "890ea49d9b38bc70633f0c0e64411587", "fusion_lat": 0.0, "is_reserved": 0, "lat": 38.898726, "fusion_lon": 0.0, "is_disabled": 0}, {"rental_uris": {"android": "https://dc.lft.to/lastmile_qr_scan", "ios": "https://dc.lft.to/lastmile_qr_scan"}, "type": "electric_scooter", "lon": -77.024771, "name": "c2536f01d740777b5b209324864ae0e0", "bike_id": "c2536f01d740777b5b209324864ae0e0", "fusion_lat": 0.0, "is_reserved": 0, "lat": 38.906437333333336, "fusion_lon": 0.0, "is_disabled": 0}, {"rental_uris": {"android": "https://dc.lft.to/lastmile_qr_scan", "ios": "https://dc.lft.to/lastmile_qr_scan"}, "type": "electric_scooter", "lon": -77.06789216666667, "name": "296a2e23c29e67b5c00a871086d82c38", "bike_id": "296a2e23c29e67b5c00a871086d82c38", "fusion_lat": 0.0, "is_reserved": 0, "lat": 38.910728666666664, "fusion_lon": 0.0, "is_disabled": 0}, {"rental_uris": {"android": "https://dc.lft.to/lastmile_qr_scan", "ios": "https://dc.lft.to/lastmile_qr_scan"}, "type": "electric_scooter", "lon": -77.03203316666666, "name": "550fdbe55e1106bb3f7f457f7fa6e5c6", "bike_id": "550fdbe55e1106bb3f7f457f7fa6e5c6", "fusion_lat": 0.0, "is_reserved": 0, "lat": 38.91678866666667, "fusion_lon": 0.0, "is_disabled": 0}, {"rental_uris": {"android": "https://dc.lft.to/lastmile_qr_scan", "ios": "https://dc.lft.to/lastmile_qr_scan"}, "type": "electric_scooter", "lon": -77.018988, "name": "778d64262aad318e9859c5ddd633c05a", "bike_id": "778d64262aad318e9859c5ddd633c05a", "fusion_lat": 0.0, "is_reserved": 0, "lat": 38.9234835, "fusion_lon": 0.0, "is_disabled": 0}, {"rental_uris": {"android": "https://dc.lft.to/lastmile_qr_scan", "ios": "https://dc.lft.to/lastmile_qr_scan"}, "type": "electric_scooter", "lon": -77.01601183333334, "name": "febbd20ecfee9b850bda638e70f90256", "bike_id": "febbd20ecfee9b850bda638e70f90256", "fusion_lat": 0.0, "is_reserved": 0, "lat": 38.89344633333333, "fusion_lon": 0.0, "is_disabled": 0}, {"rental_uris": {"android": "https://dc.lft.to/lastmile_qr_scan", "ios": "https://dc.lft.to/lastmile_qr_scan"}, "type": "electric_scooter", "lon": -77.02965533333334, "name": "b8118e84b4730cb2d37d3e75d00d154a", "bike_id": "b8118e84b4730cb2d37d3e75d00d154a", "fusion_lat": 0.0, "is_reserved": 0, "lat": 38.92915816666667, "fusion_lon": 0.0, "is_disabled": 0}, {"rental_uris": {"android": "https://dc.lft.to/lastmile_qr_scan", "ios": "https://dc.lft.to/lastmile_qr_scan"}, "type": "electric_scooter", "lon": -77.00336583333333, "name": "c8796fcc5a9137ac2abbecb8d92e2c9f", "bike_id": "c8796fcc5a9137ac2abbecb8d92e2c9f", "fusion_lat": 0.0, "is_reserved": 0, "lat": 38.89356083333333, "fusion_lon": 0.0, "is_disabled": 0}, {"rental_uris": {"android": "https://dc.lft.to/lastmile_qr_scan", "ios": "https://dc.lft.to/lastmile_qr_scan"}, "type": "electric_scooter", "lon": -77.02552533333333, "name": "334e81b91b8b29c40292205a1de5e3e7", "bike_id": "334e81b91b8b29c40292205a1de5e3e7", "fusion_lat": 0.0, "is_reserved": 0, "lat": 38.916332, "fusion_lon": 0.0, "is_disabled": 0}, {"rental_uris": {"android": "https://dc.lft.to/lastmile_qr_scan", "ios": "https://dc.lft.to/lastmile_qr_scan"}, "type": "electric_scooter", "lon": -77.02424433333333, "name": "f7e9b4828ec3c13092306d573cc67f3b", "bike_id": "f7e9b4828ec3c13092306d573cc67f3b", "fusion_lat": 0.0, "is_reserved": 0, "lat": 38.922486666666664, "fusion_lon": 0.0, "is_disabled": 0}, {"rental_uris": {"android": "https://dc.lft.to/lastmile_qr_scan", "ios": "https://dc.lft.to/lastmile_qr_scan"}, "type": "electric_scooter", "lon": -77.0216245, "name": "379ea0656ce8e6caca136f6b30508478", "bike_id": "379ea0656ce8e6caca136f6b30508478", "fusion_lat": 0.0, "is_reserved": 0, "lat": 38.92613583333333, "fusion_lon": 0.0, "is_disabled": 0}, {"rental_uris": {"android": "https://dc.lft.to/lastmile_qr_scan", "ios": "https://dc.lft.to/lastmile_qr_scan"}, "type": "electric_scooter", "lon": -77.024811, "name": "648d4400a96d01d813fd0e967b02692c", "bike_id": "648d4400a96d01d813fd0e967b02692c", "fusion_lat": 0.0, "is_reserved": 0, "lat": 38.938749666666666, "fusion_lon": 0.0, "is_disabled": 0}, {"rental_uris": {"android": "https://dc.lft.to/lastmile_qr_scan", "ios": "https://dc.lft.to/lastmile_qr_scan"}, "type": "electric_scooter", "lon": -77.038753, "name": "06f9d133c6c47128cbbbcaef49076292", "bike_id": "06f9d133c6c47128cbbbcaef49076292", "fusion_lat": 0.0, "is_reserved": 0, "lat": 38.91408883333333, "fusion_lon": 0.0, "is_disabled": 0}, {"rental_uris": {"android": "https://dc.lft.to/lastmile_qr_scan", "ios": "https://dc.lft.to/lastmile_qr_scan"}, "type": "electric_bike", "lon": -77.10029533333334, "name": "48d98c49c7043495a0b45c7110734ffa", "bike_id": "48d98c49c7043495a0b45c7110734ffa", "fusion_lat": 0.0, "is_reserved": 0, "lat": 38.990609166666665, "fusion_lon": 0.0, "is_disabled": 0}, {"rental_uris": {"android": "https://dc.lft.to/lastmile_qr_scan", "ios": "https://dc.lft.to/lastmile_qr_scan"}, "type": "electric_scooter", "lon": -77.04350933333333, "name": "24493de42750993d63d4a5ce0a1fb941", "bike_id": "24493de42750993d63d4a5ce0a1fb941", "fusion_lat": 0.0, "is_reserved": 0, "lat": 38.90105033333333, "fusion_lon": 0.0, "is_disabled": 0}, {"rental_uris": {"android": "https://dc.lft.to/lastmile_qr_scan", "ios": "https://dc.lft.to/lastmile_qr_scan"}, "type": "electric_scooter", "lon": -77.02651366666667, "name": "7b0af62b476f66ad357443b21a59ced8", "bike_id": "7b0af62b476f66ad357443b21a59ced8", "fusion_lat": 0.0, "is_reserved": 0, "lat": 38.938647, "fusion_lon": 0.0, "is_disabled": 0}, {"rental_uris": {"android": "https://dc.lft.to/lastmile_qr_scan", "ios": "https://dc.lft.to/lastmile_qr_scan"}, "type": "electric_scooter", "lon": -77.03046233333333, "name": "9fd7b0d5f7309bb1cd672b75975c42d1", "bike_id": "9fd7b0d5f7309bb1cd672b75975c42d1", "fusion_lat": 0.0, "is_reserved": 0, "lat": 38.884078333333335, "fusion_lon": 0.0, "is_disabled": 0}, {"rental_uris": {"android": "https://dc.lft.to/lastmile_qr_scan", "ios": "https://dc.lft.to/lastmile_qr_scan"}, "type": "electric_scooter", "lon": -77.0321065, "name": "07141b42684d5b6d4eabb0c84b92ff54", "bike_id": "07141b42684d5b6d4eabb0c84b92ff54", "fusion_lat": 0.0, "is_reserved": 0, "lat": 38.911970833333335, "fusion_lon": 0.0, "is_disabled": 0}, {"rental_uris": {"android": "https://dc.lft.to/lastmile_qr_scan", "ios": "https://dc.lft.to/lastmile_qr_scan"}, "type": "electric_scooter", "lon": -77.0317775, "name": "32100a34314af7bcf1b5579b945786d8", "bike_id": "32100a34314af7bcf1b5579b945786d8", "fusion_lat": 0.0, "is_reserved": 0, "lat": 38.91892883333333, "fusion_lon": 0.0, "is_disabled": 0}, {"rental_uris": {"android": "https://dc.lft.to/lastmile_qr_scan", "ios": "https://dc.lft.to/lastmile_qr_scan"}, "type": "electric_scooter", "lon": -76.985697, "name": "a20813771f0d8d8f9f05373bb14c4a29", "bike_id": "a20813771f0d8d8f9f05373bb14c4a29", "fusion_lat": 0.0, "is_reserved": 0, "lat": 38.8988985, "fusion_lon": 0.0, "is_disabled": 0}, {"rental_uris": {"android": "https://dc.lft.to/lastmile_qr_scan", "ios": "https://dc.lft.to/lastmile_qr_scan"}, "type": "electric_bike", "lon": -77.04899983333334, "name": "58b9158286ab6e4429b8d62b2aac100d", "bike_id": "58b9158286ab6e4429b8d62b2aac100d", "fusion_lat": 0.0, "is_reserved": 0, "lat": 38.87493216666667, "fusion_lon": 0.0, "is_disabled": 0}, {"rental_uris": {"android": "https://dc.lft.to/lastmile_qr_scan", "ios": "https://dc.lft.to/lastmile_qr_scan"}, "type": "electric_scooter", "lon": -77.022021, "name": "aa0e2ab6e28b28ec10aafc48f09545e7", "bike_id": "aa0e2ab6e28b28ec10aafc48f09545e7", "fusion_lat": 0.0, "is_reserved": 0, "lat": 38.8951745, "fusion_lon": 0.0, "is_disabled": 0}, {"rental_uris": {"android": "https://dc.lft.to/lastmile_qr_scan", "ios": "https://dc.lft.to/lastmile_qr_scan"}, "type": "electric_scooter", "lon": -77.02626766666667, "name": "b1ed6d6f64fbaadf1ffd21cd405be4ae", "bike_id": "b1ed6d6f64fbaadf1ffd21cd405be4ae", "fusion_lat": 0.0, "is_reserved": 0, "lat": 38.8873935, "fusion_lon": 0.0, "is_disabled": 0}, {"rental_uris": {"android": "https://dc.lft.to/lastmile_qr_scan", "ios": "https://dc.lft.to/lastmile_qr_scan"}, "type": "electric_scooter", "lon": -76.98623133333334, "name": "be6484e883732c8e06f9083e2bfb8653", "bike_id": "be6484e883732c8e06f9083e2bfb8653", "fusion_lat": 0.0, "is_reserved": 0, "lat": 38.905832333333336, "fusion_lon": 0.0, "is_disabled": 0}, {"rental_uris": {"android": "https://dc.lft.to/lastmile_qr_scan", "ios": "https://dc.lft.to/lastmile_qr_scan"}, "type": "electric_scooter", "lon": -77.026736, "name": "f137c3bc57efc4f745af87a18f378a81", "bike_id": "f137c3bc57efc4f745af87a18f378a81", "fusion_lat": 0.0, "is_reserved": 0, "lat": 38.898434333333334, "fusion_lon": 0.0, "is_disabled": 0}, {"rental_uris": {"android": "https://dc.lft.to/lastmile_qr_scan", "ios": "https://dc.lft.to/lastmile_qr_scan"}, "type": "electric_scooter", "lon": -77.04158133333334, "name": "23d76f8da9f85a02c2b345dbe25f4790", "bike_id": "23d76f8da9f85a02c2b345dbe25f4790", "fusion_lat": 0.0, "is_reserved": 0, "lat": 38.9148935, "fusion_lon": 0.0, "is_disabled": 0}, {"rental_uris": {"android": "https://dc.lft.to/lastmile_qr_scan", "ios": "https://dc.lft.to/lastmile_qr_scan"}, "type": "electric_scooter", "lon": -77.02605433333333, "name": "139df47ceaf690e7ab7c86dc213e52b3", "bike_id": "139df47ceaf690e7ab7c86dc213e52b3", "fusion_lat": 0.0, "is_reserved": 0, "lat": 38.91612766666667, "fusion_lon": 0.0, "is_disabled": 0},