{"data": {"bikes": [{"bike_id": "74c5b44169451d9c7813c6fa9db1c183", "fusion_lon": 0.0, "name": "74c5b44169451d9c7813c6fa9db1c183", "lat": 38.9115385, "is_disabled": 0, "is_reserved": 0, "lon": -77.023822, "type": "electric_scooter", "fusion_lat": 0.0, "rental_uris": {"android": "https://dc.lft.to/lastmile_qr_scan", "ios": "https://dc.lft.to/lastmile_qr_scan"}}, {"bike_id": "5811496c362a490bea4cf56cf5859b0e", "fusion_lon": 0.0, "name": "5811496c362a490bea4cf56cf5859b0e", "lat": 38.918657833333334, "is_disabled": 0, "is_reserved": 0, "lon": -77.03190183333334, "type": "electric_scooter", "fusion_lat": 0.0, "rental_uris": {"android": "https://dc.lft.to/lastmile_qr_scan", "ios": "https://dc.lft.to/lastmile_qr_scan"}}, {"bike_id": "d423aab489061bcfa573c126948bc806", "fusion_lon": 0.0, "name": "d423aab489061bcfa573c126948bc806", "lat": 38.909513, "is_disabled": 0, "is_reserved": 0, "lon": -77.0405075, "type": "electric_scooter", "fusion_lat": 0.0, "rental_uris": {"android": "https://dc.lft.to/lastmile_qr_scan", "ios": "https://dc.lft.to/lastmile_qr_scan"}}, {"bike_id": "8185a489d6c002a7e8d3132e6585e906", "fusion_lon": 0.0, "name": "8185a489d6c002a7e8d3132e6585e906", "lat": 38.92209283333333, "is_disabled": 0, "is_reserved": 0, "lon": -77.02098733333334, "type": "electric_scooter", "fusion_lat": 0.0, "rental_uris": {"android": "https://dc.lft.to/lastmile_qr_scan", "ios": "https://dc.lft.to/lastmile_qr_scan"}}, {"bike_id": "a93ad4c3a05b1b9e96dd241aec09f717", "fusion_lon": 0.0, "name": "a93ad4c3a05b1b9e96dd241aec09f717", "lat": 38.956356666666665, "is_disabled": 0, "is_reserved": 0, "lon": -77.03306766666667, "type": "electric_scooter", "fusion_lat": 0.0, "rental_uris": {"android": "https://dc.lft.to/lastmile_qr_scan", "ios": "https://dc.lft.to/lastmile_qr_scan"}}, {"bike_id": "30f1ebd54a1f2cfa8b7d5d094c86188f", "fusion_lon": 0.0, "name": "30f1ebd54a1f2cfa8b7d5d094c86188f", "lat": 38.9086775, "is_disabled": 0, "is_reserved": 0, "lon": -76.99959833333334, "type": "electric_scooter", "fusion_lat": 0.0, "rental_uris": {"android": "https://dc.lft.to/lastmile_qr_scan", "ios": "https://dc.lft.to/lastmile_qr_scan"}}, {"bike_id": "5c0c432b49776bfdb72a4dacb5d1491a", "fusion_lon": 0.0, "name": "5c0c432b49776bfdb72a4dacb5d1491a", "lat": 38.902598833333336, "is_disabled": 0, "is_reserved": 0, "lon": -77.00886266666667, "type": "electric_scooter", "fusion_lat": 0.0, "rental_uris": {"android": "https://dc.lft.to/lastmile_qr_scan", "ios": "https://dc.lft.to/lastmile_qr_scan"}}, {"bike_id": "17a3eb199c7d9efd4c639489725a49fc", "fusion_lon": 0.0, "name": "17a3eb199c7d9efd4c639489725a49fc", "lat": 38.89995, "is_disabled": 0, "is_reserved": 0, "lon": -77.0232185, "type": "electric_scooter", "fusion_lat": 0.0, "rental_uris": {"android": "https://dc.lft.to/lastmile_qr_scan", "ios": "https://dc.lft.to/lastmile_qr_scan"}}, {"bike_id": "fe496abb5e4e7b02c486f0a79aac2e1b", "fusion_lon": 0.0, "name": "fe496abb5e4e7b02c486f0a79aac2e1b", "lat": 38.91816083333333, "is_disabled": 0, "is_reserved": 0, "lon": -77.02477133333333, "type": "electric_scooter", "fusion_lat": 0.0, "rental_uris": {"android": "https://dc.lft.to/lastmile_qr_scan", "ios": "https://dc.lft.to/lastmile_qr_scan"}}, {"bike_id": "53df8ef4898d2a2945d7cafdc2e6b804", "fusion_lon": 0.0, "name": "53df8ef4898d2a2945d7cafdc2e6b804", "lat": 38.9019515, "is_disabled": 0, "is_reserved": 0, "lon": -77.02231366666666, "type": "electric_scooter", "fusion_lat": 0.0, "rental_uris": {"android": "https://dc.lft.to/lastmile_qr_scan", "ios": "https://dc.lft.to/lastmile_qr_scan"}}, {"bike_id": "2135628df0a515d37afd290b653966a1", "fusion_lon": 0.0, "name": "2135628df0a515d37afd290b653966a1", "lat": 38.9419425, "is_disabled": 0, "is_reserved": 0, "lon": -77.038384, "type": "electric_scooter", "fusion_lat": 0.0, "rental_uris": {"android": "https://dc.lft.to/lastmile_qr_scan", "ios": "https://dc.lft.to/lastmile_qr_scan"}}, {"bike_id": "47dbc2fa962190da30330d1ddc2af36d", "fusion_lon": 0.0, "name": "47dbc2fa962190da30330d1ddc2af36d", "lat": 38.89876816666667, "is_disabled": 0, "is_reserved": 0, "lon": -77.05276916666666, "type": "electric_scooter", "fusion_lat": 0.0, "rental_uris": {"android": "https://dc.lft.to/lastmile_qr_scan", "ios": "https://dc.lft.to/lastmile_qr_scan"}}, {"bike_id": "73e09b0dde42a10052e83e78a63c05a4", "fusion_lon": 0.0, "name": "73e09b0dde42a10052e83e78a63c05a4", "lat": 38.91822883333333, "is_disabled": 0, "is_reserved": 0, "lon": -77.01207966666666, "type": "electric_scooter", "fusion_lat": 0.0, "rental_uris": {"android": "https://dc.lft.to/lastmile_qr_scan", "ios": "https://dc.lft.to/lastmile_qr_scan"}}, {"bike_id": "f383eff372b6feab7155faea8311f4ef", "fusion_lon": 0.0, "name": "f383eff372b6feab7155faea8311f4ef", "lat": 38.9367995, "is_disabled": 0, "is_reserved": 0, "lon": -76.960291, "type": "electric_bike", "fusion_lat": 0.0, "rental_uris": {"android": "https://dc.lft.to/lastmile_qr_scan", "ios": "https://dc.lft.to/lastmile_qr_scan"}}, {"bike_id": "6fa4359ff486fc67c170d24969472550", "fusion_lon": 0.0, "name": "6fa4359ff486fc67c170d24969472550", "lat": 38.89544516666667, "is_disabled": 0, "is_reserved": 0, "lon": -76.98214533333334, "type": "electric_scooter", "fusion_lat": 0.0, "rental_uris": {"android": "https://dc.lft.to/lastmile_qr_scan", "ios": "https://dc.lft.to/lastmile_qr_scan"}}, {"bike_id": "9a1d701616854ae65378147c0f3b43da", "fusion_lon": 0.0, "name": "9a1d701616854ae65378147c0f3b43da", "lat": 38.90853666666667, "is_disabled": 0, "is_reserved": 0, "lon": -77.00540466666666, "type": "electric_scooter", "fusion_lat": 0.0, "rental_uris": {"android": "https://dc.lft.to/lastmile_qr_scan", "ios": "https://dc.lft.to/lastmile_qr_scan"}}, {"bike_id": "2742c5a3dbb7fa6439d15e5c0da3f461", "fusion_lon": 0.0, "name": "2742c5a3dbb7fa6439d15e5c0da3f461", "lat": 38.815969333333335, "is_disabled": 0, "is_reserved": 0, "lon": -77.05053966666667, "type": "electric_bike", "fusion_lat": 0.0, "rental_uris": {"android": "https://dc.lft.to/lastmile_qr_scan", "ios": "https://dc.lft.to/lastmile_qr_scan"}}, {"bike_id": "68c53dd27a4d810f6afe9e12d730091b", "fusion_lon": 0.0, "name": "68c53dd27a4d810f6afe9e12d730091b", "lat": 38.90030483333334, "is_disabled": 0, "is_reserved": 0, "lon": -77.03712483333334, "type": "electric_scooter", "fusion_lat": 0.0, "rental_uris": {"android": "https://dc.lft.to/lastmile_qr_scan", "ios": "https://dc.lft.to/lastmile_qr_scan"}}, {"bike_id": "7f31fd88045786fafb25479d2b7b52dd", "fusion_lon": 0.0, "name": "7f31fd88045786fafb25479d2b7b52dd", "lat": 38.897132666666664, "is_disabled": 0, "is_reserved": 0, "lon": -77.0084105, "type": "electric_scooter", "fusion_lat": 0.0, "rental_uris": {"android": "https://dc.lft.to/lastmile_qr_scan", "ios": "https://dc.lft.to/lastmile_qr_scan"}}, {"bike_id": "063e1807f154fe1ab62e79db8419ec2b", "fusion_lon": 0.0, "name": "063e1807f154fe1ab62e79db8419ec2b", "lat": 38.92042083333333, "is_disabled": 0, "is_reserved": 0, "lon": -77.01797166666667, "type": "electric_scooter", "fusion_lat": 0.0, "rental_uris": {"android": "https://dc.lft.to/lastmile_qr_scan", "ios": "https://dc.lft.to/lastmile_qr_scan"}}, {"bike_id": "1c2cb347028d7dfddc1627c8820de812", "fusion_lon": 0.0, "name": "1c2cb347028d7dfddc1627c8820de812", "lat": 38.9029445, "is_disabled": 0, "is_reserved": 0, "lon": -77.03173533333333, "type": "electric_scooter", "fusion_lat": 0.0, "rental_uris": {"android": "https://dc.lft.to/lastmile_qr_scan", "ios": "https://dc.lft.to/lastmile_qr_scan"}}, {"bike_id": "5157eb97376d249ce5d6afadb70acda2", "fusion_lon": 0.0, "name": "5157eb97376d249ce5d6afadb70acda2", "lat": 38.9230705, "is_disabled": 0, "is_reserved": 0, "lon": -77.04115616666667, "type": "electric_scooter", "fusion_lat": 0.0, "rental_uris": {"android": "https://dc.lft.to/lastmile_qr_scan", "ios": "https://dc.lft.to/lastmile_qr_scan"}}, {"bike_id": "81087a72d9c5af303f37a620183b1a13", "fusion_lon": 0.0, "name": "81087a72d9c5af303f37a620183b1a13", "lat": 38.893596, "is_disabled": 0, "is_reserved": 0, "lon": -76.9259465, "type": "electric_scooter", "fusion_lat": 0.0, "rental_uris": {"android": "https://dc.lft.to/lastmile_qr_scan", "ios": "https://dc.lft.to/lastmile_qr_scan"}}, {"bike_id": "cf72180a0430603d5842f5e175a01d33", "fusion_lon": 0.0, "name": "cf72180a0430603d5842f5e175a01d33", "lat": 38.865186666666666, "is_disabled": 0, "is_reserved": 0, "lon": -77.12936833333333, "type": "electric_bike", "fusion_lat": 0.0, "rental_uris": {"android": "https://dc.lft.to/lastmile_qr_scan", "ios": "https://dc.lft.to/lastmile_qr_scan"}}, {"bike_id": "a7f5cf65ba323bb1bfb1a4c8149939d4", "fusion_lon": 0.0, "name": "a7f5cf65ba323bb1bfb1a4c8149939d4", "lat": 38.909506666666665, "is_disabled": 0, "is_reserved": 0, "lon": -76.98537933333333, "type": "electric_scooter", "fusion_lat": 0.0, "rental_uris": {"android": "https://dc.lft.to/lastmile_qr_scan", "ios": "https://dc.lft.to/lastmile_qr_scan"}}, {"bike_id": "718c621b737e4fa5d888d6d2fd5ddc34", "fusion_lon": 0.0, "name": "718c621b737e4fa5d888d6d2fd5ddc34", "lat": 38.82460716666667, "is_disabled": 0, "is_reserved": 0, "lon": -77.00795533333333, "type": "electric_bike", "fusion_lat": 0.0, "rental_uris": {"android": "https://dc.lft.to/lastmile_qr_scan", "ios": "https://dc.lft.to/lastmile_qr_scan"}}, {"bike_id": "4f727b2d291b3e43d896c7c0477c7b73", "fusion_lon": 0.0, "name": "4f727b2d291b3e43d896c7c0477c7b73", "lat": 38.91695466666667, "is_disabled": 0, "is_reserved": 0, "lon": -77.042183, "type": "electric_scooter", "fusion_lat": 0.0, "rental_uris": {"android": "https://dc.lft.to/lastmile_qr_scan", "ios": "https://dc.lft.to/lastmile_qr_scan"}}, {"bike_id": "10e402937d974e99b6dddfbd4c173e34", "fusion_lon": 0.0, "name": "10e402937d974e99b6dddfbd4c173e34", "lat": 38.90585033333333, "is_disabled": 0, "is_reserved": 0, "lon": -77.04083583333333, "type": "electric_scooter", "fusion_lat": 0.0, "rental_uris": {"android": "https://dc.lft.to/lastmile_qr_scan", "ios": "https://dc.lft.to/lastmile_qr_scan"}}, {"bike_id": "3fef91e7e6ecb765f477d4fe098d57c5", "fusion_lon": 0.0, "name": "3fef91e7e6ecb765f477d4fe098d57c5", "lat": 38.923605, "is_disabled": 0, "is_reserved": 0, "lon": -77.050497, "type": "electric_scooter", "fusion_lat": 0.0, "rental_uris": {"android": "https://dc.lft.to/lastmile_qr_scan", "ios": "https://dc.lft.to/lastmile_qr_scan"}}, {"bike_id": "1c5801908b2c49306ee8969ef551bf7f", "fusion_lon": 0.0, "name": "1c5801908b2c49306ee8969ef551bf7f", "lat": 38.89573583333333, "is_disabled": 0, "is_reserved": 0, "lon": -77.02568766666667, "type": "electric_scooter", "fusion_lat": 0.0, "rental_uris": {"android": "https://dc.lft.to/lastmile_qr_scan", "ios": "https://dc.lft.to/lastmile_qr_scan"}}, {"bike_id": "4020dd567051822562ac72b5e2c135a3", "fusion_lon": 0.0, "name": "4020dd567051822562ac72b5e2c135a3", "lat": 38.909832, "is_disabled": 0, "is_reserved": 0, "lon": -77.03466733333333, "type": "electric_scooter", "fusion_lat": 0.0, "rental_uris": {"android": "https://dc.lft.to/lastmile_qr_scan", "ios": "https://dc.lft.to/lastmile_qr_scan"}}, {"bike_id": "3ca5617ee41f646410c13e57d7e5b5f5", "fusion_lon": 0.0, "name": "3ca5617ee41f646410c13e57d7e5b5f5", "lat": 38.9004175, "is_disabled": 0, "is_reserved": 0, "lon": -77.0131195, "type": "electric_scooter", "fusion_lat": 0.0, "rental_uris": {"android": "https://dc.lft.to/lastmile_qr_scan", "ios": "https://dc.lft.to/lastmile_qr_scan"}}, {"bike_id": "6eff48a37610a15549deb8c4cbd21580", "fusion_lon": 0.0, "name": "6eff48a37610a15549deb8c4cbd21580", "lat": 38.8769255, "is_disabled": 0, "is_reserved": 0, "lon": -77.00740133333333, "type": "electric_scooter", "fusion_lat": 0.0, "rental_uris": {"android": "https://dc.lft.to/lastmile_qr_scan", "ios": "https://dc.lft.to/lastmile_qr_scan"}}, {"bike_id": "a611b375536ed5952f8ad64a0ce5700e", "fusion_lon": 0.0, "name": "a611b375536ed5952f8ad64a0ce5700e", "lat": 38.8876625, "is_disabled": 0, "is_reserved": 0, "lon": -76.97753183333333, "type": "electric_scooter", "fusion_lat": 0.0, "rental_uris": {"android": "https://dc.lft.to/lastmile_qr_scan", "ios": "https://dc.lft.to/lastmile_qr_scan"}}, {"bike_id": "85c048084b1104aaa7db2dd3cb3206b2", "fusion_lon": 0.0, "name": "85c048084b1104aaa7db2dd3cb3206b2", "lat": 38.905555166666666, "is_disabled": 0, "is_reserved": 0, "lon": -77.04337933333333, "type": "electric_scooter", "fusion_lat": 0.0, "rental_uris": {"android": "https://dc.lft.to/lastmile_qr_scan", "ios": "https://dc.lft.to/lastmile_qr_scan"}}, {"bike_id": "4b68d3bafed6bb8cb0d1e13faa2fa32e", "fusion_lon": 0.0, "name": "4b68d3bafed6bb8cb0d1e13faa2fa32e", "lat": 38.90021483333334, "is_disabled": 0, "is_reserved": 0, "lon": -77.006901, "type": "electric_scooter", "fusion_lat": 0.0, "rental_uris": {"android": "https://dc.lft.to/lastmile_qr_scan", "ios": "https://dc.lft.to/lastmile_qr_scan"}}, {"bike_id": "299512bf9bb2de0bbc6916586b0d93ce", "fusion_lon": 0.0, "name": "299512bf9bb2de0bbc6916586b0d93ce", "lat": 38.9046685, "is_disabled": 0, "is_reserved": 0, "lon": -77.040907, "type": "electric_scooter", "fusion_lat": 0.0, "rental_uris": {"android": "https://dc.lft.to/lastmile_qr_scan", "ios": "https://dc.lft.to/lastmile_qr_scan"}}, {"bike_id": "71c325d72e6e11fb6369817f591d13af", "fusion_lon": 0.0, "name": "71c325d72e6e11fb6369817f591d13af", "lat": 38.91484766666667, "is_disabled": 0, "is_reserved": 0, "lon": -77.04836166666666, "type": "electric_scooter", "fusion_lat": 0.0, "rental_uris": {"android": "https://dc.lft.to/lastmile_qr_scan", "ios": "https://dc.lft.to/lastmile_qr_scan"}}, {"bike_id": "9e7c411c6a367a72e4bd5f65fbeaea9c", "fusion_lon": 0.0, "name": "9e7c411c6a367a72e4bd5f65fbeaea9c", "lat": 38.949083, "is_disabled": 0, "is_reserved": 0, "lon": -77.066417, "type": "electric_scooter", "fusion_lat": 0.0, "rental_uris": {"android": "https://dc.lft.to/lastmile_qr_scan", "ios": "https://dc.lft.to/lastmile_qr_scan"}}, {"bike_id": "ac1d59249e7a0e242972aedaf4064315", "fusion_lon": 0.0, "name": "ac1d59249e7a0e242972aedaf4064315", "lat": 38.912636666666664, "is_disabled": 0, "is_reserved": 0, "lon": -77.04834866666667, "type": "electric_scooter", "fusion_lat": 0.0, "rental_uris": {"android": "https://dc.lft.to/lastmile_qr_scan", "ios": "https://dc.lft.to/lastmile_qr_scan"}}, {"bike_id": "7ebe816a2480a743285392c7cc77d022", "fusion_lon": 0.0, "name": "7ebe816a2480a743285392c7cc77d022", "lat": 38.9129685, "is_disabled": 0, "is_reserved": 0, "lon": -76.98469616666667, "type": "electric_scooter", "fusion_lat": 0.0, "rental_uris": {"android": "https://dc.lft.to/lastmile_qr_scan", "ios": "https://dc.lft.to/lastmile_qr_scan"}}, {"bike_id": "0fbb869ed081a41f3c05a3eeb83ec6bf", "fusion_lon": 0.0, "name": "0fbb869ed081a41f3c05a3eeb83ec6bf", "lat": 38.8953445, "is_disabled": 0, "is_reserved": 0, "lon": -77.0122595, "type": "electric_scooter", "fusion_lat": 0.0, "rental_uris": {"android": "https://dc.lft.to/lastmile_qr_scan", "ios": "https://dc.lft.to/lastmile_qr_scan"}}, {"bike_id": "b4900b4ad9dfd3616ad4e41f4ceccf0b", "fusion_lon": 0.0, "name": "b4900b4ad9dfd3616ad4e41f4ceccf0b", "lat": 38.902666833333335, "is_disabled": 0, "is_reserved": 0, "lon": -77.034339, "type": "electric_scooter", "fusion_lat": 0.0, "rental_uris": {"android": "https://dc.lft.to/lastmile_qr_scan", "ios": "https://dc.lft.to/lastmile_qr_scan"}}, {"bike_id": "98ae460605893a147aed2006d7750dac", "fusion_lon": 0.0, "name": "98ae460605893a147aed2006d7750dac", "lat": 38.898395, "is_disabled": 0, "is_reserved": 0, "lon": -77.02698716666667, "type": "electric_scooter", "fusion_lat": 0.0, "rental_uris": {"android": "https://dc.lft.to/lastmile_qr_scan", "ios": "https://dc.lft.to/lastmile_qr_scan"}}, {"bike_id": "ebc6e6989f511ea80e73c2f3c8292bab", "fusion_lon": 0.0, "name": "ebc6e6989f511ea80e73c2f3c8292bab", "lat": 38.9050825, "is_disabled": 0, "is_reserved": 0, "lon": -77.051097, "type": "electric_scooter", "fusion_lat": 0.0, "rental_uris": {"android": "https://dc.lft.to/lastmile_qr_scan", "ios": "https://dc.lft.to/lastmile_qr_scan"}}, {"bike_id": "c510a421d8d007d3b33109a90ed9b9c2", "fusion_lon": 0.0, "name": "c510a421d8d007d3b33109a90ed9b9c2", "lat": 38.89966183333333, "is_disabled": 0, "is_reserved": 0, "lon": -77.00945233333333, "type": "electric_scooter", "fusion_lat": 0.0, "rental_uris": {"android": "https://dc.lft.to/lastmile_qr_scan", "ios": "https://dc.lft.to/lastmile_qr_scan"}}, {"bike_id": "895886f3b8f0728dd9b2532730c81824", "fusion_lon": 0.0, "name": "895886f3b8f0728dd9b2532730c81824", "lat": 38.925143166666665, "is_disabled": 0, "is_reserved": 0, "lon": -76.99566433333334, "type": "electric_scooter", "fusion_lat": 0.0, "rental_uris": {"android": "https://dc.lft.to/lastmile_qr_scan", "ios": "https://dc.lft.to/lastmile_qr_scan"}}, {"bike_id": "08ca6607d3582185a3af0a502b1f8ce2", "fusion_lon": 0.0, "name": "08ca6607d3582185a3af0a502b1f8ce2", "lat": 38.8907255, "is_disabled": 0, "is_reserved": 0, "lon": -76.94464, "type": "electric_scooter", "fusion_lat": 0.0, "rental_uris": {"android": "https://dc.lft.to/lastmile_qr_scan", "ios": "https://dc.lft.to/lastmile_qr_scan"}}, {"bike_id": "17c8078ee52549614bdfdcfc219ceac4", "fusion_lon": 0.0, "name": "17c8078ee52549614bdfdcfc219ceac4", "lat": 38.901391, "is_disabled": 0, "is_reserved": 0, "lon": -77.04136433333333, "type": "electric_scooter", "fusion_lat": 0.0, "rental_uris": {"android": "https://dc.lft.to/lastmile_qr_scan", "ios": "https://dc.lft.to/lastmile_qr_scan"}}, {"bike_id": "0ea17a7d437a4be566846478ee2f7639", "fusion_lon": 0.0, "name": "0ea17a7d437a4be566846478ee2f7639", "lat": 38.8668255, "is_disabled": 0, "is_reserved": 0, "lon": -76.985674, "type": "electric_scooter", "fusion_lat": 0.0, "rental_uris": {"android": "https://dc.lft.to/lastmile_qr_scan", "ios": "https://dc.lft.to/lastmile_qr_scan"}}, {"bike_id": "a6d046099b4002ff816c5ae846e3d1a2", "fusion_lon": 0.0, "name": "a6d046099b4002ff816c5ae846e3d1a2", "lat": 38.9095615, "is_disabled": 0, "is_reserved": 0, "lon": -76.99902016666667, "type": "electric_scooter", "fusion_lat": 0.0, "rental_uris": {"android": "https://dc.lft.to/lastmile_qr_scan", "ios": "https://dc.lft.to/lastmile_qr_scan"}}, {"bike_id": "837d95be1d2067541c319d0baad06274", "fusion_lon": 0.0, "name": "837d95be1d2067541c319d0baad06274", "lat": 38.98058416666667, "is_disabled": 0, "is_reserved": 0, "lon": -77.02641216666666, "type": "electric_scooter", "fusion_lat": 0.0, "rental_uris": {"android": "https://dc.lft.to/lastmile_qr_scan", "ios": "https://dc.lft.to/lastmile_qr_scan"}}, {"bike_id": "6f06eaa9dc4ecac45e64444dd450a9fa", "fusion_lon": 0.0, "name": "6f06eaa9dc4ecac45e64444dd450a9fa", "lat": 38.942718, "is_disabled": 0, "is_reserved": 0, "lon": -77.01268783333333, "type": "electric_scooter", "fusion_lat": 0.0, "rental_uris": {"android": "https://dc.lft.to/lastmile_qr_scan", "ios": "https://dc.lft.to/lastmile_qr_scan"}}, {"bike_id": "bb776d1d8b76f637b7567dd4c1a7c89f", "fusion_lon": 0.0, "name": "bb776d1d8b76f637b7567dd4c1a7c89f", "lat": 38.9389615, "is_disabled": 0, "is_reserved": 0, "lon": -77.03309916666667, "type": "electric_scooter", "fusion_lat": 0.0, "rental_uris": {"android": "https://dc.lft.to/lastmile_qr_scan", "ios": "https://dc.lft.to/lastmile_qr_scan"}}, {"bike_id": "d0f71331b427cbfc51ce4f8f0b70c2dc", "fusion_lon": 0.0, "name": "d0f71331b427cbfc51ce4f8f0b70c2dc", "lat": 38.929890666666665, "is_disabled": 0, "is_reserved": 0, "lon": -77.0326505, "type": "electric_scooter", "fusion_lat": 0.0, "rental_uris": {"android": "https://dc.lft.to/lastmile_qr_scan", "ios": "https://dc.lft.to/lastmile_qr_scan"}}, {"bike_id": "8802baf8bb0b906154220b928c42ea24", "fusion_lon": 0.0, "name": "8802baf8bb0b906154220b928c42ea24", "lat": 38.928644166666665, "is_disabled": 0, "is_reserved": 0, "lon": -77.03319633333334, "type": "electric_scooter", "fusion_lat": 0.0, "rental_uris": {"android": "https://dc.lft.to/lastmile_qr_scan", "ios": "https://dc.lft.to/lastmile_qr_scan"}}, {"bike_id": "d83e1f7520021958ea80da77291257f8", "fusion_lon": 0.0, "name": "d83e1f7520021958ea80da77291257f8", "lat": 38.911326833333334, "is_disabled": 0, "is_reserved": 0, "lon": -77.04415916666666, "type": "electric_scooter", "fusion_lat": 0.0, "rental_uris": {"android": "https://dc.lft.to/lastmile_qr_scan", "ios": "https://dc.lft.to/lastmile_qr_scan"}}, {"bike_id": "5aea8e4a5abb506c515bd6e64eabc0e0", "fusion_lon": 0.0, "name": "5aea8e4a5abb506c515bd6e64eabc0e0", "lat": 38.90729183333333, "is_disabled": 0, "is_reserved": 0, "lon": -77.068995, "type": "electric_scooter", "fusion_lat": 0.0, "rental_uris": {"android": "https://dc.lft.to/lastmile_qr_scan", "ios": "https://dc.lft.to/lastmile_qr_scan"}}, {"bike_id": "d57f1f2025cd609b1aa4fa02fd27d294", "fusion_lon": 0.0, "name": "d57f1f2025cd609b1aa4fa02fd27d294", "lat": 38.89505316666666, "is_disabled": 0, "is_reserved": 0, "lon": -77.028371, "type": "electric_scooter", "fusion_lat": 0.0, "rental_uris": {"android": "https://dc.lft.to/lastmile_qr_scan", "ios": "https://dc.lft.to/lastmile_qr_scan"}}, {"bike_id": "d504af63ce4158c34d894c1deef6bd58", "fusion_lon": 0.0, "name": "d504af63ce4158c34d894c1deef6bd58", "lat": 38.89731883333333, "is_disabled": 0, "is_reserved": 0, "lon": -77.05477833333333, "type": "electric_scooter", "fusion_lat": 0.0, "rental_uris": {"android": "https://dc.lft.to/lastmile_qr_scan", "ios": "https://dc.lft.to/lastmile_qr_scan"}}, {"bike_id": "fbfe2e950d353ed163ea0f34fdda07b9", "fusion_lon": 0.0, "name": "fbfe2e950d353ed163ea0f34fdda07b9", "lat": 38.92326216666667, "is_disabled": 0, "is_reserved": 0, "lon": -77.029677, "type": "electric_scooter", "fusion_lat": 0.0, "rental_uris": {"android": "https://dc.lft.to/lastmile_qr_scan", "ios": "https://dc.lft.to/lastmile_qr_scan"}}, {"bike_id": "63590f28c4216472f2ef7aa4f9e4e7e9", "fusion_lon": 0.0, "name": "63590f28c4216472f2ef7aa4f9e4e7e9", "lat": 38.835836, "is_disabled": 0, "is_reserved": 0, "lon": -77.00117183333333, "type": "electric_bike", "fusion_lat": 0.0, "rental_uris": {"android": "https://dc.lft.to/lastmile_qr_scan", "ios": "https://dc.lft.to/lastmile_qr_scan"}}, {"bike_id": "c4464f0f1d03d80b4946fc0332a2da8c", "fusion_lon": 0.0, "name": "c4464f0f1d03d80b4946fc0332a2da8c", "lat": 38.8942605, "is_disabled": 0, "is_reserved": 0, "lon": -77.00097816666667, "type": "electric_scooter", "fusion_lat": 0.0, "rental_uris": {"android": "https://dc.lft.to/lastmile_qr_scan", "ios": "https://dc.lft.to/lastmile_qr_scan"}}, {"bike_id": "55aa59de03d60b4c5e040204967b10fc", "fusion_lon": 0.0, "name": "55aa59de03d60b4c5e040204967b10fc", "lat": 38.92747216666667, "is_disabled": 0, "is_reserved": 0, "lon": -77.02129533333333, "type": "electric_scooter", "fusion_lat": 0.0, "rental_uris": {"android": "https://dc.lft.to/lastmile_qr_scan", "ios": "https://dc.lft.to/lastmile_qr_scan"}}, {"bike_id": "8b429f85883c0284d0fc5f8433a44cd6", "fusion_lon": 0.0, "name": "8b429f85883c0284d0fc5f8433a44cd6", "lat": 38.895491166666666, "is_disabled": 0, "is_reserved": 0, "lon": -77.03950166666667, "type": "electric_scooter", "fusion_lat": 0.0, "rental_uris": {"android": "https://dc.lft.to/lastmile_qr_scan", "ios": "https://dc.lft.to/lastmile_qr_scan"}}, {"bike_id": "e0985a4d26c82328b82d9d607279faa5", "fusion_lon": 0.0, "name": "e0985a4d26c82328b82d9d607279faa5", "lat": 38.92311333333333, "is_disabled": 0, "is_reserved": 0, "lon": -77.04307133333333, "type": "electric_scooter", "fusion_lat": 0.0, "rental_uris": {"android": "https://dc.lft.to/lastmile_qr_scan", "ios": "https://dc.lft.to/lastmile_qr_scan"}}, {"bike_id": "0008f717599553c3c446ffe073651947", "fusion_lon": 0.0, "name": "0008f717599553c3c446ffe073651947", "lat": 38.92097533333333, "is_disabled": 0, "is_reserved": 0, "lon": -77.04702983333334, "type": "electric_scooter", "fusion_lat": 0.0, "rental_uris": {"android": "https://dc.lft.to/lastmile_qr_scan", "ios": "https://dc.lft.to/lastmile_qr_scan"}}, {"bike_id": "80bb3c760a9641e5023509d5b2ea7cd6", "fusion_lon": 0.0, "name": "80bb3c760a9641e5023509d5b2ea7cd6", "lat": 38.91162283333333, "is_disabled": 0, "is_reserved": 0, "lon": -77.00208766666667, "type": "electric_bike", "fusion_lat": 0.0, "rental_uris": {"android": "https://dc.lft.to/lastmile_qr_scan", "ios": "https://dc.lft.to/lastmile_qr_scan"}}, {"bike_id": "95050417f2708aaddd8fc8650069bf69", "fusion_lon": 0.0, "name": "95050417f2708aaddd8fc8650069bf69", "lat": 38.909643833333334, "is_disabled": 0, "is_reserved": 0, "lon": -77.045422, "type": "electric_scooter", "fusion_lat": 0.0, "rental_uris": {"android": "https://dc.lft.to/lastmile_qr_scan", "ios": "https://dc.lft.to/lastmile_qr_scan"}}, {"bike_id": "9251947e8397b78e838296e8287707ba", "fusion_lon": 0.0, "name": "9251947e8397b78e838296e8287707ba", "lat": 38.92911016666667, "is_disabled": 0, "is_reserved": 0, "lon": -77.03614366666666, "type": "electric_scooter", "fusion_lat": 0.0, "rental_uris": {"android": "https://dc.lft.to/lastmile_qr_scan", "ios": "https://dc.lft.to/lastmile_qr_scan"}}, {"bike_id": "d522b9ef5639fe9c9917862b611a617b", "fusion_lon": 0.0, "name": "d522b9ef5639fe9c9917862b611a617b", "lat": 38.864644, "is_disabled": 0, "is_reserved": 0, "lon": -76.945375, "type": "electric_bike", "fusion_lat": 0.0, "rental_uris": {"android": "https://dc.lft.to/lastmile_qr_scan", "ios": "https://dc.lft.to/lastmile_qr_scan"}}, {"bike_id": "90936cf3fa00c33dad88f0e2b962eafb", "fusion_lon": 0.0, "name": "90936cf3fa00c33dad88f0e2b962eafb", "lat": 38.9210785, "is_disabled": 0, "is_reserved": 0, "lon": -77.06328033333334, "type": "electric_bike", "fusion_lat": 0.0, "rental_uris": {"android": "https://dc.lft.to/lastmile_qr_scan", "ios": "https://dc.lft.to/lastmile_qr_scan"}}, {"bike_id": "8bc20eeddeab33357a5fea9164233e09", "fusion_lon": 0.0, "name": "8bc20eeddeab33357a5fea9164233e09", "lat": 38.892213166666664, "is_disabled": 0, "is_reserved": 0, "lon": -77.04197, "type": "electric_scooter", "fusion_lat": 0.0, "rental_uris": {"android": "https://dc.lft.to/lastmile_qr_scan", "ios": "https://dc.lft.to/lastmile_qr_scan"}}, {"bike_id": "da65137dde05f29d79f9b3e8b70b596e", "fusion_lon": 0.0, "name": "da65137dde05f29d79f9b3e8b70b596e", "lat": 38.90522816666667, "is_disabled": 0, "is_reserved": 0, "lon": -77.04632916666667, "type": "electric_scooter", "fusion_lat": 0.0, "rental_uris": {"android": "https://dc.lft.to/lastmile_qr_scan", "ios": "https://dc.lft.to/lastmile_qr_scan"}}, {"bike_id": "8e383d5d9ea0f89fc6f34ab37d0ac116", "fusion_lon": 0.0, "name": "8e383d5d9ea0f89fc6f34ab37d0ac116", "lat": 38.9277825, "is_disabled": 0, "is_reserved": 0, "lon": -77.01411583333334, "type": "electric_scooter", "fusion_lat": 0.0, "rental_uris": {"android": "https://dc.lft.to/lastmile_qr_scan", "ios": "https://dc.lft.to/lastmile_qr_scan"}}, {"bike_id": "eac4b6947cd8bbd9fd7b06afd61c7e1c", "fusion_lon": 0.0, "name": "eac4b6947cd8bbd9fd7b06afd61c7e1c", "lat": 38.93864083333333, "is_disabled": 0, "is_reserved": 0, "lon": -77.02480133333333, "type": "electric_scooter", "fusion_lat": 0.0, "rental_uris": {"android": "https://dc.lft.to/lastmile_qr_scan", "ios": "https://dc.lft.to/lastmile_qr_scan"}}, {"bike_id": "f12f567db445044dfcf62218e7fc5a86", "fusion_lon": 0.0, "name": "f12f567db445044dfcf62218e7fc5a86", "lat": 38.9163115, "is_disabled": 0, "is_reserved": 0, "lon": -77.0400435, "type": "electric_scooter", "fusion_lat": 0.0, "rental_uris": {"android": "https://dc.lft.to/lastmile_qr_scan", "ios": "https://dc.lft.to/lastmile_qr_scan"}}, {"bike_id": "48ce7e6211477e46ec45a9a326f4e625", "fusion_lon": 0.0, "name": "48ce7e6211477e46ec45a9a326f4e625", "lat": 38.90721516666667, "is_disabled": 0, "is_reserved": 0, "lon": -77.0250715, "type": "electric_scooter", "fusion_lat": 0.0, "rental_uris": {"android": "https://dc.lft.to/lastmile_qr_scan", "ios": "https://dc.lft.to/lastmile_qr_scan"}}, {"bike_id": "946e5063fd6400ed5df750c5d06cba91", "fusion_lon": 0.0, "name": "946e5063fd6400ed5df750c5d06cba91", "lat": 38.884873, "is_disabled": 0, "is_reserved": 0, "lon": -77.02085366666667, "type": "electric_scooter", "fusion_lat": 0.0, "rental_uris": {"android": "https://dc.lft.to/lastmile_qr_scan", "ios": "https://dc.lft.to/lastmile_qr_scan"}}, {"bike_id": "b7467bcf1d0445baf56173576c626de4", "fusion_lon": 0.0, "name": "b7467bcf1d0445baf56173576c626de4", "lat": 38.931348666666665, "is_disabled": 0, "is_reserved": 0, "lon": -77.07838833333334, "type": "electric_scooter", "fusion_lat": 0.0, "rental_uris": {"android": "https://dc.lft.to/lastmile_qr_scan", "ios": "https://dc.lft.to/lastmile_qr_scan"}}, {"bike_id": "f33dce5bf929ba75c1a25f54c0b626e1", "fusion_lon": 0.0, "name": "f33dce5bf929ba75c1a25f54c0b626e1", "lat": 38.944491666666664, "is_disabled": 0, "is_reserved": 0, "lon": -77.02341216666666, "type": "electric_scooter", "fusion_lat": 0.0, "rental_uris": {"android": "https://dc.lft.to/lastmile_qr_scan", "ios": "https://dc.lft.to/lastmile_qr_scan"}}, {"bike_id": "6f13fb6b7fe031fad557c68997b3cd91", "fusion_lon": 0.0, "name": "6f13fb6b7fe031fad557c68997b3cd91", "lat": 38.866283, "is_disabled": 0, "is_reserved": 0, "lon": -76.98715416666667, "type": "electric_scooter", "fusion_lat": 0.0, "rental_uris": {"android": "https://dc.lft.to/lastmile_qr_scan", "ios": "https://dc.lft.to/lastmile_qr_scan"}}, {"bike_id": "9714fa55b0e25bea935dafc092c03a1e", "fusion_lon": 0.0, "name": "9714fa55b0e25bea935dafc092c03a1e", "lat": 38.8922335, "is_disabled": 0, "is_reserved": 0, "lon": -77.04689, "type": "electric_scooter", "fusion_lat": 0.0, "rental_uris": {"android": "https://dc.lft.to/lastmile_qr_scan", "ios": "https://dc.lft.to/lastmile_qr_scan"}}, {"bike_id": "4c35d2661a4cd0cfafa2d676615c640e", "fusion_lon": 0.0, "name": "4c35d2661a4cd0cfafa2d676615c640e", "lat": 38.892432, "is_disabled": 0, "is_reserved": 0, "lon": -77.03344833333334, "type": "electric_scooter", "fusion_lat": 0.0, "rental_uris": {"android": "https://dc.lft.to/lastmile_qr_scan", "ios": "https://dc.lft.to/lastmile_qr_scan"}}, {"bike_id": "e683bceb3f5949ebb94967c37abb6686", "fusion_lon": 0.0, "name": "e683bceb3f5949ebb94967c37abb6686", "lat": 38.89964833333333, "is_disabled": 0, "is_reserved": 0, "lon": -77.01531566666667, "type": "electric_scooter", "fusion_lat": 0.0, "rental_uris": {"android": "https://dc.lft.to/lastmile_qr_scan", "ios": "https://dc.lft.to/lastmile_qr_scan"}}, {"bike_id": "5425c8eac2ca777f9517d41e4143c6eb", "fusion_lon": 0.0, "name": "5425c8eac2ca777f9517d41e4143c6eb", "lat": 38.8843, "is_disabled": 0, "is_reserved": 0, "lon": -77.02577083333334, "type": "electric_scooter", "fusion_lat": 0.0, "rental_uris": {"android": "https://dc.lft.to/lastmile_qr_scan", "ios": "https://dc.lft.to/lastmile_qr_scan"}}, {"bike_id": "1bce3787bff8c33c27c96dfd1e98a5c6", "fusion_lon": 0.0, "name": "1bce3787bff8c33c27c96dfd1e98a5c6", "lat": 38.9077985, "is_disabled": 0, "is_reserved": 0, "lon": -77.07241866666666, "type": "electric_scooter", "fusion_lat": 0.0, "rental_uris": {"android": "https://dc.lft.to/lastmile_qr_scan", "ios": "https://dc.lft.to/lastmile_qr_scan"}}, {"bike_id": "c2d783d487701bb313b8ac8dc845c921", "fusion_lon": 0.0, "name": "c2d783d487701bb313b8ac8dc845c921", "lat": 38.905357333333335, "is_disabled": 0, "is_reserved": 0, "lon": -77.05124416666666, "type": "electric_scooter", "fusion_lat": 0.0, "rental_uris": {"android": "https://dc.lft.to/lastmile_qr_scan", "ios": "https://dc.lft.to/lastmile_qr_scan"}}, {"bike_id": "1aded3abcd3b0292e09060bb2263c9b9", "fusion_lon": 0.0, "name": "1aded3abcd3b0292e09060bb2263c9b9", "lat": 38.949517, "is_disabled": 0, "is_reserved": 0, "lon": -77.02317033333334, "type": "electric_scooter", "fusion_lat": 0.0, "rental_uris": {"android": "https://dc.lft.to/lastmile_qr_scan", "ios": "https://dc.lft.to/lastmile_qr_scan"}}, {"bike_id": "b164d3b1e322ed005e5b642e774342c7", "fusion_lon": 0.0, "name": "b164d3b1e322ed005e5b642e774342c7", "lat": 38.91858583333333, "is_disabled": 0, "is_reserved": 0, "lon": -77.03202016666667, "type": "electric_scooter", "fusion_lat": 0.0, "rental_uris": {"android": "https://dc.lft.to/lastmile_qr_scan", "ios": "https://dc.lft.to/lastmile_qr_scan"}}, {"bike_id": "6e53c4c34b2c0530d35150d117d761cf", "fusion_lon": 0.0, "name": "6e53c4c34b2c0530d35150d117d761cf", "lat": 38.91056916666667, "is_disabled": 0, "is_reserved": 0, "lon": -77.05291966666667, "type": "electric_scooter", "fusion_lat": 0.0, "rental_uris": {"android": "https://dc.lft.to/lastmile_qr_scan", "ios": "https://dc.lft.to/lastmile_qr_scan"}}, {"bike_id": "313c9ddd698291f12b3c820efec56c1f", "fusion_lon": 0.0, "name": "313c9ddd698291f12b3c820efec56c1f", "lat": 38.93382533333333, "is_disabled": 0, "is_reserved": 0, "lon": -77.02681883333334, "type": "electric_scooter", "fusion_lat": 0.0, "rental_uris": {"android": "https://dc.lft.to/lastmile_qr_scan", "ios": "https://dc.lft.to/lastmile_qr_scan"}}, {"bike_id": "aee09b9a2bcfd7ef618a340214d68986", "fusion_lon": 0.0, "name": "aee09b9a2bcfd7ef618a340214d68986", "lat": 38.904804, "is_disabled": 0, "is_reserved": 0, "lon": -77.05123633333334, "type": "electric_scooter", "fusion_lat": 0.0, "rental_uris": {"android": "https://dc.lft.to/lastmile_qr_scan", "ios": "https://dc.lft.to/lastmile_qr_scan"}}, {"bike_id": "4a92d6a9300c4bd5a07b326ec0fd7c5c", "fusion_lon": 0.0, "name": "4a92d6a9300c4bd5a07b326ec0fd7c5c", "lat": 39.056349833333336, "is_disabled": 0, "is_reserved": 0, "lon": -77.12527366666667, "type": "electric_bike", "fusion_lat": 0.0, "rental_uris": {"android": "https://dc.lft.to/lastmile_qr_scan", "ios": "https://dc.lft.to/lastmile_qr_scan"}}, {"bike_id": "52344888273ec6fd429ef6ad3ae72b1f", "fusion_lon": 0.0, "name": "52344888273ec6fd429ef6ad3ae72b1f", "lat": 38.9027, "is_disabled": 0, "is_reserved": 0, "lon": -77.0334045, "type": "electric_scooter", "fusion_lat": 0.0, "rental_uris": {"android": "https://dc.lft.to/lastmile_qr_scan", "ios": "https://dc.lft.to/lastmile_qr_scan"}}, {"bike_id": "81a57acd8c4baf0450c2d15c2a74c99e", "fusion_lon": 0.0, "name": "81a57acd8c4baf0450c2d15c2a74c99e", "lat": 38.9273315, "is_disabled": 0, "is_reserved": 0, "lon": -77.02295066666667, "type": "electric_scooter", "fusion_lat": 0.0, "rental_uris": {"android": "https://dc.lft.to/lastmile_qr_scan", "ios": "https://dc.lft.to/lastmile_qr_scan"}}, {"bike_id": "5dafd98edbe49f4e88510ad4726fdbf4", "fusion_lon": 0.0, "name": "5dafd98edbe49f4e88510ad4726fdbf4", "lat": 38.89389333333333, "is_disabled": 0, "is_reserved": 0, "lon": -76.92309983333334, "type": "electric_scooter", "fusion_lat": 0.0, "rental_uris": {"android": "https://dc.lft.to/lastmile_qr_scan", "ios": "https://dc.lft.to/lastmile_qr_scan"}}, {"bike_id": "49e4daf3c5da9a77acb4c870d36a2a8d", "fusion_lon": 0.0, "name": "49e4daf3c5da9a77acb4c870d36a2a8d", "lat": 38.8985945, "is_disabled": 0, "is_reserved": 0, "lon": -76.94639483333333, "type": "electric_scooter", "fusion_lat": 0.0, "rental_uris": {"android": "https://dc.lft.to/lastmile_qr_scan", "ios": "https://dc.lft.to/lastmile_qr_scan"}}, {"bike_id": "f8d6a7f63ea4511d48a320a2bc9c6e06", "fusion_lon": 0.0, "name": "f8d6a7f63ea4511d48a320a2bc9c6e06", "lat": 38.936045, "is_disabled": 0, "is_reserved": 0, "lon": -77.05866866666666, "type": "electric_scooter", "fusion_lat": 0.0, "rental_uris": {"android": "https://dc.lft.to/lastmile_qr_scan", "ios": "https://dc.lft.to/lastmile_qr_scan"}}, {"bike_id": "ed3f746b5b3cf354ea32055c582385a7", "fusion_lon": 0.0, "name": "ed3f746b5b3cf354ea32055c582385a7", "lat": 38.898610833333336, "is_disabled": 0, "is_reserved": 0, "lon": -77.0283435, "type": "electric_scooter", "fusion_lat": 0.0, "rental_uris": {"android": "https://dc.lft.to/lastmile_qr_scan", "ios": "https://dc.lft.to/lastmile_qr_scan"}}, {"bike_id": "0df5a9fc21fff6bba0d8aa9f509cef56", "fusion_lon": 0.0, "name": "0df5a9fc21fff6bba0d8aa9f509cef56", "lat": 38.8617745, "is_disabled": 0, "is_reserved": 0, "lon": -76.9691155, "type": "electric_scooter", "fusion_lat": 0.0, "rental_uris": {"android": "https://dc.lft.to/lastmile_qr_scan", "ios": "https://dc.lft.to/lastmile_qr_scan"}}, {"bike_id": "7e8ffdabc0d0e26904657531362ce42e", "fusion_lon": 0.0, "name": "7e8ffdabc0d0e26904657531362ce42e", "lat": 38.907432166666666, "is_disabled": 0, "is_reserved": 0, "lon": -77.04337133333334, "type": "electric_scooter", "fusion_lat": 0.0, "rental_uris": {"android": "https://dc.lft.to/lastmile_qr_scan", "ios": "https://dc.lft.to/lastmile_qr_scan"}}, {"bike_id": "93842b4c9ef764be5f83c1308ce76049", "fusion_lon": 0.0, "name": "93842b4c9ef764be5f83c1308ce76049", "lat": 38.87752616666667, "is_disabled": 0, "is_reserved": 0, "lon": -77.007029, "type": "electric_scooter", "fusion_lat": 0.0, "rental_uris": {"android": "https://dc.lft.to/lastmile_qr_scan", "ios": "https://dc.lft.to/lastmile_qr_scan"}}, {"bike_id": "922c41b7847e417c0b699d1109c36008", "fusion_lon": 0.0, "name": "922c41b7847e417c0b699d1109c36008", "lat": 38.892222, "is_disabled": 0, "is_reserved": 0, "lon": -77.03374133333334, "type": "electric_scooter", "fusion_lat": 0.0, "rental_uris": {"android": "https://dc.lft.to/lastmile_qr_scan", "ios": "https://dc.lft.to/lastmile_qr_scan"}}, {"bike_id": "35e8f73effb5875f65a1aee57029dde1", "fusion_lon": 0.0, "name": "35e8f73effb5875f65a1aee57029dde1", "lat": 38.92241683333334, "is_disabled": 0, "is_reserved": 0, "lon": -77.036664, "type": "electric_scooter", "fusion_lat": 0.0, "rental_uris": {"android": "https://dc.lft.to/lastmile_qr_scan", "ios": "https://dc.lft.to/lastmile_qr_scan"}}, {"bike_id": "47ccd25c23cf36a4f5a680195a522014", "fusion_lon": 0.0, "name": "47ccd25c23cf36a4f5a680195a522014", "lat": 38.8713715, "is_disabled": 0, "is_reserved": 0, "lon": -77.10027033333333, "type": "electric_bike", "fusion_lat": 0.0, "rental_uris": {"android": "https://dc.lft.to/lastmile_qr_scan", "ios": "https://dc.lft.to/lastmile_qr_scan"}}, {"bike_id": "a421e070765bc45499b44d74b247a4b9", "fusion_lon": 0.0, "name": "a421e070765bc45499b44d74b247a4b9", "lat": 38.804462, "is_disabled": 0, "is_reserved": 0, "lon": -77.13231533333334, "type": "electric_bike", "fusion_lat": 0.0, "rental_uris": {"android": "https://dc.lft.to/lastmile_qr_scan", "ios": "https://dc.lft.to/lastmile_qr_scan"}}, {"bike_id": "92e74cccbd029af185dcec7449af142d", "fusion_lon": 0.0, "name": "92e74cccbd029af185dcec7449af142d", "lat": 38.89223533333333, "is_disabled": 0, "is_reserved": 0, "lon": -77.047751, "type": "electric_scooter", "fusion_lat": 0.0, "rental_uris": {"android": "https://dc.lft.to/lastmile_qr_scan", "ios": "https://dc.lft.to/lastmile_qr_scan"}}, {"bike_id": "d6111eacca8cab95fa1adf0edc4cb9d6", "fusion_lon": 0.0, "name": "d6111eacca8cab95fa1adf0edc4cb9d6", "lat": 38.920289333333336, "is_disabled": 0, "is_reserved": 0, "lon": -77.012893, "type": "electric_scooter", "fusion_lat": 0.0, "rental_uris": {"android": "https://dc.lft.to/lastmile_qr_scan", "ios": "https://dc.lft.to/lastmile_qr_scan"}}, {"bike_id": "3237429aadd1a54eb59891ef185be9a4", "fusion_lon": 0.0, "name": "3237429aadd1a54eb59891ef185be9a4", "lat": 38.899318666666666, "is_disabled": 0, "is_reserved": 0, "lon": -77.04190483333333, "type": "electric_scooter", "fusion_lat": 0.0, "rental_uris": {"android": "https://dc.lft.to/lastmile_qr_scan", "ios": "https://dc.lft.to/lastmile_qr_scan"}}, {"bike_id": "23ddeabee01f7f42bc1142a9629711a1", "fusion_lon": 0.0, "name": "23ddeabee01f7f42bc1142a9629711a1", "lat": 38.9007035, "is_disabled": 0, "is_reserved": 0, "lon": -77.050651, "type": "electric_scooter", "fusion_lat": 0.0, "rental_uris": {"android": "https://dc.lft.to/lastmile_qr_scan", "ios": "https://dc.lft.to/lastmile_qr_scan"}}, {"bike_id": "f51f963f387dcd688a36c5c0272c633a", "fusion_lon": 0.0, "name": "f51f963f387dcd688a36c5c0272c633a", "lat": 38.92313216666667, "is_disabled": 0, "is_reserved": 0, "lon": -77.04189866666667, "type": "electric_scooter", "fusion_lat": 0.0, "rental_uris": {"android": "https://dc.lft.to/lastmile_qr_scan", "ios": "https://dc.lft.to/lastmile_qr_scan"}}, {"bike_id": "8c968d6bebefdb5990496a9c375347e4", "fusion_lon": 0.0, "name": "8c968d6bebefdb5990496a9c375347e4", "lat": 38.865575166666666, "is_disabled": 0, "is_reserved": 0, "lon": -76.98353466666667, "type": "electric_scooter", "fusion_lat": 0.0, "rental_uris": {"android": "https://dc.lft.to/lastmile_qr_scan", "ios": "https://dc.lft.to/lastmile_qr_scan"}}, {"bike_id": "f19e4e7c7c2418c1034e9ab9c85b6830", "fusion_lon": 0.0, "name": "f19e4e7c7c2418c1034e9ab9c85b6830", "lat": 38.88260066666667, "is_disabled": 0, "is_reserved": 0, "lon": -76.99492116666667, "type": "electric_scooter", "fusion_lat": 0.0, "rental_uris": {"android": "https://dc.lft.to/lastmile_qr_scan", "ios": "https://dc.lft.to/lastmile_qr_scan"}}, {"bike_id": "75c5b40c8fbfdf9c39cf7ae399c472e2", "fusion_lon": 0.0, "name": "75c5b40c8fbfdf9c39cf7ae399c472e2", "lat": 38.881454833333336, "is_disabled": 0, "is_reserved": 0, "lon": -77.02742616666667, "type": "electric_bike", "fusion_lat": 0.0, "rental_uris": {"android": "https://dc.lft.to/lastmile_qr_scan", "ios": "https://dc.lft.to/lastmile_qr_scan"}}, {"bike_id": "d49157971ccd37a28c672fbced1bfab5", "fusion_lon": 0.0, "name": "d49157971ccd37a28c672fbced1bfab5", "lat": 38.904599833333336, "is_disabled": 0, "is_reserved": 0, "lon": -77.04333533333333, "type": "electric_scooter", "fusion_lat": 0.0, "rental_uris": {"android": "https://dc.lft.to/lastmile_qr_scan", "ios": "https://dc.lft.to/lastmile_qr_scan"}}, {"bike_id": "2acfb01ab4fed9c239bfc7700e36e728", "fusion_lon": 0.0, "name": "2acfb01ab4fed9c239bfc7700e36e728", "lat": 38.88745933333333, "is_disabled": 0, "is_reserved": 0, "lon": -76.98364416666666, "type": "electric_scooter", "fusion_lat": 0.0, "rental_uris": {"android": "https://dc.lft.to/lastmile_qr_scan", "ios": "https://dc.lft.to/lastmile_qr_scan"}}, {"bike_id": "81b52e56a8c41e90fc739e8ea0c3cfc6", "fusion_lon": 0.0, "name": "81b52e56a8c41e90fc739e8ea0c3cfc6", "lat": 38.88495283333334, "is_disabled": 0, "is_reserved": 0, "lon": -77.025104, "type": "electric_scooter", "fusion_lat": 0.0, "rental_uris": {"android": "https://dc.lft.to/lastmile_qr_scan", "ios": "https://dc.lft.to/lastmile_qr_scan"}}, {"bike_id": "cb75ef7501587644f288ce6f1f9897ce", "fusion_lon": 0.0, "name": "cb75ef7501587644f288ce6f1f9897ce", "lat": 38.960410333333336, "is_disabled": 0, "is_reserved": 0, "lon": -77.0719225, "type": "electric_scooter", "fusion_lat": 0.0, "rental_uris": {"android": "https://dc.lft.to/lastmile_qr_scan", "ios": "https://dc.lft.to/lastmile_qr_scan"}}, {"bike_id": "e8ea829c8b9c1bd29678b9440d2b3c7b", "fusion_lon": 0.0, "name": "e8ea829c8b9c1bd29678b9440d2b3c7b", "lat": 38.8921605, "is_disabled": 0, "is_reserved": 0, "lon": -76.99572983333333, "type": "electric_scooter", "fusion_lat": 0.0, "rental_uris": {"android": "https://dc.lft.to/lastmile_qr_scan", "ios": "https://dc.lft.to/lastmile_qr_scan"}}, {"bike_id": "a1b8108f97cfeae7649807da6a4199fe", "fusion_lon": 0.0, "name": "a1b8108f97cfeae7649807da6a4199fe", "lat": 38.912676166666664, "is_disabled": 0, "is_reserved": 0, "lon": -77.03829266666666, "type": "electric_scooter", "fusion_lat": 0.0, "rental_uris": {"android": "https://dc.lft.to/lastmile_qr_scan", "ios": "https://dc.lft.to/lastmile_qr_scan"}}, {"bike_id": "a3964db4de4c1044206c21ba1c26868a", "fusion_lon": 0.0, "name": "a3964db4de4c1044206c21ba1c26868a", "lat": 38.927907166666664, "is_disabled": 0, "is_reserved": 0, "lon": -77.01399016666667, "type": "electric_scooter", "fusion_lat": 0.0, "rental_uris": {"android": "https://dc.lft.to/lastmile_qr_scan", "ios": "https://dc.lft.to/lastmile_qr_scan"}}, {"bike_id": "c13b3fad8a7f2f8c3c4310622e3ec5c4", "fusion_lon": 0.0, "name": "c13b3fad8a7f2f8c3c4310622e3ec5c4", "lat": 38.92826266666667, "is_disabled": 0, "is_reserved": 0, "lon": -77.05439683333333, "type": "electric_scooter", "fusion_lat": 0.0, "rental_uris": {"android": "https://dc.lft.to/lastmile_qr_scan", "ios": "https://dc.lft.to/lastmile_qr_scan"}}, {"bike_id": "0e34f5256432b4b1761746a51b0e8246", "fusion_lon": 0.0, "name": "0e34f5256432b4b1761746a51b0e8246", "lat": 38.922171166666665, "is_disabled": 0, "is_reserved": 0, "lon": -77.20140783333333, "type": "electric_bike", "fusion_lat": 0.0, "rental_uris": {"android": "https://dc.lft.to/lastmile_qr_scan", "ios": "https://dc.lft.to/lastmile_qr_scan"}}, {"bike_id": "112e4e74c1bcf06db59b83cc9709d232", "fusion_lon": 0.0, "name": "112e4e74c1bcf06db59b83cc9709d232", "lat": 38.923036833333335, "is_disabled": 0, "is_reserved": 0, "lon": -77.04174933333333, "type": "electric_scooter", "fusion_lat": 0.0, "rental_uris": {"android": "https://dc.lft.to/lastmile_qr_scan", "ios": "https://dc.lft.to/lastmile_qr_scan"}}, {"bike_id": "3d1ce9f664d016ad1551459451d90ce5", "fusion_lon": 0.0, "name": "3d1ce9f664d016ad1551459451d90ce5", "lat": 38.896041333333336, "is_disabled": 0, "is_reserved": 0, "lon": -77.03350083333333, "type": "electric_scooter", "fusion_lat": 0.0, "rental_uris": {"android": "https://dc.lft.to/lastmile_qr_scan", "ios": "https://dc.lft.to/lastmile_qr_scan"}}, {"bike_id": "15ea2d2d2bc79006528f41037fc240cc", "fusion_lon": 0.0, "name": "15ea2d2d2bc79006528f41037fc240cc", "lat": 38.86137683333333, "is_disabled": 0, "is_reserved": 0, "lon": -76.97172316666666, "type": "electric_bike", "fusion_lat": 0.0, "rental_uris": {"android": "https://dc.lft.to/lastmile_qr_scan", "ios": "https://dc.lft.to/lastmile_qr_scan"}}, {"bike_id": "c7a4532fea8478ca557d135d85bc926e", "fusion_lon": 0.0, "name": "c7a4532fea8478ca557d135d85bc926e", "lat": 38.89954316666667, "is_disabled": 0, "is_reserved": 0, "lon": -76.97536866666667, "type": "electric_scooter", "fusion_lat": 0.0, "rental_uris": {"android": "https://dc.lft.to/lastmile_qr_scan", "ios": "https://dc.lft.to/lastmile_qr_scan"}}, {"bike_id": "fde598dea668abdfe04891ced5bb696f", "fusion_lon": 0.0, "name": "fde598dea668abdfe04891ced5bb696f", "lat": 38.9119665, "is_disabled": 0, "is_reserved": 0, "lon": -77.03840366666667, "type": "electric_scooter", "fusion_lat": 0.0, "rental_uris": {"android": "https://dc.lft.to/lastmile_qr_scan", "ios": "https://dc.lft.to/lastmile_qr_scan"}}, {"bike_id": "f52cb35f1653f0a9d5f9059de41f9aa7", "fusion_lon": 0.0, "name": "f52cb35f1653f0a9d5f9059de41f9aa7", "lat": 38.92656216666666, "is_disabled": 0, "is_reserved": 0, "lon": -77.02422233333333, "type": "electric_scooter", "fusion_lat": 0.0, "rental_uris": {"android": "https://dc.lft.to/lastmile_qr_scan", "ios": "https://dc.lft.to/lastmile_qr_scan"}}, {"bike_id": "d3fa591f520ab7a83875b609072f8f79", "fusion_lon": 0.0, "name": "d3fa591f520ab7a83875b609072f8f79", "lat": 38.88737833333333, "is_disabled": 0, "is_reserved": 0, "lon": -77.01535383333334, "type": "electric_scooter", "fusion_lat": 0.0, "rental_uris": {"android": "https://dc.lft.to/lastmile_qr_scan", "ios": "https://dc.lft.to/lastmile_qr_scan"}}, {"bike_id": "769ae89ba7255dcbec1856cca0568e42", "fusion_lon": 0.0, "name": "769ae89ba7255dcbec1856cca0568e42", "lat": 38.8997285, "is_disabled": 0, "is_reserved": 0, "lon": -77.05566316666666, "type": "electric_scooter", "fusion_lat": 0.0, "rental_uris": {"android": "https://dc.lft.to/lastmile_qr_scan", "ios": "https://dc.lft.to/lastmile_qr_scan"}}, {"bike_id": "472cf99a0bde1cfc3050d0654474078b", "fusion_lon": 0.0, "name": "472cf99a0bde1cfc3050d0654474078b", "lat": 38.894557166666665, "is_disabled": 0, "is_reserved": 0, "lon": -77.0269955, "type": "electric_scooter", "fusion_lat": 0.0, "rental_uris": {"android": "https://dc.lft.to/lastmile_qr_scan", "ios": "https://dc.lft.to/lastmile_qr_scan"}}, {"bike_id": "ec2fa1cdc31733fc89cee2b135d037f3", "fusion_lon": 0.0, "name": "ec2fa1cdc31733fc89cee2b135d037f3", "lat": 38.89225366666667, "is_disabled": 0, "is_reserved": 0, "lon": -77.025105, "type": "electric_scooter", "fusion_lat": 0.0, "rental_uris": {"android": "https://dc.lft.to/lastmile_qr_scan", "ios": "https://dc.lft.to/lastmile_qr_scan"}}, {"bike_id": "a46281b6eb1d13a9fc720ea8ce3b602a", "fusion_lon": 0.0, "name": "a46281b6eb1d13a9fc720ea8ce3b602a", "lat": 38.906381833333334, "is_disabled": 0, "is_reserved": 0, "lon": -77.03452533333333, "type": "electric_scooter", "fusion_lat": 0.0, "rental_uris": {"android": "https://dc.lft.to/lastmile_qr_scan", "ios": "https://dc.lft.to/lastmile_qr_scan"}}, {"bike_id": "be539d707548dca8462239630e00ae4b", "fusion_lon": 0.0, "name": "be539d707548dca8462239630e00ae4b", "lat": 38.92155, "is_disabled": 0, "is_reserved": 0, "lon": -77.0332405, "type": "electric_scooter", "fusion_lat": 0.0, "rental_uris": {"android": "https://dc.lft.to/lastmile_qr_scan", "ios": "https://dc.lft.to/lastmile_qr_scan"}}, {"bike_id": "8528b17fd4d84363e1bc02a47a817911", "fusion_lon": 0.0, "name": "8528b17fd4d84363e1bc02a47a817911", "lat": 38.88070833333333, "is_disabled": 0, "is_reserved": 0, "lon": -77.016781, "type": "electric_bike", "fusion_lat": 0.0, "rental_uris": {"android": "https://dc.lft.to/lastmile_qr_scan", "ios": "https://dc.lft.to/lastmile_qr_scan"}}, {"bike_id": "8019ba0a5b240d1b82149167b05544bb", "fusion_lon": 0.0, "name": "8019ba0a5b240d1b82149167b05544bb", "lat": 38.929886333333336, "is_disabled": 0, "is_reserved": 0, "lon": -77.03237183333333, "type": "electric_scooter", "fusion_lat": 0.0, "rental_uris": {"android": "https://dc.lft.to/lastmile_qr_scan", "ios": "https://dc.lft.to/lastmile_qr_scan"}}, {"bike_id": "87e2681d190ec1ad98940ce3a3b7697b", "fusion_lon": 0.0, "name": "87e2681d190ec1ad98940ce3a3b7697b", "lat": 38.91205466666667, "is_disabled": 0, "is_reserved": 0, "lon": -77.03852266666667, "type": "electric_scooter", "fusion_lat": 0.0, "rental_uris": {"android": "https://dc.lft.to/lastmile_qr_scan", "ios": "https://dc.lft.to/lastmile_qr_scan"}}, {"bike_id": "4a018a134e58a8cec5d5731a3b2bc2dc", "fusion_lon": 0.0, "name": "4a018a134e58a8cec5d5731a3b2bc2dc", "lat": 38.9020355, "is_disabled": 0, "is_reserved": 0, "lon": -77.00585533333333, "type": "electric_scooter", "fusion_lat": 0.0, "rental_uris": {"android": "https://dc.lft.to/lastmile_qr_scan", "ios": "https://dc.lft.to/lastmile_qr_scan"}}, {"bike_id": "fb3f2b719edbd094a4263fa1b1bf348c", "fusion_lon": 0.0, "name": "fb3f2b719edbd094a4263fa1b1bf348c", "lat": 38.87573166666667, "is_disabled": 0, "is_reserved": 0, "lon": -77.00934566666666, "type": "electric_scooter", "fusion_lat": 0.0, "rental_uris": {"android": "https://dc.lft.to/lastmile_qr_scan", "ios": "https://dc.lft.to/lastmile_qr_scan"}}, {"bike_id": "0bf11cdbdd743662985d166a1f791bad", "fusion_lon": 0.0, "name": "0bf11cdbdd743662985d166a1f791bad", "lat": 38.922238166666666, "is_disabled": 0, "is_reserved": 0, "lon": -77.043039, "type": "electric_scooter", "fusion_lat": 0.0, "rental_uris": {"android": "https://dc.lft.to/lastmile_qr_scan", "ios": "https://dc.lft.to/lastmile_qr_scan"}}, {"bike_id": "f7196b9847268a78f94c0d9eb9dc93a8", "fusion_lon": 0.0, "name": "f7196b9847268a78f94c0d9eb9dc93a8", "lat": 38.82093733333333, "is_disabled": 0, "is_reserved": 0, "lon": -77.0530225, "type": "electric_bike", "fusion_lat": 0.0, "rental_uris": {"android": "https://dc.lft.to/lastmile_qr_scan", "ios": "https://dc.lft.to/lastmile_qr_scan"}}, {"bike_id": "86aac86b1d9487c4a479932bae22edcc", "fusion_lon": 0.0, "name": "86aac86b1d9487c4a479932bae22edcc", "lat": 38.927936833333334, "is_disabled": 0, "is_reserved": 0, "lon": -76.95563766666666, "type": "electric_scooter", "fusion_lat": 0.0, "rental_uris": {"android": "https://dc.lft.to/lastmile_qr_scan", "ios": "https://dc.lft.to/lastmile_qr_scan"}}, {"bike_id": "5c512e6ec58c1a1bd4c9a3d5676688fe", "fusion_lon": 0.0, "name": "5c512e6ec58c1a1bd4c9a3d5676688fe", "lat": 38.920436, "is_disabled": 0, "is_reserved": 0, "lon": -77.0798005, "type": "electric_scooter", "fusion_lat": 0.0, "rental_uris": {"android": "https://dc.lft.to/lastmile_qr_scan", "ios": "https://dc.lft.to/lastmile_qr_scan"}}, {"bike_id": "6e09c42a1554c940d1d2cc286085f895", "fusion_lon": 0.0, "name": "6e09c42a1554c940d1d2cc286085f895", "lat": 38.90156233333333, "is_disabled": 0, "is_reserved": 0, "lon": -76.97624383333333, "type": "electric_scooter", "fusion_lat": 0.0, "rental_uris": {"android": "https://dc.lft.to/lastmile_qr_scan", "ios": "https://dc.lft.to/lastmile_qr_scan"}}, {"bike_id": "30b71e87bc1ab4602ec0436ed50e5576", "fusion_lon": 0.0, "name": "30b71e87bc1ab4602ec0436ed50e5576", "lat": 38.91545883333333, "is_disabled": 0, "is_reserved": 0, "lon": -77.03272616666666, "type": "electric_scooter", "fusion_lat": 0.0, "rental_uris": {"android": "https://dc.lft.to/lastmile_qr_scan", "ios": "https://dc.lft.to/lastmile_qr_scan"}}, {"bike_id": "24e576404f9f7332b1736af021eb9a13", "fusion_lon": 0.0, "name": "24e576404f9f7332b1736af021eb9a13", "lat": 38.91931233333333, "is_disabled": 0, "is_reserved": 0, "lon": -77.07079583333334, "type": "electric_scooter", "fusion_lat": 0.0, "rental_uris": {"android": "https://dc.lft.to/lastmile_qr_scan", "ios": "https://dc.lft.to/lastmile_qr_scan"}}, {"bike_id": "46ee287fc4aba749ed4a257763f8cee3", "fusion_lon": 0.0, "name": "46ee287fc4aba749ed4a257763f8cee3", "lat": 38.902747833333336, "is_disabled": 0, "is_reserved": 0, "lon": -77.03842583333333, "type": "electric_scooter", "fusion_lat": 0.0, "rental_uris": {"android": "https://dc.lft.to/lastmile_qr_scan", "ios": "https://dc.lft.to/lastmile_qr_scan"}}, {"bike_id": "db8a96c70b01d5240cccecad39709c58", "fusion_lon": 0.0, "name": "db8a96c70b01d5240cccecad39709c58", "lat": 38.878098, "is_disabled": 0, "is_reserved": 0, "lon": -77.005708, "type": "electric_scooter", "fusion_lat": 0.0, "rental_uris": {"android": "https://dc.lft.to/lastmile_qr_scan", "ios": "https://dc.lft.to/lastmile_qr_scan"}}, {"bike_id": "b659aa32d58fbbbcdfb9ead7a1305813", "fusion_lon": 0.0, "name": "b659aa32d58fbbbcdfb9ead7a1305813", "lat": 38.92448483333333, "is_disabled": 0, "is_reserved": 0, "lon": -77.05250316666667, "type": "electric_scooter", "fusion_lat": 0.0, "rental_uris": {"android": "https://dc.lft.to/lastmile_qr_scan", "ios": "https://dc.lft.to/lastmile_qr_scan"}}, {"bike_id": "4c08a8f2cbff958dcc16c5b5e363a105", "fusion_lon": 0.0, "name": "4c08a8f2cbff958dcc16c5b5e363a105", "lat": 38.94922416666667, "is_disabled": 0, "is_reserved": 0, "lon": -77.01852083333333, "type": "electric_scooter", "fusion_lat": 0.0, "rental_uris": {"android": "https://dc.lft.to/lastmile_qr_scan", "ios": "https://dc.lft.to/lastmile_qr_scan"}}, {"bike_id": "aa66b19dff74904e4988b7d027f36c39", "fusion_lon": 0.0, "name": "aa66b19dff74904e4988b7d027f36c39", "lat": 38.904856833333334, "is_disabled": 0, "is_reserved": 0, "lon": -76.94964633333333, "type": "electric_scooter", "fusion_lat": 0.0, "rental_uris": {"android": "https://dc.lft.to/lastmile_qr_scan", "ios": "https://dc.lft.to/lastmile_qr_scan"}}, {"bike_id": "a266cdba5d1a8563dcf28616a31e44c6", "fusion_lon": 0.0, "name": "a266cdba5d1a8563dcf28616a31e44c6", "lat": 38.914479166666666, "is_disabled": 0, "is_reserved": 0, "lon": -77.0219825, "type": "electric_scooter", "fusion_lat": 0.0, "rental_uris": {"android": "https://dc.lft.to/lastmile_qr_scan", "ios": "https://dc.lft.to/lastmile_qr_scan"}}, {"bike_id": "cbe20abbc62e6704797a22e4b7801a68", "fusion_lon": 0.0, "name": "cbe20abbc62e6704797a22e4b7801a68", "lat": 38.882436, "is_disabled": 0, "is_reserved": 0, "lon": -76.96262, "type": "electric_bike", "fusion_lat": 0.0, "rental_uris": {"android": "https://dc.lft.to/lastmile_qr_scan", "ios": "https://dc.lft.to/lastmile_qr_scan"}}, {"bike_id": "2408c2d1d67401e99425ece73dadfec6", "fusion_lon": 0.0, "name": "2408c2d1d67401e99425ece73dadfec6", "lat": 38.887345333333336, "is_disabled": 0, "is_reserved": 0, "lon": -77.02583, "type": "electric_scooter", "fusion_lat": 0.0, "rental_uris": {"android": "https://dc.lft.to/lastmile_qr_scan", "ios": "https://dc.lft.to/lastmile_qr_scan"}}, {"bike_id": "f0feb378a70cd849c0d7c00297a7ddb9", "fusion_lon": 0.0, "name": "f0feb378a70cd849c0d7c00297a7ddb9", "lat": 38.923713666666664, "is_disabled": 0, "is_reserved": 0, "lon": -77.03132633333334, "type": "electric_scooter", "fusion_lat": 0.0, "rental_uris": {"android": "https://dc.lft.to/lastmile_qr_scan", "ios": "https://dc.lft.to/lastmile_qr_scan"}}, {"bike_id": "82a27bd6de9649b360007e94366dfd4f", "fusion_lon": 0.0, "name": "82a27bd6de9649b360007e94366dfd4f", "lat": 38.9025295, "is_disabled": 0, "is_reserved": 0, "lon": -77.0343645, "type": "electric_scooter", "fusion_lat": 0.0, "rental_uris": {"android": "https://dc.lft.to/lastmile_qr_scan", "ios": "https://dc.lft.to/lastmile_qr_scan"}}, {"bike_id": "5c1295bc57559a02e240659e81b70ee9", "fusion_lon": 0.0, "name": "5c1295bc57559a02e240659e81b70ee9", "lat": 38.891912833333336, "is_disabled": 0, "is_reserved": 0, "lon": -77.00293483333333, "type": "electric_scooter", "fusion_lat": 0.0, "rental_uris": {"android": "https://dc.lft.to/lastmile_qr_scan", "ios": "https://dc.lft.to/lastmile_qr_scan"}}, {"bike_id": "32352d7658200082e4a5f67f4000c3d6", "fusion_lon": 0.0, "name": "32352d7658200082e4a5f67f4000c3d6", "lat": 38.883211333333335, "is_disabled": 0, "is_reserved": 0, "lon": -77.01767533333333, "type": "electric_scooter", "fusion_lat": 0.0, "rental_uris": {"android": "https://dc.lft.to/lastmile_qr_scan", "ios": "https://dc.lft.to/lastmile_qr_scan"}}, {"bike_id": "fbd4fdf6e4477f3259cca0b13394def9", "fusion_lon": 0.0, "name": "fbd4fdf6e4477f3259cca0b13394def9", "lat": 38.902092833333334, "is_disabled": 0, "is_reserved": 0, "lon": -77.02748516666666, "type": "electric_scooter", "fusion_lat": 0.0, "rental_uris": {"android": "https://dc.lft.to/lastmile_qr_scan", "ios": "https://dc.lft.to/lastmile_qr_scan"}}, {"bike_id": "3a33230fecb215b5360a0bf86768f9a8", "fusion_lon": 0.0, "name": "3a33230fecb215b5360a0bf86768f9a8", "lat": 38.921154, "is_disabled": 0, "is_reserved": 0, "lon": -77.07225966666667, "type": "electric_scooter", "fusion_lat": 0.0, "rental_uris": {"android": "https://dc.lft.to/lastmile_qr_scan", "ios": "https://dc.lft.to/lastmile_qr_scan"}}, {"bike_id": "bd69e860e69367c8fb4c3eb7f7b903b4", "fusion_lon": 0.0, "name": "bd69e860e69367c8fb4c3eb7f7b903b4", "lat": 38.92456933333333, "is_disabled": 0, "is_reserved": 0, "lon": -77.06737316666667, "type": "electric_bike", "fusion_lat": 0.0, "rental_uris": {"android": "https://dc.lft.to/lastmile_qr_scan", "ios": "https://dc.lft.to/lastmile_qr_scan"}}, {"bike_id": "de3b38ae04f7f0496990d0e2ec9e10b2", "fusion_lon": 0.0, "name": "de3b38ae04f7f0496990d0e2ec9e10b2", "lat": 38.90304166666667, "is_disabled": 0, "is_reserved": 0, "lon": -77.0603595, "type": "electric_scooter", "fusion_lat": 0.0, "rental_uris": {"android": "https://dc.lft.to/lastmile_qr_scan", "ios": "https://dc.lft.to/lastmile_qr_scan"}}, {"bike_id": "dd0a754f1f87d8d0ad0c3b1c15f466de", "fusion_lon": 0.0, "name": "dd0a754f1f87d8d0ad0c3b1c15f466de", "lat": 38.916986666666666, "is_disabled": 0, "is_reserved": 0, "lon": -77.03332616666667, "type": "electric_scooter", "fusion_lat": 0.0, "rental_uris": {"android": "https://dc.lft.to/lastmile_qr_scan", "ios": "https://dc.lft.to/lastmile_qr_scan"}}, {"bike_id": "67a4e044e58c1e39713285a2d0e73bc0", "fusion_lon": 0.0, "name": "67a4e044e58c1e39713285a2d0e73bc0", "lat": 38.95637933333333, "is_disabled": 0, "is_reserved": 0, "lon": -77.03302633333334, "type": "electric_scooter", "fusion_lat": 0.0, "rental_uris": {"android": "https://dc.lft.to/lastmile_qr_scan", "ios": "https://dc.lft.to/lastmile_qr_scan"}}, {"bike_id": "e1a4a8da3d6b4ec8e63027b87579e906", "fusion_lon": 0.0, "name": "e1a4a8da3d6b4ec8e63027b87579e906", "lat": 38.91775766666667, "is_disabled": 0, "is_reserved": 0, "lon": -77.04104066666666, "type": "electric_scooter", "fusion_lat": 0.0, "rental_uris": {"android": "https://dc.lft.to/lastmile_qr_scan", "ios": "https://dc.lft.to/lastmile_qr_scan"}}, {"bike_id": "89e229460bc1fb603d407b429bfd3803", "fusion_lon": 0.0, "name": "89e229460bc1fb603d407b429bfd3803", "lat": 38.894857, "is_disabled": 0, "is_reserved": 0, "lon": -77.011196, "type": "electric_scooter", "fusion_lat": 0.0, "rental_uris": {"android": "https://dc.lft.to/lastmile_qr_scan", "ios": "https://dc.lft.to/lastmile_qr_scan"}}, {"bike_id": "29d6a5582d7752fe2c4884e9012c0450", "fusion_lon": 0.0, "name": "29d6a5582d7752fe2c4884e9012c0450", "lat": 38.88993033333333, "is_disabled": 0, "is_reserved": 0, "lon": -76.98743566666667, "type": "electric_scooter", "fusion_lat": 0.0, "rental_uris": {"android": "https://dc.lft.to/lastmile_qr_scan", "ios": "https://dc.lft.to/lastmile_qr_scan"}}, {"bike_id": "49628d43d33d1daf9c1556bea10be4bb", "fusion_lon": 0.0, "name": "49628d43d33d1daf9c1556bea10be4bb", "lat": 38.898199166666664, "is_disabled": 0, "is_reserved": 0, "lon": -77.031557, "type": "electric_scooter", "fusion_lat": 0.0, "rental_uris": {"android": "https://dc.lft.to/lastmile_qr_scan", "ios": "https://dc.lft.to/lastmile_qr_scan"}}, {"bike_id": "f235c4cf1c2c201da7fdbad1039cc369", "fusion_lon": 0.0, "name": "f235c4cf1c2c201da7fdbad1039cc369", "lat": 38.91428333333333, "is_disabled": 0, "is_reserved": 0, "lon": -77.064298, "type": "electric_scooter", "fusion_lat": 0.0, "rental_uris": {"android": "https://dc.lft.to/lastmile_qr_scan", "ios": "https://dc.lft.to/lastmile_qr_scan"}}, {"bike_id": "00a1d32918169d841f89711a58333e2d", "fusion_lon": 0.0, "name": "00a1d32918169d841f89711a58333e2d", "lat": 38.8874435, "is_disabled": 0, "is_reserved": 0, "lon": -77.01781233333334, "type": "electric_scooter", "fusion_lat": 0.0, "rental_uris": {"android": "https://dc.lft.to/lastmile_qr_scan", "ios": "https://dc.lft.to/lastmile_qr_scan"}}, {"bike_id": "53a2ee0c5a3716550cf1d583e74ec2eb", "fusion_lon": 0.0, "name": "53a2ee0c5a3716550cf1d583e74ec2eb", "lat": 38.917143333333335, "is_disabled": 0, "is_reserved": 0, "lon": -77.04167533333333, "type": "electric_scooter", "fusion_lat": 0.0, "rental_uris": {"android": "https://dc.lft.to/lastmile_qr_scan", "ios": "https://dc.lft.to/lastmile_qr_scan"}}, {"bike_id": "248ac528af69caf41b7e11c31066f1b4", "fusion_lon": 0.0, "name": "248ac528af69caf41b7e11c31066f1b4", "lat": 38.984984, "is_disabled": 0, "is_reserved": 0, "lon": -76.98198016666667, "type": "electric_bike", "fusion_lat": 0.0, "rental_uris": {"android": "https://dc.lft.to/lastmile_qr_scan", "ios": "https://dc.lft.to/lastmile_qr_scan"}}, {"bike_id": "03c64b86287a2a9da6ee761b43b20dc3", "fusion_lon": 0.0, "name": "03c64b86287a2a9da6ee761b43b20dc3", "lat": 38.884301, "is_disabled": 0, "is_reserved": 0, "lon": -77.0257645, "type": "electric_scooter", "fusion_lat": 0.0, "rental_uris": {"android": "https://dc.lft.to/lastmile_qr_scan", "ios": "https://dc.lft.to/lastmile_qr_scan"}}, {"bike_id": "adbc9a3e7b563ba0c931b197966fffc2", "fusion_lon": 0.0, "name": "adbc9a3e7b563ba0c931b197966fffc2", "lat": 38.874607833333336, "is_disabled": 0, "is_reserved": 0, "lon": -77.00971933333334, "type": "electric_scooter", "fusion_lat": 0.0, "rental_uris": {"android": "https://dc.lft.to/lastmile_qr_scan", "ios": "https://dc.lft.to/lastmile_qr_scan"}}, {"bike_id": "642edc94a0c7d114ade3c5cbb074e583", "fusion_lon": 0.0, "name": "642edc94a0c7d114ade3c5cbb074e583", "lat": 38.8955905, "is_disabled": 0, "is_reserved": 0, "lon": -76.998385, "type": "electric_scooter", "fusion_lat": 0.0, "rental_uris": {"android": "https://dc.lft.to/lastmile_qr_scan", "ios": "https://dc.lft.to/lastmile_qr_scan"}}, {"bike_id": "cda4b1a31645dd0b328f1aa7c07e36f2", "fusion_lon": 0.0, "name": "cda4b1a31645dd0b328f1aa7c07e36f2", "lat": 38.883981, "is_disabled": 0, "is_reserved": 0, "lon": -76.98585683333333, "type": "electric_scooter", "fusion_lat": 0.0, "rental_uris": {"android": "https://dc.lft.to/lastmile_qr_scan", "ios": "https://dc.lft.to/lastmile_qr_scan"}}, {"bike_id": "44a689b19cb066b38586eaa5c48dd01f", "fusion_lon": 0.0, "name": "44a689b19cb066b38586eaa5c48dd01f", "lat": 38.8849025, "is_disabled": 0, "is_reserved": 0, "lon": -77.00731, "type": "electric_scooter", "fusion_lat": 0.0, "rental_uris": {"android": "https://dc.lft.to/lastmile_qr_scan", "ios": "https://dc.lft.to/lastmile_qr_scan"}}, {"bike_id": "66e5fb50beb858f78a21eef92d03004b", "fusion_lon": 0.0, "name": "66e5fb50beb858f78a21eef92d03004b", "lat": 38.860562333333334, "is_disabled": 0, "is_reserved": 0, "lon": -76.98499833333334, "type": "electric_scooter", "fusion_lat": 0.0, "rental_uris": {"android": "https://dc.lft.to/lastmile_qr_scan", "ios": "https://dc.lft.to/lastmile_qr_scan"}}, {"bike_id": "ffbf91c64656ece2a59e1c3b05e5de5e", "fusion_lon": 0.0, "name": "ffbf91c64656ece2a59e1c3b05e5de5e", "lat": 38.8852385, "is_disabled": 0, "is_reserved": 0, "lon": -77.01512933333333, "type": "electric_scooter", "fusion_lat": 0.0, "rental_uris": {"android": "https://dc.lft.to/lastmile_qr_scan", "ios": "https://dc.lft.to/lastmile_qr_scan"}}, {"bike_id": "3dd7e1750d7e82addb40fd11c0146248", "fusion_lon": 0.0, "name": "3dd7e1750d7e82addb40fd11c0146248", "lat": 38.92419816666666, "is_disabled": 0, "is_reserved": 0, "lon": -77.051769, "type": "electric_scooter", "fusion_lat": 0.0, "rental_uris": {"android": "https://dc.lft.to/lastmile_qr_scan", "ios": "https://dc.lft.to/lastmile_qr_scan"}}, {"bike_id": "fc0c7be92efcc20f2ff7d740973808d2", "fusion_lon": 0.0, "name": "fc0c7be92efcc20f2ff7d740973808d2", "lat": 38.90733516666667, "is_disabled": 0, "is_reserved": 0, "lon": -77.013056, "type": "electric_scooter", "fusion_lat": 0.0, "rental_uris": {"android": "https://dc.lft.to/lastmile_qr_scan", "ios": "https://dc.lft.to/lastmile_qr_scan"}}, {"bike_id": "bfd26578af14f485f53af389feba23ba", "fusion_lon": 0.0, "name": "bfd26578af14f485f53af389feba23ba", "lat": 38.88745266666667, "is_disabled": 0, "is_reserved": 0, "lon": -76.9835985, "type": "electric_scooter", "fusion_lat": 0.0, "rental_uris": {"android": "https://dc.lft.to/lastmile_qr_scan", "ios": "https://dc.lft.to/lastmile_qr_scan"}}, {"bike_id": "2fe639a8bf94785d5a2a1b82c87dd947", "fusion_lon": 0.0, "name": "2fe639a8bf94785d5a2a1b82c87dd947", "lat": 38.884902, "is_disabled": 0, "is_reserved": 0, "lon": -77.00706966666667, "type": "electric_scooter", "fusion_lat": 0.0, "rental_uris": {"android": "https://dc.lft.to/lastmile_qr_scan", "ios": "https://dc.lft.to/lastmile_qr_scan"}}, {"bike_id": "17ae823b421671893e89042ef1301fc9", "fusion_lon": 0.0, "name": "17ae823b421671893e89042ef1301fc9", "lat": 38.884862166666665, "is_disabled": 0, "is_reserved": 0, "lon": -76.95643966666667, "type": "electric_scooter", "fusion_lat": 0.0, "rental_uris": {"android": "https://dc.lft.to/lastmile_qr_scan", "ios": "https://dc.lft.to/lastmile_qr_scan"}}, {"bike_id": "9e5ffadfa7436c7a81c265b6fb05a49d", "fusion_lon": 0.0, "name": "9e5ffadfa7436c7a81c265b6fb05a49d", "lat": 38.91341533333333, "is_disabled": 0, "is_reserved": 0, "lon": -77.03169083333333, "type": "electric_scooter", "fusion_lat": 0.0, "rental_uris": {"android": "https://dc.lft.to/lastmile_qr_scan", "ios": "https://dc.lft.to/lastmile_qr_scan"}}, {"bike_id": "ae0ec11282f93daa4d3ba3621821b98b", "fusion_lon": 0.0, "name": "ae0ec11282f93daa4d3ba3621821b98b", "lat": 38.87833033333333, "is_disabled": 0, "is_reserved": 0, "lon": -76.9903235, "type": "electric_scooter", "fusion_lat": 0.0, "rental_uris": {"android": "https://dc.lft.to/lastmile_qr_scan", "ios": "https://dc.lft.to/lastmile_qr_scan"}}, {"bike_id": "6747629b014adb8c120e41c2f234eb40", "fusion_lon": 0.0, "name": "6747629b014adb8c120e41c2f234eb40", "lat": 38.83939933333333, "is_disabled": 0, "is_reserved": 0, "lon": -77.08741933333333, "type": "electric_bike", "fusion_lat": 0.0, "rental_uris": {"android": "https://dc.lft.to/lastmile_qr_scan", "ios": "https://dc.lft.to/lastmile_qr_scan"}}, {"bike_id": "418e449c8fc75889140ec9e60f344395", "fusion_lon": 0.0, "name": "418e449c8fc75889140ec9e60f344395", "lat": 38.905677, "is_disabled": 0, "is_reserved": 0, "lon": -77.0039075, "type": "electric_scooter", "fusion_lat": 0.0, "rental_uris": {"android": "https://dc.lft.to/lastmile_qr_scan", "ios": "https://dc.lft.to/lastmile_qr_scan"}}, {"bike_id": "cc704ffe947339d063a4faa8ae617e7b", "fusion_lon": 0.0, "name": "cc704ffe947339d063a4faa8ae617e7b", "lat": 38.838651666666664, "is_disabled": 0, "is_reserved": 0, "lon": -76.9969545, "type": "electric_scooter", "fusion_lat": 0.0, "rental_uris": {"android": "https://dc.lft.to/lastmile_qr_scan", "ios": "https://dc.lft.to/lastmile_qr_scan"}}, {"bike_id": "9573645119bd9e6284c4aef75d4e324c", "fusion_lon": 0.0, "name": "9573645119bd9e6284c4aef75d4e324c", "lat": 38.921242666666664, "is_disabled": 0, "is_reserved": 0, "lon": -77.041133, "type": "electric_scooter", "fusion_lat": 0.0, "rental_uris": {"android": "https://dc.lft.to/lastmile_qr_scan", "ios": "https://dc.lft.to/lastmile_qr_scan"}}, {"bike_id": "3ae6724e868f7e1aa92d806fec1b2ead", "fusion_lon": 0.0, "name": "3ae6724e868f7e1aa92d806fec1b2ead", "lat": 38.911178666666665, "is_disabled": 0, "is_reserved": 0, "lon": -77.03435983333334, "type": "electric_scooter", "fusion_lat": 0.0, "rental_uris": {"android": "https://dc.lft.to/lastmile_qr_scan", "ios": "https://dc.lft.to/lastmile_qr_scan"}}, {"bike_id": "d27784d5fa2aa427d55cb90d804caa8d", "fusion_lon": 0.0, "name": "d27784d5fa2aa427d55cb90d804caa8d", "lat": 38.93537966666667, "is_disabled": 0, "is_reserved": 0, "lon": -77.02344016666666, "type": "electric_scooter", "fusion_lat": 0.0, "rental_uris": {"android": "https://dc.lft.to/lastmile_qr_scan", "ios": "https://dc.lft.to/lastmile_qr_scan"}}, {"bike_id": "54122caa82eb462e83647da8fc6c27ac", "fusion_lon": 0.0, "name": "54122caa82eb462e83647da8fc6c27ac", "lat": 38.92709, "is_disabled": 0, "is_reserved": 0, "lon": -77.02434383333333, "type": "electric_scooter", "fusion_lat": 0.0, "rental_uris": {"android": "https://dc.lft.to/lastmile_qr_scan", "ios": "https://dc.lft.to/lastmile_qr_scan"}}, {"bike_id": "3b024418ebe381fe99053d8f1ee18384", "fusion_lon": 0.0, "name": "3b024418ebe381fe99053d8f1ee18384", "lat": 38.911408, "is_disabled": 0, "is_reserved": 0, "lon": -77.02806616666666, "type": "electric_scooter", "fusion_lat": 0.0, "rental_uris": {"android": "https://dc.lft.to/lastmile_qr_scan", "ios": "https://dc.lft.to/lastmile_qr_scan"}}, {"bike_id": "3858a967dd944212ac24597767ae4440", "fusion_lon": 0.0, "name": "3858a967dd944212ac24597767ae4440", "lat": 38.90561116666667, "is_disabled": 0, "is_reserved": 0, "lon": -77.00283, "type": "electric_scooter", "fusion_lat": 0.0, "rental_uris": {"android": "https://dc.lft.to/lastmile_qr_scan", "ios": "https://dc.lft.to/lastmile_qr_scan"}}, {"bike_id": "f78f4dc5f63649151e78da3384972eaf", "fusion_lon": 0.0, "name": "f78f4dc5f63649151e78da3384972eaf", "lat": 38.908057, "is_disabled": 0, "is_reserved": 0, "lon": -77.04320666666666, "type": "electric_scooter", "fusion_lat": 0.0, "rental_uris": {"android": "https://dc.lft.to/lastmile_qr_scan", "ios": "https://dc.lft.to/lastmile_qr_scan"}}, {"bike_id": "04d7bd4505d279ee785bb2558d22589d", "fusion_lon": 0.0, "name": "04d7bd4505d279ee785bb2558d22589d", "lat": 38.91616916666667, "is_disabled": 0, "is_reserved": 0, "lon": -77.0488515, "type": "electric_scooter", "fusion_lat": 0.0, "rental_uris": {"android": "https://dc.lft.to/lastmile_qr_scan", "ios": "https://dc.lft.to/lastmile_qr_scan"}}, {"bike_id": "737cf9e9d65601672482a82696cb7be2", "fusion_lon": 0.0, "name": "737cf9e9d65601672482a82696cb7be2", "lat": 38.90952133333333, "is_disabled": 0, "is_reserved": 0, "lon": -77.03861316666666, "type": "electric_scooter", "fusion_lat": 0.0, "rental_uris": {"android": "https://dc.lft.to/lastmile_qr_scan", "ios": "https://dc.lft.to/lastmile_qr_scan"}}, {"bike_id": "e88713f100b202296a07c39763b6d54d", "fusion_lon": 0.0, "name": "e88713f100b202296a07c39763b6d54d", "lat": 38.91310516666667, "is_disabled": 0, "is_reserved": 0, "lon": -77.03189433333333, "type": "electric_scooter", "fusion_lat": 0.0, "rental_uris": {"android": "https://dc.lft.to/lastmile_qr_scan", "ios": "https://dc.lft.to/lastmile_qr_scan"}}, {"bike_id": "cf413dd185db3fcc1b35372afe94c42e", "fusion_lon": 0.0, "name": "cf413dd185db3fcc1b35372afe94c42e", "lat": 38.911123333333336, "is_disabled": 0, "is_reserved": 0, "lon": -77.03829866666666, "type": "electric_scooter", "fusion_lat": 0.0, "rental_uris": {"android": "https://dc.lft.to/lastmile_qr_scan", "ios": "https://dc.lft.to/lastmile_qr_scan"}}, {"bike_id": "a07aeaa7cfc2e5b31e8946fcfe634d61", "fusion_lon": 0.0, "name": "a07aeaa7cfc2e5b31e8946fcfe634d61", "lat": 38.87805816666667, "is_disabled": 0, "is_reserved": 0, "lon": -77.0012295, "type": "electric_scooter", "fusion_lat": 0.0, "rental_uris": {"android": "https://dc.lft.to/lastmile_qr_scan", "ios": "https://dc.lft.to/lastmile_qr_scan"}}, {"bike_id": "51c67bf312a87b8b1dcce7a53fd34656", "fusion_lon": 0.0, "name": "51c67bf312a87b8b1dcce7a53fd34656", "lat": 38.918246, "is_disabled": 0, "is_reserved": 0, "lon": -77.041838, "type": "electric_scooter", "fusion_lat": 0.0, "rental_uris": {"android": "https://dc.lft.to/lastmile_qr_scan", "ios": "https://dc.lft.to/lastmile_qr_scan"}}, {"bike_id": "54b5a501d6cb53f1e6a6dd382c8814ee", "fusion_lon": 0.0, "name": "54b5a501d6cb53f1e6a6dd382c8814ee", "lat": 38.93512666666667, "is_disabled": 0, "is_reserved": 0, "lon": -77.05841683333334, "type": "electric_scooter", "fusion_lat": 0.0, "rental_uris": {"android": "https://dc.lft.to/lastmile_qr_scan", "ios": "https://dc.lft.to/lastmile_qr_scan"}}, {"bike_id": "a8af0b08594717e65465c18f78aeea8f", "fusion_lon": 0.0, "name": "a8af0b08594717e65465c18f78aeea8f", "lat": 38.88414216666666, "is_disabled": 0, "is_reserved": 0, "lon": -76.95420066666667, "type": "electric_bike", "fusion_lat": 0.0, "rental_uris": {"android": "https://dc.lft.to/lastmile_qr_scan", "ios": "https://dc.lft.to/lastmile_qr_scan"}}, {"bike_id": "44755eb6f7b560a5e8e30fec39df098e", "fusion_lon": 0.0, "name": "44755eb6f7b560a5e8e30fec39df098e", "lat": 38.88745316666667, "is_disabled": 0, "is_reserved": 0, "lon": -77.02116816666667, "type": "electric_scooter", "fusion_lat": 0.0, "rental_uris": {"android": "https://dc.lft.to/lastmile_qr_scan", "ios": "https://dc.lft.to/lastmile_qr_scan"}}, {"bike_id": "10cd5486503179df60c5ac7063676962", "fusion_lon": 0.0, "name": "10cd5486503179df60c5ac7063676962", "lat": 38.90655566666667, "is_disabled": 0, "is_reserved": 0, "lon": -77.071917, "type": "electric_scooter", "fusion_lat": 0.0, "rental_uris": {"android": "https://dc.lft.to/lastmile_qr_scan", "ios": "https://dc.lft.to/lastmile_qr_scan"}}, {"bike_id": "7ca9c080d1cbf4e8d53e1a5211664693", "fusion_lon": 0.0, "name": "7ca9c080d1cbf4e8d53e1a5211664693", "lat": 38.92250166666667, "is_disabled": 0, "is_reserved": 0, "lon": -77.01951566666666, "type": "electric_scooter", "fusion_lat": 0.0, "rental_uris": {"android": "https://dc.lft.to/lastmile_qr_scan", "ios": "https://dc.lft.to/lastmile_qr_scan"}}, {"bike_id": "85b79805fd3825acd78afed06b516504", "fusion_lon": 0.0, "name": "85b79805fd3825acd78afed06b516504", "lat": 38.901422833333335, "is_disabled": 0, "is_reserved": 0, "lon": -77.06074183333334, "type": "electric_scooter", "fusion_lat": 0.0, "rental_uris": {"android": "https://dc.lft.to/lastmile_qr_scan", "ios": "https://dc.lft.to/lastmile_qr_scan"}}, {"bike_id": "d01d0c415402d39edfe86ce7dc6527d5", "fusion_lon": 0.0, "name": "d01d0c415402d39edfe86ce7dc6527d5", "lat": 38.900488833333334, "is_disabled": 0, "is_reserved": 0, "lon": -77.00071383333334, "type": "electric_scooter", "fusion_lat": 0.0, "rental_uris": {"android": "https://dc.lft.to/lastmile_qr_scan", "ios": "https://dc.lft.to/lastmile_qr_scan"}}, {"bike_id": "5f63a3b9cce7b89680f595e498c640f7", "fusion_lon": 0.0, "name": "5f63a3b9cce7b89680f595e498c640f7", "lat": 38.95181816666667, "is_disabled": 0, "is_reserved": 0, "lon": -77.02727683333333, "type": "electric_scooter", "fusion_lat": 0.0, "rental_uris": {"android": "https://dc.lft.to/lastmile_qr_scan", "ios": "https://dc.lft.to/lastmile_qr_scan"}}, {"bike_id": "4d863839d8c7b093f518468cc9fc7a3f", "fusion_lon": 0.0, "name": "4d863839d8c7b093f518468cc9fc7a3f", "lat": 38.90256633333333, "is_disabled": 0, "is_reserved": 0, "lon": -77.053267, "type": "electric_scooter", "fusion_lat": 0.0, "rental_uris": {"android": "https://dc.lft.to/lastmile_qr_scan", "ios": "https://dc.lft.to/lastmile_qr_scan"}}, {"bike_id": "65edc1ebac1b2c1c17cad572e2e959f8", "fusion_lon": 0.0, "name": "65edc1ebac1b2c1c17cad572e2e959f8", "lat": 38.9499, "is_disabled": 0, "is_reserved": 0, "lon": -77.02703833333334, "type": "electric_scooter", "fusion_lat": 0.0, "rental_uris": {"android": "https://dc.lft.to/lastmile_qr_scan", "ios": "https://dc.lft.to/lastmile_qr_scan"}}, {"bike_id": "c3044f55274988c2e4572160ce60d609", "fusion_lon": 0.0, "name": "c3044f55274988c2e4572160ce60d609", "lat": 38.91764666666667, "is_disabled": 0, "is_reserved": 0, "lon": -77.02303166666667, "type": "electric_scooter", "fusion_lat": 0.0, "rental_uris": {"android": "https://dc.lft.to/lastmile_qr_scan", "ios": "https://dc.lft.to/lastmile_qr_scan"}}, {"bike_id": "0d7c9c5b4f34f75075a56c05598f82a3", "fusion_lon": 0.0, "name": "0d7c9c5b4f34f75075a56c05598f82a3", "lat": 38.891157, "is_disabled": 0, "is_reserved": 0, "lon": -76.93846266666667, "type": "electric_scooter", "fusion_lat": 0.0, "rental_uris": {"android": "https://dc.lft.to/lastmile_qr_scan", "ios": "https://dc.lft.to/lastmile_qr_scan"}}, {"bike_id": "39f70a18b0c58793415277acfa167d35", "fusion_lon": 0.0, "name": "39f70a18b0c58793415277acfa167d35", "lat": 38.90975783333333, "is_disabled": 0, "is_reserved": 0, "lon": -77.02862833333333, "type": "electric_scooter", "fusion_lat": 0.0, "rental_uris": {"android": "https://dc.lft.to/lastmile_qr_scan", "ios": "https://dc.lft.to/lastmile_qr_scan"}}, {"bike_id": "fec3fe6dbebe54d07b63d65c3a5a7a82", "fusion_lon": 0.0, "name": "fec3fe6dbebe54d07b63d65c3a5a7a82", "lat": 38.916889833333336, "is_disabled": 0, "is_reserved": 0, "lon": -77.02956083333333, "type": "electric_scooter", "fusion_lat": 0.0, "rental_uris": {"android": "https://dc.lft.to/lastmile_qr_scan", "ios": "https://dc.lft.to/lastmile_qr_scan"}}, {"bike_id": "dac752f10414548f426af4099af72a93", "fusion_lon": 0.0, "name": "dac752f10414548f426af4099af72a93", "lat": 38.94913483333333, "is_disabled": 0, "is_reserved": 0, "lon": -77.0086825, "type": "electric_scooter", "fusion_lat": 0.0, "rental_uris": {"android": "https://dc.lft.to/lastmile_qr_scan", "ios": "https://dc.lft.to/lastmile_qr_scan"}}, {"bike_id": "aafda3bfd9688ed9302bf236b167ba46", "fusion_lon": 0.0, "name": "aafda3bfd9688ed9302bf236b167ba46", "lat": 38.926466166666664, "is_disabled": 0, "is_reserved": 0, "lon": -77.03321483333333, "type": "electric_scooter", "fusion_lat": 0.0, "rental_uris": {"android": "https://dc.lft.to/lastmile_qr_scan", "ios": "https://dc.lft.to/lastmile_qr_scan"}}, {"bike_id": "6ff3698d4b6b8c778f45684f9004b275", "fusion_lon": 0.0, "name": "6ff3698d4b6b8c778f45684f9004b275", "lat": 38.955596666666665, "is_disabled": 0, "is_reserved": 0, "lon": -77.0143175, "type": "electric_scooter", "fusion_lat": 0.0, "rental_uris": {"android": "https://dc.lft.to/lastmile_qr_scan", "ios": "https://dc.lft.to/lastmile_qr_scan"}}, {"bike_id": "aaef99ed14edf453da2d84ece6d98fc9", "fusion_lon": 0.0, "name": "aaef99ed14edf453da2d84ece6d98fc9", "lat": 38.8565205, "is_disabled": 0, "is_reserved": 0, "lon": -76.99670966666666, "type": "electric_scooter", "fusion_lat": 0.0, "rental_uris": {"android": "https://dc.lft.to/lastmile_qr_scan", "ios": "https://dc.lft.to/lastmile_qr_scan"}}, {"bike_id": "5bc9fe065d1a0ecf2870377f48100c96", "fusion_lon": 0.0, "name": "5bc9fe065d1a0ecf2870377f48100c96", "lat": 38.887197666666665, "is_disabled": 0, "is_reserved": 0, "lon": -77.022075, "type": "electric_scooter", "fusion_lat": 0.0, "rental_uris": {"android": "https://dc.lft.to/lastmile_qr_scan", "ios": "https://dc.lft.to/lastmile_qr_scan"}}, {"bike_id": "61371223516e7482c7def34d9c5e0edb", "fusion_lon": 0.0, "name": "61371223516e7482c7def34d9c5e0edb", "lat": 38.89740883333333, "is_disabled": 0, "is_reserved": 0, "lon": -77.02610366666667, "type": "electric_scooter", "fusion_lat": 0.0, "rental_uris": {"android": "https://dc.lft.to/lastmile_qr_scan", "ios": "https://dc.lft.to/lastmile_qr_scan"}}, {"bike_id": "9c3f3b37dcb5dd9b529e24fcf1cc7bac", "fusion_lon": 0.0, "name": "9c3f3b37dcb5dd9b529e24fcf1cc7bac", "lat": 38.928605, "is_disabled": 0, "is_reserved": 0, "lon": -77.01375083333333, "type": "electric_scooter", "fusion_lat": 0.0, "rental_uris": {"android": "https://dc.lft.to/lastmile_qr_scan", "ios": "https://dc.lft.to/lastmile_qr_scan"}}, {"bike_id": "373a49feb633d9a8f12e2af292b484ef", "fusion_lon": 0.0, "name": "373a49feb633d9a8f12e2af292b484ef", "lat": 38.89733283333333, "is_disabled": 0, "is_reserved": 0, "lon": -76.92046316666666, "type": "electric_bike", "fusion_lat": 0.0, "rental_uris": {"android": "https://dc.lft.to/lastmile_qr_scan", "ios": "https://dc.lft.to/lastmile_qr_scan"}}, {"bike_id": "f8a626db14a200d3747d09b3330f6d12", "fusion_lon": 0.0, "name": "f8a626db14a200d3747d09b3330f6d12", "lat": 38.8981135, "is_disabled": 0, "is_reserved": 0, "lon": -77.01224333333333, "type": "electric_scooter", "fusion_lat": 0.0, "rental_uris": {"android": "https://dc.lft.to/lastmile_qr_scan", "ios": "https://dc.lft.to/lastmile_qr_scan"}}, {"bike_id": "1aaf5d67c2641045c35e1eaf3c89c6dd", "fusion_lon": 0.0, "name": "1aaf5d67c2641045c35e1eaf3c89c6dd", "lat": 38.89729483333333, "is_disabled": 0, "is_reserved": 0, "lon": -77.003743, "type": "electric_scooter", "fusion_lat": 0.0, "rental_uris": {"android": "https://dc.lft.to/lastmile_qr_scan", "ios": "https://dc.lft.to/lastmile_qr_scan"}}, {"bike_id": "eda43393f0e05caac269a94a05e61c5c", "fusion_lon": 0.0, "name": "eda43393f0e05caac269a94a05e61c5c", "lat": 38.961331, "is_disabled": 0, "is_reserved": 0, "lon": -77.027803, "type": "electric_scooter", "fusion_lat": 0.0, "rental_uris": {"android": "https://dc.lft.to/lastmile_qr_scan", "ios": "https://dc.lft.to/lastmile_qr_scan"}}, {"bike_id": "d8f03155272f665dc913180a08254beb", "fusion_lon": 0.0, "name": "d8f03155272f665dc913180a08254beb", "lat": 38.92452316666667, "is_disabled": 0, "is_reserved": 0, "lon": -77.03323466666667, "type": "electric_scooter", "fusion_lat": 0.0, "rental_uris": {"android": "https://dc.lft.to/lastmile_qr_scan", "ios": "https://dc.lft.to/lastmile_qr_scan"}}, {"bike_id": "cc9b7588c083795fd9a4ce519b3ec754", "fusion_lon": 0.0, "name": "cc9b7588c083795fd9a4ce519b3ec754", "lat": 38.931216166666665, "is_disabled": 0, "is_reserved": 0, "lon": -77.03878633333333, "type": "electric_scooter", "fusion_lat": 0.0, "rental_uris": {"android": "https://dc.lft.to/lastmile_qr_scan", "ios": "https://dc.lft.to/lastmile_qr_scan"}}, {"bike_id": "6db07d249a4647f6eccbbfc2913272d6", "fusion_lon": 0.0, "name": "6db07d249a4647f6eccbbfc2913272d6", "lat": 38.90568666666667, "is_disabled": 0, "is_reserved": 0, "lon": -77.05127633333333, "type": "electric_scooter", "fusion_lat": 0.0, "rental_uris": {"android": "https://dc.lft.to/lastmile_qr_scan", "ios": "https://dc.lft.to/lastmile_qr_scan"}}, {"bike_id": "54a5a10e9acee8a8ebe9b955b441f961", "fusion_lon": 0.0, "name": "54a5a10e9acee8a8ebe9b955b441f961", "lat": 38.88524983333333, "is_disabled": 0, "is_reserved": 0, "lon": -77.01512366666667, "type": "electric_scooter", "fusion_lat": 0.0, "rental_uris": {"android": "https://dc.lft.to/lastmile_qr_scan", "ios": "https://dc.lft.to/lastmile_qr_scan"}}, {"bike_id": "e83b414207de15fa956cdf0276b9c214", "fusion_lon": 0.0, "name": "e83b414207de15fa956cdf0276b9c214", "lat": 38.905109, "is_disabled": 0, "is_reserved": 0, "lon": -77.05685983333333, "type": "electric_scooter", "fusion_lat": 0.0, "rental_uris": {"android": "https://dc.lft.to/lastmile_qr_scan", "ios": "https://dc.lft.to/lastmile_qr_scan"}}, {"bike_id": "2458d8aa968edc475de41542f1c97dfb", "fusion_lon": 0.0, "name": "2458d8aa968edc475de41542f1c97dfb", "lat": 38.90234, "is_disabled": 0, "is_reserved": 0, "lon": -77.05936033333333, "type": "electric_scooter", "fusion_lat": 0.0, "rental_uris": {"android": "https://dc.lft.to/lastmile_qr_scan", "ios": "https://dc.lft.to/lastmile_qr_scan"}}, {"bike_id": "f27723e105e593d10e6ff1c28b583b60", "fusion_lon": 0.0, "name": "f27723e105e593d10e6ff1c28b583b60", "lat": 38.887195166666665, "is_disabled": 0, "is_reserved": 0, "lon": -76.99685866666667, "type": "electric_scooter", "fusion_lat": 0.0, "rental_uris": {"android": "https://dc.lft.to/lastmile_qr_scan", "ios": "https://dc.lft.to/lastmile_qr_scan"}}, {"bike_id": "0a98970bbb0922a3b21ecc6bd64879f9", "fusion_lon": 0.0, "name": "0a98970bbb0922a3b21ecc6bd64879f9", "lat": 38.923525833333336, "is_disabled": 0, "is_reserved": 0, "lon": -77.05046783333333, "type": "electric_scooter", "fusion_lat": 0.0, "rental_uris": {"android": "https://dc.lft.to/lastmile_qr_scan", "ios": "https://dc.lft.to/lastmile_qr_scan"}}, {"bike_id": "e2118eb4d18ed7249a305c3f9757c499", "fusion_lon": 0.0, "name": "e2118eb4d18ed7249a305c3f9757c499", "lat": 38.90218633333333, "is_disabled": 0, "is_reserved": 0, "lon": -77.0482565, "type": "electric_scooter", "fusion_lat": 0.0, "rental_uris": {"android": "https://dc.lft.to/lastmile_qr_scan", "ios": "https://dc.lft.to/lastmile_qr_scan"}}, {"bike_id": "182be13f79c01a795e4d97b697bb88d4", "fusion_lon": 0.0, "name": "182be13f79c01a795e4d97b697bb88d4", "lat": 38.922723166666664, "is_disabled": 0, "is_reserved": 0, "lon": -77.042348, "type": "electric_scooter", "fusion_lat": 0.0, "rental_uris": {"android": "https://dc.lft.to/lastmile_qr_scan", "ios": "https://dc.lft.to/lastmile_qr_scan"}}, {"bike_id": "11145d387f6dc19b00c3c0c84ecd1caa", "fusion_lon": 0.0, "name": "11145d387f6dc19b00c3c0c84ecd1caa", "lat": 38.910052666666665, "is_disabled": 0, "is_reserved": 0, "lon": -76.99413183333333, "type": "electric_scooter", "fusion_lat": 0.0, "rental_uris": {"android": "https://dc.lft.to/lastmile_qr_scan", "ios": "https://dc.lft.to/lastmile_qr_scan"}}, {"bike_id": "926648bb25bb2e685e5a8f9cf220cb14", "fusion_lon": 0.0, "name": "926648bb25bb2e685e5a8f9cf220cb14", "lat": 38.91266683333333, "is_disabled": 0, "is_reserved": 0, "lon": -77.0383015, "type": "electric_scooter", "fusion_lat": 0.0, "rental_uris": {"android": "https://dc.lft.to/lastmile_qr_scan", "ios": "https://dc.lft.to/lastmile_qr_scan"}}, {"bike_id": "950b57a70adf00b530a4f0d7e6b51b15", "fusion_lon": 0.0, "name": "950b57a70adf00b530a4f0d7e6b51b15", "lat": 38.92835016666667, "is_disabled": 0, "is_reserved": 0, "lon": -77.0328525, "type": "electric_scooter", "fusion_lat": 0.0, "rental_uris": {"android": "https://dc.lft.to/lastmile_qr_scan", "ios": "https://dc.lft.to/lastmile_qr_scan"}}, {"bike_id": "5bd79307c3189d2ea2fc1daca1479aa4", "fusion_lon": 0.0, "name": "5bd79307c3189d2ea2fc1daca1479aa4", "lat": 38.95711133333333, "is_disabled": 0, "is_reserved": 0, "lon": -77.00283416666667, "type": "electric_scooter", "fusion_lat": 0.0, "rental_uris": {"android": "https://dc.lft.to/lastmile_qr_scan", "ios": "https://dc.lft.to/lastmile_qr_scan"}}, {"bike_id": "4bc174a54de3d44d43cd370b51541725", "fusion_lon": 0.0, "name": "4bc174a54de3d44d43cd370b51541725", "lat": 38.89861, "is_disabled": 0, "is_reserved": 0, "lon": -76.94639933333333, "type": "electric_scooter", "fusion_lat": 0.0, "rental_uris": {"android": "https://dc.lft.to/lastmile_qr_scan", "ios": "https://dc.lft.to/lastmile_qr_scan"}}, {"bike_id": "12c33b3d90b443629270e64c5b85af45", "fusion_lon": 0.0, "name": "12c33b3d90b443629270e64c5b85af45", "lat": 38.8427875, "is_disabled": 0, "is_reserved": 0, "lon": -77.0449975, "type": "electric_bike", "fusion_lat": 0.0, "rental_uris": {"android": "https://dc.lft.to/lastmile_qr_scan", "ios": "https://dc.lft.to/lastmile_qr_scan"}}, {"bike_id": "f0ef6a8369d8ad64b15274d7d29d256b", "fusion_lon": 0.0, "name": "f0ef6a8369d8ad64b15274d7d29d256b", "lat": 38.910884, "is_disabled": 0, "is_reserved": 0, "lon": -77.03842383333334, "type": "electric_scooter", "fusion_lat": 0.0, "rental_uris": {"android": "https://dc.lft.to/lastmile_qr_scan", "ios": "https://dc.lft.to/lastmile_qr_scan"}}, {"bike_id": "be627403a6bf46df12bb4af13178cc91", "fusion_lon": 0.0, "name": "be627403a6bf46df12bb4af13178cc91", "lat": 38.90868533333333, "is_disabled": 0, "is_reserved": 0, "lon": -77.03222133333334, "type": "electric_scooter", "fusion_lat": 0.0, "rental_uris": {"android": "https://dc.lft.to/lastmile_qr_scan", "ios": "https://dc.lft.to/lastmile_qr_scan"}}, {"bike_id": "3f28fff56fe55209f696e8d46bc73e24", "fusion_lon": 0.0, "name": "3f28fff56fe55209f696e8d46bc73e24", "lat": 38.866796666666666, "is_disabled": 0, "is_reserved": 0, "lon": -76.98565966666666, "type": "electric_scooter", "fusion_lat": 0.0, "rental_uris": {"android": "https://dc.lft.to/lastmile_qr_scan", "ios": "https://dc.lft.to/lastmile_qr_scan"}}, {"bike_id": "b13ef00bf88cd15c3d535620f0939a5a", "fusion_lon": 0.0, "name": "b13ef00bf88cd15c3d535620f0939a5a", "lat": 38.8998745, "is_disabled": 0, "is_reserved": 0, "lon": -77.006638, "type": "electric_scooter", "fusion_lat": 0.0, "rental_uris": {"android": "https://dc.lft.to/lastmile_qr_scan", "ios": "https://dc.lft.to/lastmile_qr_scan"}}, {"bike_id": "1f47b7e865e118deeda392720b611b0d", "fusion_lon": 0.0, "name": "1f47b7e865e118deeda392720b611b0d", "lat": 38.902913166666664, "is_disabled": 0, "is_reserved": 0, "lon": -77.03968733333333, "type": "electric_scooter", "fusion_lat": 0.0, "rental_uris": {"android": "https://dc.lft.to/lastmile_qr_scan", "ios": "https://dc.lft.to/lastmile_qr_scan"}}, {"bike_id": "46c69c8d30fbb90742acac51a351cfce", "fusion_lon": 0.0, "name": "46c69c8d30fbb90742acac51a351cfce", "lat": 38.9286135, "is_disabled": 0, "is_reserved": 0, "lon": -77.033762, "type": "electric_scooter", "fusion_lat": 0.0, "rental_uris": {"android": "https://dc.lft.to/lastmile_qr_scan", "ios": "https://dc.lft.to/lastmile_qr_scan"}}, {"bike_id": "0dd8d03ebf10e366ae2e15887561d410", "fusion_lon": 0.0, "name": "0dd8d03ebf10e366ae2e15887561d410", "lat": 38.934635, "is_disabled": 0, "is_reserved": 0, "lon": -77.0412475, "type": "electric_scooter", "fusion_lat": 0.0, "rental_uris": {"android": "https://dc.lft.to/lastmile_qr_scan", "ios": "https://dc.lft.to/lastmile_qr_scan"}}, {"bike_id": "c8a3576b057cdf937dbf1d2d1aa6acfe", "fusion_lon": 0.0, "name": "c8a3576b057cdf937dbf1d2d1aa6acfe", "lat": 38.92751366666667, "is_disabled": 0, "is_reserved": 0, "lon": -77.0308415, "type": "electric_scooter", "fusion_lat": 0.0, "rental_uris": {"android": "https://dc.lft.to/lastmile_qr_scan", "ios": "https://dc.lft.to/lastmile_qr_scan"}}, {"bike_id": "3992f88f27b0e6bf12ed1ce71b3d4864", "fusion_lon": 0.0, "name": "3992f88f27b0e6bf12ed1ce71b3d4864", "lat": 38.884865833333336, "is_disabled": 0, "is_reserved": 0, "lon": -77.0071795, "type": "electric_scooter", "fusion_lat": 0.0, "rental_uris": {"android": "https://dc.lft.to/lastmile_qr_scan", "ios": "https://dc.lft.to/lastmile_qr_scan"}}, {"bike_id": "f389649a610567f8d21fc44b15285b08", "fusion_lon": 0.0, "name": "f389649a610567f8d21fc44b15285b08", "lat": 38.94332266666667, "is_disabled": 0, "is_reserved": 0, "lon": -77.0268835, "type": "electric_scooter", "fusion_lat": 0.0, "rental_uris": {"android": "https://dc.lft.to/lastmile_qr_scan", "ios": "https://dc.lft.to/lastmile_qr_scan"}}, {"bike_id": "718045828d4ed775948b362f25f409ee", "fusion_lon": 0.0, "name": "718045828d4ed775948b362f25f409ee", "lat": 38.938716666666664, "is_disabled": 0, "is_reserved": 0, "lon": -77.03083333333333, "type": "electric_scooter", "fusion_lat": 0.0, "rental_uris": {"android": "https://dc.lft.to/lastmile_qr_scan", "ios": "https://dc.lft.to/lastmile_qr_scan"}}, {"bike_id": "88351574345501d9fb127a1bedd80b97", "fusion_lon": 0.0, "name": "88351574345501d9fb127a1bedd80b97", "lat": 38.92722583333333, "is_disabled": 0, "is_reserved": 0, "lon": -77.02090266666667, "type": "electric_scooter", "fusion_lat": 0.0, "rental_uris": {"android": "https://dc.lft.to/lastmile_qr_scan", "ios": "https://dc.lft.to/lastmile_qr_scan"}}, {"bike_id": "09abeeb605956d832b7fe8a5bade5da0", "fusion_lon": 0.0, "name": "09abeeb605956d832b7fe8a5bade5da0", "lat": 38.8992435, "is_disabled": 0, "is_reserved": 0, "lon": -77.07191333333333, "type": "electric_scooter", "fusion_lat": 0.0, "rental_uris": {"android": "https://dc.lft.to/lastmile_qr_scan", "ios": "https://dc.lft.to/lastmile_qr_scan"}}, {"bike_id": "7b4d1f4da33c5b9540eff534d6895e1e", "fusion_lon": 0.0, "name": "7b4d1f4da33c5b9540eff534d6895e1e", "lat": 38.922293833333335, "is_disabled": 0, "is_reserved": 0, "lon": -77.02975883333333, "type": "electric_scooter", "fusion_lat": 0.0, "rental_uris": {"android": "https://dc.lft.to/lastmile_qr_scan", "ios": "https://dc.lft.to/lastmile_qr_scan"}}, {"bike_id": "6de802d7904584f3581431eb3cc064ad", "fusion_lon": 0.0, "name": "6de802d7904584f3581431eb3cc064ad", "lat": 38.90545066666667, "is_disabled": 0, "is_reserved": 0, "lon": -77.04624866666667, "type": "electric_scooter", "fusion_lat": 0.0, "rental_uris": {"android": "https://dc.lft.to/lastmile_qr_scan", "ios": "https://dc.lft.to/lastmile_qr_scan"}}, {"bike_id": "23ace461650fc76124486a5f7e5026f0", "fusion_lon": 0.0, "name": "23ace461650fc76124486a5f7e5026f0", "lat": 38.89632, "is_disabled": 0, "is_reserved": 0, "lon": -77.03323883333333, "type": "electric_scooter", "fusion_lat": 0.0, "rental_uris": {"android": "https://dc.lft.to/lastmile_qr_scan", "ios": "https://dc.lft.to/lastmile_qr_scan"}}, {"bike_id": "2c996033a5c18ad0e773db22ff517d85", "fusion_lon": 0.0, "name": "2c996033a5c18ad0e773db22ff517d85", "lat": 38.873946, "is_disabled": 0, "is_reserved": 0, "lon": -77.00015733333333, "type": "electric_scooter", "fusion_lat": 0.0, "rental_uris": {"android": "https://dc.lft.to/lastmile_qr_scan", "ios": "https://dc.lft.to/lastmile_qr_scan"}}, {"bike_id": "eadceb0cda3a8729b5868cc76d450015", "fusion_lon": 0.0, "name": "eadceb0cda3a8729b5868cc76d450015", "lat": 38.948942333333335, "is_disabled": 0, "is_reserved": 0, "lon": -76.96377916666667, "type": "electric_bike", "fusion_lat": 0.0, "rental_uris": {"android": "https://dc.lft.to/lastmile_qr_scan", "ios": "https://dc.lft.to/lastmile_qr_scan"}}, {"bike_id": "c6e11d16ba0d7a59463a8a0f3fb4f9f0", "fusion_lon": 0.0, "name": "c6e11d16ba0d7a59463a8a0f3fb4f9f0", "lat": 38.93919016666667, "is_disabled": 0, "is_reserved": 0, "lon": -77.06051033333334, "type": "electric_scooter", "fusion_lat": 0.0, "rental_uris": {"android": "https://dc.lft.to/lastmile_qr_scan", "ios": "https://dc.lft.to/lastmile_qr_scan"}}, {"bike_id": "c3e4fea94a610938c90afd33bd0437e8", "fusion_lon": 0.0, "name": "c3e4fea94a610938c90afd33bd0437e8", "lat": 38.895565833333336, "is_disabled": 0, "is_reserved": 0, "lon": -77.04676766666667, "type": "electric_scooter", "fusion_lat": 0.0, "rental_uris": {"android": "https://dc.lft.to/lastmile_qr_scan", "ios": "https://dc.lft.to/lastmile_qr_scan"}}, {"bike_id": "b62de02a55fbec09884cd99a93044b31", "fusion_lon": 0.0, "name": "b62de02a55fbec09884cd99a93044b31", "lat": 38.93268583333333, "is_disabled": 0, "is_reserved": 0, "lon": -77.0327795, "type": "electric_scooter", "fusion_lat": 0.0, "rental_uris": {"android": "https://dc.lft.to/lastmile_qr_scan", "ios": "https://dc.lft.to/lastmile_qr_scan"}}, {"bike_id": "cf9296f38b52bd8fe39c8c265fbb8b22", "fusion_lon": 0.0, "name": "cf9296f38b52bd8fe39c8c265fbb8b22", "lat": 38.91941466666667, "is_disabled": 0, "is_reserved": 0, "lon": -77.01846183333333, "type": "electric_scooter", "fusion_lat": 0.0, "rental_uris": {"android": "https://dc.lft.to/lastmile_qr_scan", "ios": "https://dc.lft.to/lastmile_qr_scan"}}, {"bike_id": "7b5d28499457e54e301ab36a84b00f0d", "fusion_lon": 0.0, "name": "7b5d28499457e54e301ab36a84b00f0d", "lat": 38.883777, "is_disabled": 0, "is_reserved": 0, "lon": -76.93048183333333, "type": "electric_scooter", "fusion_lat": 0.0, "rental_uris": {"android": "https://dc.lft.to/lastmile_qr_scan", "ios": "https://dc.lft.to/lastmile_qr_scan"}}, {"bike_id": "2d4c13d9536c4aadc0e2dd876b1598c4", "fusion_lon": 0.0, "name": "2d4c13d9536c4aadc0e2dd876b1598c4", "lat": 38.89230533333333, "is_disabled": 0, "is_reserved": 0, "lon": -77.02185416666667, "type": "electric_scooter", "fusion_lat": 0.0, "rental_uris": {"android": "https://dc.lft.to/lastmile_qr_scan", "ios": "https://dc.lft.to/lastmile_qr_scan"}}, {"bike_id": "594328d7907b5130dad0f04981917ff2", "fusion_lon": 0.0, "name": "594328d7907b5130dad0f04981917ff2", "lat": 38.923125166666665, "is_disabled": 0, "is_reserved": 0, "lon": -77.0439935, "type": "electric_scooter", "fusion_lat": 0.0, "rental_uris": {"android": "https://dc.lft.to/lastmile_qr_scan", "ios": "https://dc.lft.to/lastmile_qr_scan"}}, {"bike_id": "f187caf22fb281b28436028980eb6d9b", "fusion_lon": 0.0, "name": "f187caf22fb281b28436028980eb6d9b", "lat": 38.90669483333333, "is_disabled": 0, "is_reserved": 0, "lon": -77.0751505, "type": "electric_scooter", "fusion_lat": 0.0, "rental_uris": {"android": "https://dc.lft.to/lastmile_qr_scan", "ios": "https://dc.lft.to/lastmile_qr_scan"}}, {"bike_id": "9d5d04387a5386877e7b8700ab833475", "fusion_lon": 0.0, "name": "9d5d04387a5386877e7b8700ab833475", "lat": 38.90559533333333, "is_disabled": 0, "is_reserved": 0, "lon": -77.04876916666667, "type": "electric_scooter", "fusion_lat": 0.0, "rental_uris": {"android": "https://dc.lft.to/lastmile_qr_scan", "ios": "https://dc.lft.to/lastmile_qr_scan"}}, {"bike_id": "f27289a9edc3cd4f5845366df245e3fa", "fusion_lon": 0.0, "name": "f27289a9edc3cd4f5845366df245e3fa", "lat": 38.898356, "is_disabled": 0, "is_reserved": 0, "lon": -77.03174283333334, "type": "electric_scooter", "fusion_lat": 0.0, "rental_uris": {"android": "https://dc.lft.to/lastmile_qr_scan", "ios": "https://dc.lft.to/lastmile_qr_scan"}}, {"bike_id": "cea52bd4507d9fbe3a87a44348be5c8a", "fusion_lon": 0.0, "name": "cea52bd4507d9fbe3a87a44348be5c8a", "lat": 38.922463, "is_disabled": 0, "is_reserved": 0, "lon": -77.036653, "type": "electric_scooter", "fusion_lat": 0.0, "rental_uris": {"android": "https://dc.lft.to/lastmile_qr_scan", "ios": "https://dc.lft.to/lastmile_qr_scan"}}, {"bike_id": "a65c74797ea0a952486d33bfe75e1ae2", "fusion_lon": 0.0, "name": "a65c74797ea0a952486d33bfe75e1ae2", "lat": 38.88314733333333, "is_disabled": 0, "is_reserved": 0, "lon": -77.01377383333333, "type": "electric_scooter", "fusion_lat": 0.0, "rental_uris": {"android": "https://dc.lft.to/lastmile_qr_scan", "ios": "https://dc.lft.to/lastmile_qr_scan"}}, {"bike_id": "7e082b344d885f95e8f70a998d3f0b41", "fusion_lon": 0.0, "name": "7e082b344d885f95e8f70a998d3f0b41", "lat": 38.89221666666667, "is_disabled": 0, "is_reserved": 0, "lon": -77.04313016666667, "type": "electric_scooter", "fusion_lat": 0.0, "rental_uris": {"android": "https://dc.lft.to/lastmile_qr_scan", "ios": "https://dc.lft.to/lastmile_qr_scan"}}, {"bike_id": "e351d5b3bd23ac8f8d7c5ade4db1d7a1", "fusion_lon": 0.0, "name": "e351d5b3bd23ac8f8d7c5ade4db1d7a1", "lat": 38.89221466666667, "is_disabled": 0, "is_reserved": 0, "lon": -77.022283, "type": "electric_scooter", "fusion_lat": 0.0, "rental_uris": {"android": "https://dc.lft.to/lastmile_qr_scan", "ios": "https://dc.lft.to/lastmile_qr_scan"}}, {"bike_id": "a29f414f5015458deaca0c81b737975b", "fusion_lon": 0.0, "name": "a29f414f5015458deaca0c81b737975b", "lat": 38.91268483333333, "is_disabled": 0, "is_reserved": 0, "lon": -77.022113, "type": "electric_scooter", "fusion_lat": 0.0, "rental_uris": {"android": "https://dc.lft.to/lastmile_qr_scan", "ios": "https://dc.lft.to/lastmile_qr_scan"}}, {"bike_id": "7d56a32896595ca701385f10cd002c40", "fusion_lon": 0.0, "name": "7d56a32896595ca701385f10cd002c40", "lat": 38.918161833333336, "is_disabled": 0, "is_reserved": 0, "lon": -77.03809783333334, "type": "electric_scooter", "fusion_lat": 0.0, "rental_uris": {"android": "https://dc.lft.to/lastmile_qr_scan", "ios": "https://dc.lft.to/lastmile_qr_scan"}}, {"bike_id": "c89a5ae9c27f4bcf7c5ea6176d5d6630", "fusion_lon": 0.0, "name": "c89a5ae9c27f4bcf7c5ea6176d5d6630", "lat": 38.91738466666666, "is_disabled": 0, "is_reserved": 0, "lon": -77.0211955, "type": "electric_scooter", "fusion_lat": 0.0, "rental_uris": {"android": "https://dc.lft.to/lastmile_qr_scan", "ios": "https://dc.lft.to/lastmile_qr_scan"}}, {"bike_id": "13771099eddc8e119df6b40acdc0f169", "fusion_lon": 0.0, "name": "13771099eddc8e119df6b40acdc0f169", "lat": 38.898428333333335, "is_disabled": 0, "is_reserved": 0, "lon": -77.0251345, "type": "electric_scooter", "fusion_lat": 0.0, "rental_uris": {"android": "https://dc.lft.to/lastmile_qr_scan", "ios": "https://dc.lft.to/lastmile_qr_scan"}}, {"bike_id": "e62e352889f4ad015cfcbd0c6a9338fa", "fusion_lon": 0.0, "name": "e62e352889f4ad015cfcbd0c6a9338fa", "lat": 38.97255716666667, "is_disabled": 0, "is_reserved": 0, "lon": -76.99278283333334, "type": "electric_bike", "fusion_lat": 0.0, "rental_uris": {"android": "https://dc.lft.to/lastmile_qr_scan", "ios": "https://dc.lft.to/lastmile_qr_scan"}},