{"data": {"bikes": [{"name": "a20ca4b543fbcf6004034c4cfc64b5cd", "is_reserved": 0, "type": "electric_scooter", "rental_uris": {"ios": "https://dc.lft.to/lastmile_qr_scan", "android": "https://dc.lft.to/lastmile_qr_scan"}, "lat": 38.93672816666667, "lon": -77.03589233333334, "bike_id": "a20ca4b543fbcf6004034c4cfc64b5cd", "fusion_lat": 0.0, "is_disabled": 0, "fusion_lon": 0.0}, {"name": "66be802e1e526177a67905a6db27925c", "is_reserved": 0, "type": "electric_scooter", "rental_uris": {"ios": "https://dc.lft.to/lastmile_qr_scan", "android": "https://dc.lft.to/lastmile_qr_scan"}, "lat": 38.9058395, "lon": -77.03624916666666, "bike_id": "66be802e1e526177a67905a6db27925c", "fusion_lat": 0.0, "is_disabled": 0, "fusion_lon": 0.0}, {"name": "3ddce0fb0ec26265c5ba7875d9e6bc2b", "is_reserved": 0, "type": "electric_scooter", "rental_uris": {"ios": "https://dc.lft.to/lastmile_qr_scan", "android": "https://dc.lft.to/lastmile_qr_scan"}, "lat": 38.92407883333333, "lon": -77.04031583333334, "bike_id": "3ddce0fb0ec26265c5ba7875d9e6bc2b", "fusion_lat": 0.0, "is_disabled": 0, "fusion_lon": 0.0}, {"name": "1ee2358ac889a8f0cb7cb35c38a8f059", "is_reserved": 0, "type": "electric_scooter", "rental_uris": {"ios": "https://dc.lft.to/lastmile_qr_scan", "android": "https://dc.lft.to/lastmile_qr_scan"}, "lat": 38.9203205, "lon": -77.071453, "bike_id": "1ee2358ac889a8f0cb7cb35c38a8f059", "fusion_lat": 0.0, "is_disabled": 0, "fusion_lon": 0.0}, {"name": "8f184d3df68cebbda3a818fb90275382", "is_reserved": 0, "type": "electric_scooter", "rental_uris": {"ios": "https://dc.lft.to/lastmile_qr_scan", "android": "https://dc.lft.to/lastmile_qr_scan"}, "lat": 38.934940833333336, "lon": -77.07265633333333, "bike_id": "8f184d3df68cebbda3a818fb90275382", "fusion_lat": 0.0, "is_disabled": 0, "fusion_lon": 0.0}, {"name": "36408e49a32e1390da3ec99d974e5310", "is_reserved": 0, "type": "electric_scooter", "rental_uris": {"ios": "https://dc.lft.to/lastmile_qr_scan", "android": "https://dc.lft.to/lastmile_qr_scan"}, "lat": 38.887036, "lon": -76.99608583333334, "bike_id": "36408e49a32e1390da3ec99d974e5310", "fusion_lat": 0.0, "is_disabled": 0, "fusion_lon": 0.0}, {"name": "ab30222c3c3808ec8e6c596fa4e8c65f", "is_reserved": 0, "type": "electric_scooter", "rental_uris": {"ios": "https://dc.lft.to/lastmile_qr_scan", "android": "https://dc.lft.to/lastmile_qr_scan"}, "lat": 38.909705833333334, "lon": -77.02439433333333, "bike_id": "ab30222c3c3808ec8e6c596fa4e8c65f", "fusion_lat": 0.0, "is_disabled": 0, "fusion_lon": 0.0}, {"name": "426c2dc8c7bcdd1166129e1a7f98b3a3", "is_reserved": 0, "type": "electric_scooter", "rental_uris": {"ios": "https://dc.lft.to/lastmile_qr_scan", "android": "https://dc.lft.to/lastmile_qr_scan"}, "lat": 38.916719, "lon": -77.03207283333333, "bike_id": "426c2dc8c7bcdd1166129e1a7f98b3a3", "fusion_lat": 0.0, "is_disabled": 0, "fusion_lon": 0.0}, {"name": "8123eac3fdaf547ca8e4d54b1e34cb4a", "is_reserved": 0, "type": "electric_scooter", "rental_uris": {"ios": "https://dc.lft.to/lastmile_qr_scan", "android": "https://dc.lft.to/lastmile_qr_scan"}, "lat": 38.919932333333335, "lon": -76.97303266666667, "bike_id": "8123eac3fdaf547ca8e4d54b1e34cb4a", "fusion_lat": 0.0, "is_disabled": 0, "fusion_lon": 0.0}, {"name": "c59739058de37b9987c00da90f9d4d22", "is_reserved": 0, "type": "electric_scooter", "rental_uris": {"ios": "https://dc.lft.to/lastmile_qr_scan", "android": "https://dc.lft.to/lastmile_qr_scan"}, "lat": 38.916281166666664, "lon": -77.031671, "bike_id": "c59739058de37b9987c00da90f9d4d22", "fusion_lat": 0.0, "is_disabled": 0, "fusion_lon": 0.0}, {"name": "2d254e28500c83fe07737e90986e4cce", "is_reserved": 0, "type": "electric_scooter", "rental_uris": {"ios": "https://dc.lft.to/lastmile_qr_scan", "android": "https://dc.lft.to/lastmile_qr_scan"}, "lat": 38.90659566666667, "lon": -77.04243283333334, "bike_id": "2d254e28500c83fe07737e90986e4cce", "fusion_lat": 0.0, "is_disabled": 0, "fusion_lon": 0.0}, {"name": "8fab5fd90dfc4d6e016b99c25023bb1e", "is_reserved": 0, "type": "electric_scooter", "rental_uris": {"ios": "https://dc.lft.to/lastmile_qr_scan", "android": "https://dc.lft.to/lastmile_qr_scan"}, "lat": 38.9300105, "lon": -77.03225483333334, "bike_id": "8fab5fd90dfc4d6e016b99c25023bb1e", "fusion_lat": 0.0, "is_disabled": 0, "fusion_lon": 0.0}, {"name": "b396046287b8e97732c34cd9f6795b2f", "is_reserved": 0, "type": "electric_scooter", "rental_uris": {"ios": "https://dc.lft.to/lastmile_qr_scan", "android": "https://dc.lft.to/lastmile_qr_scan"}, "lat": 38.912228999999996, "lon": -77.032001, "bike_id": "b396046287b8e97732c34cd9f6795b2f", "fusion_lat": 0.0, "is_disabled": 0, "fusion_lon": 0.0}, {"name": "c05ab1a72b4b4e8bb01e3827d61cb980", "is_reserved": 0, "type": "electric_scooter", "rental_uris": {"ios": "https://dc.lft.to/lastmile_qr_scan", "android": "https://dc.lft.to/lastmile_qr_scan"}, "lat": 38.9038755, "lon": -77.03940716666666, "bike_id": "c05ab1a72b4b4e8bb01e3827d61cb980", "fusion_lat": 0.0, "is_disabled": 0, "fusion_lon": 0.0}, {"name": "3486c16d629ccb3a039bc0e266a9402c", "is_reserved": 0, "type": "electric_scooter", "rental_uris": {"ios": "https://dc.lft.to/lastmile_qr_scan", "android": "https://dc.lft.to/lastmile_qr_scan"}, "lat": 38.90139966666667, "lon": -77.046861, "bike_id": "3486c16d629ccb3a039bc0e266a9402c", "fusion_lat": 0.0, "is_disabled": 0, "fusion_lon": 0.0}, {"name": "65f3c01213c8153ee07c04cca59d3c25", "is_reserved": 0, "type": "electric_scooter", "rental_uris": {"ios": "https://dc.lft.to/lastmile_qr_scan", "android": "https://dc.lft.to/lastmile_qr_scan"}, "lat": 38.917123833333335, "lon": -77.04076983333333, "bike_id": "65f3c01213c8153ee07c04cca59d3c25", "fusion_lat": 0.0, "is_disabled": 0, "fusion_lon": 0.0}, {"name": "7f321f0d081fcd123867b742b2c2cef3", "is_reserved": 0, "type": "electric_scooter", "rental_uris": {"ios": "https://dc.lft.to/lastmile_qr_scan", "android": "https://dc.lft.to/lastmile_qr_scan"}, "lat": 38.90314033333333, "lon": -77.028967, "bike_id": "7f321f0d081fcd123867b742b2c2cef3", "fusion_lat": 0.0, "is_disabled": 0, "fusion_lon": 0.0}, {"name": "be9b60bbe153c815ab577612e6c09308", "is_reserved": 0, "type": "electric_scooter", "rental_uris": {"ios": "https://dc.lft.to/lastmile_qr_scan", "android": "https://dc.lft.to/lastmile_qr_scan"}, "lat": 38.932674666666664, "lon": -77.03491266666667, "bike_id": "be9b60bbe153c815ab577612e6c09308", "fusion_lat": 0.0, "is_disabled": 0, "fusion_lon": 0.0}, {"name": "a2fcd8ba97e7ab0c838bae4677d5b335", "is_reserved": 0, "type": "electric_scooter", "rental_uris": {"ios": "https://dc.lft.to/lastmile_qr_scan", "android": "https://dc.lft.to/lastmile_qr_scan"}, "lat": 38.93082416666667, "lon": -77.02798216666666, "bike_id": "a2fcd8ba97e7ab0c838bae4677d5b335", "fusion_lat": 0.0, "is_disabled": 0, "fusion_lon": 0.0}, {"name": "c6c52804875c7f0d63db619a5f1e3cbf", "is_reserved": 0, "type": "electric_scooter", "rental_uris": {"ios": "https://dc.lft.to/lastmile_qr_scan", "android": "https://dc.lft.to/lastmile_qr_scan"}, "lat": 38.92409416666667, "lon": -77.027409, "bike_id": "c6c52804875c7f0d63db619a5f1e3cbf", "fusion_lat": 0.0, "is_disabled": 0, "fusion_lon": 0.0}, {"name": "7e183eea49fed62ea43443b5b8d17aaf", "is_reserved": 0, "type": "electric_scooter", "rental_uris": {"ios": "https://dc.lft.to/lastmile_qr_scan", "android": "https://dc.lft.to/lastmile_qr_scan"}, "lat": 38.92364116666667, "lon": -77.0542425, "bike_id": "7e183eea49fed62ea43443b5b8d17aaf", "fusion_lat": 0.0, "is_disabled": 0, "fusion_lon": 0.0}, {"name": "308455fa916d66e4bd7d93beecb71a86", "is_reserved": 0, "type": "electric_scooter", "rental_uris": {"ios": "https://dc.lft.to/lastmile_qr_scan", "android": "https://dc.lft.to/lastmile_qr_scan"}, "lat": 38.913843166666666, "lon": -77.01902883333334, "bike_id": "308455fa916d66e4bd7d93beecb71a86", "fusion_lat": 0.0, "is_disabled": 0, "fusion_lon": 0.0}, {"name": "24b3bc3574e1c946f38b52b91176d17e", "is_reserved": 0, "type": "electric_scooter", "rental_uris": {"ios": "https://dc.lft.to/lastmile_qr_scan", "android": "https://dc.lft.to/lastmile_qr_scan"}, "lat": 38.917132, "lon": -77.03476566666667, "bike_id": "24b3bc3574e1c946f38b52b91176d17e", "fusion_lat": 0.0, "is_disabled": 0, "fusion_lon": 0.0}, {"name": "0a59b30ecce9eb172c02fe26124fe1e7", "is_reserved": 0, "type": "electric_scooter", "rental_uris": {"ios": "https://dc.lft.to/lastmile_qr_scan", "android": "https://dc.lft.to/lastmile_qr_scan"}, "lat": 38.867087, "lon": -76.987105, "bike_id": "0a59b30ecce9eb172c02fe26124fe1e7", "fusion_lat": 0.0, "is_disabled": 0, "fusion_lon": 0.0}, {"name": "f0d8e759641c0c11bc1864aff645a70f", "is_reserved": 0, "type": "electric_scooter", "rental_uris": {"ios": "https://dc.lft.to/lastmile_qr_scan", "android": "https://dc.lft.to/lastmile_qr_scan"}, "lat": 38.8859555, "lon": -77.01752733333333, "bike_id": "f0d8e759641c0c11bc1864aff645a70f", "fusion_lat": 0.0, "is_disabled": 0, "fusion_lon": 0.0}, {"name": "3a12b8b9b6704729c0297012c5028f84", "is_reserved": 0, "type": "electric_scooter", "rental_uris": {"ios": "https://dc.lft.to/lastmile_qr_scan", "android": "https://dc.lft.to/lastmile_qr_scan"}, "lat": 38.89387983333334, "lon": -76.9501975, "bike_id": "3a12b8b9b6704729c0297012c5028f84", "fusion_lat": 0.0, "is_disabled": 0, "fusion_lon": 0.0}, {"name": "554f171175cfe4a92abc39d1e972fc0a", "is_reserved": 0, "type": "electric_scooter", "rental_uris": {"ios": "https://dc.lft.to/lastmile_qr_scan", "android": "https://dc.lft.to/lastmile_qr_scan"}, "lat": 38.895539, "lon": -76.94886483333333, "bike_id": "554f171175cfe4a92abc39d1e972fc0a", "fusion_lat": 0.0, "is_disabled": 0, "fusion_lon": 0.0}, {"name": "9328a88b25419e87e412975864ef5e65", "is_reserved": 0, "type": "electric_scooter", "rental_uris": {"ios": "https://dc.lft.to/lastmile_qr_scan", "android": "https://dc.lft.to/lastmile_qr_scan"}, "lat": 38.896131833333335, "lon": -77.022157, "bike_id": "9328a88b25419e87e412975864ef5e65", "fusion_lat": 0.0, "is_disabled": 0, "fusion_lon": 0.0}, {"name": "3ad82cce31e3750ee55894304a078e0b", "is_reserved": 0, "type": "electric_scooter", "rental_uris": {"ios": "https://dc.lft.to/lastmile_qr_scan", "android": "https://dc.lft.to/lastmile_qr_scan"}, "lat": 38.9043375, "lon": -77.034289, "bike_id": "3ad82cce31e3750ee55894304a078e0b", "fusion_lat": 0.0, "is_disabled": 0, "fusion_lon": 0.0}, {"name": "2b3afe81e4a1d271ebd79290747bef9a", "is_reserved": 0, "type": "electric_scooter", "rental_uris": {"ios": "https://dc.lft.to/lastmile_qr_scan", "android": "https://dc.lft.to/lastmile_qr_scan"}, "lat": 38.92835183333333, "lon": -77.05433616666667, "bike_id": "2b3afe81e4a1d271ebd79290747bef9a", "fusion_lat": 0.0, "is_disabled": 0, "fusion_lon": 0.0}, {"name": "b8eb3219d2582f22379c98fedbd5e118", "is_reserved": 0, "type": "electric_scooter", "rental_uris": {"ios": "https://dc.lft.to/lastmile_qr_scan", "android": "https://dc.lft.to/lastmile_qr_scan"}, "lat": 38.86372633333333, "lon": -76.99059833333334, "bike_id": "b8eb3219d2582f22379c98fedbd5e118", "fusion_lat": 0.0, "is_disabled": 0, "fusion_lon": 0.0}, {"name": "2ae79bfc30e04dbf88d3b8531c552093", "is_reserved": 0, "type": "electric_scooter", "rental_uris": {"ios": "https://dc.lft.to/lastmile_qr_scan", "android": "https://dc.lft.to/lastmile_qr_scan"}, "lat": 38.94501416666667, "lon": -77.03863083333333, "bike_id": "2ae79bfc30e04dbf88d3b8531c552093", "fusion_lat": 0.0, "is_disabled": 0, "fusion_lon": 0.0}, {"name": "11113a6c5205dfe61b9d4bb4907885a2", "is_reserved": 0, "type": "electric_scooter", "rental_uris": {"ios": "https://dc.lft.to/lastmile_qr_scan", "android": "https://dc.lft.to/lastmile_qr_scan"}, "lat": 38.90778233333333, "lon": -76.9971, "bike_id": "11113a6c5205dfe61b9d4bb4907885a2", "fusion_lat": 0.0, "is_disabled": 0, "fusion_lon": 0.0}, {"name": "d6c9d1004fb6b33ada07050664b8e06a", "is_reserved": 0, "type": "electric_scooter", "rental_uris": {"ios": "https://dc.lft.to/lastmile_qr_scan", "android": "https://dc.lft.to/lastmile_qr_scan"}, "lat": 38.915527166666664, "lon": -77.01187933333334, "bike_id": "d6c9d1004fb6b33ada07050664b8e06a", "fusion_lat": 0.0, "is_disabled": 0, "fusion_lon": 0.0}, {"name": "6d532464bec56aa014a51455d2ce3b18", "is_reserved": 0, "type": "electric_scooter", "rental_uris": {"ios": "https://dc.lft.to/lastmile_qr_scan", "android": "https://dc.lft.to/lastmile_qr_scan"}, "lat": 38.88572716666667, "lon": -77.0200025, "bike_id": "6d532464bec56aa014a51455d2ce3b18", "fusion_lat": 0.0, "is_disabled": 0, "fusion_lon": 0.0}, {"name": "53254d943dd0f67eb0ff95b444187965", "is_reserved": 0, "type": "electric_scooter", "rental_uris": {"ios": "https://dc.lft.to/lastmile_qr_scan", "android": "https://dc.lft.to/lastmile_qr_scan"}, "lat": 38.87192483333333, "lon": -77.00499766666667, "bike_id": "53254d943dd0f67eb0ff95b444187965", "fusion_lat": 0.0, "is_disabled": 0, "fusion_lon": 0.0}, {"name": "e40c44255d709c56c2c543836b0b99f9", "is_reserved": 0, "type": "electric_scooter", "rental_uris": {"ios": "https://dc.lft.to/lastmile_qr_scan", "android": "https://dc.lft.to/lastmile_qr_scan"}, "lat": 38.91990333333333, "lon": -77.03251883333333, "bike_id": "e40c44255d709c56c2c543836b0b99f9", "fusion_lat": 0.0, "is_disabled": 0, "fusion_lon": 0.0}, {"name": "c7277d47537d1a25423ce70fcd75bff1", "is_reserved": 0, "type": "electric_scooter", "rental_uris": {"ios": "https://dc.lft.to/lastmile_qr_scan", "android": "https://dc.lft.to/lastmile_qr_scan"}, "lat": 38.906699333333336, "lon": -77.02711, "bike_id": "c7277d47537d1a25423ce70fcd75bff1", "fusion_lat": 0.0, "is_disabled": 0, "fusion_lon": 0.0}, {"name": "85c538efd52e096c6246898afba4bd1a", "is_reserved": 0, "type": "electric_scooter", "rental_uris": {"ios": "https://dc.lft.to/lastmile_qr_scan", "android": "https://dc.lft.to/lastmile_qr_scan"}, "lat": 38.89846983333333, "lon": -77.02675316666667, "bike_id": "85c538efd52e096c6246898afba4bd1a", "fusion_lat": 0.0, "is_disabled": 0, "fusion_lon": 0.0}, {"name": "77dd3899843d7ef4951def9acee2e211", "is_reserved": 0, "type": "electric_scooter", "rental_uris": {"ios": "https://dc.lft.to/lastmile_qr_scan", "android": "https://dc.lft.to/lastmile_qr_scan"}, "lat": 38.94413266666667, "lon": -77.063238, "bike_id": "77dd3899843d7ef4951def9acee2e211", "fusion_lat": 0.0, "is_disabled": 0, "fusion_lon": 0.0}, {"name": "9a165601ee112a2d76c8d553446769d0", "is_reserved": 0, "type": "electric_scooter", "rental_uris": {"ios": "https://dc.lft.to/lastmile_qr_scan", "android": "https://dc.lft.to/lastmile_qr_scan"}, "lat": 38.907817333333334, "lon": -77.06920366666667, "bike_id": "9a165601ee112a2d76c8d553446769d0", "fusion_lat": 0.0, "is_disabled": 0, "fusion_lon": 0.0}, {"name": "c7241e4d3f7e7f834a49b35668a2f6e2", "is_reserved": 0, "type": "electric_scooter", "rental_uris": {"ios": "https://dc.lft.to/lastmile_qr_scan", "android": "https://dc.lft.to/lastmile_qr_scan"}, "lat": 38.901506833333336, "lon": -77.0589905, "bike_id": "c7241e4d3f7e7f834a49b35668a2f6e2", "fusion_lat": 0.0, "is_disabled": 0, "fusion_lon": 0.0}, {"name": "e5c56e2ebb5d4b0cea32b932138e20ef", "is_reserved": 0, "type": "electric_scooter", "rental_uris": {"ios": "https://dc.lft.to/lastmile_qr_scan", "android": "https://dc.lft.to/lastmile_qr_scan"}, "lat": 38.9068715, "lon": -77.048877, "bike_id": "e5c56e2ebb5d4b0cea32b932138e20ef", "fusion_lat": 0.0, "is_disabled": 0, "fusion_lon": 0.0}, {"name": "1aa248ebaa6827e5a9f51ede37cd93e6", "is_reserved": 0, "type": "electric_scooter", "rental_uris": {"ios": "https://dc.lft.to/lastmile_qr_scan", "android": "https://dc.lft.to/lastmile_qr_scan"}, "lat": 38.905266166666664, "lon": -77.04998716666667, "bike_id": "1aa248ebaa6827e5a9f51ede37cd93e6", "fusion_lat": 0.0, "is_disabled": 0, "fusion_lon": 0.0}, {"name": "7c33dfcefc1931baf9b95574b85ecb5c", "is_reserved": 0, "type": "electric_scooter", "rental_uris": {"ios": "https://dc.lft.to/lastmile_qr_scan", "android": "https://dc.lft.to/lastmile_qr_scan"}, "lat": 38.86632566666667, "lon": -76.9871245, "bike_id": "7c33dfcefc1931baf9b95574b85ecb5c", "fusion_lat": 0.0, "is_disabled": 0, "fusion_lon": 0.0}, {"name": "50f1e7b6cb8fa406d036e6fa886552e4", "is_reserved": 0, "type": "electric_scooter", "rental_uris": {"ios": "https://dc.lft.to/lastmile_qr_scan", "android": "https://dc.lft.to/lastmile_qr_scan"}, "lat": 38.9503185, "lon": -77.0198445, "bike_id": "50f1e7b6cb8fa406d036e6fa886552e4", "fusion_lat": 0.0, "is_disabled": 0, "fusion_lon": 0.0}, {"name": "209cb43ebae2103e40c322f8e79117ce", "is_reserved": 0, "type": "electric_scooter", "rental_uris": {"ios": "https://dc.lft.to/lastmile_qr_scan", "android": "https://dc.lft.to/lastmile_qr_scan"}, "lat": 38.91840633333333, "lon": -77.0231745, "bike_id": "209cb43ebae2103e40c322f8e79117ce", "fusion_lat": 0.0, "is_disabled": 0, "fusion_lon": 0.0}, {"name": "02a453efd69146d333250459674716c8", "is_reserved": 0, "type": "electric_scooter", "rental_uris": {"ios": "https://dc.lft.to/lastmile_qr_scan", "android": "https://dc.lft.to/lastmile_qr_scan"}, "lat": 38.86420533333333, "lon": -77.012283, "bike_id": "02a453efd69146d333250459674716c8", "fusion_lat": 0.0, "is_disabled": 0, "fusion_lon": 0.0}, {"name": "3fc264670c6804ab45720f784229eba1", "is_reserved": 0, "type": "electric_scooter", "rental_uris": {"ios": "https://dc.lft.to/lastmile_qr_scan", "android": "https://dc.lft.to/lastmile_qr_scan"}, "lat": 38.862621, "lon": -76.995486, "bike_id": "3fc264670c6804ab45720f784229eba1", "fusion_lat": 0.0, "is_disabled": 0, "fusion_lon": 0.0}, {"name": "ea6ac431b87bffc0815870606e85571f", "is_reserved": 0, "type": "electric_scooter", "rental_uris": {"ios": "https://dc.lft.to/lastmile_qr_scan", "android": "https://dc.lft.to/lastmile_qr_scan"}, "lat": 38.91694066666667, "lon": -77.03130766666666, "bike_id": "ea6ac431b87bffc0815870606e85571f", "fusion_lat": 0.0, "is_disabled": 0, "fusion_lon": 0.0}, {"name": "ec390f3c2aa07a778571b4f1fd4443aa", "is_reserved": 0, "type": "electric_scooter", "rental_uris": {"ios": "https://dc.lft.to/lastmile_qr_scan", "android": "https://dc.lft.to/lastmile_qr_scan"}, "lat": 38.90580683333334, "lon": -77.05164366666666, "bike_id": "ec390f3c2aa07a778571b4f1fd4443aa", "fusion_lat": 0.0, "is_disabled": 0, "fusion_lon": 0.0}, {"name": "d97a4602dd04e559d6a9e154d7ee7fd7", "is_reserved": 0, "type": "electric_scooter", "rental_uris": {"ios": "https://dc.lft.to/lastmile_qr_scan", "android": "https://dc.lft.to/lastmile_qr_scan"}, "lat": 38.920342833333336, "lon": -77.04379066666667, "bike_id": "d97a4602dd04e559d6a9e154d7ee7fd7", "fusion_lat": 0.0, "is_disabled": 0, "fusion_lon": 0.0}, {"name": "b9138baabd9b09f62a446e9a8168e53f", "is_reserved": 0, "type": "electric_bike", "rental_uris": {"ios": "https://dc.lft.to/lastmile_qr_scan", "android": "https://dc.lft.to/lastmile_qr_scan"}, "lat": 38.852231, "lon": -77.12961983333334, "bike_id": "b9138baabd9b09f62a446e9a8168e53f", "fusion_lat": 0.0, "is_disabled": 0, "fusion_lon": 0.0}, {"name": "73b5351e808d150107b56dbe30475ecc", "is_reserved": 0, "type": "electric_scooter", "rental_uris": {"ios": "https://dc.lft.to/lastmile_qr_scan", "android": "https://dc.lft.to/lastmile_qr_scan"}, "lat": 38.90734916666667, "lon": -77.04352483333334, "bike_id": "73b5351e808d150107b56dbe30475ecc", "fusion_lat": 0.0, "is_disabled": 0, "fusion_lon": 0.0}, {"name": "836df6aa8695d37a456f46612c8467bc", "is_reserved": 0, "type": "electric_scooter", "rental_uris": {"ios": "https://dc.lft.to/lastmile_qr_scan", "android": "https://dc.lft.to/lastmile_qr_scan"}, "lat": 38.91524233333333, "lon": -77.01218883333334, "bike_id": "836df6aa8695d37a456f46612c8467bc", "fusion_lat": 0.0, "is_disabled": 0, "fusion_lon": 0.0}, {"name": "0e1ed80aed27664b0b0432abf6fa46ab", "is_reserved": 0, "type": "electric_scooter", "rental_uris": {"ios": "https://dc.lft.to/lastmile_qr_scan", "android": "https://dc.lft.to/lastmile_qr_scan"}, "lat": 38.960807833333334, "lon": -77.02817983333334, "bike_id": "0e1ed80aed27664b0b0432abf6fa46ab", "fusion_lat": 0.0, "is_disabled": 0, "fusion_lon": 0.0}, {"name": "0cc5a5be9529203965ed741b758692ff", "is_reserved": 0, "type": "electric_scooter", "rental_uris": {"ios": "https://dc.lft.to/lastmile_qr_scan", "android": "https://dc.lft.to/lastmile_qr_scan"}, "lat": 38.915447, "lon": -76.98372666666667, "bike_id": "0cc5a5be9529203965ed741b758692ff", "fusion_lat": 0.0, "is_disabled": 0, "fusion_lon": 0.0}, {"name": "4445fe655c92389d7cb0d8918d80ecc3", "is_reserved": 0, "type": "electric_scooter", "rental_uris": {"ios": "https://dc.lft.to/lastmile_qr_scan", "android": "https://dc.lft.to/lastmile_qr_scan"}, "lat": 38.8985235, "lon": -77.0530795, "bike_id": "4445fe655c92389d7cb0d8918d80ecc3", "fusion_lat": 0.0, "is_disabled": 0, "fusion_lon": 0.0}, {"name": "4175cc2c2849960b129cf9176c96003f", "is_reserved": 0, "type": "electric_scooter", "rental_uris": {"ios": "https://dc.lft.to/lastmile_qr_scan", "android": "https://dc.lft.to/lastmile_qr_scan"}, "lat": 38.932991, "lon": -77.04410733333333, "bike_id": "4175cc2c2849960b129cf9176c96003f", "fusion_lat": 0.0, "is_disabled": 0, "fusion_lon": 0.0}, {"name": "b1c88b1bf1dd98effb7364dcb66a30b5", "is_reserved": 0, "type": "electric_scooter", "rental_uris": {"ios": "https://dc.lft.to/lastmile_qr_scan", "android": "https://dc.lft.to/lastmile_qr_scan"}, "lat": 38.91035383333333, "lon": -76.98552233333334, "bike_id": "b1c88b1bf1dd98effb7364dcb66a30b5", "fusion_lat": 0.0, "is_disabled": 0, "fusion_lon": 0.0}, {"name": "a10c5eb317fe1c085c037a251ee20597", "is_reserved": 0, "type": "electric_scooter", "rental_uris": {"ios": "https://dc.lft.to/lastmile_qr_scan", "android": "https://dc.lft.to/lastmile_qr_scan"}, "lat": 38.9024445, "lon": -77.00200766666667, "bike_id": "a10c5eb317fe1c085c037a251ee20597", "fusion_lat": 0.0, "is_disabled": 0, "fusion_lon": 0.0}, {"name": "b4243487729c0e430b4e9d0244d74391", "is_reserved": 0, "type": "electric_scooter", "rental_uris": {"ios": "https://dc.lft.to/lastmile_qr_scan", "android": "https://dc.lft.to/lastmile_qr_scan"}, "lat": 38.9267735, "lon": -77.00752016666667, "bike_id": "b4243487729c0e430b4e9d0244d74391", "fusion_lat": 0.0, "is_disabled": 0, "fusion_lon": 0.0}, {"name": "89245150f77617564282c88d5dab8535", "is_reserved": 0, "type": "electric_scooter", "rental_uris": {"ios": "https://dc.lft.to/lastmile_qr_scan", "android": "https://dc.lft.to/lastmile_qr_scan"}, "lat": 38.91039766666667, "lon": -76.98558833333334, "bike_id": "89245150f77617564282c88d5dab8535", "fusion_lat": 0.0, "is_disabled": 0, "fusion_lon": 0.0}, {"name": "193c8ca8eacbd5206746959e40cbfdf6", "is_reserved": 0, "type": "electric_scooter", "rental_uris": {"ios": "https://dc.lft.to/lastmile_qr_scan", "android": "https://dc.lft.to/lastmile_qr_scan"}, "lat": 38.89874733333333, "lon": -77.04373466666667, "bike_id": "193c8ca8eacbd5206746959e40cbfdf6", "fusion_lat": 0.0, "is_disabled": 0, "fusion_lon": 0.0}, {"name": "cfb4e73f7b143e538d4d259131f76667", "is_reserved": 0, "type": "electric_scooter", "rental_uris": {"ios": "https://dc.lft.to/lastmile_qr_scan", "android": "https://dc.lft.to/lastmile_qr_scan"}, "lat": 38.91273833333333, "lon": -77.07624966666667, "bike_id": "cfb4e73f7b143e538d4d259131f76667", "fusion_lat": 0.0, "is_disabled": 0, "fusion_lon": 0.0}, {"name": "d147b806ec2c0175780026c691638e66", "is_reserved": 0, "type": "electric_bike", "rental_uris": {"ios": "https://dc.lft.to/lastmile_qr_scan", "android": "https://dc.lft.to/lastmile_qr_scan"}, "lat": 38.854585666666665, "lon": -76.97236, "bike_id": "d147b806ec2c0175780026c691638e66", "fusion_lat": 0.0, "is_disabled": 0, "fusion_lon": 0.0}, {"name": "b5c7a62142a8003d0b2779b17f93db15", "is_reserved": 0, "type": "electric_scooter", "rental_uris": {"ios": "https://dc.lft.to/lastmile_qr_scan", "android": "https://dc.lft.to/lastmile_qr_scan"}, "lat": 38.885048166666664, "lon": -77.00571066666667, "bike_id": "b5c7a62142a8003d0b2779b17f93db15", "fusion_lat": 0.0, "is_disabled": 0, "fusion_lon": 0.0}, {"name": "110a0a961ad114966b51a7863661280e", "is_reserved": 0, "type": "electric_scooter", "rental_uris": {"ios": "https://dc.lft.to/lastmile_qr_scan", "android": "https://dc.lft.to/lastmile_qr_scan"}, "lat": 38.90724183333333, "lon": -77.02509616666667, "bike_id": "110a0a961ad114966b51a7863661280e", "fusion_lat": 0.0, "is_disabled": 0, "fusion_lon": 0.0}, {"name": "d2ebbc409379f334f111ef483396a1e4", "is_reserved": 0, "type": "electric_scooter", "rental_uris": {"ios": "https://dc.lft.to/lastmile_qr_scan", "android": "https://dc.lft.to/lastmile_qr_scan"}, "lat": 38.92350666666667, "lon": -77.03501266666666, "bike_id": "d2ebbc409379f334f111ef483396a1e4", "fusion_lat": 0.0, "is_disabled": 0, "fusion_lon": 0.0}, {"name": "25a93c33cfb4f9adfdcd1008b77dcc0d", "is_reserved": 0, "type": "electric_scooter", "rental_uris": {"ios": "https://dc.lft.to/lastmile_qr_scan", "android": "https://dc.lft.to/lastmile_qr_scan"}, "lat": 38.91054333333334, "lon": -77.048311, "bike_id": "25a93c33cfb4f9adfdcd1008b77dcc0d", "fusion_lat": 0.0, "is_disabled": 0, "fusion_lon": 0.0}, {"name": "667b945fa19a76d245017fb3b2a1ad57", "is_reserved": 0, "type": "electric_scooter", "rental_uris": {"ios": "https://dc.lft.to/lastmile_qr_scan", "android": "https://dc.lft.to/lastmile_qr_scan"}, "lat": 38.9267435, "lon": -77.0077795, "bike_id": "667b945fa19a76d245017fb3b2a1ad57", "fusion_lat": 0.0, "is_disabled": 0, "fusion_lon": 0.0}, {"name": "ca5aedee0be6d6a9046167ae77534c26", "is_reserved": 0, "type": "electric_scooter", "rental_uris": {"ios": "https://dc.lft.to/lastmile_qr_scan", "android": "https://dc.lft.to/lastmile_qr_scan"}, "lat": 38.90049116666667, "lon": -76.98287716666667, "bike_id": "ca5aedee0be6d6a9046167ae77534c26", "fusion_lat": 0.0, "is_disabled": 0, "fusion_lon": 0.0}, {"name": "c02959c8035dbe10a4d70eadbe413ff4", "is_reserved": 0, "type": "electric_bike", "rental_uris": {"ios": "https://dc.lft.to/lastmile_qr_scan", "android": "https://dc.lft.to/lastmile_qr_scan"}, "lat": 38.9744325, "lon": -77.02989533333333, "bike_id": "c02959c8035dbe10a4d70eadbe413ff4", "fusion_lat": 0.0, "is_disabled": 0, "fusion_lon": 0.0}, {"name": "dcfa8fc6eb4a8572e1dc5b267fede227", "is_reserved": 0, "type": "electric_scooter", "rental_uris": {"ios": "https://dc.lft.to/lastmile_qr_scan", "android": "https://dc.lft.to/lastmile_qr_scan"}, "lat": 38.9177725, "lon": -77.02274683333333, "bike_id": "dcfa8fc6eb4a8572e1dc5b267fede227", "fusion_lat": 0.0, "is_disabled": 0, "fusion_lon": 0.0}, {"name": "359ba0ac755915ec0d39bf88dc4fd7a4", "is_reserved": 0, "type": "electric_scooter", "rental_uris": {"ios": "https://dc.lft.to/lastmile_qr_scan", "android": "https://dc.lft.to/lastmile_qr_scan"}, "lat": 38.93054216666667, "lon": -77.01994833333333, "bike_id": "359ba0ac755915ec0d39bf88dc4fd7a4", "fusion_lat": 0.0, "is_disabled": 0, "fusion_lon": 0.0}, {"name": "96039e2020385d471d35b245f18158ef", "is_reserved": 0, "type": "electric_scooter", "rental_uris": {"ios": "https://dc.lft.to/lastmile_qr_scan", "android": "https://dc.lft.to/lastmile_qr_scan"}, "lat": 38.917343, "lon": -77.041742, "bike_id": "96039e2020385d471d35b245f18158ef", "fusion_lat": 0.0, "is_disabled": 0, "fusion_lon": 0.0}, {"name": "e0a78e95e63d5e8ba847917df10da814", "is_reserved": 0, "type": "electric_scooter", "rental_uris": {"ios": "https://dc.lft.to/lastmile_qr_scan", "android": "https://dc.lft.to/lastmile_qr_scan"}, "lat": 38.902989, "lon": -77.04322516666667, "bike_id": "e0a78e95e63d5e8ba847917df10da814", "fusion_lat": 0.0, "is_disabled": 0, "fusion_lon": 0.0}, {"name": "522574a251a05ea07fd6b920421e29a3", "is_reserved": 0, "type": "electric_bike", "rental_uris": {"ios": "https://dc.lft.to/lastmile_qr_scan", "android": "https://dc.lft.to/lastmile_qr_scan"}, "lat": 38.840905, "lon": -77.07694466666666, "bike_id": "522574a251a05ea07fd6b920421e29a3", "fusion_lat": 0.0, "is_disabled": 0, "fusion_lon": 0.0}, {"name": "0308ee4f97d373b927d65b5f74312567", "is_reserved": 0, "type": "electric_scooter", "rental_uris": {"ios": "https://dc.lft.to/lastmile_qr_scan", "android": "https://dc.lft.to/lastmile_qr_scan"}, "lat": 38.896045666666666, "lon": -77.009275, "bike_id": "0308ee4f97d373b927d65b5f74312567", "fusion_lat": 0.0, "is_disabled": 0, "fusion_lon": 0.0}, {"name": "fe770528253e80c778b5931b2a231880", "is_reserved": 0, "type": "electric_scooter", "rental_uris": {"ios": "https://dc.lft.to/lastmile_qr_scan", "android": "https://dc.lft.to/lastmile_qr_scan"}, "lat": 38.883748833333335, "lon": -76.9952035, "bike_id": "fe770528253e80c778b5931b2a231880", "fusion_lat": 0.0, "is_disabled": 0, "fusion_lon": 0.0}, {"name": "05334ddffbb467cc13692bf2d4af7078", "is_reserved": 0, "type": "electric_scooter", "rental_uris": {"ios": "https://dc.lft.to/lastmile_qr_scan", "android": "https://dc.lft.to/lastmile_qr_scan"}, "lat": 38.90760316666667, "lon": -76.99913683333334, "bike_id": "05334ddffbb467cc13692bf2d4af7078", "fusion_lat": 0.0, "is_disabled": 0, "fusion_lon": 0.0}, {"name": "93603f02b10a4078fa8f162edbddce34", "is_reserved": 0, "type": "electric_scooter", "rental_uris": {"ios": "https://dc.lft.to/lastmile_qr_scan", "android": "https://dc.lft.to/lastmile_qr_scan"}, "lat": 38.91559566666667, "lon": -77.053208, "bike_id": "93603f02b10a4078fa8f162edbddce34", "fusion_lat": 0.0, "is_disabled": 0, "fusion_lon": 0.0}, {"name": "a5c60735f4543a99a3f7fb830fd40a83", "is_reserved": 0, "type": "electric_scooter", "rental_uris": {"ios": "https://dc.lft.to/lastmile_qr_scan", "android": "https://dc.lft.to/lastmile_qr_scan"}, "lat": 38.89734216666667, "lon": -76.99510316666667, "bike_id": "a5c60735f4543a99a3f7fb830fd40a83", "fusion_lat": 0.0, "is_disabled": 0, "fusion_lon": 0.0}, {"name": "59acfd83819076df515a65300cce6e5d", "is_reserved": 0, "type": "electric_scooter", "rental_uris": {"ios": "https://dc.lft.to/lastmile_qr_scan", "android": "https://dc.lft.to/lastmile_qr_scan"}, "lat": 38.92043433333333, "lon": -77.030115, "bike_id": "59acfd83819076df515a65300cce6e5d", "fusion_lat": 0.0, "is_disabled": 0, "fusion_lon": 0.0}, {"name": "5957e06ec870fea8d6def38b5cccef13", "is_reserved": 0, "type": "electric_scooter", "rental_uris": {"ios": "https://dc.lft.to/lastmile_qr_scan", "android": "https://dc.lft.to/lastmile_qr_scan"}, "lat": 38.882622833333336, "lon": -76.995054, "bike_id": "5957e06ec870fea8d6def38b5cccef13", "fusion_lat": 0.0, "is_disabled": 0, "fusion_lon": 0.0}, {"name": "d7303bf3dcb650dd2f31e6a9f48c2837", "is_reserved": 0, "type": "electric_scooter", "rental_uris": {"ios": "https://dc.lft.to/lastmile_qr_scan", "android": "https://dc.lft.to/lastmile_qr_scan"}, "lat": 38.892282333333334, "lon": -77.0433155, "bike_id": "d7303bf3dcb650dd2f31e6a9f48c2837", "fusion_lat": 0.0, "is_disabled": 0, "fusion_lon": 0.0}, {"name": "e34c4b28922638fad0a98fb2337a0de6", "is_reserved": 0, "type": "electric_bike", "rental_uris": {"ios": "https://dc.lft.to/lastmile_qr_scan", "android": "https://dc.lft.to/lastmile_qr_scan"}, "lat": 38.868250333333336, "lon": -76.98028016666666, "bike_id": "e34c4b28922638fad0a98fb2337a0de6", "fusion_lat": 0.0, "is_disabled": 0, "fusion_lon": 0.0}, {"name": "edd6b0071fa6f87e368404d832c8f22a", "is_reserved": 0, "type": "electric_scooter", "rental_uris": {"ios": "https://dc.lft.to/lastmile_qr_scan", "android": "https://dc.lft.to/lastmile_qr_scan"}, "lat": 38.927276666666664, "lon": -77.02279733333333, "bike_id": "edd6b0071fa6f87e368404d832c8f22a", "fusion_lat": 0.0, "is_disabled": 0, "fusion_lon": 0.0}, {"name": "3f80c5a38e244d054a1603ed06ee0658", "is_reserved": 0, "type": "electric_scooter", "rental_uris": {"ios": "https://dc.lft.to/lastmile_qr_scan", "android": "https://dc.lft.to/lastmile_qr_scan"}, "lat": 38.90212616666667, "lon": -77.04333383333334, "bike_id": "3f80c5a38e244d054a1603ed06ee0658", "fusion_lat": 0.0, "is_disabled": 0, "fusion_lon": 0.0}, {"name": "1d731a0405026eae742408a63f5a8e62", "is_reserved": 0, "type": "electric_scooter", "rental_uris": {"ios": "https://dc.lft.to/lastmile_qr_scan", "android": "https://dc.lft.to/lastmile_qr_scan"}, "lat": 38.90791433333333, "lon": -77.03206933333334, "bike_id": "1d731a0405026eae742408a63f5a8e62", "fusion_lat": 0.0, "is_disabled": 0, "fusion_lon": 0.0}, {"name": "de1f09b7f5e4065e9a708aa6e94af87c", "is_reserved": 0, "type": "electric_scooter", "rental_uris": {"ios": "https://dc.lft.to/lastmile_qr_scan", "android": "https://dc.lft.to/lastmile_qr_scan"}, "lat": 38.94351983333333, "lon": -77.06291583333334, "bike_id": "de1f09b7f5e4065e9a708aa6e94af87c", "fusion_lat": 0.0, "is_disabled": 0, "fusion_lon": 0.0}, {"name": "88268419fee4ff7bc016cce2b557bbef", "is_reserved": 0, "type": "electric_scooter", "rental_uris": {"ios": "https://dc.lft.to/lastmile_qr_scan", "android": "https://dc.lft.to/lastmile_qr_scan"}, "lat": 38.92843083333333, "lon": -76.99362933333333, "bike_id": "88268419fee4ff7bc016cce2b557bbef", "fusion_lat": 0.0, "is_disabled": 0, "fusion_lon": 0.0}, {"name": "04787b008ca968006433902b55165c0b", "is_reserved": 0, "type": "electric_scooter", "rental_uris": {"ios": "https://dc.lft.to/lastmile_qr_scan", "android": "https://dc.lft.to/lastmile_qr_scan"}, "lat": 38.921491333333336, "lon": -77.03454283333333, "bike_id": "04787b008ca968006433902b55165c0b", "fusion_lat": 0.0, "is_disabled": 0, "fusion_lon": 0.0}, {"name": "4838dd887aa34a696e73ddf4f69bd201", "is_reserved": 0, "type": "electric_scooter", "rental_uris": {"ios": "https://dc.lft.to/lastmile_qr_scan", "android": "https://dc.lft.to/lastmile_qr_scan"}, "lat": 38.903744, "lon": -77.04976316666666, "bike_id": "4838dd887aa34a696e73ddf4f69bd201", "fusion_lat": 0.0, "is_disabled": 0, "fusion_lon": 0.0}, {"name": "01fcd168c727f5762269de1b9a39facd", "is_reserved": 0, "type": "electric_scooter", "rental_uris": {"ios": "https://dc.lft.to/lastmile_qr_scan", "android": "https://dc.lft.to/lastmile_qr_scan"}, "lat": 38.89733416666667, "lon": -77.00375116666666, "bike_id": "01fcd168c727f5762269de1b9a39facd", "fusion_lat": 0.0, "is_disabled": 0, "fusion_lon": 0.0}, {"name": "289ac54af554da4bfbb83b2f24eb2f1a", "is_reserved": 0, "type": "electric_scooter", "rental_uris": {"ios": "https://dc.lft.to/lastmile_qr_scan", "android": "https://dc.lft.to/lastmile_qr_scan"}, "lat": 38.86255533333333, "lon": -76.98695516666666, "bike_id": "289ac54af554da4bfbb83b2f24eb2f1a", "fusion_lat": 0.0, "is_disabled": 0, "fusion_lon": 0.0}, {"name": "e8cf393c7380f974e6cbd251cdb44549", "is_reserved": 0, "type": "electric_scooter", "rental_uris": {"ios": "https://dc.lft.to/lastmile_qr_scan", "android": "https://dc.lft.to/lastmile_qr_scan"}, "lat": 38.904117, "lon": -76.97332416666667, "bike_id": "e8cf393c7380f974e6cbd251cdb44549", "fusion_lat": 0.0, "is_disabled": 0, "fusion_lon": 0.0}, {"name": "3204ccbcf1e32e858213e49f154d4773", "is_reserved": 0, "type": "electric_scooter", "rental_uris": {"ios": "https://dc.lft.to/lastmile_qr_scan", "android": "https://dc.lft.to/lastmile_qr_scan"}, "lat": 38.909645, "lon": -77.0231255, "bike_id": "3204ccbcf1e32e858213e49f154d4773", "fusion_lat": 0.0, "is_disabled": 0, "fusion_lon": 0.0}, {"name": "3f64d317cba348600f2c438ad58c1a60", "is_reserved": 0, "type": "electric_scooter", "rental_uris": {"ios": "https://dc.lft.to/lastmile_qr_scan", "android": "https://dc.lft.to/lastmile_qr_scan"}, "lat": 38.936095333333334, "lon": -77.03652116666666, "bike_id": "3f64d317cba348600f2c438ad58c1a60", "fusion_lat": 0.0, "is_disabled": 0, "fusion_lon": 0.0}, {"name": "ae52adfed75073014179d542c6f72175", "is_reserved": 0, "type": "electric_scooter", "rental_uris": {"ios": "https://dc.lft.to/lastmile_qr_scan", "android": "https://dc.lft.to/lastmile_qr_scan"}, "lat": 38.8954245, "lon": -77.00206266666666, "bike_id": "ae52adfed75073014179d542c6f72175", "fusion_lat": 0.0, "is_disabled": 0, "fusion_lon": 0.0}, {"name": "9a6c8c7a92c546ecbec72b50450ca42c", "is_reserved": 0, "type": "electric_scooter", "rental_uris": {"ios": "https://dc.lft.to/lastmile_qr_scan", "android": "https://dc.lft.to/lastmile_qr_scan"}, "lat": 38.900193, "lon": -77.00039783333334, "bike_id": "9a6c8c7a92c546ecbec72b50450ca42c", "fusion_lat": 0.0, "is_disabled": 0, "fusion_lon": 0.0}, {"name": "988eae541aa19daa39106e0dfa032b0d", "is_reserved": 0, "type": "electric_scooter", "rental_uris": {"ios": "https://dc.lft.to/lastmile_qr_scan", "android": "https://dc.lft.to/lastmile_qr_scan"}, "lat": 38.892290333333335, "lon": -77.04334283333333, "bike_id": "988eae541aa19daa39106e0dfa032b0d", "fusion_lat": 0.0, "is_disabled": 0, "fusion_lon": 0.0}, {"name": "959e76dbf1f806d3a9d6f84337ff3576", "is_reserved": 0, "type": "electric_scooter", "rental_uris": {"ios": "https://dc.lft.to/lastmile_qr_scan", "android": "https://dc.lft.to/lastmile_qr_scan"}, "lat": 38.894944333333335, "lon": -77.00296083333333, "bike_id": "959e76dbf1f806d3a9d6f84337ff3576", "fusion_lat": 0.0, "is_disabled": 0, "fusion_lon": 0.0}, {"name": "72beeeba384eff239ea05df9eea5cc6a", "is_reserved": 0, "type": "electric_scooter", "rental_uris": {"ios": "https://dc.lft.to/lastmile_qr_scan", "android": "https://dc.lft.to/lastmile_qr_scan"}, "lat": 38.90543616666667, "lon": -77.04899283333333, "bike_id": "72beeeba384eff239ea05df9eea5cc6a", "fusion_lat": 0.0, "is_disabled": 0, "fusion_lon": 0.0}, {"name": "52c18d2452bf440ed6d68261b6d7c7ba", "is_reserved": 0, "type": "electric_scooter", "rental_uris": {"ios": "https://dc.lft.to/lastmile_qr_scan", "android": "https://dc.lft.to/lastmile_qr_scan"}, "lat": 38.91675583333333, "lon": -77.02722466666667, "bike_id": "52c18d2452bf440ed6d68261b6d7c7ba", "fusion_lat": 0.0, "is_disabled": 0, "fusion_lon": 0.0}, {"name": "92ae8a219fedaf212839429c7a1fa243", "is_reserved": 0, "type": "electric_scooter", "rental_uris": {"ios": "https://dc.lft.to/lastmile_qr_scan", "android": "https://dc.lft.to/lastmile_qr_scan"}, "lat": 38.96375583333333, "lon": -77.074789, "bike_id": "92ae8a219fedaf212839429c7a1fa243", "fusion_lat": 0.0, "is_disabled": 0, "fusion_lon": 0.0}, {"name": "f9a9df7f80d231fada86a63222f460be", "is_reserved": 0, "type": "electric_scooter", "rental_uris": {"ios": "https://dc.lft.to/lastmile_qr_scan", "android": "https://dc.lft.to/lastmile_qr_scan"}, "lat": 38.95733333333333, "lon": -77.024056, "bike_id": "f9a9df7f80d231fada86a63222f460be", "fusion_lat": 0.0, "is_disabled": 0, "fusion_lon": 0.0}, {"name": "4c24abd88b8764f57f563fc617939ca7", "is_reserved": 0, "type": "electric_scooter", "rental_uris": {"ios": "https://dc.lft.to/lastmile_qr_scan", "android": "https://dc.lft.to/lastmile_qr_scan"}, "lat": 38.91531416666667, "lon": -77.03202083333333, "bike_id": "4c24abd88b8764f57f563fc617939ca7", "fusion_lat": 0.0, "is_disabled": 0, "fusion_lon": 0.0}, {"name": "09e721b14ee1f810f71a5987efba2838", "is_reserved": 0, "type": "electric_scooter", "rental_uris": {"ios": "https://dc.lft.to/lastmile_qr_scan", "android": "https://dc.lft.to/lastmile_qr_scan"}, "lat": 38.89549216666666, "lon": -76.948797, "bike_id": "09e721b14ee1f810f71a5987efba2838", "fusion_lat": 0.0, "is_disabled": 0, "fusion_lon": 0.0}, {"name": "c52caa253bb2fe57b5f8099d427bde4b", "is_reserved": 0, "type": "electric_scooter", "rental_uris": {"ios": "https://dc.lft.to/lastmile_qr_scan", "android": "https://dc.lft.to/lastmile_qr_scan"}, "lat": 38.91535616666667, "lon": -77.03832316666667, "bike_id": "c52caa253bb2fe57b5f8099d427bde4b", "fusion_lat": 0.0, "is_disabled": 0, "fusion_lon": 0.0}, {"name": "d2446a09ff7bb4de02b12cae443ef0ae", "is_reserved": 0, "type": "electric_scooter", "rental_uris": {"ios": "https://dc.lft.to/lastmile_qr_scan", "android": "https://dc.lft.to/lastmile_qr_scan"}, "lat": 38.903949, "lon": -76.98107533333334, "bike_id": "d2446a09ff7bb4de02b12cae443ef0ae", "fusion_lat": 0.0, "is_disabled": 0, "fusion_lon": 0.0}, {"name": "805d1258700b24ea900e88693c04ccfa", "is_reserved": 0, "type": "electric_scooter", "rental_uris": {"ios": "https://dc.lft.to/lastmile_qr_scan", "android": "https://dc.lft.to/lastmile_qr_scan"}, "lat": 38.88494416666666, "lon": -77.00728333333333, "bike_id": "805d1258700b24ea900e88693c04ccfa", "fusion_lat": 0.0, "is_disabled": 0, "fusion_lon": 0.0}, {"name": "480863bd25de234add1e67e971f61131", "is_reserved": 0, "type": "electric_scooter", "rental_uris": {"ios": "https://dc.lft.to/lastmile_qr_scan", "android": "https://dc.lft.to/lastmile_qr_scan"}, "lat": 38.916858166666664, "lon": -77.0228, "bike_id": "480863bd25de234add1e67e971f61131", "fusion_lat": 0.0, "is_disabled": 0, "fusion_lon": 0.0}, {"name": "6a9ac4221bb9363d8b52007d4f4fcf03", "is_reserved": 0, "type": "electric_scooter", "rental_uris": {"ios": "https://dc.lft.to/lastmile_qr_scan", "android": "https://dc.lft.to/lastmile_qr_scan"}, "lat": 38.89845916666667, "lon": -76.94636683333333, "bike_id": "6a9ac4221bb9363d8b52007d4f4fcf03", "fusion_lat": 0.0, "is_disabled": 0, "fusion_lon": 0.0}, {"name": "0910011262c925e81d54da0ce5f16d63", "is_reserved": 0, "type": "electric_scooter", "rental_uris": {"ios": "https://dc.lft.to/lastmile_qr_scan", "android": "https://dc.lft.to/lastmile_qr_scan"}, "lat": 38.893745833333334, "lon": -77.04310783333334, "bike_id": "0910011262c925e81d54da0ce5f16d63", "fusion_lat": 0.0, "is_disabled": 0, "fusion_lon": 0.0}, {"name": "03dbe51ba70f319256be94da4a8a50d5", "is_reserved": 0, "type": "electric_scooter", "rental_uris": {"ios": "https://dc.lft.to/lastmile_qr_scan", "android": "https://dc.lft.to/lastmile_qr_scan"}, "lat": 38.93652183333333, "lon": -77.03668316666666, "bike_id": "03dbe51ba70f319256be94da4a8a50d5", "fusion_lat": 0.0, "is_disabled": 0, "fusion_lon": 0.0}, {"name": "5780a0deee2d846f4b1bd3ac70e9df91", "is_reserved": 0, "type": "electric_scooter", "rental_uris": {"ios": "https://dc.lft.to/lastmile_qr_scan", "android": "https://dc.lft.to/lastmile_qr_scan"}, "lat": 38.924729666666664, "lon": -77.002177, "bike_id": "5780a0deee2d846f4b1bd3ac70e9df91", "fusion_lat": 0.0, "is_disabled": 0, "fusion_lon": 0.0}, {"name": "e29b48111cd33e7a9d6e1fed869e7f8e", "is_reserved": 0, "type": "electric_scooter", "rental_uris": {"ios": "https://dc.lft.to/lastmile_qr_scan", "android": "https://dc.lft.to/lastmile_qr_scan"}, "lat": 38.90371733333333, "lon": -77.02711883333333, "bike_id": "e29b48111cd33e7a9d6e1fed869e7f8e", "fusion_lat": 0.0, "is_disabled": 0, "fusion_lon": 0.0}, {"name": "2b5fffabd49b026ed0d810cc9e660980", "is_reserved": 0, "type": "electric_scooter", "rental_uris": {"ios": "https://dc.lft.to/lastmile_qr_scan", "android": "https://dc.lft.to/lastmile_qr_scan"}, "lat": 38.91674016666666, "lon": -77.03459883333333, "bike_id": "2b5fffabd49b026ed0d810cc9e660980", "fusion_lat": 0.0, "is_disabled": 0, "fusion_lon": 0.0}, {"name": "ef6e763be10b72ba780843fecfac9713", "is_reserved": 0, "type": "electric_scooter", "rental_uris": {"ios": "https://dc.lft.to/lastmile_qr_scan", "android": "https://dc.lft.to/lastmile_qr_scan"}, "lat": 38.909633666666664, "lon": -77.02284716666666, "bike_id": "ef6e763be10b72ba780843fecfac9713", "fusion_lat": 0.0, "is_disabled": 0, "fusion_lon": 0.0}, {"name": "a4d1169354a5181f48486f13312c70ca", "is_reserved": 0, "type": "electric_bike", "rental_uris": {"ios": "https://dc.lft.to/lastmile_qr_scan", "android": "https://dc.lft.to/lastmile_qr_scan"}, "lat": 38.831789666666666, "lon": -77.06698766666666, "bike_id": "a4d1169354a5181f48486f13312c70ca", "fusion_lat": 0.0, "is_disabled": 0, "fusion_lon": 0.0}, {"name": "54f8106ee4e8befbd3f442e807414da9", "is_reserved": 0, "type": "electric_scooter", "rental_uris": {"ios": "https://dc.lft.to/lastmile_qr_scan", "android": "https://dc.lft.to/lastmile_qr_scan"}, "lat": 38.890994166666665, "lon": -76.9187225, "bike_id": "54f8106ee4e8befbd3f442e807414da9", "fusion_lat": 0.0, "is_disabled": 0, "fusion_lon": 0.0}, {"name": "bc12504b439e3654a4c152ed3ec95b1c", "is_reserved": 0, "type": "electric_scooter", "rental_uris": {"ios": "https://dc.lft.to/lastmile_qr_scan", "android": "https://dc.lft.to/lastmile_qr_scan"}, "lat": 38.899866833333334, "lon": -77.0068105, "bike_id": "bc12504b439e3654a4c152ed3ec95b1c", "fusion_lat": 0.0, "is_disabled": 0, "fusion_lon": 0.0}, {"name": "d7540dc9c6790d01c61382178701d30f", "is_reserved": 0, "type": "electric_scooter", "rental_uris": {"ios": "https://dc.lft.to/lastmile_qr_scan", "android": "https://dc.lft.to/lastmile_qr_scan"}, "lat": 38.8532615, "lon": -76.980078, "bike_id": "d7540dc9c6790d01c61382178701d30f", "fusion_lat": 0.0, "is_disabled": 0, "fusion_lon": 0.0}, {"name": "f1838e83947139440d1905315f2dac9b", "is_reserved": 0, "type": "electric_scooter", "rental_uris": {"ios": "https://dc.lft.to/lastmile_qr_scan", "android": "https://dc.lft.to/lastmile_qr_scan"}, "lat": 38.921378, "lon": -77.02522416666666, "bike_id": "f1838e83947139440d1905315f2dac9b", "fusion_lat": 0.0, "is_disabled": 0, "fusion_lon": 0.0}, {"name": "7ecb20f4e96028afdf8cefb6150774db", "is_reserved": 0, "type": "electric_scooter", "rental_uris": {"ios": "https://dc.lft.to/lastmile_qr_scan", "android": "https://dc.lft.to/lastmile_qr_scan"}, "lat": 38.949571, "lon": -77.08024833333333, "bike_id": "7ecb20f4e96028afdf8cefb6150774db", "fusion_lat": 0.0, "is_disabled": 0, "fusion_lon": 0.0}, {"name": "a8c0893047a21952d250fe542b87bfa6", "is_reserved": 0, "type": "electric_scooter", "rental_uris": {"ios": "https://dc.lft.to/lastmile_qr_scan", "android": "https://dc.lft.to/lastmile_qr_scan"}, "lat": 38.92652833333333, "lon": -77.03313416666667, "bike_id": "a8c0893047a21952d250fe542b87bfa6", "fusion_lat": 0.0, "is_disabled": 0, "fusion_lon": 0.0}, {"name": "0f67dff5e9001f77eb3f1c6ee32dba99", "is_reserved": 0, "type": "electric_bike", "rental_uris": {"ios": "https://dc.lft.to/lastmile_qr_scan", "android": "https://dc.lft.to/lastmile_qr_scan"}, "lat": 38.907084833333336, "lon": -77.051354, "bike_id": "0f67dff5e9001f77eb3f1c6ee32dba99", "fusion_lat": 0.0, "is_disabled": 0, "fusion_lon": 0.0}, {"name": "4d19b26674df5ee1984cc0de476c288b", "is_reserved": 0, "type": "electric_scooter", "rental_uris": {"ios": "https://dc.lft.to/lastmile_qr_scan", "android": "https://dc.lft.to/lastmile_qr_scan"}, "lat": 38.924895166666666, "lon": -77.035007, "bike_id": "4d19b26674df5ee1984cc0de476c288b", "fusion_lat": 0.0, "is_disabled": 0, "fusion_lon": 0.0}, {"name": "232b2cffe080e4c51aa59372510f7822", "is_reserved": 0, "type": "electric_scooter", "rental_uris": {"ios": "https://dc.lft.to/lastmile_qr_scan", "android": "https://dc.lft.to/lastmile_qr_scan"}, "lat": 38.8940385, "lon": -77.0219025, "bike_id": "232b2cffe080e4c51aa59372510f7822", "fusion_lat": 0.0, "is_disabled": 0, "fusion_lon": 0.0}, {"name": "36f3d383c7218d2b3a203a596220a759", "is_reserved": 0, "type": "electric_bike", "rental_uris": {"ios": "https://dc.lft.to/lastmile_qr_scan", "android": "https://dc.lft.to/lastmile_qr_scan"}, "lat": 38.93749, "lon": -76.94580933333333, "bike_id": "36f3d383c7218d2b3a203a596220a759", "fusion_lat": 0.0, "is_disabled": 0, "fusion_lon": 0.0}, {"name": "552be7cfa4dbe1675fe7132741eb1a6f", "is_reserved": 0, "type": "electric_scooter", "rental_uris": {"ios": "https://dc.lft.to/lastmile_qr_scan", "android": "https://dc.lft.to/lastmile_qr_scan"}, "lat": 38.88680983333333, "lon": -77.02344383333333, "bike_id": "552be7cfa4dbe1675fe7132741eb1a6f", "fusion_lat": 0.0, "is_disabled": 0, "fusion_lon": 0.0}, {"name": "3e458455d4f41751e6dd533b43037255", "is_reserved": 0, "type": "electric_scooter", "rental_uris": {"ios": "https://dc.lft.to/lastmile_qr_scan", "android": "https://dc.lft.to/lastmile_qr_scan"}, "lat": 38.907419166666664, "lon": -76.951878, "bike_id": "3e458455d4f41751e6dd533b43037255", "fusion_lat": 0.0, "is_disabled": 0, "fusion_lon": 0.0}, {"name": "56d9adc99b914df2d7d8809c33b327d2", "is_reserved": 0, "type": "electric_scooter", "rental_uris": {"ios": "https://dc.lft.to/lastmile_qr_scan", "android": "https://dc.lft.to/lastmile_qr_scan"}, "lat": 38.906524, "lon": -76.983705, "bike_id": "56d9adc99b914df2d7d8809c33b327d2", "fusion_lat": 0.0, "is_disabled": 0, "fusion_lon": 0.0}, {"name": "1ea0c05f2393739331adf210e7394898", "is_reserved": 0, "type": "electric_scooter", "rental_uris": {"ios": "https://dc.lft.to/lastmile_qr_scan", "android": "https://dc.lft.to/lastmile_qr_scan"}, "lat": 38.900166166666665, "lon": -76.9980425, "bike_id": "1ea0c05f2393739331adf210e7394898", "fusion_lat": 0.0, "is_disabled": 0, "fusion_lon": 0.0}, {"name": "70bd6ca43a96e7e1bbb40b9699aa43b0", "is_reserved": 0, "type": "electric_scooter", "rental_uris": {"ios": "https://dc.lft.to/lastmile_qr_scan", "android": "https://dc.lft.to/lastmile_qr_scan"}, "lat": 38.93531566666667, "lon": -77.05821766666666, "bike_id": "70bd6ca43a96e7e1bbb40b9699aa43b0", "fusion_lat": 0.0, "is_disabled": 0, "fusion_lon": 0.0}, {"name": "0e6f896f1b7919277a8a52bf02d48cc3", "is_reserved": 0, "type": "electric_scooter", "rental_uris": {"ios": "https://dc.lft.to/lastmile_qr_scan", "android": "https://dc.lft.to/lastmile_qr_scan"}, "lat": 38.907943333333336, "lon": -77.0320165, "bike_id": "0e6f896f1b7919277a8a52bf02d48cc3", "fusion_lat": 0.0, "is_disabled": 0, "fusion_lon": 0.0}, {"name": "36588e2e0d3f6290a36eb5420e85cd30", "is_reserved": 0, "type": "electric_scooter", "rental_uris": {"ios": "https://dc.lft.to/lastmile_qr_scan", "android": "https://dc.lft.to/lastmile_qr_scan"}, "lat": 38.8766905, "lon": -77.00468383333333, "bike_id": "36588e2e0d3f6290a36eb5420e85cd30", "fusion_lat": 0.0, "is_disabled": 0, "fusion_lon": 0.0}, {"name": "eb929d83c0875c34b639369f2a413366", "is_reserved": 0, "type": "electric_scooter", "rental_uris": {"ios": "https://dc.lft.to/lastmile_qr_scan", "android": "https://dc.lft.to/lastmile_qr_scan"}, "lat": 38.887111833333336, "lon": -77.00346066666667, "bike_id": "eb929d83c0875c34b639369f2a413366", "fusion_lat": 0.0, "is_disabled": 0, "fusion_lon": 0.0}, {"name": "1321bb01fdb80c956fecd9b72d7df2a4", "is_reserved": 0, "type": "electric_scooter", "rental_uris": {"ios": "https://dc.lft.to/lastmile_qr_scan", "android": "https://dc.lft.to/lastmile_qr_scan"}, "lat": 38.88625, "lon": -76.99615433333334, "bike_id": "1321bb01fdb80c956fecd9b72d7df2a4", "fusion_lat": 0.0, "is_disabled": 0, "fusion_lon": 0.0}, {"name": "8843e1999f30ccda6c04e055aef1ea44", "is_reserved": 0, "type": "electric_scooter", "rental_uris": {"ios": "https://dc.lft.to/lastmile_qr_scan", "android": "https://dc.lft.to/lastmile_qr_scan"}, "lat": 38.85688866666667, "lon": -76.9896695, "bike_id": "8843e1999f30ccda6c04e055aef1ea44", "fusion_lat": 0.0, "is_disabled": 0, "fusion_lon": 0.0}, {"name": "b18891829325dd22424335142bcfe5f8", "is_reserved": 0, "type": "electric_scooter", "rental_uris": {"ios": "https://dc.lft.to/lastmile_qr_scan", "android": "https://dc.lft.to/lastmile_qr_scan"}, "lat": 38.90878283333333, "lon": -76.99812866666667, "bike_id": "b18891829325dd22424335142bcfe5f8", "fusion_lat": 0.0, "is_disabled": 0, "fusion_lon": 0.0}, {"name": "b736ce4cca02cee5aab32a146ddf499c", "is_reserved": 0, "type": "electric_scooter", "rental_uris": {"ios": "https://dc.lft.to/lastmile_qr_scan", "android": "https://dc.lft.to/lastmile_qr_scan"}, "lat": 38.908047, "lon": -77.004091, "bike_id": "b736ce4cca02cee5aab32a146ddf499c", "fusion_lat": 0.0, "is_disabled": 0, "fusion_lon": 0.0}, {"name": "47319e23382113ad2ccfa7b29678a42c", "is_reserved": 0, "type": "electric_scooter", "rental_uris": {"ios": "https://dc.lft.to/lastmile_qr_scan", "android": "https://dc.lft.to/lastmile_qr_scan"}, "lat": 38.900320666666666, "lon": -77.0468685, "bike_id": "47319e23382113ad2ccfa7b29678a42c", "fusion_lat": 0.0, "is_disabled": 0, "fusion_lon": 0.0}, {"name": "61a0ee381762e12caa0f90acaab894e5", "is_reserved": 0, "type": "electric_scooter", "rental_uris": {"ios": "https://dc.lft.to/lastmile_qr_scan", "android": "https://dc.lft.to/lastmile_qr_scan"}, "lat": 38.866224833333334, "lon": -76.987163, "bike_id": "61a0ee381762e12caa0f90acaab894e5", "fusion_lat": 0.0, "is_disabled": 0, "fusion_lon": 0.0}, {"name": "bf8c8d5d3a1fcb383850e78797a4a884", "is_reserved": 0, "type": "electric_scooter", "rental_uris": {"ios": "https://dc.lft.to/lastmile_qr_scan", "android": "https://dc.lft.to/lastmile_qr_scan"}, "lat": 38.915820333333336, "lon": -77.03184166666666, "bike_id": "bf8c8d5d3a1fcb383850e78797a4a884", "fusion_lat": 0.0, "is_disabled": 0, "fusion_lon": 0.0}, {"name": "02b2a8fe1ea83cddf17e04f05457ab84", "is_reserved": 0, "type": "electric_scooter", "rental_uris": {"ios": "https://dc.lft.to/lastmile_qr_scan", "android": "https://dc.lft.to/lastmile_qr_scan"}, "lat": 38.92794883333333, "lon": -77.05412316666667, "bike_id": "02b2a8fe1ea83cddf17e04f05457ab84", "fusion_lat": 0.0, "is_disabled": 0, "fusion_lon": 0.0}, {"name": "725d17240392e1ea62b8e8e05e6b8755", "is_reserved": 0, "type": "electric_scooter", "rental_uris": {"ios": "https://dc.lft.to/lastmile_qr_scan", "android": "https://dc.lft.to/lastmile_qr_scan"}, "lat": 38.936776, "lon": -77.03593083333334, "bike_id": "725d17240392e1ea62b8e8e05e6b8755", "fusion_lat": 0.0, "is_disabled": 0, "fusion_lon": 0.0}, {"name": "7e5b67231ef3e0a0c496c4d7108c30ce", "is_reserved": 0, "type": "electric_scooter", "rental_uris": {"ios": "https://dc.lft.to/lastmile_qr_scan", "android": "https://dc.lft.to/lastmile_qr_scan"}, "lat": 38.943111, "lon": -77.0592575, "bike_id": "7e5b67231ef3e0a0c496c4d7108c30ce", "fusion_lat": 0.0, "is_disabled": 0, "fusion_lon": 0.0}, {"name": "10e583ecd87687523297878d4acd8b05", "is_reserved": 0, "type": "electric_scooter", "rental_uris": {"ios": "https://dc.lft.to/lastmile_qr_scan", "android": "https://dc.lft.to/lastmile_qr_scan"}, "lat": 38.8872545, "lon": -77.01983366666667, "bike_id": "10e583ecd87687523297878d4acd8b05", "fusion_lat": 0.0, "is_disabled": 0, "fusion_lon": 0.0}, {"name": "eae187a5440a23812654ae205c8d7801", "is_reserved": 0, "type": "electric_scooter", "rental_uris": {"ios": "https://dc.lft.to/lastmile_qr_scan", "android": "https://dc.lft.to/lastmile_qr_scan"}, "lat": 38.8865505, "lon": -77.01520466666666, "bike_id": "eae187a5440a23812654ae205c8d7801", "fusion_lat": 0.0, "is_disabled": 0, "fusion_lon": 0.0}, {"name": "9c6cca971bee4d66d4d9a90542128d34", "is_reserved": 0, "type": "electric_scooter", "rental_uris": {"ios": "https://dc.lft.to/lastmile_qr_scan", "android": "https://dc.lft.to/lastmile_qr_scan"}, "lat": 38.90372816666667, "lon": -77.0384705, "bike_id": "9c6cca971bee4d66d4d9a90542128d34", "fusion_lat": 0.0, "is_disabled": 0, "fusion_lon": 0.0}, {"name": "4226f5fb5a8c2fb6ec91e3fd6f1db387", "is_reserved": 0, "type": "electric_scooter", "rental_uris": {"ios": "https://dc.lft.to/lastmile_qr_scan", "android": "https://dc.lft.to/lastmile_qr_scan"}, "lat": 38.8970805, "lon": -77.02447716666667, "bike_id": "4226f5fb5a8c2fb6ec91e3fd6f1db387", "fusion_lat": 0.0, "is_disabled": 0, "fusion_lon": 0.0}, {"name": "ee7dd53d65c77dc9ee9c82ae6e3f6af7", "is_reserved": 0, "type": "electric_scooter", "rental_uris": {"ios": "https://dc.lft.to/lastmile_qr_scan", "android": "https://dc.lft.to/lastmile_qr_scan"}, "lat": 38.918206, "lon": -77.03532466666667, "bike_id": "ee7dd53d65c77dc9ee9c82ae6e3f6af7", "fusion_lat": 0.0, "is_disabled": 0, "fusion_lon": 0.0}, {"name": "f6956415b14d821b326e357c7a8ebad0", "is_reserved": 0, "type": "electric_scooter", "rental_uris": {"ios": "https://dc.lft.to/lastmile_qr_scan", "android": "https://dc.lft.to/lastmile_qr_scan"}, "lat": 38.918569166666664, "lon": -77.03191066666666, "bike_id": "f6956415b14d821b326e357c7a8ebad0", "fusion_lat": 0.0, "is_disabled": 0, "fusion_lon": 0.0}, {"name": "9fe0a6b42b82ca28d01baf14421ce05c", "is_reserved": 0, "type": "electric_scooter", "rental_uris": {"ios": "https://dc.lft.to/lastmile_qr_scan", "android": "https://dc.lft.to/lastmile_qr_scan"}, "lat": 38.92318933333333, "lon": -77.046227, "bike_id": "9fe0a6b42b82ca28d01baf14421ce05c", "fusion_lat": 0.0, "is_disabled": 0, "fusion_lon": 0.0}, {"name": "b95b0a7cef81e990e2d281b91aee3c0f", "is_reserved": 0, "type": "electric_scooter", "rental_uris": {"ios": "https://dc.lft.to/lastmile_qr_scan", "android": "https://dc.lft.to/lastmile_qr_scan"}, "lat": 38.9002075, "lon": -77.033355, "bike_id": "b95b0a7cef81e990e2d281b91aee3c0f", "fusion_lat": 0.0, "is_disabled": 0, "fusion_lon": 0.0}, {"name": "44a000b7d2f93ccf53be92e6ce1b2387", "is_reserved": 0, "type": "electric_scooter", "rental_uris": {"ios": "https://dc.lft.to/lastmile_qr_scan", "android": "https://dc.lft.to/lastmile_qr_scan"}, "lat": 38.911333166666665, "lon": -77.0442015, "bike_id": "44a000b7d2f93ccf53be92e6ce1b2387", "fusion_lat": 0.0, "is_disabled": 0, "fusion_lon": 0.0}, {"name": "22e7c198c59ed104a75ca0b791b3a586", "is_reserved": 0, "type": "electric_scooter", "rental_uris": {"ios": "https://dc.lft.to/lastmile_qr_scan", "android": "https://dc.lft.to/lastmile_qr_scan"}, "lat": 38.900205666666665, "lon": -77.011658, "bike_id": "22e7c198c59ed104a75ca0b791b3a586", "fusion_lat": 0.0, "is_disabled": 0, "fusion_lon": 0.0}, {"name": "d62d0598bee5b8e34e07196407c16f2b", "is_reserved": 0, "type": "electric_scooter", "rental_uris": {"ios": "https://dc.lft.to/lastmile_qr_scan", "android": "https://dc.lft.to/lastmile_qr_scan"}, "lat": 38.923235, "lon": -77.02140316666667, "bike_id": "d62d0598bee5b8e34e07196407c16f2b", "fusion_lat": 0.0, "is_disabled": 0, "fusion_lon": 0.0}, {"name": "bb02da488eb93b176710b72833d25553", "is_reserved": 0, "type": "electric_bike", "rental_uris": {"ios": "https://dc.lft.to/lastmile_qr_scan", "android": "https://dc.lft.to/lastmile_qr_scan"}, "lat": 38.899310666666665, "lon": -77.00884766666667, "bike_id": "bb02da488eb93b176710b72833d25553", "fusion_lat": 0.0, "is_disabled": 0, "fusion_lon": 0.0}, {"name": "47b0d74524f142d0989f16ae3d4484e2", "is_reserved": 0, "type": "electric_scooter", "rental_uris": {"ios": "https://dc.lft.to/lastmile_qr_scan", "android": "https://dc.lft.to/lastmile_qr_scan"}, "lat": 38.907574, "lon": -77.06339383333334, "bike_id": "47b0d74524f142d0989f16ae3d4484e2", "fusion_lat": 0.0, "is_disabled": 0, "fusion_lon": 0.0}, {"name": "71be146bf4bfa96d03e5b5cf3fbf66cb", "is_reserved": 0, "type": "electric_scooter", "rental_uris": {"ios": "https://dc.lft.to/lastmile_qr_scan", "android": "https://dc.lft.to/lastmile_qr_scan"}, "lat": 38.93578433333333, "lon": -77.02749416666667, "bike_id": "71be146bf4bfa96d03e5b5cf3fbf66cb", "fusion_lat": 0.0, "is_disabled": 0, "fusion_lon": 0.0}, {"name": "64b0424439d06776eb3116db9e919f8d", "is_reserved": 0, "type": "electric_scooter", "rental_uris": {"ios": "https://dc.lft.to/lastmile_qr_scan", "android": "https://dc.lft.to/lastmile_qr_scan"}, "lat": 38.902837, "lon": -76.98195133333333, "bike_id": "64b0424439d06776eb3116db9e919f8d", "fusion_lat": 0.0, "is_disabled": 0, "fusion_lon": 0.0}, {"name": "f6365fa77b6eea6f983749b40c6d2513", "is_reserved": 0, "type": "electric_scooter", "rental_uris": {"ios": "https://dc.lft.to/lastmile_qr_scan", "android": "https://dc.lft.to/lastmile_qr_scan"}, "lat": 38.897188166666666, "lon": -77.0218245, "bike_id": "f6365fa77b6eea6f983749b40c6d2513", "fusion_lat": 0.0, "is_disabled": 0, "fusion_lon": 0.0}, {"name": "01b61ce218ea133122e76ed1c9ba2bd6", "is_reserved": 0, "type": "electric_scooter", "rental_uris": {"ios": "https://dc.lft.to/lastmile_qr_scan", "android": "https://dc.lft.to/lastmile_qr_scan"}, "lat": 38.86261116666667, "lon": -76.98694616666667, "bike_id": "01b61ce218ea133122e76ed1c9ba2bd6", "fusion_lat": 0.0, "is_disabled": 0, "fusion_lon": 0.0}, {"name": "5e73ff84f93caa3b5afd610454c6dc53", "is_reserved": 0, "type": "electric_scooter", "rental_uris": {"ios": "https://dc.lft.to/lastmile_qr_scan", "android": "https://dc.lft.to/lastmile_qr_scan"}, "lat": 38.954276166666666, "lon": -77.027685, "bike_id": "5e73ff84f93caa3b5afd610454c6dc53", "fusion_lat": 0.0, "is_disabled": 0, "fusion_lon": 0.0}, {"name": "f51482e37d3c58d9272281d67849ed90", "is_reserved": 0, "type": "electric_scooter", "rental_uris": {"ios": "https://dc.lft.to/lastmile_qr_scan", "android": "https://dc.lft.to/lastmile_qr_scan"}, "lat": 38.91692333333334, "lon": -77.02961066666667, "bike_id": "f51482e37d3c58d9272281d67849ed90", "fusion_lat": 0.0, "is_disabled": 0, "fusion_lon": 0.0}, {"name": "eafd792594248d26e9c8f7ad3851d650", "is_reserved": 0, "type": "electric_scooter", "rental_uris": {"ios": "https://dc.lft.to/lastmile_qr_scan", "android": "https://dc.lft.to/lastmile_qr_scan"}, "lat": 38.921600833333336, "lon": -77.0331645, "bike_id": "eafd792594248d26e9c8f7ad3851d650", "fusion_lat": 0.0, "is_disabled": 0, "fusion_lon": 0.0}, {"name": "a1102a9fe91dc5e02363a15c1e22db83", "is_reserved": 0, "type": "electric_scooter", "rental_uris": {"ios": "https://dc.lft.to/lastmile_qr_scan", "android": "https://dc.lft.to/lastmile_qr_scan"}, "lat": 38.9367605, "lon": -77.03285966666667, "bike_id": "a1102a9fe91dc5e02363a15c1e22db83", "fusion_lat": 0.0, "is_disabled": 0, "fusion_lon": 0.0}, {"name": "f313cb1cec10b58264a713102d34cc04", "is_reserved": 0, "type": "electric_scooter", "rental_uris": {"ios": "https://dc.lft.to/lastmile_qr_scan", "android": "https://dc.lft.to/lastmile_qr_scan"}, "lat": 38.92830683333333, "lon": -77.05437316666666, "bike_id": "f313cb1cec10b58264a713102d34cc04", "fusion_lat": 0.0, "is_disabled": 0, "fusion_lon": 0.0}, {"name": "256a8a8197690b3f37fbeca5236e98df", "is_reserved": 0, "type": "electric_bike", "rental_uris": {"ios": "https://dc.lft.to/lastmile_qr_scan", "android": "https://dc.lft.to/lastmile_qr_scan"}, "lat": 39.03672666666667, "lon": -77.05110616666667, "bike_id": "256a8a8197690b3f37fbeca5236e98df", "fusion_lat": 0.0, "is_disabled": 0, "fusion_lon": 0.0}, {"name": "9add79c4f46148d82b43e1b26d8aa509", "is_reserved": 0, "type": "electric_scooter", "rental_uris": {"ios": "https://dc.lft.to/lastmile_qr_scan", "android": "https://dc.lft.to/lastmile_qr_scan"}, "lat": 38.907257, "lon": -76.99816516666667, "bike_id": "9add79c4f46148d82b43e1b26d8aa509", "fusion_lat": 0.0, "is_disabled": 0, "fusion_lon": 0.0}, {"name": "b17224b513ca89b8ad7a4b35c63a049d", "is_reserved": 0, "type": "electric_scooter", "rental_uris": {"ios": "https://dc.lft.to/lastmile_qr_scan", "android": "https://dc.lft.to/lastmile_qr_scan"}, "lat": 38.8849345, "lon": -77.00728716666667, "bike_id": "b17224b513ca89b8ad7a4b35c63a049d", "fusion_lat": 0.0, "is_disabled": 0, "fusion_lon": 0.0}, {"name": "befa87f71f23c96d552fce6241137972", "is_reserved": 0, "type": "electric_scooter", "rental_uris": {"ios": "https://dc.lft.to/lastmile_qr_scan", "android": "https://dc.lft.to/lastmile_qr_scan"}, "lat": 38.8635565, "lon": -76.9906615, "bike_id": "befa87f71f23c96d552fce6241137972", "fusion_lat": 0.0, "is_disabled": 0, "fusion_lon": 0.0}, {"name": "d34b013055c23d2dc174898325a57593", "is_reserved": 0, "type": "electric_scooter", "rental_uris": {"ios": "https://dc.lft.to/lastmile_qr_scan", "android": "https://dc.lft.to/lastmile_qr_scan"}, "lat": 38.91415533333333, "lon": -77.02982333333334, "bike_id": "d34b013055c23d2dc174898325a57593", "fusion_lat": 0.0, "is_disabled": 0, "fusion_lon": 0.0}, {"name": "f3e9053954aef4386c5288ccbe09cff9", "is_reserved": 0, "type": "electric_scooter", "rental_uris": {"ios": "https://dc.lft.to/lastmile_qr_scan", "android": "https://dc.lft.to/lastmile_qr_scan"}, "lat": 38.91743966666667, "lon": -77.02386566666667, "bike_id": "f3e9053954aef4386c5288ccbe09cff9", "fusion_lat": 0.0, "is_disabled": 0, "fusion_lon": 0.0}, {"name": "f8e0aa5d468469b4611153ccdadadad2", "is_reserved": 0, "type": "electric_scooter", "rental_uris": {"ios": "https://dc.lft.to/lastmile_qr_scan", "android": "https://dc.lft.to/lastmile_qr_scan"}, "lat": 38.93216566666667, "lon": -77.03091916666666, "bike_id": "f8e0aa5d468469b4611153ccdadadad2", "fusion_lat": 0.0, "is_disabled": 0, "fusion_lon": 0.0}, {"name": "f766d93bfb2137e8ad34cf910f8994f3", "is_reserved": 0, "type": "electric_scooter", "rental_uris": {"ios": "https://dc.lft.to/lastmile_qr_scan", "android": "https://dc.lft.to/lastmile_qr_scan"}, "lat": 38.921241333333334, "lon": -77.04429833333333, "bike_id": "f766d93bfb2137e8ad34cf910f8994f3", "fusion_lat": 0.0, "is_disabled": 0, "fusion_lon": 0.0}, {"name": "d94f8ccfe07ab905838e8debd5f25f26", "is_reserved": 0, "type": "electric_scooter", "rental_uris": {"ios": "https://dc.lft.to/lastmile_qr_scan", "android": "https://dc.lft.to/lastmile_qr_scan"}, "lat": 38.89530366666666, "lon": -77.04337516666666, "bike_id": "d94f8ccfe07ab905838e8debd5f25f26", "fusion_lat": 0.0, "is_disabled": 0, "fusion_lon": 0.0}, {"name": "6e5b33030f7f8ae86ecd6e625e1f9fca", "is_reserved": 0, "type": "electric_scooter", "rental_uris": {"ios": "https://dc.lft.to/lastmile_qr_scan", "android": "https://dc.lft.to/lastmile_qr_scan"}, "lat": 38.92349766666667, "lon": -77.05119533333334, "bike_id": "6e5b33030f7f8ae86ecd6e625e1f9fca", "fusion_lat": 0.0, "is_disabled": 0, "fusion_lon": 0.0}, {"name": "979c0bd78181ca50a29d748b5ed74756", "is_reserved": 0, "type": "electric_scooter", "rental_uris": {"ios": "https://dc.lft.to/lastmile_qr_scan", "android": "https://dc.lft.to/lastmile_qr_scan"}, "lat": 38.9133685, "lon": -77.02887866666667, "bike_id": "979c0bd78181ca50a29d748b5ed74756", "fusion_lat": 0.0, "is_disabled": 0, "fusion_lon": 0.0}, {"name": "19bffb4ab1aaac56028b019c662b6e7c", "is_reserved": 0, "type": "electric_scooter", "rental_uris": {"ios": "https://dc.lft.to/lastmile_qr_scan", "android": "https://dc.lft.to/lastmile_qr_scan"}, "lat": 38.910438166666665, "lon": -77.04352166666666, "bike_id": "19bffb4ab1aaac56028b019c662b6e7c", "fusion_lat": 0.0, "is_disabled": 0, "fusion_lon": 0.0}, {"name": "10ddf73537aca13e2688ce9033282dd9", "is_reserved": 0, "type": "electric_scooter", "rental_uris": {"ios": "https://dc.lft.to/lastmile_qr_scan", "android": "https://dc.lft.to/lastmile_qr_scan"}, "lat": 38.994360666666665, "lon": -77.02935383333333, "bike_id": "10ddf73537aca13e2688ce9033282dd9", "fusion_lat": 0.0, "is_disabled": 0, "fusion_lon": 0.0}, {"name": "446278a650aecef8bddbe6ce7d09262b", "is_reserved": 0, "type": "electric_scooter", "rental_uris": {"ios": "https://dc.lft.to/lastmile_qr_scan", "android": "https://dc.lft.to/lastmile_qr_scan"}, "lat": 38.90191, "lon": -76.9794235, "bike_id": "446278a650aecef8bddbe6ce7d09262b", "fusion_lat": 0.0, "is_disabled": 0, "fusion_lon": 0.0}, {"name": "b973688ea65dbe7f417630e706a89ce5", "is_reserved": 0, "type": "electric_scooter", "rental_uris": {"ios": "https://dc.lft.to/lastmile_qr_scan", "android": "https://dc.lft.to/lastmile_qr_scan"}, "lat": 38.893098333333334, "lon": -77.01788483333333, "bike_id": "b973688ea65dbe7f417630e706a89ce5", "fusion_lat": 0.0, "is_disabled": 0, "fusion_lon": 0.0}, {"name": "14e9e32baee21d2b91e36c4373f02c61", "is_reserved": 0, "type": "electric_bike", "rental_uris": {"ios": "https://dc.lft.to/lastmile_qr_scan", "android": "https://dc.lft.to/lastmile_qr_scan"}, "lat": 38.97576733333333, "lon": -77.01960416666667, "bike_id": "14e9e32baee21d2b91e36c4373f02c61", "fusion_lat": 0.0, "is_disabled": 0, "fusion_lon": 0.0}, {"name": "53c77734669ae06d8d52d67cdbb49cfc", "is_reserved": 0, "type": "electric_scooter", "rental_uris": {"ios": "https://dc.lft.to/lastmile_qr_scan", "android": "https://dc.lft.to/lastmile_qr_scan"}, "lat": 38.90869816666667, "lon": -77.08590483333333, "bike_id": "53c77734669ae06d8d52d67cdbb49cfc", "fusion_lat": 0.0, "is_disabled": 0, "fusion_lon": 0.0}, {"name": "b3f74e5037b54e35a4f4fe1dc301ca0c", "is_reserved": 0, "type": "electric_scooter", "rental_uris": {"ios": "https://dc.lft.to/lastmile_qr_scan", "android": "https://dc.lft.to/lastmile_qr_scan"}, "lat": 38.952589833333334, "lon": -77.02541716666667, "bike_id": "b3f74e5037b54e35a4f4fe1dc301ca0c", "fusion_lat": 0.0, "is_disabled": 0, "fusion_lon": 0.0}, {"name": "6387aa53c39947edb17f8b5a70d8e80e", "is_reserved": 0, "type": "electric_scooter", "rental_uris": {"ios": "https://dc.lft.to/lastmile_qr_scan", "android": "https://dc.lft.to/lastmile_qr_scan"}, "lat": 38.893784833333335, "lon": -76.9502045, "bike_id": "6387aa53c39947edb17f8b5a70d8e80e", "fusion_lat": 0.0, "is_disabled": 0, "fusion_lon": 0.0}, {"name": "a5bd595117e47a7d2f1afeed21acd2ca", "is_reserved": 0, "type": "electric_scooter", "rental_uris": {"ios": "https://dc.lft.to/lastmile_qr_scan", "android": "https://dc.lft.to/lastmile_qr_scan"}, "lat": 38.884196833333334, "lon": -77.0318485, "bike_id": "a5bd595117e47a7d2f1afeed21acd2ca", "fusion_lat": 0.0, "is_disabled": 0, "fusion_lon": 0.0}, {"name": "b7f16881c740f43ecae4ff2ca05eeb18", "is_reserved": 0, "type": "electric_scooter", "rental_uris": {"ios": "https://dc.lft.to/lastmile_qr_scan", "android": "https://dc.lft.to/lastmile_qr_scan"}, "lat": 38.91030266666667, "lon": -76.9853715, "bike_id": "b7f16881c740f43ecae4ff2ca05eeb18", "fusion_lat": 0.0, "is_disabled": 0, "fusion_lon": 0.0}, {"name": "d686662c9287b89fc2076e90b6f22e29", "is_reserved": 0, "type": "electric_scooter", "rental_uris": {"ios": "https://dc.lft.to/lastmile_qr_scan", "android": "https://dc.lft.to/lastmile_qr_scan"}, "lat": 38.934483, "lon": -76.96468166666666, "bike_id": "d686662c9287b89fc2076e90b6f22e29", "fusion_lat": 0.0, "is_disabled": 0, "fusion_lon": 0.0}, {"name": "3845b2c50c360a9ccb2c48210d67cf7a", "is_reserved": 0, "type": "electric_scooter", "rental_uris": {"ios": "https://dc.lft.to/lastmile_qr_scan", "android": "https://dc.lft.to/lastmile_qr_scan"}, "lat": 38.844637166666665, "lon": -76.98753933333333, "bike_id": "3845b2c50c360a9ccb2c48210d67cf7a", "fusion_lat": 0.0, "is_disabled": 0, "fusion_lon": 0.0}, {"name": "0b6c46a61bb0c0a3a3e8e1f0ad20898a", "is_reserved": 0, "type": "electric_scooter", "rental_uris": {"ios": "https://dc.lft.to/lastmile_qr_scan", "android": "https://dc.lft.to/lastmile_qr_scan"}, "lat": 38.908398166666665, "lon": -76.99701766666666, "bike_id": "0b6c46a61bb0c0a3a3e8e1f0ad20898a", "fusion_lat": 0.0, "is_disabled": 0, "fusion_lon": 0.0}, {"name": "cbbf0af1fb473c682c80c813de59b285", "is_reserved": 0, "type": "electric_scooter", "rental_uris": {"ios": "https://dc.lft.to/lastmile_qr_scan", "android": "https://dc.lft.to/lastmile_qr_scan"}, "lat": 38.9278105, "lon": -77.02681416666667, "bike_id": "cbbf0af1fb473c682c80c813de59b285", "fusion_lat": 0.0, "is_disabled": 0, "fusion_lon": 0.0}, {"name": "9e08223c4f362905be42e54401dc5fc3", "is_reserved": 0, "type": "electric_scooter", "rental_uris": {"ios": "https://dc.lft.to/lastmile_qr_scan", "android": "https://dc.lft.to/lastmile_qr_scan"}, "lat": 38.9195965, "lon": -77.02393783333333, "bike_id": "9e08223c4f362905be42e54401dc5fc3", "fusion_lat": 0.0, "is_disabled": 0, "fusion_lon": 0.0}, {"name": "78b9f601107533673c96384691627db0", "is_reserved": 0, "type": "electric_scooter", "rental_uris": {"ios": "https://dc.lft.to/lastmile_qr_scan", "android": "https://dc.lft.to/lastmile_qr_scan"}, "lat": 38.92115883333334, "lon": -77.031904, "bike_id": "78b9f601107533673c96384691627db0", "fusion_lat": 0.0, "is_disabled": 0, "fusion_lon": 0.0}, {"name": "69039a375f608aeb5c301798e7466608", "is_reserved": 0, "type": "electric_scooter", "rental_uris": {"ios": "https://dc.lft.to/lastmile_qr_scan", "android": "https://dc.lft.to/lastmile_qr_scan"}, "lat": 38.9180855, "lon": -77.009277, "bike_id": "69039a375f608aeb5c301798e7466608", "fusion_lat": 0.0, "is_disabled": 0, "fusion_lon": 0.0}, {"name": "599c5d7061e2e407a9fc725635422600", "is_reserved": 0, "type": "electric_scooter", "rental_uris": {"ios": "https://dc.lft.to/lastmile_qr_scan", "android": "https://dc.lft.to/lastmile_qr_scan"}, "lat": 38.89628833333333, "lon": -77.02940616666666, "bike_id": "599c5d7061e2e407a9fc725635422600", "fusion_lat": 0.0, "is_disabled": 0, "fusion_lon": 0.0}, {"name": "83c8c02979ddb4d9e83f98c9a336e703", "is_reserved": 0, "type": "electric_scooter", "rental_uris": {"ios": "https://dc.lft.to/lastmile_qr_scan", "android": "https://dc.lft.to/lastmile_qr_scan"}, "lat": 38.9563765, "lon": -77.033086, "bike_id": "83c8c02979ddb4d9e83f98c9a336e703", "fusion_lat": 0.0, "is_disabled": 0, "fusion_lon": 0.0}, {"name": "94e0f4c19cf382169e3a2112d4915930", "is_reserved": 0, "type": "electric_scooter", "rental_uris": {"ios": "https://dc.lft.to/lastmile_qr_scan", "android": "https://dc.lft.to/lastmile_qr_scan"}, "lat": 38.943047, "lon": -77.0586365, "bike_id": "94e0f4c19cf382169e3a2112d4915930", "fusion_lat": 0.0, "is_disabled": 0, "fusion_lon": 0.0}, {"name": "404edbf7e58712769efc76efcd7d1c85", "is_reserved": 0, "type": "electric_scooter", "rental_uris": {"ios": "https://dc.lft.to/lastmile_qr_scan", "android": "https://dc.lft.to/lastmile_qr_scan"}, "lat": 38.917051666666666, "lon": -77.0263315, "bike_id": "404edbf7e58712769efc76efcd7d1c85", "fusion_lat": 0.0, "is_disabled": 0, "fusion_lon": 0.0}, {"name": "077c435f5a0abd34cdc68e0a2e3fb628", "is_reserved": 0, "type": "electric_scooter", "rental_uris": {"ios": "https://dc.lft.to/lastmile_qr_scan", "android": "https://dc.lft.to/lastmile_qr_scan"}, "lat": 38.9543395, "lon": -77.02756983333333, "bike_id": "077c435f5a0abd34cdc68e0a2e3fb628", "fusion_lat": 0.0, "is_disabled": 0, "fusion_lon": 0.0}, {"name": "e1ee4815a3704968dfe4372856dbd45c", "is_reserved": 0, "type": "electric_bike", "rental_uris": {"ios": "https://dc.lft.to/lastmile_qr_scan", "android": "https://dc.lft.to/lastmile_qr_scan"}, "lat": 38.862455833333335, "lon": -76.99080883333333, "bike_id": "e1ee4815a3704968dfe4372856dbd45c", "fusion_lat": 0.0, "is_disabled": 0, "fusion_lon": 0.0}, {"name": "b15d1dc5871ca6e30b8d14f122b0b895", "is_reserved": 0, "type": "electric_scooter", "rental_uris": {"ios": "https://dc.lft.to/lastmile_qr_scan", "android": "https://dc.lft.to/lastmile_qr_scan"}, "lat": 38.89276, "lon": -76.9491725, "bike_id": "b15d1dc5871ca6e30b8d14f122b0b895", "fusion_lat": 0.0, "is_disabled": 0, "fusion_lon": 0.0}, {"name": "5f23b4dc1662bbdb569030cc8ce0c13c", "is_reserved": 0, "type": "electric_bike", "rental_uris": {"ios": "https://dc.lft.to/lastmile_qr_scan", "android": "https://dc.lft.to/lastmile_qr_scan"}, "lat": 38.895630833333335, "lon": -77.12733683333333, "bike_id": "5f23b4dc1662bbdb569030cc8ce0c13c", "fusion_lat": 0.0, "is_disabled": 0, "fusion_lon": 0.0}, {"name": "9a73c924ce01f6b1ad45d3cc9a7a2a1a", "is_reserved": 0, "type": "electric_scooter", "rental_uris": {"ios": "https://dc.lft.to/lastmile_qr_scan", "android": "https://dc.lft.to/lastmile_qr_scan"}, "lat": 38.90536133333333, "lon": -77.05026533333333, "bike_id": "9a73c924ce01f6b1ad45d3cc9a7a2a1a", "fusion_lat": 0.0, "is_disabled": 0, "fusion_lon": 0.0}, {"name": "13780b050ca695bc91521bb5c5069a12", "is_reserved": 0, "type": "electric_bike", "rental_uris": {"ios": "https://dc.lft.to/lastmile_qr_scan", "android": "https://dc.lft.to/lastmile_qr_scan"}, "lat": 38.9334525, "lon": -77.083211, "bike_id": "13780b050ca695bc91521bb5c5069a12", "fusion_lat": 0.0, "is_disabled": 0, "fusion_lon": 0.0}, {"name": "fd1c153439e37119214b0a68ecdef272", "is_reserved": 0, "type": "electric_scooter", "rental_uris": {"ios": "https://dc.lft.to/lastmile_qr_scan", "android": "https://dc.lft.to/lastmile_qr_scan"}, "lat": 38.92748316666667, "lon": -77.03642866666667, "bike_id": "fd1c153439e37119214b0a68ecdef272", "fusion_lat": 0.0, "is_disabled": 0, "fusion_lon": 0.0}, {"name": "57e7ecab300ec47fc291fba1eaa553ad", "is_reserved": 0, "type": "electric_scooter", "rental_uris": {"ios": "https://dc.lft.to/lastmile_qr_scan", "android": "https://dc.lft.to/lastmile_qr_scan"}, "lat": 38.90554766666666, "lon": -77.02183916666667, "bike_id": "57e7ecab300ec47fc291fba1eaa553ad", "fusion_lat": 0.0, "is_disabled": 0, "fusion_lon": 0.0}, {"name": "84d488dc16fc6e256afa7a1b1a75a676", "is_reserved": 0, "type": "electric_scooter", "rental_uris": {"ios": "https://dc.lft.to/lastmile_qr_scan", "android": "https://dc.lft.to/lastmile_qr_scan"}, "lat": 38.906429, "lon": -77.07027833333333, "bike_id": "84d488dc16fc6e256afa7a1b1a75a676", "fusion_lat": 0.0, "is_disabled": 0, "fusion_lon": 0.0}, {"name": "beae51e7df328f9794777f398e9cf099", "is_reserved": 0, "type": "electric_scooter", "rental_uris": {"ios": "https://dc.lft.to/lastmile_qr_scan", "android": "https://dc.lft.to/lastmile_qr_scan"}, "lat": 38.900291333333335, "lon": -76.98878383333333, "bike_id": "beae51e7df328f9794777f398e9cf099", "fusion_lat": 0.0, "is_disabled": 0, "fusion_lon": 0.0}, {"name": "9a99243cbd4267f2d653d3696199f0d3", "is_reserved": 0, "type": "electric_bike", "rental_uris": {"ios": "https://dc.lft.to/lastmile_qr_scan", "android": "https://dc.lft.to/lastmile_qr_scan"}, "lat": 38.873031, "lon": -77.139293, "bike_id": "9a99243cbd4267f2d653d3696199f0d3", "fusion_lat": 0.0, "is_disabled": 0, "fusion_lon": 0.0}, {"name": "7a9faeb9ff18b98fd467d3548691bc4a", "is_reserved": 0, "type": "electric_scooter", "rental_uris": {"ios": "https://dc.lft.to/lastmile_qr_scan", "android": "https://dc.lft.to/lastmile_qr_scan"}, "lat": 38.8790035, "lon": -77.02202433333333, "bike_id": "7a9faeb9ff18b98fd467d3548691bc4a", "fusion_lat": 0.0, "is_disabled": 0, "fusion_lon": 0.0}, {"name": "0fe516d6a67c25fe644dad930dea309a", "is_reserved": 0, "type": "electric_scooter", "rental_uris": {"ios": "https://dc.lft.to/lastmile_qr_scan", "android": "https://dc.lft.to/lastmile_qr_scan"}, "lat": 38.948168833333334, "lon": -76.999057, "bike_id": "0fe516d6a67c25fe644dad930dea309a", "fusion_lat": 0.0, "is_disabled": 0, "fusion_lon": 0.0}, {"name": "8f589b0df78dd41a90f026bb151856e6", "is_reserved": 0, "type": "electric_scooter", "rental_uris": {"ios": "https://dc.lft.to/lastmile_qr_scan", "android": "https://dc.lft.to/lastmile_qr_scan"}, "lat": 38.93058383333333, "lon": -77.031703, "bike_id": "8f589b0df78dd41a90f026bb151856e6", "fusion_lat": 0.0, "is_disabled": 0, "fusion_lon": 0.0}, {"name": "c3138bc34c487b9fc7a1fd5e36bea50c", "is_reserved": 0, "type": "electric_scooter", "rental_uris": {"ios": "https://dc.lft.to/lastmile_qr_scan", "android": "https://dc.lft.to/lastmile_qr_scan"}, "lat": 38.9016655, "lon": -76.930811, "bike_id": "c3138bc34c487b9fc7a1fd5e36bea50c", "fusion_lat": 0.0, "is_disabled": 0, "fusion_lon": 0.0}, {"name": "14794386ad3d2fbc88058794f3177b49", "is_reserved": 0, "type": "electric_scooter", "rental_uris": {"ios": "https://dc.lft.to/lastmile_qr_scan", "android": "https://dc.lft.to/lastmile_qr_scan"}, "lat": 38.92464, "lon": -77.02709416666667, "bike_id": "14794386ad3d2fbc88058794f3177b49", "fusion_lat": 0.0, "is_disabled": 0, "fusion_lon": 0.0}, {"name": "eeb12169efff3662387041c109c7349d", "is_reserved": 0, "type": "electric_bike", "rental_uris": {"ios": "https://dc.lft.to/lastmile_qr_scan", "android": "https://dc.lft.to/lastmile_qr_scan"}, "lat": 38.937553, "lon": -76.99031633333334, "bike_id": "eeb12169efff3662387041c109c7349d", "fusion_lat": 0.0, "is_disabled": 0, "fusion_lon": 0.0}, {"name": "6a385f2ec7f290f9300a588b222e69fe", "is_reserved": 0, "type": "electric_scooter", "rental_uris": {"ios": "https://dc.lft.to/lastmile_qr_scan", "android": "https://dc.lft.to/lastmile_qr_scan"}, "lat": 38.928603333333335, "lon": -77.01422166666667, "bike_id": "6a385f2ec7f290f9300a588b222e69fe", "fusion_lat": 0.0, "is_disabled": 0, "fusion_lon": 0.0}, {"name": "efbb3056fc26292f19adceed85b47e23", "is_reserved": 0, "type": "electric_scooter", "rental_uris": {"ios": "https://dc.lft.to/lastmile_qr_scan", "android": "https://dc.lft.to/lastmile_qr_scan"}, "lat": 38.90377516666667, "lon": -77.03439, "bike_id": "efbb3056fc26292f19adceed85b47e23", "fusion_lat": 0.0, "is_disabled": 0, "fusion_lon": 0.0}, {"name": "816f4a3ea3bad5765787ffbb02940bed", "is_reserved": 0, "type": "electric_scooter", "rental_uris": {"ios": "https://dc.lft.to/lastmile_qr_scan", "android": "https://dc.lft.to/lastmile_qr_scan"}, "lat": 38.89241366666667, "lon": -77.01516133333334, "bike_id": "816f4a3ea3bad5765787ffbb02940bed", "fusion_lat": 0.0, "is_disabled": 0, "fusion_lon": 0.0}, {"name": "dd152f62b07938fbd2a598df1b247df1", "is_reserved": 0, "type": "electric_scooter", "rental_uris": {"ios": "https://dc.lft.to/lastmile_qr_scan", "android": "https://dc.lft.to/lastmile_qr_scan"}, "lat": 38.92726016666667, "lon": -77.03671333333334, "bike_id": "dd152f62b07938fbd2a598df1b247df1", "fusion_lat": 0.0, "is_disabled": 0, "fusion_lon": 0.0}, {"name": "d405e87d1f93aa09846c74c4c19564e0", "is_reserved": 0, "type": "electric_scooter", "rental_uris": {"ios": "https://dc.lft.to/lastmile_qr_scan", "android": "https://dc.lft.to/lastmile_qr_scan"}, "lat": 38.8859515, "lon": -77.01760966666667, "bike_id": "d405e87d1f93aa09846c74c4c19564e0", "fusion_lat": 0.0, "is_disabled": 0, "fusion_lon": 0.0}, {"name": "7ffc8e3b6d0f90b5da17b80abaabf706", "is_reserved": 0, "type": "electric_scooter", "rental_uris": {"ios": "https://dc.lft.to/lastmile_qr_scan", "android": "https://dc.lft.to/lastmile_qr_scan"}, "lat": 38.90422183333333, "lon": -77.0309485, "bike_id": "7ffc8e3b6d0f90b5da17b80abaabf706", "fusion_lat": 0.0, "is_disabled": 0, "fusion_lon": 0.0}, {"name": "b1cfabb4983dcf07aa619ae8224eb10b", "is_reserved": 0, "type": "electric_scooter", "rental_uris": {"ios": "https://dc.lft.to/lastmile_qr_scan", "android": "https://dc.lft.to/lastmile_qr_scan"}, "lat": 38.9215225, "lon": -77.03483833333334, "bike_id": "b1cfabb4983dcf07aa619ae8224eb10b", "fusion_lat": 0.0, "is_disabled": 0, "fusion_lon": 0.0}, {"name": "fa1e50648c66b7d7389b72e5cdc975e0", "is_reserved": 0, "type": "electric_scooter", "rental_uris": {"ios": "https://dc.lft.to/lastmile_qr_scan", "android": "https://dc.lft.to/lastmile_qr_scan"}, "lat": 38.903763166666664, "lon": -77.06601683333334, "bike_id": "fa1e50648c66b7d7389b72e5cdc975e0", "fusion_lat": 0.0, "is_disabled": 0, "fusion_lon": 0.0}, {"name": "083f7f3ae1841931d84b72faa94548c1", "is_reserved": 0, "type": "electric_bike", "rental_uris": {"ios": "https://dc.lft.to/lastmile_qr_scan", "android": "https://dc.lft.to/lastmile_qr_scan"}, "lat": 38.96528333333333, "lon": -77.0343015, "bike_id": "083f7f3ae1841931d84b72faa94548c1", "fusion_lat": 0.0, "is_disabled": 0, "fusion_lon": 0.0}, {"name": "72561396646ca53ed86367fc0b0a8095", "is_reserved": 0, "type": "electric_scooter", "rental_uris": {"ios": "https://dc.lft.to/lastmile_qr_scan", "android": "https://dc.lft.to/lastmile_qr_scan"}, "lat": 38.94824833333333, "lon": -76.99904966666666, "bike_id": "72561396646ca53ed86367fc0b0a8095", "fusion_lat": 0.0, "is_disabled": 0, "fusion_lon": 0.0}, {"name": "8ebe602b8529b80c819b0ccf9b2b23ef", "is_reserved": 0, "type": "electric_scooter", "rental_uris": {"ios": "https://dc.lft.to/lastmile_qr_scan", "android": "https://dc.lft.to/lastmile_qr_scan"}, "lat": 38.948098, "lon": -77.07907866666666, "bike_id": "8ebe602b8529b80c819b0ccf9b2b23ef", "fusion_lat": 0.0, "is_disabled": 0, "fusion_lon": 0.0}, {"name": "3c1b7e4adcd526cd127796013822d24b", "is_reserved": 0, "type": "electric_scooter", "rental_uris": {"ios": "https://dc.lft.to/lastmile_qr_scan", "android": "https://dc.lft.to/lastmile_qr_scan"}, "lat": 38.914873666666665, "lon": -77.04161383333333, "bike_id": "3c1b7e4adcd526cd127796013822d24b", "fusion_lat": 0.0, "is_disabled": 0, "fusion_lon": 0.0}, {"name": "2c87d3b6ba2f48e92e2a9d8a14bae350", "is_reserved": 0, "type": "electric_scooter", "rental_uris": {"ios": "https://dc.lft.to/lastmile_qr_scan", "android": "https://dc.lft.to/lastmile_qr_scan"}, "lat": 38.915567833333334, "lon": -77.0217395, "bike_id": "2c87d3b6ba2f48e92e2a9d8a14bae350", "fusion_lat": 0.0, "is_disabled": 0, "fusion_lon": 0.0}, {"name": "8a2a22a62f8a8ca421da5b078ce4985b", "is_reserved": 0, "type": "electric_scooter", "rental_uris": {"ios": "https://dc.lft.to/lastmile_qr_scan", "android": "https://dc.lft.to/lastmile_qr_scan"}, "lat": 38.901515333333336, "lon": -77.033128, "bike_id": "8a2a22a62f8a8ca421da5b078ce4985b", "fusion_lat": 0.0, "is_disabled": 0, "fusion_lon": 0.0}, {"name": "07b5742e27b71c2cdd6e4ea4bba2597b", "is_reserved": 0, "type": "electric_scooter", "rental_uris": {"ios": "https://dc.lft.to/lastmile_qr_scan", "android": "https://dc.lft.to/lastmile_qr_scan"}, "lat": 38.9525075, "lon": -77.0069965, "bike_id": "07b5742e27b71c2cdd6e4ea4bba2597b", "fusion_lat": 0.0, "is_disabled": 0, "fusion_lon": 0.0}, {"name": "c229051ed87c7a91aaa62e07a5726e88", "is_reserved": 0, "type": "electric_bike", "rental_uris": {"ios": "https://dc.lft.to/lastmile_qr_scan", "android": "https://dc.lft.to/lastmile_qr_scan"}, "lat": 38.958743166666665, "lon": -77.00130766666666, "bike_id": "c229051ed87c7a91aaa62e07a5726e88", "fusion_lat": 0.0, "is_disabled": 0, "fusion_lon": 0.0}, {"name": "ef19398e6d1339c137fa4ccc50b74403", "is_reserved": 0, "type": "electric_scooter", "rental_uris": {"ios": "https://dc.lft.to/lastmile_qr_scan", "android": "https://dc.lft.to/lastmile_qr_scan"}, "lat": 38.8653645, "lon": -76.98969016666666, "bike_id": "ef19398e6d1339c137fa4ccc50b74403", "fusion_lat": 0.0, "is_disabled": 0, "fusion_lon": 0.0}, {"name": "625a20448774581154d5465d7a827fb3", "is_reserved": 0, "type": "electric_scooter", "rental_uris": {"ios": "https://dc.lft.to/lastmile_qr_scan", "android": "https://dc.lft.to/lastmile_qr_scan"}, "lat": 38.870938, "lon": -76.96868283333333, "bike_id": "625a20448774581154d5465d7a827fb3", "fusion_lat": 0.0, "is_disabled": 0, "fusion_lon": 0.0}, {"name": "8823fdd778533dd410d2bdb6f2404038", "is_reserved": 0, "type": "electric_scooter", "rental_uris": {"ios": "https://dc.lft.to/lastmile_qr_scan", "android": "https://dc.lft.to/lastmile_qr_scan"}, "lat": 38.905045, "lon": -76.99015916666667, "bike_id": "8823fdd778533dd410d2bdb6f2404038", "fusion_lat": 0.0, "is_disabled": 0, "fusion_lon": 0.0}, {"name": "a9e98b82777815c7fc7b99013ee76702", "is_reserved": 0, "type": "electric_scooter", "rental_uris": {"ios": "https://dc.lft.to/lastmile_qr_scan", "android": "https://dc.lft.to/lastmile_qr_scan"}, "lat": 38.9072945, "lon": -77.01134283333333, "bike_id": "a9e98b82777815c7fc7b99013ee76702", "fusion_lat": 0.0, "is_disabled": 0, "fusion_lon": 0.0}, {"name": "952f0e107ffe9faa7effb822a32c4b0f", "is_reserved": 0, "type": "electric_scooter", "rental_uris": {"ios": "https://dc.lft.to/lastmile_qr_scan", "android": "https://dc.lft.to/lastmile_qr_scan"}, "lat": 38.918741, "lon": -77.03902533333333, "bike_id": "952f0e107ffe9faa7effb822a32c4b0f", "fusion_lat": 0.0, "is_disabled": 0, "fusion_lon": 0.0}, {"name": "098e8be726dcb766f50286b6db8944db", "is_reserved": 0, "type": "electric_scooter", "rental_uris": {"ios": "https://dc.lft.to/lastmile_qr_scan", "android": "https://dc.lft.to/lastmile_qr_scan"}, "lat": 38.91529033333333, "lon": -77.019529, "bike_id": "098e8be726dcb766f50286b6db8944db", "fusion_lat": 0.0, "is_disabled": 0, "fusion_lon": 0.0}, {"name": "39a62f25002fec422c262e77bdb483a8", "is_reserved": 0, "type": "electric_scooter", "rental_uris": {"ios": "https://dc.lft.to/lastmile_qr_scan", "android": "https://dc.lft.to/lastmile_qr_scan"}, "lat": 38.8643075, "lon": -76.98996366666667, "bike_id": "39a62f25002fec422c262e77bdb483a8", "fusion_lat": 0.0, "is_disabled": 0, "fusion_lon": 0.0}, {"name": "fa74a1b415751b33ba83b072543a11af", "is_reserved": 0, "type": "electric_scooter", "rental_uris": {"ios": "https://dc.lft.to/lastmile_qr_scan", "android": "https://dc.lft.to/lastmile_qr_scan"}, "lat": 38.9074275, "lon": -77.06348633333333, "bike_id": "fa74a1b415751b33ba83b072543a11af", "fusion_lat": 0.0, "is_disabled": 0, "fusion_lon": 0.0}, {"name": "5df53d9f53cea724abb44a7e8fd8c30b", "is_reserved": 0, "type": "electric_scooter", "rental_uris": {"ios": "https://dc.lft.to/lastmile_qr_scan", "android": "https://dc.lft.to/lastmile_qr_scan"}, "lat": 38.8999755, "lon": -77.03353166666666, "bike_id": "5df53d9f53cea724abb44a7e8fd8c30b", "fusion_lat": 0.0, "is_disabled": 0, "fusion_lon": 0.0}, {"name": "1d858672f02ceae8aa2837569ff4728c", "is_reserved": 0, "type": "electric_scooter", "rental_uris": {"ios": "https://dc.lft.to/lastmile_qr_scan", "android": "https://dc.lft.to/lastmile_qr_scan"}, "lat": 38.91334533333333, "lon": -77.0198325, "bike_id": "1d858672f02ceae8aa2837569ff4728c", "fusion_lat": 0.0, "is_disabled": 0, "fusion_lon": 0.0}, {"name": "b4c5e09a1736afae8e08a623855820ac", "is_reserved": 0, "type": "electric_scooter", "rental_uris": {"ios": "https://dc.lft.to/lastmile_qr_scan", "android": "https://dc.lft.to/lastmile_qr_scan"}, "lat": 38.900357, "lon": -76.98840283333334, "bike_id": "b4c5e09a1736afae8e08a623855820ac", "fusion_lat": 0.0, "is_disabled": 0, "fusion_lon": 0.0}, {"name": "ec2a8c04ed61cc389ed09789b63802ea", "is_reserved": 0, "type": "electric_scooter", "rental_uris": {"ios": "https://dc.lft.to/lastmile_qr_scan", "android": "https://dc.lft.to/lastmile_qr_scan"}, "lat": 38.8973995, "lon": -77.00778783333334, "bike_id": "ec2a8c04ed61cc389ed09789b63802ea", "fusion_lat": 0.0, "is_disabled": 0, "fusion_lon": 0.0}, {"name": "a4f8d265372ce987e3e6ea8b4cc28234", "is_reserved": 0, "type": "electric_scooter", "rental_uris": {"ios": "https://dc.lft.to/lastmile_qr_scan", "android": "https://dc.lft.to/lastmile_qr_scan"}, "lat": 38.921708, "lon": -77.04703483333333, "bike_id": "a4f8d265372ce987e3e6ea8b4cc28234", "fusion_lat": 0.0, "is_disabled": 0, "fusion_lon": 0.0}, {"name": "3f33c467e3affb8639dadb20faed3b1c", "is_reserved": 0, "type": "electric_scooter", "rental_uris": {"ios": "https://dc.lft.to/lastmile_qr_scan", "android": "https://dc.lft.to/lastmile_qr_scan"}, "lat": 38.90556516666667, "lon": -76.93470566666667, "bike_id": "3f33c467e3affb8639dadb20faed3b1c", "fusion_lat": 0.0, "is_disabled": 0, "fusion_lon": 0.0}, {"name": "7e25fa625636824b94dfb3386797876c", "is_reserved": 0, "type": "electric_scooter", "rental_uris": {"ios": "https://dc.lft.to/lastmile_qr_scan", "android": "https://dc.lft.to/lastmile_qr_scan"}, "lat": 38.92234216666667, "lon": -77.02203183333333, "bike_id": "7e25fa625636824b94dfb3386797876c", "fusion_lat": 0.0, "is_disabled": 0, "fusion_lon": 0.0}, {"name": "adfe8fa17ce3d06756bb2b71af9a949b", "is_reserved": 0, "type": "electric_scooter", "rental_uris": {"ios": "https://dc.lft.to/lastmile_qr_scan", "android": "https://dc.lft.to/lastmile_qr_scan"}, "lat": 38.90446, "lon": -77.06123916666667, "bike_id": "adfe8fa17ce3d06756bb2b71af9a949b", "fusion_lat": 0.0, "is_disabled": 0, "fusion_lon": 0.0}, {"name": "a11c7f3bc8102595a8dc38d3ce8d2799", "is_reserved": 0, "type": "electric_scooter", "rental_uris": {"ios": "https://dc.lft.to/lastmile_qr_scan", "android": "https://dc.lft.to/lastmile_qr_scan"}, "lat": 38.901045, "lon": -77.05916016666667, "bike_id": "a11c7f3bc8102595a8dc38d3ce8d2799", "fusion_lat": 0.0, "is_disabled": 0, "fusion_lon": 0.0}, {"name": "369c05893a716983e65e7cc4854deb8a", "is_reserved": 0, "type": "electric_scooter", "rental_uris": {"ios": "https://dc.lft.to/lastmile_qr_scan", "android": "https://dc.lft.to/lastmile_qr_scan"}, "lat": 38.924706, "lon": -77.027178, "bike_id": "369c05893a716983e65e7cc4854deb8a", "fusion_lat": 0.0, "is_disabled": 0, "fusion_lon": 0.0}, {"name": "b7fecde0ea7472a590b2416ee5ca6f6f", "is_reserved": 0, "type": "electric_scooter", "rental_uris": {"ios": "https://dc.lft.to/lastmile_qr_scan", "android": "https://dc.lft.to/lastmile_qr_scan"}, "lat": 38.901560333333336, "lon": -76.945906, "bike_id": "b7fecde0ea7472a590b2416ee5ca6f6f", "fusion_lat": 0.0, "is_disabled": 0, "fusion_lon": 0.0}, {"name": "b5fb0c1a289df19f6b02261127e01a6b", "is_reserved": 0, "type": "electric_scooter", "rental_uris": {"ios": "https://dc.lft.to/lastmile_qr_scan", "android": "https://dc.lft.to/lastmile_qr_scan"}, "lat": 38.9304365, "lon": -77.0181735, "bike_id": "b5fb0c1a289df19f6b02261127e01a6b", "fusion_lat": 0.0, "is_disabled": 0, "fusion_lon": 0.0}, {"name": "08a358381683c88236201b12c27c5877", "is_reserved": 0, "type": "electric_scooter", "rental_uris": {"ios": "https://dc.lft.to/lastmile_qr_scan", "android": "https://dc.lft.to/lastmile_qr_scan"}, "lat": 38.8766465, "lon": -77.0044835, "bike_id": "08a358381683c88236201b12c27c5877", "fusion_lat": 0.0, "is_disabled": 0, "fusion_lon": 0.0}, {"name": "ca2afc9d92a77627f0f31ddb017e1288", "is_reserved": 0, "type": "electric_scooter", "rental_uris": {"ios": "https://dc.lft.to/lastmile_qr_scan", "android": "https://dc.lft.to/lastmile_qr_scan"}, "lat": 38.902387, "lon": -77.046994, "bike_id": "ca2afc9d92a77627f0f31ddb017e1288", "fusion_lat": 0.0, "is_disabled": 0, "fusion_lon": 0.0}, {"name": "f409dea77703787799c7325db91580bb", "is_reserved": 0, "type": "electric_scooter", "rental_uris": {"ios": "https://dc.lft.to/lastmile_qr_scan", "android": "https://dc.lft.to/lastmile_qr_scan"}, "lat": 38.9113595, "lon": -77.02697583333334, "bike_id": "f409dea77703787799c7325db91580bb", "fusion_lat": 0.0, "is_disabled": 0, "fusion_lon": 0.0}, {"name": "4c6d76e1d8b88513bd1f092108bd4a5d", "is_reserved": 0, "type": "electric_bike", "rental_uris": {"ios": "https://dc.lft.to/lastmile_qr_scan", "android": "https://dc.lft.to/lastmile_qr_scan"}, "lat": 38.857700333333334, "lon": -76.98762666666667, "bike_id": "4c6d76e1d8b88513bd1f092108bd4a5d", "fusion_lat": 0.0, "is_disabled": 0, "fusion_lon": 0.0}, {"name": "424f9cc3ac20e1827905eb96679eda6f", "is_reserved": 0, "type": "electric_scooter", "rental_uris": {"ios": "https://dc.lft.to/lastmile_qr_scan", "android": "https://dc.lft.to/lastmile_qr_scan"}, "lat": 38.921390333333335, "lon": -77.04476866666667, "bike_id": "424f9cc3ac20e1827905eb96679eda6f", "fusion_lat": 0.0, "is_disabled": 0, "fusion_lon": 0.0}, {"name": "44585e69b2d322675a356d3431465dce", "is_reserved": 0, "type": "electric_scooter", "rental_uris": {"ios": "https://dc.lft.to/lastmile_qr_scan", "android": "https://dc.lft.to/lastmile_qr_scan"}, "lat": 38.9207995, "lon": -77.00449166666667, "bike_id": "44585e69b2d322675a356d3431465dce", "fusion_lat": 0.0, "is_disabled": 0, "fusion_lon": 0.0}, {"name": "aaddd2a883669fbcdfc4dba9763a46b3", "is_reserved": 0, "type": "electric_scooter", "rental_uris": {"ios": "https://dc.lft.to/lastmile_qr_scan", "android": "https://dc.lft.to/lastmile_qr_scan"}, "lat": 38.93158783333333, "lon": -77.03953966666667, "bike_id": "aaddd2a883669fbcdfc4dba9763a46b3", "fusion_lat": 0.0, "is_disabled": 0, "fusion_lon": 0.0}, {"name": "68fa7ac7320b1aaaa49449cfdd491bcd", "is_reserved": 0, "type": "electric_scooter", "rental_uris": {"ios": "https://dc.lft.to/lastmile_qr_scan", "android": "https://dc.lft.to/lastmile_qr_scan"}, "lat": 38.929019333333336, "lon": -77.03325866666667, "bike_id": "68fa7ac7320b1aaaa49449cfdd491bcd", "fusion_lat": 0.0, "is_disabled": 0, "fusion_lon": 0.0}, {"name": "8faa3a492638ab0e7b70380793c65889", "is_reserved": 0, "type": "electric_scooter", "rental_uris": {"ios": "https://dc.lft.to/lastmile_qr_scan", "android": "https://dc.lft.to/lastmile_qr_scan"}, "lat": 38.889657, "lon": -76.93724783333333, "bike_id": "8faa3a492638ab0e7b70380793c65889", "fusion_lat": 0.0, "is_disabled": 0, "fusion_lon": 0.0}, {"name": "c1791d0f8a641412fceeba56f442e496", "is_reserved": 0, "type": "electric_scooter", "rental_uris": {"ios": "https://dc.lft.to/lastmile_qr_scan", "android": "https://dc.lft.to/lastmile_qr_scan"}, "lat": 38.903683666666666, "lon": -77.04214033333334, "bike_id": "c1791d0f8a641412fceeba56f442e496", "fusion_lat": 0.0, "is_disabled": 0, "fusion_lon": 0.0}, {"name": "200fbe54a3b2d0ed68ec68a17669c394", "is_reserved": 0, "type": "electric_scooter", "rental_uris": {"ios": "https://dc.lft.to/lastmile_qr_scan", "android": "https://dc.lft.to/lastmile_qr_scan"}, "lat": 38.916986, "lon": -77.037244, "bike_id": "200fbe54a3b2d0ed68ec68a17669c394", "fusion_lat": 0.0, "is_disabled": 0, "fusion_lon": 0.0}, {"name": "69d661a1b724eaf2640e3376e1fa36ef", "is_reserved": 0, "type": "electric_scooter", "rental_uris": {"ios": "https://dc.lft.to/lastmile_qr_scan", "android": "https://dc.lft.to/lastmile_qr_scan"}, "lat": 38.90215666666667, "lon": -77.01508166666666, "bike_id": "69d661a1b724eaf2640e3376e1fa36ef", "fusion_lat": 0.0, "is_disabled": 0, "fusion_lon": 0.0}, {"name": "184cdb3be08946458666880b0bdf768b", "is_reserved": 0, "type": "electric_scooter", "rental_uris": {"ios": "https://dc.lft.to/lastmile_qr_scan", "android": "https://dc.lft.to/lastmile_qr_scan"}, "lat": 38.90575166666667, "lon": -77.03346516666667, "bike_id": "184cdb3be08946458666880b0bdf768b", "fusion_lat": 0.0, "is_disabled": 0, "fusion_lon": 0.0}, {"name": "4d8827472df55e4f4eedab514ac3e9dd", "is_reserved": 0, "type": "electric_scooter", "rental_uris": {"ios": "https://dc.lft.to/lastmile_qr_scan", "android": "https://dc.lft.to/lastmile_qr_scan"}, "lat": 38.865689, "lon": -76.97329933333333, "bike_id": "4d8827472df55e4f4eedab514ac3e9dd", "fusion_lat": 0.0, "is_disabled": 0, "fusion_lon": 0.0}, {"name": "78553035a597a576e49fc299aaa2f852", "is_reserved": 0, "type": "electric_scooter", "rental_uris": {"ios": "https://dc.lft.to/lastmile_qr_scan", "android": "https://dc.lft.to/lastmile_qr_scan"}, "lat": 38.9650445, "lon": -77.06287033333334, "bike_id": "78553035a597a576e49fc299aaa2f852", "fusion_lat": 0.0, "is_disabled": 0, "fusion_lon": 0.0}, {"name": "a9669a8c4127852ee5cf06ae318bb96c", "is_reserved": 0, "type": "electric_scooter", "rental_uris": {"ios": "https://dc.lft.to/lastmile_qr_scan", "android": "https://dc.lft.to/lastmile_qr_scan"}, "lat": 38.903699, "lon": -77.03513183333334, "bike_id": "a9669a8c4127852ee5cf06ae318bb96c", "fusion_lat": 0.0, "is_disabled": 0, "fusion_lon": 0.0}, {"name": "b190212b8fc617184fb8455a1fd97a57", "is_reserved": 0, "type": "electric_bike", "rental_uris": {"ios": "https://dc.lft.to/lastmile_qr_scan", "android": "https://dc.lft.to/lastmile_qr_scan"}, "lat": 39.023971833333334, "lon": -77.0469025, "bike_id": "b190212b8fc617184fb8455a1fd97a57", "fusion_lat": 0.0, "is_disabled": 0, "fusion_lon": 0.0}, {"name": "dbff110a8c767d389146efcec2e5298f", "is_reserved": 0, "type": "electric_scooter", "rental_uris": {"ios": "https://dc.lft.to/lastmile_qr_scan", "android": "https://dc.lft.to/lastmile_qr_scan"}, "lat": 38.908396333333336, "lon": -77.02195483333334, "bike_id": "dbff110a8c767d389146efcec2e5298f", "fusion_lat": 0.0, "is_disabled": 0, "fusion_lon": 0.0}, {"name": "12dcb8ceb8c8038d6265e95ec7ef371a", "is_reserved": 0, "type": "electric_scooter", "rental_uris": {"ios": "https://dc.lft.to/lastmile_qr_scan", "android": "https://dc.lft.to/lastmile_qr_scan"}, "lat": 38.9073675, "lon": -77.03187866666667, "bike_id": "12dcb8ceb8c8038d6265e95ec7ef371a", "fusion_lat": 0.0, "is_disabled": 0, "fusion_lon": 0.0}, {"name": "4a8bfdcc5fbac9248220fa1b503dd8c3", "is_reserved": 0, "type": "electric_scooter", "rental_uris": {"ios": "https://dc.lft.to/lastmile_qr_scan", "android": "https://dc.lft.to/lastmile_qr_scan"}, "lat": 38.916416166666664, "lon": -77.0417855, "bike_id": "4a8bfdcc5fbac9248220fa1b503dd8c3", "fusion_lat": 0.0, "is_disabled": 0, "fusion_lon": 0.0}, {"name": "a1eb2eba11bc26a49e759d5e77d52e80", "is_reserved": 0, "type": "electric_scooter", "rental_uris": {"ios": "https://dc.lft.to/lastmile_qr_scan", "android": "https://dc.lft.to/lastmile_qr_scan"}, "lat": 38.90009166666667, "lon": -76.99746233333333, "bike_id": "a1eb2eba11bc26a49e759d5e77d52e80", "fusion_lat": 0.0, "is_disabled": 0, "fusion_lon": 0.0}, {"name": "d6ec0ee0764951dae0a310a5d5b494e9", "is_reserved": 0, "type": "electric_scooter", "rental_uris": {"ios": "https://dc.lft.to/lastmile_qr_scan", "android": "https://dc.lft.to/lastmile_qr_scan"}, "lat": 38.921521, "lon": -77.03866583333334, "bike_id": "d6ec0ee0764951dae0a310a5d5b494e9", "fusion_lat": 0.0, "is_disabled": 0, "fusion_lon": 0.0}, {"name": "06f59e380c9878e776567d923f1b2f0f", "is_reserved": 0, "type": "electric_bike", "rental_uris": {"ios": "https://dc.lft.to/lastmile_qr_scan", "android": "https://dc.lft.to/lastmile_qr_scan"}, "lat": 38.90866066666667, "lon": -77.02285766666667, "bike_id": "06f59e380c9878e776567d923f1b2f0f", "fusion_lat": 0.0, "is_disabled": 0, "fusion_lon": 0.0}, {"name": "009dde59f0eccbed019141b89e97cff8", "is_reserved": 0, "type": "electric_scooter", "rental_uris": {"ios": "https://dc.lft.to/lastmile_qr_scan", "android": "https://dc.lft.to/lastmile_qr_scan"}, "lat": 38.916893333333334, "lon": -77.03780416666666, "bike_id": "009dde59f0eccbed019141b89e97cff8", "fusion_lat": 0.0, "is_disabled": 0, "fusion_lon": 0.0}, {"name": "7ee4a195634d158f5f08b2533c3a42bf", "is_reserved": 0, "type": "electric_bike", "rental_uris": {"ios": "https://dc.lft.to/lastmile_qr_scan", "android": "https://dc.lft.to/lastmile_qr_scan"}, "lat": 38.893549, "lon": -77.18744066666666, "bike_id": "7ee4a195634d158f5f08b2533c3a42bf", "fusion_lat": 0.0, "is_disabled": 0, "fusion_lon": 0.0}, {"name": "aec446635d922a53598c6af185f19ffe", "is_reserved": 0, "type": "electric_scooter", "rental_uris": {"ios": "https://dc.lft.to/lastmile_qr_scan", "android": "https://dc.lft.to/lastmile_qr_scan"}, "lat": 38.9247, "lon": -77.038244, "bike_id": "aec446635d922a53598c6af185f19ffe", "fusion_lat": 0.0, "is_disabled": 0, "fusion_lon": 0.0}, {"name": "51bd9fadf5378232bf632941b66faca6", "is_reserved": 0, "type": "electric_scooter", "rental_uris": {"ios": "https://dc.lft.to/lastmile_qr_scan", "android": "https://dc.lft.to/lastmile_qr_scan"},