{"data": {"bikes": [{"fusion_lat": 0.0, "type": "electric_scooter", "name": "daff20cf9e2755344b1183ea1f0a5f55", "is_disabled": 0, "lon": -77.04345533333333, "fusion_lon": 0.0, "rental_uris": {"ios": "https://dc.lft.to/lastmile_qr_scan", "android": "https://dc.lft.to/lastmile_qr_scan"}, "lat": 38.9215845, "bike_id": "daff20cf9e2755344b1183ea1f0a5f55", "is_reserved": 0}, {"fusion_lat": 0.0, "type": "electric_scooter", "name": "23984ded899eb56fbb4f5cb7c1841ed5", "is_disabled": 0, "lon": -76.99851583333333, "fusion_lon": 0.0, "rental_uris": {"ios": "https://dc.lft.to/lastmile_qr_scan", "android": "https://dc.lft.to/lastmile_qr_scan"}, "lat": 38.89189533333333, "bike_id": "23984ded899eb56fbb4f5cb7c1841ed5", "is_reserved": 0}, {"fusion_lat": 0.0, "type": "electric_scooter", "name": "2e4cb80935e07e0b676b27c2d803a7c6", "is_disabled": 0, "lon": -77.03863733333333, "fusion_lon": 0.0, "rental_uris": {"ios": "https://dc.lft.to/lastmile_qr_scan", "android": "https://dc.lft.to/lastmile_qr_scan"}, "lat": 38.91714783333333, "bike_id": "2e4cb80935e07e0b676b27c2d803a7c6", "is_reserved": 0}, {"fusion_lat": 0.0, "type": "electric_scooter", "name": "63320da15b86841c90d63325e41cb5c0", "is_disabled": 0, "lon": -77.0283905, "fusion_lon": 0.0, "rental_uris": {"ios": "https://dc.lft.to/lastmile_qr_scan", "android": "https://dc.lft.to/lastmile_qr_scan"}, "lat": 38.88743516666667, "bike_id": "63320da15b86841c90d63325e41cb5c0", "is_reserved": 0}, {"fusion_lat": 0.0, "type": "electric_scooter", "name": "259fa578730699610d789349c3bf0f57", "is_disabled": 0, "lon": -77.04005116666667, "fusion_lon": 0.0, "rental_uris": {"ios": "https://dc.lft.to/lastmile_qr_scan", "android": "https://dc.lft.to/lastmile_qr_scan"}, "lat": 38.89879833333333, "bike_id": "259fa578730699610d789349c3bf0f57", "is_reserved": 0}, {"fusion_lat": 0.0, "type": "electric_bike", "name": "2eb24b979ce43700237bde98e94564ed", "is_disabled": 0, "lon": -77.05288433333334, "fusion_lon": 0.0, "rental_uris": {"ios": "https://dc.lft.to/lastmile_qr_scan", "android": "https://dc.lft.to/lastmile_qr_scan"}, "lat": 38.94095866666667, "bike_id": "2eb24b979ce43700237bde98e94564ed", "is_reserved": 0}, {"fusion_lat": 0.0, "type": "electric_scooter", "name": "70c10687ed0e1678fc479e31db58f7ed", "is_disabled": 0, "lon": -77.0326515, "fusion_lon": 0.0, "rental_uris": {"ios": "https://dc.lft.to/lastmile_qr_scan", "android": "https://dc.lft.to/lastmile_qr_scan"}, "lat": 38.93523533333333, "bike_id": "70c10687ed0e1678fc479e31db58f7ed", "is_reserved": 0}, {"fusion_lat": 0.0, "type": "electric_scooter", "name": "0b603c60bc97ad52d59e4ceb0febe8c5", "is_disabled": 0, "lon": -77.02809116666667, "fusion_lon": 0.0, "rental_uris": {"ios": "https://dc.lft.to/lastmile_qr_scan", "android": "https://dc.lft.to/lastmile_qr_scan"}, "lat": 38.91680566666667, "bike_id": "0b603c60bc97ad52d59e4ceb0febe8c5", "is_reserved": 0}, {"fusion_lat": 0.0, "type": "electric_bike", "name": "6d1a4364e2d5c08008ba116c6cb69fdb", "is_disabled": 0, "lon": -77.007187, "fusion_lon": 0.0, "rental_uris": {"ios": "https://dc.lft.to/lastmile_qr_scan", "android": "https://dc.lft.to/lastmile_qr_scan"}, "lat": 38.99506316666667, "bike_id": "6d1a4364e2d5c08008ba116c6cb69fdb", "is_reserved": 0}, {"fusion_lat": 0.0, "type": "electric_scooter", "name": "ca4bedae97187c1378f48c030041fa68", "is_disabled": 0, "lon": -76.99633166666666, "fusion_lon": 0.0, "rental_uris": {"ios": "https://dc.lft.to/lastmile_qr_scan", "android": "https://dc.lft.to/lastmile_qr_scan"}, "lat": 38.87738816666667, "bike_id": "ca4bedae97187c1378f48c030041fa68", "is_reserved": 0}, {"fusion_lat": 0.0, "type": "electric_scooter", "name": "9ae90dc0b5db9f307c949a8dd91bdb69", "is_disabled": 0, "lon": -77.0421115, "fusion_lon": 0.0, "rental_uris": {"ios": "https://dc.lft.to/lastmile_qr_scan", "android": "https://dc.lft.to/lastmile_qr_scan"}, "lat": 38.911220166666666, "bike_id": "9ae90dc0b5db9f307c949a8dd91bdb69", "is_reserved": 0}, {"fusion_lat": 0.0, "type": "electric_scooter", "name": "615b9951702193fde73b8162bb1d5db0", "is_disabled": 0, "lon": -77.03277883333334, "fusion_lon": 0.0, "rental_uris": {"ios": "https://dc.lft.to/lastmile_qr_scan", "android": "https://dc.lft.to/lastmile_qr_scan"}, "lat": 38.928465333333335, "bike_id": "615b9951702193fde73b8162bb1d5db0", "is_reserved": 0}, {"fusion_lat": 0.0, "type": "electric_scooter", "name": "4988701c64716d92150abe00abf75531", "is_disabled": 0, "lon": -77.05824133333333, "fusion_lon": 0.0, "rental_uris": {"ios": "https://dc.lft.to/lastmile_qr_scan", "android": "https://dc.lft.to/lastmile_qr_scan"}, "lat": 38.9063765, "bike_id": "4988701c64716d92150abe00abf75531", "is_reserved": 0}, {"fusion_lat": 0.0, "type": "electric_scooter", "name": "8c7dc040d6eb265d9ebdd6ac64b8efec", "is_disabled": 0, "lon": -77.03220566666667, "fusion_lon": 0.0, "rental_uris": {"ios": "https://dc.lft.to/lastmile_qr_scan", "android": "https://dc.lft.to/lastmile_qr_scan"}, "lat": 38.9304145, "bike_id": "8c7dc040d6eb265d9ebdd6ac64b8efec", "is_reserved": 0}, {"fusion_lat": 0.0, "type": "electric_bike", "name": "a25629ef1bf4cdebcb1f7031aef025a0", "is_disabled": 0, "lon": -76.98357983333334, "fusion_lon": 0.0, "rental_uris": {"ios": "https://dc.lft.to/lastmile_qr_scan", "android": "https://dc.lft.to/lastmile_qr_scan"}, "lat": 38.8625935, "bike_id": "a25629ef1bf4cdebcb1f7031aef025a0", "is_reserved": 0}, {"fusion_lat": 0.0, "type": "electric_scooter", "name": "bc23419feb6e906e40cea3640e3f1f48", "is_disabled": 0, "lon": -77.03356333333333, "fusion_lon": 0.0, "rental_uris": {"ios": "https://dc.lft.to/lastmile_qr_scan", "android": "https://dc.lft.to/lastmile_qr_scan"}, "lat": 38.900373333333334, "bike_id": "bc23419feb6e906e40cea3640e3f1f48", "is_reserved": 0}, {"fusion_lat": 0.0, "type": "electric_scooter", "name": "e90ad8357f4c9893a23c0950054ac276", "is_disabled": 0, "lon": -77.03254983333333, "fusion_lon": 0.0, "rental_uris": {"ios": "https://dc.lft.to/lastmile_qr_scan", "android": "https://dc.lft.to/lastmile_qr_scan"}, "lat": 38.9396625, "bike_id": "e90ad8357f4c9893a23c0950054ac276", "is_reserved": 0}, {"fusion_lat": 0.0, "type": "electric_scooter", "name": "dca060848fb1ecac93df20279664107f", "is_disabled": 0, "lon": -77.02339433333333, "fusion_lon": 0.0, "rental_uris": {"ios": "https://dc.lft.to/lastmile_qr_scan", "android": "https://dc.lft.to/lastmile_qr_scan"}, "lat": 38.881433, "bike_id": "dca060848fb1ecac93df20279664107f", "is_reserved": 0}, {"fusion_lat": 0.0, "type": "electric_scooter", "name": "c6854a6c505262606abaac943f04a384", "is_disabled": 0, "lon": -77.02218766666667, "fusion_lon": 0.0, "rental_uris": {"ios": "https://dc.lft.to/lastmile_qr_scan", "android": "https://dc.lft.to/lastmile_qr_scan"}, "lat": 38.905368333333335, "bike_id": "c6854a6c505262606abaac943f04a384", "is_reserved": 0}, {"fusion_lat": 0.0, "type": "electric_scooter", "name": "ee6dbc80adbcf9ed12414914a55765c5", "is_disabled": 0, "lon": -77.0131295, "fusion_lon": 0.0, "rental_uris": {"ios": "https://dc.lft.to/lastmile_qr_scan", "android": "https://dc.lft.to/lastmile_qr_scan"}, "lat": 38.89744733333333, "bike_id": "ee6dbc80adbcf9ed12414914a55765c5", "is_reserved": 0}, {"fusion_lat": 0.0, "type": "electric_scooter", "name": "bf624fd044a691c08be1ad60094b6c92", "is_disabled": 0, "lon": -77.0191435, "fusion_lon": 0.0, "rental_uris": {"ios": "https://dc.lft.to/lastmile_qr_scan", "android": "https://dc.lft.to/lastmile_qr_scan"}, "lat": 38.92184666666667, "bike_id": "bf624fd044a691c08be1ad60094b6c92", "is_reserved": 0}, {"fusion_lat": 0.0, "type": "electric_scooter", "name": "a4b899298a8b07ffccb217aad45e7b93", "is_disabled": 0, "lon": -77.00486316666667, "fusion_lon": 0.0, "rental_uris": {"ios": "https://dc.lft.to/lastmile_qr_scan", "android": "https://dc.lft.to/lastmile_qr_scan"}, "lat": 38.87459716666667, "bike_id": "a4b899298a8b07ffccb217aad45e7b93", "is_reserved": 0}, {"fusion_lat": 0.0, "type": "electric_scooter", "name": "0b7f7f9444f97c6966b50b32c4e7be89", "is_disabled": 0, "lon": -77.0072815, "fusion_lon": 0.0, "rental_uris": {"ios": "https://dc.lft.to/lastmile_qr_scan", "android": "https://dc.lft.to/lastmile_qr_scan"}, "lat": 38.911908833333335, "bike_id": "0b7f7f9444f97c6966b50b32c4e7be89", "is_reserved": 0}, {"fusion_lat": 0.0, "type": "electric_scooter", "name": "34acdc16abba8360df7950529a898585", "is_disabled": 0, "lon": -77.03134766666666, "fusion_lon": 0.0, "rental_uris": {"ios": "https://dc.lft.to/lastmile_qr_scan", "android": "https://dc.lft.to/lastmile_qr_scan"}, "lat": 38.92250266666667, "bike_id": "34acdc16abba8360df7950529a898585", "is_reserved": 0}, {"fusion_lat": 0.0, "type": "electric_scooter", "name": "4f05b2ac50966968fccce556d5c2903b", "is_disabled": 0, "lon": -77.04239, "fusion_lon": 0.0, "rental_uris": {"ios": "https://dc.lft.to/lastmile_qr_scan", "android": "https://dc.lft.to/lastmile_qr_scan"}, "lat": 38.911164, "bike_id": "4f05b2ac50966968fccce556d5c2903b", "is_reserved": 0}, {"fusion_lat": 0.0, "type": "electric_bike", "name": "ec70d50c2dbd03f5ccb75feb99417361", "is_disabled": 0, "lon": -77.03008083333333, "fusion_lon": 0.0, "rental_uris": {"ios": "https://dc.lft.to/lastmile_qr_scan", "android": "https://dc.lft.to/lastmile_qr_scan"}, "lat": 38.900241666666666, "bike_id": "ec70d50c2dbd03f5ccb75feb99417361", "is_reserved": 0}, {"fusion_lat": 0.0, "type": "electric_scooter", "name": "639bc2746d100249e82e33445af3c78c", "is_disabled": 0, "lon": -77.01813433333334, "fusion_lon": 0.0, "rental_uris": {"ios": "https://dc.lft.to/lastmile_qr_scan", "android": "https://dc.lft.to/lastmile_qr_scan"}, "lat": 38.9140535, "bike_id": "639bc2746d100249e82e33445af3c78c", "is_reserved": 0}, {"fusion_lat": 0.0, "type": "electric_scooter", "name": "a33adba154a7547c55590ab555409cb4", "is_disabled": 0, "lon": -77.02505833333333, "fusion_lon": 0.0, "rental_uris": {"ios": "https://dc.lft.to/lastmile_qr_scan", "android": "https://dc.lft.to/lastmile_qr_scan"}, "lat": 38.92065516666667, "bike_id": "a33adba154a7547c55590ab555409cb4", "is_reserved": 0}, {"fusion_lat": 0.0, "type": "electric_scooter", "name": "fcd32ff299ef1f1abc8080e27890fc3f", "is_disabled": 0, "lon": -77.03647166666667, "fusion_lon": 0.0, "rental_uris": {"ios": "https://dc.lft.to/lastmile_qr_scan", "android": "https://dc.lft.to/lastmile_qr_scan"}, "lat": 38.90304866666666, "bike_id": "fcd32ff299ef1f1abc8080e27890fc3f", "is_reserved": 0}, {"fusion_lat": 0.0, "type": "electric_scooter", "name": "f745a9961924c6aeb85c3f2f03f7d498", "is_disabled": 0, "lon": -77.03444483333334, "fusion_lon": 0.0, "rental_uris": {"ios": "https://dc.lft.to/lastmile_qr_scan", "android": "https://dc.lft.to/lastmile_qr_scan"}, "lat": 38.913931166666664, "bike_id": "f745a9961924c6aeb85c3f2f03f7d498", "is_reserved": 0}, {"fusion_lat": 0.0, "type": "electric_scooter", "name": "622b395ac7103a19b7db6ad434a785f5", "is_disabled": 0, "lon": -77.03378266666667, "fusion_lon": 0.0, "rental_uris": {"ios": "https://dc.lft.to/lastmile_qr_scan", "android": "https://dc.lft.to/lastmile_qr_scan"}, "lat": 38.9002455, "bike_id": "622b395ac7103a19b7db6ad434a785f5", "is_reserved": 0}, {"fusion_lat": 0.0, "type": "electric_scooter", "name": "e118be8e5af14a1e24ff1e4eb10c1eef", "is_disabled": 0, "lon": -77.00916666666667, "fusion_lon": 0.0, "rental_uris": {"ios": "https://dc.lft.to/lastmile_qr_scan", "android": "https://dc.lft.to/lastmile_qr_scan"}, "lat": 38.89549783333333, "bike_id": "e118be8e5af14a1e24ff1e4eb10c1eef", "is_reserved": 0}, {"fusion_lat": 0.0, "type": "electric_scooter", "name": "89eceb51922d441c5d3156be4c9afc08", "is_disabled": 0, "lon": -77.01091383333333, "fusion_lon": 0.0, "rental_uris": {"ios": "https://dc.lft.to/lastmile_qr_scan", "android": "https://dc.lft.to/lastmile_qr_scan"}, "lat": 38.903293166666664, "bike_id": "89eceb51922d441c5d3156be4c9afc08", "is_reserved": 0}, {"fusion_lat": 0.0, "type": "electric_scooter", "name": "e7b3de421feb63a394d36d7e97f18a56", "is_disabled": 0, "lon": -77.01624716666667, "fusion_lon": 0.0, "rental_uris": {"ios": "https://dc.lft.to/lastmile_qr_scan", "android": "https://dc.lft.to/lastmile_qr_scan"}, "lat": 38.887446833333335, "bike_id": "e7b3de421feb63a394d36d7e97f18a56", "is_reserved": 0}, {"fusion_lat": 0.0, "type": "electric_scooter", "name": "9b2518cbf9438e6e7dfb836ef104569e", "is_disabled": 0, "lon": -77.0419595, "fusion_lon": 0.0, "rental_uris": {"ios": "https://dc.lft.to/lastmile_qr_scan", "android": "https://dc.lft.to/lastmile_qr_scan"}, "lat": 38.91881083333333, "bike_id": "9b2518cbf9438e6e7dfb836ef104569e", "is_reserved": 0}, {"fusion_lat": 0.0, "type": "electric_scooter", "name": "ec578e99b805665a2f97ad622f391492", "is_disabled": 0, "lon": -76.98089566666667, "fusion_lon": 0.0, "rental_uris": {"ios": "https://dc.lft.to/lastmile_qr_scan", "android": "https://dc.lft.to/lastmile_qr_scan"}, "lat": 38.894388166666666, "bike_id": "ec578e99b805665a2f97ad622f391492", "is_reserved": 0}, {"fusion_lat": 0.0, "type": "electric_scooter", "name": "bd5d256d414511039939a650ec024eb1", "is_disabled": 0, "lon": -77.05922816666667, "fusion_lon": 0.0, "rental_uris": {"ios": "https://dc.lft.to/lastmile_qr_scan", "android": "https://dc.lft.to/lastmile_qr_scan"}, "lat": 38.901510333333334, "bike_id": "bd5d256d414511039939a650ec024eb1", "is_reserved": 0}, {"fusion_lat": 0.0, "type": "electric_scooter", "name": "84f33113ebcc6ba3719ab696e212d9f3", "is_disabled": 0, "lon": -77.0035475, "fusion_lon": 0.0, "rental_uris": {"ios": "https://dc.lft.to/lastmile_qr_scan", "android": "https://dc.lft.to/lastmile_qr_scan"}, "lat": 38.89918483333334, "bike_id": "84f33113ebcc6ba3719ab696e212d9f3", "is_reserved": 0}, {"fusion_lat": 0.0, "type": "electric_scooter", "name": "6b82bde58ad11c824d00191893e045a6", "is_disabled": 0, "lon": -77.02892233333333, "fusion_lon": 0.0, "rental_uris": {"ios": "https://dc.lft.to/lastmile_qr_scan", "android": "https://dc.lft.to/lastmile_qr_scan"}, "lat": 38.9360315, "bike_id": "6b82bde58ad11c824d00191893e045a6", "is_reserved": 0}, {"fusion_lat": 0.0, "type": "electric_scooter", "name": "483a3e4917bfc5c99ec4dd6f9314cc15", "is_disabled": 0, "lon": -77.01504433333334, "fusion_lon": 0.0, "rental_uris": {"ios": "https://dc.lft.to/lastmile_qr_scan", "android": "https://dc.lft.to/lastmile_qr_scan"}, "lat": 38.92665566666667, "bike_id": "483a3e4917bfc5c99ec4dd6f9314cc15", "is_reserved": 0}, {"fusion_lat": 0.0, "type": "electric_scooter", "name": "b2b646daa76dc1fd9cccf010de19bcf5", "is_disabled": 0, "lon": -77.00340016666667, "fusion_lon": 0.0, "rental_uris": {"ios": "https://dc.lft.to/lastmile_qr_scan", "android": "https://dc.lft.to/lastmile_qr_scan"}, "lat": 38.886343833333335, "bike_id": "b2b646daa76dc1fd9cccf010de19bcf5", "is_reserved": 0}, {"fusion_lat": 0.0, "type": "electric_scooter", "name": "3acb5a0b272da02519c50a4c0443c8a4", "is_disabled": 0, "lon": -77.02809166666667, "fusion_lon": 0.0, "rental_uris": {"ios": "https://dc.lft.to/lastmile_qr_scan", "android": "https://dc.lft.to/lastmile_qr_scan"}, "lat": 38.917679666666665, "bike_id": "3acb5a0b272da02519c50a4c0443c8a4", "is_reserved": 0}, {"fusion_lat": 0.0, "type": "electric_scooter", "name": "f5e5efacb39fb17cb4949cd501db5a1f", "is_disabled": 0, "lon": -76.98989483333334, "fusion_lon": 0.0, "rental_uris": {"ios": "https://dc.lft.to/lastmile_qr_scan", "android": "https://dc.lft.to/lastmile_qr_scan"}, "lat": 38.86437316666667, "bike_id": "f5e5efacb39fb17cb4949cd501db5a1f", "is_reserved": 0}, {"fusion_lat": 0.0, "type": "electric_scooter", "name": "45c7553e908c0594db70d8447e7ff981", "is_disabled": 0, "lon": -77.038851, "fusion_lon": 0.0, "rental_uris": {"ios": "https://dc.lft.to/lastmile_qr_scan", "android": "https://dc.lft.to/lastmile_qr_scan"}, "lat": 38.90129866666667, "bike_id": "45c7553e908c0594db70d8447e7ff981", "is_reserved": 0}, {"fusion_lat": 0.0, "type": "electric_scooter", "name": "bdd4e6774b4c5cceef51e1d80c28b23d", "is_disabled": 0, "lon": -77.02401666666667, "fusion_lon": 0.0, "rental_uris": {"ios": "https://dc.lft.to/lastmile_qr_scan", "android": "https://dc.lft.to/lastmile_qr_scan"}, "lat": 38.907003333333336, "bike_id": "bdd4e6774b4c5cceef51e1d80c28b23d", "is_reserved": 0}, {"fusion_lat": 0.0, "type": "electric_scooter", "name": "c3b0fca715d79d090c6d295377aac982", "is_disabled": 0, "lon": -77.017731, "fusion_lon": 0.0, "rental_uris": {"ios": "https://dc.lft.to/lastmile_qr_scan", "android": "https://dc.lft.to/lastmile_qr_scan"}, "lat": 38.92051083333333, "bike_id": "c3b0fca715d79d090c6d295377aac982", "is_reserved": 0}, {"fusion_lat": 0.0, "type": "electric_scooter", "name": "fc21a86aa82f098852dea7cfd534691d", "is_disabled": 0, "lon": -77.08579783333333, "fusion_lon": 0.0, "rental_uris": {"ios": "https://dc.lft.to/lastmile_qr_scan", "android": "https://dc.lft.to/lastmile_qr_scan"}, "lat": 38.93352016666667, "bike_id": "fc21a86aa82f098852dea7cfd534691d", "is_reserved": 0}, {"fusion_lat": 0.0, "type": "electric_scooter", "name": "3d9dbf67c4c286f1841a00d63da5e856", "is_disabled": 0, "lon": -77.0447405, "fusion_lon": 0.0, "rental_uris": {"ios": "https://dc.lft.to/lastmile_qr_scan", "android": "https://dc.lft.to/lastmile_qr_scan"}, "lat": 38.902757666666666, "bike_id": "3d9dbf67c4c286f1841a00d63da5e856", "is_reserved": 0}, {"fusion_lat": 0.0, "type": "electric_bike", "name": "67aa8511d0f9f9bde47c4bda19431769", "is_disabled": 0, "lon": -77.12934583333333, "fusion_lon": 0.0, "rental_uris": {"ios": "https://dc.lft.to/lastmile_qr_scan", "android": "https://dc.lft.to/lastmile_qr_scan"}, "lat": 38.86592483333333, "bike_id": "67aa8511d0f9f9bde47c4bda19431769", "is_reserved": 0}, {"fusion_lat": 0.0, "type": "electric_scooter", "name": "616ba15352b03ff89f0d3c655e30e5fa", "is_disabled": 0, "lon": -77.031625, "fusion_lon": 0.0, "rental_uris": {"ios": "https://dc.lft.to/lastmile_qr_scan", "android": "https://dc.lft.to/lastmile_qr_scan"}, "lat": 38.894061, "bike_id": "616ba15352b03ff89f0d3c655e30e5fa", "is_reserved": 0}, {"fusion_lat": 0.0, "type": "electric_scooter", "name": "a050bef961c14f2c15f1257d98e911da", "is_disabled": 0, "lon": -77.02853716666667, "fusion_lon": 0.0, "rental_uris": {"ios": "https://dc.lft.to/lastmile_qr_scan", "android": "https://dc.lft.to/lastmile_qr_scan"}, "lat": 38.90088333333333, "bike_id": "a050bef961c14f2c15f1257d98e911da", "is_reserved": 0}, {"fusion_lat": 0.0, "type": "electric_scooter", "name": "c38f938c4e6209a5475be4b4b9acd7fc", "is_disabled": 0, "lon": -76.92973466666666, "fusion_lon": 0.0, "rental_uris": {"ios": "https://dc.lft.to/lastmile_qr_scan", "android": "https://dc.lft.to/lastmile_qr_scan"}, "lat": 38.89631816666667, "bike_id": "c38f938c4e6209a5475be4b4b9acd7fc", "is_reserved": 0}, {"fusion_lat": 0.0, "type": "electric_scooter", "name": "9b270fef44455d33d529ffc7a0ec948f", "is_disabled": 0, "lon": -77.04158516666666, "fusion_lon": 0.0, "rental_uris": {"ios": "https://dc.lft.to/lastmile_qr_scan", "android": "https://dc.lft.to/lastmile_qr_scan"}, "lat": 38.912438, "bike_id": "9b270fef44455d33d529ffc7a0ec948f", "is_reserved": 0}, {"fusion_lat": 0.0, "type": "electric_scooter", "name": "f68185dadd5fa6055248db3627b5273a", "is_disabled": 0, "lon": -77.0264015, "fusion_lon": 0.0, "rental_uris": {"ios": "https://dc.lft.to/lastmile_qr_scan", "android": "https://dc.lft.to/lastmile_qr_scan"}, "lat": 38.95193016666666, "bike_id": "f68185dadd5fa6055248db3627b5273a", "is_reserved": 0}, {"fusion_lat": 0.0, "type": "electric_scooter", "name": "57796eabd99ab97680e04f8023f6b636", "is_disabled": 0, "lon": -77.0469535, "fusion_lon": 0.0, "rental_uris": {"ios": "https://dc.lft.to/lastmile_qr_scan", "android": "https://dc.lft.to/lastmile_qr_scan"}, "lat": 38.89605816666667, "bike_id": "57796eabd99ab97680e04f8023f6b636", "is_reserved": 0}, {"fusion_lat": 0.0, "type": "electric_bike", "name": "bd9eccdd08a7d068dfb5da937d5179db", "is_disabled": 0, "lon": -77.10213633333333, "fusion_lon": 0.0, "rental_uris": {"ios": "https://dc.lft.to/lastmile_qr_scan", "android": "https://dc.lft.to/lastmile_qr_scan"}, "lat": 38.919998666666665, "bike_id": "bd9eccdd08a7d068dfb5da937d5179db", "is_reserved": 0}, {"fusion_lat": 0.0, "type": "electric_scooter", "name": "ab6df7482554827d3c6e383599fdbfed", "is_disabled": 0, "lon": -77.00209916666667, "fusion_lon": 0.0, "rental_uris": {"ios": "https://dc.lft.to/lastmile_qr_scan", "android": "https://dc.lft.to/lastmile_qr_scan"}, "lat": 38.8979265, "bike_id": "ab6df7482554827d3c6e383599fdbfed", "is_reserved": 0}, {"fusion_lat": 0.0, "type": "electric_scooter", "name": "213f7fdfca00b5f991eaf39ac1462d67", "is_disabled": 0, "lon": -77.006802, "fusion_lon": 0.0, "rental_uris": {"ios": "https://dc.lft.to/lastmile_qr_scan", "android": "https://dc.lft.to/lastmile_qr_scan"}, "lat": 38.90014216666667, "bike_id": "213f7fdfca00b5f991eaf39ac1462d67", "is_reserved": 0}, {"fusion_lat": 0.0, "type": "electric_bike", "name": "b0a6216b4addeb627bae74f2d081205a", "is_disabled": 0, "lon": -76.96095666666666, "fusion_lon": 0.0, "rental_uris": {"ios": "https://dc.lft.to/lastmile_qr_scan", "android": "https://dc.lft.to/lastmile_qr_scan"}, "lat": 38.91859433333333, "bike_id": "b0a6216b4addeb627bae74f2d081205a", "is_reserved": 0}, {"fusion_lat": 0.0, "type": "electric_scooter", "name": "6415ba86be78d10dbffc97cd02dc1ef8", "is_disabled": 0, "lon": -77.03867216666667, "fusion_lon": 0.0, "rental_uris": {"ios": "https://dc.lft.to/lastmile_qr_scan", "android": "https://dc.lft.to/lastmile_qr_scan"}, "lat": 38.9125605, "bike_id": "6415ba86be78d10dbffc97cd02dc1ef8", "is_reserved": 0}, {"fusion_lat": 0.0, "type": "electric_bike", "name": "568df3f19083f172ec58c96d3e94c927", "is_disabled": 0, "lon": -76.98693933333334, "fusion_lon": 0.0, "rental_uris": {"ios": "https://dc.lft.to/lastmile_qr_scan", "android": "https://dc.lft.to/lastmile_qr_scan"}, "lat": 38.944738666666666, "bike_id": "568df3f19083f172ec58c96d3e94c927", "is_reserved": 0}, {"fusion_lat": 0.0, "type": "electric_scooter", "name": "54e245459813a4f3491dcd99328e731f", "is_disabled": 0, "lon": -77.03552033333334, "fusion_lon": 0.0, "rental_uris": {"ios": "https://dc.lft.to/lastmile_qr_scan", "android": "https://dc.lft.to/lastmile_qr_scan"}, "lat": 38.918153333333336, "bike_id": "54e245459813a4f3491dcd99328e731f", "is_reserved": 0}, {"fusion_lat": 0.0, "type": "electric_scooter", "name": "afae66b495f215758c7cc9f2c93f99fe", "is_disabled": 0, "lon": -77.02813233333333, "fusion_lon": 0.0, "rental_uris": {"ios": "https://dc.lft.to/lastmile_qr_scan", "android": "https://dc.lft.to/lastmile_qr_scan"}, "lat": 38.90454366666667, "bike_id": "afae66b495f215758c7cc9f2c93f99fe", "is_reserved": 0}, {"fusion_lat": 0.0, "type": "electric_bike", "name": "423ac806c86df93eaa80dd783f0f221e", "is_disabled": 0, "lon": -77.02248766666666, "fusion_lon": 0.0, "rental_uris": {"ios": "https://dc.lft.to/lastmile_qr_scan", "android": "https://dc.lft.to/lastmile_qr_scan"}, "lat": 38.9667835, "bike_id": "423ac806c86df93eaa80dd783f0f221e", "is_reserved": 0}, {"fusion_lat": 0.0, "type": "electric_bike", "name": "dec4bf68aa549f27199536f0b9da86d7", "is_disabled": 0, "lon": -77.08623483333334, "fusion_lon": 0.0, "rental_uris": {"ios": "https://dc.lft.to/lastmile_qr_scan", "android": "https://dc.lft.to/lastmile_qr_scan"}, "lat": 38.9312865, "bike_id": "dec4bf68aa549f27199536f0b9da86d7", "is_reserved": 0}, {"fusion_lat": 0.0, "type": "electric_scooter", "name": "4bcce656247a4fd1a0136ff22de5a546", "is_disabled": 0, "lon": -77.03523666666666, "fusion_lon": 0.0, "rental_uris": {"ios": "https://dc.lft.to/lastmile_qr_scan", "android": "https://dc.lft.to/lastmile_qr_scan"}, "lat": 38.92254483333333, "bike_id": "4bcce656247a4fd1a0136ff22de5a546", "is_reserved": 0}, {"fusion_lat": 0.0, "type": "electric_bike", "name": "422e38a960b7e9a17c340e8afa10b922", "is_disabled": 0, "lon": -76.96266566666667, "fusion_lon": 0.0, "rental_uris": {"ios": "https://dc.lft.to/lastmile_qr_scan", "android": "https://dc.lft.to/lastmile_qr_scan"}, "lat": 38.9678445, "bike_id": "422e38a960b7e9a17c340e8afa10b922", "is_reserved": 0}, {"fusion_lat": 0.0, "type": "electric_bike", "name": "1e17fd62a249b2a8126c3424f86871a7", "is_disabled": 0, "lon": -77.08407316666667, "fusion_lon": 0.0, "rental_uris": {"ios": "https://dc.lft.to/lastmile_qr_scan", "android": "https://dc.lft.to/lastmile_qr_scan"}, "lat": 38.91299516666667, "bike_id": "1e17fd62a249b2a8126c3424f86871a7", "is_reserved": 0}, {"fusion_lat": 0.0, "type": "electric_scooter", "name": "7a3d88b237cbec383b77c111fff3ceae", "is_disabled": 0, "lon": -77.04590116666667, "fusion_lon": 0.0, "rental_uris": {"ios": "https://dc.lft.to/lastmile_qr_scan", "android": "https://dc.lft.to/lastmile_qr_scan"}, "lat": 38.90857483333333, "bike_id": "7a3d88b237cbec383b77c111fff3ceae", "is_reserved": 0}, {"fusion_lat": 0.0, "type": "electric_scooter", "name": "77424a48df218b4ca0e20976fe369ae8", "is_disabled": 0, "lon": -77.02167833333333, "fusion_lon": 0.0, "rental_uris": {"ios": "https://dc.lft.to/lastmile_qr_scan", "android": "https://dc.lft.to/lastmile_qr_scan"}, "lat": 38.91459483333333, "bike_id": "77424a48df218b4ca0e20976fe369ae8", "is_reserved": 0}, {"fusion_lat": 0.0, "type": "electric_scooter", "name": "c1ac5bac166a08e7c728cb3fa16ba70e", "is_disabled": 0, "lon": -77.00195616666667, "fusion_lon": 0.0, "rental_uris": {"ios": "https://dc.lft.to/lastmile_qr_scan", "android": "https://dc.lft.to/lastmile_qr_scan"}, "lat": 38.90032633333333, "bike_id": "c1ac5bac166a08e7c728cb3fa16ba70e", "is_reserved": 0}, {"fusion_lat": 0.0, "type": "electric_bike", "name": "56f00d05ba1661be86ac5ab7922df275", "is_disabled": 0, "lon": -76.951621, "fusion_lon": 0.0, "rental_uris": {"ios": "https://dc.lft.to/lastmile_qr_scan", "android": "https://dc.lft.to/lastmile_qr_scan"}, "lat": 39.0844675, "bike_id": "56f00d05ba1661be86ac5ab7922df275", "is_reserved": 0}, {"fusion_lat": 0.0, "type": "electric_scooter", "name": "84e02b8c7fd1f3cb114a67bd66644c30", "is_disabled": 0, "lon": -77.03050566666667, "fusion_lon": 0.0, "rental_uris": {"ios": "https://dc.lft.to/lastmile_qr_scan", "android": "https://dc.lft.to/lastmile_qr_scan"}, "lat": 38.89828033333333, "bike_id": "84e02b8c7fd1f3cb114a67bd66644c30", "is_reserved": 0}, {"fusion_lat": 0.0, "type": "electric_scooter", "name": "9ba96c5a1260a9f2cb7b09f800973612", "is_disabled": 0, "lon": -77.064264, "fusion_lon": 0.0, "rental_uris": {"ios": "https://dc.lft.to/lastmile_qr_scan", "android": "https://dc.lft.to/lastmile_qr_scan"}, "lat": 38.935650833333334, "bike_id": "9ba96c5a1260a9f2cb7b09f800973612", "is_reserved": 0}, {"fusion_lat": 0.0, "type": "electric_scooter", "name": "9dddd37b53684016b8f47de83310513c", "is_disabled": 0, "lon": -77.03222433333333, "fusion_lon": 0.0, "rental_uris": {"ios": "https://dc.lft.to/lastmile_qr_scan", "android": "https://dc.lft.to/lastmile_qr_scan"}, "lat": 38.92549266666666, "bike_id": "9dddd37b53684016b8f47de83310513c", "is_reserved": 0}, {"fusion_lat": 0.0, "type": "electric_scooter", "name": "246c065d2dbb1ba911539279be0821a5", "is_disabled": 0, "lon": -77.00160533333333, "fusion_lon": 0.0, "rental_uris": {"ios": "https://dc.lft.to/lastmile_qr_scan", "android": "https://dc.lft.to/lastmile_qr_scan"}, "lat": 38.821329666666664, "bike_id": "246c065d2dbb1ba911539279be0821a5", "is_reserved": 0}, {"fusion_lat": 0.0, "type": "electric_scooter", "name": "aa9a40a26b73646ae882042122489ce7", "is_disabled": 0, "lon": -77.03662633333333, "fusion_lon": 0.0, "rental_uris": {"ios": "https://dc.lft.to/lastmile_qr_scan", "android": "https://dc.lft.to/lastmile_qr_scan"}, "lat": 38.90282033333333, "bike_id": "aa9a40a26b73646ae882042122489ce7", "is_reserved": 0}, {"fusion_lat": 0.0, "type": "electric_scooter", "name": "e17a367207809b0e4df7ff00caa17a34", "is_disabled": 0, "lon": -77.02374983333333, "fusion_lon": 0.0, "rental_uris": {"ios": "https://dc.lft.to/lastmile_qr_scan", "android": "https://dc.lft.to/lastmile_qr_scan"}, "lat": 38.9206085, "bike_id": "e17a367207809b0e4df7ff00caa17a34", "is_reserved": 0}, {"fusion_lat": 0.0, "type": "electric_scooter", "name": "94aac890146a7ae0d6739e1dbba2f331", "is_disabled": 0, "lon": -77.031827, "fusion_lon": 0.0, "rental_uris": {"ios": "https://dc.lft.to/lastmile_qr_scan", "android": "https://dc.lft.to/lastmile_qr_scan"}, "lat": 38.918438333333334, "bike_id": "94aac890146a7ae0d6739e1dbba2f331", "is_reserved": 0}, {"fusion_lat": 0.0, "type": "electric_scooter", "name": "9305c5b2b28a23d22e9102d884bc42d1", "is_disabled": 0, "lon": -77.00300066666667, "fusion_lon": 0.0, "rental_uris": {"ios": "https://dc.lft.to/lastmile_qr_scan", "android": "https://dc.lft.to/lastmile_qr_scan"}, "lat": 38.892068333333334, "bike_id": "9305c5b2b28a23d22e9102d884bc42d1", "is_reserved": 0}, {"fusion_lat": 0.0, "type": "electric_scooter", "name": "3f4c4efe10080d44b237710f2678612d", "is_disabled": 0, "lon": -77.009182, "fusion_lon": 0.0, "rental_uris": {"ios": "https://dc.lft.to/lastmile_qr_scan", "android": "https://dc.lft.to/lastmile_qr_scan"}, "lat": 38.89550916666666, "bike_id": "3f4c4efe10080d44b237710f2678612d", "is_reserved": 0}, {"fusion_lat": 0.0, "type": "electric_scooter", "name": "18845fc4dc4088a5e4110dd88803a604", "is_disabled": 0, "lon": -76.935976, "fusion_lon": 0.0, "rental_uris": {"ios": "https://dc.lft.to/lastmile_qr_scan", "android": "https://dc.lft.to/lastmile_qr_scan"}, "lat": 38.909467666666664, "bike_id": "18845fc4dc4088a5e4110dd88803a604", "is_reserved": 0}, {"fusion_lat": 0.0, "type": "electric_bike", "name": "96afea159247c85209e6e5a3a745db38", "is_disabled": 0, "lon": -77.08553566666667, "fusion_lon": 0.0, "rental_uris": {"ios": "https://dc.lft.to/lastmile_qr_scan", "android": "https://dc.lft.to/lastmile_qr_scan"}, "lat": 38.93315833333333, "bike_id": "96afea159247c85209e6e5a3a745db38", "is_reserved": 0}, {"fusion_lat": 0.0, "type": "electric_scooter", "name": "3fffb800dcbb8853813bbe97461b390b", "is_disabled": 0, "lon": -76.998357, "fusion_lon": 0.0, "rental_uris": {"ios": "https://dc.lft.to/lastmile_qr_scan", "android": "https://dc.lft.to/lastmile_qr_scan"}, "lat": 38.90704383333333, "bike_id": "3fffb800dcbb8853813bbe97461b390b", "is_reserved": 0}, {"fusion_lat": 0.0, "type": "electric_scooter", "name": "92f78f1e7c1131e7e605fbcee16d4cdb", "is_disabled": 0, "lon": -77.036464, "fusion_lon": 0.0, "rental_uris": {"ios": "https://dc.lft.to/lastmile_qr_scan", "android": "https://dc.lft.to/lastmile_qr_scan"}, "lat": 38.917392666666665, "bike_id": "92f78f1e7c1131e7e605fbcee16d4cdb", "is_reserved": 0}, {"fusion_lat": 0.0, "type": "electric_scooter", "name": "7c4149db07380b24e6898bbef1f1b674", "is_disabled": 0, "lon": -77.0195375, "fusion_lon": 0.0, "rental_uris": {"ios": "https://dc.lft.to/lastmile_qr_scan", "android": "https://dc.lft.to/lastmile_qr_scan"}, "lat": 38.923285, "bike_id": "7c4149db07380b24e6898bbef1f1b674", "is_reserved": 0}, {"fusion_lat": 0.0, "type": "electric_scooter", "name": "5d1897d17816171eb6f9f08d5f7eef54", "is_disabled": 0, "lon": -77.036594, "fusion_lon": 0.0, "rental_uris": {"ios": "https://dc.lft.to/lastmile_qr_scan", "android": "https://dc.lft.to/lastmile_qr_scan"}, "lat": 38.91795833333333, "bike_id": "5d1897d17816171eb6f9f08d5f7eef54", "is_reserved": 0}, {"fusion_lat": 0.0, "type": "electric_scooter", "name": "bfe7bca6391fc1aedeb6cec93252d035", "is_disabled": 0, "lon": -77.04468883333334, "fusion_lon": 0.0, "rental_uris": {"ios": "https://dc.lft.to/lastmile_qr_scan", "android": "https://dc.lft.to/lastmile_qr_scan"}, "lat": 38.902908, "bike_id": "bfe7bca6391fc1aedeb6cec93252d035", "is_reserved": 0}, {"fusion_lat": 0.0, "type": "electric_scooter", "name": "43f8ded19401fc9dbe15b1d875e311c4", "is_disabled": 0, "lon": -77.03656383333333, "fusion_lon": 0.0, "rental_uris": {"ios": "https://dc.lft.to/lastmile_qr_scan", "android": "https://dc.lft.to/lastmile_qr_scan"}, "lat": 38.90276633333333, "bike_id": "43f8ded19401fc9dbe15b1d875e311c4", "is_reserved": 0}, {"fusion_lat": 0.0, "type": "electric_scooter", "name": "1e10f282c030206c032957a5079a99db", "is_disabled": 0, "lon": -77.02455016666667, "fusion_lon": 0.0, "rental_uris": {"ios": "https://dc.lft.to/lastmile_qr_scan", "android": "https://dc.lft.to/lastmile_qr_scan"}, "lat": 38.9151305, "bike_id": "1e10f282c030206c032957a5079a99db", "is_reserved": 0}, {"fusion_lat": 0.0, "type": "electric_scooter", "name": "5e509d87bc77025cb2b35379d036d989", "is_disabled": 0, "lon": -77.0360585, "fusion_lon": 0.0, "rental_uris": {"ios": "https://dc.lft.to/lastmile_qr_scan", "android": "https://dc.lft.to/lastmile_qr_scan"}, "lat": 38.928527, "bike_id": "5e509d87bc77025cb2b35379d036d989", "is_reserved": 0}, {"fusion_lat": 0.0, "type": "electric_scooter", "name": "e0689751bc7b66c00195328c1355c9db", "is_disabled": 0, "lon": -77.02093083333334, "fusion_lon": 0.0, "rental_uris": {"ios": "https://dc.lft.to/lastmile_qr_scan", "android": "https://dc.lft.to/lastmile_qr_scan"}, "lat": 38.932767, "bike_id": "e0689751bc7b66c00195328c1355c9db", "is_reserved": 0}, {"fusion_lat": 0.0, "type": "electric_scooter", "name": "0528dc60280841aea759c23c508b90ae", "is_disabled": 0, "lon": -76.99771583333333, "fusion_lon": 0.0, "rental_uris": {"ios": "https://dc.lft.to/lastmile_qr_scan", "android": "https://dc.lft.to/lastmile_qr_scan"}, "lat": 38.90136316666667, "bike_id": "0528dc60280841aea759c23c508b90ae", "is_reserved": 0}, {"fusion_lat": 0.0, "type": "electric_scooter", "name": "ad676976d307e49b31dd439161ce166c", "is_disabled": 0, "lon": -77.01221183333334, "fusion_lon": 0.0, "rental_uris": {"ios": "https://dc.lft.to/lastmile_qr_scan", "android": "https://dc.lft.to/lastmile_qr_scan"}, "lat": 38.9534145, "bike_id": "ad676976d307e49b31dd439161ce166c", "is_reserved": 0}, {"fusion_lat": 0.0, "type": "electric_scooter", "name": "2a6c778d2fcb71c07d1dd25c14fb7187", "is_disabled": 0, "lon": -77.04564283333333, "fusion_lon": 0.0, "rental_uris": {"ios": "https://dc.lft.to/lastmile_qr_scan", "android": "https://dc.lft.to/lastmile_qr_scan"}, "lat": 38.903806333333335, "bike_id": "2a6c778d2fcb71c07d1dd25c14fb7187", "is_reserved": 0}, {"fusion_lat": 0.0, "type": "electric_scooter", "name": "16eef9f018a7edd695b02c390651ae8c", "is_disabled": 0, "lon": -77.04337633333333, "fusion_lon": 0.0, "rental_uris": {"ios": "https://dc.lft.to/lastmile_qr_scan", "android": "https://dc.lft.to/lastmile_qr_scan"}, "lat": 38.908737, "bike_id": "16eef9f018a7edd695b02c390651ae8c", "is_reserved": 0}, {"fusion_lat": 0.0, "type": "electric_scooter", "name": "fcbae186f22277894fe4d85410782365", "is_disabled": 0, "lon": -77.05330883333333, "fusion_lon": 0.0, "rental_uris": {"ios": "https://dc.lft.to/lastmile_qr_scan", "android": "https://dc.lft.to/lastmile_qr_scan"}, "lat": 38.90457683333333, "bike_id": "fcbae186f22277894fe4d85410782365", "is_reserved": 0}, {"fusion_lat": 0.0, "type": "electric_scooter", "name": "70415e10d0f52a1fdf7c196414d2f257", "is_disabled": 0, "lon": -77.0210265, "fusion_lon": 0.0, "rental_uris": {"ios": "https://dc.lft.to/lastmile_qr_scan", "android": "https://dc.lft.to/lastmile_qr_scan"}, "lat": 38.89638383333333, "bike_id": "70415e10d0f52a1fdf7c196414d2f257", "is_reserved": 0}, {"fusion_lat": 0.0, "type": "electric_scooter", "name": "36128c24f79a98eb34274fa31da74725", "is_disabled": 0, "lon": -77.06277133333333, "fusion_lon": 0.0, "rental_uris": {"ios": "https://dc.lft.to/lastmile_qr_scan", "android": "https://dc.lft.to/lastmile_qr_scan"}, "lat": 38.905716166666664, "bike_id": "36128c24f79a98eb34274fa31da74725", "is_reserved": 0}, {"fusion_lat": 0.0, "type": "electric_scooter", "name": "866e347bd69a420aad60e625eb764d01", "is_disabled": 0, "lon": -77.02175766666667, "fusion_lon": 0.0, "rental_uris": {"ios": "https://dc.lft.to/lastmile_qr_scan", "android": "https://dc.lft.to/lastmile_qr_scan"}, "lat": 38.91509666666666, "bike_id": "866e347bd69a420aad60e625eb764d01", "is_reserved": 0}, {"fusion_lat": 0.0, "type": "electric_bike", "name": "5097adb3efb924b38217e3addf7bea80", "is_disabled": 0, "lon": -77.05574966666667, "fusion_lon": 0.0, "rental_uris": {"ios": "https://dc.lft.to/lastmile_qr_scan", "android": "https://dc.lft.to/lastmile_qr_scan"}, "lat": 38.906294, "bike_id": "5097adb3efb924b38217e3addf7bea80", "is_reserved": 0}, {"fusion_lat": 0.0, "type": "electric_scooter", "name": "1991ca5c730c857c10f9c269ea05ff67", "is_disabled": 0, "lon": -77.01669166666667, "fusion_lon": 0.0, "rental_uris": {"ios": "https://dc.lft.to/lastmile_qr_scan", "android": "https://dc.lft.to/lastmile_qr_scan"}, "lat": 38.88121366666667, "bike_id": "1991ca5c730c857c10f9c269ea05ff67", "is_reserved": 0}, {"fusion_lat": 0.0, "type": "electric_scooter", "name": "1cb1555a3012a33ed954990d4fa95e6f", "is_disabled": 0, "lon": -76.94954216666666, "fusion_lon": 0.0, "rental_uris": {"ios": "https://dc.lft.to/lastmile_qr_scan", "android": "https://dc.lft.to/lastmile_qr_scan"}, "lat": 38.8954835, "bike_id": "1cb1555a3012a33ed954990d4fa95e6f", "is_reserved": 0}, {"fusion_lat": 0.0, "type": "electric_scooter", "name": "aa6add2d8c9c0932ba34d36cd9728705", "is_disabled": 0, "lon": -77.04008533333334, "fusion_lon": 0.0, "rental_uris": {"ios": "https://dc.lft.to/lastmile_qr_scan", "android": "https://dc.lft.to/lastmile_qr_scan"}, "lat": 38.9100655, "bike_id": "aa6add2d8c9c0932ba34d36cd9728705", "is_reserved": 0}, {"fusion_lat": 0.0, "type": "electric_bike", "name": "defa582b2aacb571f86d7340eab97aed", "is_disabled": 0, "lon": -77.01636633333334, "fusion_lon": 0.0, "rental_uris": {"ios": "https://dc.lft.to/lastmile_qr_scan", "android": "https://dc.lft.to/lastmile_qr_scan"}, "lat": 38.90379816666667, "bike_id": "defa582b2aacb571f86d7340eab97aed", "is_reserved": 0}, {"fusion_lat": 0.0, "type": "electric_scooter", "name": "c62d08758efcc46b6333bee49c7694bf", "is_disabled": 0, "lon": -76.99504933333333, "fusion_lon": 0.0, "rental_uris": {"ios": "https://dc.lft.to/lastmile_qr_scan", "android": "https://dc.lft.to/lastmile_qr_scan"}, "lat": 38.88342266666667, "bike_id": "c62d08758efcc46b6333bee49c7694bf", "is_reserved": 0}, {"fusion_lat": 0.0, "type": "electric_scooter", "name": "2a62e9a0cf42f2aa2afee6e06be0cd4f", "is_disabled": 0, "lon": -77.00540916666667, "fusion_lon": 0.0, "rental_uris": {"ios": "https://dc.lft.to/lastmile_qr_scan", "android": "https://dc.lft.to/lastmile_qr_scan"}, "lat": 38.8754655, "bike_id": "2a62e9a0cf42f2aa2afee6e06be0cd4f", "is_reserved": 0}, {"fusion_lat": 0.0, "type": "electric_scooter", "name": "3acdcc3767014f3ddbe29c42c8bbc8d0", "is_disabled": 0, "lon": -77.0482585, "fusion_lon": 0.0, "rental_uris": {"ios": "https://dc.lft.to/lastmile_qr_scan", "android": "https://dc.lft.to/lastmile_qr_scan"}, "lat": 38.89833616666667, "bike_id": "3acdcc3767014f3ddbe29c42c8bbc8d0", "is_reserved": 0}, {"fusion_lat": 0.0, "type": "electric_scooter", "name": "5ce2e3b83eb22a5eaad0d680b3909fb4", "is_disabled": 0, "lon": -77.022902, "fusion_lon": 0.0, "rental_uris": {"ios": "https://dc.lft.to/lastmile_qr_scan", "android": "https://dc.lft.to/lastmile_qr_scan"}, "lat": 38.917849, "bike_id": "5ce2e3b83eb22a5eaad0d680b3909fb4", "is_reserved": 0}, {"fusion_lat": 0.0, "type": "electric_scooter", "name": "9c649d896d6f0514da231a7897a3e2c1", "is_disabled": 0, "lon": -77.02795566666667, "fusion_lon": 0.0, "rental_uris": {"ios": "https://dc.lft.to/lastmile_qr_scan", "android": "https://dc.lft.to/lastmile_qr_scan"}, "lat": 38.923170166666665, "bike_id": "9c649d896d6f0514da231a7897a3e2c1", "is_reserved": 0}, {"fusion_lat": 0.0, "type": "electric_scooter", "name": "7f8489d18f7bdaf151766e3129668ba6", "is_disabled": 0, "lon": -76.99256816666667, "fusion_lon": 0.0, "rental_uris": {"ios": "https://dc.lft.to/lastmile_qr_scan", "android": "https://dc.lft.to/lastmile_qr_scan"}, "lat": 38.91983466666667, "bike_id": "7f8489d18f7bdaf151766e3129668ba6", "is_reserved": 0}, {"fusion_lat": 0.0, "type": "electric_scooter", "name": "f20963fbba5ea73849c4e47b3e8444e5", "is_disabled": 0, "lon": -77.013942, "fusion_lon": 0.0, "rental_uris": {"ios": "https://dc.lft.to/lastmile_qr_scan", "android": "https://dc.lft.to/lastmile_qr_scan"}, "lat": 38.87895366666667, "bike_id": "f20963fbba5ea73849c4e47b3e8444e5", "is_reserved": 0}, {"fusion_lat": 0.0, "type": "electric_scooter", "name": "0c692b9cfa552f783bb3c7fd6e73422f", "is_disabled": 0, "lon": -77.03961566666666, "fusion_lon": 0.0, "rental_uris": {"ios": "https://dc.lft.to/lastmile_qr_scan", "android": "https://dc.lft.to/lastmile_qr_scan"}, "lat": 38.90013583333333, "bike_id": "0c692b9cfa552f783bb3c7fd6e73422f", "is_reserved": 0}, {"fusion_lat": 0.0, "type": "electric_scooter", "name": "a40dee44d7e9fac4e01eb5c10213a0b4", "is_disabled": 0, "lon": -77.056255, "fusion_lon": 0.0, "rental_uris": {"ios": "https://dc.lft.to/lastmile_qr_scan", "android": "https://dc.lft.to/lastmile_qr_scan"}, "lat": 38.923382833333335, "bike_id": "a40dee44d7e9fac4e01eb5c10213a0b4", "is_reserved": 0}, {"fusion_lat": 0.0, "type": "electric_bike", "name": "b2773306b3c8aa4f10ca635fbbb94b67", "is_disabled": 0, "lon": -76.98722483333333, "fusion_lon": 0.0, "rental_uris": {"ios": "https://dc.lft.to/lastmile_qr_scan", "android": "https://dc.lft.to/lastmile_qr_scan"}, "lat": 38.8633785, "bike_id": "b2773306b3c8aa4f10ca635fbbb94b67", "is_reserved": 0}, {"fusion_lat": 0.0, "type": "electric_scooter", "name": "2c82a831cbeb8e0c5f50c43c11f7ad83", "is_disabled": 0, "lon": -77.0326085, "fusion_lon": 0.0, "rental_uris": {"ios": "https://dc.lft.to/lastmile_qr_scan", "android": "https://dc.lft.to/lastmile_qr_scan"}, "lat": 38.93737866666667, "bike_id": "2c82a831cbeb8e0c5f50c43c11f7ad83", "is_reserved": 0}, {"fusion_lat": 0.0, "type": "electric_scooter", "name": "b6601aff63daf2ecfe511dfc2e4ac63c", "is_disabled": 0, "lon": -76.99487383333333, "fusion_lon": 0.0, "rental_uris": {"ios": "https://dc.lft.to/lastmile_qr_scan", "android": "https://dc.lft.to/lastmile_qr_scan"}, "lat": 38.88862316666667, "bike_id": "b6601aff63daf2ecfe511dfc2e4ac63c", "is_reserved": 0}, {"fusion_lat": 0.0, "type": "electric_scooter", "name": "2334f6bd569e3fae20bb739bdbeca162", "is_disabled": 0, "lon": -77.030702, "fusion_lon": 0.0, "rental_uris": {"ios": "https://dc.lft.to/lastmile_qr_scan", "android": "https://dc.lft.to/lastmile_qr_scan"}, "lat": 38.89978216666667, "bike_id": "2334f6bd569e3fae20bb739bdbeca162", "is_reserved": 0}, {"fusion_lat": 0.0, "type": "electric_bike", "name": "9ae6ba8424a955b0e687c0ed8c697ecc", "is_disabled": 0, "lon": -77.05694483333333, "fusion_lon": 0.0, "rental_uris": {"ios": "https://dc.lft.to/lastmile_qr_scan", "android": "https://dc.lft.to/lastmile_qr_scan"}, "lat": 38.9056555, "bike_id": "9ae6ba8424a955b0e687c0ed8c697ecc", "is_reserved": 0}, {"fusion_lat": 0.0, "type": "electric_scooter", "name": "79204ec73acd4faaa8b5f97e858e6003", "is_disabled": 0, "lon": -76.99110166666667, "fusion_lon": 0.0, "rental_uris": {"ios": "https://dc.lft.to/lastmile_qr_scan", "android": "https://dc.lft.to/lastmile_qr_scan"}, "lat": 38.85730183333333, "bike_id": "79204ec73acd4faaa8b5f97e858e6003", "is_reserved": 0}, {"fusion_lat": 0.0, "type": "electric_scooter", "name": "96aabe5a890aa3506207766fff12da9e", "is_disabled": 0, "lon": -76.99492116666667, "fusion_lon": 0.0, "rental_uris": {"ios": "https://dc.lft.to/lastmile_qr_scan", "android": "https://dc.lft.to/lastmile_qr_scan"}, "lat": 38.89007466666666, "bike_id": "96aabe5a890aa3506207766fff12da9e", "is_reserved": 0}, {"fusion_lat": 0.0, "type": "electric_scooter", "name": "1e787b4210a45b6d24ada9af49394954", "is_disabled": 0, "lon": -77.04137666666666, "fusion_lon": 0.0, "rental_uris": {"ios": "https://dc.lft.to/lastmile_qr_scan", "android": "https://dc.lft.to/lastmile_qr_scan"}, "lat": 38.908936, "bike_id": "1e787b4210a45b6d24ada9af49394954", "is_reserved": 0}, {"fusion_lat": 0.0, "type": "electric_scooter", "name": "215187e9ee695dbe76d14c0dbc60fbba", "is_disabled": 0, "lon": -77.039376, "fusion_lon": 0.0, "rental_uris": {"ios": "https://dc.lft.to/lastmile_qr_scan", "android": "https://dc.lft.to/lastmile_qr_scan"}, "lat": 38.902743, "bike_id": "215187e9ee695dbe76d14c0dbc60fbba", "is_reserved": 0}, {"fusion_lat": 0.0, "type": "electric_scooter", "name": "dd2b8af3c44af3819d5dbeb123a2adce", "is_disabled": 0, "lon": -77.04334733333333, "fusion_lon": 0.0, "rental_uris": {"ios": "https://dc.lft.to/lastmile_qr_scan", "android": "https://dc.lft.to/lastmile_qr_scan"}, "lat": 38.9222345, "bike_id": "dd2b8af3c44af3819d5dbeb123a2adce", "is_reserved": 0}, {"fusion_lat": 0.0, "type": "electric_scooter", "name": "96073cf456cef064dc50f5e4868dc6f8", "is_disabled": 0, "lon": -77.04247933333333, "fusion_lon": 0.0, "rental_uris": {"ios": "https://dc.lft.to/lastmile_qr_scan", "android": "https://dc.lft.to/lastmile_qr_scan"}, "lat": 38.919701833333335, "bike_id": "96073cf456cef064dc50f5e4868dc6f8", "is_reserved": 0}, {"fusion_lat": 0.0, "type": "electric_scooter", "name": "61bdf490b11521e229f8d1e4a548eedc", "is_disabled": 0, "lon": -77.04835566666667, "fusion_lon": 0.0, "rental_uris": {"ios": "https://dc.lft.to/lastmile_qr_scan", "android": "https://dc.lft.to/lastmile_qr_scan"}, "lat": 38.916261666666664, "bike_id": "61bdf490b11521e229f8d1e4a548eedc", "is_reserved": 0}, {"fusion_lat": 0.0, "type": "electric_scooter", "name": "d37570d5f67b261dce04bfe5ffc0808d", "is_disabled": 0, "lon": -77.03423083333334, "fusion_lon": 0.0, "rental_uris": {"ios": "https://dc.lft.to/lastmile_qr_scan", "android": "https://dc.lft.to/lastmile_qr_scan"}, "lat": 38.902563666666666, "bike_id": "d37570d5f67b261dce04bfe5ffc0808d", "is_reserved": 0}, {"fusion_lat": 0.0, "type": "electric_scooter", "name": "52561cf59d0fd2a9ef95b8ed55253697", "is_disabled": 0, "lon": -77.0337505, "fusion_lon": 0.0, "rental_uris": {"ios": "https://dc.lft.to/lastmile_qr_scan", "android": "https://dc.lft.to/lastmile_qr_scan"}, "lat": 38.925458666666664, "bike_id": "52561cf59d0fd2a9ef95b8ed55253697", "is_reserved": 0}, {"fusion_lat": 0.0, "type": "electric_scooter", "name": "9fbf149df69a7483f89fa0798ed6d556", "is_disabled": 0, "lon": -76.99001916666667, "fusion_lon": 0.0, "rental_uris": {"ios": "https://dc.lft.to/lastmile_qr_scan", "android": "https://dc.lft.to/lastmile_qr_scan"}, "lat": 38.86424, "bike_id": "9fbf149df69a7483f89fa0798ed6d556", "is_reserved": 0}, {"fusion_lat": 0.0, "type": "electric_scooter", "name": "46dce90abd7d7bd146ec72b73b89e971", "is_disabled": 0, "lon": -76.996227, "fusion_lon": 0.0, "rental_uris": {"ios": "https://dc.lft.to/lastmile_qr_scan", "android": "https://dc.lft.to/lastmile_qr_scan"}, "lat": 38.93167583333334, "bike_id": "46dce90abd7d7bd146ec72b73b89e971", "is_reserved": 0}, {"fusion_lat": 0.0, "type": "electric_scooter", "name": "24d88728980fdb21c610bdb106c35769", "is_disabled": 0, "lon": -77.04189616666666, "fusion_lon": 0.0, "rental_uris": {"ios": "https://dc.lft.to/lastmile_qr_scan", "android": "https://dc.lft.to/lastmile_qr_scan"}, "lat": 38.92048666666667, "bike_id": "24d88728980fdb21c610bdb106c35769", "is_reserved": 0}, {"fusion_lat": 0.0, "type": "electric_scooter", "name": "347f3f3e90adc03115ed5e97723bb88b", "is_disabled": 0, "lon": -77.02086316666667, "fusion_lon": 0.0, "rental_uris": {"ios": "https://dc.lft.to/lastmile_qr_scan", "android": "https://dc.lft.to/lastmile_qr_scan"}, "lat": 38.92240733333333, "bike_id": "347f3f3e90adc03115ed5e97723bb88b", "is_reserved": 0}, {"fusion_lat": 0.0, "type": "electric_scooter", "name": "ada2c6da890732e0473b270b9fff2e45", "is_disabled": 0, "lon": -77.01441866666667, "fusion_lon": 0.0, "rental_uris": {"ios": "https://dc.lft.to/lastmile_qr_scan", "android": "https://dc.lft.to/lastmile_qr_scan"}, "lat": 38.909654833333335, "bike_id": "ada2c6da890732e0473b270b9fff2e45", "is_reserved": 0}, {"fusion_lat": 0.0, "type": "electric_scooter", "name": "e0e7507dbaedc02f5acdcaf66d46092f", "is_disabled": 0, "lon": -76.97041216666666, "fusion_lon": 0.0, "rental_uris": {"ios": "https://dc.lft.to/lastmile_qr_scan", "android": "https://dc.lft.to/lastmile_qr_scan"}, "lat": 38.87320016666666, "bike_id": "e0e7507dbaedc02f5acdcaf66d46092f", "is_reserved": 0}, {"fusion_lat": 0.0, "type": "electric_bike", "name": "b6968c23c9b6cf57a1c00c3c634c820e", "is_disabled": 0, "lon": -77.0670175, "fusion_lon": 0.0, "rental_uris": {"ios": "https://dc.lft.to/lastmile_qr_scan", "android": "https://dc.lft.to/lastmile_qr_scan"}, "lat": 38.831708666666664, "bike_id": "b6968c23c9b6cf57a1c00c3c634c820e", "is_reserved": 0}, {"fusion_lat": 0.0, "type": "electric_scooter", "name": "c1105957e2bd7a97f4df6736fe27cb46", "is_disabled": 0, "lon": -77.0207535, "fusion_lon": 0.0, "rental_uris": {"ios": "https://dc.lft.to/lastmile_qr_scan", "android": "https://dc.lft.to/lastmile_qr_scan"}, "lat": 38.8818245, "bike_id": "c1105957e2bd7a97f4df6736fe27cb46", "is_reserved": 0}, {"fusion_lat": 0.0, "type": "electric_scooter", "name": "f0feb6bf2ebb9d5b2a1ae14321938daf", "is_disabled": 0, "lon": -77.04002366666667, "fusion_lon": 0.0, "rental_uris": {"ios": "https://dc.lft.to/lastmile_qr_scan", "android": "https://dc.lft.to/lastmile_qr_scan"}, "lat": 38.934162, "bike_id": "f0feb6bf2ebb9d5b2a1ae14321938daf", "is_reserved": 0}, {"fusion_lat": 0.0, "type": "electric_scooter", "name": "b19b70fb9d630b398e4176cbdc719460", "is_disabled": 0, "lon": -77.03849283333334, "fusion_lon": 0.0, "rental_uris": {"ios": "https://dc.lft.to/lastmile_qr_scan", "android": "https://dc.lft.to/lastmile_qr_scan"}, "lat": 38.909809, "bike_id": "b19b70fb9d630b398e4176cbdc719460", "is_reserved": 0}, {"fusion_lat": 0.0, "type": "electric_scooter", "name": "ddbd0bdbfaaaf6dc9bd63bea5ef2f09b", "is_disabled": 0, "lon": -77.02785966666667, "fusion_lon": 0.0, "rental_uris": {"ios": "https://dc.lft.to/lastmile_qr_scan", "android": "https://dc.lft.to/lastmile_qr_scan"}, "lat": 38.961925666666666, "bike_id": "ddbd0bdbfaaaf6dc9bd63bea5ef2f09b", "is_reserved": 0}, {"fusion_lat": 0.0, "type": "electric_scooter", "name": "e210a9dd0b3117713b1791d4bb51c802", "is_disabled": 0, "lon": -77.01886016666667, "fusion_lon": 0.0, "rental_uris": {"ios": "https://dc.lft.to/lastmile_qr_scan", "android": "https://dc.lft.to/lastmile_qr_scan"}, "lat": 38.905631, "bike_id": "e210a9dd0b3117713b1791d4bb51c802", "is_reserved": 0}, {"fusion_lat": 0.0, "type": "electric_scooter", "name": "3ced744c6d6b360029c590515a46a855", "is_disabled": 0, "lon": -77.03197216666666, "fusion_lon": 0.0, "rental_uris": {"ios": "https://dc.lft.to/lastmile_qr_scan", "android": "https://dc.lft.to/lastmile_qr_scan"}, "lat": 38.91029116666667, "bike_id": "3ced744c6d6b360029c590515a46a855", "is_reserved": 0}, {"fusion_lat": 0.0, "type": "electric_scooter", "name": "19e05aef18cbd48fe3e88298120673e2", "is_disabled": 0, "lon": -76.9363155, "fusion_lon": 0.0, "rental_uris": {"ios": "https://dc.lft.to/lastmile_qr_scan", "android": "https://dc.lft.to/lastmile_qr_scan"}, "lat": 38.88348966666667, "bike_id": "19e05aef18cbd48fe3e88298120673e2", "is_reserved": 0}, {"fusion_lat": 0.0, "type": "electric_scooter", "name": "9b58c9a6c93a8bf86fe2cb5bd72a73a9", "is_disabled": 0, "lon": -77.00792983333334, "fusion_lon": 0.0, "rental_uris": {"ios": "https://dc.lft.to/lastmile_qr_scan", "android": "https://dc.lft.to/lastmile_qr_scan"}, "lat": 38.875906666666666, "bike_id": "9b58c9a6c93a8bf86fe2cb5bd72a73a9", "is_reserved": 0}, {"fusion_lat": 0.0, "type": "electric_scooter", "name": "593477a38fd652f136b087a5d3a72341", "is_disabled": 0, "lon": -77.02680983333333, "fusion_lon": 0.0, "rental_uris": {"ios": "https://dc.lft.to/lastmile_qr_scan", "android": "https://dc.lft.to/lastmile_qr_scan"}, "lat": 38.9021515, "bike_id": "593477a38fd652f136b087a5d3a72341", "is_reserved": 0}, {"fusion_lat": 0.0, "type": "electric_bike", "name": "126f96229f393d9f4d63fcf28a7b0056", "is_disabled": 0, "lon": -76.993728, "fusion_lon": 0.0, "rental_uris": {"ios": "https://dc.lft.to/lastmile_qr_scan", "android": "https://dc.lft.to/lastmile_qr_scan"}, "lat": 38.9910245, "bike_id": "126f96229f393d9f4d63fcf28a7b0056", "is_reserved": 0}, {"fusion_lat": 0.0, "type": "electric_scooter", "name": "4ee852726079a36d4aa6801850f5f984", "is_disabled": 0, "lon": -76.9977985, "fusion_lon": 0.0, "rental_uris": {"ios": "https://dc.lft.to/lastmile_qr_scan", "android": "https://dc.lft.to/lastmile_qr_scan"}, "lat": 38.9228895, "bike_id": "4ee852726079a36d4aa6801850f5f984", "is_reserved": 0}, {"fusion_lat": 0.0, "type": "electric_scooter", "name": "147df3501538830f8601c354ad990b42", "is_disabled": 0, "lon": -76.99968866666667, "fusion_lon": 0.0, "rental_uris": {"ios": "https://dc.lft.to/lastmile_qr_scan", "android": "https://dc.lft.to/lastmile_qr_scan"}, "lat": 38.874964, "bike_id": "147df3501538830f8601c354ad990b42", "is_reserved": 0}, {"fusion_lat": 0.0, "type": "electric_scooter", "name": "a9ef2e5b9bda8e648c168e959a645dd7", "is_disabled": 0, "lon": -77.01456966666667, "fusion_lon": 0.0, "rental_uris": {"ios": "https://dc.lft.to/lastmile_qr_scan", "android": "https://dc.lft.to/lastmile_qr_scan"}, "lat": 38.87427683333333, "bike_id": "a9ef2e5b9bda8e648c168e959a645dd7", "is_reserved": 0}, {"fusion_lat": 0.0, "type": "electric_scooter", "name": "66209dc780817a00b72800d5e2a4dce8", "is_disabled": 0, "lon": -77.01905016666667, "fusion_lon": 0.0, "rental_uris": {"ios": "https://dc.lft.to/lastmile_qr_scan", "android": "https://dc.lft.to/lastmile_qr_scan"}, "lat": 38.923326833333334, "bike_id": "66209dc780817a00b72800d5e2a4dce8", "is_reserved": 0}, {"fusion_lat": 0.0, "type": "electric_scooter", "name": "378b668c4c2ca219e56ddc3b36cfe9c1", "is_disabled": 0, "lon": -77.02108216666667, "fusion_lon": 0.0, "rental_uris": {"ios": "https://dc.lft.to/lastmile_qr_scan", "android": "https://dc.lft.to/lastmile_qr_scan"}, "lat": 38.92362583333333, "bike_id": "378b668c4c2ca219e56ddc3b36cfe9c1", "is_reserved": 0}, {"fusion_lat": 0.0, "type": "electric_bike", "name": "266882d567d3433dfbe24f76b73cff9c", "is_disabled": 0, "lon": -76.942314, "fusion_lon": 0.0, "rental_uris": {"ios": "https://dc.lft.to/lastmile_qr_scan", "android": "https://dc.lft.to/lastmile_qr_scan"}, "lat": 38.890498, "bike_id": "266882d567d3433dfbe24f76b73cff9c", "is_reserved": 0}, {"fusion_lat": 0.0, "type": "electric_scooter", "name": "ac7a95481697bad170311df26ee052be", "is_disabled": 0, "lon": -76.99970166666667, "fusion_lon": 0.0, "rental_uris": {"ios": "https://dc.lft.to/lastmile_qr_scan", "android": "https://dc.lft.to/lastmile_qr_scan"}, "lat": 38.899027833333335, "bike_id": "ac7a95481697bad170311df26ee052be", "is_reserved": 0}, {"fusion_lat": 0.0, "type": "electric_scooter", "name": "12035c816afc8e4a476ad99d668d8f95", "is_disabled": 0, "lon": -77.0150885, "fusion_lon": 0.0, "rental_uris": {"ios": "https://dc.lft.to/lastmile_qr_scan", "android": "https://dc.lft.to/lastmile_qr_scan"}, "lat": 38.891170333333335, "bike_id": "12035c816afc8e4a476ad99d668d8f95", "is_reserved": 0}, {"fusion_lat": 0.0, "type": "electric_bike", "name": "b8920b0bfe7be5022e0eb10a35b14053", "is_disabled": 0, "lon": -76.9075245, "fusion_lon": 0.0, "rental_uris": {"ios": "https://dc.lft.to/lastmile_qr_scan", "android": "https://dc.lft.to/lastmile_qr_scan"}, "lat": 38.89618516666667, "bike_id": "b8920b0bfe7be5022e0eb10a35b14053", "is_reserved": 0}, {"fusion_lat": 0.0, "type": "electric_scooter", "name": "60710bf82e6cb6e51be4aaf3b8416145", "is_disabled": 0, "lon": -77.029415, "fusion_lon": 0.0, "rental_uris": {"ios": "https://dc.lft.to/lastmile_qr_scan", "android": "https://dc.lft.to/lastmile_qr_scan"}, "lat": 38.9072455, "bike_id": "60710bf82e6cb6e51be4aaf3b8416145", "is_reserved": 0}, {"fusion_lat": 0.0, "type": "electric_scooter", "name": "dba52abc148aaf1ceab900af2a05978e", "is_disabled": 0, "lon": -77.02955083333333, "fusion_lon": 0.0, "rental_uris": {"ios": "https://dc.lft.to/lastmile_qr_scan", "android": "https://dc.lft.to/lastmile_qr_scan"}, "lat": 38.91683066666667, "bike_id": "dba52abc148aaf1ceab900af2a05978e", "is_reserved": 0}, {"fusion_lat": 0.0, "type": "electric_bike", "name": "97d488be996a52af408697a449246805", "is_disabled": 0, "lon": -77.00616783333334, "fusion_lon": 0.0, "rental_uris": {"ios": "https://dc.lft.to/lastmile_qr_scan", "android": "https://dc.lft.to/lastmile_qr_scan"}, "lat": 38.8239835, "bike_id": "97d488be996a52af408697a449246805", "is_reserved": 0}, {"fusion_lat": 0.0, "type": "electric_scooter", "name": "09879d5c4ad844e22c12a695644355b9", "is_disabled": 0, "lon": -77.02783933333333, "fusion_lon": 0.0, "rental_uris": {"ios": "https://dc.lft.to/lastmile_qr_scan", "android": "https://dc.lft.to/lastmile_qr_scan"}, "lat": 38.902851166666665, "bike_id": "09879d5c4ad844e22c12a695644355b9", "is_reserved": 0}, {"fusion_lat": 0.0, "type": "electric_scooter", "name": "d33689ebb43645796d8d1ccfb9281421", "is_disabled": 0, "lon": -77.02315616666667, "fusion_lon": 0.0, "rental_uris": {"ios": "https://dc.lft.to/lastmile_qr_scan", "android": "https://dc.lft.to/lastmile_qr_scan"}, "lat": 38.8966385, "bike_id": "d33689ebb43645796d8d1ccfb9281421", "is_reserved": 0}, {"fusion_lat": 0.0, "type": "electric_scooter", "name": "3f44275677d517efde597fb7f2123460", "is_disabled": 0, "lon": -76.94699266666667, "fusion_lon": 0.0, "rental_uris": {"ios": "https://dc.lft.to/lastmile_qr_scan", "android": "https://dc.lft.to/lastmile_qr_scan"}, "lat": 38.897637333333336, "bike_id": "3f44275677d517efde597fb7f2123460", "is_reserved": 0}, {"fusion_lat": 0.0, "type": "electric_scooter", "name": "1d7e3daeb8a118861e5fd36a3df860a9", "is_disabled": 0, "lon": -77.03759566666666, "fusion_lon": 0.0, "rental_uris": {"ios": "https://dc.lft.to/lastmile_qr_scan", "android": "https://dc.lft.to/lastmile_qr_scan"}, "lat": 38.90545216666666, "bike_id": "1d7e3daeb8a118861e5fd36a3df860a9", "is_reserved": 0}, {"fusion_lat": 0.0, "type": "electric_scooter", "name": "c047fac5bd4ee5b0170df781d5dc3b4e", "is_disabled": 0, "lon": -77.03369966666666, "fusion_lon": 0.0, "rental_uris": {"ios": "https://dc.lft.to/lastmile_qr_scan", "android": "https://dc.lft.to/lastmile_qr_scan"}, "lat": 38.92752133333333, "bike_id": "c047fac5bd4ee5b0170df781d5dc3b4e", "is_reserved": 0}, {"fusion_lat": 0.0, "type": "electric_scooter", "name": "468903544bc3f0c77864812063e0d376", "is_disabled": 0, "lon": -77.0318555, "fusion_lon": 0.0, "rental_uris": {"ios": "https://dc.lft.to/lastmile_qr_scan", "android": "https://dc.lft.to/lastmile_qr_scan"}, "lat": 38.90038633333333, "bike_id": "468903544bc3f0c77864812063e0d376", "is_reserved": 0}, {"fusion_lat": 0.0, "type": "electric_scooter", "name": "5a51a41bccafeb59d168bc6de8f16128", "is_disabled": 0, "lon": -77.03229516666667, "fusion_lon": 0.0, "rental_uris": {"ios": "https://dc.lft.to/lastmile_qr_scan", "android": "https://dc.lft.to/lastmile_qr_scan"}, "lat": 38.925503166666665, "bike_id": "5a51a41bccafeb59d168bc6de8f16128", "is_reserved": 0}, {"fusion_lat": 0.0, "type": "electric_scooter", "name": "04a6773bc99d1e5b0ea256da1f90a485", "is_disabled": 0, "lon": -77.03188466666667, "fusion_lon": 0.0, "rental_uris": {"ios": "https://dc.lft.to/lastmile_qr_scan", "android": "https://dc.lft.to/lastmile_qr_scan"}, "lat": 38.9073935, "bike_id": "04a6773bc99d1e5b0ea256da1f90a485", "is_reserved": 0}, {"fusion_lat": 0.0, "type": "electric_scooter", "name": "6c34f5ef6ffa0a895525c71760b5525c", "is_disabled": 0, "lon": -77.02538716666666, "fusion_lon": 0.0, "rental_uris": {"ios": "https://dc.lft.to/lastmile_qr_scan", "android": "https://dc.lft.to/lastmile_qr_scan"}, "lat": 38.883318, "bike_id": "6c34f5ef6ffa0a895525c71760b5525c", "is_reserved": 0}, {"fusion_lat": 0.0, "type": "electric_scooter", "name": "9af848c6935c5a559cecd778b1e1d4a6", "is_disabled": 0, "lon": -76.98639533333333, "fusion_lon": 0.0, "rental_uris": {"ios": "https://dc.lft.to/lastmile_qr_scan", "android": "https://dc.lft.to/lastmile_qr_scan"}, "lat": 38.855067, "bike_id": "9af848c6935c5a559cecd778b1e1d4a6", "is_reserved": 0}, {"fusion_lat": 0.0, "type": "electric_scooter", "name": "f2753d568bdb15ee65522b00d28b3321", "is_disabled": 0, "lon": -77.04355283333334, "fusion_lon": 0.0, "rental_uris": {"ios": "https://dc.lft.to/lastmile_qr_scan", "android": "https://dc.lft.to/lastmile_qr_scan"}, "lat": 38.89645633333333, "bike_id": "f2753d568bdb15ee65522b00d28b3321", "is_reserved": 0}, {"fusion_lat": 0.0, "type": "electric_scooter", "name": "4e5926a1618e9e4ac58815aa438de464", "is_disabled": 0, "lon": -77.0034045, "fusion_lon": 0.0, "rental_uris": {"ios": "https://dc.lft.to/lastmile_qr_scan", "android": "https://dc.lft.to/lastmile_qr_scan"}, "lat": 38.893554333333334, "bike_id": "4e5926a1618e9e4ac58815aa438de464", "is_reserved": 0}, {"fusion_lat": 0.0, "type": "electric_scooter", "name": "7a2cf5f0126a7e711601a68eaf0a3ad2", "is_disabled": 0, "lon": -76.98576016666667, "fusion_lon": 0.0, "rental_uris": {"ios": "https://dc.lft.to/lastmile_qr_scan", "android": "https://dc.lft.to/lastmile_qr_scan"}, "lat": 38.900255666666666, "bike_id": "7a2cf5f0126a7e711601a68eaf0a3ad2", "is_reserved": 0}, {"fusion_lat": 0.0, "type": "electric_scooter", "name": "7d3673a21a1fc2a83e7920ffbc21b44a", "is_disabled": 0, "lon": -77.04386333333333, "fusion_lon": 0.0, "rental_uris": {"ios": "https://dc.lft.to/lastmile_qr_scan", "android": "https://dc.lft.to/lastmile_qr_scan"}, "lat": 38.9058, "bike_id": "7d3673a21a1fc2a83e7920ffbc21b44a", "is_reserved": 0}, {"fusion_lat": 0.0, "type": "electric_scooter", "name": "ce898732fe74d5beb927fc052e6424b3", "is_disabled": 0, "lon": -77.0289345, "fusion_lon": 0.0, "rental_uris": {"ios": "https://dc.lft.to/lastmile_qr_scan", "android": "https://dc.lft.to/lastmile_qr_scan"}, "lat": 38.92682816666667, "bike_id": "ce898732fe74d5beb927fc052e6424b3", "is_reserved": 0}, {"fusion_lat": 0.0, "type": "electric_scooter", "name": "891b6334eadc74dbc89b28901a6234ef", "is_disabled": 0, "lon": -77.01998733333333, "fusion_lon": 0.0, "rental_uris": {"ios": "https://dc.lft.to/lastmile_qr_scan", "android": "https://dc.lft.to/lastmile_qr_scan"}, "lat": 38.900556333333334, "bike_id": "891b6334eadc74dbc89b28901a6234ef", "is_reserved": 0}, {"fusion_lat": 0.0, "type": "electric_scooter", "name": "9c370a8b26663869be4467d6a7603bc5", "is_disabled": 0, "lon": -77.03859983333334, "fusion_lon": 0.0, "rental_uris": {"ios": "https://dc.lft.to/lastmile_qr_scan", "android": "https://dc.lft.to/lastmile_qr_scan"}, "lat": 38.91258916666666, "bike_id": "9c370a8b26663869be4467d6a7603bc5", "is_reserved": 0}, {"fusion_lat": 0.0, "type": "electric_scooter", "name": "633d62b006d2b019d9e6e3c5028bc39a", "is_disabled": 0, "lon": -77.0229405, "fusion_lon": 0.0, "rental_uris": {"ios": "https://dc.lft.to/lastmile_qr_scan", "android": "https://dc.lft.to/lastmile_qr_scan"}, "lat": 38.917813333333335, "bike_id": "633d62b006d2b019d9e6e3c5028bc39a", "is_reserved": 0}, {"fusion_lat": 0.0, "type": "electric_scooter", "name": "7c5ae4d34bfd106b130fea2c3b47cdec", "is_disabled": 0, "lon": -77.03837483333334, "fusion_lon": 0.0, "rental_uris": {"ios": "https://dc.lft.to/lastmile_qr_scan", "android": "https://dc.lft.to/lastmile_qr_scan"}, "lat": 38.9078675, "bike_id": "7c5ae4d34bfd106b130fea2c3b47cdec", "is_reserved": 0}, {"fusion_lat": 0.0, "type": "electric_scooter", "name": "ffd99b51130963d9343254b082f74689", "is_disabled": 0, "lon": -77.03661166666667, "fusion_lon": 0.0, "rental_uris": {"ios": "https://dc.lft.to/lastmile_qr_scan", "android": "https://dc.lft.to/lastmile_qr_scan"}, "lat": 38.922689166666665, "bike_id": "ffd99b51130963d9343254b082f74689", "is_reserved": 0}, {"fusion_lat": 0.0, "type": "electric_scooter", "name": "dacae20f5b2e595c740603d8dc682dae", "is_disabled": 0, "lon": -77.03533616666667, "fusion_lon": 0.0, "rental_uris": {"ios": "https://dc.lft.to/lastmile_qr_scan", "android": "https://dc.lft.to/lastmile_qr_scan"}, "lat": 38.92469616666666, "bike_id": "dacae20f5b2e595c740603d8dc682dae", "is_reserved": 0}, {"fusion_lat": 0.0, "type": "electric_scooter", "name": "641d48570ec768a7e495a42196afc332", "is_disabled": 0, "lon": -77.03523716666666, "fusion_lon": 0.0, "rental_uris": {"ios": "https://dc.lft.to/lastmile_qr_scan", "android": "https://dc.lft.to/lastmile_qr_scan"}, "lat": 38.922368666666664, "bike_id": "641d48570ec768a7e495a42196afc332", "is_reserved": 0}, {"fusion_lat": 0.0, "type": "electric_scooter", "name": "783f903bd9b53504fb103ed0296777c3", "is_disabled": 0, "lon": -77.03452316666667, "fusion_lon": 0.0, "rental_uris": {"ios": "https://dc.lft.to/lastmile_qr_scan", "android": "https://dc.lft.to/lastmile_qr_scan"}, "lat": 38.91073633333333, "bike_id": "783f903bd9b53504fb103ed0296777c3", "is_reserved": 0}, {"fusion_lat": 0.0, "type": "electric_scooter", "name": "a5b2a330a00951e292f19d06c62c7eba", "is_disabled": 0, "lon": -77.00344133333333, "fusion_lon": 0.0, "rental_uris": {"ios": "https://dc.lft.to/lastmile_qr_scan", "android": "https://dc.lft.to/lastmile_qr_scan"}, "lat": 38.903595333333335, "bike_id": "a5b2a330a00951e292f19d06c62c7eba", "is_reserved": 0}, {"fusion_lat": 0.0, "type": "electric_bike", "name": "3800e974c113b49311da3b3c59635385", "is_disabled": 0, "lon": -76.99698566666666, "fusion_lon": 0.0, "rental_uris": {"ios": "https://dc.lft.to/lastmile_qr_scan", "android": "https://dc.lft.to/lastmile_qr_scan"}, "lat": 38.83865216666667, "bike_id": "3800e974c113b49311da3b3c59635385", "is_reserved": 0}, {"fusion_lat": 0.0, "type": "electric_scooter", "name": "46e91959a7bf68536e094e65085c275a", "is_disabled": 0, "lon": -77.0205505, "fusion_lon": 0.0, "rental_uris": {"ios": "https://dc.lft.to/lastmile_qr_scan", "android": "https://dc.lft.to/lastmile_qr_scan"}, "lat": 38.915741, "bike_id": "46e91959a7bf68536e094e65085c275a", "is_reserved": 0}, {"fusion_lat": 0.0, "type": "electric_bike", "name": "e43c3da5e6fce000d79f47c38cd11d49", "is_disabled": 0, "lon": -76.99280966666667, "fusion_lon": 0.0, "rental_uris": {"ios": "https://dc.lft.to/lastmile_qr_scan", "android": "https://dc.lft.to/lastmile_qr_scan"}, "lat": 38.972606166666665, "bike_id": "e43c3da5e6fce000d79f47c38cd11d49", "is_reserved": 0}, {"fusion_lat": 0.0, "type": "electric_scooter", "name": "2482e711619dcf5303df81cf187c3f5d", "is_disabled": 0, "lon": -77.0345325, "fusion_lon": 0.0, "rental_uris": {"ios": "https://dc.lft.to/lastmile_qr_scan", "android": "https://dc.lft.to/lastmile_qr_scan"}, "lat": 38.907422833333335, "bike_id": "2482e711619dcf5303df81cf187c3f5d", "is_reserved": 0}, {"fusion_lat": 0.0, "type": "electric_scooter", "name": "d5a9e0af4ddfbd8d563cb8af6de5370f", "is_disabled": 0, "lon": -77.00478433333333, "fusion_lon": 0.0, "rental_uris": {"ios": "https://dc.lft.to/lastmile_qr_scan", "android": "https://dc.lft.to/lastmile_qr_scan"}, "lat": 38.91815616666667, "bike_id": "d5a9e0af4ddfbd8d563cb8af6de5370f", "is_reserved": 0}, {"fusion_lat": 0.0, "type": "electric_scooter", "name": "8f5a00fcb003ec10149499f748a27aad", "is_disabled": 0, "lon": -77.04320183333333, "fusion_lon": 0.0, "rental_uris": {"ios": "https://dc.lft.to/lastmile_qr_scan", "android": "https://dc.lft.to/lastmile_qr_scan"}, "lat": 38.90922183333333, "bike_id": "8f5a00fcb003ec10149499f748a27aad", "is_reserved": 0}, {"fusion_lat": 0.0, "type": "electric_scooter", "name": "49876f6d72673416cc253204a3ea2b68", "is_disabled": 0, "lon": -77.02886233333334, "fusion_lon": 0.0, "rental_uris": {"ios": "https://dc.lft.to/lastmile_qr_scan", "android": "https://dc.lft.to/lastmile_qr_scan"}, "lat": 38.91349866666667, "bike_id": "49876f6d72673416cc253204a3ea2b68", "is_reserved": 0}, {"fusion_lat": 0.0, "type": "electric_scooter", "name": "7de329b048d52e9f7304732c648ca856", "is_disabled": 0, "lon": -77.00572266666667, "fusion_lon": 0.0, "rental_uris": {"ios": "https://dc.lft.to/lastmile_qr_scan", "android": "https://dc.lft.to/lastmile_qr_scan"}, "lat": 38.880738, "bike_id": "7de329b048d52e9f7304732c648ca856", "is_reserved": 0}, {"fusion_lat": 0.0, "type": "electric_scooter", "name": "74a0ad80f6341f72c278dc623e7a8213", "is_disabled": 0, "lon": -77.02571316666666, "fusion_lon": 0.0, "rental_uris": {"ios": "https://dc.lft.to/lastmile_qr_scan", "android": "https://dc.lft.to/lastmile_qr_scan"}, "lat": 38.89965316666667, "bike_id": "74a0ad80f6341f72c278dc623e7a8213", "is_reserved": 0}, {"fusion_lat": 0.0, "type": "electric_scooter", "name": "4b2c70e648d57360d3a3d56cd7f0edc5", "is_disabled": 0, "lon": -77.0312005, "fusion_lon": 0.0, "rental_uris": {"ios": "https://dc.lft.to/lastmile_qr_scan", "android": "https://dc.lft.to/lastmile_qr_scan"}, "lat": 38.923033333333336, "bike_id": "4b2c70e648d57360d3a3d56cd7f0edc5", "is_reserved": 0}, {"fusion_lat": 0.0, "type": "electric_scooter", "name": "826a0523927687b4d61c22c93588ea1c", "is_disabled": 0, "lon": -77.03573533333334, "fusion_lon": 0.0, "rental_uris": {"ios": "https://dc.lft.to/lastmile_qr_scan", "android": "https://dc.lft.to/lastmile_qr_scan"}, "lat": 38.927431, "bike_id": "826a0523927687b4d61c22c93588ea1c", "is_reserved": 0}, {"fusion_lat": 0.0, "type": "electric_scooter", "name": "70be8c90a6da0836792efa6bb64e3ced", "is_disabled": 0, "lon": -77.072564, "fusion_lon": 0.0, "rental_uris": {"ios": "https://dc.lft.to/lastmile_qr_scan", "android": "https://dc.lft.to/lastmile_qr_scan"}, "lat": 38.907787166666665, "bike_id": "70be8c90a6da0836792efa6bb64e3ced", "is_reserved": 0}, {"fusion_lat": 0.0, "type": "electric_scooter", "name": "3ff0dac7a928e2c5aa1cab48992ac3c2", "is_disabled": 0, "lon": -76.94934983333333, "fusion_lon": 0.0, "rental_uris": {"ios": "https://dc.lft.to/lastmile_qr_scan", "android": "https://dc.lft.to/lastmile_qr_scan"}, "lat": 38.8953165, "bike_id": "3ff0dac7a928e2c5aa1cab48992ac3c2", "is_reserved": 0}, {"fusion_lat": 0.0, "type": "electric_bike", "name": "ce21c44bb144e604da7a6843523506af", "is_disabled": 0, "lon": -76.98974566666666, "fusion_lon": 0.0, "rental_uris": {"ios": "https://dc.lft.to/lastmile_qr_scan", "android": "https://dc.lft.to/lastmile_qr_scan"}, "lat": 38.930640833333335, "bike_id": "ce21c44bb144e604da7a6843523506af", "is_reserved": 0}, {"fusion_lat": 0.0, "type": "electric_scooter", "name": "a30f738fd533917769eab1b47c168f93", "is_disabled": 0, "lon": -76.97568333333334, "fusion_lon": 0.0, "rental_uris": {"ios": "https://dc.lft.to/lastmile_qr_scan", "android": "https://dc.lft.to/lastmile_qr_scan"}, "lat": 38.94424716666666, "bike_id": "a30f738fd533917769eab1b47c168f93", "is_reserved": 0}, {"fusion_lat": 0.0, "type": "electric_scooter", "name": "f9f771e68f9332c19e76b2d25db46e95", "is_disabled": 0, "lon": -77.07339366666666, "fusion_lon": 0.0, "rental_uris": {"ios": "https://dc.lft.to/lastmile_qr_scan", "android": "https://dc.lft.to/lastmile_qr_scan"}, "lat": 38.960951, "bike_id": "f9f771e68f9332c19e76b2d25db46e95", "is_reserved": 0}, {"fusion_lat": 0.0, "type": "electric_scooter", "name": "37985916dc7bfd9415df9705dda89042", "is_disabled": 0, "lon": -77.04501966666666, "fusion_lon": 0.0, "rental_uris": {"ios": "https://dc.lft.to/lastmile_qr_scan", "android": "https://dc.lft.to/lastmile_qr_scan"}, "lat": 38.90371183333333, "bike_id": "37985916dc7bfd9415df9705dda89042", "is_reserved": 0}, {"fusion_lat": 0.0, "type": "electric_bike", "name": "eee5bbda7d72150d281b36804af8d1e4", "is_disabled": 0, "lon": -77.00141316666667, "fusion_lon": 0.0, "rental_uris": {"ios": "https://dc.lft.to/lastmile_qr_scan", "android": "https://dc.lft.to/lastmile_qr_scan"}, "lat": 38.994999666666665, "bike_id": "eee5bbda7d72150d281b36804af8d1e4", "is_reserved": 0}, {"fusion_lat": 0.0, "type": "electric_scooter", "name": "94baae456f2447cccb7274b21f1f3c19", "is_disabled": 0, "lon": -77.02597966666667, "fusion_lon": 0.0, "rental_uris": {"ios": "https://dc.lft.to/lastmile_qr_scan", "android": "https://dc.lft.to/lastmile_qr_scan"}, "lat": 38.90415566666667, "bike_id": "94baae456f2447cccb7274b21f1f3c19", "is_reserved": 0}, {"fusion_lat": 0.0, "type": "electric_bike", "name": "44d9f9ab1278429035916d6e6dc8f422", "is_disabled": 0, "lon": -76.95794416666666, "fusion_lon": 0.0, "rental_uris": {"ios": "https://dc.lft.to/lastmile_qr_scan", "android": "https://dc.lft.to/lastmile_qr_scan"}, "lat": 38.98045066666667, "bike_id": "44d9f9ab1278429035916d6e6dc8f422", "is_reserved": 0}, {"fusion_lat": 0.0, "type": "electric_scooter", "name": "7127e1118b9469867fbcf65bba70d0ba", "is_disabled": 0, "lon": -77.02199783333333, "fusion_lon": 0.0, "rental_uris": {"ios": "https://dc.lft.to/lastmile_qr_scan", "android": "https://dc.lft.to/lastmile_qr_scan"}, "lat": 38.899549666666665, "bike_id": "7127e1118b9469867fbcf65bba70d0ba", "is_reserved": 0}, {"fusion_lat": 0.0, "type": "electric_scooter", "name": "576465bf3547007db461fea22f848fa2", "is_disabled": 0, "lon": -77.04606, "fusion_lon": 0.0, "rental_uris": {"ios": "https://dc.lft.to/lastmile_qr_scan", "android": "https://dc.lft.to/lastmile_qr_scan"}, "lat": 38.91509083333333, "bike_id": "576465bf3547007db461fea22f848fa2", "is_reserved": 0}, {"fusion_lat": 0.0, "type": "electric_bike", "name": "23d817e517afae46d6bfd2ab97b01b26", "is_disabled": 0, "lon": -76.97330816666667, "fusion_lon": 0.0, "rental_uris": {"ios": "https://dc.lft.to/lastmile_qr_scan", "android": "https://dc.lft.to/lastmile_qr_scan"}, "lat": 38.86569466666667, "bike_id": "23d817e517afae46d6bfd2ab97b01b26", "is_reserved": 0}, {"fusion_lat": 0.0, "type": "electric_scooter", "name": "09f6902f719f048e11ed01125834e303", "is_disabled": 0, "lon": -77.0321795, "fusion_lon": 0.0, "rental_uris": {"ios": "https://dc.lft.to/lastmile_qr_scan", "android": "https://dc.lft.to/lastmile_qr_scan"}, "lat": 38.90365766666667, "bike_id": "09f6902f719f048e11ed01125834e303", "is_reserved": 0}, {"fusion_lat": 0.0, "type": "electric_scooter", "name": "84c6d6fe78247d9d7663a82073b50a80", "is_disabled": 0, "lon": -77.04131783333334, "fusion_lon": 0.0, "rental_uris": {"ios": "https://dc.lft.to/lastmile_qr_scan", "android": "https://dc.lft.to/lastmile_qr_scan"}, "lat": 38.93063316666667, "bike_id": "84c6d6fe78247d9d7663a82073b50a80", "is_reserved": 0}, {"fusion_lat": 0.0, "type": "electric_scooter", "name": "6752a06cc2ee6dc0f61144b0c8d3c201", "is_disabled": 0, "lon": -77.02862983333333, "fusion_lon": 0.0, "rental_uris": {"ios": "https://dc.lft.to/lastmile_qr_scan", "android": "https://dc.lft.to/lastmile_qr_scan"}, "lat": 38.91269233333333, "bike_id": "6752a06cc2ee6dc0f61144b0c8d3c201", "is_reserved": 0}, {"fusion_lat": 0.0, "type": "electric_scooter", "name": "c9dbdefce59b4a37be229f517d8b36f1", "is_disabled": 0, "lon": -77.00064916666666, "fusion_lon": 0.0, "rental_uris": {"ios": "https://dc.lft.to/lastmile_qr_scan", "android": "https://dc.lft.to/lastmile_qr_scan"}, "lat": 38.88112366666667, "bike_id": "c9dbdefce59b4a37be229f517d8b36f1", "is_reserved": 0}, {"fusion_lat": 0.0, "type": "electric_scooter", "name": "7d578f1479743cb8c0cc8aca301df539", "is_disabled": 0, "lon": -77.04336216666667, "fusion_lon": 0.0, "rental_uris": {"ios": "https://dc.lft.to/lastmile_qr_scan", "android": "https://dc.lft.to/lastmile_qr_scan"}, "lat": 38.90428383333333, "bike_id": "7d578f1479743cb8c0cc8aca301df539", "is_reserved": 0}, {"fusion_lat": 0.0, "type": "electric_scooter", "name": "16de2cf2708c37298f8c227c11b30e30", "is_disabled": 0, "lon": -77.0295, "fusion_lon": 0.0, "rental_uris": {"ios": "https://dc.lft.to/lastmile_qr_scan", "android": "https://dc.lft.to/lastmile_qr_scan"}, "lat": 38.90505316666667, "bike_id": "16de2cf2708c37298f8c227c11b30e30", "is_reserved": 0}, {"fusion_lat": 0.0, "type": "electric_scooter", "name": "e51edc16a4b69bf2f7f28e03a8828d43", "is_disabled": 0, "lon": -77.0349915, "fusion_lon": 0.0, "rental_uris": {"ios": "https://dc.lft.to/lastmile_qr_scan", "android": "https://dc.lft.to/lastmile_qr_scan"}, "lat": 38.9013235, "bike_id": "e51edc16a4b69bf2f7f28e03a8828d43", "is_reserved": 0}, {"fusion_lat": 0.0, "type": "electric_scooter", "name": "563c64440781f0a9d1f4439a244279ec", "is_disabled": 0, "lon": -77.02823683333334, "fusion_lon": 0.0, "rental_uris": {"ios": "https://dc.lft.to/lastmile_qr_scan", "android": "https://dc.lft.to/lastmile_qr_scan"}, "lat": 38.895360333333336, "bike_id": "563c64440781f0a9d1f4439a244279ec", "is_reserved": 0}, {"fusion_lat": 0.0, "type": "electric_scooter", "name": "9bf4dffba8b6b0c844056f854b20a43a", "is_disabled": 0, "lon": -77.02852766666666, "fusion_lon": 0.0, "rental_uris": {"ios": "https://dc.lft.to/lastmile_qr_scan", "android": "https://dc.lft.to/lastmile_qr_scan"}, "lat": 38.90241783333333, "bike_id": "9bf4dffba8b6b0c844056f854b20a43a", "is_reserved": 0}, {"fusion_lat": 0.0, "type": "electric_bike", "name": "7c6bd16934c1de0b41710757d7fc83de", "is_disabled": 0, "lon": -77.09528266666666, "fusion_lon": 0.0, "rental_uris": {"ios": "https://dc.lft.to/lastmile_qr_scan", "android": "https://dc.lft.to/lastmile_qr_scan"}, "lat": 38.8381475, "bike_id": "7c6bd16934c1de0b41710757d7fc83de", "is_reserved": 0}, {"fusion_lat": 0.0, "type": "electric_bike", "name": "9280bc207121c688a2630d8c2b879cbc", "is_disabled": 0, "lon": -76.997937, "fusion_lon": 0.0, "rental_uris": {"ios": "https://dc.lft.to/lastmile_qr_scan", "android": "https://dc.lft.to/lastmile_qr_scan"}, "lat": 38.881268166666665, "bike_id": "9280bc207121c688a2630d8c2b879cbc", "is_reserved": 0}, {"fusion_lat": 0.0, "type": "electric_scooter", "name": "0f50abfa7105f44f2c6be849cb0e5cde", "is_disabled": 0, "lon": -77.02978533333334, "fusion_lon": 0.0, "rental_uris": {"ios": "https://dc.lft.to/lastmile_qr_scan", "android": "https://dc.lft.to/lastmile_qr_scan"}, "lat": 38.9073025, "bike_id": "0f50abfa7105f44f2c6be849cb0e5cde", "is_reserved": 0}, {"fusion_lat": 0.0, "type": "electric_scooter", "name": "751fd945a87b7a0bdc85a6216a079a83", "is_disabled": 0, "lon": -76.94383116666667, "fusion_lon": 0.0, "rental_uris": {"ios": "https://dc.lft.to/lastmile_qr_scan", "android": "https://dc.lft.to/lastmile_qr_scan"}, "lat": 38.891173, "bike_id": "751fd945a87b7a0bdc85a6216a079a83", "is_reserved": 0}, {"fusion_lat": 0.0, "type": "electric_scooter", "name": "5479881de137be9a10c56eb720ff59a5", "is_disabled": 0, "lon": -77.06105266666667, "fusion_lon": 0.0, "rental_uris": {"ios": "https://dc.lft.to/lastmile_qr_scan", "android": "https://dc.lft.to/lastmile_qr_scan"}, "lat": 38.90530366666667, "bike_id": "5479881de137be9a10c56eb720ff59a5", "is_reserved": 0}, {"fusion_lat": 0.0, "type": "electric_scooter", "name": "bd511ce3b96a41126f7070c7eec1ffb2", "is_disabled": 0, "lon": -77.043424, "fusion_lon": 0.0, "rental_uris": {"ios": "https://dc.lft.to/lastmile_qr_scan", "android": "https://dc.lft.to/lastmile_qr_scan"}, "lat": 38.8974085, "bike_id": "bd511ce3b96a41126f7070c7eec1ffb2", "is_reserved": 0}, {"fusion_lat": 0.0, "type": "electric_scooter", "name": "7144a510275e48c03045a43b822a2f07", "is_disabled": 0, "lon": -77.04248683333333, "fusion_lon": 0.0, "rental_uris": {"ios": "https://dc.lft.to/lastmile_qr_scan", "android": "https://dc.lft.to/lastmile_qr_scan"}, "lat": 38.9224595, "bike_id": "7144a510275e48c03045a43b822a2f07", "is_reserved": 0}, {"fusion_lat": 0.0, "type": "electric_scooter", "name": "fc7fe434fb2b2c801c08c34e7e5160ea", "is_disabled": 0, "lon": -76.94704166666666, "fusion_lon": 0.0, "rental_uris": {"ios": "https://dc.lft.to/lastmile_qr_scan", "android": "https://dc.lft.to/lastmile_qr_scan"}, "lat": 38.897356, "bike_id": "fc7fe434fb2b2c801c08c34e7e5160ea", "is_reserved": 0}, {"fusion_lat": 0.0, "type": "electric_scooter", "name": "91ae2e4844174114c1c0770159e088d5", "is_disabled": 0, "lon": -77.0318105, "fusion_lon": 0.0, "rental_uris": {"ios": "https://dc.lft.to/lastmile_qr_scan", "android": "https://dc.lft.to/lastmile_qr_scan"}, "lat": 38.91848816666667, "bike_id": "91ae2e4844174114c1c0770159e088d5", "is_reserved": 0}, {"fusion_lat": 0.0, "type": "electric_scooter", "name": "22c563c9722bb8e21b96b1cd6abf594e", "is_disabled": 0, "lon": -77.03193683333333, "fusion_lon": 0.0, "rental_uris": {"ios": "https://dc.lft.to/lastmile_qr_scan", "android": "https://dc.lft.to/lastmile_qr_scan"}, "lat": 38.92257633333333, "bike_id": "22c563c9722bb8e21b96b1cd6abf594e", "is_reserved": 0}, {"fusion_lat": 0.0, "type": "electric_scooter", "name": "264a3c51a203d7d61da25bb23837bf4a", "is_disabled": 0, "lon": -77.03807, "fusion_lon": 0.0, "rental_uris": {"ios": "https://dc.lft.to/lastmile_qr_scan", "android": "https://dc.lft.to/lastmile_qr_scan"}, "lat": 38.9103825, "bike_id": "264a3c51a203d7d61da25bb23837bf4a", "is_reserved": 0}, {"fusion_lat": 0.0, "type": "electric_bike", "name": "c23ef94812874cfe498e96f19253e31c", "is_disabled": 0, "lon": -77.08994916666667, "fusion_lon": 0.0, "rental_uris": {"ios": "https://dc.lft.to/lastmile_qr_scan", "android": "https://dc.lft.to/lastmile_qr_scan"}, "lat": 38.90902166666667, "bike_id": "c23ef94812874cfe498e96f19253e31c", "is_reserved": 0}, {"fusion_lat": 0.0, "type": "electric_bike", "name": "06404d93ba3ce99f5f0731e7dba83335", "is_disabled": 0, "lon": -76.95565033333334, "fusion_lon": 0.0, "rental_uris": {"ios": "https://dc.lft.to/lastmile_qr_scan", "android": "https://dc.lft.to/lastmile_qr_scan"}, "lat": 38.98502033333333, "bike_id": "06404d93ba3ce99f5f0731e7dba83335", "is_reserved": 0}, {"fusion_lat": 0.0, "type": "electric_scooter", "name": "6474cdae6a930b76cc312d0f7d4c0fe3", "is_disabled": 0, "lon": -77.0447935, "fusion_lon": 0.0, "rental_uris": {"ios": "https://dc.lft.to/lastmile_qr_scan", "android": "https://dc.lft.to/lastmile_qr_scan"}, "lat": 38.911196833333335, "bike_id": "6474cdae6a930b76cc312d0f7d4c0fe3", "is_reserved": 0}, {"fusion_lat": 0.0, "type": "electric_scooter", "name": "628b2e9d32506c56e7b6e9ccfcad41aa", "is_disabled": 0, "lon": -77.06301366666666, "fusion_lon": 0.0, "rental_uris": {"ios": "https://dc.lft.to/lastmile_qr_scan", "android": "https://dc.lft.to/lastmile_qr_scan"}, "lat": 38.903958833333334, "bike_id": "628b2e9d32506c56e7b6e9ccfcad41aa", "is_reserved": 0}, {"fusion_lat": 0.0, "type": "electric_scooter", "name": "788c8c2f1df1b62fd07803c589575f4f", "is_disabled": 0, "lon": -77.041214, "fusion_lon": 0.0, "rental_uris": {"ios": "https://dc.lft.to/lastmile_qr_scan", "android": "https://dc.lft.to/lastmile_qr_scan"}, "lat": 38.917039833333334, "bike_id": "788c8c2f1df1b62fd07803c589575f4f", "is_reserved": 0}, {"fusion_lat": 0.0, "type": "electric_scooter", "name": "1aebf5fed6751e8dc2c3c0afdc7d49e0", "is_disabled": 0, "lon": -77.03933066666667, "fusion_lon": 0.0, "rental_uris": {"ios": "https://dc.lft.to/lastmile_qr_scan", "android": "https://dc.lft.to/lastmile_qr_scan"}, "lat": 38.9027315, "bike_id": "1aebf5fed6751e8dc2c3c0afdc7d49e0", "is_reserved": 0}, {"fusion_lat": 0.0, "type": "electric_scooter", "name": "a96055e44c051edd1e6af701d2559876", "is_disabled": 0, "lon": -77.04466583333334, "fusion_lon": 0.0, "rental_uris": {"ios": "https://dc.lft.to/lastmile_qr_scan", "android": "https://dc.lft.to/lastmile_qr_scan"}, "lat": 38.92473583333334, "bike_id": "a96055e44c051edd1e6af701d2559876", "is_reserved": 0}, {"fusion_lat": 0.0, "type": "electric_scooter", "name": "b978b91d648e34f6667973e0d9013e94", "is_disabled": 0, "lon": -77.01282616666667, "fusion_lon": 0.0, "rental_uris": {"ios": "https://dc.lft.to/lastmile_qr_scan", "android": "https://dc.lft.to/lastmile_qr_scan"}, "lat": 38.95659066666666, "bike_id": "b978b91d648e34f6667973e0d9013e94", "is_reserved": 0}, {"fusion_lat": 0.0, "type": "electric_scooter", "name": "374ebced62f65a84517298c338c39f20", "is_disabled": 0, "lon": -77.01551516666666, "fusion_lon": 0.0, "rental_uris": {"ios": "https://dc.lft.to/lastmile_qr_scan", "android": "https://dc.lft.to/lastmile_qr_scan"}, "lat": 38.891672666666665, "bike_id": "374ebced62f65a84517298c338c39f20", "is_reserved": 0}, {"fusion_lat": 0.0, "type": "electric_scooter", "name": "f655b2f442955e0b7843f043552ddb78", "is_disabled": 0, "lon": -77.02987066666667, "fusion_lon": 0.0, "rental_uris": {"ios": "https://dc.lft.to/lastmile_qr_scan", "android": "https://dc.lft.to/lastmile_qr_scan"}, "lat": 38.94297533333334, "bike_id": "f655b2f442955e0b7843f043552ddb78", "is_reserved": 0}, {"fusion_lat": 0.0, "type": "electric_scooter", "name": "297c1f10d8ea29eede9055b5842251fb", "is_disabled": 0, "lon": -77.0210655, "fusion_lon": 0.0, "rental_uris": {"ios": "https://dc.lft.to/lastmile_qr_scan", "android": "https://dc.lft.to/lastmile_qr_scan"}, "lat": 38.923647, "bike_id": "297c1f10d8ea29eede9055b5842251fb", "is_reserved": 0}, {"fusion_lat": 0.0, "type": "electric_scooter", "name": "44f0f76c85a570e0f4296adcef826d6c", "is_disabled": 0, "lon": -77.01780916666667, "fusion_lon": 0.0, "rental_uris": {"ios": "https://dc.lft.to/lastmile_qr_scan", "android": "https://dc.lft.to/lastmile_qr_scan"}, "lat": 38.91987316666667, "bike_id": "44f0f76c85a570e0f4296adcef826d6c", "is_reserved": 0}, {"fusion_lat": 0.0, "type": "electric_bike", "name": "2d066a190e527d5fe114fcfb43a61b35", "is_disabled": 0, "lon": -77.012087, "fusion_lon": 0.0, "rental_uris": {"ios": "https://dc.lft.to/lastmile_qr_scan", "android": "https://dc.lft.to/lastmile_qr_scan"}, "lat": 38.950750166666666, "bike_id": "2d066a190e527d5fe114fcfb43a61b35", "is_reserved": 0}, {"fusion_lat": 0.0, "type": "electric_scooter", "name": "28f47a5049d250ae9e5dcc0a81223677", "is_disabled": 0, "lon": -77.03546783333333, "fusion_lon": 0.0, "rental_uris": {"ios": "https://dc.lft.to/lastmile_qr_scan", "android": "https://dc.lft.to/lastmile_qr_scan"}, "lat": 38.92414183333333, "bike_id": "28f47a5049d250ae9e5dcc0a81223677", "is_reserved": 0}, {"fusion_lat": 0.0, "type": "electric_scooter", "name": "eec4d39a3b9c05e8ab76b74378e24c5f", "is_disabled": 0, "lon": -77.02378916666666, "fusion_lon": 0.0, "rental_uris": {"ios": "https://dc.lft.to/lastmile_qr_scan", "android": "https://dc.lft.to/lastmile_qr_scan"}, "lat": 38.89221166666667, "bike_id": "eec4d39a3b9c05e8ab76b74378e24c5f", "is_reserved": 0}, {"fusion_lat": 0.0, "type": "electric_scooter", "name": "bc857eb922002c35b10274f3e7f4d61d", "is_disabled": 0, "lon": -77.03186116666667, "fusion_lon": 0.0, "rental_uris": {"ios": "https://dc.lft.to/lastmile_qr_scan", "android": "https://dc.lft.to/lastmile_qr_scan"}, "lat": 38.902052833333336, "bike_id": "bc857eb922002c35b10274f3e7f4d61d", "is_reserved": 0}, {"fusion_lat": 0.0, "type": "electric_scooter", "name": "f6681693014dc534d107766522c0f373", "is_disabled": 0, "lon": -77.0198185, "fusion_lon": 0.0, "rental_uris": {"ios": "https://dc.lft.to/lastmile_qr_scan", "android": "https://dc.lft.to/lastmile_qr_scan"}, "lat": 38.887218, "bike_id": "f6681693014dc534d107766522c0f373", "is_reserved": 0}, {"fusion_lat": 0.0, "type": "electric_scooter", "name": "675a4d37853338ddcde1836e2fef1dfb", "is_disabled": 0, "lon": -77.01085916666666, "fusion_lon": 0.0, "rental_uris": {"ios": "https://dc.lft.to/lastmile_qr_scan", "android": "https://dc.lft.to/lastmile_qr_scan"}, "lat": 38.895354833333336, "bike_id": "675a4d37853338ddcde1836e2fef1dfb", "is_reserved": 0}, {"fusion_lat": 0.0, "type": "electric_scooter", "name": "fd0c2c39710662f65ccd09c51ae376ab", "is_disabled": 0, "lon": -77.0280045, "fusion_lon": 0.0, "rental_uris": {"ios": "https://dc.lft.to/lastmile_qr_scan", "android": "https://dc.lft.to/lastmile_qr_scan"}, "lat": 38.91744466666667, "bike_id": "fd0c2c39710662f65ccd09c51ae376ab", "is_reserved": 0}, {"fusion_lat": 0.0, "type": "electric_scooter", "name": "61dee4677b603107ec08040b7f034550", "is_disabled": 0, "lon": -76.9973165, "fusion_lon": 0.0, "rental_uris": {"ios": "https://dc.lft.to/lastmile_qr_scan", "android": "https://dc.lft.to/lastmile_qr_scan"}, "lat": 38.845431166666664, "bike_id": "61dee4677b603107ec08040b7f034550", "is_reserved": 0}, {"fusion_lat": 0.0, "type": "electric_scooter", "name": "2f1b7118fd9d8318d8ee88bd17f5bfeb", "is_disabled": 0, "lon": -77.01191866666667, "fusion_lon": 0.0, "rental_uris": {"ios": "https://dc.lft.to/lastmile_qr_scan", "android": "https://dc.lft.to/lastmile_qr_scan"}, "lat": 38.90013866666666, "bike_id": "2f1b7118fd9d8318d8ee88bd17f5bfeb", "is_reserved": 0}, {"fusion_lat": 0.0, "type": "electric_scooter", "name": "77e29117e13dcffaa5b13eed6343373a", "is_disabled": 0, "lon": -77.01296833333333, "fusion_lon": 0.0, "rental_uris": {"ios": "https://dc.lft.to/lastmile_qr_scan", "android": "https://dc.lft.to/lastmile_qr_scan"}, "lat": 38.8777535, "bike_id": "77e29117e13dcffaa5b13eed6343373a", "is_reserved": 0}, {"fusion_lat": 0.0, "type": "electric_scooter", "name": "be9d5c21185c9e17dfd03eb42668c2a3", "is_disabled": 0, "lon": -77.01890083333333, "fusion_lon": 0.0, "rental_uris": {"ios": "https://dc.lft.to/lastmile_qr_scan", "android": "https://dc.lft.to/lastmile_qr_scan"}, "lat": 38.897516833333334, "bike_id": "be9d5c21185c9e17dfd03eb42668c2a3", "is_reserved": 0}, {"fusion_lat": 0.0, "type": "electric_scooter", "name": "2d1f1e1319a42297ef1bf99977e577ec", "is_disabled": 0, "lon": -77.0325135, "fusion_lon": 0.0, "rental_uris": {"ios": "https://dc.lft.to/lastmile_qr_scan", "android": "https://dc.lft.to/lastmile_qr_scan"}, "lat": 38.918197166666666, "bike_id": "2d1f1e1319a42297ef1bf99977e577ec", "is_reserved": 0}, {"fusion_lat": 0.0, "type": "electric_scooter", "name": "00e6d00c6750e1fc509fc0cde2d399d6", "is_disabled": 0, "lon": -77.0500155, "fusion_lon": 0.0, "rental_uris": {"ios": "https://dc.lft.to/lastmile_qr_scan", "android": "https://dc.lft.to/lastmile_qr_scan"}, "lat": 38.900645833333336, "bike_id": "00e6d00c6750e1fc509fc0cde2d399d6", "is_reserved": 0}, {"fusion_lat": 0.0, "type": "electric_scooter", "name": "94b810ac1be44b42f7e4465465bdc94a", "is_disabled": 0, "lon": -77.0177565, "fusion_lon": 0.0, "rental_uris": {"ios": "https://dc.lft.to/lastmile_qr_scan", "android": "https://dc.lft.to/lastmile_qr_scan"}, "lat": 38.900401, "bike_id": "94b810ac1be44b42f7e4465465bdc94a", "is_reserved": 0}, {"fusion_lat": 0.0, "type": "electric_scooter", "name": "f99193994c69dae19fea3fd330bb290b", "is_disabled": 0, "lon": -77.02070866666666, "fusion_lon": 0.0, "rental_uris": {"ios": "https://dc.lft.to/lastmile_qr_scan", "android": "https://dc.lft.to/lastmile_qr_scan"}, "lat": 38.9270065, "bike_id": "f99193994c69dae19fea3fd330bb290b", "is_reserved": 0}, {"fusion_lat": 0.0, "type": "electric_scooter", "name": "4d9ff6562195e223a10a0123d151577e", "is_disabled": 0, "lon": -77.05808966666666, "fusion_lon": 0.0, "rental_uris": {"ios": "https://dc.lft.to/lastmile_qr_scan", "android": "https://dc.lft.to/lastmile_qr_scan"}, "lat": 38.929077, "bike_id": "4d9ff6562195e223a10a0123d151577e", "is_reserved": 0}, {"fusion_lat": 0.0, "type": "electric_bike", "name": "e39d0b7f7b34656a1814ae020da29a26", "is_disabled": 0, "lon": -77.04074966666667, "fusion_lon": 0.0, "rental_uris": {"ios": "https://dc.lft.to/lastmile_qr_scan", "android": "https://dc.lft.to/lastmile_qr_scan"}, "lat": 38.83064133333333, "bike_id": "e39d0b7f7b34656a1814ae020da29a26", "is_reserved": 0}, {"fusion_lat": 0.0, "type": "electric_scooter", "name": "3cc00e258d7ede25d9f7f538f3cee096", "is_disabled": 0, "lon": -77.03325266666667, "fusion_lon": 0.0, "rental_uris": {"ios": "https://dc.lft.to/lastmile_qr_scan", "android": "https://dc.lft.to/lastmile_qr_scan"}, "lat": 38.89879916666667, "bike_id": "3cc00e258d7ede25d9f7f538f3cee096", "is_reserved": 0}, {"fusion_lat": 0.0, "type": "electric_scooter", "name": "a46869a5fe7dac9c7e16a3cc205b65cc", "is_disabled": 0, "lon": -77.01924516666666, "fusion_lon": 0.0, "rental_uris": {"ios": "https://dc.lft.to/lastmile_qr_scan", "android": "https://dc.lft.to/lastmile_qr_scan"}, "lat": 38.92367466666666, "bike_id": "a46869a5fe7dac9c7e16a3cc205b65cc", "is_reserved": 0}, {"fusion_lat": 0.0, "type": "electric_scooter", "name": "4beaf628394a2902bcb9fdd3a5e1ee9f", "is_disabled": 0, "lon": -77.07170566666667, "fusion_lon": 0.0, "rental_uris": {"ios": "https://dc.lft.to/lastmile_qr_scan", "android": "https://dc.lft.to/lastmile_qr_scan"}, "lat": 38.9077225, "bike_id": "4beaf628394a2902bcb9fdd3a5e1ee9f", "is_reserved": 0}, {"fusion_lat": 0.0, "type": "electric_scooter", "name": "00272e0d39139f93e7fc18613d53eda3", "is_disabled": 0, "lon": -77.03452016666667, "fusion_lon": 0.0, "rental_uris": {"ios": "https://dc.lft.to/lastmile_qr_scan", "android": "https://dc.lft.to/lastmile_qr_scan"}, "lat": 38.90283633333333, "bike_id": "00272e0d39139f93e7fc18613d53eda3", "is_reserved": 0}, {"fusion_lat": 0.0, "type": "electric_scooter", "name": "39d87e0dbe9d6e80f6db530c2bcdda7f", "is_disabled": 0, "lon": -77.002156, "fusion_lon": 0.0, "rental_uris": {"ios": "https://dc.lft.to/lastmile_qr_scan", "android": "https://dc.lft.to/lastmile_qr_scan"}, "lat": 38.92470683333333, "bike_id": "39d87e0dbe9d6e80f6db530c2bcdda7f", "is_reserved": 0}, {"fusion_lat": 0.0, "type": "electric_scooter", "name": "c6cf2011a9bb84d65b84014840bdaf5a", "is_disabled": 0, "lon": -76.98601383333333, "fusion_lon": 0.0, "rental_uris": {"ios": "https://dc.lft.to/lastmile_qr_scan", "android": "https://dc.lft.to/lastmile_qr_scan"}, "lat": 38.90664616666667, "bike_id": "c6cf2011a9bb84d65b84014840bdaf5a", "is_reserved": 0}, {"fusion_lat": 0.0, "type": "electric_scooter", "name": "62e097a719c2989cb5e34d9410eb484c", "is_disabled": 0, "lon": -77.03283116666667, "fusion_lon": 0.0, "rental_uris": {"ios": "https://dc.lft.to/lastmile_qr_scan", "android": "https://dc.lft.to/lastmile_qr_scan"}, "lat": 38.89902883333333, "bike_id": "62e097a719c2989cb5e34d9410eb484c", "is_reserved": 0}, {"fusion_lat": 0.0, "type": "electric_scooter", "name": "8969b1b9346cf07a0c3b17022ea85331", "is_disabled": 0, "lon": -77.01786716666666, "fusion_lon": 0.0, "rental_uris": {"ios": "https://dc.lft.to/lastmile_qr_scan", "android": "https://dc.lft.to/lastmile_qr_scan"}, "lat": 38.920040666666665, "bike_id": "8969b1b9346cf07a0c3b17022ea85331", "is_reserved": 0}, {"fusion_lat": 0.0, "type": "electric_bike", "name": "db7e3fa570f2ccab10bc0096e2769fa1", "is_disabled": 0, "lon": -76.997173, "fusion_lon": 0.0, "rental_uris": {"ios": "https://dc.lft.to/lastmile_qr_scan", "android": "https://dc.lft.to/lastmile_qr_scan"}, "lat": 38.998551, "bike_id": "db7e3fa570f2ccab10bc0096e2769fa1", "is_reserved": 0}, {"fusion_lat": 0.0, "type": "electric_scooter", "name": "ac81b2b3112335610b681187a11be7cb", "is_disabled": 0, "lon": -77.02973616666667, "fusion_lon": 0.0, "rental_uris": {"ios": "https://dc.lft.to/lastmile_qr_scan", "android": "https://dc.lft.to/lastmile_qr_scan"}, "lat": 38.924455333333334, "bike_id": "ac81b2b3112335610b681187a11be7cb", "is_reserved": 0}, {"fusion_lat": 0.0, "type": "electric_scooter", "name": "f1e75d53b1789755cead93e18eba130b", "is_disabled": 0, "lon": -77.0178225, "fusion_lon": 0.0, "rental_uris": {"ios": "https://dc.lft.to/lastmile_qr_scan", "android": "https://dc.lft.to/lastmile_qr_scan"}, "lat": 38.91998016666667, "bike_id": "f1e75d53b1789755cead93e18eba130b", "is_reserved": 0}, {"fusion_lat": 0.0, "type": "electric_scooter", "name": "a186477a3686f77658fb97e4a6dd6ade", "is_disabled": 0, "lon": -76.99757683333333, "fusion_lon": 0.0, "rental_uris": {"ios": "https://dc.lft.to/lastmile_qr_scan", "android": "https://dc.lft.to/lastmile_qr_scan"}, "lat": 38.885160166666665, "bike_id": "a186477a3686f77658fb97e4a6dd6ade", "is_reserved": 0}, {"fusion_lat": 0.0, "type": "electric_scooter", "name": "55d6afddbc39548260e0e150bb14a505", "is_disabled": 0, "lon": -77.038597, "fusion_lon": 0.0, "rental_uris": {"ios": "https://dc.lft.to/lastmile_qr_scan", "android": "https://dc.lft.to/lastmile_qr_scan"}, "lat": 38.917179833333336, "bike_id": "55d6afddbc39548260e0e150bb14a505", "is_reserved": 0}, {"fusion_lat": 0.0, "type": "electric_scooter", "name": "9da8c778a3332166e889013ff9c05ab4", "is_disabled": 0, "lon": -77.0385805, "fusion_lon": 0.0, "rental_uris": {"ios": "https://dc.lft.to/lastmile_qr_scan", "android": "https://dc.lft.to/lastmile_qr_scan"}, "lat": 38.91662, "bike_id": "9da8c778a3332166e889013ff9c05ab4", "is_reserved": 0}, {"fusion_lat": 0.0, "type": "electric_scooter", "name": "dc8b1fc9c700e164878e3fac9b103e5c", "is_disabled": 0, "lon": -77.02400566666667, "fusion_lon": 0.0, "rental_uris": {"ios": "https://dc.lft.to/lastmile_qr_scan", "android": "https://dc.lft.to/lastmile_qr_scan"}, "lat": 38.90968216666667, "bike_id": "dc8b1fc9c700e164878e3fac9b103e5c", "is_reserved": 0}, {"fusion_lat": 0.0, "type": "electric_scooter", "name": "c8f336b2afd2dbc3eb4ea6917f72132d", "is_disabled": 0, "lon": -77.033071, "fusion_lon": 0.0, "rental_uris": {"ios": "https://dc.lft.to/lastmile_qr_scan", "android": "https://dc.lft.to/lastmile_qr_scan"}, "lat": 38.90967233333333, "bike_id": "c8f336b2afd2dbc3eb4ea6917f72132d", "is_reserved": 0}, {"fusion_lat": 0.0, "type": "electric_scooter", "name": "6ff0c16a75037d2bce28695ea2ddf4aa", "is_disabled": 0, "lon": -77.0399415, "fusion_lon": 0.0, "rental_uris": {"ios": "https://dc.lft.to/lastmile_qr_scan", "android": "https://dc.lft.to/lastmile_qr_scan"}, "lat": 38.89550766666667, "bike_id": "6ff0c16a75037d2bce28695ea2ddf4aa", "is_reserved": 0}, {"fusion_lat": 0.0, "type": "electric_scooter", "name": "9f31c436a12e3f9e6613af1a814d70a4", "is_disabled": 0, "lon": -77.045672, "fusion_lon": 0.0, "rental_uris": {"ios": "https://dc.lft.to/lastmile_qr_scan", "android": "https://dc.lft.to/lastmile_qr_scan"}, "lat": 38.90377733333333, "bike_id": "9f31c436a12e3f9e6613af1a814d70a4", "is_reserved": 0}, {"fusion_lat": 0.0, "type": "electric_scooter", "name": "186257a472cc0d2024545ff48efc46a8", "is_disabled": 0, "lon": -77.0254725, "fusion_lon": 0.0, "rental_uris": {"ios": "https://dc.lft.to/lastmile_qr_scan", "android": "https://dc.lft.to/lastmile_qr_scan"}, "lat": 38.9700055, "bike_id": "186257a472cc0d2024545ff48efc46a8", "is_reserved": 0}, {"fusion_lat": 0.0, "type": "electric_scooter", "name": "4c81b5d28c3d7e9f74c15e250ec20bc9", "is_disabled": 0, "lon": -77.05712833333334, "fusion_lon": 0.0, "rental_uris": {"ios": "https://dc.lft.to/lastmile_qr_scan", "android": "https://dc.lft.to/lastmile_qr_scan"}, "lat": 38.905371833333334, "bike_id": "4c81b5d28c3d7e9f74c15e250ec20bc9", "is_reserved": 0}, {"fusion_lat": 0.0, "type": "electric_scooter", "name": "b3ea32d22c3225fd53824728533c3c8c", "is_disabled": 0, "lon": -77.01848416666667, "fusion_lon": 0.0, "rental_uris": {"ios": "https://dc.lft.to/lastmile_qr_scan", "android": "https://dc.lft.to/lastmile_qr_scan"}, "lat": 38.9026875, "bike_id": "b3ea32d22c3225fd53824728533c3c8c", "is_reserved": 0}, {"fusion_lat": 0.0, "type": "electric_scooter", "name": "1e7f761589c10b80bcda60a4e65f447f", "is_disabled": 0, "lon": -77.00731883333333, "fusion_lon": 0.0, "rental_uris": {"ios": "https://dc.lft.to/lastmile_qr_scan", "android": "https://dc.lft.to/lastmile_qr_scan"}, "lat": 38.876444666666664, "bike_id": "1e7f761589c10b80bcda60a4e65f447f", "is_reserved": 0}, {"fusion_lat": 0.0, "type": "electric_scooter", "name": "13e6840d4f203d7c928a89e5af7166b6", "is_disabled": 0, "lon": -77.0093155, "fusion_lon": 0.0, "rental_uris": {"ios": "https://dc.lft.to/lastmile_qr_scan", "android": "https://dc.lft.to/lastmile_qr_scan"}, "lat": 38.91653483333333, "bike_id": "13e6840d4f203d7c928a89e5af7166b6", "is_reserved": 0}, {"fusion_lat": 0.0, "type": "electric_bike", "name": "6f7ace17637d152e702a22e9a8f6d90e", "is_disabled": 0, "lon": -76.9615555, "fusion_lon": 0.0, "rental_uris": {"ios": "https://dc.lft.to/lastmile_qr_scan", "android": "https://dc.lft.to/lastmile_qr_scan"}, "lat": 38.8561975, "bike_id": "6f7ace17637d152e702a22e9a8f6d90e", "is_reserved": 0}, {"fusion_lat": 0.0, "type": "electric_scooter", "name": "8c88538db09ffa62bb1905f3567c0e00", "is_disabled": 0, "lon": -77.02607966666666, "fusion_lon": 0.0, "rental_uris": {"ios": "https://dc.lft.to/lastmile_qr_scan", "android": "https://dc.lft.to/lastmile_qr_scan"}, "lat": 38.9826115, "bike_id": "8c88538db09ffa62bb1905f3567c0e00", "is_reserved": 0}, {"fusion_lat": 0.0, "type": "electric_scooter", "name": "2d7053499c88203cf69edeb9ec413df3", "is_disabled": 0, "lon": -77.04379033333333, "fusion_lon": 0.0, "rental_uris": {"ios": "https://dc.lft.to/lastmile_qr_scan", "android": "https://dc.lft.to/lastmile_qr_scan"}, "lat": 38.920519666666664, "bike_id": "2d7053499c88203cf69edeb9ec413df3", "is_reserved": 0}, {"fusion_lat": 0.0, "type": "electric_bike", "name": "0d5b14fb4a9c53c256a0e641a018d47a", "is_disabled": 0, "lon": -77.00960583333334, "fusion_lon": 0.0, "rental_uris": {"ios": "https://dc.lft.to/lastmile_qr_scan", "android": "https://dc.lft.to/lastmile_qr_scan"}, "lat": 38.921327, "bike_id": "0d5b14fb4a9c53c256a0e641a018d47a", "is_reserved": 0}, {"fusion_lat": 0.0, "type": "electric_scooter", "name": "26c70a52318c3524999cfc719334679f", "is_disabled": 0, "lon": -77.03358516666667, "fusion_lon": 0.0, "rental_uris": {"ios": "https://dc.lft.to/lastmile_qr_scan", "android": "https://dc.lft.to/lastmile_qr_scan"}, "lat": 38.924581833333335, "bike_id": "26c70a52318c3524999cfc719334679f", "is_reserved": 0}, {"fusion_lat": 0.0, "type": "electric_scooter", "name": "749893c2e9c741690311cb53a4412b90", "is_disabled": 0, "lon": -77.034847, "fusion_lon": 0.0, "rental_uris": {"ios": "https://dc.lft.to/lastmile_qr_scan", "android": "https://dc.lft.to/lastmile_qr_scan"}, "lat": 38.928931166666665, "bike_id": "749893c2e9c741690311cb53a4412b90", "is_reserved": 0},