{"data": {"bikes": [{"is_disabled": 0, "fusion_lon": 0.0, "fusion_lat": 0.0, "lat": 38.89652616666667, "type": "electric_scooter", "lon": -77.02617383333333, "bike_id": "6979b882769a234633e051068dce36f8", "rental_uris": {"android": "https://dc.lft.to/lastmile_qr_scan", "ios": "https://dc.lft.to/lastmile_qr_scan"}, "name": "6979b882769a234633e051068dce36f8", "is_reserved": 0}, {"is_disabled": 0, "fusion_lon": 0.0, "fusion_lat": 0.0, "lat": 38.89821383333334, "type": "electric_scooter", "lon": -77.02622416666667, "bike_id": "91861300cc4fc74f915b9bdf255a28aa", "rental_uris": {"android": "https://dc.lft.to/lastmile_qr_scan", "ios": "https://dc.lft.to/lastmile_qr_scan"}, "name": "91861300cc4fc74f915b9bdf255a28aa", "is_reserved": 0}, {"is_disabled": 0, "fusion_lon": 0.0, "fusion_lat": 0.0, "lat": 38.89646783333333, "type": "electric_scooter", "lon": -77.02740316666667, "bike_id": "bc9879ed92b7f50d431cf86bf931027b", "rental_uris": {"android": "https://dc.lft.to/lastmile_qr_scan", "ios": "https://dc.lft.to/lastmile_qr_scan"}, "name": "bc9879ed92b7f50d431cf86bf931027b", "is_reserved": 0}, {"is_disabled": 0, "fusion_lon": 0.0, "fusion_lat": 0.0, "lat": 38.93636083333333, "type": "electric_scooter", "lon": -77.0269495, "bike_id": "5dc622f4093b9b7af253a5910c2fbb8b", "rental_uris": {"android": "https://dc.lft.to/lastmile_qr_scan", "ios": "https://dc.lft.to/lastmile_qr_scan"}, "name": "5dc622f4093b9b7af253a5910c2fbb8b", "is_reserved": 0}, {"is_disabled": 0, "fusion_lon": 0.0, "fusion_lat": 0.0, "lat": 38.8974835, "type": "electric_scooter", "lon": -77.0516825, "bike_id": "8e2ded7331eb6af3e4aaf477fb9ac33b", "rental_uris": {"android": "https://dc.lft.to/lastmile_qr_scan", "ios": "https://dc.lft.to/lastmile_qr_scan"}, "name": "8e2ded7331eb6af3e4aaf477fb9ac33b", "is_reserved": 0}, {"is_disabled": 0, "fusion_lon": 0.0, "fusion_lat": 0.0, "lat": 38.930808666666664, "type": "electric_scooter", "lon": -77.036296, "bike_id": "788fb194a9a96f0bc10dd826dbd9b3aa", "rental_uris": {"android": "https://dc.lft.to/lastmile_qr_scan", "ios": "https://dc.lft.to/lastmile_qr_scan"}, "name": "788fb194a9a96f0bc10dd826dbd9b3aa", "is_reserved": 0}, {"is_disabled": 0, "fusion_lon": 0.0, "fusion_lat": 0.0, "lat": 38.885321, "type": "electric_bike", "lon": -76.99825866666667, "bike_id": "2ee8261087c1f731988513327a79867b", "rental_uris": {"android": "https://dc.lft.to/lastmile_qr_scan", "ios": "https://dc.lft.to/lastmile_qr_scan"}, "name": "2ee8261087c1f731988513327a79867b", "is_reserved": 0}, {"is_disabled": 0, "fusion_lon": 0.0, "fusion_lat": 0.0, "lat": 38.9177915, "type": "electric_scooter", "lon": -77.04296583333333, "bike_id": "e3a88eed7276ae8dcff1998be15b6f22", "rental_uris": {"android": "https://dc.lft.to/lastmile_qr_scan", "ios": "https://dc.lft.to/lastmile_qr_scan"}, "name": "e3a88eed7276ae8dcff1998be15b6f22", "is_reserved": 0}, {"is_disabled": 0, "fusion_lon": 0.0, "fusion_lat": 0.0, "lat": 38.908503, "type": "electric_scooter", "lon": -77.06079816666667, "bike_id": "8533c4952aa7a5089c68e810e44f9e2d", "rental_uris": {"android": "https://dc.lft.to/lastmile_qr_scan", "ios": "https://dc.lft.to/lastmile_qr_scan"}, "name": "8533c4952aa7a5089c68e810e44f9e2d", "is_reserved": 0}, {"is_disabled": 0, "fusion_lon": 0.0, "fusion_lat": 0.0, "lat": 38.8735065, "type": "electric_scooter", "lon": -77.01734883333333, "bike_id": "e52c49164f86c32b35381e55a2d084bc", "rental_uris": {"android": "https://dc.lft.to/lastmile_qr_scan", "ios": "https://dc.lft.to/lastmile_qr_scan"}, "name": "e52c49164f86c32b35381e55a2d084bc", "is_reserved": 0}, {"is_disabled": 0, "fusion_lon": 0.0, "fusion_lat": 0.0, "lat": 38.903, "type": "electric_scooter", "lon": -77.03877483333333, "bike_id": "b94a75122222b9d68aae89b0fedb78f9", "rental_uris": {"android": "https://dc.lft.to/lastmile_qr_scan", "ios": "https://dc.lft.to/lastmile_qr_scan"}, "name": "b94a75122222b9d68aae89b0fedb78f9", "is_reserved": 0}, {"is_disabled": 0, "fusion_lon": 0.0, "fusion_lat": 0.0, "lat": 38.935291, "type": "electric_scooter", "lon": -77.066357, "bike_id": "ed8bcb9b2f5079fa60ed7b500125cf94", "rental_uris": {"android": "https://dc.lft.to/lastmile_qr_scan", "ios": "https://dc.lft.to/lastmile_qr_scan"}, "name": "ed8bcb9b2f5079fa60ed7b500125cf94", "is_reserved": 0}, {"is_disabled": 0, "fusion_lon": 0.0, "fusion_lat": 0.0, "lat": 38.904672166666664, "type": "electric_scooter", "lon": -76.99208033333333, "bike_id": "17fdd01e1ad088600682b3924188723a", "rental_uris": {"android": "https://dc.lft.to/lastmile_qr_scan", "ios": "https://dc.lft.to/lastmile_qr_scan"}, "name": "17fdd01e1ad088600682b3924188723a", "is_reserved": 0}, {"is_disabled": 0, "fusion_lon": 0.0, "fusion_lat": 0.0, "lat": 38.922559166666666, "type": "electric_scooter", "lon": -77.07134883333333, "bike_id": "7b3d20d425475f8917035a064ac1742f", "rental_uris": {"android": "https://dc.lft.to/lastmile_qr_scan", "ios": "https://dc.lft.to/lastmile_qr_scan"}, "name": "7b3d20d425475f8917035a064ac1742f", "is_reserved": 0}, {"is_disabled": 0, "fusion_lon": 0.0, "fusion_lat": 0.0, "lat": 38.91149583333333, "type": "electric_scooter", "lon": -76.98500966666667, "bike_id": "fabb1b1cb8abbf4a49e82e2c8cf914fd", "rental_uris": {"android": "https://dc.lft.to/lastmile_qr_scan", "ios": "https://dc.lft.to/lastmile_qr_scan"}, "name": "fabb1b1cb8abbf4a49e82e2c8cf914fd", "is_reserved": 0}, {"is_disabled": 0, "fusion_lon": 0.0, "fusion_lat": 0.0, "lat": 38.900201833333334, "type": "electric_scooter", "lon": -77.00214633333333, "bike_id": "4263d6bb4f9b19182bc4d147e55af65f", "rental_uris": {"android": "https://dc.lft.to/lastmile_qr_scan", "ios": "https://dc.lft.to/lastmile_qr_scan"}, "name": "4263d6bb4f9b19182bc4d147e55af65f", "is_reserved": 0}, {"is_disabled": 0, "fusion_lon": 0.0, "fusion_lat": 0.0, "lat": 38.8949175, "type": "electric_scooter", "lon": -77.02284916666666, "bike_id": "f1d7a6c914a229907c1cc046285bb373", "rental_uris": {"android": "https://dc.lft.to/lastmile_qr_scan", "ios": "https://dc.lft.to/lastmile_qr_scan"}, "name": "f1d7a6c914a229907c1cc046285bb373", "is_reserved": 0}, {"is_disabled": 0, "fusion_lon": 0.0, "fusion_lat": 0.0, "lat": 38.935364666666665, "type": "electric_scooter", "lon": -77.0340725, "bike_id": "0ea290e341bb9048b78680b23f13c9d2", "rental_uris": {"android": "https://dc.lft.to/lastmile_qr_scan", "ios": "https://dc.lft.to/lastmile_qr_scan"}, "name": "0ea290e341bb9048b78680b23f13c9d2", "is_reserved": 0}, {"is_disabled": 0, "fusion_lon": 0.0, "fusion_lat": 0.0, "lat": 38.845158, "type": "electric_bike", "lon": -77.07796533333334, "bike_id": "4f93cbd2e41c5431f48eb1dbc42eec02", "rental_uris": {"android": "https://dc.lft.to/lastmile_qr_scan", "ios": "https://dc.lft.to/lastmile_qr_scan"}, "name": "4f93cbd2e41c5431f48eb1dbc42eec02", "is_reserved": 0}, {"is_disabled": 0, "fusion_lon": 0.0, "fusion_lat": 0.0, "lat": 38.901562166666665, "type": "electric_scooter", "lon": -77.03173966666667, "bike_id": "eeb013f73d62cb8226055386730076e5", "rental_uris": {"android": "https://dc.lft.to/lastmile_qr_scan", "ios": "https://dc.lft.to/lastmile_qr_scan"}, "name": "eeb013f73d62cb8226055386730076e5", "is_reserved": 0}, {"is_disabled": 0, "fusion_lon": 0.0, "fusion_lat": 0.0, "lat": 38.91674616666667, "type": "electric_scooter", "lon": -77.027245, "bike_id": "92d39300949b3b47f58d2dd5eea5f3f7", "rental_uris": {"android": "https://dc.lft.to/lastmile_qr_scan", "ios": "https://dc.lft.to/lastmile_qr_scan"}, "name": "92d39300949b3b47f58d2dd5eea5f3f7", "is_reserved": 0}, {"is_disabled": 0, "fusion_lon": 0.0, "fusion_lat": 0.0, "lat": 38.9068135, "type": "electric_scooter", "lon": -77.026911, "bike_id": "0c6836c03ab7138eac2022d92c935f6b", "rental_uris": {"android": "https://dc.lft.to/lastmile_qr_scan", "ios": "https://dc.lft.to/lastmile_qr_scan"}, "name": "0c6836c03ab7138eac2022d92c935f6b", "is_reserved": 0}, {"is_disabled": 0, "fusion_lon": 0.0, "fusion_lat": 0.0, "lat": 38.90556333333333, "type": "electric_scooter", "lon": -77.0334745, "bike_id": "dcffef76e5993ef09f4e26a2f76f95b3", "rental_uris": {"android": "https://dc.lft.to/lastmile_qr_scan", "ios": "https://dc.lft.to/lastmile_qr_scan"}, "name": "dcffef76e5993ef09f4e26a2f76f95b3", "is_reserved": 0}, {"is_disabled": 0, "fusion_lon": 0.0, "fusion_lat": 0.0, "lat": 38.92047816666667, "type": "electric_scooter", "lon": -77.02612566666667, "bike_id": "7edd52db6efa4e7cb5646c11c4591d0b", "rental_uris": {"android": "https://dc.lft.to/lastmile_qr_scan", "ios": "https://dc.lft.to/lastmile_qr_scan"}, "name": "7edd52db6efa4e7cb5646c11c4591d0b", "is_reserved": 0}, {"is_disabled": 0, "fusion_lon": 0.0, "fusion_lat": 0.0, "lat": 38.90192366666667, "type": "electric_scooter", "lon": -77.03952366666667, "bike_id": "5d610604ad352f292cc2229fb37b5b8b", "rental_uris": {"android": "https://dc.lft.to/lastmile_qr_scan", "ios": "https://dc.lft.to/lastmile_qr_scan"}, "name": "5d610604ad352f292cc2229fb37b5b8b", "is_reserved": 0}, {"is_disabled": 0, "fusion_lon": 0.0, "fusion_lat": 0.0, "lat": 38.90834266666667, "type": "electric_scooter", "lon": -76.99693516666666, "bike_id": "c27de660148e9fbaff05673c918837c6", "rental_uris": {"android": "https://dc.lft.to/lastmile_qr_scan", "ios": "https://dc.lft.to/lastmile_qr_scan"}, "name": "c27de660148e9fbaff05673c918837c6", "is_reserved": 0}, {"is_disabled": 0, "fusion_lon": 0.0, "fusion_lat": 0.0, "lat": 38.905279, "type": "electric_scooter", "lon": -77.06059783333333, "bike_id": "413dcfcfbcff48d76356c5d686a5df94", "rental_uris": {"android": "https://dc.lft.to/lastmile_qr_scan", "ios": "https://dc.lft.to/lastmile_qr_scan"}, "name": "413dcfcfbcff48d76356c5d686a5df94", "is_reserved": 0}, {"is_disabled": 0, "fusion_lon": 0.0, "fusion_lat": 0.0, "lat": 38.905042, "type": "electric_scooter", "lon": -77.02503433333334, "bike_id": "074e51e6a01430b0df30c9cc0d557801", "rental_uris": {"android": "https://dc.lft.to/lastmile_qr_scan", "ios": "https://dc.lft.to/lastmile_qr_scan"}, "name": "074e51e6a01430b0df30c9cc0d557801", "is_reserved": 0}, {"is_disabled": 0, "fusion_lon": 0.0, "fusion_lat": 0.0, "lat": 38.903679333333336, "type": "electric_scooter", "lon": -77.03214233333334, "bike_id": "f8c0c3a82caf442c2b901777aa264b15", "rental_uris": {"android": "https://dc.lft.to/lastmile_qr_scan", "ios": "https://dc.lft.to/lastmile_qr_scan"}, "name": "f8c0c3a82caf442c2b901777aa264b15", "is_reserved": 0}, {"is_disabled": 0, "fusion_lon": 0.0, "fusion_lat": 0.0, "lat": 38.917057, "type": "electric_scooter", "lon": -77.00115116666667, "bike_id": "6c5d4920395fe427a0c21b3903225f0e", "rental_uris": {"android": "https://dc.lft.to/lastmile_qr_scan", "ios": "https://dc.lft.to/lastmile_qr_scan"}, "name": "6c5d4920395fe427a0c21b3903225f0e", "is_reserved": 0}, {"is_disabled": 0, "fusion_lon": 0.0, "fusion_lat": 0.0, "lat": 38.984993833333334, "type": "electric_bike", "lon": -76.9820875, "bike_id": "81bc0fefff0bdcc1f2bedc37c883bc7c", "rental_uris": {"android": "https://dc.lft.to/lastmile_qr_scan", "ios": "https://dc.lft.to/lastmile_qr_scan"}, "name": "81bc0fefff0bdcc1f2bedc37c883bc7c", "is_reserved": 0}, {"is_disabled": 0, "fusion_lon": 0.0, "fusion_lat": 0.0, "lat": 38.915664, "type": "electric_scooter", "lon": -77.01021233333333, "bike_id": "7e7f1fdc532691caf39ed8ece67e628d", "rental_uris": {"android": "https://dc.lft.to/lastmile_qr_scan", "ios": "https://dc.lft.to/lastmile_qr_scan"}, "name": "7e7f1fdc532691caf39ed8ece67e628d", "is_reserved": 0}, {"is_disabled": 0, "fusion_lon": 0.0, "fusion_lat": 0.0, "lat": 38.918097, "type": "electric_scooter", "lon": -77.03217016666666, "bike_id": "150536fa6013043bc47ab5aa44cde2ee", "rental_uris": {"android": "https://dc.lft.to/lastmile_qr_scan", "ios": "https://dc.lft.to/lastmile_qr_scan"}, "name": "150536fa6013043bc47ab5aa44cde2ee", "is_reserved": 0}, {"is_disabled": 0, "fusion_lon": 0.0, "fusion_lat": 0.0, "lat": 38.90005416666666, "type": "electric_scooter", "lon": -77.01191733333333, "bike_id": "79781870abdf831335e27a765df2035b", "rental_uris": {"android": "https://dc.lft.to/lastmile_qr_scan", "ios": "https://dc.lft.to/lastmile_qr_scan"}, "name": "79781870abdf831335e27a765df2035b", "is_reserved": 0}, {"is_disabled": 0, "fusion_lon": 0.0, "fusion_lat": 0.0, "lat": 38.91711883333333, "type": "electric_scooter", "lon": -77.04124, "bike_id": "3efdb684bc99dfefa8036708b17df3f7", "rental_uris": {"android": "https://dc.lft.to/lastmile_qr_scan", "ios": "https://dc.lft.to/lastmile_qr_scan"}, "name": "3efdb684bc99dfefa8036708b17df3f7", "is_reserved": 0}, {"is_disabled": 0, "fusion_lon": 0.0, "fusion_lat": 0.0, "lat": 38.909071, "type": "electric_scooter", "lon": -77.02312966666666, "bike_id": "d5b6d3c904f33cc1d1627f0cc253fd75", "rental_uris": {"android": "https://dc.lft.to/lastmile_qr_scan", "ios": "https://dc.lft.to/lastmile_qr_scan"}, "name": "d5b6d3c904f33cc1d1627f0cc253fd75", "is_reserved": 0}, {"is_disabled": 0, "fusion_lon": 0.0, "fusion_lat": 0.0, "lat": 38.95965416666667, "type": "electric_scooter", "lon": -77.02108833333334, "bike_id": "beb740fb75ecd474cfe7c2927783d3fc", "rental_uris": {"android": "https://dc.lft.to/lastmile_qr_scan", "ios": "https://dc.lft.to/lastmile_qr_scan"}, "name": "beb740fb75ecd474cfe7c2927783d3fc", "is_reserved": 0}, {"is_disabled": 0, "fusion_lon": 0.0, "fusion_lat": 0.0, "lat": 38.95634316666667, "type": "electric_scooter", "lon": -77.0297745, "bike_id": "1fa09ab0cf0c42c8d479060106590703", "rental_uris": {"android": "https://dc.lft.to/lastmile_qr_scan", "ios": "https://dc.lft.to/lastmile_qr_scan"}, "name": "1fa09ab0cf0c42c8d479060106590703", "is_reserved": 0}, {"is_disabled": 0, "fusion_lon": 0.0, "fusion_lat": 0.0, "lat": 38.9076005, "type": "electric_scooter", "lon": -77.0358655, "bike_id": "c590f378c62b895ff67842796034e3a8", "rental_uris": {"android": "https://dc.lft.to/lastmile_qr_scan", "ios": "https://dc.lft.to/lastmile_qr_scan"}, "name": "c590f378c62b895ff67842796034e3a8", "is_reserved": 0}, {"is_disabled": 0, "fusion_lon": 0.0, "fusion_lat": 0.0, "lat": 38.91109333333333, "type": "electric_scooter", "lon": -77.03829466666667, "bike_id": "a4bcde6553be5d56c0c2e5f4f3cd9020", "rental_uris": {"android": "https://dc.lft.to/lastmile_qr_scan", "ios": "https://dc.lft.to/lastmile_qr_scan"}, "name": "a4bcde6553be5d56c0c2e5f4f3cd9020", "is_reserved": 0}, {"is_disabled": 0, "fusion_lon": 0.0, "fusion_lat": 0.0, "lat": 38.887408, "type": "electric_scooter", "lon": -77.01527716666666, "bike_id": "5aac392159f5abbc33610bfa1ee2b688", "rental_uris": {"android": "https://dc.lft.to/lastmile_qr_scan", "ios": "https://dc.lft.to/lastmile_qr_scan"}, "name": "5aac392159f5abbc33610bfa1ee2b688", "is_reserved": 0}, {"is_disabled": 0, "fusion_lon": 0.0, "fusion_lat": 0.0, "lat": 38.895046666666666, "type": "electric_scooter", "lon": -77.01611666666666, "bike_id": "bb78d6d29bbb2913626fa6e234e14d79", "rental_uris": {"android": "https://dc.lft.to/lastmile_qr_scan", "ios": "https://dc.lft.to/lastmile_qr_scan"}, "name": "bb78d6d29bbb2913626fa6e234e14d79", "is_reserved": 0}, {"is_disabled": 0, "fusion_lon": 0.0, "fusion_lat": 0.0, "lat": 38.921194, "type": "electric_scooter", "lon": -77.01208983333333, "bike_id": "57b183c2910ba9a2dba6dce9746337d1", "rental_uris": {"android": "https://dc.lft.to/lastmile_qr_scan", "ios": "https://dc.lft.to/lastmile_qr_scan"}, "name": "57b183c2910ba9a2dba6dce9746337d1", "is_reserved": 0}, {"is_disabled": 0, "fusion_lon": 0.0, "fusion_lat": 0.0, "lat": 38.927501666666664, "type": "electric_scooter", "lon": -77.07589966666667, "bike_id": "44b605e925d0324cac530f980a2ac98c", "rental_uris": {"android": "https://dc.lft.to/lastmile_qr_scan", "ios": "https://dc.lft.to/lastmile_qr_scan"}, "name": "44b605e925d0324cac530f980a2ac98c", "is_reserved": 0}, {"is_disabled": 0, "fusion_lon": 0.0, "fusion_lat": 0.0, "lat": 38.88372483333333, "type": "electric_bike", "lon": -77.03069333333333, "bike_id": "479b59036952a59cdc16c2f93dfcb935", "rental_uris": {"android": "https://dc.lft.to/lastmile_qr_scan", "ios": "https://dc.lft.to/lastmile_qr_scan"}, "name": "479b59036952a59cdc16c2f93dfcb935", "is_reserved": 0}, {"is_disabled": 0, "fusion_lon": 0.0, "fusion_lat": 0.0, "lat": 38.846006333333335, "type": "electric_bike", "lon": -76.968797, "bike_id": "62d253f7d36f56a85042c2ad1088d5b6", "rental_uris": {"android": "https://dc.lft.to/lastmile_qr_scan", "ios": "https://dc.lft.to/lastmile_qr_scan"}, "name": "62d253f7d36f56a85042c2ad1088d5b6", "is_reserved": 0}, {"is_disabled": 0, "fusion_lon": 0.0, "fusion_lat": 0.0, "lat": 38.99933883333333, "type": "electric_bike", "lon": -77.00120566666666, "bike_id": "2fbf86d430059a93b56b1811a2d21987", "rental_uris": {"android": "https://dc.lft.to/lastmile_qr_scan", "ios": "https://dc.lft.to/lastmile_qr_scan"}, "name": "2fbf86d430059a93b56b1811a2d21987", "is_reserved": 0}, {"is_disabled": 0, "fusion_lon": 0.0, "fusion_lat": 0.0, "lat": 38.90365666666667, "type": "electric_scooter", "lon": -77.03889116666667, "bike_id": "9b54e50cbfd79b57d4f3791de6d85f26", "rental_uris": {"android": "https://dc.lft.to/lastmile_qr_scan", "ios": "https://dc.lft.to/lastmile_qr_scan"}, "name": "9b54e50cbfd79b57d4f3791de6d85f26", "is_reserved": 0}, {"is_disabled": 0, "fusion_lon": 0.0, "fusion_lat": 0.0, "lat": 38.89503583333333, "type": "electric_scooter", "lon": -76.94881416666666, "bike_id": "dcf7d4537b672c42a37257bfd9a333ef", "rental_uris": {"android": "https://dc.lft.to/lastmile_qr_scan", "ios": "https://dc.lft.to/lastmile_qr_scan"}, "name": "dcf7d4537b672c42a37257bfd9a333ef", "is_reserved": 0}, {"is_disabled": 0, "fusion_lon": 0.0, "fusion_lat": 0.0, "lat": 38.899930166666664, "type": "electric_scooter", "lon": -77.0322425, "bike_id": "cc9ef2caaaf2fce847af51dca630d3b4", "rental_uris": {"android": "https://dc.lft.to/lastmile_qr_scan", "ios": "https://dc.lft.to/lastmile_qr_scan"}, "name": "cc9ef2caaaf2fce847af51dca630d3b4", "is_reserved": 0}, {"is_disabled": 0, "fusion_lon": 0.0, "fusion_lat": 0.0, "lat": 38.898439333333336, "type": "electric_scooter", "lon": -76.945599, "bike_id": "6d1acc6ed66467314b034ddb25694195", "rental_uris": {"android": "https://dc.lft.to/lastmile_qr_scan", "ios": "https://dc.lft.to/lastmile_qr_scan"}, "name": "6d1acc6ed66467314b034ddb25694195", "is_reserved": 0}, {"is_disabled": 0, "fusion_lon": 0.0, "fusion_lat": 0.0, "lat": 38.91935133333333, "type": "electric_scooter", "lon": -77.0813085, "bike_id": "c92778cf6fc9f47b1de97777597f5343", "rental_uris": {"android": "https://dc.lft.to/lastmile_qr_scan", "ios": "https://dc.lft.to/lastmile_qr_scan"}, "name": "c92778cf6fc9f47b1de97777597f5343", "is_reserved": 0}, {"is_disabled": 0, "fusion_lon": 0.0, "fusion_lat": 0.0, "lat": 39.09592716666667, "type": "electric_bike", "lon": -77.1477885, "bike_id": "7bbf89a94094589e181f6fb37c8e8c9b", "rental_uris": {"android": "https://dc.lft.to/lastmile_qr_scan", "ios": "https://dc.lft.to/lastmile_qr_scan"}, "name": "7bbf89a94094589e181f6fb37c8e8c9b", "is_reserved": 0}, {"is_disabled": 0, "fusion_lon": 0.0, "fusion_lat": 0.0, "lat": 38.860314, "type": "electric_scooter", "lon": -76.99694433333333, "bike_id": "14ec05cea6914690f6c5f11c1c994e4f", "rental_uris": {"android": "https://dc.lft.to/lastmile_qr_scan", "ios": "https://dc.lft.to/lastmile_qr_scan"}, "name": "14ec05cea6914690f6c5f11c1c994e4f", "is_reserved": 0}, {"is_disabled": 0, "fusion_lon": 0.0, "fusion_lat": 0.0, "lat": 38.855240333333334, "type": "electric_bike", "lon": -77.1072725, "bike_id": "9ded29c5a235e585e3d2c6f560e42188", "rental_uris": {"android": "https://dc.lft.to/lastmile_qr_scan", "ios": "https://dc.lft.to/lastmile_qr_scan"}, "name": "9ded29c5a235e585e3d2c6f560e42188", "is_reserved": 0}, {"is_disabled": 0, "fusion_lon": 0.0, "fusion_lat": 0.0, "lat": 38.90635916666667, "type": "electric_scooter", "lon": -77.025047, "bike_id": "0ce7852137376c03beabbea61a9f24df", "rental_uris": {"android": "https://dc.lft.to/lastmile_qr_scan", "ios": "https://dc.lft.to/lastmile_qr_scan"}, "name": "0ce7852137376c03beabbea61a9f24df", "is_reserved": 0}, {"is_disabled": 0, "fusion_lon": 0.0, "fusion_lat": 0.0, "lat": 38.91339766666667, "type": "electric_scooter", "lon": -77.031831, "bike_id": "499ba01262cbb7b00c7b2a8ac9b073bf", "rental_uris": {"android": "https://dc.lft.to/lastmile_qr_scan", "ios": "https://dc.lft.to/lastmile_qr_scan"}, "name": "499ba01262cbb7b00c7b2a8ac9b073bf", "is_reserved": 0}, {"is_disabled": 0, "fusion_lon": 0.0, "fusion_lat": 0.0, "lat": 38.919763333333336, "type": "electric_scooter", "lon": -77.00022666666666, "bike_id": "5e307dd3042ad63b03efcd1274bafda7", "rental_uris": {"android": "https://dc.lft.to/lastmile_qr_scan", "ios": "https://dc.lft.to/lastmile_qr_scan"}, "name": "5e307dd3042ad63b03efcd1274bafda7", "is_reserved": 0}, {"is_disabled": 0, "fusion_lon": 0.0, "fusion_lat": 0.0, "lat": 38.89373583333333, "type": "electric_scooter", "lon": -76.949966, "bike_id": "324210b132c6ab816e0e3225f3be2587", "rental_uris": {"android": "https://dc.lft.to/lastmile_qr_scan", "ios": "https://dc.lft.to/lastmile_qr_scan"}, "name": "324210b132c6ab816e0e3225f3be2587", "is_reserved": 0}, {"is_disabled": 0, "fusion_lon": 0.0, "fusion_lat": 0.0, "lat": 38.92121483333333, "type": "electric_bike", "lon": -77.012111, "bike_id": "d3edf3dcf432da8592224dc7f8e808ea", "rental_uris": {"android": "https://dc.lft.to/lastmile_qr_scan", "ios": "https://dc.lft.to/lastmile_qr_scan"}, "name": "d3edf3dcf432da8592224dc7f8e808ea", "is_reserved": 0}, {"is_disabled": 0, "fusion_lon": 0.0, "fusion_lat": 0.0, "lat": 38.924432833333334, "type": "electric_bike", "lon": -76.96833783333334, "bike_id": "96fb36ebb9191c50c7c769e3e07aa775", "rental_uris": {"android": "https://dc.lft.to/lastmile_qr_scan", "ios": "https://dc.lft.to/lastmile_qr_scan"}, "name": "96fb36ebb9191c50c7c769e3e07aa775", "is_reserved": 0}, {"is_disabled": 0, "fusion_lon": 0.0, "fusion_lat": 0.0, "lat": 39.10567, "type": "electric_bike", "lon": -77.15266166666666, "bike_id": "d8961d3bdd05122d5b32ec8b7f410698", "rental_uris": {"android": "https://dc.lft.to/lastmile_qr_scan", "ios": "https://dc.lft.to/lastmile_qr_scan"}, "name": "d8961d3bdd05122d5b32ec8b7f410698", "is_reserved": 0}, {"is_disabled": 0, "fusion_lon": 0.0, "fusion_lat": 0.0, "lat": 38.902658333333335, "type": "electric_scooter", "lon": -77.042614, "bike_id": "f80868d7352b7fb39ad13e142256aef0", "rental_uris": {"android": "https://dc.lft.to/lastmile_qr_scan", "ios": "https://dc.lft.to/lastmile_qr_scan"}, "name": "f80868d7352b7fb39ad13e142256aef0", "is_reserved": 0}, {"is_disabled": 0, "fusion_lon": 0.0, "fusion_lat": 0.0, "lat": 38.92087166666666, "type": "electric_scooter", "lon": -76.99412983333333, "bike_id": "828584630520ff0dcdd6c2d786a2bc61", "rental_uris": {"android": "https://dc.lft.to/lastmile_qr_scan", "ios": "https://dc.lft.to/lastmile_qr_scan"}, "name": "828584630520ff0dcdd6c2d786a2bc61", "is_reserved": 0}, {"is_disabled": 0, "fusion_lon": 0.0, "fusion_lat": 0.0, "lat": 38.93636933333333, "type": "electric_scooter", "lon": -77.03661733333334, "bike_id": "ab1114ac1b2a3b49b5f42aa5eae0addb", "rental_uris": {"android": "https://dc.lft.to/lastmile_qr_scan", "ios": "https://dc.lft.to/lastmile_qr_scan"}, "name": "ab1114ac1b2a3b49b5f42aa5eae0addb", "is_reserved": 0}, {"is_disabled": 0, "fusion_lon": 0.0, "fusion_lat": 0.0, "lat": 38.91126, "type": "electric_scooter", "lon": -77.04180683333334, "bike_id": "5ac16857f4c3cdabbdbe7a2d07a782a5", "rental_uris": {"android": "https://dc.lft.to/lastmile_qr_scan", "ios": "https://dc.lft.to/lastmile_qr_scan"}, "name": "5ac16857f4c3cdabbdbe7a2d07a782a5", "is_reserved": 0}, {"is_disabled": 0, "fusion_lon": 0.0, "fusion_lat": 0.0, "lat": 39.088407833333335, "type": "electric_bike", "lon": -77.178013, "bike_id": "61316c27116326134842225d132560ff", "rental_uris": {"android": "https://dc.lft.to/lastmile_qr_scan", "ios": "https://dc.lft.to/lastmile_qr_scan"}, "name": "61316c27116326134842225d132560ff", "is_reserved": 0}, {"is_disabled": 0, "fusion_lon": 0.0, "fusion_lat": 0.0, "lat": 38.88407333333333, "type": "electric_scooter", "lon": -76.95415583333333, "bike_id": "f07e3f0274f7b5ef9e846b9085ffc1a3", "rental_uris": {"android": "https://dc.lft.to/lastmile_qr_scan", "ios": "https://dc.lft.to/lastmile_qr_scan"}, "name": "f07e3f0274f7b5ef9e846b9085ffc1a3", "is_reserved": 0}, {"is_disabled": 0, "fusion_lon": 0.0, "fusion_lat": 0.0, "lat": 38.9035955, "type": "electric_scooter", "lon": -77.04201066666667, "bike_id": "9a56da0ec1ee57503e878b6e83ffd08a", "rental_uris": {"android": "https://dc.lft.to/lastmile_qr_scan", "ios": "https://dc.lft.to/lastmile_qr_scan"}, "name": "9a56da0ec1ee57503e878b6e83ffd08a", "is_reserved": 0}, {"is_disabled": 0, "fusion_lon": 0.0, "fusion_lat": 0.0, "lat": 38.91323233333333, "type": "electric_scooter", "lon": -77.032558, "bike_id": "8a76cc5a62b877f24b3545034900b0ce", "rental_uris": {"android": "https://dc.lft.to/lastmile_qr_scan", "ios": "https://dc.lft.to/lastmile_qr_scan"}, "name": "8a76cc5a62b877f24b3545034900b0ce", "is_reserved": 0}, {"is_disabled": 0, "fusion_lon": 0.0, "fusion_lat": 0.0, "lat": 38.89209366666667, "type": "electric_scooter", "lon": -76.9880875, "bike_id": "60800ae6cac43debc3cb1eaff015459c", "rental_uris": {"android": "https://dc.lft.to/lastmile_qr_scan", "ios": "https://dc.lft.to/lastmile_qr_scan"}, "name": "60800ae6cac43debc3cb1eaff015459c", "is_reserved": 0}, {"is_disabled": 0, "fusion_lon": 0.0, "fusion_lat": 0.0, "lat": 38.914796333333335, "type": "electric_scooter", "lon": -77.03471183333333, "bike_id": "ceb3e36391c47629fabf79d38b15032d", "rental_uris": {"android": "https://dc.lft.to/lastmile_qr_scan", "ios": "https://dc.lft.to/lastmile_qr_scan"}, "name": "ceb3e36391c47629fabf79d38b15032d", "is_reserved": 0}, {"is_disabled": 0, "fusion_lon": 0.0, "fusion_lat": 0.0, "lat": 38.923682166666666, "type": "electric_scooter", "lon": -77.028015, "bike_id": "4d3457f78eb97b51e59177116e2d5698", "rental_uris": {"android": "https://dc.lft.to/lastmile_qr_scan", "ios": "https://dc.lft.to/lastmile_qr_scan"}, "name": "4d3457f78eb97b51e59177116e2d5698", "is_reserved": 0}, {"is_disabled": 0, "fusion_lon": 0.0, "fusion_lat": 0.0, "lat": 38.91337133333333, "type": "electric_scooter", "lon": -77.0324755, "bike_id": "070809e56bd36e7b398281281cf93717", "rental_uris": {"android": "https://dc.lft.to/lastmile_qr_scan", "ios": "https://dc.lft.to/lastmile_qr_scan"}, "name": "070809e56bd36e7b398281281cf93717", "is_reserved": 0}, {"is_disabled": 0, "fusion_lon": 0.0, "fusion_lat": 0.0, "lat": 38.93489266666667, "type": "electric_scooter", "lon": -77.024156, "bike_id": "adfbb11ebd9bcd59f15a902081eb371b", "rental_uris": {"android": "https://dc.lft.to/lastmile_qr_scan", "ios": "https://dc.lft.to/lastmile_qr_scan"}, "name": "adfbb11ebd9bcd59f15a902081eb371b", "is_reserved": 0}, {"is_disabled": 0, "fusion_lon": 0.0, "fusion_lat": 0.0, "lat": 38.903779166666666, "type": "electric_scooter", "lon": -77.05025033333334, "bike_id": "65a51db51d96627798ddb0aa1971f354", "rental_uris": {"android": "https://dc.lft.to/lastmile_qr_scan", "ios": "https://dc.lft.to/lastmile_qr_scan"}, "name": "65a51db51d96627798ddb0aa1971f354", "is_reserved": 0}, {"is_disabled": 0, "fusion_lon": 0.0, "fusion_lat": 0.0, "lat": 38.89188016666667, "type": "electric_scooter", "lon": -76.9883365, "bike_id": "c8d05be0619e9bc5ecb551ec8619604a", "rental_uris": {"android": "https://dc.lft.to/lastmile_qr_scan", "ios": "https://dc.lft.to/lastmile_qr_scan"}, "name": "c8d05be0619e9bc5ecb551ec8619604a", "is_reserved": 0}, {"is_disabled": 0, "fusion_lon": 0.0, "fusion_lat": 0.0, "lat": 38.9019865, "type": "electric_scooter", "lon": -77.02372933333334, "bike_id": "d884a9fdf2808cf11a14a8365d9528af", "rental_uris": {"android": "https://dc.lft.to/lastmile_qr_scan", "ios": "https://dc.lft.to/lastmile_qr_scan"}, "name": "d884a9fdf2808cf11a14a8365d9528af", "is_reserved": 0}, {"is_disabled": 0, "fusion_lon": 0.0, "fusion_lat": 0.0, "lat": 38.9053725, "type": "electric_scooter", "lon": -77.04752966666666, "bike_id": "eee9913165c874bee4f128d42b9409e5", "rental_uris": {"android": "https://dc.lft.to/lastmile_qr_scan", "ios": "https://dc.lft.to/lastmile_qr_scan"}, "name": "eee9913165c874bee4f128d42b9409e5", "is_reserved": 0}, {"is_disabled": 0, "fusion_lon": 0.0, "fusion_lat": 0.0, "lat": 38.905608666666666, "type": "electric_scooter", "lon": -77.03340466666667, "bike_id": "eb4566e84f5f9d51d487eea89d540c9d", "rental_uris": {"android": "https://dc.lft.to/lastmile_qr_scan", "ios": "https://dc.lft.to/lastmile_qr_scan"}, "name": "eb4566e84f5f9d51d487eea89d540c9d", "is_reserved": 0}, {"is_disabled": 0, "fusion_lon": 0.0, "fusion_lat": 0.0, "lat": 38.988212833333336, "type": "electric_bike", "lon": -77.0264995, "bike_id": "bd0aa66240c665ffe1ce8f72d1ef7fb0", "rental_uris": {"android": "https://dc.lft.to/lastmile_qr_scan", "ios": "https://dc.lft.to/lastmile_qr_scan"}, "name": "bd0aa66240c665ffe1ce8f72d1ef7fb0", "is_reserved": 0}, {"is_disabled": 0, "fusion_lon": 0.0, "fusion_lat": 0.0, "lat": 38.9531315, "type": "electric_scooter", "lon": -77.03598316666667, "bike_id": "a273cf5005a8901b059f3033479994c9", "rental_uris": {"android": "https://dc.lft.to/lastmile_qr_scan", "ios": "https://dc.lft.to/lastmile_qr_scan"}, "name": "a273cf5005a8901b059f3033479994c9", "is_reserved": 0}, {"is_disabled": 0, "fusion_lon": 0.0, "fusion_lat": 0.0, "lat": 38.9084555, "type": "electric_scooter", "lon": -77.02388233333333, "bike_id": "3fc786366fabb98b70bf24ff12b22920", "rental_uris": {"android": "https://dc.lft.to/lastmile_qr_scan", "ios": "https://dc.lft.to/lastmile_qr_scan"}, "name": "3fc786366fabb98b70bf24ff12b22920", "is_reserved": 0}, {"is_disabled": 0, "fusion_lon": 0.0, "fusion_lat": 0.0, "lat": 38.8315435, "type": "electric_bike", "lon": -76.99692433333334, "bike_id": "cef8970b1da7db122124dc1fa7e7efd3", "rental_uris": {"android": "https://dc.lft.to/lastmile_qr_scan", "ios": "https://dc.lft.to/lastmile_qr_scan"}, "name": "cef8970b1da7db122124dc1fa7e7efd3", "is_reserved": 0}, {"is_disabled": 0, "fusion_lon": 0.0, "fusion_lat": 0.0, "lat": 38.897952833333335, "type": "electric_scooter", "lon": -76.930538, "bike_id": "4c5db96a4205cbe52cce991036b2b17e", "rental_uris": {"android": "https://dc.lft.to/lastmile_qr_scan", "ios": "https://dc.lft.to/lastmile_qr_scan"}, "name": "4c5db96a4205cbe52cce991036b2b17e", "is_reserved": 0}, {"is_disabled": 0, "fusion_lon": 0.0, "fusion_lat": 0.0, "lat": 38.911045666666666, "type": "electric_scooter", "lon": -77.00214316666667, "bike_id": "4953dec6e064b14c1ed5f6cc4589545f", "rental_uris": {"android": "https://dc.lft.to/lastmile_qr_scan", "ios": "https://dc.lft.to/lastmile_qr_scan"}, "name": "4953dec6e064b14c1ed5f6cc4589545f", "is_reserved": 0}, {"is_disabled": 0, "fusion_lon": 0.0, "fusion_lat": 0.0, "lat": 38.94984933333333, "type": "electric_scooter", "lon": -77.02701683333333, "bike_id": "c16dfd3f0f87a5fcf85dc84eeeec569d", "rental_uris": {"android": "https://dc.lft.to/lastmile_qr_scan", "ios": "https://dc.lft.to/lastmile_qr_scan"}, "name": "c16dfd3f0f87a5fcf85dc84eeeec569d", "is_reserved": 0}, {"is_disabled": 0, "fusion_lon": 0.0, "fusion_lat": 0.0, "lat": 38.93705033333333, "type": "electric_scooter", "lon": -77.055974, "bike_id": "78341d9d3ecea89b200f237e62e91087", "rental_uris": {"android": "https://dc.lft.to/lastmile_qr_scan", "ios": "https://dc.lft.to/lastmile_qr_scan"}, "name": "78341d9d3ecea89b200f237e62e91087", "is_reserved": 0}, {"is_disabled": 0, "fusion_lon": 0.0, "fusion_lat": 0.0, "lat": 38.886883, "type": "electric_scooter", "lon": -76.98795033333333, "bike_id": "c2c1c9dbebf2c93735fc31c11f38dc10", "rental_uris": {"android": "https://dc.lft.to/lastmile_qr_scan", "ios": "https://dc.lft.to/lastmile_qr_scan"}, "name": "c2c1c9dbebf2c93735fc31c11f38dc10", "is_reserved": 0}, {"is_disabled": 0, "fusion_lon": 0.0, "fusion_lat": 0.0, "lat": 38.856482166666666, "type": "electric_bike", "lon": -77.08527383333333, "bike_id": "5af4a8eecb4558cb251d57af840a5854", "rental_uris": {"android": "https://dc.lft.to/lastmile_qr_scan", "ios": "https://dc.lft.to/lastmile_qr_scan"}, "name": "5af4a8eecb4558cb251d57af840a5854", "is_reserved": 0}, {"is_disabled": 0, "fusion_lon": 0.0, "fusion_lat": 0.0, "lat": 38.87061883333333, "type": "electric_scooter", "lon": -76.98087133333334, "bike_id": "f04dbd2102678a075b3f0ccfcfd25b7a", "rental_uris": {"android": "https://dc.lft.to/lastmile_qr_scan", "ios": "https://dc.lft.to/lastmile_qr_scan"}, "name": "f04dbd2102678a075b3f0ccfcfd25b7a", "is_reserved": 0}, {"is_disabled": 0, "fusion_lon": 0.0, "fusion_lat": 0.0, "lat": 38.849304833333335, "type": "electric_bike", "lon": -77.10016233333333, "bike_id": "be5b26ca47c14b20c7671298492ce7c8", "rental_uris": {"android": "https://dc.lft.to/lastmile_qr_scan", "ios": "https://dc.lft.to/lastmile_qr_scan"}, "name": "be5b26ca47c14b20c7671298492ce7c8", "is_reserved": 0}, {"is_disabled": 0, "fusion_lon": 0.0, "fusion_lat": 0.0, "lat": 38.91718616666667, "type": "electric_scooter", "lon": -77.04155483333334, "bike_id": "e973f095d01e7fc7d16aa64382d6ef6b", "rental_uris": {"android": "https://dc.lft.to/lastmile_qr_scan", "ios": "https://dc.lft.to/lastmile_qr_scan"}, "name": "e973f095d01e7fc7d16aa64382d6ef6b", "is_reserved": 0}, {"is_disabled": 0, "fusion_lon": 0.0, "fusion_lat": 0.0, "lat": 38.9564, "type": "electric_scooter", "lon": -77.09097933333334, "bike_id": "c144b1f2096cd0a534b6545b051ec582", "rental_uris": {"android": "https://dc.lft.to/lastmile_qr_scan", "ios": "https://dc.lft.to/lastmile_qr_scan"}, "name": "c144b1f2096cd0a534b6545b051ec582", "is_reserved": 0}, {"is_disabled": 0, "fusion_lon": 0.0, "fusion_lat": 0.0, "lat": 38.9236185, "type": "electric_scooter", "lon": -77.050281, "bike_id": "786088526ee7b193ffef29029335e325", "rental_uris": {"android": "https://dc.lft.to/lastmile_qr_scan", "ios": "https://dc.lft.to/lastmile_qr_scan"}, "name": "786088526ee7b193ffef29029335e325", "is_reserved": 0}, {"is_disabled": 0, "fusion_lon": 0.0, "fusion_lat": 0.0, "lat": 38.89632183333333, "type": "electric_scooter", "lon": -77.02132066666667, "bike_id": "df6f657786499c1e3adc63cf4baa27ff", "rental_uris": {"android": "https://dc.lft.to/lastmile_qr_scan", "ios": "https://dc.lft.to/lastmile_qr_scan"}, "name": "df6f657786499c1e3adc63cf4baa27ff", "is_reserved": 0}, {"is_disabled": 0, "fusion_lon": 0.0, "fusion_lat": 0.0, "lat": 38.91712733333333, "type": "electric_scooter", "lon": -77.03123616666667, "bike_id": "e281a8f730791ed693a812bac429065b", "rental_uris": {"android": "https://dc.lft.to/lastmile_qr_scan", "ios": "https://dc.lft.to/lastmile_qr_scan"}, "name": "e281a8f730791ed693a812bac429065b", "is_reserved": 0}, {"is_disabled": 0, "fusion_lon": 0.0, "fusion_lat": 0.0, "lat": 38.916949, "type": "electric_scooter", "lon": -77.01167483333333, "bike_id": "399cb92678d45db8c5f44350ed94a3a2", "rental_uris": {"android": "https://dc.lft.to/lastmile_qr_scan", "ios": "https://dc.lft.to/lastmile_qr_scan"}, "name": "399cb92678d45db8c5f44350ed94a3a2", "is_reserved": 0}, {"is_disabled": 0, "fusion_lon": 0.0, "fusion_lat": 0.0, "lat": 38.90754916666667, "type": "electric_scooter", "lon": -77.00095233333333, "bike_id": "dc29dd569823f8596f32c50d2daed893", "rental_uris": {"android": "https://dc.lft.to/lastmile_qr_scan", "ios": "https://dc.lft.to/lastmile_qr_scan"}, "name": "dc29dd569823f8596f32c50d2daed893", "is_reserved": 0}, {"is_disabled": 0, "fusion_lon": 0.0, "fusion_lat": 0.0, "lat": 38.886113333333334, "type": "electric_scooter", "lon": -77.00571033333334, "bike_id": "fa8d822b392d4e85718ab68713e861ca", "rental_uris": {"android": "https://dc.lft.to/lastmile_qr_scan", "ios": "https://dc.lft.to/lastmile_qr_scan"}, "name": "fa8d822b392d4e85718ab68713e861ca", "is_reserved": 0}, {"is_disabled": 0, "fusion_lon": 0.0, "fusion_lat": 0.0, "lat": 38.917086, "type": "electric_scooter", "lon": -77.02617983333333, "bike_id": "cd1431a5e4e0b24b838f3ceed55faa11", "rental_uris": {"android": "https://dc.lft.to/lastmile_qr_scan", "ios": "https://dc.lft.to/lastmile_qr_scan"}, "name": "cd1431a5e4e0b24b838f3ceed55faa11", "is_reserved": 0}, {"is_disabled": 0, "fusion_lon": 0.0, "fusion_lat": 0.0, "lat": 38.907939166666665, "type": "electric_scooter", "lon": -77.0015065, "bike_id": "24566dc3354abf3d968f6e02b96e295d", "rental_uris": {"android": "https://dc.lft.to/lastmile_qr_scan", "ios": "https://dc.lft.to/lastmile_qr_scan"}, "name": "24566dc3354abf3d968f6e02b96e295d", "is_reserved": 0}, {"is_disabled": 0, "fusion_lon": 0.0, "fusion_lat": 0.0, "lat": 38.907046, "type": "electric_scooter", "lon": -77.06307283333334, "bike_id": "98b9e7d5d4d8ec02289043a2feed1c11", "rental_uris": {"android": "https://dc.lft.to/lastmile_qr_scan", "ios": "https://dc.lft.to/lastmile_qr_scan"}, "name": "98b9e7d5d4d8ec02289043a2feed1c11", "is_reserved": 0}, {"is_disabled": 0, "fusion_lon": 0.0, "fusion_lat": 0.0, "lat": 38.905861333333334, "type": "electric_scooter", "lon": -77.06916366666667, "bike_id": "dde58b27622a038a4aad34d05610479a", "rental_uris": {"android": "https://dc.lft.to/lastmile_qr_scan", "ios": "https://dc.lft.to/lastmile_qr_scan"}, "name": "dde58b27622a038a4aad34d05610479a", "is_reserved": 0}, {"is_disabled": 0, "fusion_lon": 0.0, "fusion_lat": 0.0, "lat": 38.956118333333336, "type": "electric_scooter", "lon": -77.02761716666667, "bike_id": "75729013a1ebfe06de55e224ef1bd724", "rental_uris": {"android": "https://dc.lft.to/lastmile_qr_scan", "ios": "https://dc.lft.to/lastmile_qr_scan"}, "name": "75729013a1ebfe06de55e224ef1bd724", "is_reserved": 0}, {"is_disabled": 0, "fusion_lon": 0.0, "fusion_lat": 0.0, "lat": 38.91970833333333, "type": "electric_scooter", "lon": -77.04173366666667, "bike_id": "ddee6c5210cbcf733f0ca81c3b09ab3e", "rental_uris": {"android": "https://dc.lft.to/lastmile_qr_scan", "ios": "https://dc.lft.to/lastmile_qr_scan"}, "name": "ddee6c5210cbcf733f0ca81c3b09ab3e", "is_reserved": 0}, {"is_disabled": 0, "fusion_lon": 0.0, "fusion_lat": 0.0, "lat": 38.91306566666667, "type": "electric_scooter", "lon": -77.031969, "bike_id": "b822fd67b0358a3bb0d02a13e65c915c", "rental_uris": {"android": "https://dc.lft.to/lastmile_qr_scan", "ios": "https://dc.lft.to/lastmile_qr_scan"}, "name": "b822fd67b0358a3bb0d02a13e65c915c", "is_reserved": 0}, {"is_disabled": 0, "fusion_lon": 0.0, "fusion_lat": 0.0, "lat": 38.90014866666667, "type": "electric_scooter", "lon": -77.0338405, "bike_id": "85b37a88b417b14484b313d3750d7d44", "rental_uris": {"android": "https://dc.lft.to/lastmile_qr_scan", "ios": "https://dc.lft.to/lastmile_qr_scan"}, "name": "85b37a88b417b14484b313d3750d7d44", "is_reserved": 0}, {"is_disabled": 0, "fusion_lon": 0.0, "fusion_lat": 0.0, "lat": 38.9243755, "type": "electric_bike", "lon": -76.9075935, "bike_id": "19f4d69e97dc48dcf00352724a1c30e5", "rental_uris": {"android": "https://dc.lft.to/lastmile_qr_scan", "ios": "https://dc.lft.to/lastmile_qr_scan"}, "name": "19f4d69e97dc48dcf00352724a1c30e5", "is_reserved": 0}, {"is_disabled": 0, "fusion_lon": 0.0, "fusion_lat": 0.0, "lat": 38.88916433333333, "type": "electric_scooter", "lon": -76.9800185, "bike_id": "a1be01fc63c1818d29ec4953e03e873f", "rental_uris": {"android": "https://dc.lft.to/lastmile_qr_scan", "ios": "https://dc.lft.to/lastmile_qr_scan"}, "name": "a1be01fc63c1818d29ec4953e03e873f", "is_reserved": 0}, {"is_disabled": 0, "fusion_lon": 0.0, "fusion_lat": 0.0, "lat": 38.924408, "type": "electric_scooter", "lon": -77.02603233333333, "bike_id": "54f043fbe6a29b40ed9958dc26e21092", "rental_uris": {"android": "https://dc.lft.to/lastmile_qr_scan", "ios": "https://dc.lft.to/lastmile_qr_scan"}, "name": "54f043fbe6a29b40ed9958dc26e21092", "is_reserved": 0}, {"is_disabled": 0, "fusion_lon": 0.0, "fusion_lat": 0.0, "lat": 38.92770816666667, "type": "electric_scooter", "lon": -77.02776016666667, "bike_id": "35db43be0dad1f25eb272e484bbcd190", "rental_uris": {"android": "https://dc.lft.to/lastmile_qr_scan", "ios": "https://dc.lft.to/lastmile_qr_scan"}, "name": "35db43be0dad1f25eb272e484bbcd190", "is_reserved": 0}, {"is_disabled": 0, "fusion_lon": 0.0, "fusion_lat": 0.0, "lat": 38.9182135, "type": "electric_scooter", "lon": -77.03121916666667, "bike_id": "50682fe361115d897a9830e937165c87", "rental_uris": {"android": "https://dc.lft.to/lastmile_qr_scan", "ios": "https://dc.lft.to/lastmile_qr_scan"}, "name": "50682fe361115d897a9830e937165c87", "is_reserved": 0}, {"is_disabled": 0, "fusion_lon": 0.0, "fusion_lat": 0.0, "lat": 38.86243, "type": "electric_scooter", "lon": -76.994837, "bike_id": "adca689934336f9fe73bfbba0d65bd25", "rental_uris": {"android": "https://dc.lft.to/lastmile_qr_scan", "ios": "https://dc.lft.to/lastmile_qr_scan"}, "name": "adca689934336f9fe73bfbba0d65bd25", "is_reserved": 0}, {"is_disabled": 0, "fusion_lon": 0.0, "fusion_lat": 0.0, "lat": 38.92359616666667, "type": "electric_scooter", "lon": -77.05037816666666, "bike_id": "01c471ba76b325e13a03307556ff9dfa", "rental_uris": {"android": "https://dc.lft.to/lastmile_qr_scan", "ios": "https://dc.lft.to/lastmile_qr_scan"}, "name": "01c471ba76b325e13a03307556ff9dfa", "is_reserved": 0}, {"is_disabled": 0, "fusion_lon": 0.0, "fusion_lat": 0.0, "lat": 38.90950866666667, "type": "electric_scooter", "lon": -77.02180566666667, "bike_id": "74e87f002bca5943501e3ae8addd2931", "rental_uris": {"android": "https://dc.lft.to/lastmile_qr_scan", "ios": "https://dc.lft.to/lastmile_qr_scan"}, "name": "74e87f002bca5943501e3ae8addd2931", "is_reserved": 0}, {"is_disabled": 0, "fusion_lon": 0.0, "fusion_lat": 0.0, "lat": 38.900784333333334, "type": "electric_scooter", "lon": -77.043448, "bike_id": "bc33ff4c0f8d6c1302fc7f7e43a769a3", "rental_uris": {"android": "https://dc.lft.to/lastmile_qr_scan", "ios": "https://dc.lft.to/lastmile_qr_scan"}, "name": "bc33ff4c0f8d6c1302fc7f7e43a769a3", "is_reserved": 0}, {"is_disabled": 0, "fusion_lon": 0.0, "fusion_lat": 0.0, "lat": 38.96733666666667, "type": "electric_scooter", "lon": -77.02762016666667, "bike_id": "fb33945115a640a0af3feeb971ff956d", "rental_uris": {"android": "https://dc.lft.to/lastmile_qr_scan", "ios": "https://dc.lft.to/lastmile_qr_scan"}, "name": "fb33945115a640a0af3feeb971ff956d", "is_reserved": 0}, {"is_disabled": 0, "fusion_lon": 0.0, "fusion_lat": 0.0, "lat": 38.88353433333333, "type": "electric_scooter", "lon": -77.02497683333333, "bike_id": "6ed895eecb7caca589114d593383c15e", "rental_uris": {"android": "https://dc.lft.to/lastmile_qr_scan", "ios": "https://dc.lft.to/lastmile_qr_scan"}, "name": "6ed895eecb7caca589114d593383c15e", "is_reserved": 0}, {"is_disabled": 0, "fusion_lon": 0.0, "fusion_lat": 0.0, "lat": 38.84619583333333, "type": "electric_scooter", "lon": -76.99628683333333, "bike_id": "88085290f3ec4d43127275616e01ee67", "rental_uris": {"android": "https://dc.lft.to/lastmile_qr_scan", "ios": "https://dc.lft.to/lastmile_qr_scan"}, "name": "88085290f3ec4d43127275616e01ee67", "is_reserved": 0}, {"is_disabled": 0, "fusion_lon": 0.0, "fusion_lat": 0.0, "lat": 38.9048195, "type": "electric_scooter", "lon": -77.048701, "bike_id": "81ed69d66cfdebe52bc7c52e31b4dcc8", "rental_uris": {"android": "https://dc.lft.to/lastmile_qr_scan", "ios": "https://dc.lft.to/lastmile_qr_scan"}, "name": "81ed69d66cfdebe52bc7c52e31b4dcc8", "is_reserved": 0}, {"is_disabled": 0, "fusion_lon": 0.0, "fusion_lat": 0.0, "lat": 38.973727, "type": "electric_scooter", "lon": -77.018539, "bike_id": "66a3c960d0dbd8529a6b600fa47a5ecb", "rental_uris": {"android": "https://dc.lft.to/lastmile_qr_scan", "ios": "https://dc.lft.to/lastmile_qr_scan"}, "name": "66a3c960d0dbd8529a6b600fa47a5ecb", "is_reserved": 0}, {"is_disabled": 0, "fusion_lon": 0.0, "fusion_lat": 0.0, "lat": 38.909721166666664, "type": "electric_scooter", "lon": -77.0482985, "bike_id": "33aa06196186b6581d0b4b59287b8e36", "rental_uris": {"android": "https://dc.lft.to/lastmile_qr_scan", "ios": "https://dc.lft.to/lastmile_qr_scan"}, "name": "33aa06196186b6581d0b4b59287b8e36", "is_reserved": 0}, {"is_disabled": 0, "fusion_lon": 0.0, "fusion_lat": 0.0, "lat": 38.919862333333334, "type": "electric_scooter", "lon": -76.97315633333334, "bike_id": "80fbb08f0f4bc59db6222b9efcb6a403", "rental_uris": {"android": "https://dc.lft.to/lastmile_qr_scan", "ios": "https://dc.lft.to/lastmile_qr_scan"}, "name": "80fbb08f0f4bc59db6222b9efcb6a403", "is_reserved": 0}, {"is_disabled": 0, "fusion_lon": 0.0, "fusion_lat": 0.0, "lat": 38.9420065, "type": "electric_scooter", "lon": -77.025753, "bike_id": "e26e35c3082378eb3eac377e6b823dbc", "rental_uris": {"android": "https://dc.lft.to/lastmile_qr_scan", "ios": "https://dc.lft.to/lastmile_qr_scan"}, "name": "e26e35c3082378eb3eac377e6b823dbc", "is_reserved": 0}, {"is_disabled": 0, "fusion_lon": 0.0, "fusion_lat": 0.0, "lat": 38.89239, "type": "electric_scooter", "lon": -77.04673016666666, "bike_id": "487f71ac8571a5ac88d8f47abb90328b", "rental_uris": {"android": "https://dc.lft.to/lastmile_qr_scan", "ios": "https://dc.lft.to/lastmile_qr_scan"}, "name": "487f71ac8571a5ac88d8f47abb90328b", "is_reserved": 0}, {"is_disabled": 0, "fusion_lon": 0.0, "fusion_lat": 0.0, "lat": 38.94978616666667, "type": "electric_scooter", "lon": -77.06757033333334, "bike_id": "3119a7b0e8f4b8ffe2789393b7d9dbb9", "rental_uris": {"android": "https://dc.lft.to/lastmile_qr_scan", "ios": "https://dc.lft.to/lastmile_qr_scan"}, "name": "3119a7b0e8f4b8ffe2789393b7d9dbb9", "is_reserved": 0}, {"is_disabled": 0, "fusion_lon": 0.0, "fusion_lat": 0.0, "lat": 38.9999935, "type": "electric_bike", "lon": -76.91805283333333, "bike_id": "8639d272d76bb56bdd35010d4f0d506e", "rental_uris": {"android": "https://dc.lft.to/lastmile_qr_scan", "ios": "https://dc.lft.to/lastmile_qr_scan"}, "name": "8639d272d76bb56bdd35010d4f0d506e", "is_reserved": 0}, {"is_disabled": 0, "fusion_lon": 0.0, "fusion_lat": 0.0, "lat": 38.935338, "type": "electric_scooter", "lon": -77.0206715, "bike_id": "9d8b607ca5a44612129eb8d911f8ef4a", "rental_uris": {"android": "https://dc.lft.to/lastmile_qr_scan", "ios": "https://dc.lft.to/lastmile_qr_scan"}, "name": "9d8b607ca5a44612129eb8d911f8ef4a", "is_reserved": 0}, {"is_disabled": 0, "fusion_lon": 0.0, "fusion_lat": 0.0, "lat": 38.925718, "type": "electric_scooter", "lon": -77.02292733333333, "bike_id": "fedade11bfa015b75d7de96784cb40ed", "rental_uris": {"android": "https://dc.lft.to/lastmile_qr_scan", "ios": "https://dc.lft.to/lastmile_qr_scan"}, "name": "fedade11bfa015b75d7de96784cb40ed", "is_reserved": 0}, {"is_disabled": 0, "fusion_lon": 0.0, "fusion_lat": 0.0, "lat": 38.92524983333333, "type": "electric_scooter", "lon": -77.07329833333333, "bike_id": "a6f3d9a36e566b2f33768862424293c1", "rental_uris": {"android": "https://dc.lft.to/lastmile_qr_scan", "ios": "https://dc.lft.to/lastmile_qr_scan"}, "name": "a6f3d9a36e566b2f33768862424293c1", "is_reserved": 0}, {"is_disabled": 0, "fusion_lon": 0.0, "fusion_lat": 0.0, "lat": 38.896612166666664, "type": "electric_scooter", "lon": -77.04341, "bike_id": "9b8ea525b7891108d0f8a80b3f1b266c", "rental_uris": {"android": "https://dc.lft.to/lastmile_qr_scan", "ios": "https://dc.lft.to/lastmile_qr_scan"}, "name": "9b8ea525b7891108d0f8a80b3f1b266c", "is_reserved": 0}, {"is_disabled": 0, "fusion_lon": 0.0, "fusion_lat": 0.0, "lat": 38.8978625, "type": "electric_scooter", "lon": -77.02476633333333, "bike_id": "3ad07d9e2bb2d37f52211123a1ae8638", "rental_uris": {"android": "https://dc.lft.to/lastmile_qr_scan", "ios": "https://dc.lft.to/lastmile_qr_scan"}, "name": "3ad07d9e2bb2d37f52211123a1ae8638", "is_reserved": 0}, {"is_disabled": 0, "fusion_lon": 0.0, "fusion_lat": 0.0, "lat": 38.91815666666667, "type": "electric_scooter", "lon": -77.0380745, "bike_id": "6bdd4dd8f4d7b2d0ae1862f796fd95cc", "rental_uris": {"android": "https://dc.lft.to/lastmile_qr_scan", "ios": "https://dc.lft.to/lastmile_qr_scan"}, "name": "6bdd4dd8f4d7b2d0ae1862f796fd95cc", "is_reserved": 0}, {"is_disabled": 0, "fusion_lon": 0.0, "fusion_lat": 0.0, "lat": 38.94179833333333, "type": "electric_scooter", "lon": -77.0365285, "bike_id": "467b53a08f92fe51497566c15bfedbc3", "rental_uris": {"android": "https://dc.lft.to/lastmile_qr_scan", "ios": "https://dc.lft.to/lastmile_qr_scan"}, "name": "467b53a08f92fe51497566c15bfedbc3", "is_reserved": 0}, {"is_disabled": 0, "fusion_lon": 0.0, "fusion_lat": 0.0, "lat": 38.956442333333335, "type": "electric_scooter", "lon": -77.01496666666667, "bike_id": "9ef714f0f059ba7c675ef85ba3122463", "rental_uris": {"android": "https://dc.lft.to/lastmile_qr_scan", "ios": "https://dc.lft.to/lastmile_qr_scan"}, "name": "9ef714f0f059ba7c675ef85ba3122463", "is_reserved": 0}, {"is_disabled": 0, "fusion_lon": 0.0, "fusion_lat": 0.0, "lat": 38.957463, "type": "electric_scooter", "lon": -77.02430483333333, "bike_id": "7f214c421bd785d361527a82ee0c04bb", "rental_uris": {"android": "https://dc.lft.to/lastmile_qr_scan", "ios": "https://dc.lft.to/lastmile_qr_scan"}, "name": "7f214c421bd785d361527a82ee0c04bb", "is_reserved": 0}, {"is_disabled": 0, "fusion_lon": 0.0, "fusion_lat": 0.0, "lat": 38.91079966666667, "type": "electric_scooter", "lon": -77.06791383333334, "bike_id": "738b0f11c76af17d9cfd0852329cd3f1", "rental_uris": {"android": "https://dc.lft.to/lastmile_qr_scan", "ios": "https://dc.lft.to/lastmile_qr_scan"}, "name": "738b0f11c76af17d9cfd0852329cd3f1", "is_reserved": 0}, {"is_disabled": 0, "fusion_lon": 0.0, "fusion_lat": 0.0, "lat": 38.929081, "type": "electric_scooter", "lon": -77.031723, "bike_id": "62e5f6d4c0d2bc67f1a0bbd21011dece", "rental_uris": {"android": "https://dc.lft.to/lastmile_qr_scan", "ios": "https://dc.lft.to/lastmile_qr_scan"}, "name": "62e5f6d4c0d2bc67f1a0bbd21011dece", "is_reserved": 0}, {"is_disabled": 0, "fusion_lon": 0.0, "fusion_lat": 0.0, "lat": 38.91335766666667, "type": "electric_scooter", "lon": -77.048682, "bike_id": "9d1dff6576a13e470c0cd2b7ac988444", "rental_uris": {"android": "https://dc.lft.to/lastmile_qr_scan", "ios": "https://dc.lft.to/lastmile_qr_scan"}, "name": "9d1dff6576a13e470c0cd2b7ac988444", "is_reserved": 0}, {"is_disabled": 0, "fusion_lon": 0.0, "fusion_lat": 0.0, "lat": 38.828742166666665, "type": "electric_bike", "lon": -77.11222133333334, "bike_id": "1e90b23122086353b62c1405684c5f6d", "rental_uris": {"android": "https://dc.lft.to/lastmile_qr_scan", "ios": "https://dc.lft.to/lastmile_qr_scan"}, "name": "1e90b23122086353b62c1405684c5f6d", "is_reserved": 0}, {"is_disabled": 0, "fusion_lon": 0.0, "fusion_lat": 0.0, "lat": 38.83193466666667, "type": "electric_bike", "lon": -77.07685216666667, "bike_id": "9a4bda992622ad08325fd12131d80e1c", "rental_uris": {"android": "https://dc.lft.to/lastmile_qr_scan", "ios": "https://dc.lft.to/lastmile_qr_scan"}, "name": "9a4bda992622ad08325fd12131d80e1c", "is_reserved": 0}, {"is_disabled": 0, "fusion_lon": 0.0, "fusion_lat": 0.0, "lat": 38.95555683333333, "type": "electric_bike", "lon": -76.93543266666667, "bike_id": "c7e4392de14bbcf52360fd89c38dbaff", "rental_uris": {"android": "https://dc.lft.to/lastmile_qr_scan", "ios": "https://dc.lft.to/lastmile_qr_scan"}, "name": "c7e4392de14bbcf52360fd89c38dbaff", "is_reserved": 0}, {"is_disabled": 0, "fusion_lon": 0.0, "fusion_lat": 0.0, "lat": 38.833195, "type": "electric_scooter", "lon": -77.000078, "bike_id": "77824c015149f5b7805bb615c987bc2f", "rental_uris": {"android": "https://dc.lft.to/lastmile_qr_scan", "ios": "https://dc.lft.to/lastmile_qr_scan"}, "name": "77824c015149f5b7805bb615c987bc2f", "is_reserved": 0}, {"is_disabled": 0, "fusion_lon": 0.0, "fusion_lat": 0.0, "lat": 38.925911, "type": "electric_scooter", "lon": -77.05528266666667, "bike_id": "6760fec67f65dd0149f48598a2bebef8", "rental_uris": {"android": "https://dc.lft.to/lastmile_qr_scan", "ios": "https://dc.lft.to/lastmile_qr_scan"}, "name": "6760fec67f65dd0149f48598a2bebef8", "is_reserved": 0}, {"is_disabled": 0, "fusion_lon": 0.0, "fusion_lat": 0.0, "lat": 38.91704216666667, "type": "electric_scooter", "lon": -77.02437233333333, "bike_id": "d366b354e0d9d75294ecd6c3a23b20a2", "rental_uris": {"android": "https://dc.lft.to/lastmile_qr_scan", "ios": "https://dc.lft.to/lastmile_qr_scan"}, "name": "d366b354e0d9d75294ecd6c3a23b20a2", "is_reserved": 0}, {"is_disabled": 0, "fusion_lon": 0.0, "fusion_lat": 0.0, "lat": 38.88678516666667, "type": "electric_scooter", "lon": -77.00195016666666, "bike_id": "7fe1090878da3657fc436fcda3141b2f", "rental_uris": {"android": "https://dc.lft.to/lastmile_qr_scan", "ios": "https://dc.lft.to/lastmile_qr_scan"}, "name": "7fe1090878da3657fc436fcda3141b2f", "is_reserved": 0}, {"is_disabled": 0, "fusion_lon": 0.0, "fusion_lat": 0.0, "lat": 38.91556666666666, "type": "electric_scooter", "lon": -77.03801383333334, "bike_id": "1f29f15088fdd5ee2b95633d3c6f3309", "rental_uris": {"android": "https://dc.lft.to/lastmile_qr_scan", "ios": "https://dc.lft.to/lastmile_qr_scan"}, "name": "1f29f15088fdd5ee2b95633d3c6f3309", "is_reserved": 0}, {"is_disabled": 0, "fusion_lon": 0.0, "fusion_lat": 0.0, "lat": 38.87478816666667, "type": "electric_scooter", "lon": -77.01070983333334, "bike_id": "96a93a767006c619f0312a1e62157f21", "rental_uris": {"android": "https://dc.lft.to/lastmile_qr_scan", "ios": "https://dc.lft.to/lastmile_qr_scan"}, "name": "96a93a767006c619f0312a1e62157f21", "is_reserved": 0}, {"is_disabled": 0, "fusion_lon": 0.0, "fusion_lat": 0.0, "lat": 38.95180216666667, "type": "electric_scooter", "lon": -77.05660316666666, "bike_id": "6f1dfb87027d0746a56f7d2ca4a224df", "rental_uris": {"android": "https://dc.lft.to/lastmile_qr_scan", "ios": "https://dc.lft.to/lastmile_qr_scan"}, "name": "6f1dfb87027d0746a56f7d2ca4a224df", "is_reserved": 0}, {"is_disabled": 0, "fusion_lon": 0.0, "fusion_lat": 0.0, "lat": 38.90636333333333, "type": "electric_scooter", "lon": -77.03142316666667, "bike_id": "e35fbb7bbc0e370e23ad0d16db79f19a", "rental_uris": {"android": "https://dc.lft.to/lastmile_qr_scan", "ios": "https://dc.lft.to/lastmile_qr_scan"}, "name": "e35fbb7bbc0e370e23ad0d16db79f19a", "is_reserved": 0}, {"is_disabled": 0, "fusion_lon": 0.0, "fusion_lat": 0.0, "lat": 38.928585166666664, "type": "electric_bike", "lon": -76.989374, "bike_id": "bc7818fe9e6390c1ff43c000620fec84", "rental_uris": {"android": "https://dc.lft.to/lastmile_qr_scan", "ios": "https://dc.lft.to/lastmile_qr_scan"}, "name": "bc7818fe9e6390c1ff43c000620fec84", "is_reserved": 0}, {"is_disabled": 0, "fusion_lon": 0.0, "fusion_lat": 0.0, "lat": 38.903526666666664, "type": "electric_scooter", "lon": -77.03441883333333, "bike_id": "aa510c555dc84274461f6c9d7b9833cd", "rental_uris": {"android": "https://dc.lft.to/lastmile_qr_scan", "ios": "https://dc.lft.to/lastmile_qr_scan"}, "name": "aa510c555dc84274461f6c9d7b9833cd", "is_reserved": 0}, {"is_disabled": 0, "fusion_lon": 0.0, "fusion_lat": 0.0, "lat": 38.9165875, "type": "electric_scooter", "lon": -77.04650266666667, "bike_id": "cb688cf8e30d7e7022f137912d49b52d", "rental_uris": {"android": "https://dc.lft.to/lastmile_qr_scan", "ios": "https://dc.lft.to/lastmile_qr_scan"}, "name": "cb688cf8e30d7e7022f137912d49b52d", "is_reserved": 0}, {"is_disabled": 0, "fusion_lon": 0.0, "fusion_lat": 0.0, "lat": 38.91118733333333, "type": "electric_scooter", "lon": -77.04082, "bike_id": "134548823cfa0f64c45a028ddd35a6eb", "rental_uris": {"android": "https://dc.lft.to/lastmile_qr_scan", "ios": "https://dc.lft.to/lastmile_qr_scan"}, "name": "134548823cfa0f64c45a028ddd35a6eb", "is_reserved": 0}, {"is_disabled": 0, "fusion_lon": 0.0, "fusion_lat": 0.0, "lat": 38.8973395, "type": "electric_bike", "lon": -76.90538183333334, "bike_id": "62656d686eed0e82e0025248a45eee61", "rental_uris": {"android": "https://dc.lft.to/lastmile_qr_scan", "ios": "https://dc.lft.to/lastmile_qr_scan"}, "name": "62656d686eed0e82e0025248a45eee61", "is_reserved": 0}, {"is_disabled": 0, "fusion_lon": 0.0, "fusion_lat": 0.0, "lat": 38.91330216666667, "type": "electric_scooter", "lon": -77.0218905, "bike_id": "ea5ca1b01f63a02c28a29aa2a784b0c0", "rental_uris": {"android": "https://dc.lft.to/lastmile_qr_scan", "ios": "https://dc.lft.to/lastmile_qr_scan"}, "name": "ea5ca1b01f63a02c28a29aa2a784b0c0", "is_reserved": 0}, {"is_disabled": 0, "fusion_lon": 0.0, "fusion_lat": 0.0, "lat": 38.913576166666665, "type": "electric_scooter", "lon": -77.0416245, "bike_id": "664d81054a3ad99a9eb4e8ccaf7bae06", "rental_uris": {"android": "https://dc.lft.to/lastmile_qr_scan", "ios": "https://dc.lft.to/lastmile_qr_scan"}, "name": "664d81054a3ad99a9eb4e8ccaf7bae06", "is_reserved": 0}, {"is_disabled": 0, "fusion_lon": 0.0, "fusion_lat": 0.0, "lat": 39.05206416666667, "type": "electric_bike", "lon": -77.04405416666667, "bike_id": "157b5cb108e59cea8d3ed65d197caddd", "rental_uris": {"android": "https://dc.lft.to/lastmile_qr_scan", "ios": "https://dc.lft.to/lastmile_qr_scan"}, "name": "157b5cb108e59cea8d3ed65d197caddd", "is_reserved": 0}, {"is_disabled": 0, "fusion_lon": 0.0, "fusion_lat": 0.0, "lat": 38.88665616666667, "type": "electric_scooter", "lon": -77.0036565, "bike_id": "be19de6d4b6060f9ecd0957aa590c68a", "rental_uris": {"android": "https://dc.lft.to/lastmile_qr_scan", "ios": "https://dc.lft.to/lastmile_qr_scan"}, "name": "be19de6d4b6060f9ecd0957aa590c68a", "is_reserved": 0}, {"is_disabled": 0, "fusion_lon": 0.0, "fusion_lat": 0.0, "lat": 38.91758883333333, "type": "electric_scooter", "lon": -77.01605766666667, "bike_id": "60900cd5ba3cc1bca3ce68dee5d4bd6e", "rental_uris": {"android": "https://dc.lft.to/lastmile_qr_scan", "ios": "https://dc.lft.to/lastmile_qr_scan"}, "name": "60900cd5ba3cc1bca3ce68dee5d4bd6e", "is_reserved": 0}, {"is_disabled": 0, "fusion_lon": 0.0, "fusion_lat": 0.0, "lat": 38.96818483333333, "type": "electric_scooter", "lon": -77.0088915, "bike_id": "3a750da33c1e9ad4e77e395246253e09", "rental_uris": {"android": "https://dc.lft.to/lastmile_qr_scan", "ios": "https://dc.lft.to/lastmile_qr_scan"}, "name": "3a750da33c1e9ad4e77e395246253e09", "is_reserved": 0}, {"is_disabled": 0, "fusion_lon": 0.0, "fusion_lat": 0.0, "lat": 38.92169233333333, "type": "electric_scooter", "lon": -77.03381566666667, "bike_id": "0a59c0053b42959e8b4f3c437052cb2f", "rental_uris": {"android": "https://dc.lft.to/lastmile_qr_scan", "ios": "https://dc.lft.to/lastmile_qr_scan"}, "name": "0a59c0053b42959e8b4f3c437052cb2f", "is_reserved": 0}, {"is_disabled": 0, "fusion_lon": 0.0, "fusion_lat": 0.0, "lat": 38.90242416666667, "type": "electric_scooter", "lon": -77.05340983333333, "bike_id": "f7b1a11cd0b6af8394befee493cb51b8", "rental_uris": {"android": "https://dc.lft.to/lastmile_qr_scan", "ios": "https://dc.lft.to/lastmile_qr_scan"}, "name": "f7b1a11cd0b6af8394befee493cb51b8", "is_reserved": 0}, {"is_disabled": 0, "fusion_lon": 0.0, "fusion_lat": 0.0, "lat": 38.89736883333333, "type": "electric_scooter", "lon": -77.02834766666666, "bike_id": "1ed6df61fefcd0b32e7804226809ee04", "rental_uris": {"android": "https://dc.lft.to/lastmile_qr_scan", "ios": "https://dc.lft.to/lastmile_qr_scan"}, "name": "1ed6df61fefcd0b32e7804226809ee04", "is_reserved": 0}, {"is_disabled": 0, "fusion_lon": 0.0, "fusion_lat": 0.0, "lat": 38.894625166666664, "type": "electric_scooter", "lon": -76.99487933333333, "bike_id": "f5aa94eec647ecee484c13d83acc8bc5", "rental_uris": {"android": "https://dc.lft.to/lastmile_qr_scan", "ios": "https://dc.lft.to/lastmile_qr_scan"}, "name": "f5aa94eec647ecee484c13d83acc8bc5", "is_reserved": 0}, {"is_disabled": 0, "fusion_lon": 0.0, "fusion_lat": 0.0, "lat": 38.9030055, "type": "electric_scooter", "lon": -77.0221495, "bike_id": "bb3371a7637129e13fd5dc192f3222d2", "rental_uris": {"android": "https://dc.lft.to/lastmile_qr_scan", "ios": "https://dc.lft.to/lastmile_qr_scan"}, "name": "bb3371a7637129e13fd5dc192f3222d2", "is_reserved": 0}, {"is_disabled": 0, "fusion_lon": 0.0, "fusion_lat": 0.0, "lat": 39.09943283333333, "type": "electric_bike", "lon": -77.18790333333334, "bike_id": "3588ed2c784d64df1c680269da07d247", "rental_uris": {"android": "https://dc.lft.to/lastmile_qr_scan", "ios": "https://dc.lft.to/lastmile_qr_scan"}, "name": "3588ed2c784d64df1c680269da07d247", "is_reserved": 0}, {"is_disabled": 0, "fusion_lon": 0.0, "fusion_lat": 0.0, "lat": 38.907256333333336, "type": "electric_scooter", "lon": -77.02974833333333, "bike_id": "0ae4ded1ae20c12c929d22d84f372873", "rental_uris": {"android": "https://dc.lft.to/lastmile_qr_scan", "ios": "https://dc.lft.to/lastmile_qr_scan"}, "name": "0ae4ded1ae20c12c929d22d84f372873", "is_reserved": 0}, {"is_disabled": 0, "fusion_lon": 0.0, "fusion_lat": 0.0, "lat": 38.935011, "type": "electric_bike", "lon": -76.94955383333334, "bike_id": "74b51955650ecded388111afe15d3701", "rental_uris": {"android": "https://dc.lft.to/lastmile_qr_scan", "ios": "https://dc.lft.to/lastmile_qr_scan"}, "name": "74b51955650ecded388111afe15d3701", "is_reserved": 0}, {"is_disabled": 0, "fusion_lon": 0.0, "fusion_lat": 0.0, "lat": 38.8862835, "type": "electric_scooter", "lon": -76.9985065, "bike_id": "8506feb28065f67bc9221b418807e6b1", "rental_uris": {"android": "https://dc.lft.to/lastmile_qr_scan", "ios": "https://dc.lft.to/lastmile_qr_scan"}, "name": "8506feb28065f67bc9221b418807e6b1", "is_reserved": 0}, {"is_disabled": 0, "fusion_lon": 0.0, "fusion_lat": 0.0, "lat": 38.83814316666667, "type": "electric_scooter", "lon": -77.00428466666666, "bike_id": "b20736000cfcac63f213658bfc40adff", "rental_uris": {"android": "https://dc.lft.to/lastmile_qr_scan", "ios": "https://dc.lft.to/lastmile_qr_scan"}, "name": "b20736000cfcac63f213658bfc40adff", "is_reserved": 0}, {"is_disabled": 0, "fusion_lon": 0.0, "fusion_lat": 0.0, "lat": 38.84291966666667, "type": "electric_scooter", "lon": -76.99945616666666, "bike_id": "706ab352486720854901ef5c689be73f", "rental_uris": {"android": "https://dc.lft.to/lastmile_qr_scan", "ios": "https://dc.lft.to/lastmile_qr_scan"}, "name": "706ab352486720854901ef5c689be73f", "is_reserved": 0}, {"is_disabled": 0, "fusion_lon": 0.0, "fusion_lat": 0.0, "lat": 38.928137666666665, "type": "electric_scooter", "lon": -77.04341583333333, "bike_id": "6722bfd7963544975495578613b7b1cf", "rental_uris": {"android": "https://dc.lft.to/lastmile_qr_scan", "ios": "https://dc.lft.to/lastmile_qr_scan"}, "name": "6722bfd7963544975495578613b7b1cf", "is_reserved": 0}, {"is_disabled": 0, "fusion_lon": 0.0, "fusion_lat": 0.0, "lat": 38.9130895, "type": "electric_scooter", "lon": -77.00837916666667, "bike_id": "87fbc9be4660c516ad3ae00167848734", "rental_uris": {"android": "https://dc.lft.to/lastmile_qr_scan", "ios": "https://dc.lft.to/lastmile_qr_scan"}, "name": "87fbc9be4660c516ad3ae00167848734", "is_reserved": 0}, {"is_disabled": 0, "fusion_lon": 0.0, "fusion_lat": 0.0, "lat": 38.92971266666667, "type": "electric_scooter", "lon": -77.04201666666667, "bike_id": "35138eb5fe59e7134e1e072b29f7fac1", "rental_uris": {"android": "https://dc.lft.to/lastmile_qr_scan", "ios": "https://dc.lft.to/lastmile_qr_scan"}, "name": "35138eb5fe59e7134e1e072b29f7fac1", "is_reserved": 0}, {"is_disabled": 0, "fusion_lon": 0.0, "fusion_lat": 0.0, "lat": 38.95172133333333, "type": "electric_scooter", "lon": -77.033336, "bike_id": "4ee1207e45b74a1353c6edfc139fedf0", "rental_uris": {"android": "https://dc.lft.to/lastmile_qr_scan", "ios": "https://dc.lft.to/lastmile_qr_scan"}, "name": "4ee1207e45b74a1353c6edfc139fedf0", "is_reserved": 0}, {"is_disabled": 0, "fusion_lon": 0.0, "fusion_lat": 0.0, "lat": 38.91268733333333, "type": "electric_scooter", "lon": -77.03365383333333, "bike_id": "28b3d61b234e9d82fd481446f191e160", "rental_uris": {"android": "https://dc.lft.to/lastmile_qr_scan", "ios": "https://dc.lft.to/lastmile_qr_scan"}, "name": "28b3d61b234e9d82fd481446f191e160", "is_reserved": 0}, {"is_disabled": 0, "fusion_lon": 0.0, "fusion_lat": 0.0, "lat": 38.966185333333335, "type": "electric_scooter", "lon": -77.03535716666667, "bike_id": "8c26fe244c01272f95dad4e2318103c8", "rental_uris": {"android": "https://dc.lft.to/lastmile_qr_scan", "ios": "https://dc.lft.to/lastmile_qr_scan"}, "name": "8c26fe244c01272f95dad4e2318103c8", "is_reserved": 0}, {"is_disabled": 0, "fusion_lon": 0.0, "fusion_lat": 0.0, "lat": 38.91704883333333, "type": "electric_scooter", "lon": -77.0366995, "bike_id": "e83df378f5f8668bbd27c68f66762a55", "rental_uris": {"android": "https://dc.lft.to/lastmile_qr_scan", "ios": "https://dc.lft.to/lastmile_qr_scan"}, "name": "e83df378f5f8668bbd27c68f66762a55", "is_reserved": 0}, {"is_disabled": 0, "fusion_lon": 0.0, "fusion_lat": 0.0, "lat": 38.9461765, "type": "electric_scooter", "lon": -77.03625016666666, "bike_id": "017af62a4c5b96bb2233af4382002f5c", "rental_uris": {"android": "https://dc.lft.to/lastmile_qr_scan", "ios": "https://dc.lft.to/lastmile_qr_scan"}, "name": "017af62a4c5b96bb2233af4382002f5c", "is_reserved": 0}, {"is_disabled": 0, "fusion_lon": 0.0, "fusion_lat": 0.0, "lat": 38.920005833333335, "type": "electric_scooter", "lon": -77.03136616666667, "bike_id": "68b0d9f1667b77e398c5152836080aa4", "rental_uris": {"android": "https://dc.lft.to/lastmile_qr_scan", "ios": "https://dc.lft.to/lastmile_qr_scan"}, "name": "68b0d9f1667b77e398c5152836080aa4", "is_reserved": 0}, {"is_disabled": 0, "fusion_lon": 0.0, "fusion_lat": 0.0, "lat": 39.05459966666667, "type": "electric_bike", "lon": -77.14325916666667, "bike_id": "7322fe7d6f7f779cf49b7f9a38076e17", "rental_uris": {"android": "https://dc.lft.to/lastmile_qr_scan", "ios": "https://dc.lft.to/lastmile_qr_scan"}, "name": "7322fe7d6f7f779cf49b7f9a38076e17", "is_reserved": 0}, {"is_disabled": 0, "fusion_lon": 0.0, "fusion_lat": 0.0, "lat": 38.910337, "type": "electric_scooter", "lon": -77.03800366666667, "bike_id": "5831bc22f347f1bdee5064733ef94ac6", "rental_uris": {"android": "https://dc.lft.to/lastmile_qr_scan", "ios": "https://dc.lft.to/lastmile_qr_scan"}, "name": "5831bc22f347f1bdee5064733ef94ac6", "is_reserved": 0}, {"is_disabled": 0, "fusion_lon": 0.0, "fusion_lat": 0.0, "lat": 38.928419166666664, "type": "electric_scooter", "lon": -77.05547866666667, "bike_id": "8dac3b9b7c036a6c842f58d865bd2629", "rental_uris": {"android": "https://dc.lft.to/lastmile_qr_scan", "ios": "https://dc.lft.to/lastmile_qr_scan"}, "name": "8dac3b9b7c036a6c842f58d865bd2629", "is_reserved": 0}, {"is_disabled": 0, "fusion_lon": 0.0, "fusion_lat": 0.0, "lat": 38.88429816666667, "type": "electric_scooter", "lon": -77.02963066666666, "bike_id": "eeca5a88b6987a125023876f5b884922", "rental_uris": {"android": "https://dc.lft.to/lastmile_qr_scan", "ios": "https://dc.lft.to/lastmile_qr_scan"}, "name": "eeca5a88b6987a125023876f5b884922", "is_reserved": 0}, {"is_disabled": 0, "fusion_lon": 0.0, "fusion_lat": 0.0, "lat": 38.908507666666665, "type": "electric_scooter", "lon": -77.055054, "bike_id": "31ff17c36d13c856c7d036a37aef86c9", "rental_uris": {"android": "https://dc.lft.to/lastmile_qr_scan", "ios": "https://dc.lft.to/lastmile_qr_scan"}, "name": "31ff17c36d13c856c7d036a37aef86c9", "is_reserved": 0}, {"is_disabled": 0, "fusion_lon": 0.0, "fusion_lat": 0.0, "lat": 38.896262166666666, "type": "electric_scooter", "lon": -77.02597366666667, "bike_id": "3a41f211da26ef0cafe742cf89e5351a", "rental_uris": {"android": "https://dc.lft.to/lastmile_qr_scan", "ios": "https://dc.lft.to/lastmile_qr_scan"}, "name": "3a41f211da26ef0cafe742cf89e5351a", "is_reserved": 0}, {"is_disabled": 0, "fusion_lon": 0.0, "fusion_lat": 0.0, "lat": 38.905075833333335, "type": "electric_scooter", "lon": -76.98240466666667, "bike_id": "2552b8ff4d5ba4554ca1d7bfafe1829f", "rental_uris": {"android": "https://dc.lft.to/lastmile_qr_scan", "ios": "https://dc.lft.to/lastmile_qr_scan"}, "name": "2552b8ff4d5ba4554ca1d7bfafe1829f", "is_reserved": 0}, {"is_disabled": 0, "fusion_lon": 0.0, "fusion_lat": 0.0, "lat": 38.88743516666667, "type": "electric_scooter", "lon": -77.014324, "bike_id": "f42961430c7f19c971cc1523252869e1", "rental_uris": {"android": "https://dc.lft.to/lastmile_qr_scan", "ios": "https://dc.lft.to/lastmile_qr_scan"}, "name": "f42961430c7f19c971cc1523252869e1", "is_reserved": 0}, {"is_disabled": 0, "fusion_lon": 0.0, "fusion_lat": 0.0, "lat": 38.923086833333336, "type": "electric_scooter", "lon": -77.04035766666667, "bike_id": "aa8a92d7fadfdd16956b7f53268e32f5", "rental_uris": {"android": "https://dc.lft.to/lastmile_qr_scan", "ios": "https://dc.lft.to/lastmile_qr_scan"}, "name": "aa8a92d7fadfdd16956b7f53268e32f5", "is_reserved": 0}, {"is_disabled": 0, "fusion_lon": 0.0, "fusion_lat": 0.0, "lat": 38.897948666666665, "type": "electric_scooter", "lon": -77.003643, "bike_id": "fa39a0a402f47472f573e7084532d942", "rental_uris": {"android": "https://dc.lft.to/lastmile_qr_scan", "ios": "https://dc.lft.to/lastmile_qr_scan"}, "name": "fa39a0a402f47472f573e7084532d942", "is_reserved": 0}, {"is_disabled": 0, "fusion_lon": 0.0, "fusion_lat": 0.0, "lat": 38.7761925, "type": "electric_bike", "lon": -77.08354033333333, "bike_id": "dce287c044c19c55dd00f61336112af0", "rental_uris": {"android": "https://dc.lft.to/lastmile_qr_scan", "ios": "https://dc.lft.to/lastmile_qr_scan"}, "name": "dce287c044c19c55dd00f61336112af0", "is_reserved": 0}, {"is_disabled": 0, "fusion_lon": 0.0, "fusion_lat": 0.0, "lat": 38.8895985, "type": "electric_scooter", "lon": -76.99142583333334, "bike_id": "2d1d7fa71d4945df7a43ef57d982123c", "rental_uris": {"android": "https://dc.lft.to/lastmile_qr_scan", "ios": "https://dc.lft.to/lastmile_qr_scan"}, "name": "2d1d7fa71d4945df7a43ef57d982123c", "is_reserved": 0}, {"is_disabled": 0, "fusion_lon": 0.0, "fusion_lat": 0.0, "lat": 38.893906, "type": "electric_scooter", "lon": -76.94997866666667, "bike_id": "9e0ed65f0538d39b2bfcff32c185e3ac", "rental_uris": {"android": "https://dc.lft.to/lastmile_qr_scan", "ios": "https://dc.lft.to/lastmile_qr_scan"}, "name": "9e0ed65f0538d39b2bfcff32c185e3ac", "is_reserved": 0}, {"is_disabled": 0, "fusion_lon": 0.0, "fusion_lat": 0.0, "lat": 38.953097666666665, "type": "electric_scooter", "lon": -77.03599483333333, "bike_id": "d7894b43b975b83183db870d35460725", "rental_uris": {"android": "https://dc.lft.to/lastmile_qr_scan", "ios": "https://dc.lft.to/lastmile_qr_scan"}, "name": "d7894b43b975b83183db870d35460725", "is_reserved": 0}, {"is_disabled": 0, "fusion_lon": 0.0, "fusion_lat": 0.0, "lat": 38.903179333333334, "type": "electric_scooter", "lon": -77.0189235, "bike_id": "bbe2cf77efe4eed5c4006fc4a5911ce4", "rental_uris": {"android": "https://dc.lft.to/lastmile_qr_scan", "ios": "https://dc.lft.to/lastmile_qr_scan"}, "name": "bbe2cf77efe4eed5c4006fc4a5911ce4", "is_reserved": 0}, {"is_disabled": 0, "fusion_lon": 0.0, "fusion_lat": 0.0, "lat": 38.87662266666667, "type": "electric_scooter", "lon": -77.0156355, "bike_id": "d5ef266b4a52ba02a100978d15ea5aee", "rental_uris": {"android": "https://dc.lft.to/lastmile_qr_scan", "ios": "https://dc.lft.to/lastmile_qr_scan"}, "name": "d5ef266b4a52ba02a100978d15ea5aee", "is_reserved": 0}, {"is_disabled": 0, "fusion_lon": 0.0, "fusion_lat": 0.0, "lat": 38.908181666666664, "type": "electric_scooter", "lon": -77.041612, "bike_id": "5d63b45373ff7a996c483e6456a676a8", "rental_uris": {"android": "https://dc.lft.to/lastmile_qr_scan", "ios": "https://dc.lft.to/lastmile_qr_scan"}, "name": "5d63b45373ff7a996c483e6456a676a8", "is_reserved": 0}, {"is_disabled": 0, "fusion_lon": 0.0, "fusion_lat": 0.0, "lat": 38.92103316666667, "type": "electric_scooter", "lon": -77.03044316666667, "bike_id": "b1169f716e72993b76803624500e3db5", "rental_uris": {"android": "https://dc.lft.to/lastmile_qr_scan", "ios": "https://dc.lft.to/lastmile_qr_scan"}, "name": "b1169f716e72993b76803624500e3db5", "is_reserved": 0}, {"is_disabled": 0, "fusion_lon": 0.0, "fusion_lat": 0.0, "lat": 38.928773, "type": "electric_scooter", "lon": -77.041261, "bike_id": "05067fa7a521b4c3acac156c415dc389", "rental_uris": {"android": "https://dc.lft.to/lastmile_qr_scan", "ios": "https://dc.lft.to/lastmile_qr_scan"}, "name": "05067fa7a521b4c3acac156c415dc389", "is_reserved": 0}, {"is_disabled": 0, "fusion_lon": 0.0, "fusion_lat": 0.0, "lat": 38.9314215, "type": "electric_scooter", "lon": -77.03452366666667, "bike_id": "439ed032bc89642c6d063b665ec79cf7", "rental_uris": {"android": "https://dc.lft.to/lastmile_qr_scan", "ios": "https://dc.lft.to/lastmile_qr_scan"}, "name": "439ed032bc89642c6d063b665ec79cf7", "is_reserved": 0}, {"is_disabled": 0, "fusion_lon": 0.0, "fusion_lat": 0.0, "lat": 38.90970083333333, "type": "electric_scooter", "lon": -77.08071366666667, "bike_id": "9ef8ffd29aacdc8b43984cd14dbcbb89", "rental_uris": {"android": "https://dc.lft.to/lastmile_qr_scan", "ios": "https://dc.lft.to/lastmile_qr_scan"}, "name": "9ef8ffd29aacdc8b43984cd14dbcbb89", "is_reserved": 0}, {"is_disabled": 0, "fusion_lon": 0.0, "fusion_lat": 0.0, "lat": 38.91706883333333, "type": "electric_scooter", "lon": -77.0320785, "bike_id": "20d91d49f470d13fbbcefa61607163be", "rental_uris": {"android": "https://dc.lft.to/lastmile_qr_scan", "ios": "https://dc.lft.to/lastmile_qr_scan"}, "name": "20d91d49f470d13fbbcefa61607163be", "is_reserved": 0}, {"is_disabled": 0, "fusion_lon": 0.0, "fusion_lat": 0.0, "lat": 38.90449233333333, "type": "electric_scooter", "lon": -77.0289115, "bike_id": "15313e106017f79816628ee86dcfe356", "rental_uris": {"android": "https://dc.lft.to/lastmile_qr_scan", "ios": "https://dc.lft.to/lastmile_qr_scan"}, "name": "15313e106017f79816628ee86dcfe356", "is_reserved": 0}, {"is_disabled": 0, "fusion_lon": 0.0, "fusion_lat": 0.0, "lat": 38.898269166666665, "type": "electric_scooter", "lon": -76.94651816666666, "bike_id": "0519e2a26c0b103ddabca6e69ef3e4e3", "rental_uris": {"android": "https://dc.lft.to/lastmile_qr_scan", "ios": "https://dc.lft.to/lastmile_qr_scan"}, "name": "0519e2a26c0b103ddabca6e69ef3e4e3", "is_reserved": 0}, {"is_disabled": 0, "fusion_lon": 0.0, "fusion_lat": 0.0, "lat": 38.90064983333333, "type": "electric_scooter", "lon": -77.01334, "bike_id": "5993d2d0620c21b0b72b237dbdb2f817", "rental_uris": {"android": "https://dc.lft.to/lastmile_qr_scan", "ios": "https://dc.lft.to/lastmile_qr_scan"}, "name": "5993d2d0620c21b0b72b237dbdb2f817", "is_reserved": 0}, {"is_disabled": 0, "fusion_lon": 0.0, "fusion_lat": 0.0, "lat": 38.88227883333333, "type": "electric_bike", "lon": -77.11269583333333, "bike_id": "12eaee7c327d89f74471475bd8dff046", "rental_uris": {"android": "https://dc.lft.to/lastmile_qr_scan", "ios": "https://dc.lft.to/lastmile_qr_scan"}, "name": "12eaee7c327d89f74471475bd8dff046", "is_reserved": 0}, {"is_disabled": 0, "fusion_lon": 0.0, "fusion_lat": 0.0, "lat": 38.91089483333333, "type": "electric_scooter", "lon": -77.0384375, "bike_id": "bb29a71230cdcd14584079fced7c6bbb", "rental_uris": {"android": "https://dc.lft.to/lastmile_qr_scan", "ios": "https://dc.lft.to/lastmile_qr_scan"}, "name": "bb29a71230cdcd14584079fced7c6bbb", "is_reserved": 0}, {"is_disabled": 0, "fusion_lon": 0.0, "fusion_lat": 0.0, "lat": 38.886543333333336, "type": "electric_scooter", "lon": -77.02829483333333, "bike_id": "f524353af259b82f9b152d21d5c99bf8", "rental_uris": {"android": "https://dc.lft.to/lastmile_qr_scan", "ios": "https://dc.lft.to/lastmile_qr_scan"}, "name": "f524353af259b82f9b152d21d5c99bf8", "is_reserved": 0}, {"is_disabled": 0, "fusion_lon": 0.0, "fusion_lat": 0.0, "lat": 38.94995616666667, "type": "electric_bike", "lon": -77.35312966666666, "bike_id": "e037e5c2e72fb7138cd99ae0c2c49e58", "rental_uris": {"android": "https://dc.lft.to/lastmile_qr_scan", "ios": "https://dc.lft.to/lastmile_qr_scan"}, "name": "e037e5c2e72fb7138cd99ae0c2c49e58", "is_reserved": 0}, {"is_disabled": 0, "fusion_lon": 0.0, "fusion_lat": 0.0, "lat": 38.8949135, "type": "electric_scooter", "lon": -77.0220735, "bike_id": "cbe38a6edf9fcf62a916107e540d757a", "rental_uris": {"android": "https://dc.lft.to/lastmile_qr_scan", "ios": "https://dc.lft.to/lastmile_qr_scan"}, "name": "cbe38a6edf9fcf62a916107e540d757a", "is_reserved": 0}, {"is_disabled": 0, "fusion_lon": 0.0, "fusion_lat": 0.0, "lat": 38.9181495, "type": "electric_scooter", "lon": -77.0417015, "bike_id": "c78f9cd4cc9e20829058a8088450a5fc", "rental_uris": {"android": "https://dc.lft.to/lastmile_qr_scan", "ios": "https://dc.lft.to/lastmile_qr_scan"}, "name": "c78f9cd4cc9e20829058a8088450a5fc", "is_reserved": 0}, {"is_disabled": 0, "fusion_lon": 0.0, "fusion_lat": 0.0, "lat": 38.878281, "type": "electric_scooter", "lon": -76.96314566666666, "bike_id": "a82c1c77432f8ab60593d2f61a87c76a", "rental_uris": {"android": "https://dc.lft.to/lastmile_qr_scan", "ios": "https://dc.lft.to/lastmile_qr_scan"}, "name": "a82c1c77432f8ab60593d2f61a87c76a", "is_reserved": 0}, {"is_disabled": 0, "fusion_lon": 0.0, "fusion_lat": 0.0, "lat": 38.91260116666667, "type": "electric_scooter", "lon": -77.03369833333333, "bike_id": "d56ec85139d39dd847ab4e4090efff4b", "rental_uris": {"android": "https://dc.lft.to/lastmile_qr_scan", "ios": "https://dc.lft.to/lastmile_qr_scan"}, "name": "d56ec85139d39dd847ab4e4090efff4b", "is_reserved": 0}, {"is_disabled": 0, "fusion_lon": 0.0, "fusion_lat": 0.0, "lat": 38.920538666666666, "type": "electric_scooter", "lon": -77.04189416666667, "bike_id": "e61702501e87b2ae8b49b934125f6453", "rental_uris": {"android": "https://dc.lft.to/lastmile_qr_scan", "ios": "https://dc.lft.to/lastmile_qr_scan"}, "name": "e61702501e87b2ae8b49b934125f6453", "is_reserved": 0}, {"is_disabled": 0, "fusion_lon": 0.0, "fusion_lat": 0.0, "lat": 38.87667966666667, "type": "electric_scooter", "lon": -76.93196283333333, "bike_id": "b619a90dfe9e683fd549c81758d1d098", "rental_uris": {"android": "https://dc.lft.to/lastmile_qr_scan", "ios": "https://dc.lft.to/lastmile_qr_scan"}, "name": "b619a90dfe9e683fd549c81758d1d098", "is_reserved": 0}, {"is_disabled": 0, "fusion_lon": 0.0, "fusion_lat": 0.0, "lat": 38.93599233333333, "type": "electric_scooter", "lon": -77.05615683333333, "bike_id": "8a2a7c9b75a047382d8ffd7baf71e394", "rental_uris": {"android": "https://dc.lft.to/lastmile_qr_scan", "ios": "https://dc.lft.to/lastmile_qr_scan"}, "name": "8a2a7c9b75a047382d8ffd7baf71e394", "is_reserved": 0}, {"is_disabled": 0, "fusion_lon": 0.0, "fusion_lat": 0.0, "lat": 38.91566666666667, "type": "electric_scooter", "lon": -77.02081566666666, "bike_id": "135c0bd85b0787f52d7592fe4e2fa101", "rental_uris": {"android": "https://dc.lft.to/lastmile_qr_scan", "ios": "https://dc.lft.to/lastmile_qr_scan"}, "name": "135c0bd85b0787f52d7592fe4e2fa101", "is_reserved": 0}, {"is_disabled": 0, "fusion_lon": 0.0, "fusion_lat": 0.0, "lat": 38.803003, "type": "electric_bike", "lon": -77.03984483333333, "bike_id": "54226a65176ffee21daa6fdbfb1998a8", "rental_uris": {"android": "https://dc.lft.to/lastmile_qr_scan", "ios": "https://dc.lft.to/lastmile_qr_scan"}, "name": "54226a65176ffee21daa6fdbfb1998a8", "is_reserved": 0}, {"is_disabled": 0, "fusion_lon": 0.0, "fusion_lat": 0.0, "lat": 38.93478916666667, "type": "electric_scooter", "lon": -77.02418583333333, "bike_id": "754c5c9384013242b2a5828ba0a78b2c", "rental_uris": {"android": "https://dc.lft.to/lastmile_qr_scan", "ios": "https://dc.lft.to/lastmile_qr_scan"}, "name": "754c5c9384013242b2a5828ba0a78b2c", "is_reserved": 0}, {"is_disabled": 0, "fusion_lon": 0.0, "fusion_lat": 0.0, "lat": 38.877455166666664, "type": "electric_scooter", "lon": -77.00442766666667, "bike_id": "b1cff25d5c4c1ee220f7cb0cfa166f77", "rental_uris": {"android": "https://dc.lft.to/lastmile_qr_scan", "ios": "https://dc.lft.to/lastmile_qr_scan"}, "name": "b1cff25d5c4c1ee220f7cb0cfa166f77", "is_reserved": 0}, {"is_disabled": 0, "fusion_lon": 0.0, "fusion_lat": 0.0, "lat": 38.922661833333336, "type": "electric_scooter", "lon": -77.034012, "bike_id": "a3548b4648db81a5b5698d88dc03a329", "rental_uris": {"android": "https://dc.lft.to/lastmile_qr_scan", "ios": "https://dc.lft.to/lastmile_qr_scan"}, "name": "a3548b4648db81a5b5698d88dc03a329", "is_reserved": 0}, {"is_disabled": 0, "fusion_lon": 0.0, "fusion_lat": 0.0, "lat": 38.91951066666667, "type": "electric_scooter", "lon": -77.0140225, "bike_id": "a497a7c952fa6a7612fb7a369e5868c8", "rental_uris": {"android": "https://dc.lft.to/lastmile_qr_scan", "ios": "https://dc.lft.to/lastmile_qr_scan"}, "name": "a497a7c952fa6a7612fb7a369e5868c8", "is_reserved": 0}, {"is_disabled": 0, "fusion_lon": 0.0, "fusion_lat": 0.0, "lat": 38.912245666666664, "type": "electric_scooter", "lon": -77.03208166666667, "bike_id": "fa1a0b267522b331881fbaedea919cd0", "rental_uris": {"android": "https://dc.lft.to/lastmile_qr_scan", "ios": "https://dc.lft.to/lastmile_qr_scan"}, "name": "fa1a0b267522b331881fbaedea919cd0", "is_reserved": 0}, {"is_disabled": 0, "fusion_lon": 0.0, "fusion_lat": 0.0, "lat": 38.8873855, "type": "electric_scooter", "lon": -77.01533216666667, "bike_id": "0db754f1cfff974cad52c647a18e87e1", "rental_uris": {"android": "https://dc.lft.to/lastmile_qr_scan", "ios": "https://dc.lft.to/lastmile_qr_scan"}, "name": "0db754f1cfff974cad52c647a18e87e1", "is_reserved": 0}, {"is_disabled": 0, "fusion_lon": 0.0, "fusion_lat": 0.0, "lat": 38.912704, "type": "electric_scooter", "lon": -77.010654, "bike_id": "fc3e019a907edb9840a5510d2bc65b05", "rental_uris": {"android": "https://dc.lft.to/lastmile_qr_scan", "ios": "https://dc.lft.to/lastmile_qr_scan"}, "name": "fc3e019a907edb9840a5510d2bc65b05", "is_reserved": 0}, {"is_disabled": 0, "fusion_lon": 0.0, "fusion_lat": 0.0, "lat": 38.91708066666666, "type": "electric_scooter", "lon": -77.02884283333333, "bike_id": "558106aceee5ca02d52c6e1ae69c79b4", "rental_uris": {"android": "https://dc.lft.to/lastmile_qr_scan", "ios": "https://dc.lft.to/lastmile_qr_scan"}, "name": "558106aceee5ca02d52c6e1ae69c79b4", "is_reserved": 0}, {"is_disabled": 0, "fusion_lon": 0.0, "fusion_lat": 0.0, "lat": 38.90705616666666, "type": "electric_scooter", "lon": -77.02389416666666, "bike_id": "6366b127f0c30c8aef95e7c30886668d", "rental_uris": {"android": "https://dc.lft.to/lastmile_qr_scan", "ios": "https://dc.lft.to/lastmile_qr_scan"}, "name": "6366b127f0c30c8aef95e7c30886668d", "is_reserved": 0}, {"is_disabled": 0, "fusion_lon": 0.0, "fusion_lat": 0.0, "lat": 38.90017666666667, "type": "electric_scooter", "lon": -77.033034, "bike_id": "9184c5f2a651d91c89aea36ac1c1227b", "rental_uris": {"android": "https://dc.lft.to/lastmile_qr_scan", "ios": "https://dc.lft.to/lastmile_qr_scan"}, "name": "9184c5f2a651d91c89aea36ac1c1227b", "is_reserved": 0}, {"is_disabled": 0, "fusion_lon": 0.0, "fusion_lat": 0.0, "lat": 38.8972505, "type": "electric_scooter", "lon": -77.02166683333333, "bike_id": "69e71f2e343ea7ac4bfa8aaa262a3752", "rental_uris": {"android": "https://dc.lft.to/lastmile_qr_scan", "ios": "https://dc.lft.to/lastmile_qr_scan"}, "name": "69e71f2e343ea7ac4bfa8aaa262a3752", "is_reserved": 0}, {"is_disabled": 0, "fusion_lon": 0.0, "fusion_lat": 0.0, "lat": 38.87523383333333, "type": "electric_scooter", "lon": -77.0008505, "bike_id": "f2ad0227aaa3bc6841035a5b844ccea6", "rental_uris": {"android": "https://dc.lft.to/lastmile_qr_scan", "ios": "https://dc.lft.to/lastmile_qr_scan"}, "name": "f2ad0227aaa3bc6841035a5b844ccea6", "is_reserved": 0}, {"is_disabled": 0, "fusion_lon": 0.0, "fusion_lat": 0.0, "lat": 38.93539716666667, "type": "electric_scooter", "lon": -77.03453016666667, "bike_id": "04d08313a5984a4dd4e08e8cf6ef1e54", "rental_uris": {"android": "https://dc.lft.to/lastmile_qr_scan", "ios": "https://dc.lft.to/lastmile_qr_scan"}, "name": "04d08313a5984a4dd4e08e8cf6ef1e54", "is_reserved": 0}, {"is_disabled": 0, "fusion_lon": 0.0, "fusion_lat": 0.0, "lat": 38.9151845, "type": "electric_scooter", "lon": -77.01983633333333, "bike_id": "2126f395bb15d31101c2f2c408754a4c", "rental_uris": {"android": "https://dc.lft.to/lastmile_qr_scan", "ios": "https://dc.lft.to/lastmile_qr_scan"}, "name": "2126f395bb15d31101c2f2c408754a4c", "is_reserved": 0}, {"is_disabled": 0, "fusion_lon": 0.0, "fusion_lat": 0.0, "lat": 38.931334, "type": "electric_scooter", "lon": -77.07845933333333, "bike_id": "df9a4ab17712e21d7843de9a4b191ff1", "rental_uris": {"android": "https://dc.lft.to/lastmile_qr_scan", "ios": "https://dc.lft.to/lastmile_qr_scan"}, "name": "df9a4ab17712e21d7843de9a4b191ff1", "is_reserved": 0}, {"is_disabled": 0, "fusion_lon": 0.0, "fusion_lat": 0.0, "lat": 38.94511083333333, "type": "electric_bike", "lon": -77.00675, "bike_id": "245459bd1b18d1fdaf66153aebc4e211", "rental_uris": {"android": "https://dc.lft.to/lastmile_qr_scan", "ios": "https://dc.lft.to/lastmile_qr_scan"}, "name": "245459bd1b18d1fdaf66153aebc4e211", "is_reserved": 0}, {"is_disabled": 0, "fusion_lon": 0.0, "fusion_lat": 0.0, "lat": 38.93487066666667, "type": "electric_scooter", "lon": -77.03604516666667, "bike_id": "7a4637bedcd7a63a224c804513dd6ef8", "rental_uris": {"android": "https://dc.lft.to/lastmile_qr_scan", "ios": "https://dc.lft.to/lastmile_qr_scan"}, "name": "7a4637bedcd7a63a224c804513dd6ef8", "is_reserved": 0}, {"is_disabled": 0, "fusion_lon": 0.0, "fusion_lat": 0.0, "lat": 38.852814333333335, "type": "electric_bike", "lon": -76.98153783333333, "bike_id": "67f5a3af3619d0b9d0c847725f201ccb", "rental_uris": {"android": "https://dc.lft.to/lastmile_qr_scan", "ios": "https://dc.lft.to/lastmile_qr_scan"}, "name": "67f5a3af3619d0b9d0c847725f201ccb", "is_reserved": 0}, {"is_disabled": 0, "fusion_lon": 0.0, "fusion_lat": 0.0, "lat": 38.895339666666665, "type": "electric_scooter", "lon": -77.015383, "bike_id": "2894b76e2fdad7f75a9533f66ca1d86b", "rental_uris": {"android": "https://dc.lft.to/lastmile_qr_scan", "ios": "https://dc.lft.to/lastmile_qr_scan"}, "name": "2894b76e2fdad7f75a9533f66ca1d86b", "is_reserved": 0}, {"is_disabled": 0, "fusion_lon": 0.0, "fusion_lat": 0.0, "lat": 38.857852666666666, "type": "electric_bike", "lon": -76.9875125, "bike_id": "47a0456cd0508b8ba778bceb36246991", "rental_uris": {"android": "https://dc.lft.to/lastmile_qr_scan", "ios": "https://dc.lft.to/lastmile_qr_scan"}, "name": "47a0456cd0508b8ba778bceb36246991", "is_reserved": 0}, {"is_disabled": 0, "fusion_lon": 0.0, "fusion_lat": 0.0, "lat": 38.92129666666666, "type": "electric_scooter", "lon": -77.04214183333333, "bike_id": "cbde55db44607c6cff61cf8818763d36", "rental_uris": {"android": "https://dc.lft.to/lastmile_qr_scan", "ios": "https://dc.lft.to/lastmile_qr_scan"}, "name": "cbde55db44607c6cff61cf8818763d36", "is_reserved": 0}, {"is_disabled": 0, "fusion_lon": 0.0, "fusion_lat": 0.0, "lat": 38.90001566666667, "type": "electric_scooter", "lon": -77.03368416666666, "bike_id": "237c969b77052786f6118f8448fd6994", "rental_uris": {"android": "https://dc.lft.to/lastmile_qr_scan", "ios": "https://dc.lft.to/lastmile_qr_scan"}, "name": "237c969b77052786f6118f8448fd6994", "is_reserved": 0}, {"is_disabled": 0, "fusion_lon": 0.0, "fusion_lat": 0.0, "lat": 38.905331, "type": "electric_bike", "lon": -77.05685866666667, "bike_id": "986fddeae1b97b3e2052f8d5f99ef874", "rental_uris": {"android": "https://dc.lft.to/lastmile_qr_scan", "ios": "https://dc.lft.to/lastmile_qr_scan"}, "name": "986fddeae1b97b3e2052f8d5f99ef874", "is_reserved": 0}, {"is_disabled": 0, "fusion_lon": 0.0, "fusion_lat": 0.0, "lat": 38.943266666666666, "type": "electric_bike", "lon": -77.0147115, "bike_id": "dbc736434e54013593a99d9f23d6f020", "rental_uris": {"android": "https://dc.lft.to/lastmile_qr_scan", "ios": "https://dc.lft.to/lastmile_qr_scan"}, "name": "dbc736434e54013593a99d9f23d6f020", "is_reserved": 0}, {"is_disabled": 0, "fusion_lon": 0.0, "fusion_lat": 0.0, "lat": 38.90568733333333, "type": "electric_scooter", "lon": -77.03663383333334, "bike_id": "4e119efabfd9f0c1c50f82d50ddd1e4c", "rental_uris": {"android": "https://dc.lft.to/lastmile_qr_scan", "ios": "https://dc.lft.to/lastmile_qr_scan"}, "name": "4e119efabfd9f0c1c50f82d50ddd1e4c", "is_reserved": 0}, {"is_disabled": 0, "fusion_lon": 0.0, "fusion_lat": 0.0, "lat": 38.91402716666666, "type": "electric_scooter", "lon": -77.03167683333334, "bike_id": "48eeb42f1cb4421ae3d95364fafba174", "rental_uris": {"android": "https://dc.lft.to/lastmile_qr_scan", "ios": "https://dc.lft.to/lastmile_qr_scan"}, "name": "48eeb42f1cb4421ae3d95364fafba174", "is_reserved": 0}, {"is_disabled": 0, "fusion_lon": 0.0, "fusion_lat": 0.0, "lat": 38.921250666666666, "type": "electric_scooter", "lon": -77.04438316666666, "bike_id": "69decc48b49332fb2cc6e052f914cd15", "rental_uris": {"android": "https://dc.lft.to/lastmile_qr_scan", "ios": "https://dc.lft.to/lastmile_qr_scan"}, "name": "69decc48b49332fb2cc6e052f914cd15", "is_reserved": 0}, {"is_disabled": 0, "fusion_lon": 0.0, "fusion_lat": 0.0, "lat": 38.904537, "type": "electric_scooter", "lon": -77.02441033333334, "bike_id": "0dcff6d8b82cec33653467b934ad0a36", "rental_uris": {"android": "https://dc.lft.to/lastmile_qr_scan", "ios": "https://dc.lft.to/lastmile_qr_scan"}, "name": "0dcff6d8b82cec33653467b934ad0a36", "is_reserved": 0}, {"is_disabled": 0, "fusion_lon": 0.0, "fusion_lat": 0.0, "lat": 38.990901, "type": "electric_bike", "lon": -76.87492466666667, "bike_id": "39207fba4ee6c4107efa261fecf5fc96", "rental_uris": {"android": "https://dc.lft.to/lastmile_qr_scan", "ios": "https://dc.lft.to/lastmile_qr_scan"}, "name": "39207fba4ee6c4107efa261fecf5fc96", "is_reserved": 0}, {"is_disabled": 0, "fusion_lon": 0.0, "fusion_lat": 0.0, "lat": 38.907268, "type": "electric_scooter", "lon": -77.04065916666667, "bike_id": "2086c3200bc3adc009ebbf937b78fc15", "rental_uris": {"android": "https://dc.lft.to/lastmile_qr_scan", "ios": "https://dc.lft.to/lastmile_qr_scan"}, "name": "2086c3200bc3adc009ebbf937b78fc15", "is_reserved": 0}, {"is_disabled": 0, "fusion_lon": 0.0, "fusion_lat": 0.0, "lat": 38.87493766666667, "type": "electric_bike", "lon": -77.0490035, "bike_id": "639bfc912229ed49f43e0a306a3b4b5f", "rental_uris": {"android": "https://dc.lft.to/lastmile_qr_scan", "ios": "https://dc.lft.to/lastmile_qr_scan"}, "name": "639bfc912229ed49f43e0a306a3b4b5f", "is_reserved": 0}, {"is_disabled": 0, "fusion_lon": 0.0, "fusion_lat": 0.0, "lat": 38.905348833333335, "type": "electric_scooter", "lon": -77.06529666666667, "bike_id": "d23eacf30226d3f838f054818f9bb7f4", "rental_uris": {"android": "https://dc.lft.to/lastmile_qr_scan", "ios": "https://dc.lft.to/lastmile_qr_scan"}, "name": "d23eacf30226d3f838f054818f9bb7f4", "is_reserved": 0}, {"is_disabled": 0, "fusion_lon": 0.0, "fusion_lat": 0.0, "lat": 38.9329795, "type": "electric_scooter", "lon": -77.02141183333333, "bike_id": "709ea0b686c8701d96ceeb6607cc1fd3", "rental_uris": {"android": "https://dc.lft.to/lastmile_qr_scan", "ios": "https://dc.lft.to/lastmile_qr_scan"}, "name": "709ea0b686c8701d96ceeb6607cc1fd3", "is_reserved": 0}, {"is_disabled": 0, "fusion_lon": 0.0, "fusion_lat": 0.0, "lat": 38.863589166666664, "type": "electric_scooter", "lon": -76.99073, "bike_id": "fe93f50584c660e4739fb2cea8fa55c7", "rental_uris": {"android": "https://dc.lft.to/lastmile_qr_scan", "ios": "https://dc.lft.to/lastmile_qr_scan"}, "name": "fe93f50584c660e4739fb2cea8fa55c7", "is_reserved": 0}, {"is_disabled": 0, "fusion_lon": 0.0, "fusion_lat": 0.0, "lat": 38.928429666666666, "type": "electric_scooter", "lon": -77.01415616666667, "bike_id": "d8772529c2e5e150117035bb2e71e44a", "rental_uris": {"android": "https://dc.lft.to/lastmile_qr_scan", "ios": "https://dc.lft.to/lastmile_qr_scan"}, "name": "d8772529c2e5e150117035bb2e71e44a", "is_reserved": 0}, {"is_disabled": 0, "fusion_lon": 0.0, "fusion_lat": 0.0, "lat": 38.990620166666666, "type": "electric_bike", "lon": -77.1002545, "bike_id": "749337733ab528bffe3fcdeca69317ba", "rental_uris": {"android": "https://dc.lft.to/lastmile_qr_scan", "ios": "https://dc.lft.to/lastmile_qr_scan"}, "name": "749337733ab528bffe3fcdeca69317ba", "is_reserved": 0}, {"is_disabled": 0, "fusion_lon": 0.0, "fusion_lat": 0.0, "lat": 38.962128666666665, "type": "electric_scooter", "lon": -77.02800966666666, "bike_id": "f013affd4a2067553c88bc5d321ff433", "rental_uris": {"android": "https://dc.lft.to/lastmile_qr_scan", "ios": "https://dc.lft.to/lastmile_qr_scan"}, "name": "f013affd4a2067553c88bc5d321ff433", "is_reserved": 0}, {"is_disabled": 0, "fusion_lon": 0.0, "fusion_lat": 0.0, "lat": 38.8995055, "type": "electric_scooter", "lon": -77.05135783333333, "bike_id": "9830be93deaf96e9dc01ef55f6938873", "rental_uris": {"android": "https://dc.lft.to/lastmile_qr_scan", "ios": "https://dc.lft.to/lastmile_qr_scan"}, "name": "9830be93deaf96e9dc01ef55f6938873", "is_reserved": 0}, {"is_disabled": 0, "fusion_lon": 0.0, "fusion_lat": 0.0, "lat": 38.93779216666667, "type": "electric_scooter", "lon": -77.0230605, "bike_id": "ca0dceb23f1c95f9e825f2ab2cd0dbe7", "rental_uris": {"android": "https://dc.lft.to/lastmile_qr_scan", "ios": "https://dc.lft.to/lastmile_qr_scan"}, "name": "ca0dceb23f1c95f9e825f2ab2cd0dbe7", "is_reserved": 0}, {"is_disabled": 0, "fusion_lon": 0.0, "fusion_lat": 0.0, "lat": 38.89374183333334, "type": "electric_scooter", "lon": -76.94997033333334, "bike_id": "3bb2004e3f1675f9583396e19c96289e", "rental_uris": {"android": "https://dc.lft.to/lastmile_qr_scan", "ios": "https://dc.lft.to/lastmile_qr_scan"}, "name": "3bb2004e3f1675f9583396e19c96289e", "is_reserved": 0}, {"is_disabled": 0, "fusion_lon": 0.0, "fusion_lat": 0.0, "lat": 38.900280333333335, "type": "electric_scooter", "lon": -77.001889, "bike_id": "862fa144fb0fac5ab4921617227d9f59", "rental_uris": {"android": "https://dc.lft.to/lastmile_qr_scan", "ios": "https://dc.lft.to/lastmile_qr_scan"}, "name": "862fa144fb0fac5ab4921617227d9f59", "is_reserved": 0}, {"is_disabled": 0, "fusion_lon": 0.0, "fusion_lat": 0.0, "lat": 38.88761383333333, "type": "electric_bike", "lon": -76.90078666666666, "bike_id": "cb43f7b2c3448ec266f22164766f7925", "rental_uris": {"android": "https://dc.lft.to/lastmile_qr_scan", "ios": "https://dc.lft.to/lastmile_qr_scan"}, "name": "cb43f7b2c3448ec266f22164766f7925", "is_reserved": 0}, {"is_disabled": 0, "fusion_lon": 0.0, "fusion_lat": 0.0, "lat": 38.89670066666667, "type": "electric_scooter", "lon": -76.99785066666666, "bike_id": "05aa26147f2e8587721e5300d978a3e4", "rental_uris": {"android": "https://dc.lft.to/lastmile_qr_scan", "ios": "https://dc.lft.to/lastmile_qr_scan"}, "name": "05aa26147f2e8587721e5300d978a3e4", "is_reserved": 0}, {"is_disabled": 0, "fusion_lon": 0.0, "fusion_lat": 0.0, "lat": 38.911857499999996, "type": "electric_scooter", "lon": -77.035003, "bike_id": "d647d4dcbbd5310e7a46c4f7bc8108a5", "rental_uris": {"android": "https://dc.lft.to/lastmile_qr_scan", "ios": "https://dc.lft.to/lastmile_qr_scan"}, "name": "d647d4dcbbd5310e7a46c4f7bc8108a5", "is_reserved": 0}, {"is_disabled": 0, "fusion_lon": 0.0, "fusion_lat": 0.0, "lat": 38.927060166666664, "type": "electric_scooter", "lon": -77.02327233333334, "bike_id": "520fbfe24932adc94b061f91abe1cbc2", "rental_uris": {"android": "https://dc.lft.to/lastmile_qr_scan", "ios": "https://dc.lft.to/lastmile_qr_scan"}, "name": "520fbfe24932adc94b061f91abe1cbc2", "is_reserved": 0}, {"is_disabled": 0, "fusion_lon": 0.0, "fusion_lat": 0.0, "lat": 38.901542, "type": "electric_scooter", "lon": -77.029249, "bike_id": "49ad89f7ab5a61c3d53467caf5ab0808", "rental_uris": {"android": "https://dc.lft.to/lastmile_qr_scan", "ios": "https://dc.lft.to/lastmile_qr_scan"}, "name": "49ad89f7ab5a61c3d53467caf5ab0808", "is_reserved": 0}, {"is_disabled": 0, "fusion_lon": 0.0, "fusion_lat": 0.0, "lat": 38.928525666666665, "type": "electric_scooter", "lon": -77.01406383333334, "bike_id": "e8c7ea270f90644aa30ea58ccc7ffc8f", "rental_uris": {"android": "https://dc.lft.to/lastmile_qr_scan", "ios": "https://dc.lft.to/lastmile_qr_scan"}, "name": "e8c7ea270f90644aa30ea58ccc7ffc8f", "is_reserved": 0}, {"is_disabled": 0, "fusion_lon": 0.0, "fusion_lat": 0.0, "lat": 38.927285499999996, "type": "electric_scooter", "lon": -77.02245483333333, "bike_id": "c4cb45da0fbde325f67e7a06d5c36d99", "rental_uris": {"android": "https://dc.lft.to/lastmile_qr_scan", "ios": "https://dc.lft.to/lastmile_qr_scan"}, "name": "c4cb45da0fbde325f67e7a06d5c36d99", "is_reserved": 0}, {"is_disabled": 0, "fusion_lon": 0.0, "fusion_lat": 0.0, "lat": 38.900457833333334, "type": "electric_scooter", "lon": -76.92270783333333, "bike_id": "535b2cd7876773feb88b8c33ee2518f7", "rental_uris": {"android": "https://dc.lft.to/lastmile_qr_scan", "ios": "https://dc.lft.to/lastmile_qr_scan"}, "name": "535b2cd7876773feb88b8c33ee2518f7", "is_reserved": 0}, {"is_disabled": 0, "fusion_lon": 0.0, "fusion_lat": 0.0, "lat": 38.93680466666667, "type": "electric_scooter", "lon": -77.0246625, "bike_id": "88bae2aff1160db353f8ba05c1630211", "rental_uris": {"android": "https://dc.lft.to/lastmile_qr_scan", "ios": "https://dc.lft.to/lastmile_qr_scan"}, "name": "88bae2aff1160db353f8ba05c1630211", "is_reserved": 0}, {"is_disabled": 0, "fusion_lon": 0.0, "fusion_lat": 0.0, "lat": 38.861224166666666, "type": "electric_scooter", "lon": -76.9855485, "bike_id": "40c79a8b5f1ffebe423112cd917c4b6b", "rental_uris": {"android": "https://dc.lft.to/lastmile_qr_scan", "ios": "https://dc.lft.to/lastmile_qr_scan"}, "name": "40c79a8b5f1ffebe423112cd917c4b6b", "is_reserved": 0}, {"is_disabled": 0, "fusion_lon": 0.0, "fusion_lat": 0.0, "lat": 38.9966995, "type": "electric_bike", "lon": -76.99138933333333, "bike_id": "295a28f7f27d517b130da0cace51ceb4", "rental_uris": {"android": "https://dc.lft.to/lastmile_qr_scan", "ios": "https://dc.lft.to/lastmile_qr_scan"}, "name": "295a28f7f27d517b130da0cace51ceb4", "is_reserved": 0}, {"is_disabled": 0, "fusion_lon": 0.0, "fusion_lat": 0.0, "lat": 38.89674083333333, "type": "electric_scooter", "lon": -77.043385, "bike_id": "52cdceac7703f23cfe80bf3787ec335b", "rental_uris": {"android": "https://dc.lft.to/lastmile_qr_scan", "ios": "https://dc.lft.to/lastmile_qr_scan"}, "name": "52cdceac7703f23cfe80bf3787ec335b", "is_reserved": 0}, {"is_disabled": 0, "fusion_lon": 0.0, "fusion_lat": 0.0, "lat": 38.944544, "type": "electric_scooter", "lon": -77.0602295, "bike_id": "1176e2fa8619839f151f3019381c0af1", "rental_uris": {"android": "https://dc.lft.to/lastmile_qr_scan", "ios": "https://dc.lft.to/lastmile_qr_scan"}, "name": "1176e2fa8619839f151f3019381c0af1", "is_reserved": 0}, {"is_disabled": 0, "fusion_lon": 0.0, "fusion_lat": 0.0, "lat": 38.926208, "type": "electric_scooter", "lon": -77.04193133333334, "bike_id": "a5a90c187d05845af9348d81b9cec59b", "rental_uris": {"android": "https://dc.lft.to/lastmile_qr_scan", "ios": "https://dc.lft.to/lastmile_qr_scan"}, "name": "a5a90c187d05845af9348d81b9cec59b", "is_reserved": 0}, {"is_disabled": 0, "fusion_lon": 0.0, "fusion_lat": 0.0, "lat": 38.9271985, "type": "electric_scooter", "lon": -77.01599166666666, "bike_id": "146758eac13e7dfc7fc7f0e69937ac4f", "rental_uris": {"android": "https://dc.lft.to/lastmile_qr_scan", "ios": "https://dc.lft.to/lastmile_qr_scan"}, "name": "146758eac13e7dfc7fc7f0e69937ac4f", "is_reserved": 0}, {"is_disabled": 0, "fusion_lon": 0.0, "fusion_lat": 0.0, "lat": 38.875713833333336, "type": "electric_scooter", "lon": -77.020774, "bike_id": "05ba6c4f4aefbc4287d17b07022632ba", "rental_uris": {"android": "https://dc.lft.to/lastmile_qr_scan", "ios": "https://dc.lft.to/lastmile_qr_scan"}, "name": "05ba6c4f4aefbc4287d17b07022632ba", "is_reserved": 0}, {"is_disabled": 0, "fusion_lon": 0.0, "fusion_lat": 0.0, "lat": 38.9266235, "type": "electric_scooter", "lon": -77.02274766666666, "bike_id": "2f6b08461cc8d8039e244f25f8d67ecd", "rental_uris": {"android": "https://dc.lft.to/lastmile_qr_scan", "ios": "https://dc.lft.to/lastmile_qr_scan"}, "name": "2f6b08461cc8d8039e244f25f8d67ecd", "is_reserved": 0}, {"is_disabled": 0, "fusion_lon": 0.0, "fusion_lat": 0.0, "lat": 38.909661, "type": "electric_scooter", "lon": -77.038614, "bike_id": "73de1bf7877f7510ab8907f76c00a577", "rental_uris": {"android": "https://dc.lft.to/lastmile_qr_scan", "ios": "https://dc.lft.to/lastmile_qr_scan"}, "name": "73de1bf7877f7510ab8907f76c00a577", "is_reserved": 0}, {"is_disabled": 0, "fusion_lon": 0.0, "fusion_lat": 0.0, "lat": 38.933579, "type": "electric_scooter", "lon": -77.07378133333333, "bike_id": "49a74bda2aff68c30f79b8baac39d4b3", "rental_uris": {"android": "https://dc.lft.to/lastmile_qr_scan", "ios": "https://dc.lft.to/lastmile_qr_scan"}, "name": "49a74bda2aff68c30f79b8baac39d4b3", "is_reserved": 0}, {"is_disabled": 0, "fusion_lon": 0.0, "fusion_lat": 0.0, "lat": 38.875151333333335, "type": "electric_scooter", "lon": -77.01384833333333, "bike_id": "9915d738ea6703015974aaaa21f2614d", "rental_uris": {"android": "https://dc.lft.to/lastmile_qr_scan", "ios": "https://dc.lft.to/lastmile_qr_scan"}, "name": "9915d738ea6703015974aaaa21f2614d", "is_reserved": 0}, {"is_disabled": 0, "fusion_lon": 0.0, "fusion_lat": 0.0, "lat": 38.89956983333333, "type": "electric_scooter", "lon": -77.02100483333334, "bike_id": "20b00abd85900454c21d0ce8dda16618", "rental_uris": {"android": "https://dc.lft.to/lastmile_qr_scan", "ios": "https://dc.lft.to/lastmile_qr_scan"}, "name": "20b00abd85900454c21d0ce8dda16618", "is_reserved": 0},