{"data": {"bikes": [{"fusion_lat": 0.0, "name": "a1ea2b4b6ab334a107f027d8d56f302a", "lon": -77.02562683333333, "rental_uris": {"android": "https://dc.lft.to/lastmile_qr_scan", "ios": "https://dc.lft.to/lastmile_qr_scan"}, "fusion_lon": 0.0, "bike_id": "a1ea2b4b6ab334a107f027d8d56f302a", "is_disabled": 0, "lat": 38.90364233333333, "is_reserved": 0, "type": "electric_scooter"}, {"fusion_lat": 0.0, "name": "a870b3259b2cefeb24921705f54f5e05", "lon": -77.01743, "rental_uris": {"android": "https://dc.lft.to/lastmile_qr_scan", "ios": "https://dc.lft.to/lastmile_qr_scan"}, "fusion_lon": 0.0, "bike_id": "a870b3259b2cefeb24921705f54f5e05", "is_disabled": 0, "lat": 38.9018305, "is_reserved": 0, "type": "electric_scooter"}, {"fusion_lat": 0.0, "name": "b2e69fd684310c2fe2d2599460f88161", "lon": -77.03491033333333, "rental_uris": {"android": "https://dc.lft.to/lastmile_qr_scan", "ios": "https://dc.lft.to/lastmile_qr_scan"}, "fusion_lon": 0.0, "bike_id": "b2e69fd684310c2fe2d2599460f88161", "is_disabled": 0, "lat": 38.916924, "is_reserved": 0, "type": "electric_scooter"}, {"fusion_lat": 0.0, "name": "d1fdbd08c5881e39ac662039e45a408a", "lon": -77.03502283333333, "rental_uris": {"android": "https://dc.lft.to/lastmile_qr_scan", "ios": "https://dc.lft.to/lastmile_qr_scan"}, "fusion_lon": 0.0, "bike_id": "d1fdbd08c5881e39ac662039e45a408a", "is_disabled": 0, "lat": 38.91878483333333, "is_reserved": 0, "type": "electric_scooter"}, {"fusion_lat": 0.0, "name": "2c61ed94603a2799228d95153f43ec1e", "lon": -77.046954, "rental_uris": {"android": "https://dc.lft.to/lastmile_qr_scan", "ios": "https://dc.lft.to/lastmile_qr_scan"}, "fusion_lon": 0.0, "bike_id": "2c61ed94603a2799228d95153f43ec1e", "is_disabled": 0, "lat": 38.9210395, "is_reserved": 0, "type": "electric_scooter"}, {"fusion_lat": 0.0, "name": "e2caf63db06258e579397b13d3b218c7", "lon": -77.03528683333333, "rental_uris": {"android": "https://dc.lft.to/lastmile_qr_scan", "ios": "https://dc.lft.to/lastmile_qr_scan"}, "fusion_lon": 0.0, "bike_id": "e2caf63db06258e579397b13d3b218c7", "is_disabled": 0, "lat": 38.932204166666665, "is_reserved": 0, "type": "electric_scooter"}, {"fusion_lat": 0.0, "name": "82bd7e6367ba183208d8e70e76bd3e9c", "lon": -77.070294, "rental_uris": {"android": "https://dc.lft.to/lastmile_qr_scan", "ios": "https://dc.lft.to/lastmile_qr_scan"}, "fusion_lon": 0.0, "bike_id": "82bd7e6367ba183208d8e70e76bd3e9c", "is_disabled": 0, "lat": 38.922539666666665, "is_reserved": 0, "type": "electric_scooter"}, {"fusion_lat": 0.0, "name": "4070a4b051afa72df134455f4c9dca48", "lon": -77.0328505, "rental_uris": {"android": "https://dc.lft.to/lastmile_qr_scan", "ios": "https://dc.lft.to/lastmile_qr_scan"}, "fusion_lon": 0.0, "bike_id": "4070a4b051afa72df134455f4c9dca48", "is_disabled": 0, "lat": 38.909595333333336, "is_reserved": 0, "type": "electric_scooter"}, {"fusion_lat": 0.0, "name": "b463ca1b9b40413a3a53c205bac79ff8", "lon": -77.0343865, "rental_uris": {"android": "https://dc.lft.to/lastmile_qr_scan", "ios": "https://dc.lft.to/lastmile_qr_scan"}, "fusion_lon": 0.0, "bike_id": "b463ca1b9b40413a3a53c205bac79ff8", "is_disabled": 0, "lat": 38.928636166666664, "is_reserved": 0, "type": "electric_scooter"}, {"fusion_lat": 0.0, "name": "a225e8ce1c0ede8e78324a02dd377e69", "lon": -76.99053466666666, "rental_uris": {"android": "https://dc.lft.to/lastmile_qr_scan", "ios": "https://dc.lft.to/lastmile_qr_scan"}, "fusion_lon": 0.0, "bike_id": "a225e8ce1c0ede8e78324a02dd377e69", "is_disabled": 0, "lat": 38.86369583333333, "is_reserved": 0, "type": "electric_scooter"}, {"fusion_lat": 0.0, "name": "3b0214868ebcf6e976fe753ec2445524", "lon": -77.00665733333334, "rental_uris": {"android": "https://dc.lft.to/lastmile_qr_scan", "ios": "https://dc.lft.to/lastmile_qr_scan"}, "fusion_lon": 0.0, "bike_id": "3b0214868ebcf6e976fe753ec2445524", "is_disabled": 0, "lat": 38.899924666666664, "is_reserved": 0, "type": "electric_scooter"}, {"fusion_lat": 0.0, "name": "931748f0c274c670c73b4ab541be8739", "lon": -76.917521, "rental_uris": {"android": "https://dc.lft.to/lastmile_qr_scan", "ios": "https://dc.lft.to/lastmile_qr_scan"}, "fusion_lon": 0.0, "bike_id": "931748f0c274c670c73b4ab541be8739", "is_disabled": 0, "lat": 38.88839, "is_reserved": 0, "type": "electric_scooter"}, {"fusion_lat": 0.0, "name": "cdf55bdf21f9fbfd27bc7298e7aed09e", "lon": -76.99840083333333, "rental_uris": {"android": "https://dc.lft.to/lastmile_qr_scan", "ios": "https://dc.lft.to/lastmile_qr_scan"}, "fusion_lon": 0.0, "bike_id": "cdf55bdf21f9fbfd27bc7298e7aed09e", "is_disabled": 0, "lat": 38.88032466666667, "is_reserved": 0, "type": "electric_scooter"}, {"fusion_lat": 0.0, "name": "784da3ec4245a72c9046874c4877bc1c", "lon": -77.08020316666666, "rental_uris": {"android": "https://dc.lft.to/lastmile_qr_scan", "ios": "https://dc.lft.to/lastmile_qr_scan"}, "fusion_lon": 0.0, "bike_id": "784da3ec4245a72c9046874c4877bc1c", "is_disabled": 0, "lat": 38.94613983333333, "is_reserved": 0, "type": "electric_scooter"}, {"fusion_lat": 0.0, "name": "75f28c7348d9a42582734a75e1e7da4a", "lon": -77.00176533333334, "rental_uris": {"android": "https://dc.lft.to/lastmile_qr_scan", "ios": "https://dc.lft.to/lastmile_qr_scan"}, "fusion_lon": 0.0, "bike_id": "75f28c7348d9a42582734a75e1e7da4a", "is_disabled": 0, "lat": 38.8748665, "is_reserved": 0, "type": "electric_scooter"}, {"fusion_lat": 0.0, "name": "0bbf4dce476322f468e1830ced66be2b", "lon": -77.01794483333333, "rental_uris": {"android": "https://dc.lft.to/lastmile_qr_scan", "ios": "https://dc.lft.to/lastmile_qr_scan"}, "fusion_lon": 0.0, "bike_id": "0bbf4dce476322f468e1830ced66be2b", "is_disabled": 0, "lat": 38.901249, "is_reserved": 0, "type": "electric_scooter"}, {"fusion_lat": 0.0, "name": "ff894d14101081cf5cac4c6d40fa1b21", "lon": -77.0328875, "rental_uris": {"android": "https://dc.lft.to/lastmile_qr_scan", "ios": "https://dc.lft.to/lastmile_qr_scan"}, "fusion_lon": 0.0, "bike_id": "ff894d14101081cf5cac4c6d40fa1b21", "is_disabled": 0, "lat": 38.8989785, "is_reserved": 0, "type": "electric_scooter"}, {"fusion_lat": 0.0, "name": "69e643840994338ecd7018237d014a48", "lon": -77.03523083333333, "rental_uris": {"android": "https://dc.lft.to/lastmile_qr_scan", "ios": "https://dc.lft.to/lastmile_qr_scan"}, "fusion_lon": 0.0, "bike_id": "69e643840994338ecd7018237d014a48", "is_disabled": 0, "lat": 38.93569883333333, "is_reserved": 0, "type": "electric_scooter"}, {"fusion_lat": 0.0, "name": "20e625720f0a12b07c7afa9f1671bc90", "lon": -77.026794, "rental_uris": {"android": "https://dc.lft.to/lastmile_qr_scan", "ios": "https://dc.lft.to/lastmile_qr_scan"}, "fusion_lon": 0.0, "bike_id": "20e625720f0a12b07c7afa9f1671bc90", "is_disabled": 0, "lat": 38.943270166666665, "is_reserved": 0, "type": "electric_scooter"}, {"fusion_lat": 0.0, "name": "50ae8963f2d8dd27df1501622b1c1fdc", "lon": -77.03469633333333, "rental_uris": {"android": "https://dc.lft.to/lastmile_qr_scan", "ios": "https://dc.lft.to/lastmile_qr_scan"}, "fusion_lon": 0.0, "bike_id": "50ae8963f2d8dd27df1501622b1c1fdc", "is_disabled": 0, "lat": 38.9204735, "is_reserved": 0, "type": "electric_scooter"}, {"fusion_lat": 0.0, "name": "51ddd3d7133ea2a0fba97ec284ff969f", "lon": -76.99108766666667, "rental_uris": {"android": "https://dc.lft.to/lastmile_qr_scan", "ios": "https://dc.lft.to/lastmile_qr_scan"}, "fusion_lon": 0.0, "bike_id": "51ddd3d7133ea2a0fba97ec284ff969f", "is_disabled": 0, "lat": 38.903177, "is_reserved": 0, "type": "electric_scooter"}, {"fusion_lat": 0.0, "name": "53ba3ce7eb732155225de50ac6ea9c33", "lon": -76.98516666666667, "rental_uris": {"android": "https://dc.lft.to/lastmile_qr_scan", "ios": "https://dc.lft.to/lastmile_qr_scan"}, "fusion_lon": 0.0, "bike_id": "53ba3ce7eb732155225de50ac6ea9c33", "is_disabled": 0, "lat": 38.86005566666667, "is_reserved": 0, "type": "electric_scooter"}, {"fusion_lat": 0.0, "name": "9b33d5bedc57a6d5986d47f4b14485af", "lon": -77.02741466666667, "rental_uris": {"android": "https://dc.lft.to/lastmile_qr_scan", "ios": "https://dc.lft.to/lastmile_qr_scan"}, "fusion_lon": 0.0, "bike_id": "9b33d5bedc57a6d5986d47f4b14485af", "is_disabled": 0, "lat": 38.92380283333333, "is_reserved": 0, "type": "electric_scooter"}, {"fusion_lat": 0.0, "name": "5a898809477f33c3ef27a4c299a33062", "lon": -77.0042875, "rental_uris": {"android": "https://dc.lft.to/lastmile_qr_scan", "ios": "https://dc.lft.to/lastmile_qr_scan"}, "fusion_lon": 0.0, "bike_id": "5a898809477f33c3ef27a4c299a33062", "is_disabled": 0, "lat": 38.87647483333333, "is_reserved": 0, "type": "electric_scooter"}, {"fusion_lat": 0.0, "name": "eac6bcdeb8d7799ebaa1b064aef5085f", "lon": -77.02357033333334, "rental_uris": {"android": "https://dc.lft.to/lastmile_qr_scan", "ios": "https://dc.lft.to/lastmile_qr_scan"}, "fusion_lon": 0.0, "bike_id": "eac6bcdeb8d7799ebaa1b064aef5085f", "is_disabled": 0, "lat": 38.920645666666665, "is_reserved": 0, "type": "electric_scooter"}, {"fusion_lat": 0.0, "name": "0a219fb13b30162dec6c3ba5054d3d3f", "lon": -77.03083766666667, "rental_uris": {"android": "https://dc.lft.to/lastmile_qr_scan", "ios": "https://dc.lft.to/lastmile_qr_scan"}, "fusion_lon": 0.0, "bike_id": "0a219fb13b30162dec6c3ba5054d3d3f", "is_disabled": 0, "lat": 38.91055383333333, "is_reserved": 0, "type": "electric_scooter"}, {"fusion_lat": 0.0, "name": "9fa3f2d05a14252434596f03f718f53a", "lon": -77.0319685, "rental_uris": {"android": "https://dc.lft.to/lastmile_qr_scan", "ios": "https://dc.lft.to/lastmile_qr_scan"}, "fusion_lon": 0.0, "bike_id": "9fa3f2d05a14252434596f03f718f53a", "is_disabled": 0, "lat": 38.91776483333334, "is_reserved": 0, "type": "electric_scooter"}, {"fusion_lat": 0.0, "name": "61d5072ed3133f8e6a1e46945ab391a4", "lon": -77.03530733333334, "rental_uris": {"android": "https://dc.lft.to/lastmile_qr_scan", "ios": "https://dc.lft.to/lastmile_qr_scan"}, "fusion_lon": 0.0, "bike_id": "61d5072ed3133f8e6a1e46945ab391a4", "is_disabled": 0, "lat": 38.918388, "is_reserved": 0, "type": "electric_scooter"}, {"fusion_lat": 0.0, "name": "97f1631b946793f1c16d812ea340fa68", "lon": -77.02307916666666, "rental_uris": {"android": "https://dc.lft.to/lastmile_qr_scan", "ios": "https://dc.lft.to/lastmile_qr_scan"}, "fusion_lon": 0.0, "bike_id": "97f1631b946793f1c16d812ea340fa68", "is_disabled": 0, "lat": 38.89490716666667, "is_reserved": 0, "type": "electric_scooter"}, {"fusion_lat": 0.0, "name": "14e660d36874a964af3e41de54a29dfb", "lon": -77.0513615, "rental_uris": {"android": "https://dc.lft.to/lastmile_qr_scan", "ios": "https://dc.lft.to/lastmile_qr_scan"}, "fusion_lon": 0.0, "bike_id": "14e660d36874a964af3e41de54a29dfb", "is_disabled": 0, "lat": 38.92530033333333, "is_reserved": 0, "type": "electric_scooter"}, {"fusion_lat": 0.0, "name": "b08a27249e9814425ae6f8bc96de24b4", "lon": -77.019944, "rental_uris": {"android": "https://dc.lft.to/lastmile_qr_scan", "ios": "https://dc.lft.to/lastmile_qr_scan"}, "fusion_lon": 0.0, "bike_id": "b08a27249e9814425ae6f8bc96de24b4", "is_disabled": 0, "lat": 38.96625816666667, "is_reserved": 0, "type": "electric_scooter"}, {"fusion_lat": 0.0, "name": "964d1189b32bb21d1cd0825ca92e45ad", "lon": -77.005867, "rental_uris": {"android": "https://dc.lft.to/lastmile_qr_scan", "ios": "https://dc.lft.to/lastmile_qr_scan"}, "fusion_lon": 0.0, "bike_id": "964d1189b32bb21d1cd0825ca92e45ad", "is_disabled": 0, "lat": 38.906323666666665, "is_reserved": 0, "type": "electric_scooter"}, {"fusion_lat": 0.0, "name": "189462c7bf44a7b546074fa6c899d53a", "lon": -77.11705883333333, "rental_uris": {"android": "https://dc.lft.to/lastmile_qr_scan", "ios": "https://dc.lft.to/lastmile_qr_scan"}, "fusion_lon": 0.0, "bike_id": "189462c7bf44a7b546074fa6c899d53a", "is_disabled": 0, "lat": 38.86744566666667, "is_reserved": 0, "type": "electric_bike"}, {"fusion_lat": 0.0, "name": "3fc4cab3958bf23d8371930acb8a977c", "lon": -76.98359733333334, "rental_uris": {"android": "https://dc.lft.to/lastmile_qr_scan", "ios": "https://dc.lft.to/lastmile_qr_scan"}, "fusion_lon": 0.0, "bike_id": "3fc4cab3958bf23d8371930acb8a977c", "is_disabled": 0, "lat": 38.915366, "is_reserved": 0, "type": "electric_scooter"}, {"fusion_lat": 0.0, "name": "b0751e40b074bf331b09533f5227e0bf", "lon": -76.99786533333334, "rental_uris": {"android": "https://dc.lft.to/lastmile_qr_scan", "ios": "https://dc.lft.to/lastmile_qr_scan"}, "fusion_lon": 0.0, "bike_id": "b0751e40b074bf331b09533f5227e0bf", "is_disabled": 0, "lat": 38.82915233333333, "is_reserved": 0, "type": "electric_bike"}, {"fusion_lat": 0.0, "name": "6c7b761a4faa18d58e5179cf9f9d7733", "lon": -77.03439766666666, "rental_uris": {"android": "https://dc.lft.to/lastmile_qr_scan", "ios": "https://dc.lft.to/lastmile_qr_scan"}, "fusion_lon": 0.0, "bike_id": "6c7b761a4faa18d58e5179cf9f9d7733", "is_disabled": 0, "lat": 38.9180925, "is_reserved": 0, "type": "electric_scooter"}, {"fusion_lat": 0.0, "name": "d34d87cc23f7575ed741cc3aa1c355f8", "lon": -76.949925, "rental_uris": {"android": "https://dc.lft.to/lastmile_qr_scan", "ios": "https://dc.lft.to/lastmile_qr_scan"}, "fusion_lon": 0.0, "bike_id": "d34d87cc23f7575ed741cc3aa1c355f8", "is_disabled": 0, "lat": 38.89363816666667, "is_reserved": 0, "type": "electric_scooter"}, {"fusion_lat": 0.0, "name": "b859578ed9dd3ab26344d3cd60ef82bb", "lon": -77.02692133333333, "rental_uris": {"android": "https://dc.lft.to/lastmile_qr_scan", "ios": "https://dc.lft.to/lastmile_qr_scan"}, "fusion_lon": 0.0, "bike_id": "b859578ed9dd3ab26344d3cd60ef82bb", "is_disabled": 0, "lat": 38.92611333333333, "is_reserved": 0, "type": "electric_scooter"}, {"fusion_lat": 0.0, "name": "865c1f4d3641478727bdee45ce5c6f82", "lon": -77.02715233333333, "rental_uris": {"android": "https://dc.lft.to/lastmile_qr_scan", "ios": "https://dc.lft.to/lastmile_qr_scan"}, "fusion_lon": 0.0, "bike_id": "865c1f4d3641478727bdee45ce5c6f82", "is_disabled": 0, "lat": 38.8965985, "is_reserved": 0, "type": "electric_scooter"}, {"fusion_lat": 0.0, "name": "77fbaa3aea8d0f092e576c9c5dd7e3f2", "lon": -77.0399135, "rental_uris": {"android": "https://dc.lft.to/lastmile_qr_scan", "ios": "https://dc.lft.to/lastmile_qr_scan"}, "fusion_lon": 0.0, "bike_id": "77fbaa3aea8d0f092e576c9c5dd7e3f2", "is_disabled": 0, "lat": 38.888676, "is_reserved": 0, "type": "electric_scooter"}, {"fusion_lat": 0.0, "name": "be8c8055e0a4104efc2191a2602c80d2", "lon": -77.0326365, "rental_uris": {"android": "https://dc.lft.to/lastmile_qr_scan", "ios": "https://dc.lft.to/lastmile_qr_scan"}, "fusion_lon": 0.0, "bike_id": "be8c8055e0a4104efc2191a2602c80d2", "is_disabled": 0, "lat": 38.92166816666666, "is_reserved": 0, "type": "electric_scooter"}, {"fusion_lat": 0.0, "name": "bc892982157fdf92b971fc745334320a", "lon": -76.98361216666666, "rental_uris": {"android": "https://dc.lft.to/lastmile_qr_scan", "ios": "https://dc.lft.to/lastmile_qr_scan"}, "fusion_lon": 0.0, "bike_id": "bc892982157fdf92b971fc745334320a", "is_disabled": 0, "lat": 38.915365666666666, "is_reserved": 0, "type": "electric_scooter"}, {"fusion_lat": 0.0, "name": "d253befb3bc29d80c9603a63105cf883", "lon": -76.98235916666667, "rental_uris": {"android": "https://dc.lft.to/lastmile_qr_scan", "ios": "https://dc.lft.to/lastmile_qr_scan"}, "fusion_lon": 0.0, "bike_id": "d253befb3bc29d80c9603a63105cf883", "is_disabled": 0, "lat": 38.864669666666664, "is_reserved": 0, "type": "electric_scooter"}, {"fusion_lat": 0.0, "name": "7a6aa5f000a20f723cd0af863bd09992", "lon": -77.031409, "rental_uris": {"android": "https://dc.lft.to/lastmile_qr_scan", "ios": "https://dc.lft.to/lastmile_qr_scan"}, "fusion_lon": 0.0, "bike_id": "7a6aa5f000a20f723cd0af863bd09992", "is_disabled": 0, "lat": 38.93083516666667, "is_reserved": 0, "type": "electric_scooter"}, {"fusion_lat": 0.0, "name": "c70f8bc621e2cda8c23384bf1066b4bd", "lon": -77.03864616666667, "rental_uris": {"android": "https://dc.lft.to/lastmile_qr_scan", "ios": "https://dc.lft.to/lastmile_qr_scan"}, "fusion_lon": 0.0, "bike_id": "c70f8bc621e2cda8c23384bf1066b4bd", "is_disabled": 0, "lat": 38.921494833333334, "is_reserved": 0, "type": "electric_scooter"}, {"fusion_lat": 0.0, "name": "f7579a04c64c15a21e2944fd9dfde315", "lon": -77.03464916666667, "rental_uris": {"android": "https://dc.lft.to/lastmile_qr_scan", "ios": "https://dc.lft.to/lastmile_qr_scan"}, "fusion_lon": 0.0, "bike_id": "f7579a04c64c15a21e2944fd9dfde315", "is_disabled": 0, "lat": 38.909677333333335, "is_reserved": 0, "type": "electric_scooter"}, {"fusion_lat": 0.0, "name": "cd56d1791ceae27feb0e0d25128ef3aa", "lon": -77.04372733333334, "rental_uris": {"android": "https://dc.lft.to/lastmile_qr_scan", "ios": "https://dc.lft.to/lastmile_qr_scan"}, "fusion_lon": 0.0, "bike_id": "cd56d1791ceae27feb0e0d25128ef3aa", "is_disabled": 0, "lat": 38.892225333333336, "is_reserved": 0, "type": "electric_scooter"}, {"fusion_lat": 0.0, "name": "858e0cf371c2be05358e5ed54276b43d", "lon": -77.04502416666666, "rental_uris": {"android": "https://dc.lft.to/lastmile_qr_scan", "ios": "https://dc.lft.to/lastmile_qr_scan"}, "fusion_lon": 0.0, "bike_id": "858e0cf371c2be05358e5ed54276b43d", "is_disabled": 0, "lat": 38.892226, "is_reserved": 0, "type": "electric_scooter"}, {"fusion_lat": 0.0, "name": "e9c476b2eb4a2dcce1ae2ab7ae80e45e", "lon": -77.03468166666667, "rental_uris": {"android": "https://dc.lft.to/lastmile_qr_scan", "ios": "https://dc.lft.to/lastmile_qr_scan"}, "fusion_lon": 0.0, "bike_id": "e9c476b2eb4a2dcce1ae2ab7ae80e45e", "is_disabled": 0, "lat": 38.926351333333336, "is_reserved": 0, "type": "electric_scooter"}, {"fusion_lat": 0.0, "name": "5b90bc44bbc2737e6c40378f13174cf2", "lon": -77.020196, "rental_uris": {"android": "https://dc.lft.to/lastmile_qr_scan", "ios": "https://dc.lft.to/lastmile_qr_scan"}, "fusion_lon": 0.0, "bike_id": "5b90bc44bbc2737e6c40378f13174cf2", "is_disabled": 0, "lat": 38.91404, "is_reserved": 0, "type": "electric_scooter"}, {"fusion_lat": 0.0, "name": "6d132c2bbcd9a3a9b62670d4b8faf371", "lon": -77.08327916666667, "rental_uris": {"android": "https://dc.lft.to/lastmile_qr_scan", "ios": "https://dc.lft.to/lastmile_qr_scan"}, "fusion_lon": 0.0, "bike_id": "6d132c2bbcd9a3a9b62670d4b8faf371", "is_disabled": 0, "lat": 38.85438633333333, "is_reserved": 0, "type": "electric_bike"}, {"fusion_lat": 0.0, "name": "a773f0beefafc7b1e08d6df62bb11db6", "lon": -77.02455683333334, "rental_uris": {"android": "https://dc.lft.to/lastmile_qr_scan", "ios": "https://dc.lft.to/lastmile_qr_scan"}, "fusion_lon": 0.0, "bike_id": "a773f0beefafc7b1e08d6df62bb11db6", "is_disabled": 0, "lat": 38.938565833333335, "is_reserved": 0, "type": "electric_scooter"}, {"fusion_lat": 0.0, "name": "28eca79066a63f3c5e60c652038af0ae", "lon": -77.047021, "rental_uris": {"android": "https://dc.lft.to/lastmile_qr_scan", "ios": "https://dc.lft.to/lastmile_qr_scan"}, "fusion_lon": 0.0, "bike_id": "28eca79066a63f3c5e60c652038af0ae", "is_disabled": 0, "lat": 38.9022565, "is_reserved": 0, "type": "electric_scooter"}, {"fusion_lat": 0.0, "name": "ea14a3d78287595fffd9167186da02a1", "lon": -77.03170883333334, "rental_uris": {"android": "https://dc.lft.to/lastmile_qr_scan", "ios": "https://dc.lft.to/lastmile_qr_scan"}, "fusion_lon": 0.0, "bike_id": "ea14a3d78287595fffd9167186da02a1", "is_disabled": 0, "lat": 38.9446785, "is_reserved": 0, "type": "electric_scooter"}, {"fusion_lat": 0.0, "name": "5b7d297426915c9dfcaa25311951106c", "lon": -77.03275583333334, "rental_uris": {"android": "https://dc.lft.to/lastmile_qr_scan", "ios": "https://dc.lft.to/lastmile_qr_scan"}, "fusion_lon": 0.0, "bike_id": "5b7d297426915c9dfcaa25311951106c", "is_disabled": 0, "lat": 38.921436, "is_reserved": 0, "type": "electric_scooter"}, {"fusion_lat": 0.0, "name": "ca4cfa399ea6f75642f41576928ff9d2", "lon": -76.987645, "rental_uris": {"android": "https://dc.lft.to/lastmile_qr_scan", "ios": "https://dc.lft.to/lastmile_qr_scan"}, "fusion_lon": 0.0, "bike_id": "ca4cfa399ea6f75642f41576928ff9d2", "is_disabled": 0, "lat": 38.8576925, "is_reserved": 0, "type": "electric_bike"}, {"fusion_lat": 0.0, "name": "fa4a4902faa95de2146c32a574d02c99", "lon": -77.02306, "rental_uris": {"android": "https://dc.lft.to/lastmile_qr_scan", "ios": "https://dc.lft.to/lastmile_qr_scan"}, "fusion_lon": 0.0, "bike_id": "fa4a4902faa95de2146c32a574d02c99", "is_disabled": 0, "lat": 38.91682466666666, "is_reserved": 0, "type": "electric_scooter"}, {"fusion_lat": 0.0, "name": "8c9e05501a82cec0f0fd5dc40e2cf937", "lon": -77.035838, "rental_uris": {"android": "https://dc.lft.to/lastmile_qr_scan", "ios": "https://dc.lft.to/lastmile_qr_scan"}, "fusion_lon": 0.0, "bike_id": "8c9e05501a82cec0f0fd5dc40e2cf937", "is_disabled": 0, "lat": 38.99225, "is_reserved": 0, "type": "electric_scooter"}, {"fusion_lat": 0.0, "name": "868c700fe0fe457a7d7c48b38e006eac", "lon": -77.0319525, "rental_uris": {"android": "https://dc.lft.to/lastmile_qr_scan", "ios": "https://dc.lft.to/lastmile_qr_scan"}, "fusion_lon": 0.0, "bike_id": "868c700fe0fe457a7d7c48b38e006eac", "is_disabled": 0, "lat": 38.90150716666667, "is_reserved": 0, "type": "electric_scooter"}, {"fusion_lat": 0.0, "name": "433983edbaf66b4733fc7c4e7744f03e", "lon": -77.033355, "rental_uris": {"android": "https://dc.lft.to/lastmile_qr_scan", "ios": "https://dc.lft.to/lastmile_qr_scan"}, "fusion_lon": 0.0, "bike_id": "433983edbaf66b4733fc7c4e7744f03e", "is_disabled": 0, "lat": 38.89632433333333, "is_reserved": 0, "type": "electric_scooter"}, {"fusion_lat": 0.0, "name": "231595f356b2543aa52e517669353ea2", "lon": -77.04347883333334, "rental_uris": {"android": "https://dc.lft.to/lastmile_qr_scan", "ios": "https://dc.lft.to/lastmile_qr_scan"}, "fusion_lon": 0.0, "bike_id": "231595f356b2543aa52e517669353ea2", "is_disabled": 0, "lat": 38.901479, "is_reserved": 0, "type": "electric_scooter"}, {"fusion_lat": 0.0, "name": "54248d9640476700393f829a0be950e5", "lon": -77.01953633333333, "rental_uris": {"android": "https://dc.lft.to/lastmile_qr_scan", "ios": "https://dc.lft.to/lastmile_qr_scan"}, "fusion_lon": 0.0, "bike_id": "54248d9640476700393f829a0be950e5", "is_disabled": 0, "lat": 38.92312916666667, "is_reserved": 0, "type": "electric_scooter"}, {"fusion_lat": 0.0, "name": "d5688328bbd9fce29f309da831a638cc", "lon": -77.0284375, "rental_uris": {"android": "https://dc.lft.to/lastmile_qr_scan", "ios": "https://dc.lft.to/lastmile_qr_scan"}, "fusion_lon": 0.0, "bike_id": "d5688328bbd9fce29f309da831a638cc", "is_disabled": 0, "lat": 38.934172833333335, "is_reserved": 0, "type": "electric_scooter"}, {"fusion_lat": 0.0, "name": "59ff65bbef992000a269c0b32f7d1649", "lon": -76.93471683333334, "rental_uris": {"android": "https://dc.lft.to/lastmile_qr_scan", "ios": "https://dc.lft.to/lastmile_qr_scan"}, "fusion_lon": 0.0, "bike_id": "59ff65bbef992000a269c0b32f7d1649", "is_disabled": 0, "lat": 38.894990666666665, "is_reserved": 0, "type": "electric_scooter"}, {"fusion_lat": 0.0, "name": "4469b45844f263e40e0fc85046ad2954", "lon": -77.07451833333333, "rental_uris": {"android": "https://dc.lft.to/lastmile_qr_scan", "ios": "https://dc.lft.to/lastmile_qr_scan"}, "fusion_lon": 0.0, "bike_id": "4469b45844f263e40e0fc85046ad2954", "is_disabled": 0, "lat": 38.94505616666667, "is_reserved": 0, "type": "electric_scooter"}, {"fusion_lat": 0.0, "name": "331e1737544d69a9aa8ac7bfa0801d37", "lon": -77.02199616666667, "rental_uris": {"android": "https://dc.lft.to/lastmile_qr_scan", "ios": "https://dc.lft.to/lastmile_qr_scan"}, "fusion_lon": 0.0, "bike_id": "331e1737544d69a9aa8ac7bfa0801d37", "is_disabled": 0, "lat": 38.91524033333334, "is_reserved": 0, "type": "electric_scooter"}, {"fusion_lat": 0.0, "name": "2cfbc1545dc8079ecd77786538630a9e", "lon": -77.04337083333333, "rental_uris": {"android": "https://dc.lft.to/lastmile_qr_scan", "ios": "https://dc.lft.to/lastmile_qr_scan"}, "fusion_lon": 0.0, "bike_id": "2cfbc1545dc8079ecd77786538630a9e", "is_disabled": 0, "lat": 38.906968666666664, "is_reserved": 0, "type": "electric_scooter"}, {"fusion_lat": 0.0, "name": "cb12606be417b727b2255a3a30e1a443", "lon": -77.04167383333333, "rental_uris": {"android": "https://dc.lft.to/lastmile_qr_scan", "ios": "https://dc.lft.to/lastmile_qr_scan"}, "fusion_lon": 0.0, "bike_id": "cb12606be417b727b2255a3a30e1a443", "is_disabled": 0, "lat": 38.911783166666666, "is_reserved": 0, "type": "electric_scooter"}, {"fusion_lat": 0.0, "name": "9fe56d918284bf9c3dfbbc727d2f49bc", "lon": -77.12521166666667, "rental_uris": {"android": "https://dc.lft.to/lastmile_qr_scan", "ios": "https://dc.lft.to/lastmile_qr_scan"}, "fusion_lon": 0.0, "bike_id": "9fe56d918284bf9c3dfbbc727d2f49bc", "is_disabled": 0, "lat": 39.056294333333334, "is_reserved": 0, "type": "electric_bike"}, {"fusion_lat": 0.0, "name": "ef8352445529f7e84f92589f70a62bd6", "lon": -77.03307133333334, "rental_uris": {"android": "https://dc.lft.to/lastmile_qr_scan", "ios": "https://dc.lft.to/lastmile_qr_scan"}, "fusion_lon": 0.0, "bike_id": "ef8352445529f7e84f92589f70a62bd6", "is_disabled": 0, "lat": 38.903231, "is_reserved": 0, "type": "electric_scooter"}, {"fusion_lat": 0.0, "name": "14140472146c24f5763e2e6bb16552d1", "lon": -76.99136766666666, "rental_uris": {"android": "https://dc.lft.to/lastmile_qr_scan", "ios": "https://dc.lft.to/lastmile_qr_scan"}, "fusion_lon": 0.0, "bike_id": "14140472146c24f5763e2e6bb16552d1", "is_disabled": 0, "lat": 38.908589666666664, "is_reserved": 0, "type": "electric_scooter"}, {"fusion_lat": 0.0, "name": "6549bc6ee83b6ba61bfc003f15f824b0", "lon": -76.99930566666667, "rental_uris": {"android": "https://dc.lft.to/lastmile_qr_scan", "ios": "https://dc.lft.to/lastmile_qr_scan"}, "fusion_lon": 0.0, "bike_id": "6549bc6ee83b6ba61bfc003f15f824b0", "is_disabled": 0, "lat": 38.843134166666665, "is_reserved": 0, "type": "electric_scooter"}, {"fusion_lat": 0.0, "name": "903c45c3c1d57923ee3fde0b494de8fb", "lon": -77.04158516666666, "rental_uris": {"android": "https://dc.lft.to/lastmile_qr_scan", "ios": "https://dc.lft.to/lastmile_qr_scan"}, "fusion_lon": 0.0, "bike_id": "903c45c3c1d57923ee3fde0b494de8fb", "is_disabled": 0, "lat": 38.9074885, "is_reserved": 0, "type": "electric_scooter"}, {"fusion_lat": 0.0, "name": "d93a8209acad4d2e8a57ca5c858f8c6c", "lon": -77.01408583333334, "rental_uris": {"android": "https://dc.lft.to/lastmile_qr_scan", "ios": "https://dc.lft.to/lastmile_qr_scan"}, "fusion_lon": 0.0, "bike_id": "d93a8209acad4d2e8a57ca5c858f8c6c", "is_disabled": 0, "lat": 38.91400383333333, "is_reserved": 0, "type": "electric_scooter"}, {"fusion_lat": 0.0, "name": "aadc5a81e20c7c7e8bff5bf52d9b215b", "lon": -77.04374316666667, "rental_uris": {"android": "https://dc.lft.to/lastmile_qr_scan", "ios": "https://dc.lft.to/lastmile_qr_scan"}, "fusion_lon": 0.0, "bike_id": "aadc5a81e20c7c7e8bff5bf52d9b215b", "is_disabled": 0, "lat": 38.89222766666666, "is_reserved": 0, "type": "electric_scooter"}, {"fusion_lat": 0.0, "name": "46f444d43ed61f9d815176e29b57cb3a", "lon": -76.99014016666666, "rental_uris": {"android": "https://dc.lft.to/lastmile_qr_scan", "ios": "https://dc.lft.to/lastmile_qr_scan"}, "fusion_lon": 0.0, "bike_id": "46f444d43ed61f9d815176e29b57cb3a", "is_disabled": 0, "lat": 38.88259166666667, "is_reserved": 0, "type": "electric_scooter"}, {"fusion_lat": 0.0, "name": "e0615efb8afd0d9045ca1cebab92f544", "lon": -77.04639366666666, "rental_uris": {"android": "https://dc.lft.to/lastmile_qr_scan", "ios": "https://dc.lft.to/lastmile_qr_scan"}, "fusion_lon": 0.0, "bike_id": "e0615efb8afd0d9045ca1cebab92f544", "is_disabled": 0, "lat": 38.89224516666667, "is_reserved": 0, "type": "electric_scooter"}, {"fusion_lat": 0.0, "name": "07f3a599eb2cd5d851e3a53aee4e26d7", "lon": -77.04672466666666, "rental_uris": {"android": "https://dc.lft.to/lastmile_qr_scan", "ios": "https://dc.lft.to/lastmile_qr_scan"}, "fusion_lon": 0.0, "bike_id": "07f3a599eb2cd5d851e3a53aee4e26d7", "is_disabled": 0, "lat": 38.895556166666665, "is_reserved": 0, "type": "electric_scooter"}, {"fusion_lat": 0.0, "name": "de2a6364799b736d6a6ba6ce4b07954f", "lon": -77.04151016666667, "rental_uris": {"android": "https://dc.lft.to/lastmile_qr_scan", "ios": "https://dc.lft.to/lastmile_qr_scan"}, "fusion_lon": 0.0, "bike_id": "de2a6364799b736d6a6ba6ce4b07954f", "is_disabled": 0, "lat": 38.917088, "is_reserved": 0, "type": "electric_scooter"}, {"fusion_lat": 0.0, "name": "d1aaa70479b53ef11922f4be1862893d", "lon": -77.02573633333333, "rental_uris": {"android": "https://dc.lft.to/lastmile_qr_scan", "ios": "https://dc.lft.to/lastmile_qr_scan"}, "fusion_lon": 0.0, "bike_id": "d1aaa70479b53ef11922f4be1862893d", "is_disabled": 0, "lat": 38.899003, "is_reserved": 0, "type": "electric_scooter"}, {"fusion_lat": 0.0, "name": "22e0b7378e26b61b786714df315d9b68", "lon": -77.02482433333333, "rental_uris": {"android": "https://dc.lft.to/lastmile_qr_scan", "ios": "https://dc.lft.to/lastmile_qr_scan"}, "fusion_lon": 0.0, "bike_id": "22e0b7378e26b61b786714df315d9b68", "is_disabled": 0, "lat": 38.9387285, "is_reserved": 0, "type": "electric_bike"}, {"fusion_lat": 0.0, "name": "c533522462179ac35a08e107805076b2", "lon": -77.0369655, "rental_uris": {"android": "https://dc.lft.to/lastmile_qr_scan", "ios": "https://dc.lft.to/lastmile_qr_scan"}, "fusion_lon": 0.0, "bike_id": "c533522462179ac35a08e107805076b2", "is_disabled": 0, "lat": 38.91660866666667, "is_reserved": 0, "type": "electric_scooter"}, {"fusion_lat": 0.0, "name": "ddd2dad1a994a7ec537ac78780aea08c", "lon": -77.00169483333333, "rental_uris": {"android": "https://dc.lft.to/lastmile_qr_scan", "ios": "https://dc.lft.to/lastmile_qr_scan"}, "fusion_lon": 0.0, "bike_id": "ddd2dad1a994a7ec537ac78780aea08c", "is_disabled": 0, "lat": 38.90261566666667, "is_reserved": 0, "type": "electric_scooter"}, {"fusion_lat": 0.0, "name": "dcbcdf98cb3d44f8e50b81e96f1178f6", "lon": -77.02477033333334, "rental_uris": {"android": "https://dc.lft.to/lastmile_qr_scan", "ios": "https://dc.lft.to/lastmile_qr_scan"}, "fusion_lon": 0.0, "bike_id": "dcbcdf98cb3d44f8e50b81e96f1178f6", "is_disabled": 0, "lat": 38.93093316666667, "is_reserved": 0, "type": "electric_scooter"}, {"fusion_lat": 0.0, "name": "21eb75cf964d2cad0dbab3865e2cb249", "lon": -76.91206883333334, "rental_uris": {"android": "https://dc.lft.to/lastmile_qr_scan", "ios": "https://dc.lft.to/lastmile_qr_scan"}, "fusion_lon": 0.0, "bike_id": "21eb75cf964d2cad0dbab3865e2cb249", "is_disabled": 0, "lat": 38.9031215, "is_reserved": 0, "type": "electric_bike"}, {"fusion_lat": 0.0, "name": "8c04c2ab64a54efe1f9fb4a7bfb9ccd6", "lon": -77.07156883333333, "rental_uris": {"android": "https://dc.lft.to/lastmile_qr_scan", "ios": "https://dc.lft.to/lastmile_qr_scan"}, "fusion_lon": 0.0, "bike_id": "8c04c2ab64a54efe1f9fb4a7bfb9ccd6", "is_disabled": 0, "lat": 38.907779166666664, "is_reserved": 0, "type": "electric_bike"}, {"fusion_lat": 0.0, "name": "1bf4aab390babcf9a2231515752c4d97", "lon": -77.03532616666666, "rental_uris": {"android": "https://dc.lft.to/lastmile_qr_scan", "ios": "https://dc.lft.to/lastmile_qr_scan"}, "fusion_lon": 0.0, "bike_id": "1bf4aab390babcf9a2231515752c4d97", "is_disabled": 0, "lat": 38.91712233333333, "is_reserved": 0, "type": "electric_scooter"}, {"fusion_lat": 0.0, "name": "4ca038bf47937cc2770a1c91ebf96ce3", "lon": -77.028267, "rental_uris": {"android": "https://dc.lft.to/lastmile_qr_scan", "ios": "https://dc.lft.to/lastmile_qr_scan"}, "fusion_lon": 0.0, "bike_id": "4ca038bf47937cc2770a1c91ebf96ce3", "is_disabled": 0, "lat": 38.93212466666667, "is_reserved": 0, "type": "electric_scooter"}, {"fusion_lat": 0.0, "name": "6881382a13ff1148c38539c28c56f7d1", "lon": -76.987099, "rental_uris": {"android": "https://dc.lft.to/lastmile_qr_scan", "ios": "https://dc.lft.to/lastmile_qr_scan"}, "fusion_lon": 0.0, "bike_id": "6881382a13ff1148c38539c28c56f7d1", "is_disabled": 0, "lat": 38.866973333333334, "is_reserved": 0, "type": "electric_scooter"}, {"fusion_lat": 0.0, "name": "0555372238ce15f50d16dfd9e2d9a435", "lon": -76.9773855, "rental_uris": {"android": "https://dc.lft.to/lastmile_qr_scan", "ios": "https://dc.lft.to/lastmile_qr_scan"}, "fusion_lon": 0.0, "bike_id": "0555372238ce15f50d16dfd9e2d9a435", "is_disabled": 0, "lat": 38.86465666666667, "is_reserved": 0, "type": "electric_scooter"}, {"fusion_lat": 0.0, "name": "33e974509d687ee988c8be7ef3f4d6e5", "lon": -76.9968105, "rental_uris": {"android": "https://dc.lft.to/lastmile_qr_scan", "ios": "https://dc.lft.to/lastmile_qr_scan"}, "fusion_lon": 0.0, "bike_id": "33e974509d687ee988c8be7ef3f4d6e5", "is_disabled": 0, "lat": 38.8849735, "is_reserved": 0, "type": "electric_scooter"}, {"fusion_lat": 0.0, "name": "304cefb0139017c05e5ff95b75b50c0a", "lon": -76.96502833333334, "rental_uris": {"android": "https://dc.lft.to/lastmile_qr_scan", "ios": "https://dc.lft.to/lastmile_qr_scan"}, "fusion_lon": 0.0, "bike_id": "304cefb0139017c05e5ff95b75b50c0a", "is_disabled": 0, "lat": 38.876461666666664, "is_reserved": 0, "type": "electric_scooter"}, {"fusion_lat": 0.0, "name": "e5c9eb15a4f327eb7657053d9c4acdd0", "lon": -77.02813816666666, "rental_uris": {"android": "https://dc.lft.to/lastmile_qr_scan", "ios": "https://dc.lft.to/lastmile_qr_scan"}, "fusion_lon": 0.0, "bike_id": "e5c9eb15a4f327eb7657053d9c4acdd0", "is_disabled": 0, "lat": 38.9119635, "is_reserved": 0, "type": "electric_scooter"}, {"fusion_lat": 0.0, "name": "f9ccb5d4905b69603c7a56dbad2404e0", "lon": -77.03641816666666, "rental_uris": {"android": "https://dc.lft.to/lastmile_qr_scan", "ios": "https://dc.lft.to/lastmile_qr_scan"}, "fusion_lon": 0.0, "bike_id": "f9ccb5d4905b69603c7a56dbad2404e0", "is_disabled": 0, "lat": 38.902764166666664, "is_reserved": 0, "type": "electric_scooter"}, {"fusion_lat": 0.0, "name": "80c0aedd694adf6ac2d1a8d99e3deb23", "lon": -77.049986, "rental_uris": {"android": "https://dc.lft.to/lastmile_qr_scan", "ios": "https://dc.lft.to/lastmile_qr_scan"}, "fusion_lon": 0.0, "bike_id": "80c0aedd694adf6ac2d1a8d99e3deb23", "is_disabled": 0, "lat": 38.89225066666667, "is_reserved": 0, "type": "electric_scooter"}, {"fusion_lat": 0.0, "name": "b35ba79d74c04e39ef95ee526b2f0455", "lon": -76.99497566666666, "rental_uris": {"android": "https://dc.lft.to/lastmile_qr_scan", "ios": "https://dc.lft.to/lastmile_qr_scan"}, "fusion_lon": 0.0, "bike_id": "b35ba79d74c04e39ef95ee526b2f0455", "is_disabled": 0, "lat": 38.862431, "is_reserved": 0, "type": "electric_scooter"}, {"fusion_lat": 0.0, "name": "46b328268283c711db73405f504b564a", "lon": -77.0781135, "rental_uris": {"android": "https://dc.lft.to/lastmile_qr_scan", "ios": "https://dc.lft.to/lastmile_qr_scan"}, "fusion_lon": 0.0, "bike_id": "46b328268283c711db73405f504b564a", "is_disabled": 0, "lat": 38.89455933333333, "is_reserved": 0, "type": "electric_bike"}, {"fusion_lat": 0.0, "name": "3bfbbea4de49651e1488b9249b79af53", "lon": -77.02639883333333, "rental_uris": {"android": "https://dc.lft.to/lastmile_qr_scan", "ios": "https://dc.lft.to/lastmile_qr_scan"}, "fusion_lon": 0.0, "bike_id": "3bfbbea4de49651e1488b9249b79af53", "is_disabled": 0, "lat": 38.98151716666667, "is_reserved": 0, "type": "electric_bike"}, {"fusion_lat": 0.0, "name": "52153355c646db952e893517fd05ed88", "lon": -77.04252933333333, "rental_uris": {"android": "https://dc.lft.to/lastmile_qr_scan", "ios": "https://dc.lft.to/lastmile_qr_scan"}, "fusion_lon": 0.0, "bike_id": "52153355c646db952e893517fd05ed88", "is_disabled": 0, "lat": 38.92234283333333, "is_reserved": 0, "type": "electric_scooter"}, {"fusion_lat": 0.0, "name": "48add4be4e0ab4b7dee8140302f73114", "lon": -76.93373466666667, "rental_uris": {"android": "https://dc.lft.to/lastmile_qr_scan", "ios": "https://dc.lft.to/lastmile_qr_scan"}, "fusion_lon": 0.0, "bike_id": "48add4be4e0ab4b7dee8140302f73114", "is_disabled": 0, "lat": 38.899101333333334, "is_reserved": 0, "type": "electric_scooter"}, {"fusion_lat": 0.0, "name": "7aac61d2eafc56026d12d0c3907c65e4", "lon": -77.02957066666667, "rental_uris": {"android": "https://dc.lft.to/lastmile_qr_scan", "ios": "https://dc.lft.to/lastmile_qr_scan"}, "fusion_lon": 0.0, "bike_id": "7aac61d2eafc56026d12d0c3907c65e4", "is_disabled": 0, "lat": 38.925821666666664, "is_reserved": 0, "type": "electric_scooter"}, {"fusion_lat": 0.0, "name": "c0f6991544941f9ca33f71adc6c104b0", "lon": -77.04016633333333, "rental_uris": {"android": "https://dc.lft.to/lastmile_qr_scan", "ios": "https://dc.lft.to/lastmile_qr_scan"}, "fusion_lon": 0.0, "bike_id": "c0f6991544941f9ca33f71adc6c104b0", "is_disabled": 0, "lat": 38.90719633333333, "is_reserved": 0, "type": "electric_scooter"}, {"fusion_lat": 0.0, "name": "f884f92c6857322b5f2839a4969070be", "lon": -77.05333066666667, "rental_uris": {"android": "https://dc.lft.to/lastmile_qr_scan", "ios": "https://dc.lft.to/lastmile_qr_scan"}, "fusion_lon": 0.0, "bike_id": "f884f92c6857322b5f2839a4969070be", "is_disabled": 0, "lat": 38.90002583333333, "is_reserved": 0, "type": "electric_scooter"}, {"fusion_lat": 0.0, "name": "1f625881f0def0e50090c65158896d3e", "lon": -77.0435475, "rental_uris": {"android": "https://dc.lft.to/lastmile_qr_scan", "ios": "https://dc.lft.to/lastmile_qr_scan"}, "fusion_lon": 0.0, "bike_id": "1f625881f0def0e50090c65158896d3e", "is_disabled": 0, "lat": 38.90570733333333, "is_reserved": 0, "type": "electric_scooter"}, {"fusion_lat": 0.0, "name": "beaa36205c009393ab9d88de5bb091a6", "lon": -77.06700083333334, "rental_uris": {"android": "https://dc.lft.to/lastmile_qr_scan", "ios": "https://dc.lft.to/lastmile_qr_scan"}, "fusion_lon": 0.0, "bike_id": "beaa36205c009393ab9d88de5bb091a6", "is_disabled": 0, "lat": 38.91439966666667, "is_reserved": 0, "type": "electric_scooter"}, {"fusion_lat": 0.0, "name": "bce7a3eee2a97ee8b3af1032ebddd29c", "lon": -77.04413966666667, "rental_uris": {"android": "https://dc.lft.to/lastmile_qr_scan", "ios": "https://dc.lft.to/lastmile_qr_scan"}, "fusion_lon": 0.0, "bike_id": "bce7a3eee2a97ee8b3af1032ebddd29c", "is_disabled": 0, "lat": 38.9125615, "is_reserved": 0, "type": "electric_scooter"}, {"fusion_lat": 0.0, "name": "6602bfea36fcc36d305d969f400cc32f", "lon": -76.9935055, "rental_uris": {"android": "https://dc.lft.to/lastmile_qr_scan", "ios": "https://dc.lft.to/lastmile_qr_scan"}, "fusion_lon": 0.0, "bike_id": "6602bfea36fcc36d305d969f400cc32f", "is_disabled": 0, "lat": 38.88292083333333, "is_reserved": 0, "type": "electric_scooter"}, {"fusion_lat": 0.0, "name": "70063e704cca0b48a9205710fb109804", "lon": -77.04359233333334, "rental_uris": {"android": "https://dc.lft.to/lastmile_qr_scan", "ios": "https://dc.lft.to/lastmile_qr_scan"}, "fusion_lon": 0.0, "bike_id": "70063e704cca0b48a9205710fb109804", "is_disabled": 0, "lat": 38.91119, "is_reserved": 0, "type": "electric_scooter"}, {"fusion_lat": 0.0, "name": "9f2515a691b8e2f661ce8a1c313d0dd5", "lon": -77.04320016666667, "rental_uris": {"android": "https://dc.lft.to/lastmile_qr_scan", "ios": "https://dc.lft.to/lastmile_qr_scan"}, "fusion_lon": 0.0, "bike_id": "9f2515a691b8e2f661ce8a1c313d0dd5", "is_disabled": 0, "lat": 38.90102483333333, "is_reserved": 0, "type": "electric_scooter"}, {"fusion_lat": 0.0, "name": "b2a9ada0235538f9a048815598005ac7", "lon": -77.02627233333334, "rental_uris": {"android": "https://dc.lft.to/lastmile_qr_scan", "ios": "https://dc.lft.to/lastmile_qr_scan"}, "fusion_lon": 0.0, "bike_id": "b2a9ada0235538f9a048815598005ac7", "is_disabled": 0, "lat": 38.938578666666665, "is_reserved": 0, "type": "electric_bike"}, {"fusion_lat": 0.0, "name": "5d3aab224fc10d8157d56caf4cb8e4d5", "lon": -77.00733866666667, "rental_uris": {"android": "https://dc.lft.to/lastmile_qr_scan", "ios": "https://dc.lft.to/lastmile_qr_scan"}, "fusion_lon": 0.0, "bike_id": "5d3aab224fc10d8157d56caf4cb8e4d5", "is_disabled": 0, "lat": 38.8983975, "is_reserved": 0, "type": "electric_scooter"}, {"fusion_lat": 0.0, "name": "2c5543958801fccfe9206734f558efdd", "lon": -77.040891, "rental_uris": {"android": "https://dc.lft.to/lastmile_qr_scan", "ios": "https://dc.lft.to/lastmile_qr_scan"}, "fusion_lon": 0.0, "bike_id": "2c5543958801fccfe9206734f558efdd", "is_disabled": 0, "lat": 38.91045666666667, "is_reserved": 0, "type": "electric_scooter"}, {"fusion_lat": 0.0, "name": "107b15ca7634c96e2f04c4da47ec2227", "lon": -77.0240555, "rental_uris": {"android": "https://dc.lft.to/lastmile_qr_scan", "ios": "https://dc.lft.to/lastmile_qr_scan"}, "fusion_lon": 0.0, "bike_id": "107b15ca7634c96e2f04c4da47ec2227", "is_disabled": 0, "lat": 38.91137116666667, "is_reserved": 0, "type": "electric_scooter"}, {"fusion_lat": 0.0, "name": "a5a2249517a71ad5e0a9e253d3f50d92", "lon": -77.0308625, "rental_uris": {"android": "https://dc.lft.to/lastmile_qr_scan", "ios": "https://dc.lft.to/lastmile_qr_scan"}, "fusion_lon": 0.0, "bike_id": "a5a2249517a71ad5e0a9e253d3f50d92", "is_disabled": 0, "lat": 38.922364333333334, "is_reserved": 0, "type": "electric_scooter"}, {"fusion_lat": 0.0, "name": "94371082f12734f342d68e6e17909b28", "lon": -76.9949465, "rental_uris": {"android": "https://dc.lft.to/lastmile_qr_scan", "ios": "https://dc.lft.to/lastmile_qr_scan"}, "fusion_lon": 0.0, "bike_id": "94371082f12734f342d68e6e17909b28", "is_disabled": 0, "lat": 38.835597666666665, "is_reserved": 0, "type": "electric_scooter"}, {"fusion_lat": 0.0, "name": "919d354bce666134b660368ed797c3dc", "lon": -77.011997, "rental_uris": {"android": "https://dc.lft.to/lastmile_qr_scan", "ios": "https://dc.lft.to/lastmile_qr_scan"}, "fusion_lon": 0.0, "bike_id": "919d354bce666134b660368ed797c3dc", "is_disabled": 0, "lat": 38.896028333333334, "is_reserved": 0, "type": "electric_scooter"}, {"fusion_lat": 0.0, "name": "700fdeeb281f4aa88d8b92e661589768", "lon": -77.0385125, "rental_uris": {"android": "https://dc.lft.to/lastmile_qr_scan", "ios": "https://dc.lft.to/lastmile_qr_scan"}, "fusion_lon": 0.0, "bike_id": "700fdeeb281f4aa88d8b92e661589768", "is_disabled": 0, "lat": 38.90876466666667, "is_reserved": 0, "type": "electric_scooter"}, {"fusion_lat": 0.0, "name": "600c93312cf938309e134eea85baad1e", "lon": -77.0233965, "rental_uris": {"android": "https://dc.lft.to/lastmile_qr_scan", "ios": "https://dc.lft.to/lastmile_qr_scan"}, "fusion_lon": 0.0, "bike_id": "600c93312cf938309e134eea85baad1e", "is_disabled": 0, "lat": 38.9176585, "is_reserved": 0, "type": "electric_scooter"}, {"fusion_lat": 0.0, "name": "e90dfb3e41ba76b6a7ed661b8850dfbd", "lon": -77.03192183333333, "rental_uris": {"android": "https://dc.lft.to/lastmile_qr_scan", "ios": "https://dc.lft.to/lastmile_qr_scan"}, "fusion_lon": 0.0, "bike_id": "e90dfb3e41ba76b6a7ed661b8850dfbd", "is_disabled": 0, "lat": 38.91771833333333, "is_reserved": 0, "type": "electric_scooter"}, {"fusion_lat": 0.0, "name": "5d0279862122e4ec54e132fa838399b7", "lon": -77.00612333333333, "rental_uris": {"android": "https://dc.lft.to/lastmile_qr_scan", "ios": "https://dc.lft.to/lastmile_qr_scan"}, "fusion_lon": 0.0, "bike_id": "5d0279862122e4ec54e132fa838399b7", "is_disabled": 0, "lat": 38.87180816666667, "is_reserved": 0, "type": "electric_scooter"}, {"fusion_lat": 0.0, "name": "cb55d0a0f062ca2a37b9386528b72efe", "lon": -77.038552, "rental_uris": {"android": "https://dc.lft.to/lastmile_qr_scan", "ios": "https://dc.lft.to/lastmile_qr_scan"}, "fusion_lon": 0.0, "bike_id": "cb55d0a0f062ca2a37b9386528b72efe", "is_disabled": 0, "lat": 38.90265383333333, "is_reserved": 0, "type": "electric_scooter"}, {"fusion_lat": 0.0, "name": "d3e7dec872e0442bfba0b9d812f5d605", "lon": -77.03437016666666, "rental_uris": {"android": "https://dc.lft.to/lastmile_qr_scan", "ios": "https://dc.lft.to/lastmile_qr_scan"}, "fusion_lon": 0.0, "bike_id": "d3e7dec872e0442bfba0b9d812f5d605", "is_disabled": 0, "lat": 38.918059666666664, "is_reserved": 0, "type": "electric_scooter"}, {"fusion_lat": 0.0, "name": "9f538a07933d0db852435a83db23fece", "lon": -76.9335125, "rental_uris": {"android": "https://dc.lft.to/lastmile_qr_scan", "ios": "https://dc.lft.to/lastmile_qr_scan"}, "fusion_lon": 0.0, "bike_id": "9f538a07933d0db852435a83db23fece", "is_disabled": 0, "lat": 38.8879045, "is_reserved": 0, "type": "electric_scooter"}, {"fusion_lat": 0.0, "name": "d79fe0f0947a321894c478e4a128b54b", "lon": -77.0463855, "rental_uris": {"android": "https://dc.lft.to/lastmile_qr_scan", "ios": "https://dc.lft.to/lastmile_qr_scan"}, "fusion_lon": 0.0, "bike_id": "d79fe0f0947a321894c478e4a128b54b", "is_disabled": 0, "lat": 38.89223966666667, "is_reserved": 0, "type": "electric_scooter"}, {"fusion_lat": 0.0, "name": "48f2c6637cfa0a9170c94990383c3502", "lon": -77.04835733333333, "rental_uris": {"android": "https://dc.lft.to/lastmile_qr_scan", "ios": "https://dc.lft.to/lastmile_qr_scan"}, "fusion_lon": 0.0, "bike_id": "48f2c6637cfa0a9170c94990383c3502", "is_disabled": 0, "lat": 38.89986733333333, "is_reserved": 0, "type": "electric_scooter"}, {"fusion_lat": 0.0, "name": "08845eeb33c0e44598c9deb49ac37f2a", "lon": -76.93731616666666, "rental_uris": {"android": "https://dc.lft.to/lastmile_qr_scan", "ios": "https://dc.lft.to/lastmile_qr_scan"}, "fusion_lon": 0.0, "bike_id": "08845eeb33c0e44598c9deb49ac37f2a", "is_disabled": 0, "lat": 38.8901405, "is_reserved": 0, "type": "electric_scooter"}, {"fusion_lat": 0.0, "name": "f5335b500134d52d14985174647df41d", "lon": -76.99143883333333, "rental_uris": {"android": "https://dc.lft.to/lastmile_qr_scan", "ios": "https://dc.lft.to/lastmile_qr_scan"}, "fusion_lon": 0.0, "bike_id": "f5335b500134d52d14985174647df41d", "is_disabled": 0, "lat": 38.8859485, "is_reserved": 0, "type": "electric_scooter"}, {"fusion_lat": 0.0, "name": "9f61bbaa9dc2f004aff7e202231c75fa", "lon": -77.0220805, "rental_uris": {"android": "https://dc.lft.to/lastmile_qr_scan", "ios": "https://dc.lft.to/lastmile_qr_scan"}, "fusion_lon": 0.0, "bike_id": "9f61bbaa9dc2f004aff7e202231c75fa", "is_disabled": 0, "lat": 38.92455133333333, "is_reserved": 0, "type": "electric_scooter"}, {"fusion_lat": 0.0, "name": "6598271112769753b0ed21184710fbd1", "lon": -76.994744, "rental_uris": {"android": "https://dc.lft.to/lastmile_qr_scan", "ios": "https://dc.lft.to/lastmile_qr_scan"}, "fusion_lon": 0.0, "bike_id": "6598271112769753b0ed21184710fbd1", "is_disabled": 0, "lat": 38.86214416666667, "is_reserved": 0, "type": "electric_scooter"}, {"fusion_lat": 0.0, "name": "f09ebf4eef0fe282bf89fbbc52ef962f", "lon": -77.0326045, "rental_uris": {"android": "https://dc.lft.to/lastmile_qr_scan", "ios": "https://dc.lft.to/lastmile_qr_scan"}, "fusion_lon": 0.0, "bike_id": "f09ebf4eef0fe282bf89fbbc52ef962f", "is_disabled": 0, "lat": 38.92104583333333, "is_reserved": 0, "type": "electric_scooter"}, {"fusion_lat": 0.0, "name": "6ceb8aeb41f866d7fdb28bb390110c8c", "lon": -77.0325405, "rental_uris": {"android": "https://dc.lft.to/lastmile_qr_scan", "ios": "https://dc.lft.to/lastmile_qr_scan"}, "fusion_lon": 0.0, "bike_id": "6ceb8aeb41f866d7fdb28bb390110c8c", "is_disabled": 0, "lat": 38.9095495, "is_reserved": 0, "type": "electric_scooter"}, {"fusion_lat": 0.0, "name": "de61b6857acada37ad25bd2222391650", "lon": -77.04903166666666, "rental_uris": {"android": "https://dc.lft.to/lastmile_qr_scan", "ios": "https://dc.lft.to/lastmile_qr_scan"}, "fusion_lon": 0.0, "bike_id": "de61b6857acada37ad25bd2222391650", "is_disabled": 0, "lat": 38.911674833333336, "is_reserved": 0, "type": "electric_scooter"}, {"fusion_lat": 0.0, "name": "ac8181e3c65f8a630f8c33aa5edda696", "lon": -77.01529816666667, "rental_uris": {"android": "https://dc.lft.to/lastmile_qr_scan", "ios": "https://dc.lft.to/lastmile_qr_scan"}, "fusion_lon": 0.0, "bike_id": "ac8181e3c65f8a630f8c33aa5edda696", "is_disabled": 0, "lat": 38.9004505, "is_reserved": 0, "type": "electric_scooter"}, {"fusion_lat": 0.0, "name": "1325294451f50469d8a66e5f841e20c8", "lon": -77.043922, "rental_uris": {"android": "https://dc.lft.to/lastmile_qr_scan", "ios": "https://dc.lft.to/lastmile_qr_scan"}, "fusion_lon": 0.0, "bike_id": "1325294451f50469d8a66e5f841e20c8", "is_disabled": 0, "lat": 38.90953066666667, "is_reserved": 0, "type": "electric_scooter"}, {"fusion_lat": 0.0, "name": "a8363fdd1f404c575575ea17ba1238f8", "lon": -77.0288415, "rental_uris": {"android": "https://dc.lft.to/lastmile_qr_scan", "ios": "https://dc.lft.to/lastmile_qr_scan"}, "fusion_lon": 0.0, "bike_id": "a8363fdd1f404c575575ea17ba1238f8", "is_disabled": 0, "lat": 38.939791166666666, "is_reserved": 0, "type": "electric_scooter"}, {"fusion_lat": 0.0, "name": "477624faaff8b5535b1b41fddfcb1afb", "lon": -77.13098233333334, "rental_uris": {"android": "https://dc.lft.to/lastmile_qr_scan", "ios": "https://dc.lft.to/lastmile_qr_scan"}, "fusion_lon": 0.0, "bike_id": "477624faaff8b5535b1b41fddfcb1afb", "is_disabled": 0, "lat": 39.02435783333333, "is_reserved": 0, "type": "electric_bike"}, {"fusion_lat": 0.0, "name": "d08b906113cb0423cc64a86b3298decb", "lon": -77.02562983333333, "rental_uris": {"android": "https://dc.lft.to/lastmile_qr_scan", "ios": "https://dc.lft.to/lastmile_qr_scan"}, "fusion_lon": 0.0, "bike_id": "d08b906113cb0423cc64a86b3298decb", "is_disabled": 0, "lat": 38.93860383333333, "is_reserved": 0, "type": "electric_scooter"}, {"fusion_lat": 0.0, "name": "0bce5ec64ccf78ec489c1858bcee88b9", "lon": -77.0511455, "rental_uris": {"android": "https://dc.lft.to/lastmile_qr_scan", "ios": "https://dc.lft.to/lastmile_qr_scan"}, "fusion_lon": 0.0, "bike_id": "0bce5ec64ccf78ec489c1858bcee88b9", "is_disabled": 0, "lat": 38.923617, "is_reserved": 0, "type": "electric_scooter"}, {"fusion_lat": 0.0, "name": "6dfc68e0caed24bfd5d06e54e0fcb571", "lon": -77.04166916666667, "rental_uris": {"android": "https://dc.lft.to/lastmile_qr_scan", "ios": "https://dc.lft.to/lastmile_qr_scan"}, "fusion_lon": 0.0, "bike_id": "6dfc68e0caed24bfd5d06e54e0fcb571", "is_disabled": 0, "lat": 38.9185565, "is_reserved": 0, "type": "electric_scooter"}, {"fusion_lat": 0.0, "name": "acdee603a4b45aba1de07cfbefd1d5c4", "lon": -77.24533266666667, "rental_uris": {"android": "https://dc.lft.to/lastmile_qr_scan", "ios": "https://dc.lft.to/lastmile_qr_scan"}, "fusion_lon": 0.0, "bike_id": "acdee603a4b45aba1de07cfbefd1d5c4", "is_disabled": 0, "lat": 38.882427666666665, "is_reserved": 0, "type": "electric_bike"}, {"fusion_lat": 0.0, "name": "2e41c370989ec46bafb0dd5929da8bf7", "lon": -77.04595466666666, "rental_uris": {"android": "https://dc.lft.to/lastmile_qr_scan", "ios": "https://dc.lft.to/lastmile_qr_scan"}, "fusion_lon": 0.0, "bike_id": "2e41c370989ec46bafb0dd5929da8bf7", "is_disabled": 0, "lat": 38.90234566666667, "is_reserved": 0, "type": "electric_scooter"}, {"fusion_lat": 0.0, "name": "0e5feaf5df8603871fdbeaf0c8814718", "lon": -77.029582, "rental_uris": {"android": "https://dc.lft.to/lastmile_qr_scan", "ios": "https://dc.lft.to/lastmile_qr_scan"}, "fusion_lon": 0.0, "bike_id": "0e5feaf5df8603871fdbeaf0c8814718", "is_disabled": 0, "lat": 38.916687, "is_reserved": 0, "type": "electric_scooter"}, {"fusion_lat": 0.0, "name": "7cf4388fdb9a8db9d916795853952647", "lon": -77.02817116666667, "rental_uris": {"android": "https://dc.lft.to/lastmile_qr_scan", "ios": "https://dc.lft.to/lastmile_qr_scan"}, "fusion_lon": 0.0, "bike_id": "7cf4388fdb9a8db9d916795853952647", "is_disabled": 0, "lat": 38.88722216666667, "is_reserved": 0, "type": "electric_scooter"}, {"fusion_lat": 0.0, "name": "adb53e056664b54a8cce898c1091f8ff", "lon": -76.95016633333333, "rental_uris": {"android": "https://dc.lft.to/lastmile_qr_scan", "ios": "https://dc.lft.to/lastmile_qr_scan"}, "fusion_lon": 0.0, "bike_id": "adb53e056664b54a8cce898c1091f8ff", "is_disabled": 0, "lat": 38.89369516666667, "is_reserved": 0, "type": "electric_scooter"}, {"fusion_lat": 0.0, "name": "ab6b254b9fdec2e1324630c7cd325e55", "lon": -76.99736116666666, "rental_uris": {"android": "https://dc.lft.to/lastmile_qr_scan", "ios": "https://dc.lft.to/lastmile_qr_scan"}, "fusion_lon": 0.0, "bike_id": "ab6b254b9fdec2e1324630c7cd325e55", "is_disabled": 0, "lat": 39.042287, "is_reserved": 0, "type": "electric_bike"}, {"fusion_lat": 0.0, "name": "f65b3f6929b1d46d85d3b3bc084b6a44", "lon": -76.99624416666667, "rental_uris": {"android": "https://dc.lft.to/lastmile_qr_scan", "ios": "https://dc.lft.to/lastmile_qr_scan"}, "fusion_lon": 0.0, "bike_id": "f65b3f6929b1d46d85d3b3bc084b6a44", "is_disabled": 0, "lat": 38.899995833333335, "is_reserved": 0, "type": "electric_scooter"}, {"fusion_lat": 0.0, "name": "3e1a457c7b4a3b037e241b05a5ef1e23", "lon": -77.04495933333334, "rental_uris": {"android": "https://dc.lft.to/lastmile_qr_scan", "ios": "https://dc.lft.to/lastmile_qr_scan"}, "fusion_lon": 0.0, "bike_id": "3e1a457c7b4a3b037e241b05a5ef1e23", "is_disabled": 0, "lat": 38.91109, "is_reserved": 0, "type": "electric_scooter"}, {"fusion_lat": 0.0, "name": "98bdef835aa63cffda179fc503418c69", "lon": -76.9352755, "rental_uris": {"android": "https://dc.lft.to/lastmile_qr_scan", "ios": "https://dc.lft.to/lastmile_qr_scan"}, "fusion_lon": 0.0, "bike_id": "98bdef835aa63cffda179fc503418c69", "is_disabled": 0, "lat": 38.89677233333333, "is_reserved": 0, "type": "electric_scooter"}, {"fusion_lat": 0.0, "name": "29b7ac3269d8e90f443b2f997b8d45d8", "lon": -77.00887283333333, "rental_uris": {"android": "https://dc.lft.to/lastmile_qr_scan", "ios": "https://dc.lft.to/lastmile_qr_scan"}, "fusion_lon": 0.0, "bike_id": "29b7ac3269d8e90f443b2f997b8d45d8", "is_disabled": 0, "lat": 38.87446633333333, "is_reserved": 0, "type": "electric_scooter"}, {"fusion_lat": 0.0, "name": "e2d78efee50914c3ec120f74ae4b4908", "lon": -77.04917166666667, "rental_uris": {"android": "https://dc.lft.to/lastmile_qr_scan", "ios": "https://dc.lft.to/lastmile_qr_scan"}, "fusion_lon": 0.0, "bike_id": "e2d78efee50914c3ec120f74ae4b4908", "is_disabled": 0, "lat": 38.905353166666664, "is_reserved": 0, "type": "electric_scooter"}, {"fusion_lat": 0.0, "name": "e03a8e6d497fc491764fd60be9e942a0", "lon": -77.0315395, "rental_uris": {"android": "https://dc.lft.to/lastmile_qr_scan", "ios": "https://dc.lft.to/lastmile_qr_scan"}, "fusion_lon": 0.0, "bike_id": "e03a8e6d497fc491764fd60be9e942a0", "is_disabled": 0, "lat": 38.91626983333333, "is_reserved": 0, "type": "electric_scooter"}, {"fusion_lat": 0.0, "name": "cb418d946a21b887b6ff4bfe702641fc", "lon": -77.0437435, "rental_uris": {"android": "https://dc.lft.to/lastmile_qr_scan", "ios": "https://dc.lft.to/lastmile_qr_scan"}, "fusion_lon": 0.0, "bike_id": "cb418d946a21b887b6ff4bfe702641fc", "is_disabled": 0, "lat": 38.89221933333334, "is_reserved": 0, "type": "electric_scooter"}, {"fusion_lat": 0.0, "name": "ac2d8a6583e562ca15fa5af5735ca497", "lon": -76.92927016666667, "rental_uris": {"android": "https://dc.lft.to/lastmile_qr_scan", "ios": "https://dc.lft.to/lastmile_qr_scan"}, "fusion_lon": 0.0, "bike_id": "ac2d8a6583e562ca15fa5af5735ca497", "is_disabled": 0, "lat": 38.9027095, "is_reserved": 0, "type": "electric_bike"}, {"fusion_lat": 0.0, "name": "81e0c27599ca0d6b06742c955f28bba1", "lon": -77.04620683333333, "rental_uris": {"android": "https://dc.lft.to/lastmile_qr_scan", "ios": "https://dc.lft.to/lastmile_qr_scan"}, "fusion_lon": 0.0, "bike_id": "81e0c27599ca0d6b06742c955f28bba1", "is_disabled": 0, "lat": 38.9154455, "is_reserved": 0, "type": "electric_scooter"}, {"fusion_lat": 0.0, "name": "748e85ef48bacc352dcb87bccd7ff487", "lon": -77.02806116666666, "rental_uris": {"android": "https://dc.lft.to/lastmile_qr_scan", "ios": "https://dc.lft.to/lastmile_qr_scan"}, "fusion_lon": 0.0, "bike_id": "748e85ef48bacc352dcb87bccd7ff487", "is_disabled": 0, "lat": 38.898225, "is_reserved": 0, "type": "electric_scooter"}, {"fusion_lat": 0.0, "name": "dfc44b2d10aacf2fcdcbebb960dbc5f0", "lon": -77.030657, "rental_uris": {"android": "https://dc.lft.to/lastmile_qr_scan", "ios": "https://dc.lft.to/lastmile_qr_scan"}, "fusion_lon": 0.0, "bike_id": "dfc44b2d10aacf2fcdcbebb960dbc5f0", "is_disabled": 0, "lat": 38.917010833333336, "is_reserved": 0, "type": "electric_scooter"}, {"fusion_lat": 0.0, "name": "f04896fc1027728c082f422ea078edee", "lon": -77.03233683333333, "rental_uris": {"android": "https://dc.lft.to/lastmile_qr_scan", "ios": "https://dc.lft.to/lastmile_qr_scan"}, "fusion_lon": 0.0, "bike_id": "f04896fc1027728c082f422ea078edee", "is_disabled": 0, "lat": 38.917080166666665, "is_reserved": 0, "type": "electric_scooter"}, {"fusion_lat": 0.0, "name": "fe063a227d67a820d22789a3b0374595", "lon": -76.985051, "rental_uris": {"android": "https://dc.lft.to/lastmile_qr_scan", "ios": "https://dc.lft.to/lastmile_qr_scan"}, "fusion_lon": 0.0, "bike_id": "fe063a227d67a820d22789a3b0374595", "is_disabled": 0, "lat": 38.86662366666667, "is_reserved": 0, "type": "electric_scooter"}, {"fusion_lat": 0.0, "name": "2daba2f6267e30057b29c2c0e15e695c", "lon": -77.016808, "rental_uris": {"android": "https://dc.lft.to/lastmile_qr_scan", "ios": "https://dc.lft.to/lastmile_qr_scan"}, "fusion_lon": 0.0, "bike_id": "2daba2f6267e30057b29c2c0e15e695c", "is_disabled": 0, "lat": 38.97492583333333, "is_reserved": 0, "type": "electric_scooter"}, {"fusion_lat": 0.0, "name": "5dc53977d4d1d6bb76fb912721fe390c", "lon": -77.03171366666666, "rental_uris": {"android": "https://dc.lft.to/lastmile_qr_scan", "ios": "https://dc.lft.to/lastmile_qr_scan"}, "fusion_lon": 0.0, "bike_id": "5dc53977d4d1d6bb76fb912721fe390c", "is_disabled": 0, "lat": 38.8921055, "is_reserved": 0, "type": "electric_scooter"}, {"fusion_lat": 0.0, "name": "d4de374a3d45af92c4f18064d5871f38", "lon": -76.98977166666667, "rental_uris": {"android": "https://dc.lft.to/lastmile_qr_scan", "ios": "https://dc.lft.to/lastmile_qr_scan"}, "fusion_lon": 0.0, "bike_id": "d4de374a3d45af92c4f18064d5871f38", "is_disabled": 0, "lat": 38.8973735, "is_reserved": 0, "type": "electric_scooter"}, {"fusion_lat": 0.0, "name": "f25ff1d319b7fb9f5f748ba9c9ad2767", "lon": -76.99152966666666, "rental_uris": {"android": "https://dc.lft.to/lastmile_qr_scan", "ios": "https://dc.lft.to/lastmile_qr_scan"}, "fusion_lon": 0.0, "bike_id": "f25ff1d319b7fb9f5f748ba9c9ad2767", "is_disabled": 0, "lat": 38.8979895, "is_reserved": 0, "type": "electric_scooter"}, {"fusion_lat": 0.0, "name": "297ea4fc17a7bde47b967d53a70356fa", "lon": -77.0101485, "rental_uris": {"android": "https://dc.lft.to/lastmile_qr_scan", "ios": "https://dc.lft.to/lastmile_qr_scan"}, "fusion_lon": 0.0, "bike_id": "297ea4fc17a7bde47b967d53a70356fa", "is_disabled": 0, "lat": 38.906557666666664, "is_reserved": 0, "type": "electric_scooter"}, {"fusion_lat": 0.0, "name": "58f14250fbc0df27bb75aadcdc041684", "lon": -76.973347, "rental_uris": {"android": "https://dc.lft.to/lastmile_qr_scan", "ios": "https://dc.lft.to/lastmile_qr_scan"}, "fusion_lon": 0.0, "bike_id": "58f14250fbc0df27bb75aadcdc041684", "is_disabled": 0, "lat": 38.86522883333333, "is_reserved": 0, "type": "electric_bike"}, {"fusion_lat": 0.0, "name": "8a8bbaf3b81b7d47b71097bd8899d0e4", "lon": -77.0318595, "rental_uris": {"android": "https://dc.lft.to/lastmile_qr_scan", "ios": "https://dc.lft.to/lastmile_qr_scan"}, "fusion_lon": 0.0, "bike_id": "8a8bbaf3b81b7d47b71097bd8899d0e4", "is_disabled": 0, "lat": 38.91345666666667, "is_reserved": 0, "type": "electric_scooter"}, {"fusion_lat": 0.0, "name": "cc2c9cdcf63217b314442c4173713ccb", "lon": -77.09520033333334, "rental_uris": {"android": "https://dc.lft.to/lastmile_qr_scan", "ios": "https://dc.lft.to/lastmile_qr_scan"}, "fusion_lon": 0.0, "bike_id": "cc2c9cdcf63217b314442c4173713ccb", "is_disabled": 0, "lat": 38.8380975, "is_reserved": 0, "type": "electric_bike"}, {"fusion_lat": 0.0, "name": "cd660e24b3ee2a6873ced4c8af89195e", "lon": -77.03221083333334, "rental_uris": {"android": "https://dc.lft.to/lastmile_qr_scan", "ios": "https://dc.lft.to/lastmile_qr_scan"}, "fusion_lon": 0.0, "bike_id": "cd660e24b3ee2a6873ced4c8af89195e", "is_disabled": 0, "lat": 38.8922175, "is_reserved": 0, "type": "electric_scooter"}, {"fusion_lat": 0.0, "name": "8ab8af71c4c74d39feb2f6495cc48f16", "lon": -77.02557116666667, "rental_uris": {"android": "https://dc.lft.to/lastmile_qr_scan", "ios": "https://dc.lft.to/lastmile_qr_scan"}, "fusion_lon": 0.0, "bike_id": "8ab8af71c4c74d39feb2f6495cc48f16", "is_disabled": 0, "lat": 38.91628133333333, "is_reserved": 0, "type": "electric_scooter"}, {"fusion_lat": 0.0, "name": "d00ac3aed344dea80b1824806b005817", "lon": -77.03866133333334, "rental_uris": {"android": "https://dc.lft.to/lastmile_qr_scan", "ios": "https://dc.lft.to/lastmile_qr_scan"}, "fusion_lon": 0.0, "bike_id": "d00ac3aed344dea80b1824806b005817", "is_disabled": 0, "lat": 38.9214775, "is_reserved": 0, "type": "electric_scooter"}, {"fusion_lat": 0.0, "name": "143d01f531db2cda99f4cf385057a96b", "lon": -77.03743516666667, "rental_uris": {"android": "https://dc.lft.to/lastmile_qr_scan", "ios": "https://dc.lft.to/lastmile_qr_scan"}, "fusion_lon": 0.0, "bike_id": "143d01f531db2cda99f4cf385057a96b", "is_disabled": 0, "lat": 38.92879216666667, "is_reserved": 0, "type": "electric_scooter"}, {"fusion_lat": 0.0, "name": "372bf06520dc8f6e3b775b767fbdb08b", "lon": -77.04397833333333, "rental_uris": {"android": "https://dc.lft.to/lastmile_qr_scan", "ios": "https://dc.lft.to/lastmile_qr_scan"}, "fusion_lon": 0.0, "bike_id": "372bf06520dc8f6e3b775b767fbdb08b", "is_disabled": 0, "lat": 38.90149133333333, "is_reserved": 0, "type": "electric_scooter"}, {"fusion_lat": 0.0, "name": "489a9e9c5b33a90c61ec7947d5661b88", "lon": -77.055166, "rental_uris": {"android": "https://dc.lft.to/lastmile_qr_scan", "ios": "https://dc.lft.to/lastmile_qr_scan"}, "fusion_lon": 0.0, "bike_id": "489a9e9c5b33a90c61ec7947d5661b88", "is_disabled": 0, "lat": 38.93003616666667, "is_reserved": 0, "type": "electric_scooter"}, {"fusion_lat": 0.0, "name": "d626f69069c35317eb91492a3c2ec4c1", "lon": -77.026867, "rental_uris": {"android": "https://dc.lft.to/lastmile_qr_scan", "ios": "https://dc.lft.to/lastmile_qr_scan"}, "fusion_lon": 0.0, "bike_id": "d626f69069c35317eb91492a3c2ec4c1", "is_disabled": 0, "lat": 38.90708, "is_reserved": 0, "type": "electric_scooter"}, {"fusion_lat": 0.0, "name": "b2275760014a96e9c8b04817279ed687", "lon": -77.04333883333334, "rental_uris": {"android": "https://dc.lft.to/lastmile_qr_scan", "ios": "https://dc.lft.to/lastmile_qr_scan"}, "fusion_lon": 0.0, "bike_id": "b2275760014a96e9c8b04817279ed687", "is_disabled": 0, "lat": 38.892263, "is_reserved": 0, "type": "electric_scooter"}, {"fusion_lat": 0.0, "name": "8d6b720d6746dd3337a5ef1706f7fb21", "lon": -77.042593, "rental_uris": {"android": "https://dc.lft.to/lastmile_qr_scan", "ios": "https://dc.lft.to/lastmile_qr_scan"}, "fusion_lon": 0.0, "bike_id": "8d6b720d6746dd3337a5ef1706f7fb21", "is_disabled": 0, "lat": 38.922321, "is_reserved": 0, "type": "electric_scooter"}, {"fusion_lat": 0.0, "name": "6c2fc12c8e73ae80049a313e8f713043", "lon": -76.9852265, "rental_uris": {"android": "https://dc.lft.to/lastmile_qr_scan", "ios": "https://dc.lft.to/lastmile_qr_scan"}, "fusion_lon": 0.0, "bike_id": "6c2fc12c8e73ae80049a313e8f713043", "is_disabled": 0, "lat": 38.8665415, "is_reserved": 0, "type": "electric_scooter"}, {"fusion_lat": 0.0, "name": "9bca63f683bfd13c84e0ce4e2a01a72b", "lon": -77.11571883333333, "rental_uris": {"android": "https://dc.lft.to/lastmile_qr_scan", "ios": "https://dc.lft.to/lastmile_qr_scan"}, "fusion_lon": 0.0, "bike_id": "9bca63f683bfd13c84e0ce4e2a01a72b", "is_disabled": 0, "lat": 38.99345983333333, "is_reserved": 0, "type": "electric_bike"}, {"fusion_lat": 0.0, "name": "70956d1603f646a806744dac6e8142df", "lon": -77.01977233333334, "rental_uris": {"android": "https://dc.lft.to/lastmile_qr_scan", "ios": "https://dc.lft.to/lastmile_qr_scan"}, "fusion_lon": 0.0, "bike_id": "70956d1603f646a806744dac6e8142df", "is_disabled": 0, "lat": 38.892301333333336, "is_reserved": 0, "type": "electric_scooter"}, {"fusion_lat": 0.0, "name": "965aca7453086b1a42dcf3ac1b11c760", "lon": -77.0220445, "rental_uris": {"android": "https://dc.lft.to/lastmile_qr_scan", "ios": "https://dc.lft.to/lastmile_qr_scan"}, "fusion_lon": 0.0, "bike_id": "965aca7453086b1a42dcf3ac1b11c760", "is_disabled": 0, "lat": 38.914358, "is_reserved": 0, "type": "electric_scooter"}, {"fusion_lat": 0.0, "name": "182af25358ccfe4bd3ea488b62c23881", "lon": -77.0380335, "rental_uris": {"android": "https://dc.lft.to/lastmile_qr_scan", "ios": "https://dc.lft.to/lastmile_qr_scan"}, "fusion_lon": 0.0, "bike_id": "182af25358ccfe4bd3ea488b62c23881", "is_disabled": 0, "lat": 38.931019, "is_reserved": 0, "type": "electric_scooter"}, {"fusion_lat": 0.0, "name": "f779da4a3e4b102d2732cc8021772a70", "lon": -77.02925183333333, "rental_uris": {"android": "https://dc.lft.to/lastmile_qr_scan", "ios": "https://dc.lft.to/lastmile_qr_scan"}, "fusion_lon": 0.0, "bike_id": "f779da4a3e4b102d2732cc8021772a70", "is_disabled": 0, "lat": 38.920635, "is_reserved": 0, "type": "electric_scooter"}, {"fusion_lat": 0.0, "name": "d4ac74aaf23938a59042b719a64c9c73", "lon": -76.93299883333333, "rental_uris": {"android": "https://dc.lft.to/lastmile_qr_scan", "ios": "https://dc.lft.to/lastmile_qr_scan"}, "fusion_lon": 0.0, "bike_id": "d4ac74aaf23938a59042b719a64c9c73", "is_disabled": 0, "lat": 38.8919345, "is_reserved": 0, "type": "electric_scooter"}, {"fusion_lat": 0.0, "name": "c9201ca6c8059939017dc4f6716a7392", "lon": -77.019159, "rental_uris": {"android": "https://dc.lft.to/lastmile_qr_scan", "ios": "https://dc.lft.to/lastmile_qr_scan"}, "fusion_lon": 0.0, "bike_id": "c9201ca6c8059939017dc4f6716a7392", "is_disabled": 0, "lat": 38.92366916666667, "is_reserved": 0, "type": "electric_scooter"}, {"fusion_lat": 0.0, "name": "6a0c69b36503140624ff414aeea02c2c", "lon": -77.03186883333333, "rental_uris": {"android": "https://dc.lft.to/lastmile_qr_scan", "ios": "https://dc.lft.to/lastmile_qr_scan"}, "fusion_lon": 0.0, "bike_id": "6a0c69b36503140624ff414aeea02c2c", "is_disabled": 0, "lat": 38.911228333333334, "is_reserved": 0, "type": "electric_scooter"}, {"fusion_lat": 0.0, "name": "2d8dacca34d4aa8ef1a81b1337547af2", "lon": -77.0485935, "rental_uris": {"android": "https://dc.lft.to/lastmile_qr_scan", "ios": "https://dc.lft.to/lastmile_qr_scan"}, "fusion_lon": 0.0, "bike_id": "2d8dacca34d4aa8ef1a81b1337547af2", "is_disabled": 0, "lat": 38.905189166666666, "is_reserved": 0, "type": "electric_scooter"}, {"fusion_lat": 0.0, "name": "fc61124a3cd0df4b8b8e7d76cf06d856", "lon": -77.0852, "rental_uris": {"android": "https://dc.lft.to/lastmile_qr_scan", "ios": "https://dc.lft.to/lastmile_qr_scan"}, "fusion_lon": 0.0, "bike_id": "fc61124a3cd0df4b8b8e7d76cf06d856", "is_disabled": 0, "lat": 38.96125816666667, "is_reserved": 0, "type": "electric_bike"}, {"fusion_lat": 0.0, "name": "6d522bdecacca94beb9937c048266953", "lon": -77.03175633333333, "rental_uris": {"android": "https://dc.lft.to/lastmile_qr_scan", "ios": "https://dc.lft.to/lastmile_qr_scan"}, "fusion_lon": 0.0, "bike_id": "6d522bdecacca94beb9937c048266953", "is_disabled": 0, "lat": 38.901062333333336, "is_reserved": 0, "type": "electric_scooter"}, {"fusion_lat": 0.0, "name": "3479f225d08446ffbab711c92feb7c97", "lon": -77.0464215, "rental_uris": {"android": "https://dc.lft.to/lastmile_qr_scan", "ios": "https://dc.lft.to/lastmile_qr_scan"}, "fusion_lon": 0.0, "bike_id": "3479f225d08446ffbab711c92feb7c97", "is_disabled": 0, "lat": 38.9157125, "is_reserved": 0, "type": "electric_scooter"}, {"fusion_lat": 0.0, "name": "ebe3702770ce970f4db24027123dcddc", "lon": -77.032544, "rental_uris": {"android": "https://dc.lft.to/lastmile_qr_scan", "ios": "https://dc.lft.to/lastmile_qr_scan"}, "fusion_lon": 0.0, "bike_id": "ebe3702770ce970f4db24027123dcddc", "is_disabled": 0, "lat": 38.920631, "is_reserved": 0, "type": "electric_scooter"}, {"fusion_lat": 0.0, "name": "f06d4d43a2eba439613178014bf4e7f0", "lon": -77.01537233333333, "rental_uris": {"android": "https://dc.lft.to/lastmile_qr_scan", "ios": "https://dc.lft.to/lastmile_qr_scan"}, "fusion_lon": 0.0, "bike_id": "f06d4d43a2eba439613178014bf4e7f0", "is_disabled": 0, "lat": 38.89173, "is_reserved": 0, "type": "electric_scooter"}, {"fusion_lat": 0.0, "name": "80c4632a65ac3e61ebd115b1c36cd593", "lon": -77.02389833333334, "rental_uris": {"android": "https://dc.lft.to/lastmile_qr_scan", "ios": "https://dc.lft.to/lastmile_qr_scan"}, "fusion_lon": 0.0, "bike_id": "80c4632a65ac3e61ebd115b1c36cd593", "is_disabled": 0, "lat": 38.91561216666667, "is_reserved": 0, "type": "electric_scooter"}, {"fusion_lat": 0.0, "name": "71d898611123101717a21cd610152bd8", "lon": -77.05156966666667, "rental_uris": {"android": "https://dc.lft.to/lastmile_qr_scan", "ios": "https://dc.lft.to/lastmile_qr_scan"}, "fusion_lon": 0.0, "bike_id": "71d898611123101717a21cd610152bd8", "is_disabled": 0, "lat": 39.04306533333333, "is_reserved": 0, "type": "electric_bike"}, {"fusion_lat": 0.0, "name": "f4e6514a1526c1ae48fc50cab50cd693", "lon": -77.02963966666667, "rental_uris": {"android": "https://dc.lft.to/lastmile_qr_scan", "ios": "https://dc.lft.to/lastmile_qr_scan"}, "fusion_lon": 0.0, "bike_id": "f4e6514a1526c1ae48fc50cab50cd693", "is_disabled": 0, "lat": 38.92067616666667, "is_reserved": 0, "type": "electric_scooter"}, {"fusion_lat": 0.0, "name": "fa20af5088372a6f3856c5e52ed0c74e", "lon": -77.02776816666666, "rental_uris": {"android": "https://dc.lft.to/lastmile_qr_scan", "ios": "https://dc.lft.to/lastmile_qr_scan"}, "fusion_lon": 0.0, "bike_id": "fa20af5088372a6f3856c5e52ed0c74e", "is_disabled": 0, "lat": 38.953950666666664, "is_reserved": 0, "type": "electric_scooter"}, {"fusion_lat": 0.0, "name": "14c695df81d8f0b5d8df5c68e670312d", "lon": -77.03964966666666, "rental_uris": {"android": "https://dc.lft.to/lastmile_qr_scan", "ios": "https://dc.lft.to/lastmile_qr_scan"}, "fusion_lon": 0.0, "bike_id": "14c695df81d8f0b5d8df5c68e670312d", "is_disabled": 0, "lat": 38.901513666666666, "is_reserved": 0, "type": "electric_scooter"}, {"fusion_lat": 0.0, "name": "9a0226182633142da9961e167d36d320", "lon": -77.0298195, "rental_uris": {"android": "https://dc.lft.to/lastmile_qr_scan", "ios": "https://dc.lft.to/lastmile_qr_scan"}, "fusion_lon": 0.0, "bike_id": "9a0226182633142da9961e167d36d320", "is_disabled": 0, "lat": 38.922478166666664, "is_reserved": 0, "type": "electric_scooter"}, {"fusion_lat": 0.0, "name": "6a01fa61551f37e616b129152cb6a262", "lon": -76.98899083333333, "rental_uris": {"android": "https://dc.lft.to/lastmile_qr_scan", "ios": "https://dc.lft.to/lastmile_qr_scan"}, "fusion_lon": 0.0, "bike_id": "6a01fa61551f37e616b129152cb6a262", "is_disabled": 0, "lat": 38.90455083333333, "is_reserved": 0, "type": "electric_scooter"}, {"fusion_lat": 0.0, "name": "003fa2d919407c18905e45f31cfa7752", "lon": -77.037052, "rental_uris": {"android": "https://dc.lft.to/lastmile_qr_scan", "ios": "https://dc.lft.to/lastmile_qr_scan"}, "fusion_lon": 0.0, "bike_id": "003fa2d919407c18905e45f31cfa7752", "is_disabled": 0, "lat": 38.926493, "is_reserved": 0, "type": "electric_scooter"}, {"fusion_lat": 0.0, "name": "ef0666c28370c0de312af906b39c7b9a", "lon": -77.02205266666667, "rental_uris": {"android": "https://dc.lft.to/lastmile_qr_scan", "ios": "https://dc.lft.to/lastmile_qr_scan"}, "fusion_lon": 0.0, "bike_id": "ef0666c28370c0de312af906b39c7b9a", "is_disabled": 0, "lat": 38.892439, "is_reserved": 0, "type": "electric_scooter"}, {"fusion_lat": 0.0, "name": "179748b3302ec10f7595bd59a528f11c", "lon": -77.03248466666666, "rental_uris": {"android": "https://dc.lft.to/lastmile_qr_scan", "ios": "https://dc.lft.to/lastmile_qr_scan"}, "fusion_lon": 0.0, "bike_id": "179748b3302ec10f7595bd59a528f11c", "is_disabled": 0, "lat": 38.931315, "is_reserved": 0, "type": "electric_scooter"}, {"fusion_lat": 0.0, "name": "d65be65e8fb299df6f3997fba1d854a9", "lon": -76.948845, "rental_uris": {"android": "https://dc.lft.to/lastmile_qr_scan", "ios": "https://dc.lft.to/lastmile_qr_scan"}, "fusion_lon": 0.0, "bike_id": "d65be65e8fb299df6f3997fba1d854a9", "is_disabled": 0, "lat": 38.895100666666664, "is_reserved": 0, "type": "electric_scooter"}, {"fusion_lat": 0.0, "name": "462bb245cca3d5e78eaa1e2b5e6df6c6", "lon": -77.023556, "rental_uris": {"android": "https://dc.lft.to/lastmile_qr_scan", "ios": "https://dc.lft.to/lastmile_qr_scan"}, "fusion_lon": 0.0, "bike_id": "462bb245cca3d5e78eaa1e2b5e6df6c6", "is_disabled": 0, "lat": 38.8921895, "is_reserved": 0, "type": "electric_scooter"}, {"fusion_lat": 0.0, "name": "25c722d2d72154a6cb5918ac68fa1028", "lon": -76.96054816666667, "rental_uris": {"android": "https://dc.lft.to/lastmile_qr_scan", "ios": "https://dc.lft.to/lastmile_qr_scan"}, "fusion_lon": 0.0, "bike_id": "25c722d2d72154a6cb5918ac68fa1028", "is_disabled": 0, "lat": 38.884034166666666, "is_reserved": 0, "type": "electric_bike"}, {"fusion_lat": 0.0, "name": "197ebf52449ae7f8ab0045f223682703", "lon": -77.02059516666667, "rental_uris": {"android": "https://dc.lft.to/lastmile_qr_scan", "ios": "https://dc.lft.to/lastmile_qr_scan"}, "fusion_lon": 0.0, "bike_id": "197ebf52449ae7f8ab0045f223682703", "is_disabled": 0, "lat": 38.9235765, "is_reserved": 0, "type": "electric_scooter"}, {"fusion_lat": 0.0, "name": "a4cb0ad9be1dcb2e64cb93810470cc24", "lon": -76.9823645, "rental_uris": {"android": "https://dc.lft.to/lastmile_qr_scan", "ios": "https://dc.lft.to/lastmile_qr_scan"}, "fusion_lon": 0.0, "bike_id": "a4cb0ad9be1dcb2e64cb93810470cc24", "is_disabled": 0, "lat": 38.888646333333334, "is_reserved": 0, "type": "electric_scooter"}, {"fusion_lat": 0.0, "name": "7447bed0f4968be607dcd278be81265a", "lon": -77.0504575, "rental_uris": {"android": "https://dc.lft.to/lastmile_qr_scan", "ios": "https://dc.lft.to/lastmile_qr_scan"}, "fusion_lon": 0.0, "bike_id": "7447bed0f4968be607dcd278be81265a", "is_disabled": 0, "lat": 38.923765333333336, "is_reserved": 0, "type": "electric_scooter"}, {"fusion_lat": 0.0, "name": "4925355ecab0f0bad5e8f6c601cc9a90", "lon": -77.029758, "rental_uris": {"android": "https://dc.lft.to/lastmile_qr_scan", "ios": "https://dc.lft.to/lastmile_qr_scan"}, "fusion_lon": 0.0, "bike_id": "4925355ecab0f0bad5e8f6c601cc9a90", "is_disabled": 0, "lat": 38.92194533333333, "is_reserved": 0, "type": "electric_scooter"}, {"fusion_lat": 0.0, "name": "6e43d2de0d282303eff0ce5493ee7418", "lon": -77.04451883333333, "rental_uris": {"android": "https://dc.lft.to/lastmile_qr_scan", "ios": "https://dc.lft.to/lastmile_qr_scan"}, "fusion_lon": 0.0, "bike_id": "6e43d2de0d282303eff0ce5493ee7418", "is_disabled": 0, "lat": 38.91178133333333, "is_reserved": 0, "type": "electric_scooter"}, {"fusion_lat": 0.0, "name": "82b76e067778103ad10e9b4987bf0c7c", "lon": -77.00214583333333, "rental_uris": {"android": "https://dc.lft.to/lastmile_qr_scan", "ios": "https://dc.lft.to/lastmile_qr_scan"}, "fusion_lon": 0.0, "bike_id": "82b76e067778103ad10e9b4987bf0c7c", "is_disabled": 0, "lat": 38.892177, "is_reserved": 0, "type": "electric_scooter"}, {"fusion_lat": 0.0, "name": "45b53c8f3b413eab8c75259f83d9647e", "lon": -77.05520983333334, "rental_uris": {"android": "https://dc.lft.to/lastmile_qr_scan", "ios": "https://dc.lft.to/lastmile_qr_scan"}, "fusion_lon": 0.0, "bike_id": "45b53c8f3b413eab8c75259f83d9647e", "is_disabled": 0, "lat": 38.9266325, "is_reserved": 0, "type": "electric_scooter"}, {"fusion_lat": 0.0, "name": "a7a35c400da80d1c50244db658a5452f", "lon": -77.02270083333333, "rental_uris": {"android": "https://dc.lft.to/lastmile_qr_scan", "ios": "https://dc.lft.to/lastmile_qr_scan"}, "fusion_lon": 0.0, "bike_id": "a7a35c400da80d1c50244db658a5452f", "is_disabled": 0, "lat": 38.87897016666667, "is_reserved": 0, "type": "electric_scooter"}, {"fusion_lat": 0.0, "name": "f0eff9516c1e20ba28fafd46732a1d5a", "lon": -76.9949465, "rental_uris": {"android": "https://dc.lft.to/lastmile_qr_scan", "ios": "https://dc.lft.to/lastmile_qr_scan"}, "fusion_lon": 0.0, "bike_id": "f0eff9516c1e20ba28fafd46732a1d5a", "is_disabled": 0, "lat": 38.862412666666664, "is_reserved": 0, "type": "electric_scooter"}, {"fusion_lat": 0.0, "name": "e34d764179b0cc7cc44cdda6161385a5", "lon": -77.03895966666667, "rental_uris": {"android": "https://dc.lft.to/lastmile_qr_scan", "ios": "https://dc.lft.to/lastmile_qr_scan"}, "fusion_lon": 0.0, "bike_id": "e34d764179b0cc7cc44cdda6161385a5", "is_disabled": 0, "lat": 38.9046225, "is_reserved": 0, "type": "electric_scooter"}, {"fusion_lat": 0.0, "name": "270d83013d1aefd113972ee9f9b1328e", "lon": -77.031836, "rental_uris": {"android": "https://dc.lft.to/lastmile_qr_scan", "ios": "https://dc.lft.to/lastmile_qr_scan"}, "fusion_lon": 0.0, "bike_id": "270d83013d1aefd113972ee9f9b1328e", "is_disabled": 0, "lat": 38.892276833333334, "is_reserved": 0, "type": "electric_scooter"}, {"fusion_lat": 0.0, "name": "afe65f2958b2140bddf0bcf950be39de", "lon": -77.01950816666667, "rental_uris": {"android": "https://dc.lft.to/lastmile_qr_scan", "ios": "https://dc.lft.to/lastmile_qr_scan"}, "fusion_lon": 0.0, "bike_id": "afe65f2958b2140bddf0bcf950be39de", "is_disabled": 0, "lat": 38.92262733333333, "is_reserved": 0, "type": "electric_scooter"}, {"fusion_lat": 0.0, "name": "26b195d9c5cec625748764d9849758e1", "lon": -77.02977, "rental_uris": {"android": "https://dc.lft.to/lastmile_qr_scan", "ios": "https://dc.lft.to/lastmile_qr_scan"}, "fusion_lon": 0.0, "bike_id": "26b195d9c5cec625748764d9849758e1", "is_disabled": 0, "lat": 38.922022, "is_reserved": 0, "type": "electric_bike"}, {"fusion_lat": 0.0, "name": "360bfcaf45801e8044302225712021c7", "lon": -77.008996, "rental_uris": {"android": "https://dc.lft.to/lastmile_qr_scan", "ios": "https://dc.lft.to/lastmile_qr_scan"}, "fusion_lon": 0.0, "bike_id": "360bfcaf45801e8044302225712021c7", "is_disabled": 0, "lat": 38.896425666666666, "is_reserved": 0, "type": "electric_scooter"}, {"fusion_lat": 0.0, "name": "51f3d6f6d0224c170a814a0b745a8bda", "lon": -77.07266383333334, "rental_uris": {"android": "https://dc.lft.to/lastmile_qr_scan", "ios": "https://dc.lft.to/lastmile_qr_scan"}, "fusion_lon": 0.0, "bike_id": "51f3d6f6d0224c170a814a0b745a8bda", "is_disabled": 0, "lat": 38.93476733333333, "is_reserved": 0, "type": "electric_scooter"}, {"fusion_lat": 0.0, "name": "df7db03213812d15fcac31cdff289c44", "lon": -77.02967133333334, "rental_uris": {"android": "https://dc.lft.to/lastmile_qr_scan", "ios": "https://dc.lft.to/lastmile_qr_scan"}, "fusion_lon": 0.0, "bike_id": "df7db03213812d15fcac31cdff289c44", "is_disabled": 0, "lat": 38.9224945, "is_reserved": 0, "type": "electric_scooter"}, {"fusion_lat": 0.0, "name": "45e35a2111f477cf6b92d57fc020376d", "lon": -77.03849516666666, "rental_uris": {"android": "https://dc.lft.to/lastmile_qr_scan", "ios": "https://dc.lft.to/lastmile_qr_scan"}, "fusion_lon": 0.0, "bike_id": "45e35a2111f477cf6b92d57fc020376d", "is_disabled": 0, "lat": 38.9318385, "is_reserved": 0, "type": "electric_scooter"}, {"fusion_lat": 0.0, "name": "6c563235514c5536ba9d2436b6384cc6", "lon": -76.93724633333333, "rental_uris": {"android": "https://dc.lft.to/lastmile_qr_scan", "ios": "https://dc.lft.to/lastmile_qr_scan"}, "fusion_lon": 0.0, "bike_id": "6c563235514c5536ba9d2436b6384cc6", "is_disabled": 0, "lat": 38.890164, "is_reserved": 0, "type": "electric_scooter"}, {"fusion_lat": 0.0, "name": "0ea63eba8420fb0adc3ef34ac725ec8b", "lon": -76.98706533333333, "rental_uris": {"android": "https://dc.lft.to/lastmile_qr_scan", "ios": "https://dc.lft.to/lastmile_qr_scan"}, "fusion_lon": 0.0, "bike_id": "0ea63eba8420fb0adc3ef34ac725ec8b", "is_disabled": 0, "lat": 38.866950333333335, "is_reserved": 0, "type": "electric_scooter"}, {"fusion_lat": 0.0, "name": "17a537e04dfb94f598818077f52d6221", "lon": -76.98886366666666, "rental_uris": {"android": "https://dc.lft.to/lastmile_qr_scan", "ios": "https://dc.lft.to/lastmile_qr_scan"}, "fusion_lon": 0.0, "bike_id": "17a537e04dfb94f598818077f52d6221", "is_disabled": 0, "lat": 38.866536333333336, "is_reserved": 0, "type": "electric_scooter"}, {"fusion_lat": 0.0, "name": "a13fb568c7793a91e059e523be8ce464", "lon": -77.03518333333334, "rental_uris": {"android": "https://dc.lft.to/lastmile_qr_scan", "ios": "https://dc.lft.to/lastmile_qr_scan"}, "fusion_lon": 0.0, "bike_id": "a13fb568c7793a91e059e523be8ce464", "is_disabled": 0, "lat": 38.9272565, "is_reserved": 0, "type": "electric_scooter"}, {"fusion_lat": 0.0, "name": "90db16025cfa91bc5453359074fea824", "lon": -77.021063, "rental_uris": {"android": "https://dc.lft.to/lastmile_qr_scan", "ios": "https://dc.lft.to/lastmile_qr_scan"}, "fusion_lon": 0.0, "bike_id": "90db16025cfa91bc5453359074fea824", "is_disabled": 0, "lat": 38.9409915, "is_reserved": 0, "type": "electric_scooter"}, {"fusion_lat": 0.0, "name": "ac17d04abd4c164b837c866b83776c6d", "lon": -77.043708, "rental_uris": {"android": "https://dc.lft.to/lastmile_qr_scan", "ios": "https://dc.lft.to/lastmile_qr_scan"}, "fusion_lon": 0.0, "bike_id": "ac17d04abd4c164b837c866b83776c6d", "is_disabled": 0, "lat": 38.920959333333336, "is_reserved": 0, "type": "electric_scooter"}, {"fusion_lat": 0.0, "name": "d2e701cfb522b44b5c2c84625c022d4c", "lon": -77.0384835, "rental_uris": {"android": "https://dc.lft.to/lastmile_qr_scan", "ios": "https://dc.lft.to/lastmile_qr_scan"}, "fusion_lon": 0.0, "bike_id": "d2e701cfb522b44b5c2c84625c022d4c", "is_disabled": 0, "lat": 38.9037265, "is_reserved": 0, "type": "electric_scooter"}, {"fusion_lat": 0.0, "name": "459da3b081dec9f62b086acbe3b031a9", "lon": -77.0456735, "rental_uris": {"android": "https://dc.lft.to/lastmile_qr_scan", "ios": "https://dc.lft.to/lastmile_qr_scan"}, "fusion_lon": 0.0, "bike_id": "459da3b081dec9f62b086acbe3b031a9", "is_disabled": 0, "lat": 38.918555166666664, "is_reserved": 0, "type": "electric_scooter"}, {"fusion_lat": 0.0, "name": "8220de42e47421e3f8ca42adc2c129ed", "lon": -77.0575755, "rental_uris": {"android": "https://dc.lft.to/lastmile_qr_scan", "ios": "https://dc.lft.to/lastmile_qr_scan"}, "fusion_lon": 0.0, "bike_id": "8220de42e47421e3f8ca42adc2c129ed", "is_disabled": 0, "lat": 38.92458333333333, "is_reserved": 0, "type": "electric_scooter"}, {"fusion_lat": 0.0, "name": "d06838c69d90e9bd59c37f0e8fd0ff6f", "lon": -77.162254, "rental_uris": {"android": "https://dc.lft.to/lastmile_qr_scan", "ios": "https://dc.lft.to/lastmile_qr_scan"}, "fusion_lon": 0.0, "bike_id": "d06838c69d90e9bd59c37f0e8fd0ff6f", "is_disabled": 0, "lat": 38.88657116666667, "is_reserved": 0, "type": "electric_bike"}, {"fusion_lat": 0.0, "name": "fa4819d754e3d4bd3883392fdd05b998", "lon": -77.04649216666667, "rental_uris": {"android": "https://dc.lft.to/lastmile_qr_scan", "ios": "https://dc.lft.to/lastmile_qr_scan"}, "fusion_lon": 0.0, "bike_id": "fa4819d754e3d4bd3883392fdd05b998", "is_disabled": 0, "lat": 38.914213, "is_reserved": 0, "type": "electric_scooter"}, {"fusion_lat": 0.0, "name": "9ea9d83956736ce3b4375f16c64a089a", "lon": -77.01809366666667, "rental_uris": {"android": "https://dc.lft.to/lastmile_qr_scan", "ios": "https://dc.lft.to/lastmile_qr_scan"}, "fusion_lon": 0.0, "bike_id": "9ea9d83956736ce3b4375f16c64a089a", "is_disabled": 0, "lat": 38.90244933333334, "is_reserved": 0, "type": "electric_scooter"}, {"fusion_lat": 0.0, "name": "fded18aab2c8d0270d6f89fdc729df6a", "lon": -77.04635666666667, "rental_uris": {"android": "https://dc.lft.to/lastmile_qr_scan", "ios": "https://dc.lft.to/lastmile_qr_scan"}, "fusion_lon": 0.0, "bike_id": "fded18aab2c8d0270d6f89fdc729df6a", "is_disabled": 0, "lat": 38.915636, "is_reserved": 0, "type": "electric_scooter"}, {"fusion_lat": 0.0, "name": "e84697f4ee32a877b2d55aa59dc68d68", "lon": -77.04535433333334, "rental_uris": {"android": "https://dc.lft.to/lastmile_qr_scan", "ios": "https://dc.lft.to/lastmile_qr_scan"}, "fusion_lon": 0.0, "bike_id": "e84697f4ee32a877b2d55aa59dc68d68", "is_disabled": 0, "lat": 38.913168166666665, "is_reserved": 0, "type": "electric_scooter"}, {"fusion_lat": 0.0, "name": "e653a6961073b6e701183aa61186ea80", "lon": -77.0522565, "rental_uris": {"android": "https://dc.lft.to/lastmile_qr_scan", "ios": "https://dc.lft.to/lastmile_qr_scan"}, "fusion_lon": 0.0, "bike_id": "e653a6961073b6e701183aa61186ea80", "is_disabled": 0, "lat": 38.924907, "is_reserved": 0, "type": "electric_scooter"}, {"fusion_lat": 0.0, "name": "44ba8b5814dad7f32223f86611265d3e", "lon": -76.99946433333334, "rental_uris": {"android": "https://dc.lft.to/lastmile_qr_scan", "ios": "https://dc.lft.to/lastmile_qr_scan"}, "fusion_lon": 0.0, "bike_id": "44ba8b5814dad7f32223f86611265d3e", "is_disabled": 0, "lat": 38.91926383333333, "is_reserved": 0, "type": "electric_scooter"}, {"fusion_lat": 0.0, "name": "4221b21be858b49aaeb507d0af63af81", "lon": -77.045641, "rental_uris": {"android": "https://dc.lft.to/lastmile_qr_scan", "ios": "https://dc.lft.to/lastmile_qr_scan"}, "fusion_lon": 0.0, "bike_id": "4221b21be858b49aaeb507d0af63af81", "is_disabled": 0, "lat": 38.9211965, "is_reserved": 0, "type": "electric_scooter"}, {"fusion_lat": 0.0, "name": "e34209ad3d308de4961bd03bd16c6cba", "lon": -77.03070533333333, "rental_uris": {"android": "https://dc.lft.to/lastmile_qr_scan", "ios": "https://dc.lft.to/lastmile_qr_scan"}, "fusion_lon": 0.0, "bike_id": "e34209ad3d308de4961bd03bd16c6cba", "is_disabled": 0, "lat": 38.9006915, "is_reserved": 0, "type": "electric_scooter"}, {"fusion_lat": 0.0, "name": "19abc9b51624f0197a678c33427cf4c6", "lon": -77.0423965, "rental_uris": {"android": "https://dc.lft.to/lastmile_qr_scan", "ios": "https://dc.lft.to/lastmile_qr_scan"}, "fusion_lon": 0.0, "bike_id": "19abc9b51624f0197a678c33427cf4c6", "is_disabled": 0, "lat": 38.92188383333333, "is_reserved": 0, "type": "electric_scooter"}, {"fusion_lat": 0.0, "name": "6a8d597323650be607fdc8e465a205e5", "lon": -77.00283366666666, "rental_uris": {"android": "https://dc.lft.to/lastmile_qr_scan", "ios": "https://dc.lft.to/lastmile_qr_scan"}, "fusion_lon": 0.0, "bike_id": "6a8d597323650be607fdc8e465a205e5", "is_disabled": 0, "lat": 38.89096, "is_reserved": 0, "type": "electric_scooter"}, {"fusion_lat": 0.0, "name": "efad40b01126740ff435b21279aa1f9a", "lon": -76.99055583333333, "rental_uris": {"android": "https://dc.lft.to/lastmile_qr_scan", "ios": "https://dc.lft.to/lastmile_qr_scan"}, "fusion_lon": 0.0, "bike_id": "efad40b01126740ff435b21279aa1f9a", "is_disabled": 0, "lat": 38.863786166666664, "is_reserved": 0, "type": "electric_scooter"}, {"fusion_lat": 0.0, "name": "44b1407ad521bd330e21c2653b41de13", "lon": -76.98223083333333, "rental_uris": {"android": "https://dc.lft.to/lastmile_qr_scan", "ios": "https://dc.lft.to/lastmile_qr_scan"}, "fusion_lon": 0.0, "bike_id": "44b1407ad521bd330e21c2653b41de13", "is_disabled": 0, "lat": 38.91639683333333, "is_reserved": 0, "type": "electric_scooter"}, {"fusion_lat": 0.0, "name": "9b27ba656e165f01033c278700fe56d3", "lon": -76.94880683333334, "rental_uris": {"android": "https://dc.lft.to/lastmile_qr_scan", "ios": "https://dc.lft.to/lastmile_qr_scan"}, "fusion_lon": 0.0, "bike_id": "9b27ba656e165f01033c278700fe56d3", "is_disabled": 0, "lat": 38.8942255, "is_reserved": 0, "type": "electric_scooter"}, {"fusion_lat": 0.0, "name": "ad0cea962edb26db0422abf5e9e55ee5", "lon": -76.99833866666667, "rental_uris": {"android": "https://dc.lft.to/lastmile_qr_scan", "ios": "https://dc.lft.to/lastmile_qr_scan"}, "fusion_lon": 0.0, "bike_id": "ad0cea962edb26db0422abf5e9e55ee5", "is_disabled": 0, "lat": 38.8945465, "is_reserved": 0, "type": "electric_scooter"}, {"fusion_lat": 0.0, "name": "78ae9b94bda7d10d375f2b98a52d265b", "lon": -77.01506283333333, "rental_uris": {"android": "https://dc.lft.to/lastmile_qr_scan", "ios": "https://dc.lft.to/lastmile_qr_scan"}, "fusion_lon": 0.0, "bike_id": "78ae9b94bda7d10d375f2b98a52d265b", "is_disabled": 0, "lat": 38.887376333333336, "is_reserved": 0, "type": "electric_scooter"}, {"fusion_lat": 0.0, "name": "e878ffd64f44809474a46f517a69f02a", "lon": -77.03453133333333, "rental_uris": {"android": "https://dc.lft.to/lastmile_qr_scan", "ios": "https://dc.lft.to/lastmile_qr_scan"}, "fusion_lon": 0.0, "bike_id": "e878ffd64f44809474a46f517a69f02a", "is_disabled": 0, "lat": 38.92067816666667, "is_reserved": 0, "type": "electric_scooter"}, {"fusion_lat": 0.0, "name": "823e76d63eb7060207ac5e8009bfef18", "lon": -77.042062, "rental_uris": {"android": "https://dc.lft.to/lastmile_qr_scan", "ios": "https://dc.lft.to/lastmile_qr_scan"}, "fusion_lon": 0.0, "bike_id": "823e76d63eb7060207ac5e8009bfef18", "is_disabled": 0, "lat": 38.92064516666667, "is_reserved": 0, "type": "electric_scooter"}, {"fusion_lat": 0.0, "name": "b72a4fc156dd76c6aec881478f8dd645", "lon": -77.048749, "rental_uris": {"android": "https://dc.lft.to/lastmile_qr_scan", "ios": "https://dc.lft.to/lastmile_qr_scan"}, "fusion_lon": 0.0, "bike_id": "b72a4fc156dd76c6aec881478f8dd645", "is_disabled": 0, "lat": 38.901107833333334, "is_reserved": 0, "type": "electric_scooter"}, {"fusion_lat": 0.0, "name": "e02f781c71f5a5016d674d885b7765f5", "lon": -77.04899733333333, "rental_uris": {"android": "https://dc.lft.to/lastmile_qr_scan", "ios": "https://dc.lft.to/lastmile_qr_scan"}, "fusion_lon": 0.0, "bike_id": "e02f781c71f5a5016d674d885b7765f5", "is_disabled": 0, "lat": 38.9159975, "is_reserved": 0, "type": "electric_scooter"}, {"fusion_lat": 0.0, "name": "3f514f846aa3eeca91ba79afacf56bc3", "lon": -77.02627583333333, "rental_uris": {"android": "https://dc.lft.to/lastmile_qr_scan", "ios": "https://dc.lft.to/lastmile_qr_scan"}, "fusion_lon": 0.0, "bike_id": "3f514f846aa3eeca91ba79afacf56bc3", "is_disabled": 0, "lat": 38.88132816666667, "is_reserved": 0, "type": "electric_scooter"}, {"fusion_lat": 0.0, "name": "c5adff5daba8a13f978f25a822b6e4e4", "lon": -77.00364466666667, "rental_uris": {"android": "https://dc.lft.to/lastmile_qr_scan", "ios": "https://dc.lft.to/lastmile_qr_scan"}, "fusion_lon": 0.0, "bike_id": "c5adff5daba8a13f978f25a822b6e4e4", "is_disabled": 0, "lat": 38.911099, "is_reserved": 0, "type": "electric_scooter"}, {"fusion_lat": 0.0, "name": "7c4cb178c6cc5c63b5c93bf4fd83801c", "lon": -76.9762885, "rental_uris": {"android": "https://dc.lft.to/lastmile_qr_scan", "ios": "https://dc.lft.to/lastmile_qr_scan"}, "fusion_lon": 0.0, "bike_id": "7c4cb178c6cc5c63b5c93bf4fd83801c", "is_disabled": 0, "lat": 38.905749166666666, "is_reserved": 0, "type": "electric_scooter"}, {"fusion_lat": 0.0, "name": "80009c0720345ea7a5a6aa27a9de3fe2", "lon": -77.04667433333333, "rental_uris": {"android": "https://dc.lft.to/lastmile_qr_scan", "ios": "https://dc.lft.to/lastmile_qr_scan"}, "fusion_lon": 0.0, "bike_id": "80009c0720345ea7a5a6aa27a9de3fe2", "is_disabled": 0, "lat": 38.911692, "is_reserved": 0, "type": "electric_scooter"}, {"fusion_lat": 0.0, "name": "f29e961e047aa290d9b1fd8a3e0daa3f", "lon": -77.04066166666667, "rental_uris": {"android": "https://dc.lft.to/lastmile_qr_scan", "ios": "https://dc.lft.to/lastmile_qr_scan"}, "fusion_lon": 0.0, "bike_id": "f29e961e047aa290d9b1fd8a3e0daa3f", "is_disabled": 0, "lat": 38.904685666666666, "is_reserved": 0, "type": "electric_scooter"}, {"fusion_lat": 0.0, "name": "f3c5f8265259654fc7183e9ba387b8b5", "lon": -77.02434066666666, "rental_uris": {"android": "https://dc.lft.to/lastmile_qr_scan", "ios": "https://dc.lft.to/lastmile_qr_scan"}, "fusion_lon": 0.0, "bike_id": "f3c5f8265259654fc7183e9ba387b8b5", "is_disabled": 0, "lat": 38.924918166666664, "is_reserved": 0, "type": "electric_scooter"}, {"fusion_lat": 0.0, "name": "8c25bb57e852c8f47673225a74afaa20", "lon": -77.057277, "rental_uris": {"android": "https://dc.lft.to/lastmile_qr_scan", "ios": "https://dc.lft.to/lastmile_qr_scan"}, "fusion_lon": 0.0, "bike_id": "8c25bb57e852c8f47673225a74afaa20", "is_disabled": 0, "lat": 38.933654, "is_reserved": 0, "type": "electric_scooter"}, {"fusion_lat": 0.0, "name": "58b46404f0de9fd78abe01a186477a07", "lon": -77.01613716666667, "rental_uris": {"android": "https://dc.lft.to/lastmile_qr_scan", "ios": "https://dc.lft.to/lastmile_qr_scan"}, "fusion_lon": 0.0, "bike_id": "58b46404f0de9fd78abe01a186477a07", "is_disabled": 0, "lat": 38.88510983333333, "is_reserved": 0, "type": "electric_scooter"}, {"fusion_lat": 0.0, "name": "b75cf3613deb9a81bdb0b0e6d3478aa2", "lon": -76.93736633333333, "rental_uris": {"android": "https://dc.lft.to/lastmile_qr_scan", "ios": "https://dc.lft.to/lastmile_qr_scan"}, "fusion_lon": 0.0, "bike_id": "b75cf3613deb9a81bdb0b0e6d3478aa2", "is_disabled": 0, "lat": 38.890102166666665, "is_reserved": 0, "type": "electric_scooter"}, {"fusion_lat": 0.0, "name": "82654ed423aa576583355900a00f29ae", "lon": -77.077138, "rental_uris": {"android": "https://dc.lft.to/lastmile_qr_scan", "ios": "https://dc.lft.to/lastmile_qr_scan"}, "fusion_lon": 0.0, "bike_id": "82654ed423aa576583355900a00f29ae", "is_disabled": 0, "lat": 38.93130383333333, "is_reserved": 0, "type": "electric_bike"}, {"fusion_lat": 0.0, "name": "19b4043f2e3c4d7ff4bdc33c583faf69", "lon": -77.04188433333333, "rental_uris": {"android": "https://dc.lft.to/lastmile_qr_scan", "ios": "https://dc.lft.to/lastmile_qr_scan"}, "fusion_lon": 0.0, "bike_id": "19b4043f2e3c4d7ff4bdc33c583faf69", "is_disabled": 0, "lat": 38.920462, "is_reserved": 0, "type": "electric_scooter"}, {"fusion_lat": 0.0, "name": "25571ec5e71f590a5c8c6b31cf8d6ae8", "lon": -77.05031783333334, "rental_uris": {"android": "https://dc.lft.to/lastmile_qr_scan", "ios": "https://dc.lft.to/lastmile_qr_scan"}, "fusion_lon": 0.0, "bike_id": "25571ec5e71f590a5c8c6b31cf8d6ae8", "is_disabled": 0, "lat": 38.89277033333333, "is_reserved": 0, "type": "electric_scooter"}, {"fusion_lat": 0.0, "name": "030df089daeab0aa45978389e4d7fed3", "lon": -76.947184, "rental_uris": {"android": "https://dc.lft.to/lastmile_qr_scan", "ios": "https://dc.lft.to/lastmile_qr_scan"}, "fusion_lon": 0.0, "bike_id": "030df089daeab0aa45978389e4d7fed3", "is_disabled": 0, "lat": 38.897344833333335, "is_reserved": 0, "type": "electric_scooter"}, {"fusion_lat": 0.0, "name": "37f1fe3ac035c3e771beb48129f4a5a0", "lon": -77.046673, "rental_uris": {"android": "https://dc.lft.to/lastmile_qr_scan", "ios": "https://dc.lft.to/lastmile_qr_scan"}, "fusion_lon": 0.0, "bike_id": "37f1fe3ac035c3e771beb48129f4a5a0", "is_disabled": 0, "lat": 38.91103616666667, "is_reserved": 0, "type": "electric_scooter"}, {"fusion_lat": 0.0, "name": "3156ff4e740cb099a72c73d398b07a31", "lon": -77.0378725, "rental_uris": {"android": "https://dc.lft.to/lastmile_qr_scan", "ios": "https://dc.lft.to/lastmile_qr_scan"}, "fusion_lon": 0.0, "bike_id": "3156ff4e740cb099a72c73d398b07a31", "is_disabled": 0, "lat": 38.996743333333335, "is_reserved": 0, "type": "electric_bike"}, {"fusion_lat": 0.0, "name": "485f42fc22c489dad58b9f3db3cae03e", "lon": -77.01467366666667, "rental_uris": {"android": "https://dc.lft.to/lastmile_qr_scan", "ios": "https://dc.lft.to/lastmile_qr_scan"}, "fusion_lon": 0.0, "bike_id": "485f42fc22c489dad58b9f3db3cae03e", "is_disabled": 0, "lat": 38.87933233333333, "is_reserved": 0, "type": "electric_scooter"}, {"fusion_lat": 0.0, "name": "92147032ade2c1214ed055e32323a29f", "lon": -77.02210433333333, "rental_uris": {"android": "https://dc.lft.to/lastmile_qr_scan", "ios": "https://dc.lft.to/lastmile_qr_scan"}, "fusion_lon": 0.0, "bike_id": "92147032ade2c1214ed055e32323a29f", "is_disabled": 0, "lat": 38.91437166666667, "is_reserved": 0, "type": "electric_scooter"}, {"fusion_lat": 0.0, "name": "c1c506576be9265cd77b0f492ffd177e", "lon": -77.01683483333333, "rental_uris": {"android": "https://dc.lft.to/lastmile_qr_scan", "ios": "https://dc.lft.to/lastmile_qr_scan"}, "fusion_lon": 0.0, "bike_id": "c1c506576be9265cd77b0f492ffd177e", "is_disabled": 0, "lat": 38.97494866666667, "is_reserved": 0, "type": "electric_scooter"}, {"fusion_lat": 0.0, "name": "010d7dc22a39ec07e6546e47cdba1886", "lon": -77.03863616666666, "rental_uris": {"android": "https://dc.lft.to/lastmile_qr_scan", "ios": "https://dc.lft.to/lastmile_qr_scan"}, "fusion_lon": 0.0, "bike_id": "010d7dc22a39ec07e6546e47cdba1886", "is_disabled": 0, "lat": 38.917078833333335, "is_reserved": 0, "type": "electric_scooter"}, {"fusion_lat": 0.0, "name": "d839898d209c6c3717779c5a6940925f", "lon": -76.99775566666666, "rental_uris": {"android": "https://dc.lft.to/lastmile_qr_scan", "ios": "https://dc.lft.to/lastmile_qr_scan"}, "fusion_lon": 0.0, "bike_id": "d839898d209c6c3717779c5a6940925f", "is_disabled": 0, "lat": 38.8442245, "is_reserved": 0, "type": "electric_scooter"}, {"fusion_lat": 0.0, "name": "861a8ea27e639680e3060a28b743d1be", "lon": -77.01943366666667, "rental_uris": {"android": "https://dc.lft.to/lastmile_qr_scan", "ios": "https://dc.lft.to/lastmile_qr_scan"}, "fusion_lon": 0.0, "bike_id": "861a8ea27e639680e3060a28b743d1be", "is_disabled": 0, "lat": 38.92253516666667, "is_reserved": 0, "type": "electric_scooter"}, {"fusion_lat": 0.0, "name": "16da76d74e570567cb88a92d824a8c25", "lon": -77.0501875, "rental_uris": {"android": "https://dc.lft.to/lastmile_qr_scan", "ios": "https://dc.lft.to/lastmile_qr_scan"}, "fusion_lon": 0.0, "bike_id": "16da76d74e570567cb88a92d824a8c25", "is_disabled": 0, "lat": 38.90500316666667, "is_reserved": 0, "type": "electric_scooter"}, {"fusion_lat": 0.0, "name": "b0384265f77c1f2fcca28dba1c6088ea", "lon": -77.04486166666666, "rental_uris": {"android": "https://dc.lft.to/lastmile_qr_scan", "ios": "https://dc.lft.to/lastmile_qr_scan"}, "fusion_lon": 0.0, "bike_id": "b0384265f77c1f2fcca28dba1c6088ea", "is_disabled": 0, "lat": 38.903665, "is_reserved": 0, "type": "electric_scooter"}, {"fusion_lat": 0.0, "name": "19028db0b5a6fd10914b61a1ce4778e6", "lon": -77.02748633333333, "rental_uris": {"android": "https://dc.lft.to/lastmile_qr_scan", "ios": "https://dc.lft.to/lastmile_qr_scan"}, "fusion_lon": 0.0, "bike_id": "19028db0b5a6fd10914b61a1ce4778e6", "is_disabled": 0, "lat": 38.93959733333333, "is_reserved": 0, "type": "electric_scooter"}, {"fusion_lat": 0.0, "name": "5c2ead7421bec3026b8c6f2424b28e5f", "lon": -77.04481616666666, "rental_uris": {"android": "https://dc.lft.to/lastmile_qr_scan", "ios": "https://dc.lft.to/lastmile_qr_scan"}, "fusion_lon": 0.0, "bike_id": "5c2ead7421bec3026b8c6f2424b28e5f", "is_disabled": 0, "lat": 38.912423, "is_reserved": 0, "type": "electric_scooter"}, {"fusion_lat": 0.0, "name": "ea6c7f3e6942d7aae98d5e43344601fe", "lon": -77.06452116666667, "rental_uris": {"android": "https://dc.lft.to/lastmile_qr_scan", "ios": "https://dc.lft.to/lastmile_qr_scan"}, "fusion_lon": 0.0, "bike_id": "ea6c7f3e6942d7aae98d5e43344601fe", "is_disabled": 0, "lat": 38.905205, "is_reserved": 0, "type": "electric_scooter"}, {"fusion_lat": 0.0, "name": "1e85d7e27fb60bb69982d03790b2ee8f", "lon": -77.04203383333333, "rental_uris": {"android": "https://dc.lft.to/lastmile_qr_scan", "ios": "https://dc.lft.to/lastmile_qr_scan"}, "fusion_lon": 0.0, "bike_id": "1e85d7e27fb60bb69982d03790b2ee8f", "is_disabled": 0, "lat": 38.9070175, "is_reserved": 0, "type": "electric_scooter"}, {"fusion_lat": 0.0, "name": "1efa3f0b0d675d0ebdb322096bf81f85", "lon": -76.98928416666666, "rental_uris": {"android": "https://dc.lft.to/lastmile_qr_scan", "ios": "https://dc.lft.to/lastmile_qr_scan"}, "fusion_lon": 0.0, "bike_id": "1efa3f0b0d675d0ebdb322096bf81f85", "is_disabled": 0, "lat": 38.857244333333334, "is_reserved": 0, "type": "electric_scooter"}, {"fusion_lat": 0.0, "name": "55eecdf68052707a4aa82cd106b01c60", "lon": -77.03759166666667, "rental_uris": {"android": "https://dc.lft.to/lastmile_qr_scan", "ios": "https://dc.lft.to/lastmile_qr_scan"}, "fusion_lon": 0.0, "bike_id": "55eecdf68052707a4aa82cd106b01c60", "is_disabled": 0, "lat": 38.918780166666664, "is_reserved": 0, "type": "electric_scooter"}, {"fusion_lat": 0.0, "name": "84114100c58f930a1651331bbbcf4f7b", "lon": -76.99301416666667, "rental_uris": {"android": "https://dc.lft.to/lastmile_qr_scan", "ios": "https://dc.lft.to/lastmile_qr_scan"}, "fusion_lon": 0.0, "bike_id": "84114100c58f930a1651331bbbcf4f7b", "is_disabled": 0, "lat": 38.9076235, "is_reserved": 0, "type": "electric_scooter"}, {"fusion_lat": 0.0, "name": "e0369ff74629580e732b291c7df7d365", "lon": -77.0256975, "rental_uris": {"android": "https://dc.lft.to/lastmile_qr_scan", "ios": "https://dc.lft.to/lastmile_qr_scan"}, "fusion_lon": 0.0, "bike_id": "e0369ff74629580e732b291c7df7d365", "is_disabled": 0, "lat": 38.90371316666667, "is_reserved": 0, "type": "electric_scooter"}, {"fusion_lat": 0.0, "name": "1977b4d64306febca101457c3b8089c0", "lon": -76.99355266666667, "rental_uris": {"android": "https://dc.lft.to/lastmile_qr_scan", "ios": "https://dc.lft.to/lastmile_qr_scan"}, "fusion_lon": 0.0, "bike_id": "1977b4d64306febca101457c3b8089c0", "is_disabled": 0, "lat": 38.8778125, "is_reserved": 0, "type": "electric_scooter"}, {"fusion_lat": 0.0, "name": "25019079e7580b3102df2569a19efe3c", "lon": -77.00733666666666, "rental_uris": {"android": "https://dc.lft.to/lastmile_qr_scan", "ios": "https://dc.lft.to/lastmile_qr_scan"}, "fusion_lon": 0.0, "bike_id": "25019079e7580b3102df2569a19efe3c", "is_disabled": 0, "lat": 38.904717166666664, "is_reserved": 0, "type": "electric_scooter"}, {"fusion_lat": 0.0, "name": "3f7c992f6677cc92460829c0d68f569a", "lon": -77.00378366666666, "rental_uris": {"android": "https://dc.lft.to/lastmile_qr_scan", "ios": "https://dc.lft.to/lastmile_qr_scan"},