{"data": {"bikes": [{"lat": 38.905774666666666, "type": "electric_scooter", "is_disabled": 0, "rental_uris": {"android": "https://dc.lft.to/lastmile_qr_scan", "ios": "https://dc.lft.to/lastmile_qr_scan"}, "is_reserved": 0, "bike_id": "32081c898da29a23d68c7e9931d19361", "name": "32081c898da29a23d68c7e9931d19361", "fusion_lon": 0.0, "lon": -77.005919, "fusion_lat": 0.0}, {"lat": 38.91569116666667, "type": "electric_scooter", "is_disabled": 0, "rental_uris": {"android": "https://dc.lft.to/lastmile_qr_scan", "ios": "https://dc.lft.to/lastmile_qr_scan"}, "is_reserved": 0, "bike_id": "e9f279f417d060255be17e274960b7a6", "name": "e9f279f417d060255be17e274960b7a6", "fusion_lon": 0.0, "lon": -77.047002, "fusion_lat": 0.0}, {"lat": 38.925525666666665, "type": "electric_scooter", "is_disabled": 0, "rental_uris": {"android": "https://dc.lft.to/lastmile_qr_scan", "ios": "https://dc.lft.to/lastmile_qr_scan"}, "is_reserved": 0, "bike_id": "5bcaec2c477c9e528f8a59d9f628f2e7", "name": "5bcaec2c477c9e528f8a59d9f628f2e7", "fusion_lon": 0.0, "lon": -77.02708316666667, "fusion_lat": 0.0}, {"lat": 38.918218, "type": "electric_scooter", "is_disabled": 0, "rental_uris": {"android": "https://dc.lft.to/lastmile_qr_scan", "ios": "https://dc.lft.to/lastmile_qr_scan"}, "is_reserved": 0, "bike_id": "c99a8d2577df0f76a24808052c84377a", "name": "c99a8d2577df0f76a24808052c84377a", "fusion_lon": 0.0, "lon": -77.04174166666667, "fusion_lat": 0.0}, {"lat": 38.9191625, "type": "electric_scooter", "is_disabled": 0, "rental_uris": {"android": "https://dc.lft.to/lastmile_qr_scan", "ios": "https://dc.lft.to/lastmile_qr_scan"}, "is_reserved": 0, "bike_id": "a0a80cb22260464a9300453e727fe25c", "name": "a0a80cb22260464a9300453e727fe25c", "fusion_lon": 0.0, "lon": -77.0176135, "fusion_lat": 0.0}, {"lat": 38.897344, "type": "electric_scooter", "is_disabled": 0, "rental_uris": {"android": "https://dc.lft.to/lastmile_qr_scan", "ios": "https://dc.lft.to/lastmile_qr_scan"}, "is_reserved": 0, "bike_id": "45f56d875a16a79ab43f65eb2a7adfb3", "name": "45f56d875a16a79ab43f65eb2a7adfb3", "fusion_lon": 0.0, "lon": -77.04676566666667, "fusion_lat": 0.0}, {"lat": 38.926098333333336, "type": "electric_scooter", "is_disabled": 0, "rental_uris": {"android": "https://dc.lft.to/lastmile_qr_scan", "ios": "https://dc.lft.to/lastmile_qr_scan"}, "is_reserved": 0, "bike_id": "64b1bddc50ad35f101de9007ec599fca", "name": "64b1bddc50ad35f101de9007ec599fca", "fusion_lon": 0.0, "lon": -77.024205, "fusion_lat": 0.0}, {"lat": 38.9127, "type": "electric_scooter", "is_disabled": 0, "rental_uris": {"android": "https://dc.lft.to/lastmile_qr_scan", "ios": "https://dc.lft.to/lastmile_qr_scan"}, "is_reserved": 0, "bike_id": "662aea26ef9b0f696f7c0e85e14ad2e6", "name": "662aea26ef9b0f696f7c0e85e14ad2e6", "fusion_lon": 0.0, "lon": -77.04151283333333, "fusion_lat": 0.0}, {"lat": 39.01043166666667, "type": "electric_bike", "is_disabled": 0, "rental_uris": {"android": "https://dc.lft.to/lastmile_qr_scan", "ios": "https://dc.lft.to/lastmile_qr_scan"}, "is_reserved": 0, "bike_id": "7cc7600c02206f00dc99353d615671bf", "name": "7cc7600c02206f00dc99353d615671bf", "fusion_lon": 0.0, "lon": -76.91118766666666, "fusion_lat": 0.0}, {"lat": 38.904216166666664, "type": "electric_scooter", "is_disabled": 0, "rental_uris": {"android": "https://dc.lft.to/lastmile_qr_scan", "ios": "https://dc.lft.to/lastmile_qr_scan"}, "is_reserved": 0, "bike_id": "2fe30c6b5990a1db48fb7e456ba6cad4", "name": "2fe30c6b5990a1db48fb7e456ba6cad4", "fusion_lon": 0.0, "lon": -76.990556, "fusion_lat": 0.0}, {"lat": 38.9310185, "type": "electric_scooter", "is_disabled": 0, "rental_uris": {"android": "https://dc.lft.to/lastmile_qr_scan", "ios": "https://dc.lft.to/lastmile_qr_scan"}, "is_reserved": 0, "bike_id": "59489ba95cc6807a6698fbb5c639686b", "name": "59489ba95cc6807a6698fbb5c639686b", "fusion_lon": 0.0, "lon": -77.02396083333333, "fusion_lat": 0.0}, {"lat": 38.921893, "type": "electric_scooter", "is_disabled": 0, "rental_uris": {"android": "https://dc.lft.to/lastmile_qr_scan", "ios": "https://dc.lft.to/lastmile_qr_scan"}, "is_reserved": 0, "bike_id": "5933b05a4abd640e7f1254391e31a082", "name": "5933b05a4abd640e7f1254391e31a082", "fusion_lon": 0.0, "lon": -76.99702016666667, "fusion_lat": 0.0}, {"lat": 38.942032, "type": "electric_scooter", "is_disabled": 0, "rental_uris": {"android": "https://dc.lft.to/lastmile_qr_scan", "ios": "https://dc.lft.to/lastmile_qr_scan"}, "is_reserved": 0, "bike_id": "61f9661947fc97910e24379c344adf71", "name": "61f9661947fc97910e24379c344adf71", "fusion_lon": 0.0, "lon": -77.0257755, "fusion_lat": 0.0}, {"lat": 38.93087833333333, "type": "electric_scooter", "is_disabled": 0, "rental_uris": {"android": "https://dc.lft.to/lastmile_qr_scan", "ios": "https://dc.lft.to/lastmile_qr_scan"}, "is_reserved": 0, "bike_id": "db637c0e582302910554c6982e1b2d43", "name": "db637c0e582302910554c6982e1b2d43", "fusion_lon": 0.0, "lon": -77.02789716666666, "fusion_lat": 0.0}, {"lat": 38.914793, "type": "electric_scooter", "is_disabled": 0, "rental_uris": {"android": "https://dc.lft.to/lastmile_qr_scan", "ios": "https://dc.lft.to/lastmile_qr_scan"}, "is_reserved": 0, "bike_id": "54a467d3f9ad09e3a2f91b5ddbb97e4c", "name": "54a467d3f9ad09e3a2f91b5ddbb97e4c", "fusion_lon": 0.0, "lon": -77.00344983333333, "fusion_lat": 0.0}, {"lat": 38.91993016666667, "type": "electric_scooter", "is_disabled": 0, "rental_uris": {"android": "https://dc.lft.to/lastmile_qr_scan", "ios": "https://dc.lft.to/lastmile_qr_scan"}, "is_reserved": 0, "bike_id": "567a23b448aecbc9c02882f1852a88de", "name": "567a23b448aecbc9c02882f1852a88de", "fusion_lon": 0.0, "lon": -77.03310266666666, "fusion_lat": 0.0}, {"lat": 38.9046285, "type": "electric_scooter", "is_disabled": 0, "rental_uris": {"android": "https://dc.lft.to/lastmile_qr_scan", "ios": "https://dc.lft.to/lastmile_qr_scan"}, "is_reserved": 0, "bike_id": "b6b85d370617c65c38048a0f99a3037a", "name": "b6b85d370617c65c38048a0f99a3037a", "fusion_lon": 0.0, "lon": -77.04869166666667, "fusion_lat": 0.0}, {"lat": 38.875766666666664, "type": "electric_scooter", "is_disabled": 0, "rental_uris": {"android": "https://dc.lft.to/lastmile_qr_scan", "ios": "https://dc.lft.to/lastmile_qr_scan"}, "is_reserved": 0, "bike_id": "e65817d30302467f14a51bbb1173e709", "name": "e65817d30302467f14a51bbb1173e709", "fusion_lon": 0.0, "lon": -77.005615, "fusion_lat": 0.0}, {"lat": 38.8565395, "type": "electric_bike", "is_disabled": 0, "rental_uris": {"android": "https://dc.lft.to/lastmile_qr_scan", "ios": "https://dc.lft.to/lastmile_qr_scan"}, "is_reserved": 0, "bike_id": "3c686f3f4596d465e06d490822427231", "name": "3c686f3f4596d465e06d490822427231", "fusion_lon": 0.0, "lon": -77.08532566666666, "fusion_lat": 0.0}, {"lat": 38.86994116666666, "type": "electric_scooter", "is_disabled": 0, "rental_uris": {"android": "https://dc.lft.to/lastmile_qr_scan", "ios": "https://dc.lft.to/lastmile_qr_scan"}, "is_reserved": 0, "bike_id": "d1521590039fe5b03cd0517447d9b173", "name": "d1521590039fe5b03cd0517447d9b173", "fusion_lon": 0.0, "lon": -77.01054983333333, "fusion_lat": 0.0}, {"lat": 38.9003055, "type": "electric_scooter", "is_disabled": 0, "rental_uris": {"android": "https://dc.lft.to/lastmile_qr_scan", "ios": "https://dc.lft.to/lastmile_qr_scan"}, "is_reserved": 0, "bike_id": "24fab8bb7849030868cae392f431220b", "name": "24fab8bb7849030868cae392f431220b", "fusion_lon": 0.0, "lon": -77.01161366666666, "fusion_lat": 0.0}, {"lat": 38.886148166666665, "type": "electric_scooter", "is_disabled": 0, "rental_uris": {"android": "https://dc.lft.to/lastmile_qr_scan", "ios": "https://dc.lft.to/lastmile_qr_scan"}, "is_reserved": 0, "bike_id": "8d836b4d09ab19a4cc040a68fc5750f0", "name": "8d836b4d09ab19a4cc040a68fc5750f0", "fusion_lon": 0.0, "lon": -77.00584716666667, "fusion_lat": 0.0}, {"lat": 38.91208483333333, "type": "electric_scooter", "is_disabled": 0, "rental_uris": {"android": "https://dc.lft.to/lastmile_qr_scan", "ios": "https://dc.lft.to/lastmile_qr_scan"}, "is_reserved": 0, "bike_id": "23a69561ccb246426dd723383a0160c5", "name": "23a69561ccb246426dd723383a0160c5", "fusion_lon": 0.0, "lon": -77.0416745, "fusion_lat": 0.0}, {"lat": 38.93529516666667, "type": "electric_scooter", "is_disabled": 0, "rental_uris": {"android": "https://dc.lft.to/lastmile_qr_scan", "ios": "https://dc.lft.to/lastmile_qr_scan"}, "is_reserved": 0, "bike_id": "351dd108a089098ec744d02c7f314363", "name": "351dd108a089098ec744d02c7f314363", "fusion_lon": 0.0, "lon": -77.032594, "fusion_lat": 0.0}, {"lat": 38.89674483333334, "type": "electric_scooter", "is_disabled": 0, "rental_uris": {"android": "https://dc.lft.to/lastmile_qr_scan", "ios": "https://dc.lft.to/lastmile_qr_scan"}, "is_reserved": 0, "bike_id": "9ab3a85ffc99dbd27e5750a35ba83bc8", "name": "9ab3a85ffc99dbd27e5750a35ba83bc8", "fusion_lon": 0.0, "lon": -77.05149283333333, "fusion_lat": 0.0}, {"lat": 38.956406, "type": "electric_scooter", "is_disabled": 0, "rental_uris": {"android": "https://dc.lft.to/lastmile_qr_scan", "ios": "https://dc.lft.to/lastmile_qr_scan"}, "is_reserved": 0, "bike_id": "a73556105d3e36b22dd8e67bd2f6f933", "name": "a73556105d3e36b22dd8e67bd2f6f933", "fusion_lon": 0.0, "lon": -77.09099583333334, "fusion_lat": 0.0}, {"lat": 38.88658783333333, "type": "electric_scooter", "is_disabled": 0, "rental_uris": {"android": "https://dc.lft.to/lastmile_qr_scan", "ios": "https://dc.lft.to/lastmile_qr_scan"}, "is_reserved": 0, "bike_id": "9133fbb020da94ba00eeb7ed79ca4160", "name": "9133fbb020da94ba00eeb7ed79ca4160", "fusion_lon": 0.0, "lon": -77.03387333333333, "fusion_lat": 0.0}, {"lat": 38.894603000000004, "type": "electric_scooter", "is_disabled": 0, "rental_uris": {"android": "https://dc.lft.to/lastmile_qr_scan", "ios": "https://dc.lft.to/lastmile_qr_scan"}, "is_reserved": 0, "bike_id": "a491a85313aee8300fc07b53c561f1e3", "name": "a491a85313aee8300fc07b53c561f1e3", "fusion_lon": 0.0, "lon": -76.94820983333334, "fusion_lat": 0.0}, {"lat": 38.84433533333333, "type": "electric_scooter", "is_disabled": 0, "rental_uris": {"android": "https://dc.lft.to/lastmile_qr_scan", "ios": "https://dc.lft.to/lastmile_qr_scan"}, "is_reserved": 0, "bike_id": "0ed6a48d01ed944b66de4ba3edaceb5a", "name": "0ed6a48d01ed944b66de4ba3edaceb5a", "fusion_lon": 0.0, "lon": -76.99772366666667, "fusion_lat": 0.0}, {"lat": 38.89907616666667, "type": "electric_scooter", "is_disabled": 0, "rental_uris": {"android": "https://dc.lft.to/lastmile_qr_scan", "ios": "https://dc.lft.to/lastmile_qr_scan"}, "is_reserved": 0, "bike_id": "1289fbb5bf5b0757e4d85771946c886a", "name": "1289fbb5bf5b0757e4d85771946c886a", "fusion_lon": 0.0, "lon": -77.040388, "fusion_lat": 0.0}, {"lat": 38.862511, "type": "electric_scooter", "is_disabled": 0, "rental_uris": {"android": "https://dc.lft.to/lastmile_qr_scan", "ios": "https://dc.lft.to/lastmile_qr_scan"}, "is_reserved": 0, "bike_id": "e76b5f0f04fd713d366fd8e7a3723687", "name": "e76b5f0f04fd713d366fd8e7a3723687", "fusion_lon": 0.0, "lon": -76.99533816666667, "fusion_lat": 0.0}, {"lat": 38.925845833333334, "type": "electric_scooter", "is_disabled": 0, "rental_uris": {"android": "https://dc.lft.to/lastmile_qr_scan", "ios": "https://dc.lft.to/lastmile_qr_scan"}, "is_reserved": 0, "bike_id": "3a743d8195e24c96c00e0a02910f11ac", "name": "3a743d8195e24c96c00e0a02910f11ac", "fusion_lon": 0.0, "lon": -77.0321235, "fusion_lat": 0.0}, {"lat": 38.93084233333333, "type": "electric_scooter", "is_disabled": 0, "rental_uris": {"android": "https://dc.lft.to/lastmile_qr_scan", "ios": "https://dc.lft.to/lastmile_qr_scan"}, "is_reserved": 0, "bike_id": "8a2c237e9d8a1346102d2115f2220a16", "name": "8a2c237e9d8a1346102d2115f2220a16", "fusion_lon": 0.0, "lon": -77.02796883333333, "fusion_lat": 0.0}, {"lat": 38.90565466666666, "type": "electric_scooter", "is_disabled": 0, "rental_uris": {"android": "https://dc.lft.to/lastmile_qr_scan", "ios": "https://dc.lft.to/lastmile_qr_scan"}, "is_reserved": 0, "bike_id": "726e310ef7ec31ba4fc48645e91be99e", "name": "726e310ef7ec31ba4fc48645e91be99e", "fusion_lon": 0.0, "lon": -77.00707916666667, "fusion_lat": 0.0}, {"lat": 38.9078295, "type": "electric_bike", "is_disabled": 0, "rental_uris": {"android": "https://dc.lft.to/lastmile_qr_scan", "ios": "https://dc.lft.to/lastmile_qr_scan"}, "is_reserved": 0, "bike_id": "97588c42b28b5dfd3005d6ebe4149a84", "name": "97588c42b28b5dfd3005d6ebe4149a84", "fusion_lon": 0.0, "lon": -77.07164966666667, "fusion_lat": 0.0}, {"lat": 38.86712283333333, "type": "electric_scooter", "is_disabled": 0, "rental_uris": {"android": "https://dc.lft.to/lastmile_qr_scan", "ios": "https://dc.lft.to/lastmile_qr_scan"}, "is_reserved": 0, "bike_id": "732effbb4f789ee47afe8b80b7f0ec3d", "name": "732effbb4f789ee47afe8b80b7f0ec3d", "fusion_lon": 0.0, "lon": -76.98728283333334, "fusion_lat": 0.0}, {"lat": 38.9151405, "type": "electric_scooter", "is_disabled": 0, "rental_uris": {"android": "https://dc.lft.to/lastmile_qr_scan", "ios": "https://dc.lft.to/lastmile_qr_scan"}, "is_reserved": 0, "bike_id": "616c1dc24fb7374d0d39bda8c81b88b9", "name": "616c1dc24fb7374d0d39bda8c81b88b9", "fusion_lon": 0.0, "lon": -77.012076, "fusion_lat": 0.0}, {"lat": 38.89736766666667, "type": "electric_scooter", "is_disabled": 0, "rental_uris": {"android": "https://dc.lft.to/lastmile_qr_scan", "ios": "https://dc.lft.to/lastmile_qr_scan"}, "is_reserved": 0, "bike_id": "6ac29dc7acb896eed1143a896994843c", "name": "6ac29dc7acb896eed1143a896994843c", "fusion_lon": 0.0, "lon": -77.046776, "fusion_lat": 0.0}, {"lat": 38.91051683333333, "type": "electric_scooter", "is_disabled": 0, "rental_uris": {"android": "https://dc.lft.to/lastmile_qr_scan", "ios": "https://dc.lft.to/lastmile_qr_scan"}, "is_reserved": 0, "bike_id": "c68af74789cfa3f0f26e3f0e3bb2173b", "name": "c68af74789cfa3f0f26e3f0e3bb2173b", "fusion_lon": 0.0, "lon": -77.0432955, "fusion_lat": 0.0}, {"lat": 38.930211, "type": "electric_scooter", "is_disabled": 0, "rental_uris": {"android": "https://dc.lft.to/lastmile_qr_scan", "ios": "https://dc.lft.to/lastmile_qr_scan"}, "is_reserved": 0, "bike_id": "3e1ae129e72f393b66bfea90777a4033", "name": "3e1ae129e72f393b66bfea90777a4033", "fusion_lon": 0.0, "lon": -77.05547366666667, "fusion_lat": 0.0}, {"lat": 38.8983585, "type": "electric_scooter", "is_disabled": 0, "rental_uris": {"android": "https://dc.lft.to/lastmile_qr_scan", "ios": "https://dc.lft.to/lastmile_qr_scan"}, "is_reserved": 0, "bike_id": "2dfe4a58ac40c7a8bbdef146fd01cb51", "name": "2dfe4a58ac40c7a8bbdef146fd01cb51", "fusion_lon": 0.0, "lon": -77.04329666666666, "fusion_lat": 0.0}, {"lat": 38.90871383333333, "type": "electric_scooter", "is_disabled": 0, "rental_uris": {"android": "https://dc.lft.to/lastmile_qr_scan", "ios": "https://dc.lft.to/lastmile_qr_scan"}, "is_reserved": 0, "bike_id": "e3e7eb05499a10bd9d5b5ae8fe7408fc", "name": "e3e7eb05499a10bd9d5b5ae8fe7408fc", "fusion_lon": 0.0, "lon": -77.04548883333334, "fusion_lat": 0.0}, {"lat": 38.899840166666664, "type": "electric_scooter", "is_disabled": 0, "rental_uris": {"android": "https://dc.lft.to/lastmile_qr_scan", "ios": "https://dc.lft.to/lastmile_qr_scan"}, "is_reserved": 0, "bike_id": "4928dbc1058889838dcda0d979377942", "name": "4928dbc1058889838dcda0d979377942", "fusion_lon": 0.0, "lon": -77.04189083333333, "fusion_lat": 0.0}, {"lat": 38.917992, "type": "electric_scooter", "is_disabled": 0, "rental_uris": {"android": "https://dc.lft.to/lastmile_qr_scan", "ios": "https://dc.lft.to/lastmile_qr_scan"}, "is_reserved": 0, "bike_id": "123ffed5d8a70d594021d74081810f96", "name": "123ffed5d8a70d594021d74081810f96", "fusion_lon": 0.0, "lon": -77.03207883333333, "fusion_lat": 0.0}, {"lat": 38.90395933333333, "type": "electric_scooter", "is_disabled": 0, "rental_uris": {"android": "https://dc.lft.to/lastmile_qr_scan", "ios": "https://dc.lft.to/lastmile_qr_scan"}, "is_reserved": 0, "bike_id": "c7f02e0247e0d1ac54d1e6b28ca12241", "name": "c7f02e0247e0d1ac54d1e6b28ca12241", "fusion_lon": 0.0, "lon": -77.04196683333333, "fusion_lat": 0.0}, {"lat": 38.919751166666664, "type": "electric_scooter", "is_disabled": 0, "rental_uris": {"android": "https://dc.lft.to/lastmile_qr_scan", "ios": "https://dc.lft.to/lastmile_qr_scan"}, "is_reserved": 0, "bike_id": "7c9380fc91fd58039629ca074305e9a1", "name": "7c9380fc91fd58039629ca074305e9a1", "fusion_lon": 0.0, "lon": -77.04173083333333, "fusion_lat": 0.0}, {"lat": 38.915856833333336, "type": "electric_scooter", "is_disabled": 0, "rental_uris": {"android": "https://dc.lft.to/lastmile_qr_scan", "ios": "https://dc.lft.to/lastmile_qr_scan"}, "is_reserved": 0, "bike_id": "04c42ed7ffcc1e8ecd256ecb7b7d1ab3", "name": "04c42ed7ffcc1e8ecd256ecb7b7d1ab3", "fusion_lon": 0.0, "lon": -77.04680266666666, "fusion_lat": 0.0}, {"lat": 38.91545716666667, "type": "electric_scooter", "is_disabled": 0, "rental_uris": {"android": "https://dc.lft.to/lastmile_qr_scan", "ios": "https://dc.lft.to/lastmile_qr_scan"}, "is_reserved": 0, "bike_id": "924fbddc1940a8fc95da3e3dcbebb364", "name": "924fbddc1940a8fc95da3e3dcbebb364", "fusion_lon": 0.0, "lon": -77.03207633333334, "fusion_lat": 0.0}, {"lat": 38.922335333333336, "type": "electric_scooter", "is_disabled": 0, "rental_uris": {"android": "https://dc.lft.to/lastmile_qr_scan", "ios": "https://dc.lft.to/lastmile_qr_scan"}, "is_reserved": 0, "bike_id": "4d2be0245cb8de6ca3f65b3e3b76deb0", "name": "4d2be0245cb8de6ca3f65b3e3b76deb0", "fusion_lon": 0.0, "lon": -77.03323083333333, "fusion_lat": 0.0}, {"lat": 38.9034015, "type": "electric_scooter", "is_disabled": 0, "rental_uris": {"android": "https://dc.lft.to/lastmile_qr_scan", "ios": "https://dc.lft.to/lastmile_qr_scan"}, "is_reserved": 0, "bike_id": "07b511980d8ceb642b4218111bd0e593", "name": "07b511980d8ceb642b4218111bd0e593", "fusion_lon": 0.0, "lon": -77.02600633333333, "fusion_lat": 0.0}, {"lat": 38.92443083333333, "type": "electric_bike", "is_disabled": 0, "rental_uris": {"android": "https://dc.lft.to/lastmile_qr_scan", "ios": "https://dc.lft.to/lastmile_qr_scan"}, "is_reserved": 0, "bike_id": "51bbf83ce257f0e2c591b3eca88f57a6", "name": "51bbf83ce257f0e2c591b3eca88f57a6", "fusion_lon": 0.0, "lon": -76.907602, "fusion_lat": 0.0}, {"lat": 38.89545116666667, "type": "electric_scooter", "is_disabled": 0, "rental_uris": {"android": "https://dc.lft.to/lastmile_qr_scan", "ios": "https://dc.lft.to/lastmile_qr_scan"}, "is_reserved": 0, "bike_id": "fd964395e48eef18ed91f722168bd932", "name": "fd964395e48eef18ed91f722168bd932", "fusion_lon": 0.0, "lon": -77.02421333333334, "fusion_lat": 0.0}, {"lat": 38.907145666666665, "type": "electric_scooter", "is_disabled": 0, "rental_uris": {"android": "https://dc.lft.to/lastmile_qr_scan", "ios": "https://dc.lft.to/lastmile_qr_scan"}, "is_reserved": 0, "bike_id": "4b4b40624cea94f17d10587323217aaf", "name": "4b4b40624cea94f17d10587323217aaf", "fusion_lon": 0.0, "lon": -77.06311716666667, "fusion_lat": 0.0}, {"lat": 38.8998375, "type": "electric_scooter", "is_disabled": 0, "rental_uris": {"android": "https://dc.lft.to/lastmile_qr_scan", "ios": "https://dc.lft.to/lastmile_qr_scan"}, "is_reserved": 0, "bike_id": "20530954cb660abe69276bf371b19fe1", "name": "20530954cb660abe69276bf371b19fe1", "fusion_lon": 0.0, "lon": -77.04189816666667, "fusion_lat": 0.0}, {"lat": 38.95614883333333, "type": "electric_scooter", "is_disabled": 0, "rental_uris": {"android": "https://dc.lft.to/lastmile_qr_scan", "ios": "https://dc.lft.to/lastmile_qr_scan"}, "is_reserved": 0, "bike_id": "ca92915f8b7b4171011475161c671b59", "name": "ca92915f8b7b4171011475161c671b59", "fusion_lon": 0.0, "lon": -77.02763166666666, "fusion_lat": 0.0}, {"lat": 38.914421, "type": "electric_scooter", "is_disabled": 0, "rental_uris": {"android": "https://dc.lft.to/lastmile_qr_scan", "ios": "https://dc.lft.to/lastmile_qr_scan"}, "is_reserved": 0, "bike_id": "96745bc42d933e43cfdd487b505a5390", "name": "96745bc42d933e43cfdd487b505a5390", "fusion_lon": 0.0, "lon": -77.0089015, "fusion_lat": 0.0}, {"lat": 38.922648833333334, "type": "electric_scooter", "is_disabled": 0, "rental_uris": {"android": "https://dc.lft.to/lastmile_qr_scan", "ios": "https://dc.lft.to/lastmile_qr_scan"}, "is_reserved": 0, "bike_id": "0912bddd764db07e3a6ed1659953c39d", "name": "0912bddd764db07e3a6ed1659953c39d", "fusion_lon": 0.0, "lon": -77.04223166666667, "fusion_lat": 0.0}, {"lat": 38.8653965, "type": "electric_bike", "is_disabled": 0, "rental_uris": {"android": "https://dc.lft.to/lastmile_qr_scan", "ios": "https://dc.lft.to/lastmile_qr_scan"}, "is_reserved": 0, "bike_id": "34ee5e9126ffd05ae7929812d15f7932", "name": "34ee5e9126ffd05ae7929812d15f7932", "fusion_lon": 0.0, "lon": -77.12822383333334, "fusion_lat": 0.0}, {"lat": 38.914054166666666, "type": "electric_scooter", "is_disabled": 0, "rental_uris": {"android": "https://dc.lft.to/lastmile_qr_scan", "ios": "https://dc.lft.to/lastmile_qr_scan"}, "is_reserved": 0, "bike_id": "e9cc29854575d00ce0e5e8b7251f42ec", "name": "e9cc29854575d00ce0e5e8b7251f42ec", "fusion_lon": 0.0, "lon": -77.03217083333334, "fusion_lat": 0.0}, {"lat": 38.82447883333333, "type": "electric_bike", "is_disabled": 0, "rental_uris": {"android": "https://dc.lft.to/lastmile_qr_scan", "ios": "https://dc.lft.to/lastmile_qr_scan"}, "is_reserved": 0, "bike_id": "8e3e7a0f22a16e1cb0d4e873e05ac7df", "name": "8e3e7a0f22a16e1cb0d4e873e05ac7df", "fusion_lon": 0.0, "lon": -77.07042083333333, "fusion_lat": 0.0}, {"lat": 38.896182, "type": "electric_scooter", "is_disabled": 0, "rental_uris": {"android": "https://dc.lft.to/lastmile_qr_scan", "ios": "https://dc.lft.to/lastmile_qr_scan"}, "is_reserved": 0, "bike_id": "419b07541e84d9d73bcc081bbabb8040", "name": "419b07541e84d9d73bcc081bbabb8040", "fusion_lon": 0.0, "lon": -77.04792733333333, "fusion_lat": 0.0}, {"lat": 38.892204166666666, "type": "electric_scooter", "is_disabled": 0, "rental_uris": {"android": "https://dc.lft.to/lastmile_qr_scan", "ios": "https://dc.lft.to/lastmile_qr_scan"}, "is_reserved": 0, "bike_id": "f3ca6e05e3fb8bf16d5b498d3889720e", "name": "f3ca6e05e3fb8bf16d5b498d3889720e", "fusion_lon": 0.0, "lon": -77.0226655, "fusion_lat": 0.0}, {"lat": 38.863626833333335, "type": "electric_scooter", "is_disabled": 0, "rental_uris": {"android": "https://dc.lft.to/lastmile_qr_scan", "ios": "https://dc.lft.to/lastmile_qr_scan"}, "is_reserved": 0, "bike_id": "52b5b43bd70d34cc16cc0f87ad3d8e05", "name": "52b5b43bd70d34cc16cc0f87ad3d8e05", "fusion_lon": 0.0, "lon": -76.99053916666666, "fusion_lat": 0.0}, {"lat": 38.93603, "type": "electric_scooter", "is_disabled": 0, "rental_uris": {"android": "https://dc.lft.to/lastmile_qr_scan", "ios": "https://dc.lft.to/lastmile_qr_scan"}, "is_reserved": 0, "bike_id": "d2dccdf303c696cf898e6c6db07e2916", "name": "d2dccdf303c696cf898e6c6db07e2916", "fusion_lon": 0.0, "lon": -77.03762166666667, "fusion_lat": 0.0}, {"lat": 38.91680066666667, "type": "electric_bike", "is_disabled": 0, "rental_uris": {"android": "https://dc.lft.to/lastmile_qr_scan", "ios": "https://dc.lft.to/lastmile_qr_scan"}, "is_reserved": 0, "bike_id": "f3b5ecb4f4c45288f0d6933d05f72993", "name": "f3b5ecb4f4c45288f0d6933d05f72993", "fusion_lon": 0.0, "lon": -77.09572983333334, "fusion_lat": 0.0}, {"lat": 38.92288166666667, "type": "electric_scooter", "is_disabled": 0, "rental_uris": {"android": "https://dc.lft.to/lastmile_qr_scan", "ios": "https://dc.lft.to/lastmile_qr_scan"}, "is_reserved": 0, "bike_id": "b830d35d28b8d416aba923b5fafb7f72", "name": "b830d35d28b8d416aba923b5fafb7f72", "fusion_lon": 0.0, "lon": -77.04475533333333, "fusion_lat": 0.0}, {"lat": 38.91717583333333, "type": "electric_scooter", "is_disabled": 0, "rental_uris": {"android": "https://dc.lft.to/lastmile_qr_scan", "ios": "https://dc.lft.to/lastmile_qr_scan"}, "is_reserved": 0, "bike_id": "690d066f3e5194cb25ea265877fcd092", "name": "690d066f3e5194cb25ea265877fcd092", "fusion_lon": 0.0, "lon": -77.028482, "fusion_lat": 0.0}, {"lat": 38.90258166666667, "type": "electric_scooter", "is_disabled": 0, "rental_uris": {"android": "https://dc.lft.to/lastmile_qr_scan", "ios": "https://dc.lft.to/lastmile_qr_scan"}, "is_reserved": 0, "bike_id": "107d4bc7c6c6a152f83141cc01e717d0", "name": "107d4bc7c6c6a152f83141cc01e717d0", "fusion_lon": 0.0, "lon": -77.06087683333334, "fusion_lat": 0.0}, {"lat": 38.90397166666666, "type": "electric_scooter", "is_disabled": 0, "rental_uris": {"android": "https://dc.lft.to/lastmile_qr_scan", "ios": "https://dc.lft.to/lastmile_qr_scan"}, "is_reserved": 0, "bike_id": "ee4770f331004c0cf82832eaa90b630a", "name": "ee4770f331004c0cf82832eaa90b630a", "fusion_lon": 0.0, "lon": -77.03299583333333, "fusion_lat": 0.0}, {"lat": 39.000241833333334, "type": "electric_bike", "is_disabled": 0, "rental_uris": {"android": "https://dc.lft.to/lastmile_qr_scan", "ios": "https://dc.lft.to/lastmile_qr_scan"}, "is_reserved": 0, "bike_id": "7c6b7c075214631baf95f354e420a1a7", "name": "7c6b7c075214631baf95f354e420a1a7", "fusion_lon": 0.0, "lon": -76.87284266666667, "fusion_lat": 0.0}, {"lat": 38.90772, "type": "electric_scooter", "is_disabled": 0, "rental_uris": {"android": "https://dc.lft.to/lastmile_qr_scan", "ios": "https://dc.lft.to/lastmile_qr_scan"}, "is_reserved": 0, "bike_id": "9d886b40f63080ed73c0b1d22f657d43", "name": "9d886b40f63080ed73c0b1d22f657d43", "fusion_lon": 0.0, "lon": -77.0385145, "fusion_lat": 0.0}, {"lat": 38.89746933333333, "type": "electric_scooter", "is_disabled": 0, "rental_uris": {"android": "https://dc.lft.to/lastmile_qr_scan", "ios": "https://dc.lft.to/lastmile_qr_scan"}, "is_reserved": 0, "bike_id": "aff6cd259c21726e9091c42176641372", "name": "aff6cd259c21726e9091c42176641372", "fusion_lon": 0.0, "lon": -77.02165466666666, "fusion_lat": 0.0}, {"lat": 38.898406333333334, "type": "electric_scooter", "is_disabled": 0, "rental_uris": {"android": "https://dc.lft.to/lastmile_qr_scan", "ios": "https://dc.lft.to/lastmile_qr_scan"}, "is_reserved": 0, "bike_id": "984ed5032cf5dec45ade4bedc60e0cbf", "name": "984ed5032cf5dec45ade4bedc60e0cbf", "fusion_lon": 0.0, "lon": -77.02965516666667, "fusion_lat": 0.0}, {"lat": 38.82878266666667, "type": "electric_bike", "is_disabled": 0, "rental_uris": {"android": "https://dc.lft.to/lastmile_qr_scan", "ios": "https://dc.lft.to/lastmile_qr_scan"}, "is_reserved": 0, "bike_id": "35c3840b1b1f665a9f69f3415054017d", "name": "35c3840b1b1f665a9f69f3415054017d", "fusion_lon": 0.0, "lon": -77.1122025, "fusion_lat": 0.0}, {"lat": 38.90311883333333, "type": "electric_scooter", "is_disabled": 0, "rental_uris": {"android": "https://dc.lft.to/lastmile_qr_scan", "ios": "https://dc.lft.to/lastmile_qr_scan"}, "is_reserved": 0, "bike_id": "2e2516d9b466bebad3a8c59a0409b073", "name": "2e2516d9b466bebad3a8c59a0409b073", "fusion_lon": 0.0, "lon": -77.02211066666666, "fusion_lat": 0.0}, {"lat": 38.9097915, "type": "electric_scooter", "is_disabled": 0, "rental_uris": {"android": "https://dc.lft.to/lastmile_qr_scan", "ios": "https://dc.lft.to/lastmile_qr_scan"}, "is_reserved": 0, "bike_id": "5e1f19ff85a7c3519818e227cb03233c", "name": "5e1f19ff85a7c3519818e227cb03233c", "fusion_lon": 0.0, "lon": -77.0321385, "fusion_lat": 0.0}, {"lat": 39.11510216666667, "type": "electric_bike", "is_disabled": 0, "rental_uris": {"android": "https://dc.lft.to/lastmile_qr_scan", "ios": "https://dc.lft.to/lastmile_qr_scan"}, "is_reserved": 0, "bike_id": "255296d4291d3d6888b9cbac66046cb3", "name": "255296d4291d3d6888b9cbac66046cb3", "fusion_lon": 0.0, "lon": -77.19541216666667, "fusion_lat": 0.0}, {"lat": 38.92863166666667, "type": "electric_scooter", "is_disabled": 0, "rental_uris": {"android": "https://dc.lft.to/lastmile_qr_scan", "ios": "https://dc.lft.to/lastmile_qr_scan"}, "is_reserved": 0, "bike_id": "35caa0a7339d3b5df88ed70fc3573e66", "name": "35caa0a7339d3b5df88ed70fc3573e66", "fusion_lon": 0.0, "lon": -77.03420283333334, "fusion_lat": 0.0}, {"lat": 38.83817033333333, "type": "electric_scooter", "is_disabled": 0, "rental_uris": {"android": "https://dc.lft.to/lastmile_qr_scan", "ios": "https://dc.lft.to/lastmile_qr_scan"}, "is_reserved": 0, "bike_id": "3bd7d914122f2ccd7dfa0fdc252b2a68", "name": "3bd7d914122f2ccd7dfa0fdc252b2a68", "fusion_lon": 0.0, "lon": -77.004381, "fusion_lat": 0.0}, {"lat": 38.942878666666665, "type": "electric_scooter", "is_disabled": 0, "rental_uris": {"android": "https://dc.lft.to/lastmile_qr_scan", "ios": "https://dc.lft.to/lastmile_qr_scan"}, "is_reserved": 0, "bike_id": "1a7f350ab51fbbdf2f8eb7233f5aa31d", "name": "1a7f350ab51fbbdf2f8eb7233f5aa31d", "fusion_lon": 0.0, "lon": -77.02351133333333, "fusion_lat": 0.0}, {"lat": 38.93050216666666, "type": "electric_scooter", "is_disabled": 0, "rental_uris": {"android": "https://dc.lft.to/lastmile_qr_scan", "ios": "https://dc.lft.to/lastmile_qr_scan"}, "is_reserved": 0, "bike_id": "2f72fd1b00c96cec0f689114b2bd8b11", "name": "2f72fd1b00c96cec0f689114b2bd8b11", "fusion_lon": 0.0, "lon": -77.0041385, "fusion_lat": 0.0}, {"lat": 38.915791, "type": "electric_scooter", "is_disabled": 0, "rental_uris": {"android": "https://dc.lft.to/lastmile_qr_scan", "ios": "https://dc.lft.to/lastmile_qr_scan"}, "is_reserved": 0, "bike_id": "e85392305561e077dc4f021585fa8718", "name": "e85392305561e077dc4f021585fa8718", "fusion_lon": 0.0, "lon": -77.04687566666666, "fusion_lat": 0.0}, {"lat": 38.857184833333335, "type": "electric_bike", "is_disabled": 0, "rental_uris": {"android": "https://dc.lft.to/lastmile_qr_scan", "ios": "https://dc.lft.to/lastmile_qr_scan"}, "is_reserved": 0, "bike_id": "327fc791ce04de7a1ba48ff1c1f71fd3", "name": "327fc791ce04de7a1ba48ff1c1f71fd3", "fusion_lon": 0.0, "lon": -76.981111, "fusion_lat": 0.0}, {"lat": 38.897757166666665, "type": "electric_scooter", "is_disabled": 0, "rental_uris": {"android": "https://dc.lft.to/lastmile_qr_scan", "ios": "https://dc.lft.to/lastmile_qr_scan"}, "is_reserved": 0, "bike_id": "592b07912682b31950c058203ab8f085", "name": "592b07912682b31950c058203ab8f085", "fusion_lon": 0.0, "lon": -77.02195766666667, "fusion_lat": 0.0}, {"lat": 38.8624465, "type": "electric_scooter", "is_disabled": 0, "rental_uris": {"android": "https://dc.lft.to/lastmile_qr_scan", "ios": "https://dc.lft.to/lastmile_qr_scan"}, "is_reserved": 0, "bike_id": "f8dd0a7853894e74fd5f3569685e896d", "name": "f8dd0a7853894e74fd5f3569685e896d", "fusion_lon": 0.0, "lon": -76.994938, "fusion_lat": 0.0}, {"lat": 38.97540933333333, "type": "electric_bike", "is_disabled": 0, "rental_uris": {"android": "https://dc.lft.to/lastmile_qr_scan", "ios": "https://dc.lft.to/lastmile_qr_scan"}, "is_reserved": 0, "bike_id": "0899acf0f45b9a4df714dcbfa81c2cc8", "name": "0899acf0f45b9a4df714dcbfa81c2cc8", "fusion_lon": 0.0, "lon": -76.99527666666667, "fusion_lat": 0.0}, {"lat": 38.955198333333335, "type": "electric_bike", "is_disabled": 0, "rental_uris": {"android": "https://dc.lft.to/lastmile_qr_scan", "ios": "https://dc.lft.to/lastmile_qr_scan"}, "is_reserved": 0, "bike_id": "d5ceb50ace0caa801c1075f6cea4da2a", "name": "d5ceb50ace0caa801c1075f6cea4da2a", "fusion_lon": 0.0, "lon": -76.9998665, "fusion_lat": 0.0}, {"lat": 38.87089616666667, "type": "electric_bike", "is_disabled": 0, "rental_uris": {"android": "https://dc.lft.to/lastmile_qr_scan", "ios": "https://dc.lft.to/lastmile_qr_scan"}, "is_reserved": 0, "bike_id": "7f75ba8933fc192be7814bbeba2c2042", "name": "7f75ba8933fc192be7814bbeba2c2042", "fusion_lon": 0.0, "lon": -77.012091, "fusion_lat": 0.0}, {"lat": 38.88483766666667, "type": "electric_scooter", "is_disabled": 0, "rental_uris": {"android": "https://dc.lft.to/lastmile_qr_scan", "ios": "https://dc.lft.to/lastmile_qr_scan"}, "is_reserved": 0, "bike_id": "2e7080a70b197d62ac19a125132dae93", "name": "2e7080a70b197d62ac19a125132dae93", "fusion_lon": 0.0, "lon": -77.02073466666667, "fusion_lat": 0.0}, {"lat": 38.905014, "type": "electric_scooter", "is_disabled": 0, "rental_uris": {"android": "https://dc.lft.to/lastmile_qr_scan", "ios": "https://dc.lft.to/lastmile_qr_scan"}, "is_reserved": 0, "bike_id": "a964c6f4a85771b6a28268c42e9c2245", "name": "a964c6f4a85771b6a28268c42e9c2245", "fusion_lon": 0.0, "lon": -77.029591, "fusion_lat": 0.0}, {"lat": 38.909572, "type": "electric_scooter", "is_disabled": 0, "rental_uris": {"android": "https://dc.lft.to/lastmile_qr_scan", "ios": "https://dc.lft.to/lastmile_qr_scan"}, "is_reserved": 0, "bike_id": "fec5fd09752ae10d08118bdb2b799bab", "name": "fec5fd09752ae10d08118bdb2b799bab", "fusion_lon": 0.0, "lon": -77.0271325, "fusion_lat": 0.0}, {"lat": 38.91710633333334, "type": "electric_scooter", "is_disabled": 0, "rental_uris": {"android": "https://dc.lft.to/lastmile_qr_scan", "ios": "https://dc.lft.to/lastmile_qr_scan"}, "is_reserved": 0, "bike_id": "0f43aac927968caa6571a61e76e2f9fd", "name": "0f43aac927968caa6571a61e76e2f9fd", "fusion_lon": 0.0, "lon": -77.0297565, "fusion_lat": 0.0}, {"lat": 38.90878766666667, "type": "electric_scooter", "is_disabled": 0, "rental_uris": {"android": "https://dc.lft.to/lastmile_qr_scan", "ios": "https://dc.lft.to/lastmile_qr_scan"}, "is_reserved": 0, "bike_id": "c24f8298387c1040dd7f1fda0062540d", "name": "c24f8298387c1040dd7f1fda0062540d", "fusion_lon": 0.0, "lon": -77.033986, "fusion_lat": 0.0}, {"lat": 38.8958135, "type": "electric_scooter", "is_disabled": 0, "rental_uris": {"android": "https://dc.lft.to/lastmile_qr_scan", "ios": "https://dc.lft.to/lastmile_qr_scan"}, "is_reserved": 0, "bike_id": "d3ad1687ab599d25fb16876a26dee38c", "name": "d3ad1687ab599d25fb16876a26dee38c", "fusion_lon": 0.0, "lon": -77.02320933333333, "fusion_lat": 0.0}, {"lat": 38.903951166666666, "type": "electric_scooter", "is_disabled": 0, "rental_uris": {"android": "https://dc.lft.to/lastmile_qr_scan", "ios": "https://dc.lft.to/lastmile_qr_scan"}, "is_reserved": 0, "bike_id": "cd07efc9fba6980a2915862c703f7883", "name": "cd07efc9fba6980a2915862c703f7883", "fusion_lon": 0.0, "lon": -77.02805983333333, "fusion_lat": 0.0}, {"lat": 38.915906, "type": "electric_bike", "is_disabled": 0, "rental_uris": {"android": "https://dc.lft.to/lastmile_qr_scan", "ios": "https://dc.lft.to/lastmile_qr_scan"}, "is_reserved": 0, "bike_id": "561ce6a75d1cde2b83b79404b2213346", "name": "561ce6a75d1cde2b83b79404b2213346", "fusion_lon": 0.0, "lon": -76.97149433333334, "fusion_lat": 0.0}, {"lat": 38.869090166666666, "type": "electric_bike", "is_disabled": 0, "rental_uris": {"android": "https://dc.lft.to/lastmile_qr_scan", "ios": "https://dc.lft.to/lastmile_qr_scan"}, "is_reserved": 0, "bike_id": "93aec0b6fcbe0e23cf8c574233e0cfdc", "name": "93aec0b6fcbe0e23cf8c574233e0cfdc", "fusion_lon": 0.0, "lon": -77.1317875, "fusion_lat": 0.0}, {"lat": 38.90124816666667, "type": "electric_scooter", "is_disabled": 0, "rental_uris": {"android": "https://dc.lft.to/lastmile_qr_scan", "ios": "https://dc.lft.to/lastmile_qr_scan"}, "is_reserved": 0, "bike_id": "cb3ecbb6c37747c7d58ac9aad73b25ef", "name": "cb3ecbb6c37747c7d58ac9aad73b25ef", "fusion_lon": 0.0, "lon": -77.0416155, "fusion_lat": 0.0}, {"lat": 38.895437, "type": "electric_scooter", "is_disabled": 0, "rental_uris": {"android": "https://dc.lft.to/lastmile_qr_scan", "ios": "https://dc.lft.to/lastmile_qr_scan"}, "is_reserved": 0, "bike_id": "7da9f6bf0b59fce0a5eea26ee80eadf5", "name": "7da9f6bf0b59fce0a5eea26ee80eadf5", "fusion_lon": 0.0, "lon": -77.016248, "fusion_lat": 0.0}, {"lat": 38.90466966666666, "type": "electric_scooter", "is_disabled": 0, "rental_uris": {"android": "https://dc.lft.to/lastmile_qr_scan", "ios": "https://dc.lft.to/lastmile_qr_scan"}, "is_reserved": 0, "bike_id": "f2c390cad18eaa876c5e766989342f43", "name": "f2c390cad18eaa876c5e766989342f43", "fusion_lon": 0.0, "lon": -77.028068, "fusion_lat": 0.0}, {"lat": 38.9331385, "type": "electric_scooter", "is_disabled": 0, "rental_uris": {"android": "https://dc.lft.to/lastmile_qr_scan", "ios": "https://dc.lft.to/lastmile_qr_scan"}, "is_reserved": 0, "bike_id": "040988a352e114f09cb871405d009f77", "name": "040988a352e114f09cb871405d009f77", "fusion_lon": 0.0, "lon": -77.0326015, "fusion_lat": 0.0}, {"lat": 38.89836316666667, "type": "electric_scooter", "is_disabled": 0, "rental_uris": {"android": "https://dc.lft.to/lastmile_qr_scan", "ios": "https://dc.lft.to/lastmile_qr_scan"}, "is_reserved": 0, "bike_id": "38dc9a18beda10a5efbd69e1e2a336bb", "name": "38dc9a18beda10a5efbd69e1e2a336bb", "fusion_lon": 0.0, "lon": -76.9463075, "fusion_lat": 0.0}, {"lat": 38.9199245, "type": "electric_bike", "is_disabled": 0, "rental_uris": {"android": "https://dc.lft.to/lastmile_qr_scan", "ios": "https://dc.lft.to/lastmile_qr_scan"}, "is_reserved": 0, "bike_id": "04550cf6af7bfb75b6bcb63c1a55914c", "name": "04550cf6af7bfb75b6bcb63c1a55914c", "fusion_lon": 0.0, "lon": -76.9731555, "fusion_lat": 0.0}, {"lat": 38.902680833333335, "type": "electric_scooter", "is_disabled": 0, "rental_uris": {"android": "https://dc.lft.to/lastmile_qr_scan", "ios": "https://dc.lft.to/lastmile_qr_scan"}, "is_reserved": 0, "bike_id": "bffcc0b994591c54b8aedb1b6926acfe", "name": "bffcc0b994591c54b8aedb1b6926acfe", "fusion_lon": 0.0, "lon": -77.02998566666666, "fusion_lat": 0.0}, {"lat": 38.92726, "type": "electric_scooter", "is_disabled": 0, "rental_uris": {"android": "https://dc.lft.to/lastmile_qr_scan", "ios": "https://dc.lft.to/lastmile_qr_scan"}, "is_reserved": 0, "bike_id": "323d7c415bfa106b5f1766e5015ecfc2", "name": "323d7c415bfa106b5f1766e5015ecfc2", "fusion_lon": 0.0, "lon": -77.04198166666667, "fusion_lat": 0.0}, {"lat": 38.899429833333336, "type": "electric_scooter", "is_disabled": 0, "rental_uris": {"android": "https://dc.lft.to/lastmile_qr_scan", "ios": "https://dc.lft.to/lastmile_qr_scan"}, "is_reserved": 0, "bike_id": "2b8ddda176bf2bd563d3200e78b48f88", "name": "2b8ddda176bf2bd563d3200e78b48f88", "fusion_lon": 0.0, "lon": -77.02955666666666, "fusion_lat": 0.0}, {"lat": 38.930089833333334, "type": "electric_scooter", "is_disabled": 0, "rental_uris": {"android": "https://dc.lft.to/lastmile_qr_scan", "ios": "https://dc.lft.to/lastmile_qr_scan"}, "is_reserved": 0, "bike_id": "574b3148e303c2cc71bc6eb0417301c1", "name": "574b3148e303c2cc71bc6eb0417301c1", "fusion_lon": 0.0, "lon": -77.02206633333333, "fusion_lat": 0.0}, {"lat": 38.9334975, "type": "electric_scooter", "is_disabled": 0, "rental_uris": {"android": "https://dc.lft.to/lastmile_qr_scan", "ios": "https://dc.lft.to/lastmile_qr_scan"}, "is_reserved": 0, "bike_id": "a100c2546ebd71a50d82359d0926144c", "name": "a100c2546ebd71a50d82359d0926144c", "fusion_lon": 0.0, "lon": -77.0594755, "fusion_lat": 0.0}, {"lat": 38.89399916666667, "type": "electric_scooter", "is_disabled": 0, "rental_uris": {"android": "https://dc.lft.to/lastmile_qr_scan", "ios": "https://dc.lft.to/lastmile_qr_scan"}, "is_reserved": 0, "bike_id": "441d24f0458ad33056a4a57783b5ea9c", "name": "441d24f0458ad33056a4a57783b5ea9c", "fusion_lon": 0.0, "lon": -76.94996066666667, "fusion_lat": 0.0}, {"lat": 38.905182833333335, "type": "electric_scooter", "is_disabled": 0, "rental_uris": {"android": "https://dc.lft.to/lastmile_qr_scan", "ios": "https://dc.lft.to/lastmile_qr_scan"}, "is_reserved": 0, "bike_id": "bb1015f75809a5a9a242aedf402caa29", "name": "bb1015f75809a5a9a242aedf402caa29", "fusion_lon": 0.0, "lon": -77.05392333333333, "fusion_lat": 0.0}, {"lat": 38.89225966666667, "type": "electric_scooter", "is_disabled": 0, "rental_uris": {"android": "https://dc.lft.to/lastmile_qr_scan", "ios": "https://dc.lft.to/lastmile_qr_scan"}, "is_reserved": 0, "bike_id": "86a3a26d316f7446a36c6fb2df63059e", "name": "86a3a26d316f7446a36c6fb2df63059e", "fusion_lon": 0.0, "lon": -77.04367433333333, "fusion_lat": 0.0}, {"lat": 38.8982875, "type": "electric_scooter", "is_disabled": 0, "rental_uris": {"android": "https://dc.lft.to/lastmile_qr_scan", "ios": "https://dc.lft.to/lastmile_qr_scan"}, "is_reserved": 0, "bike_id": "09e3726d7584422b15074f338c09513f", "name": "09e3726d7584422b15074f338c09513f", "fusion_lon": 0.0, "lon": -77.02954783333334, "fusion_lat": 0.0}, {"lat": 38.91189266666667, "type": "electric_scooter", "is_disabled": 0, "rental_uris": {"android": "https://dc.lft.to/lastmile_qr_scan", "ios": "https://dc.lft.to/lastmile_qr_scan"}, "is_reserved": 0, "bike_id": "2a5ffc3109d2b61720e01d2eadd90b54", "name": "2a5ffc3109d2b61720e01d2eadd90b54", "fusion_lon": 0.0, "lon": -77.039303, "fusion_lat": 0.0}, {"lat": 38.912013, "type": "electric_scooter", "is_disabled": 0, "rental_uris": {"android": "https://dc.lft.to/lastmile_qr_scan", "ios": "https://dc.lft.to/lastmile_qr_scan"}, "is_reserved": 0, "bike_id": "cafc5a193ac595d89880b9c942637208", "name": "cafc5a193ac595d89880b9c942637208", "fusion_lon": 0.0, "lon": -77.04167233333334, "fusion_lat": 0.0}, {"lat": 38.86511216666667, "type": "electric_scooter", "is_disabled": 0, "rental_uris": {"android": "https://dc.lft.to/lastmile_qr_scan", "ios": "https://dc.lft.to/lastmile_qr_scan"}, "is_reserved": 0, "bike_id": "a3bf9b188207ce2a3277a4cbca16d883", "name": "a3bf9b188207ce2a3277a4cbca16d883", "fusion_lon": 0.0, "lon": -76.99001166666666, "fusion_lat": 0.0}, {"lat": 38.902414, "type": "electric_scooter", "is_disabled": 0, "rental_uris": {"android": "https://dc.lft.to/lastmile_qr_scan", "ios": "https://dc.lft.to/lastmile_qr_scan"}, "is_reserved": 0, "bike_id": "06ffc7bda8f4e05f89f888a0edce280b", "name": "06ffc7bda8f4e05f89f888a0edce280b", "fusion_lon": 0.0, "lon": -77.02415016666667, "fusion_lat": 0.0}, {"lat": 38.90851216666667, "type": "electric_scooter", "is_disabled": 0, "rental_uris": {"android": "https://dc.lft.to/lastmile_qr_scan", "ios": "https://dc.lft.to/lastmile_qr_scan"}, "is_reserved": 0, "bike_id": "ac922d66b50c56e63d6f2d0d9bb1da7f", "name": "ac922d66b50c56e63d6f2d0d9bb1da7f", "fusion_lon": 0.0, "lon": -77.04168383333334, "fusion_lat": 0.0}, {"lat": 38.8653845, "type": "electric_scooter", "is_disabled": 0, "rental_uris": {"android": "https://dc.lft.to/lastmile_qr_scan", "ios": "https://dc.lft.to/lastmile_qr_scan"}, "is_reserved": 0, "bike_id": "66c25e3c96fce7b73d48dd5f64e7de56", "name": "66c25e3c96fce7b73d48dd5f64e7de56", "fusion_lon": 0.0, "lon": -76.98704816666667, "fusion_lat": 0.0}, {"lat": 38.921273666666664, "type": "electric_scooter", "is_disabled": 0, "rental_uris": {"android": "https://dc.lft.to/lastmile_qr_scan", "ios": "https://dc.lft.to/lastmile_qr_scan"}, "is_reserved": 0, "bike_id": "361b765d67e1230ceb9aed7e1742c4cc", "name": "361b765d67e1230ceb9aed7e1742c4cc", "fusion_lon": 0.0, "lon": -76.99394933333333, "fusion_lat": 0.0}, {"lat": 38.87393383333333, "type": "electric_scooter", "is_disabled": 0, "rental_uris": {"android": "https://dc.lft.to/lastmile_qr_scan", "ios": "https://dc.lft.to/lastmile_qr_scan"}, "is_reserved": 0, "bike_id": "37dc9fb0298a7eb7066a47f86f9c6453", "name": "37dc9fb0298a7eb7066a47f86f9c6453", "fusion_lon": 0.0, "lon": -77.00194883333333, "fusion_lat": 0.0}, {"lat": 38.93553133333333, "type": "electric_bike", "is_disabled": 0, "rental_uris": {"android": "https://dc.lft.to/lastmile_qr_scan", "ios": "https://dc.lft.to/lastmile_qr_scan"}, "is_reserved": 0, "bike_id": "adb7facb5952a2e7047561e5518e4afc", "name": "adb7facb5952a2e7047561e5518e4afc", "fusion_lon": 0.0, "lon": -77.0818795, "fusion_lat": 0.0}, {"lat": 38.8985045, "type": "electric_scooter", "is_disabled": 0, "rental_uris": {"android": "https://dc.lft.to/lastmile_qr_scan", "ios": "https://dc.lft.to/lastmile_qr_scan"}, "is_reserved": 0, "bike_id": "fa78993431042fe180806024b43e2264", "name": "fa78993431042fe180806024b43e2264", "fusion_lon": 0.0, "lon": -77.00740533333334, "fusion_lat": 0.0}, {"lat": 38.906641, "type": "electric_scooter", "is_disabled": 0, "rental_uris": {"android": "https://dc.lft.to/lastmile_qr_scan", "ios": "https://dc.lft.to/lastmile_qr_scan"}, "is_reserved": 0, "bike_id": "e84bf64d8cca0986cd647ee3e0c9ca72", "name": "e84bf64d8cca0986cd647ee3e0c9ca72", "fusion_lon": 0.0, "lon": -77.045447, "fusion_lat": 0.0}, {"lat": 38.9128375, "type": "electric_scooter", "is_disabled": 0, "rental_uris": {"android": "https://dc.lft.to/lastmile_qr_scan", "ios": "https://dc.lft.to/lastmile_qr_scan"}, "is_reserved": 0, "bike_id": "5fb66bb0982861ed31479ee06fcba986", "name": "5fb66bb0982861ed31479ee06fcba986", "fusion_lon": 0.0, "lon": -77.07262733333333, "fusion_lat": 0.0}, {"lat": 38.86701983333333, "type": "electric_scooter", "is_disabled": 0, "rental_uris": {"android": "https://dc.lft.to/lastmile_qr_scan", "ios": "https://dc.lft.to/lastmile_qr_scan"}, "is_reserved": 0, "bike_id": "d414e6f3f070e00d23178a955bdb300e", "name": "d414e6f3f070e00d23178a955bdb300e", "fusion_lon": 0.0, "lon": -76.98713733333334, "fusion_lat": 0.0}, {"lat": 38.91779116666667, "type": "electric_scooter", "is_disabled": 0, "rental_uris": {"android": "https://dc.lft.to/lastmile_qr_scan", "ios": "https://dc.lft.to/lastmile_qr_scan"}, "is_reserved": 0, "bike_id": "a149bacfd652e1090ddffffe0d2593fb", "name": "a149bacfd652e1090ddffffe0d2593fb", "fusion_lon": 0.0, "lon": -77.02955966666667, "fusion_lat": 0.0}, {"lat": 38.920767, "type": "electric_scooter", "is_disabled": 0, "rental_uris": {"android": "https://dc.lft.to/lastmile_qr_scan", "ios": "https://dc.lft.to/lastmile_qr_scan"}, "is_reserved": 0, "bike_id": "dfd1abc34657d88e149c1a3392d1b648", "name": "dfd1abc34657d88e149c1a3392d1b648", "fusion_lon": 0.0, "lon": -77.02391816666666, "fusion_lat": 0.0}, {"lat": 38.89600316666667, "type": "electric_scooter", "is_disabled": 0, "rental_uris": {"android": "https://dc.lft.to/lastmile_qr_scan", "ios": "https://dc.lft.to/lastmile_qr_scan"}, "is_reserved": 0, "bike_id": "e2f908c117a854ae4668bb1a70f41204", "name": "e2f908c117a854ae4668bb1a70f41204", "fusion_lon": 0.0, "lon": -77.02654383333333, "fusion_lat": 0.0}, {"lat": 38.9197745, "type": "electric_scooter", "is_disabled": 0, "rental_uris": {"android": "https://dc.lft.to/lastmile_qr_scan", "ios": "https://dc.lft.to/lastmile_qr_scan"}, "is_reserved": 0, "bike_id": "f5749915aaf95a5b9a36199b5e1bfca8", "name": "f5749915aaf95a5b9a36199b5e1bfca8", "fusion_lon": 0.0, "lon": -77.0320485, "fusion_lat": 0.0}, {"lat": 38.9258315, "type": "electric_scooter", "is_disabled": 0, "rental_uris": {"android": "https://dc.lft.to/lastmile_qr_scan", "ios": "https://dc.lft.to/lastmile_qr_scan"}, "is_reserved": 0, "bike_id": "2d27b3bdbce93e859c56f2c01810290a", "name": "2d27b3bdbce93e859c56f2c01810290a", "fusion_lon": 0.0, "lon": -77.032129, "fusion_lat": 0.0}, {"lat": 39.007922, "type": "electric_bike", "is_disabled": 0, "rental_uris": {"android": "https://dc.lft.to/lastmile_qr_scan", "ios": "https://dc.lft.to/lastmile_qr_scan"}, "is_reserved": 0, "bike_id": "02d7ad042069988b1d64c3de52731da5", "name": "02d7ad042069988b1d64c3de52731da5", "fusion_lon": 0.0, "lon": -76.99578566666666, "fusion_lat": 0.0}, {"lat": 38.88042816666667, "type": "electric_scooter", "is_disabled": 0, "rental_uris": {"android": "https://dc.lft.to/lastmile_qr_scan", "ios": "https://dc.lft.to/lastmile_qr_scan"}, "is_reserved": 0, "bike_id": "4b344087e92335e24077d58af2073e3f", "name": "4b344087e92335e24077d58af2073e3f", "fusion_lon": 0.0, "lon": -77.02508183333333, "fusion_lat": 0.0}, {"lat": 38.9112815, "type": "electric_scooter", "is_disabled": 0, "rental_uris": {"android": "https://dc.lft.to/lastmile_qr_scan", "ios": "https://dc.lft.to/lastmile_qr_scan"}, "is_reserved": 0, "bike_id": "16c2e4cb013a6e7e6ae1cc10bf5ab2c7", "name": "16c2e4cb013a6e7e6ae1cc10bf5ab2c7", "fusion_lon": 0.0, "lon": -77.03210283333334, "fusion_lat": 0.0}, {"lat": 38.981419, "type": "electric_bike", "is_disabled": 0, "rental_uris": {"android": "https://dc.lft.to/lastmile_qr_scan", "ios": "https://dc.lft.to/lastmile_qr_scan"}, "is_reserved": 0, "bike_id": "c6f86cedcefdf2cd68d6673eac79a907", "name": "c6f86cedcefdf2cd68d6673eac79a907", "fusion_lon": 0.0, "lon": -77.00764216666667, "fusion_lat": 0.0}, {"lat": 38.92079583333334, "type": "electric_scooter", "is_disabled": 0, "rental_uris": {"android": "https://dc.lft.to/lastmile_qr_scan", "ios": "https://dc.lft.to/lastmile_qr_scan"}, "is_reserved": 0, "bike_id": "12d98bbcce597035f949e271b2243fbe", "name": "12d98bbcce597035f949e271b2243fbe", "fusion_lon": 0.0, "lon": -77.02391916666667, "fusion_lat": 0.0}, {"lat": 38.918164166666664, "type": "electric_scooter", "is_disabled": 0, "rental_uris": {"android": "https://dc.lft.to/lastmile_qr_scan", "ios": "https://dc.lft.to/lastmile_qr_scan"}, "is_reserved": 0, "bike_id": "0d930b4e7af5781ef80490b25a47daef", "name": "0d930b4e7af5781ef80490b25a47daef", "fusion_lon": 0.0, "lon": -77.0415445, "fusion_lat": 0.0}, {"lat": 38.9260575, "type": "electric_scooter", "is_disabled": 0, "rental_uris": {"android": "https://dc.lft.to/lastmile_qr_scan", "ios": "https://dc.lft.to/lastmile_qr_scan"}, "is_reserved": 0, "bike_id": "ca0c86bab9314b8513d9a00ec7e8c3e7", "name": "ca0c86bab9314b8513d9a00ec7e8c3e7", "fusion_lon": 0.0, "lon": -77.02153283333334, "fusion_lat": 0.0}, {"lat": 38.84898966666667, "type": "electric_scooter", "is_disabled": 0, "rental_uris": {"android": "https://dc.lft.to/lastmile_qr_scan", "ios": "https://dc.lft.to/lastmile_qr_scan"}, "is_reserved": 0, "bike_id": "cf24a16b0fe310aeb4d986a59e192d6e", "name": "cf24a16b0fe310aeb4d986a59e192d6e", "fusion_lon": 0.0, "lon": -77.00509266666667, "fusion_lat": 0.0}, {"lat": 38.877745166666664, "type": "electric_scooter", "is_disabled": 0, "rental_uris": {"android": "https://dc.lft.to/lastmile_qr_scan", "ios": "https://dc.lft.to/lastmile_qr_scan"}, "is_reserved": 0, "bike_id": "46bb71517c775f1ce1c3519505f5d095", "name": "46bb71517c775f1ce1c3519505f5d095", "fusion_lon": 0.0, "lon": -77.01435283333333, "fusion_lat": 0.0}, {"lat": 38.9168985, "type": "electric_scooter", "is_disabled": 0, "rental_uris": {"android": "https://dc.lft.to/lastmile_qr_scan", "ios": "https://dc.lft.to/lastmile_qr_scan"}, "is_reserved": 0, "bike_id": "673d9eb076a1a628b7f14736e557d83e", "name": "673d9eb076a1a628b7f14736e557d83e", "fusion_lon": 0.0, "lon": -77.03771633333334, "fusion_lat": 0.0}, {"lat": 38.900668333333336, "type": "electric_scooter", "is_disabled": 0, "rental_uris": {"android": "https://dc.lft.to/lastmile_qr_scan", "ios": "https://dc.lft.to/lastmile_qr_scan"}, "is_reserved": 0, "bike_id": "8fdfe4f4b7b362dab6e57e7533fe4cb1", "name": "8fdfe4f4b7b362dab6e57e7533fe4cb1", "fusion_lon": 0.0, "lon": -77.0076415, "fusion_lat": 0.0}, {"lat": 38.8904645, "type": "electric_scooter", "is_disabled": 0, "rental_uris": {"android": "https://dc.lft.to/lastmile_qr_scan", "ios": "https://dc.lft.to/lastmile_qr_scan"}, "is_reserved": 0, "bike_id": "0d3498e915e30ede62fe8da52ea2e0d5", "name": "0d3498e915e30ede62fe8da52ea2e0d5", "fusion_lon": 0.0, "lon": -76.93754, "fusion_lat": 0.0}, {"lat": 38.89773016666667, "type": "electric_scooter", "is_disabled": 0, "rental_uris": {"android": "https://dc.lft.to/lastmile_qr_scan", "ios": "https://dc.lft.to/lastmile_qr_scan"}, "is_reserved": 0, "bike_id": "3f991ed36bf58d15136b2ccefd931cf9", "name": "3f991ed36bf58d15136b2ccefd931cf9", "fusion_lon": 0.0, "lon": -77.05156866666667, "fusion_lat": 0.0}, {"lat": 39.02300616666667, "type": "electric_bike", "is_disabled": 0, "rental_uris": {"android": "https://dc.lft.to/lastmile_qr_scan", "ios": "https://dc.lft.to/lastmile_qr_scan"}, "is_reserved": 0, "bike_id": "d190a3d2f141db150b27ac1dec86ce23", "name": "d190a3d2f141db150b27ac1dec86ce23", "fusion_lon": 0.0, "lon": -77.02104883333334, "fusion_lat": 0.0}, {"lat": 38.90692116666666, "type": "electric_scooter", "is_disabled": 0, "rental_uris": {"android": "https://dc.lft.to/lastmile_qr_scan", "ios": "https://dc.lft.to/lastmile_qr_scan"}, "is_reserved": 0, "bike_id": "8f40b72b4896aaa51615877229c0c61a", "name": "8f40b72b4896aaa51615877229c0c61a", "fusion_lon": 0.0, "lon": -77.03847766666667, "fusion_lat": 0.0}, {"lat": 38.90334633333333, "type": "electric_scooter", "is_disabled": 0, "rental_uris": {"android": "https://dc.lft.to/lastmile_qr_scan", "ios": "https://dc.lft.to/lastmile_qr_scan"}, "is_reserved": 0, "bike_id": "f5a860d029cf0218004d9ef31e7bf93a", "name": "f5a860d029cf0218004d9ef31e7bf93a", "fusion_lon": 0.0, "lon": -77.04329716666666, "fusion_lat": 0.0}, {"lat": 38.941940833333334, "type": "electric_scooter", "is_disabled": 0, "rental_uris": {"android": "https://dc.lft.to/lastmile_qr_scan", "ios": "https://dc.lft.to/lastmile_qr_scan"}, "is_reserved": 0, "bike_id": "6ef2767d4bd50ae0f56fa3453d67d7d0", "name": "6ef2767d4bd50ae0f56fa3453d67d7d0", "fusion_lon": 0.0, "lon": -77.0425395, "fusion_lat": 0.0}, {"lat": 38.90382916666667, "type": "electric_scooter", "is_disabled": 0, "rental_uris": {"android": "https://dc.lft.to/lastmile_qr_scan", "ios": "https://dc.lft.to/lastmile_qr_scan"}, "is_reserved": 0, "bike_id": "c19470eed1f528d93698426b61d20765", "name": "c19470eed1f528d93698426b61d20765", "fusion_lon": 0.0, "lon": -77.04289083333333, "fusion_lat": 0.0}, {"lat": 38.893317, "type": "electric_scooter", "is_disabled": 0, "rental_uris": {"android": "https://dc.lft.to/lastmile_qr_scan", "ios": "https://dc.lft.to/lastmile_qr_scan"}, "is_reserved": 0, "bike_id": "83afdecbd6b213cb91fd413d67989d8f", "name": "83afdecbd6b213cb91fd413d67989d8f", "fusion_lon": 0.0, "lon": -77.02124966666666, "fusion_lat": 0.0}, {"lat": 38.8984925, "type": "electric_scooter", "is_disabled": 0, "rental_uris": {"android": "https://dc.lft.to/lastmile_qr_scan", "ios": "https://dc.lft.to/lastmile_qr_scan"}, "is_reserved": 0, "bike_id": "edb50b7ae12fe1c28dd8b4e0dc799d3a", "name": "edb50b7ae12fe1c28dd8b4e0dc799d3a", "fusion_lon": 0.0, "lon": -76.9445475, "fusion_lat": 0.0}, {"lat": 38.89540016666667, "type": "electric_scooter", "is_disabled": 0, "rental_uris": {"android": "https://dc.lft.to/lastmile_qr_scan", "ios": "https://dc.lft.to/lastmile_qr_scan"}, "is_reserved": 0, "bike_id": "dfffbb9e34bf7555c268c2a41d2689b1", "name": "dfffbb9e34bf7555c268c2a41d2689b1", "fusion_lon": 0.0, "lon": -77.00345966666667, "fusion_lat": 0.0}, {"lat": 38.90789616666667, "type": "electric_scooter", "is_disabled": 0, "rental_uris": {"android": "https://dc.lft.to/lastmile_qr_scan", "ios": "https://dc.lft.to/lastmile_qr_scan"}, "is_reserved": 0, "bike_id": "80399a6d10ce2f529ec23ff75d0d6bc5", "name": "80399a6d10ce2f529ec23ff75d0d6bc5", "fusion_lon": 0.0, "lon": -77.04510133333333, "fusion_lat": 0.0}, {"lat": 38.94094, "type": "electric_scooter", "is_disabled": 0, "rental_uris": {"android": "https://dc.lft.to/lastmile_qr_scan", "ios": "https://dc.lft.to/lastmile_qr_scan"}, "is_reserved": 0, "bike_id": "ed8687d39ead74725b5abb7452c09fd4", "name": "ed8687d39ead74725b5abb7452c09fd4", "fusion_lon": 0.0, "lon": -77.02722466666667, "fusion_lat": 0.0}, {"lat": 38.9176575, "type": "electric_bike", "is_disabled": 0, "rental_uris": {"android": "https://dc.lft.to/lastmile_qr_scan", "ios": "https://dc.lft.to/lastmile_qr_scan"}, "is_reserved": 0, "bike_id": "6f2aa7ca64cef39aec6f5a093e876a43", "name": "6f2aa7ca64cef39aec6f5a093e876a43", "fusion_lon": 0.0, "lon": -76.9898025, "fusion_lat": 0.0}, {"lat": 38.89491316666667, "type": "electric_scooter", "is_disabled": 0, "rental_uris": {"android": "https://dc.lft.to/lastmile_qr_scan", "ios": "https://dc.lft.to/lastmile_qr_scan"}, "is_reserved": 0, "bike_id": "088ddfe9b6ee160f7eccb369d01dfda1", "name": "088ddfe9b6ee160f7eccb369d01dfda1", "fusion_lon": 0.0, "lon": -77.00212633333334, "fusion_lat": 0.0}, {"lat": 38.89918816666667, "type": "electric_scooter", "is_disabled": 0, "rental_uris": {"android": "https://dc.lft.to/lastmile_qr_scan", "ios": "https://dc.lft.to/lastmile_qr_scan"}, "is_reserved": 0, "bike_id": "a4434c90d5a25b1f0ffdcb6faf66c529", "name": "a4434c90d5a25b1f0ffdcb6faf66c529", "fusion_lon": 0.0, "lon": -77.03301833333333, "fusion_lat": 0.0}, {"lat": 38.90177683333334, "type": "electric_scooter", "is_disabled": 0, "rental_uris": {"android": "https://dc.lft.to/lastmile_qr_scan", "ios": "https://dc.lft.to/lastmile_qr_scan"}, "is_reserved": 0, "bike_id": "319ae14ee3bafb11f30ab08fcf9f1d33", "name": "319ae14ee3bafb11f30ab08fcf9f1d33", "fusion_lon": 0.0, "lon": -77.04727783333334, "fusion_lat": 0.0}, {"lat": 38.9181535, "type": "electric_scooter", "is_disabled": 0, "rental_uris": {"android": "https://dc.lft.to/lastmile_qr_scan", "ios": "https://dc.lft.to/lastmile_qr_scan"}, "is_reserved": 0, "bike_id": "d9a9d1b603134fbd1d0f4c54a97fe7ff", "name": "d9a9d1b603134fbd1d0f4c54a97fe7ff", "fusion_lon": 0.0, "lon": -77.02692583333334, "fusion_lat": 0.0}, {"lat": 38.89835166666667, "type": "electric_scooter", "is_disabled": 0, "rental_uris": {"android": "https://dc.lft.to/lastmile_qr_scan", "ios": "https://dc.lft.to/lastmile_qr_scan"}, "is_reserved": 0, "bike_id": "24866d6a690b55987859894d938436a2", "name": "24866d6a690b55987859894d938436a2", "fusion_lon": 0.0, "lon": -77.00733783333334, "fusion_lat": 0.0}, {"lat": 38.941807, "type": "electric_scooter", "is_disabled": 0, "rental_uris": {"android": "https://dc.lft.to/lastmile_qr_scan", "ios": "https://dc.lft.to/lastmile_qr_scan"}, "is_reserved": 0, "bike_id": "60f5f362cc3d61733b1cc37bd1411499", "name": "60f5f362cc3d61733b1cc37bd1411499", "fusion_lon": 0.0, "lon": -77.03653883333334, "fusion_lat": 0.0}, {"lat": 38.92353833333333, "type": "electric_scooter", "is_disabled": 0, "rental_uris": {"android": "https://dc.lft.to/lastmile_qr_scan", "ios": "https://dc.lft.to/lastmile_qr_scan"}, "is_reserved": 0, "bike_id": "99a0a525643055ae606eb52370d9eee4", "name": "99a0a525643055ae606eb52370d9eee4", "fusion_lon": 0.0, "lon": -77.03520966666666, "fusion_lat": 0.0}, {"lat": 38.9234965, "type": "electric_scooter", "is_disabled": 0, "rental_uris": {"android": "https://dc.lft.to/lastmile_qr_scan", "ios": "https://dc.lft.to/lastmile_qr_scan"}, "is_reserved": 0, "bike_id": "d562a0d29a628302c6aec0cf09944a1d", "name": "d562a0d29a628302c6aec0cf09944a1d", "fusion_lon": 0.0, "lon": -77.03521233333333, "fusion_lat": 0.0}, {"lat": 38.9182225, "type": "electric_scooter", "is_disabled": 0, "rental_uris": {"android": "https://dc.lft.to/lastmile_qr_scan", "ios": "https://dc.lft.to/lastmile_qr_scan"}, "is_reserved": 0, "bike_id": "eadbc830a100cdd6a667930a67fac71f", "name": "eadbc830a100cdd6a667930a67fac71f", "fusion_lon": 0.0, "lon": -77.04004466666666, "fusion_lat": 0.0}, {"lat": 38.922424, "type": "electric_scooter", "is_disabled": 0, "rental_uris": {"android": "https://dc.lft.to/lastmile_qr_scan", "ios": "https://dc.lft.to/lastmile_qr_scan"}, "is_reserved": 0, "bike_id": "50a4b3cbe0d95c5ec7a379a0419dd668", "name": "50a4b3cbe0d95c5ec7a379a0419dd668", "fusion_lon": 0.0, "lon": -77.02880466666667, "fusion_lat": 0.0}, {"lat": 38.9015005, "type": "electric_scooter", "is_disabled": 0, "rental_uris": {"android": "https://dc.lft.to/lastmile_qr_scan", "ios": "https://dc.lft.to/lastmile_qr_scan"}, "is_reserved": 0, "bike_id": "860e4a4b945d0ec3d3f5c07bb6bd6203", "name": "860e4a4b945d0ec3d3f5c07bb6bd6203", "fusion_lon": 0.0, "lon": -77.03205216666667, "fusion_lat": 0.0}, {"lat": 38.897688, "type": "electric_scooter", "is_disabled": 0, "rental_uris": {"android": "https://dc.lft.to/lastmile_qr_scan", "ios": "https://dc.lft.to/lastmile_qr_scan"}, "is_reserved": 0, "bike_id": "c77dafd79af47aa981b1326f7d20d15c", "name": "c77dafd79af47aa981b1326f7d20d15c", "fusion_lon": 0.0, "lon": -77.02486616666667, "fusion_lat": 0.0}, {"lat": 38.956477666666665, "type": "electric_scooter", "is_disabled": 0, "rental_uris": {"android": "https://dc.lft.to/lastmile_qr_scan", "ios": "https://dc.lft.to/lastmile_qr_scan"}, "is_reserved": 0, "bike_id": "5943b3662167d598bc17e351c5f7d7af", "name": "5943b3662167d598bc17e351c5f7d7af", "fusion_lon": 0.0, "lon": -77.0149665, "fusion_lat": 0.0}, {"lat": 38.9257915, "type": "electric_scooter", "is_disabled": 0, "rental_uris": {"android": "https://dc.lft.to/lastmile_qr_scan", "ios": "https://dc.lft.to/lastmile_qr_scan"}, "is_reserved": 0, "bike_id": "a047a230b0db968582c6286d156913bd", "name": "a047a230b0db968582c6286d156913bd", "fusion_lon": 0.0, "lon": -77.03099933333333, "fusion_lat": 0.0}, {"lat": 38.88698216666667, "type": "electric_bike", "is_disabled": 0, "rental_uris": {"android": "https://dc.lft.to/lastmile_qr_scan", "ios": "https://dc.lft.to/lastmile_qr_scan"}, "is_reserved": 0, "bike_id": "1c5fe25c366ce9fbe36a329371ff2629", "name": "1c5fe25c366ce9fbe36a329371ff2629", "fusion_lon": 0.0, "lon": -76.996831, "fusion_lat": 0.0}, {"lat": 38.903271833333335, "type": "electric_scooter", "is_disabled": 0, "rental_uris": {"android": "https://dc.lft.to/lastmile_qr_scan", "ios": "https://dc.lft.to/lastmile_qr_scan"}, "is_reserved": 0, "bike_id": "448773062672eb6b40f605ffc65fc8e4", "name": "448773062672eb6b40f605ffc65fc8e4", "fusion_lon": 0.0, "lon": -77.038437, "fusion_lat": 0.0}, {"lat": 38.92615166666667, "type": "electric_scooter", "is_disabled": 0, "rental_uris": {"android": "https://dc.lft.to/lastmile_qr_scan", "ios": "https://dc.lft.to/lastmile_qr_scan"}, "is_reserved": 0, "bike_id": "a4cdac8c0d2bdeebfe57d26472f1c188", "name": "a4cdac8c0d2bdeebfe57d26472f1c188", "fusion_lon": 0.0, "lon": -77.021617, "fusion_lat": 0.0}, {"lat": 38.9987465, "type": "electric_bike", "is_disabled": 0, "rental_uris": {"android": "https://dc.lft.to/lastmile_qr_scan", "ios": "https://dc.lft.to/lastmile_qr_scan"}, "is_reserved": 0, "bike_id": "996e71de0d7af52d167cb2d59d3fb181", "name": "996e71de0d7af52d167cb2d59d3fb181", "fusion_lon": 0.0, "lon": -77.02898333333333, "fusion_lat": 0.0}, {"lat": 38.937048, "type": "electric_bike", "is_disabled": 0, "rental_uris": {"android": "https://dc.lft.to/lastmile_qr_scan", "ios": "https://dc.lft.to/lastmile_qr_scan"}, "is_reserved": 0, "bike_id": "3cf99c0384acde36187bf4137506a2cd", "name": "3cf99c0384acde36187bf4137506a2cd", "fusion_lon": 0.0, "lon": -77.02982916666667, "fusion_lat": 0.0}, {"lat": 38.89709666666667, "type": "electric_scooter", "is_disabled": 0, "rental_uris": {"android": "https://dc.lft.to/lastmile_qr_scan", "ios": "https://dc.lft.to/lastmile_qr_scan"}, "is_reserved": 0, "bike_id": "b33eff5f84527a5042e2cd2757dac33f", "name": "b33eff5f84527a5042e2cd2757dac33f", "fusion_lon": 0.0, "lon": -77.05024, "fusion_lat": 0.0}, {"lat": 38.84513666666667, "type": "electric_bike", "is_disabled": 0, "rental_uris": {"android": "https://dc.lft.to/lastmile_qr_scan", "ios": "https://dc.lft.to/lastmile_qr_scan"}, "is_reserved": 0, "bike_id": "3b5cfedfed60b2dba909dd835c9b5cc5", "name": "3b5cfedfed60b2dba909dd835c9b5cc5", "fusion_lon": 0.0, "lon": -76.9721165, "fusion_lat": 0.0}, {"lat": 38.91925583333333, "type": "electric_scooter", "is_disabled": 0, "rental_uris": {"android": "https://dc.lft.to/lastmile_qr_scan", "ios": "https://dc.lft.to/lastmile_qr_scan"}, "is_reserved": 0, "bike_id": "1d4e5c306b63210f63500b65fa05cf7b", "name": "1d4e5c306b63210f63500b65fa05cf7b", "fusion_lon": 0.0, "lon": -77.03588516666667, "fusion_lat": 0.0}, {"lat": 38.913137, "type": "electric_scooter", "is_disabled": 0, "rental_uris": {"android": "https://dc.lft.to/lastmile_qr_scan", "ios": "https://dc.lft.to/lastmile_qr_scan"}, "is_reserved": 0, "bike_id": "75646b9ba18ab263b6eb4b699a89dec1", "name": "75646b9ba18ab263b6eb4b699a89dec1", "fusion_lon": 0.0, "lon": -77.04161283333333, "fusion_lat": 0.0}, {"lat": 38.92252116666667, "type": "electric_scooter", "is_disabled": 0, "rental_uris": {"android": "https://dc.lft.to/lastmile_qr_scan", "ios": "https://dc.lft.to/lastmile_qr_scan"}, "is_reserved": 0, "bike_id": "c1ecd8f598a40651b8ea936ddc055506", "name": "c1ecd8f598a40651b8ea936ddc055506", "fusion_lon": 0.0, "lon": -77.04136683333333, "fusion_lat": 0.0}, {"lat": 38.95130183333333, "type": "electric_scooter", "is_disabled": 0, "rental_uris": {"android": "https://dc.lft.to/lastmile_qr_scan", "ios": "https://dc.lft.to/lastmile_qr_scan"}, "is_reserved": 0, "bike_id": "4019f12b28db110e99eb1606c55adea1", "name": "4019f12b28db110e99eb1606c55adea1", "fusion_lon": 0.0, "lon": -77.0140105, "fusion_lat": 0.0}, {"lat": 38.90872016666667, "type": "electric_scooter", "is_disabled": 0, "rental_uris": {"android": "https://dc.lft.to/lastmile_qr_scan", "ios": "https://dc.lft.to/lastmile_qr_scan"}, "is_reserved": 0, "bike_id": "14bac696f511aa5a88486b3959a4200c", "name": "14bac696f511aa5a88486b3959a4200c", "fusion_lon": 0.0, "lon": -77.02690216666667, "fusion_lat": 0.0}, {"lat": 38.930048166666666, "type": "electric_scooter", "is_disabled": 0, "rental_uris": {"android": "https://dc.lft.to/lastmile_qr_scan", "ios": "https://dc.lft.to/lastmile_qr_scan"}, "is_reserved": 0, "bike_id": "83e6f9cd1553d41e7f13baf4fde8a79a", "name": "83e6f9cd1553d41e7f13baf4fde8a79a", "fusion_lon": 0.0, "lon": -77.07838716666667, "fusion_lat": 0.0}, {"lat": 38.907376666666664, "type": "electric_scooter", "is_disabled": 0, "rental_uris": {"android": "https://dc.lft.to/lastmile_qr_scan", "ios": "https://dc.lft.to/lastmile_qr_scan"}, "is_reserved": 0, "bike_id": "256cceae92395c48dbd907472e935f85", "name": "256cceae92395c48dbd907472e935f85", "fusion_lon": 0.0, "lon": -77.02984333333333, "fusion_lat": 0.0}, {"lat": 38.865512833333334, "type": "electric_bike", "is_disabled": 0, "rental_uris": {"android": "https://dc.lft.to/lastmile_qr_scan", "ios": "https://dc.lft.to/lastmile_qr_scan"}, "is_reserved": 0, "bike_id": "c518a6512ee0c341edc35051e9a2a876", "name": "c518a6512ee0c341edc35051e9a2a876", "fusion_lon": 0.0, "lon": -76.97374733333334, "fusion_lat": 0.0}, {"lat": 38.9371605, "type": "electric_scooter", "is_disabled": 0, "rental_uris": {"android": "https://dc.lft.to/lastmile_qr_scan", "ios": "https://dc.lft.to/lastmile_qr_scan"}, "is_reserved": 0, "bike_id": "f1079557407f48117606b8a559f380fc", "name": "f1079557407f48117606b8a559f380fc", "fusion_lon": 0.0, "lon": -77.03264066666667, "fusion_lat": 0.0}, {"lat": 38.92032116666667, "type": "electric_scooter", "is_disabled": 0, "rental_uris": {"android": "https://dc.lft.to/lastmile_qr_scan", "ios": "https://dc.lft.to/lastmile_qr_scan"}, "is_reserved": 0, "bike_id": "4780fd3188dc44c5e97f7aa66c6decbf", "name": "4780fd3188dc44c5e97f7aa66c6decbf", "fusion_lon": 0.0, "lon": -77.01140783333334, "fusion_lat": 0.0}, {"lat": 38.91409483333333, "type": "electric_scooter", "is_disabled": 0, "rental_uris": {"android": "https://dc.lft.to/lastmile_qr_scan", "ios": "https://dc.lft.to/lastmile_qr_scan"}, "is_reserved": 0, "bike_id": "5da34e256b7842f6a4745df18a9f0fb2", "name": "5da34e256b7842f6a4745df18a9f0fb2", "fusion_lon": 0.0, "lon": -77.031737, "fusion_lat": 0.0}, {"lat": 38.919431833333334, "type": "electric_scooter", "is_disabled": 0, "rental_uris": {"android": "https://dc.lft.to/lastmile_qr_scan", "ios": "https://dc.lft.to/lastmile_qr_scan"}, "is_reserved": 0, "bike_id": "8127ba8d64754005286355d10e2b4750", "name": "8127ba8d64754005286355d10e2b4750", "fusion_lon": 0.0, "lon": -77.01806366666666, "fusion_lat": 0.0}, {"lat": 38.892042000000004, "type": "electric_scooter", "is_disabled": 0, "rental_uris": {"android": "https://dc.lft.to/lastmile_qr_scan", "ios": "https://dc.lft.to/lastmile_qr_scan"}, "is_reserved": 0, "bike_id": "ce4fad3ae33f8fcaab464a63b7fba32f", "name": "ce4fad3ae33f8fcaab464a63b7fba32f", "fusion_lon": 0.0, "lon": -77.03176616666667, "fusion_lat": 0.0}, {"lat": 38.90496016666667, "type": "electric_scooter", "is_disabled": 0, "rental_uris": {"android": "https://dc.lft.to/lastmile_qr_scan", "ios": "https://dc.lft.to/lastmile_qr_scan"}, "is_reserved": 0, "bike_id": "fb78f64cd7561930adb0ebabdb01bc68", "name": "fb78f64cd7561930adb0ebabdb01bc68", "fusion_lon": 0.0, "lon": -77.02949916666667, "fusion_lat": 0.0}, {"lat": 38.9119935, "type": "electric_scooter", "is_disabled": 0, "rental_uris": {"android": "https://dc.lft.to/lastmile_qr_scan", "ios": "https://dc.lft.to/lastmile_qr_scan"}, "is_reserved": 0, "bike_id": "8d8afb2214fc93814b90c13874aa2139", "name": "8d8afb2214fc93814b90c13874aa2139", "fusion_lon": 0.0, "lon": -77.00727733333333, "fusion_lat": 0.0}, {"lat": 38.918433, "type": "electric_scooter", "is_disabled": 0, "rental_uris": {"android": "https://dc.lft.to/lastmile_qr_scan", "ios": "https://dc.lft.to/lastmile_qr_scan"}, "is_reserved": 0, "bike_id": "51a49a622df748fc45b6dd6f209f3db9", "name": "51a49a622df748fc45b6dd6f209f3db9", "fusion_lon": 0.0, "lon": -77.02312633333334, "fusion_lat": 0.0}, {"lat": 38.91504916666667, "type": "electric_scooter", "is_disabled": 0, "rental_uris": {"android": "https://dc.lft.to/lastmile_qr_scan", "ios": "https://dc.lft.to/lastmile_qr_scan"}, "is_reserved": 0, "bike_id": "ae38a69b929a7263e7ba07372bdf7b2a", "name": "ae38a69b929a7263e7ba07372bdf7b2a", "fusion_lon": 0.0, "lon": -76.9837085, "fusion_lat": 0.0}, {"lat": 38.92847733333333, "type": "electric_scooter", "is_disabled": 0, "rental_uris": {"android": "https://dc.lft.to/lastmile_qr_scan", "ios": "https://dc.lft.to/lastmile_qr_scan"}, "is_reserved": 0, "bike_id": "a02bddfb459247bc5f7bedfd7c63bdc1", "name": "a02bddfb459247bc5f7bedfd7c63bdc1", "fusion_lon": 0.0, "lon": -77.0563285, "fusion_lat": 0.0}, {"lat": 38.8393995, "type": "electric_bike", "is_disabled": 0, "rental_uris": {"android": "https://dc.lft.to/lastmile_qr_scan", "ios": "https://dc.lft.to/lastmile_qr_scan"}, "is_reserved": 0, "bike_id": "1917f54be88c1aa5d2cf235210b60f84", "name": "1917f54be88c1aa5d2cf235210b60f84", "fusion_lon": 0.0, "lon": -77.07898766666666, "fusion_lat": 0.0}, {"lat": 38.90111183333333, "type": "electric_scooter", "is_disabled": 0, "rental_uris": {"android": "https://dc.lft.to/lastmile_qr_scan", "ios": "https://dc.lft.to/lastmile_qr_scan"}, "is_reserved": 0, "bike_id": "50e3539e30b48a01bd567109126245ee", "name": "50e3539e30b48a01bd567109126245ee", "fusion_lon": 0.0, "lon": -77.0504685, "fusion_lat": 0.0}, {"lat": 38.918644, "type": "electric_bike", "is_disabled": 0, "rental_uris": {"android": "https://dc.lft.to/lastmile_qr_scan", "ios": "https://dc.lft.to/lastmile_qr_scan"}, "is_reserved": 0, "bike_id": "809c0af1b3f25418c8c68b6fa269db1c", "name": "809c0af1b3f25418c8c68b6fa269db1c", "fusion_lon": 0.0, "lon": -76.96086783333334, "fusion_lat": 0.0}, {"lat": 38.90505016666667, "type": "electric_scooter", "is_disabled": 0, "rental_uris": {"android": "https://dc.lft.to/lastmile_qr_scan", "ios": "https://dc.lft.to/lastmile_qr_scan"}, "is_reserved": 0, "bike_id": "f44f5eeae8e2441431bbdca5694c04e0", "name": "f44f5eeae8e2441431bbdca5694c04e0", "fusion_lon": 0.0, "lon": -77.0466095, "fusion_lat": 0.0}, {"lat": 38.910917833333336, "type": "electric_scooter", "is_disabled": 0, "rental_uris": {"android": "https://dc.lft.to/lastmile_qr_scan", "ios": "https://dc.lft.to/lastmile_qr_scan"}, "is_reserved": 0, "bike_id": "02420f057ffc3b0a9289b2d974d0fadd", "name": "02420f057ffc3b0a9289b2d974d0fadd", "fusion_lon": 0.0, "lon": -77.08773083333334, "fusion_lat": 0.0}, {"lat": 38.89828333333333, "type": "electric_scooter", "is_disabled": 0, "rental_uris": {"android": "https://dc.lft.to/lastmile_qr_scan", "ios": "https://dc.lft.to/lastmile_qr_scan"}, "is_reserved": 0, "bike_id": "b5a41c5c6238727ab94e55798ab3ceb9", "name": "b5a41c5c6238727ab94e55798ab3ceb9", "fusion_lon": 0.0, "lon": -77.04332516666666, "fusion_lat": 0.0}, {"lat": 38.86245816666667, "type": "electric_scooter", "is_disabled": 0, "rental_uris": {"android": "https://dc.lft.to/lastmile_qr_scan", "ios": "https://dc.lft.to/lastmile_qr_scan"}, "is_reserved": 0, "bike_id": "d852f57943c530eab0dee53afb1f87aa", "name": "d852f57943c530eab0dee53afb1f87aa", "fusion_lon": 0.0, "lon": -76.99493533333333, "fusion_lat": 0.0}, {"lat": 38.925025166666664, "type": "electric_scooter", "is_disabled": 0, "rental_uris": {"android": "https://dc.lft.to/lastmile_qr_scan", "ios": "https://dc.lft.to/lastmile_qr_scan"}, "is_reserved": 0, "bike_id": "fea3190bc7f6ce6f926dbfeb06a121f5", "name": "fea3190bc7f6ce6f926dbfeb06a121f5", "fusion_lon": 0.0, "lon": -77.052164, "fusion_lat": 0.0}, {"lat": 38.89450183333334, "type": "electric_bike", "is_disabled": 0, "rental_uris": {"android": "https://dc.lft.to/lastmile_qr_scan", "ios": "https://dc.lft.to/lastmile_qr_scan"}, "is_reserved": 0, "bike_id": "bc8c73c672ad8b4138edae78b38dc13a", "name": "bc8c73c672ad8b4138edae78b38dc13a", "fusion_lon": 0.0, "lon": -77.158281, "fusion_lat": 0.0}, {"lat": 38.935642, "type": "electric_scooter", "is_disabled": 0, "rental_uris": {"android": "https://dc.lft.to/lastmile_qr_scan", "ios": "https://dc.lft.to/lastmile_qr_scan"}, "is_reserved": 0, "bike_id": "de52c5dfc20651c82eb039f787f1425c", "name": "de52c5dfc20651c82eb039f787f1425c", "fusion_lon": 0.0, "lon": -77.03478133333333, "fusion_lat": 0.0}, {"lat": 38.841959, "type": "electric_bike", "is_disabled": 0, "rental_uris": {"android": "https://dc.lft.to/lastmile_qr_scan", "ios": "https://dc.lft.to/lastmile_qr_scan"}, "is_reserved": 0, "bike_id": "6ad536c2543622ef7168372c4c0acc73", "name": "6ad536c2543622ef7168372c4c0acc73", "fusion_lon": 0.0, "lon": -77.07749733333333, "fusion_lat": 0.0}, {"lat": 38.90018933333333, "type": "electric_scooter", "is_disabled": 0, "rental_uris": {"android": "https://dc.lft.to/lastmile_qr_scan", "ios": "https://dc.lft.to/lastmile_qr_scan"}, "is_reserved": 0, "bike_id": "390c72bf3519f1f1286cc606eb2b31e2", "name": "390c72bf3519f1f1286cc606eb2b31e2", "fusion_lon": 0.0, "lon": -76.99595183333334, "fusion_lat": 0.0}, {"lat": 38.898446166666666, "type": "electric_scooter", "is_disabled": 0, "rental_uris": {"android": "https://dc.lft.to/lastmile_qr_scan", "ios": "https://dc.lft.to/lastmile_qr_scan"}, "is_reserved": 0, "bike_id": "b03d6a2e773c4b1dde5edea75ad1f0a9", "name": "b03d6a2e773c4b1dde5edea75ad1f0a9", "fusion_lon": 0.0, "lon": -77.01957116666667, "fusion_lat": 0.0}, {"lat": 38.905788666666666, "type": "electric_scooter", "is_disabled": 0, "rental_uris": {"android": "https://dc.lft.to/lastmile_qr_scan", "ios": "https://dc.lft.to/lastmile_qr_scan"}, "is_reserved": 0, "bike_id": "ba421602a4a4e8e206b391805a6b4b17", "name": "ba421602a4a4e8e206b391805a6b4b17", "fusion_lon": 0.0, "lon": -77.00562166666667, "fusion_lat": 0.0}, {"lat": 39.095903166666666, "type": "electric_bike", "is_disabled": 0, "rental_uris": {"android": "https://dc.lft.to/lastmile_qr_scan", "ios": "https://dc.lft.to/lastmile_qr_scan"}, "is_reserved": 0, "bike_id": "bca4ffcdcccda2e41aa8793e8df44645", "name": "bca4ffcdcccda2e41aa8793e8df44645", "fusion_lon": 0.0, "lon": -77.1478025, "fusion_lat": 0.0}, {"lat": 38.8951475, "type": "electric_scooter", "is_disabled": 0, "rental_uris": {"android": "https://dc.lft.to/lastmile_qr_scan", "ios": "https://dc.lft.to/lastmile_qr_scan"}, "is_reserved": 0, "bike_id": "3242618cdef50e9eed9351bff9c7e96d", "name": "3242618cdef50e9eed9351bff9c7e96d", "fusion_lon": 0.0, "lon": -76.94885566666666, "fusion_lat": 0.0}, {"lat": 38.89224383333333, "type": "electric_scooter", "is_disabled": 0, "rental_uris": {"android": "https://dc.lft.to/lastmile_qr_scan", "ios": "https://dc.lft.to/lastmile_qr_scan"}, "is_reserved": 0, "bike_id": "f0a7e4c4a2c8c4ac94832976e4507d47", "name": "f0a7e4c4a2c8c4ac94832976e4507d47", "fusion_lon": 0.0, "lon": -77.0226395, "fusion_lat": 0.0}, {"lat": 38.9993595, "type": "electric_bike", "is_disabled": 0, "rental_uris": {"android": "https://dc.lft.to/lastmile_qr_scan", "ios": "https://dc.lft.to/lastmile_qr_scan"}, "is_reserved": 0, "bike_id": "f8f60e1a8d78aecd7175c18ba99124be", "name": "f8f60e1a8d78aecd7175c18ba99124be", "fusion_lon": 0.0, "lon": -77.00123266666667, "fusion_lat": 0.0}, {"lat": 38.90106216666667, "type": "electric_scooter", "is_disabled": 0, "rental_uris": {"android": "https://dc.lft.to/lastmile_qr_scan", "ios": "https://dc.lft.to/lastmile_qr_scan"}, "is_reserved": 0, "bike_id": "efe0a6282ed5b9b4e20d2f44977692df", "name": "efe0a6282ed5b9b4e20d2f44977692df", "fusion_lon": 0.0, "lon": -76.98090333333333, "fusion_lat": 0.0}, {"lat": 38.86043433333333, "type": "electric_scooter", "is_disabled": 0, "rental_uris": {"android": "https://dc.lft.to/lastmile_qr_scan", "ios": "https://dc.lft.to/lastmile_qr_scan"}, "is_reserved": 0, "bike_id": "8b0221aa8fc4e51767e2950ae6250221", "name": "8b0221aa8fc4e51767e2950ae6250221", "fusion_lon": 0.0, "lon": -76.99681733333334, "fusion_lat": 0.0}, {"lat": 38.89737183333333, "type": "electric_scooter", "is_disabled": 0, "rental_uris": {"android": "https://dc.lft.to/lastmile_qr_scan", "ios": "https://dc.lft.to/lastmile_qr_scan"}, "is_reserved": 0, "bike_id": "4ad973c277a75fb5bba4ed9e3f29512f", "name": "4ad973c277a75fb5bba4ed9e3f29512f", "fusion_lon": 0.0, "lon": -76.947027, "fusion_lat": 0.0}, {"lat": 38.85595083333333, "type": "electric_bike", "is_disabled": 0, "rental_uris": {"android": "https://dc.lft.to/lastmile_qr_scan", "ios": "https://dc.lft.to/lastmile_qr_scan"}, "is_reserved": 0, "bike_id": "01f26a51d30bf4ed5ee343a489e62966", "name": "01f26a51d30bf4ed5ee343a489e62966", "fusion_lon": 0.0, "lon": -77.10667033333333, "fusion_lat": 0.0}, {"lat": 38.91268516666667, "type": "electric_scooter", "is_disabled": 0, "rental_uris": {"android": "https://dc.lft.to/lastmile_qr_scan", "ios": "https://dc.lft.to/lastmile_qr_scan"}, "is_reserved": 0, "bike_id": "d8d05746af1b99b5332bcbb649725809", "name": "d8d05746af1b99b5332bcbb649725809", "fusion_lon": 0.0, "lon": -77.04149333333334, "fusion_lat": 0.0}, {"lat": 38.88500783333333, "type": "electric_scooter", "is_disabled": 0, "rental_uris": {"android": "https://dc.lft.to/lastmile_qr_scan", "ios": "https://dc.lft.to/lastmile_qr_scan"}, "is_reserved": 0, "bike_id": "66ca56b65aef6c40fba2ef32c194de6b", "name": "66ca56b65aef6c40fba2ef32c194de6b", "fusion_lon": 0.0, "lon": -77.0089465, "fusion_lat": 0.0}, {"lat": 38.898418, "type": "electric_scooter", "is_disabled": 0, "rental_uris": {"android": "https://dc.lft.to/lastmile_qr_scan", "ios": "https://dc.lft.to/lastmile_qr_scan"}, "is_reserved": 0, "bike_id": "faa718b4811d6583d257b7456bb096d0", "name": "faa718b4811d6583d257b7456bb096d0", "fusion_lon": 0.0, "lon": -77.024285, "fusion_lat": 0.0}, {"lat": 38.935431, "type": "electric_scooter", "is_disabled": 0, "rental_uris": {"android": "https://dc.lft.to/lastmile_qr_scan", "ios": "https://dc.lft.to/lastmile_qr_scan"}, "is_reserved": 0, "bike_id": "277e15651355ad57722ab6243f1b6f73", "name": "277e15651355ad57722ab6243f1b6f73", "fusion_lon": 0.0, "lon": -77.05812783333333, "fusion_lat": 0.0}, {"lat": 38.906147, "type": "electric_scooter", "is_disabled": 0, "rental_uris": {"android": "https://dc.lft.to/lastmile_qr_scan", "ios": "https://dc.lft.to/lastmile_qr_scan"}, "is_reserved": 0, "bike_id": "cad74040531b37246ccf8560c6fa1a70", "name": "cad74040531b37246ccf8560c6fa1a70", "fusion_lon": 0.0, "lon": -77.04164566666667, "fusion_lat": 0.0}, {"lat": 38.9453445, "type": "electric_bike", "is_disabled": 0, "rental_uris": {"android": "https://dc.lft.to/lastmile_qr_scan", "ios": "https://dc.lft.to/lastmile_qr_scan"}, "is_reserved": 0, "bike_id": "443b5627f76fb28f0ee1154514696edc", "name": "443b5627f76fb28f0ee1154514696edc", "fusion_lon": 0.0, "lon": -76.98727333333333, "fusion_lat": 0.0}, {"lat": 38.911888166666664, "type": "electric_scooter", "is_disabled": 0, "rental_uris": {"android": "https://dc.lft.to/lastmile_qr_scan", "ios": "https://dc.lft.to/lastmile_qr_scan"}, "is_reserved": 0, "bike_id": "3a8c91a9ae5650417924615de9d8bcc9", "name": "3a8c91a9ae5650417924615de9d8bcc9", "fusion_lon": 0.0, "lon": -77.0269795, "fusion_lat": 0.0}, {"lat": 38.92431833333333, "type": "electric_scooter", "is_disabled": 0, "rental_uris": {"android": "https://dc.lft.to/lastmile_qr_scan", "ios": "https://dc.lft.to/lastmile_qr_scan"}, "is_reserved": 0, "bike_id": "b5cd5907cdf9207ccd7b652bc15259b1", "name": "b5cd5907cdf9207ccd7b652bc15259b1", "fusion_lon": 0.0, "lon": -77.04480933333333, "fusion_lat": 0.0}, {"lat": 38.93531983333333, "type": "electric_scooter", "is_disabled": 0, "rental_uris": {"android": "https://dc.lft.to/lastmile_qr_scan", "ios": "https://dc.lft.to/lastmile_qr_scan"}, "is_reserved": 0, "bike_id": "6092b9c19c5a723cbe9c037aed0c67cc", "name": "6092b9c19c5a723cbe9c037aed0c67cc", "fusion_lon": 0.0, "lon": -77.03254433333333, "fusion_lat": 0.0}, {"lat": 38.895882, "type": "electric_scooter", "is_disabled": 0, "rental_uris": {"android": "https://dc.lft.to/lastmile_qr_scan", "ios": "https://dc.lft.to/lastmile_qr_scan"}, "is_reserved": 0, "bike_id": "df588cbb18beebf3cc712f1e576fea96", "name": "df588cbb18beebf3cc712f1e576fea96", "fusion_lon": 0.0, "lon": -77.02310666666666, "fusion_lat": 0.0}, {"lat": 38.91487166666667, "type": "electric_scooter", "is_disabled": 0, "rental_uris": {"android": "https://dc.lft.to/lastmile_qr_scan", "ios": "https://dc.lft.to/lastmile_qr_scan"}, "is_reserved": 0, "bike_id": "f6df51386740ce50dc56df01ce33d9d6", "name": "f6df51386740ce50dc56df01ce33d9d6", "fusion_lon": 0.0, "lon": -77.03234016666667, "fusion_lat": 0.0}, {"lat": 38.91555683333333, "type": "electric_scooter", "is_disabled": 0, "rental_uris": {"android": "https://dc.lft.to/lastmile_qr_scan", "ios": "https://dc.lft.to/lastmile_qr_scan"}, "is_reserved": 0, "bike_id": "d61fc5f79e0191a2cc3a5192db45086c", "name": "d61fc5f79e0191a2cc3a5192db45086c", "fusion_lon": 0.0, "lon": -77.01232016666667, "fusion_lat": 0.0}, {"lat": 38.89604516666667, "type": "electric_scooter", "is_disabled": 0, "rental_uris": {"android": "https://dc.lft.to/lastmile_qr_scan", "ios": "https://dc.lft.to/lastmile_qr_scan"}, "is_reserved": 0, "bike_id": "dbcd8333e9dbcfcf4bd9a24d02cb88ef", "name": "dbcd8333e9dbcfcf4bd9a24d02cb88ef", "fusion_lon": 0.0, "lon": -77.02651933333334, "fusion_lat": 0.0}, {"lat": 38.898138833333334, "type": "electric_scooter", "is_disabled": 0, "rental_uris": {"android": "https://dc.lft.to/lastmile_qr_scan", "ios": "https://dc.lft.to/lastmile_qr_scan"}, "is_reserved": 0, "bike_id": "d79129082a572ec08810b948e0ba9e42", "name": "d79129082a572ec08810b948e0ba9e42", "fusion_lon": 0.0, "lon": -77.03146616666666, "fusion_lat": 0.0}, {"lat": 38.88490383333333, "type": "electric_scooter", "is_disabled": 0, "rental_uris": {"android": "https://dc.lft.to/lastmile_qr_scan", "ios": "https://dc.lft.to/lastmile_qr_scan"}, "is_reserved": 0, "bike_id": "57f92ca9aca8fe4aa318ce8f2d9d71d8", "name": "57f92ca9aca8fe4aa318ce8f2d9d71d8", "fusion_lon": 0.0, "lon": -77.02072833333334, "fusion_lat": 0.0}, {"lat": 38.90849516666667, "type": "electric_scooter", "is_disabled": 0, "rental_uris": {"android": "https://dc.lft.to/lastmile_qr_scan", "ios": "https://dc.lft.to/lastmile_qr_scan"}, "is_reserved": 0, "bike_id": "6fe0f647cf7a1f9cc298d98410854058", "name": "6fe0f647cf7a1f9cc298d98410854058", "fusion_lon": 0.0, "lon": -77.03465066666666, "fusion_lat": 0.0}, {"lat": 38.88989083333333, "type": "electric_scooter", "is_disabled": 0, "rental_uris": {"android": "https://dc.lft.to/lastmile_qr_scan", "ios": "https://dc.lft.to/lastmile_qr_scan"}, "is_reserved": 0, "bike_id": "5f7549647bb7007c63639f55b867eb5d", "name": "5f7549647bb7007c63639f55b867eb5d", "fusion_lon": 0.0, "lon": -77.00339816666667, "fusion_lat": 0.0}, {"lat": 38.936710166666664, "type": "electric_scooter", "is_disabled": 0, "rental_uris": {"android": "https://dc.lft.to/lastmile_qr_scan", "ios": "https://dc.lft.to/lastmile_qr_scan"}, "is_reserved": 0, "bike_id": "17040a4e1fe6faa28993e151bf5dbd29", "name": "17040a4e1fe6faa28993e151bf5dbd29", "fusion_lon": 0.0, "lon": -77.05928716666666, "fusion_lat": 0.0}, {"lat": 38.897208166666665, "type": "electric_scooter", "is_disabled": 0, "rental_uris": {"android": "https://dc.lft.to/lastmile_qr_scan", "ios": "https://dc.lft.to/lastmile_qr_scan"}, "is_reserved": 0, "bike_id": "b183c1fde12ec9cbe5c51bd2d404517f", "name": "b183c1fde12ec9cbe5c51bd2d404517f", "fusion_lon": 0.0, "lon": -77.021556, "fusion_lat": 0.0}, {"lat": 38.903853166666664, "type": "electric_scooter", "is_disabled": 0, "rental_uris": {"android": "https://dc.lft.to/lastmile_qr_scan", "ios": "https://dc.lft.to/lastmile_qr_scan"}, "is_reserved": 0, "bike_id": "9170ade990ff85cdf55b194cb69d614f", "name": "9170ade990ff85cdf55b194cb69d614f", "fusion_lon": 0.0, "lon": -77.0377685, "fusion_lat": 0.0}, {"lat": 38.885820833333334, "type": "electric_scooter", "is_disabled": 0, "rental_uris": {"android": "https://dc.lft.to/lastmile_qr_scan", "ios": "https://dc.lft.to/lastmile_qr_scan"}, "is_reserved": 0, "bike_id": "106e6b666481b1c26d63fd52f498ce9d", "name": "106e6b666481b1c26d63fd52f498ce9d", "fusion_lon": 0.0, "lon": -77.01225683333334, "fusion_lat": 0.0}, {"lat": 38.8646765, "type": "electric_scooter", "is_disabled": 0, "rental_uris": {"android": "https://dc.lft.to/lastmile_qr_scan", "ios": "https://dc.lft.to/lastmile_qr_scan"}, "is_reserved": 0, "bike_id": "1e7a7ac01373911a2f108882d620f7c2", "name": "1e7a7ac01373911a2f108882d620f7c2", "fusion_lon": 0.0, "lon": -76.99610883333334, "fusion_lat": 0.0}, {"lat": 38.90896333333333, "type": "electric_scooter", "is_disabled": 0, "rental_uris": {"android": "https://dc.lft.to/lastmile_qr_scan", "ios": "https://dc.lft.to/lastmile_qr_scan"}, "is_reserved": 0, "bike_id": "acc792023ad2fad258297617d17b94dd", "name": "acc792023ad2fad258297617d17b94dd", "fusion_lon": 0.0, "lon": -77.0444695, "fusion_lat": 0.0}, {"lat": 38.880190666666664, "type": "electric_scooter", "is_disabled": 0, "rental_uris": {"android": "https://dc.lft.to/lastmile_qr_scan", "ios": "https://dc.lft.to/lastmile_qr_scan"}, "is_reserved": 0, "bike_id": "7a1d5410bb3e521111c4f75aca9c3902", "name": "7a1d5410bb3e521111c4f75aca9c3902", "fusion_lon": 0.0, "lon": -76.93115033333333, "fusion_lat": 0.0}, {"lat": 38.90516616666667, "type": "electric_scooter", "is_disabled": 0, "rental_uris": {"android": "https://dc.lft.to/lastmile_qr_scan", "ios": "https://dc.lft.to/lastmile_qr_scan"}, "is_reserved": 0, "bike_id": "223ef99107ba9e65e8741fa518aba12d", "name": "223ef99107ba9e65e8741fa518aba12d", "fusion_lon": 0.0, "lon": -77.0514775, "fusion_lat": 0.0}, {"lat": 38.92180033333333, "type": "electric_scooter", "is_disabled": 0, "rental_uris": {"android": "https://dc.lft.to/lastmile_qr_scan", "ios": "https://dc.lft.to/lastmile_qr_scan"}, "is_reserved": 0, "bike_id": "26d5b45d481f5cc1ab6ae0b69fbc7863", "name": "26d5b45d481f5cc1ab6ae0b69fbc7863", "fusion_lon": 0.0, "lon": -77.04224566666667, "fusion_lat": 0.0}, {"lat": 38.895336666666665, "type": "electric_scooter", "is_disabled": 0, "rental_uris": {"android": "https://dc.lft.to/lastmile_qr_scan", "ios": "https://dc.lft.to/lastmile_qr_scan"}, "is_reserved": 0, "bike_id": "bec939ad3846120ac95b56bcb86e2bea", "name": "bec939ad3846120ac95b56bcb86e2bea", "fusion_lon": 0.0, "lon": -77.0283895, "fusion_lat": 0.0}, {"lat": 38.988299166666664, "type": "electric_bike", "is_disabled": 0, "rental_uris": {"android": "https://dc.lft.to/lastmile_qr_scan", "ios": "https://dc.lft.to/lastmile_qr_scan"}, "is_reserved": 0, "bike_id": "85bb073366970c7c8a88dfd10f54e722", "name": "85bb073366970c7c8a88dfd10f54e722", "fusion_lon": 0.0, "lon": -76.987591, "fusion_lat": 0.0}, {"lat": 38.89807316666667, "type": "electric_scooter", "is_disabled": 0, "rental_uris": {"android": "https://dc.lft.to/lastmile_qr_scan", "ios": "https://dc.lft.to/lastmile_qr_scan"}, "is_reserved": 0, "bike_id": "cd752a7d6a07838fde825c0d2453265c", "name": "cd752a7d6a07838fde825c0d2453265c", "fusion_lon": 0.0, "lon": -77.02818433333333, "fusion_lat": 0.0}, {"lat": 38.853337333333336, "type": "electric_scooter", "is_disabled": 0, "rental_uris": {"android": "https://dc.lft.to/lastmile_qr_scan", "ios": "https://dc.lft.to/lastmile_qr_scan"}, "is_reserved": 0, "bike_id": "4c2cb3f7b9323145b62b5831f1ca4b15", "name": "4c2cb3f7b9323145b62b5831f1ca4b15", "fusion_lon": 0.0, "lon": -76.96591783333334, "fusion_lat": 0.0}, {"lat": 38.862516166666666, "type": "electric_scooter", "is_disabled": 0, "rental_uris": {"android": "https://dc.lft.to/lastmile_qr_scan", "ios": "https://dc.lft.to/lastmile_qr_scan"}, "is_reserved": 0, "bike_id": "e7b61211e486a9ab1c4d047ff0113ae1", "name": "e7b61211e486a9ab1c4d047ff0113ae1", "fusion_lon": 0.0, "lon": -76.9953075, "fusion_lat": 0.0}, {"lat": 38.906502333333336, "type": "electric_scooter", "is_disabled": 0, "rental_uris": {"android": "https://dc.lft.to/lastmile_qr_scan", "ios": "https://dc.lft.to/lastmile_qr_scan"}, "is_reserved": 0, "bike_id": "35d7747282f1168e4fd97698b7c9267f", "name": "35d7747282f1168e4fd97698b7c9267f", "fusion_lon": 0.0, "lon": -77.02942683333333, "fusion_lat": 0.0}, {"lat": 38.9001625, "type": "electric_scooter", "is_disabled": 0, "rental_uris": {"android": "https://dc.lft.to/lastmile_qr_scan", "ios": "https://dc.lft.to/lastmile_qr_scan"}, "is_reserved": 0, "bike_id": "c1e1cb3cb113c2566a9ef56737af31fd", "name": "c1e1cb3cb113c2566a9ef56737af31fd", "fusion_lon": 0.0, "lon": -77.01189866666667, "fusion_lat": 0.0}, {"lat": 38.931073166666664, "type": "electric_scooter", "is_disabled": 0, "rental_uris": {"android": "https://dc.lft.to/lastmile_qr_scan", "ios": "https://dc.lft.to/lastmile_qr_scan"}, "is_reserved": 0, "bike_id": "984bac5b17b87bcda690e1b6b95a70e3", "name": "984bac5b17b87bcda690e1b6b95a70e3", "fusion_lon": 0.0, "lon": -77.04132883333334, "fusion_lat": 0.0}, {"lat": 38.91034333333333, "type": "electric_scooter", "is_disabled": 0, "rental_uris": {"android": "https://dc.lft.to/lastmile_qr_scan", "ios": "https://dc.lft.to/lastmile_qr_scan"}, "is_reserved": 0, "bike_id": "13586a30d2cc937749d67103bc3f2d98", "name": "13586a30d2cc937749d67103bc3f2d98", "fusion_lon": 0.0, "lon": -77.01373183333334, "fusion_lat": 0.0}, {"lat": 38.91698783333333, "type": "electric_bike", "is_disabled": 0, "rental_uris": {"android": "https://dc.lft.to/lastmile_qr_scan", "ios": "https://dc.lft.to/lastmile_qr_scan"}, "is_reserved": 0, "bike_id": "44e701922ea47c995f45455cf5019d78", "name": "44e701922ea47c995f45455cf5019d78", "fusion_lon": 0.0, "lon": -77.09564633333333, "fusion_lat": 0.0}, {"lat": 38.90783616666667, "type": "electric_scooter", "is_disabled": 0, "rental_uris": {"android": "https://dc.lft.to/lastmile_qr_scan", "ios": "https://dc.lft.to/lastmile_qr_scan"}, "is_reserved": 0, "bike_id": "92e9e5d666cfeeded0283e421f83cbdb", "name": "92e9e5d666cfeeded0283e421f83cbdb", "fusion_lon": 0.0, "lon": -77.04515133333334, "fusion_lat": 0.0}, {"lat": 38.9498545, "type": "electric_scooter", "is_disabled": 0, "rental_uris": {"android": "https://dc.lft.to/lastmile_qr_scan", "ios": "https://dc.lft.to/lastmile_qr_scan"}, "is_reserved": 0, "bike_id": "9da6a61fc80eab325064d624ce7a3033", "name": "9da6a61fc80eab325064d624ce7a3033", "fusion_lon": 0.0, "lon": -77.02702566666666, "fusion_lat": 0.0}, {"lat": 38.89172516666667, "type": "electric_scooter", "is_disabled": 0, "rental_uris": {"android": "https://dc.lft.to/lastmile_qr_scan", "ios": "https://dc.lft.to/lastmile_qr_scan"}, "is_reserved": 0, "bike_id": "2cfe906209640b8f3027eff713757579", "name": "2cfe906209640b8f3027eff713757579", "fusion_lon": 0.0, "lon": -77.01539233333334, "fusion_lat": 0.0}, {"lat": 38.909167333333336, "type": "electric_scooter", "is_disabled": 0, "rental_uris": {"android": "https://dc.lft.to/lastmile_qr_scan", "ios": "https://dc.lft.to/lastmile_qr_scan"}, "is_reserved": 0, "bike_id": "e771ad7c88ec4156b54e5860725ebf1a", "name": "e771ad7c88ec4156b54e5860725ebf1a", "fusion_lon": 0.0, "lon": -77.03182433333333, "fusion_lat": 0.0}, {"lat": 38.892248333333335, "type": "electric_scooter", "is_disabled": 0, "rental_uris": {"android": "https://dc.lft.to/lastmile_qr_scan", "ios": "https://dc.lft.to/lastmile_qr_scan"}, "is_reserved": 0, "bike_id": "6e20cec3274544cd0d5fb2421673e1f3", "name": "6e20cec3274544cd0d5fb2421673e1f3", "fusion_lon": 0.0, "lon": -77.022623, "fusion_lat": 0.0}, {"lat": 38.910176666666665, "type": "electric_scooter", "is_disabled": 0, "rental_uris": {"android": "https://dc.lft.to/lastmile_qr_scan", "ios": "https://dc.lft.to/lastmile_qr_scan"}, "is_reserved": 0, "bike_id": "2481413ed7898138776832b8fb5809de", "name": "2481413ed7898138776832b8fb5809de", "fusion_lon": 0.0, "lon": -77.03192633333333, "fusion_lat": 0.0}, {"lat": 38.893658, "type": "electric_scooter", "is_disabled": 0, "rental_uris": {"android": "https://dc.lft.to/lastmile_qr_scan", "ios": "https://dc.lft.to/lastmile_qr_scan"}, "is_reserved": 0, "bike_id": "ace69a737e890e30138a61c9686e7d0a", "name": "ace69a737e890e30138a61c9686e7d0a", "fusion_lon": 0.0, "lon": -77.03977033333334, "fusion_lat": 0.0}, {"lat": 38.905701666666666, "type": "electric_scooter", "is_disabled": 0, "rental_uris": {"android": "https://dc.lft.to/lastmile_qr_scan", "ios": "https://dc.lft.to/lastmile_qr_scan"}, "is_reserved": 0, "bike_id": "eed5f9149b9abee03b5ee6d7f56499ab", "name": "eed5f9149b9abee03b5ee6d7f56499ab", "fusion_lon": 0.0, "lon": -77.04359466666666, "fusion_lat": 0.0}, {"lat": 38.892239333333336, "type": "electric_scooter", "is_disabled": 0, "rental_uris": {"android": "https://dc.lft.to/lastmile_qr_scan", "ios": "https://dc.lft.to/lastmile_qr_scan"}, "is_reserved": 0, "bike_id": "d0ba5646cea22ef1edebdeb101664934", "name": "d0ba5646cea22ef1edebdeb101664934", "fusion_lon": 0.0, "lon": -77.02265816666667, "fusion_lat": 0.0}, {"lat": 38.97410633333333, "type": "electric_bike", "is_disabled": 0, "rental_uris": {"android": "https://dc.lft.to/lastmile_qr_scan", "ios": "https://dc.lft.to/lastmile_qr_scan"}, "is_reserved": 0, "bike_id": "70bcc687843e3714ab178482e4e594c2", "name": "70bcc687843e3714ab178482e4e594c2", "fusion_lon": 0.0, "lon": -77.025004, "fusion_lat": 0.0}, {"lat": 38.927465, "type": "electric_scooter", "is_disabled": 0, "rental_uris": {"android": "https://dc.lft.to/lastmile_qr_scan", "ios": "https://dc.lft.to/lastmile_qr_scan"}, "is_reserved": 0, "bike_id": "dae045a0b5210c9be8adc7e04a85bafe", "name": "dae045a0b5210c9be8adc7e04a85bafe", "fusion_lon": 0.0, "lon": -77.0348045, "fusion_lat": 0.0}, {"lat": 38.90779766666667, "type": "electric_scooter", "is_disabled": 0, "rental_uris": {"android": "https://dc.lft.to/lastmile_qr_scan", "ios": "https://dc.lft.to/lastmile_qr_scan"}, "is_reserved": 0, "bike_id": "657ca97c8feff16afad4391108131b91", "name": "657ca97c8feff16afad4391108131b91", "fusion_lon": 0.0, "lon": -77.0269615, "fusion_lat": 0.0}, {"lat": 38.898143, "type": "electric_scooter", "is_disabled": 0, "rental_uris": {"android": "https://dc.lft.to/lastmile_qr_scan", "ios": "https://dc.lft.to/lastmile_qr_scan"}, "is_reserved": 0, "bike_id": "8e25be7a2f222d6266481add59907ded", "name": "8e25be7a2f222d6266481add59907ded", "fusion_lon": 0.0, "lon": -77.05218083333334, "fusion_lat": 0.0}, {"lat": 38.91142816666667, "type": "electric_scooter", "is_disabled": 0, "rental_uris": {"android": "https://dc.lft.to/lastmile_qr_scan", "ios": "https://dc.lft.to/lastmile_qr_scan"}, "is_reserved": 0, "bike_id": "e3a24fbe4d95726e9fb526cc16e286d2", "name": "e3a24fbe4d95726e9fb526cc16e286d2", "fusion_lon": 0.0, "lon": -77.02195166666667, "fusion_lat": 0.0}, {"lat": 38.87900533333333, "type": "electric_scooter", "is_disabled": 0, "rental_uris": {"android": "https://dc.lft.to/lastmile_qr_scan", "ios": "https://dc.lft.to/lastmile_qr_scan"}, "is_reserved": 0, "bike_id": "2d698743d5e0f4e7333418d9443f6931", "name": "2d698743d5e0f4e7333418d9443f6931", "fusion_lon": 0.0, "lon": -76.9352195, "fusion_lat": 0.0}, {"lat": 38.897468333333336, "type": "electric_scooter", "is_disabled": 0, "rental_uris": {"android": "https://dc.lft.to/lastmile_qr_scan", "ios": "https://dc.lft.to/lastmile_qr_scan"}, "is_reserved": 0, "bike_id": "73600193a64ff6e5b26449c402635626", "name": "73600193a64ff6e5b26449c402635626", "fusion_lon": 0.0, "lon": -77.000343, "fusion_lat": 0.0}, {"lat": 38.900679, "type": "electric_scooter", "is_disabled": 0, "rental_uris": {"android": "https://dc.lft.to/lastmile_qr_scan", "ios": "https://dc.lft.to/lastmile_qr_scan"}, "is_reserved": 0, "bike_id": "5bbeda6d8fb5007b760e505463e68aa7", "name": "5bbeda6d8fb5007b760e505463e68aa7", "fusion_lon": 0.0, "lon": -76.93387733333333, "fusion_lat": 0.0}, {"lat": 38.9096445, "type": "electric_scooter", "is_disabled": 0, "rental_uris": {"android": "https://dc.lft.to/lastmile_qr_scan", "ios": "https://dc.lft.to/lastmile_qr_scan"}, "is_reserved": 0, "bike_id": "80e7966fbe805455c5ef07877eb058fb", "name": "80e7966fbe805455c5ef07877eb058fb", "fusion_lon": 0.0, "lon": -77.0395015, "fusion_lat": 0.0}, {"lat": 38.9267155, "type": "electric_scooter", "is_disabled": 0, "rental_uris": {"android": "https://dc.lft.to/lastmile_qr_scan", "ios": "https://dc.lft.to/lastmile_qr_scan"}, "is_reserved": 0, "bike_id": "afb1523ace67ad8c0c53fbea18ec78cd", "name": "afb1523ace67ad8c0c53fbea18ec78cd", "fusion_lon": 0.0, "lon": -77.01498383333333, "fusion_lat": 0.0}, {"lat": 39.0527295, "type": "electric_bike", "is_disabled": 0, "rental_uris": {"android": "https://dc.lft.to/lastmile_qr_scan", "ios": "https://dc.lft.to/lastmile_qr_scan"}, "is_reserved": 0, "bike_id": "e7658c811af0c5e06b2bb1be773ea593", "name": "e7658c811af0c5e06b2bb1be773ea593", "fusion_lon": 0.0, "lon": -77.0438165, "fusion_lat": 0.0}, {"lat": 38.933732, "type": "electric_scooter", "is_disabled": 0, "rental_uris": {"android": "https://dc.lft.to/lastmile_qr_scan", "ios": "https://dc.lft.to/lastmile_qr_scan"}, "is_reserved": 0, "bike_id": "5729e777eb839b580407e36d455a63b8", "name": "5729e777eb839b580407e36d455a63b8", "fusion_lon": 0.0, "lon": -77.05753716666666, "fusion_lat": 0.0}, {"lat": 38.9281845, "type": "electric_scooter", "is_disabled": 0, "rental_uris": {"android": "https://dc.lft.to/lastmile_qr_scan", "ios": "https://dc.lft.to/lastmile_qr_scan"}, "is_reserved": 0, "bike_id": "2648f60d4902703fddb9d061a9f126ce", "name": "2648f60d4902703fddb9d061a9f126ce", "fusion_lon": 0.0, "lon": -77.02344783333334, "fusion_lat": 0.0}, {"lat": 38.86505783333333, "type": "electric_scooter", "is_disabled": 0, "rental_uris": {"android": "https://dc.lft.to/lastmile_qr_scan", "ios": "https://dc.lft.to/lastmile_qr_scan"}, "is_reserved": 0, "bike_id": "8fd44817d32eaf7a0a7e9d2ab8a76ac3", "name": "8fd44817d32eaf7a0a7e9d2ab8a76ac3", "fusion_lon": 0.0, "lon": -76.99001066666666, "fusion_lat": 0.0}, {"lat": 38.90869883333333, "type": "electric_scooter", "is_disabled": 0, "rental_uris": {"android": "https://dc.lft.to/lastmile_qr_scan", "ios": "https://dc.lft.to/lastmile_qr_scan"}, "is_reserved": 0, "bike_id": "807438d4eb9f1530ae339f593ebabead", "name": "807438d4eb9f1530ae339f593ebabead", "fusion_lon": 0.0, "lon": -77.0322565, "fusion_lat": 0.0}, {"lat": 38.94902883333334, "type": "electric_bike", "is_disabled": 0, "rental_uris": {"android": "https://dc.lft.to/lastmile_qr_scan", "ios": "https://dc.lft.to/lastmile_qr_scan"}, "is_reserved": 0, "bike_id": "fbc17e4a07b4af59d665cf253300930b", "name": "fbc17e4a07b4af59d665cf253300930b", "fusion_lon": 0.0, "lon": -76.96369833333333, "fusion_lat": 0.0}, {"lat": 38.903130833333336, "type": "electric_scooter", "is_disabled": 0, "rental_uris": {"android": "https://dc.lft.to/lastmile_qr_scan", "ios": "https://dc.lft.to/lastmile_qr_scan"}, "is_reserved": 0, "bike_id": "5a6c0276d6bbb3eb8ec06b88fc91b6da", "name": "5a6c0276d6bbb3eb8ec06b88fc91b6da", "fusion_lon": 0.0, "lon": -77.02123916666666, "fusion_lat": 0.0}, {"lat": 38.89514366666667, "type": "electric_scooter", "is_disabled": 0, "rental_uris": {"android": "https://dc.lft.to/lastmile_qr_scan", "ios": "https://dc.lft.to/lastmile_qr_scan"}, "is_reserved": 0, "bike_id": "0c9eece106f7ef7717f4184715e4c173", "name": "0c9eece106f7ef7717f4184715e4c173", "fusion_lon": 0.0, "lon": -76.948888, "fusion_lat": 0.0}, {"lat": 38.894672, "type": "electric_scooter", "is_disabled": 0, "rental_uris": {"android": "https://dc.lft.to/lastmile_qr_scan", "ios": "https://dc.lft.to/lastmile_qr_scan"}, "is_reserved": 0, "bike_id": "0b48f424ad51fa622140c95f568cee54", "name": "0b48f424ad51fa622140c95f568cee54", "fusion_lon": 0.0, "lon": -77.0202365, "fusion_lat": 0.0}, {"lat": 38.8809005, "type": "electric_scooter", "is_disabled": 0, "rental_uris": {"android": "https://dc.lft.to/lastmile_qr_scan", "ios": "https://dc.lft.to/lastmile_qr_scan"}, "is_reserved": 0, "bike_id": "5349d886411b00b8e85afa08a9621b5f", "name": "5349d886411b00b8e85afa08a9621b5f", "fusion_lon": 0.0, "lon": -77.02567966666666, "fusion_lat": 0.0}, {"lat": 38.930698666666665, "type": "electric_scooter", "is_disabled": 0, "rental_uris": {"android": "https://dc.lft.to/lastmile_qr_scan", "ios": "https://dc.lft.to/lastmile_qr_scan"}, "is_reserved": 0, "bike_id": "73a2a7ded10c26971d673cdc19fadcc2", "name": "73a2a7ded10c26971d673cdc19fadcc2", "fusion_lon": 0.0, "lon": -77.02981466666667, "fusion_lat": 0.0}, {"lat": 38.92308333333333, "type": "electric_scooter", "is_disabled": 0, "rental_uris": {"android": "https://dc.lft.to/lastmile_qr_scan", "ios": "https://dc.lft.to/lastmile_qr_scan"}, "is_reserved": 0, "bike_id": "010ec0c012c6c40b22cb4e4a0c0a6fc8", "name": "010ec0c012c6c40b22cb4e4a0c0a6fc8", "fusion_lon": 0.0, "lon": -77.03914883333333, "fusion_lat": 0.0}, {"lat": 38.9003865, "type": "electric_scooter", "is_disabled": 0, "rental_uris": {"android": "https://dc.lft.to/lastmile_qr_scan", "ios": "https://dc.lft.to/lastmile_qr_scan"},