{"data": {"bikes": [{"rental_uris": {"ios": "https://dc.lft.to/lastmile_qr_scan", "android": "https://dc.lft.to/lastmile_qr_scan"}, "lon": -77.027545, "type": "electric_scooter", "fusion_lat": 0.0, "lat": 38.923123, "name": "ea4c1fee6d50d9474ac018a0f2d60573", "fusion_lon": 0.0, "bike_id": "ea4c1fee6d50d9474ac018a0f2d60573", "is_disabled": 0, "is_reserved": 0}, {"rental_uris": {"ios": "https://dc.lft.to/lastmile_qr_scan", "android": "https://dc.lft.to/lastmile_qr_scan"}, "lon": -76.93829016666666, "type": "electric_scooter", "fusion_lat": 0.0, "lat": 38.89756916666666, "name": "6199b9efcc1bd0ffd14885303c09cf7a", "fusion_lon": 0.0, "bike_id": "6199b9efcc1bd0ffd14885303c09cf7a", "is_disabled": 0, "is_reserved": 0}, {"rental_uris": {"ios": "https://dc.lft.to/lastmile_qr_scan", "android": "https://dc.lft.to/lastmile_qr_scan"}, "lon": -77.0350965, "type": "electric_scooter", "fusion_lat": 0.0, "lat": 38.921525, "name": "e9c4cc18e818a6e48747ecc95a482b08", "fusion_lon": 0.0, "bike_id": "e9c4cc18e818a6e48747ecc95a482b08", "is_disabled": 0, "is_reserved": 0}, {"rental_uris": {"ios": "https://dc.lft.to/lastmile_qr_scan", "android": "https://dc.lft.to/lastmile_qr_scan"}, "lon": -77.043468, "type": "electric_scooter", "fusion_lat": 0.0, "lat": 38.92676816666667, "name": "3d7b376220709f62325606d8f3320bd4", "fusion_lon": 0.0, "bike_id": "3d7b376220709f62325606d8f3320bd4", "is_disabled": 0, "is_reserved": 0}, {"rental_uris": {"ios": "https://dc.lft.to/lastmile_qr_scan", "android": "https://dc.lft.to/lastmile_qr_scan"}, "lon": -76.96506933333333, "type": "electric_scooter", "fusion_lat": 0.0, "lat": 38.87647283333333, "name": "8bd71e603773cacfc215a3d09e278b98", "fusion_lon": 0.0, "bike_id": "8bd71e603773cacfc215a3d09e278b98", "is_disabled": 0, "is_reserved": 0}, {"rental_uris": {"ios": "https://dc.lft.to/lastmile_qr_scan", "android": "https://dc.lft.to/lastmile_qr_scan"}, "lon": -77.021783, "type": "electric_scooter", "fusion_lat": 0.0, "lat": 38.916482333333335, "name": "b5299877434db192e2101435f23be7ec", "fusion_lon": 0.0, "bike_id": "b5299877434db192e2101435f23be7ec", "is_disabled": 0, "is_reserved": 0}, {"rental_uris": {"ios": "https://dc.lft.to/lastmile_qr_scan", "android": "https://dc.lft.to/lastmile_qr_scan"}, "lon": -77.03025733333334, "type": "electric_scooter", "fusion_lat": 0.0, "lat": 38.897578833333334, "name": "e17dfbb8141047425c6e952cbdafddae", "fusion_lon": 0.0, "bike_id": "e17dfbb8141047425c6e952cbdafddae", "is_disabled": 0, "is_reserved": 0}, {"rental_uris": {"ios": "https://dc.lft.to/lastmile_qr_scan", "android": "https://dc.lft.to/lastmile_qr_scan"}, "lon": -77.0487935, "type": "electric_scooter", "fusion_lat": 0.0, "lat": 38.900761833333334, "name": "c96b08b4f88869ddd4c8cba791dfa60a", "fusion_lon": 0.0, "bike_id": "c96b08b4f88869ddd4c8cba791dfa60a", "is_disabled": 0, "is_reserved": 0}, {"rental_uris": {"ios": "https://dc.lft.to/lastmile_qr_scan", "android": "https://dc.lft.to/lastmile_qr_scan"}, "lon": -77.00427516666667, "type": "electric_scooter", "fusion_lat": 0.0, "lat": 38.903933333333335, "name": "a3881cf311a1897ae23009febd4ee284", "fusion_lon": 0.0, "bike_id": "a3881cf311a1897ae23009febd4ee284", "is_disabled": 0, "is_reserved": 0}, {"rental_uris": {"ios": "https://dc.lft.to/lastmile_qr_scan", "android": "https://dc.lft.to/lastmile_qr_scan"}, "lon": -77.04891633333334, "type": "electric_scooter", "fusion_lat": 0.0, "lat": 38.90542933333333, "name": "1877bc9113359f718eccf87f481a1a70", "fusion_lon": 0.0, "bike_id": "1877bc9113359f718eccf87f481a1a70", "is_disabled": 0, "is_reserved": 0}, {"rental_uris": {"ios": "https://dc.lft.to/lastmile_qr_scan", "android": "https://dc.lft.to/lastmile_qr_scan"}, "lon": -77.02848683333333, "type": "electric_scooter", "fusion_lat": 0.0, "lat": 38.95084533333333, "name": "2eb5586ee6425aef6b9817915d25543f", "fusion_lon": 0.0, "bike_id": "2eb5586ee6425aef6b9817915d25543f", "is_disabled": 0, "is_reserved": 0}, {"rental_uris": {"ios": "https://dc.lft.to/lastmile_qr_scan", "android": "https://dc.lft.to/lastmile_qr_scan"}, "lon": -77.03865883333333, "type": "electric_scooter", "fusion_lat": 0.0, "lat": 38.920252, "name": "24765b6385b1e51040db6ce3e06e82d1", "fusion_lon": 0.0, "bike_id": "24765b6385b1e51040db6ce3e06e82d1", "is_disabled": 0, "is_reserved": 0}, {"rental_uris": {"ios": "https://dc.lft.to/lastmile_qr_scan", "android": "https://dc.lft.to/lastmile_qr_scan"}, "lon": -76.97880583333334, "type": "electric_scooter", "fusion_lat": 0.0, "lat": 38.885105833333334, "name": "4bb8e0e6da378d8c9d65a27d03f94ba8", "fusion_lon": 0.0, "bike_id": "4bb8e0e6da378d8c9d65a27d03f94ba8", "is_disabled": 0, "is_reserved": 0}, {"rental_uris": {"ios": "https://dc.lft.to/lastmile_qr_scan", "android": "https://dc.lft.to/lastmile_qr_scan"}, "lon": -77.04176866666667, "type": "electric_scooter", "fusion_lat": 0.0, "lat": 38.9193855, "name": "6e8846f466abd99bb4d64a1615ebd0e1", "fusion_lon": 0.0, "bike_id": "6e8846f466abd99bb4d64a1615ebd0e1", "is_disabled": 0, "is_reserved": 0}, {"rental_uris": {"ios": "https://dc.lft.to/lastmile_qr_scan", "android": "https://dc.lft.to/lastmile_qr_scan"}, "lon": -76.98699966666666, "type": "electric_scooter", "fusion_lat": 0.0, "lat": 38.907033166666665, "name": "c598f0aefcfa4d4f697fbb12b9e57c99", "fusion_lon": 0.0, "bike_id": "c598f0aefcfa4d4f697fbb12b9e57c99", "is_disabled": 0, "is_reserved": 0}, {"rental_uris": {"ios": "https://dc.lft.to/lastmile_qr_scan", "android": "https://dc.lft.to/lastmile_qr_scan"}, "lon": -77.010753, "type": "electric_scooter", "fusion_lat": 0.0, "lat": 38.894820333333335, "name": "e997838f6e4c810a70cc585b196b092c", "fusion_lon": 0.0, "bike_id": "e997838f6e4c810a70cc585b196b092c", "is_disabled": 0, "is_reserved": 0}, {"rental_uris": {"ios": "https://dc.lft.to/lastmile_qr_scan", "android": "https://dc.lft.to/lastmile_qr_scan"}, "lon": -77.01479816666667, "type": "electric_scooter", "fusion_lat": 0.0, "lat": 38.88120983333334, "name": "5acca39db4a8f483d6a5a78c32c3e943", "fusion_lon": 0.0, "bike_id": "5acca39db4a8f483d6a5a78c32c3e943", "is_disabled": 0, "is_reserved": 0}, {"rental_uris": {"ios": "https://dc.lft.to/lastmile_qr_scan", "android": "https://dc.lft.to/lastmile_qr_scan"}, "lon": -77.03512733333334, "type": "electric_bike", "fusion_lat": 0.0, "lat": 38.96510333333333, "name": "47d6dad6b7ee73c8468d51b87a6dea74", "fusion_lon": 0.0, "bike_id": "47d6dad6b7ee73c8468d51b87a6dea74", "is_disabled": 0, "is_reserved": 0}, {"rental_uris": {"ios": "https://dc.lft.to/lastmile_qr_scan", "android": "https://dc.lft.to/lastmile_qr_scan"}, "lon": -77.04044416666666, "type": "electric_scooter", "fusion_lat": 0.0, "lat": 38.90263383333333, "name": "2be6170c18701acdb4dd26f5ddbafc51", "fusion_lon": 0.0, "bike_id": "2be6170c18701acdb4dd26f5ddbafc51", "is_disabled": 0, "is_reserved": 0}, {"rental_uris": {"ios": "https://dc.lft.to/lastmile_qr_scan", "android": "https://dc.lft.to/lastmile_qr_scan"}, "lon": -77.0330955, "type": "electric_scooter", "fusion_lat": 0.0, "lat": 38.908352, "name": "38708a75654abecffc44c09f578853f1", "fusion_lon": 0.0, "bike_id": "38708a75654abecffc44c09f578853f1", "is_disabled": 0, "is_reserved": 0}, {"rental_uris": {"ios": "https://dc.lft.to/lastmile_qr_scan", "android": "https://dc.lft.to/lastmile_qr_scan"}, "lon": -76.99962516666666, "type": "electric_scooter", "fusion_lat": 0.0, "lat": 38.909208166666666, "name": "f2b664211daa1373f24816399729493f", "fusion_lon": 0.0, "bike_id": "f2b664211daa1373f24816399729493f", "is_disabled": 0, "is_reserved": 0}, {"rental_uris": {"ios": "https://dc.lft.to/lastmile_qr_scan", "android": "https://dc.lft.to/lastmile_qr_scan"}, "lon": -77.03192783333333, "type": "electric_scooter", "fusion_lat": 0.0, "lat": 38.91799866666667, "name": "0d3577123149f4a6d7428eb7f96a30f5", "fusion_lon": 0.0, "bike_id": "0d3577123149f4a6d7428eb7f96a30f5", "is_disabled": 0, "is_reserved": 0}, {"rental_uris": {"ios": "https://dc.lft.to/lastmile_qr_scan", "android": "https://dc.lft.to/lastmile_qr_scan"}, "lon": -77.0431985, "type": "electric_scooter", "fusion_lat": 0.0, "lat": 38.895913, "name": "ad6a27df4a5ff372b23898b6b8186f93", "fusion_lon": 0.0, "bike_id": "ad6a27df4a5ff372b23898b6b8186f93", "is_disabled": 0, "is_reserved": 0}, {"rental_uris": {"ios": "https://dc.lft.to/lastmile_qr_scan", "android": "https://dc.lft.to/lastmile_qr_scan"}, "lon": -77.02974516666667, "type": "electric_scooter", "fusion_lat": 0.0, "lat": 38.912324, "name": "989deb80a4e3e7f87deb701084583e31", "fusion_lon": 0.0, "bike_id": "989deb80a4e3e7f87deb701084583e31", "is_disabled": 0, "is_reserved": 0}, {"rental_uris": {"ios": "https://dc.lft.to/lastmile_qr_scan", "android": "https://dc.lft.to/lastmile_qr_scan"}, "lon": -76.93801016666667, "type": "electric_scooter", "fusion_lat": 0.0, "lat": 38.91284233333333, "name": "660b9c17d0da4040117e9919b1a09156", "fusion_lon": 0.0, "bike_id": "660b9c17d0da4040117e9919b1a09156", "is_disabled": 0, "is_reserved": 0}, {"rental_uris": {"ios": "https://dc.lft.to/lastmile_qr_scan", "android": "https://dc.lft.to/lastmile_qr_scan"}, "lon": -77.049496, "type": "electric_scooter", "fusion_lat": 0.0, "lat": 38.89672983333333, "name": "2ec9329e68e4f4aea931748e484d000f", "fusion_lon": 0.0, "bike_id": "2ec9329e68e4f4aea931748e484d000f", "is_disabled": 0, "is_reserved": 0}, {"rental_uris": {"ios": "https://dc.lft.to/lastmile_qr_scan", "android": "https://dc.lft.to/lastmile_qr_scan"}, "lon": -77.04233283333333, "type": "electric_scooter", "fusion_lat": 0.0, "lat": 38.907940833333335, "name": "72c71df370777908ac707e40320649a0", "fusion_lon": 0.0, "bike_id": "72c71df370777908ac707e40320649a0", "is_disabled": 0, "is_reserved": 0}, {"rental_uris": {"ios": "https://dc.lft.to/lastmile_qr_scan", "android": "https://dc.lft.to/lastmile_qr_scan"}, "lon": -77.03270283333333, "type": "electric_scooter", "fusion_lat": 0.0, "lat": 38.9373785, "name": "12edc016e2f6e665640bcb5812b025fa", "fusion_lon": 0.0, "bike_id": "12edc016e2f6e665640bcb5812b025fa", "is_disabled": 0, "is_reserved": 0}, {"rental_uris": {"ios": "https://dc.lft.to/lastmile_qr_scan", "android": "https://dc.lft.to/lastmile_qr_scan"}, "lon": -77.0836925, "type": "electric_scooter", "fusion_lat": 0.0, "lat": 38.93035483333333, "name": "bdfbd97d46b1661ad859c5a2acb67fdf", "fusion_lon": 0.0, "bike_id": "bdfbd97d46b1661ad859c5a2acb67fdf", "is_disabled": 0, "is_reserved": 0}, {"rental_uris": {"ios": "https://dc.lft.to/lastmile_qr_scan", "android": "https://dc.lft.to/lastmile_qr_scan"}, "lon": -76.99557, "type": "electric_scooter", "fusion_lat": 0.0, "lat": 38.92677033333333, "name": "63dfdd4c676c94244a1c225078141bea", "fusion_lon": 0.0, "bike_id": "63dfdd4c676c94244a1c225078141bea", "is_disabled": 0, "is_reserved": 0}, {"rental_uris": {"ios": "https://dc.lft.to/lastmile_qr_scan", "android": "https://dc.lft.to/lastmile_qr_scan"}, "lon": -77.12736816666667, "type": "electric_bike", "fusion_lat": 0.0, "lat": 38.88818716666667, "name": "f48e495622c5056570123c0ad3374723", "fusion_lon": 0.0, "bike_id": "f48e495622c5056570123c0ad3374723", "is_disabled": 0, "is_reserved": 0}, {"rental_uris": {"ios": "https://dc.lft.to/lastmile_qr_scan", "android": "https://dc.lft.to/lastmile_qr_scan"}, "lon": -77.0308055, "type": "electric_scooter", "fusion_lat": 0.0, "lat": 38.93472833333333, "name": "6f53a4223c65a0001022b243a6f467a0", "fusion_lon": 0.0, "bike_id": "6f53a4223c65a0001022b243a6f467a0", "is_disabled": 0, "is_reserved": 0}, {"rental_uris": {"ios": "https://dc.lft.to/lastmile_qr_scan", "android": "https://dc.lft.to/lastmile_qr_scan"}, "lon": -77.04823016666667, "type": "electric_scooter", "fusion_lat": 0.0, "lat": 38.89619833333333, "name": "b3b320f8327b4b11d39f7a18e2114a0b", "fusion_lon": 0.0, "bike_id": "b3b320f8327b4b11d39f7a18e2114a0b", "is_disabled": 0, "is_reserved": 0}, {"rental_uris": {"ios": "https://dc.lft.to/lastmile_qr_scan", "android": "https://dc.lft.to/lastmile_qr_scan"}, "lon": -76.98771866666667, "type": "electric_scooter", "fusion_lat": 0.0, "lat": 38.911718666666665, "name": "46dfdf7c70a85abf258565c8020111bb", "fusion_lon": 0.0, "bike_id": "46dfdf7c70a85abf258565c8020111bb", "is_disabled": 0, "is_reserved": 0}, {"rental_uris": {"ios": "https://dc.lft.to/lastmile_qr_scan", "android": "https://dc.lft.to/lastmile_qr_scan"}, "lon": -77.017608, "type": "electric_scooter", "fusion_lat": 0.0, "lat": 38.938959, "name": "260e691a34f98bb2744941829c75f0fb", "fusion_lon": 0.0, "bike_id": "260e691a34f98bb2744941829c75f0fb", "is_disabled": 0, "is_reserved": 0}, {"rental_uris": {"ios": "https://dc.lft.to/lastmile_qr_scan", "android": "https://dc.lft.to/lastmile_qr_scan"}, "lon": -77.0288855, "type": "electric_scooter", "fusion_lat": 0.0, "lat": 38.90370133333333, "name": "ab9b3d55b34dbd430aa0f1ed8a0acbd2", "fusion_lon": 0.0, "bike_id": "ab9b3d55b34dbd430aa0f1ed8a0acbd2", "is_disabled": 0, "is_reserved": 0}, {"rental_uris": {"ios": "https://dc.lft.to/lastmile_qr_scan", "android": "https://dc.lft.to/lastmile_qr_scan"}, "lon": -76.9789075, "type": "electric_scooter", "fusion_lat": 0.0, "lat": 38.91675, "name": "019de14166a70029f2afb56e038ba953", "fusion_lon": 0.0, "bike_id": "019de14166a70029f2afb56e038ba953", "is_disabled": 0, "is_reserved": 0}, {"rental_uris": {"ios": "https://dc.lft.to/lastmile_qr_scan", "android": "https://dc.lft.to/lastmile_qr_scan"}, "lon": -77.0413845, "type": "electric_scooter", "fusion_lat": 0.0, "lat": 38.916831, "name": "618c3e8b716a45c96848e700d45b5d24", "fusion_lon": 0.0, "bike_id": "618c3e8b716a45c96848e700d45b5d24", "is_disabled": 0, "is_reserved": 0}, {"rental_uris": {"ios": "https://dc.lft.to/lastmile_qr_scan", "android": "https://dc.lft.to/lastmile_qr_scan"}, "lon": -77.04707233333333, "type": "electric_scooter", "fusion_lat": 0.0, "lat": 38.9177855, "name": "5cab30d31acf1ecfb997f0e9bff65ee4", "fusion_lon": 0.0, "bike_id": "5cab30d31acf1ecfb997f0e9bff65ee4", "is_disabled": 0, "is_reserved": 0}, {"rental_uris": {"ios": "https://dc.lft.to/lastmile_qr_scan", "android": "https://dc.lft.to/lastmile_qr_scan"}, "lon": -77.0261235, "type": "electric_scooter", "fusion_lat": 0.0, "lat": 38.918162333333335, "name": "9e8a51583958ae2c6b1de916ada8cd6f", "fusion_lon": 0.0, "bike_id": "9e8a51583958ae2c6b1de916ada8cd6f", "is_disabled": 0, "is_reserved": 0}, {"rental_uris": {"ios": "https://dc.lft.to/lastmile_qr_scan", "android": "https://dc.lft.to/lastmile_qr_scan"}, "lon": -77.0022355, "type": "electric_bike", "fusion_lat": 0.0, "lat": 38.82375433333333, "name": "43634d5a9311728b04741ddb2acff00d", "fusion_lon": 0.0, "bike_id": "43634d5a9311728b04741ddb2acff00d", "is_disabled": 0, "is_reserved": 0}, {"rental_uris": {"ios": "https://dc.lft.to/lastmile_qr_scan", "android": "https://dc.lft.to/lastmile_qr_scan"}, "lon": -77.01731366666667, "type": "electric_scooter", "fusion_lat": 0.0, "lat": 38.90267333333333, "name": "b26f08d1fa8799ef5b6a1d52fca91703", "fusion_lon": 0.0, "bike_id": "b26f08d1fa8799ef5b6a1d52fca91703", "is_disabled": 0, "is_reserved": 0}, {"rental_uris": {"ios": "https://dc.lft.to/lastmile_qr_scan", "android": "https://dc.lft.to/lastmile_qr_scan"}, "lon": -76.97673616666667, "type": "electric_bike", "fusion_lat": 0.0, "lat": 38.96630183333333, "name": "3741fc6f2e7da0ad9637e5d3b60fb88b", "fusion_lon": 0.0, "bike_id": "3741fc6f2e7da0ad9637e5d3b60fb88b", "is_disabled": 0, "is_reserved": 0}, {"rental_uris": {"ios": "https://dc.lft.to/lastmile_qr_scan", "android": "https://dc.lft.to/lastmile_qr_scan"}, "lon": -77.02719733333333, "type": "electric_scooter", "fusion_lat": 0.0, "lat": 38.899325166666664, "name": "c036fbaac72303e2489e0fe3a77f0d76", "fusion_lon": 0.0, "bike_id": "c036fbaac72303e2489e0fe3a77f0d76", "is_disabled": 0, "is_reserved": 0}, {"rental_uris": {"ios": "https://dc.lft.to/lastmile_qr_scan", "android": "https://dc.lft.to/lastmile_qr_scan"}, "lon": -77.04126616666667, "type": "electric_scooter", "fusion_lat": 0.0, "lat": 38.92963066666667, "name": "dffc959f2711d8abb21c219530d04a73", "fusion_lon": 0.0, "bike_id": "dffc959f2711d8abb21c219530d04a73", "is_disabled": 0, "is_reserved": 0}, {"rental_uris": {"ios": "https://dc.lft.to/lastmile_qr_scan", "android": "https://dc.lft.to/lastmile_qr_scan"}, "lon": -77.079456, "type": "electric_bike", "fusion_lat": 0.0, "lat": 38.893694833333335, "name": "f89827d590fbdb76ef267e00fb4ebc08", "fusion_lon": 0.0, "bike_id": "f89827d590fbdb76ef267e00fb4ebc08", "is_disabled": 0, "is_reserved": 0}, {"rental_uris": {"ios": "https://dc.lft.to/lastmile_qr_scan", "android": "https://dc.lft.to/lastmile_qr_scan"}, "lon": -77.032067, "type": "electric_scooter", "fusion_lat": 0.0, "lat": 38.937566833333335, "name": "4caa81ed99e2d6eb71a197c32f71fe71", "fusion_lon": 0.0, "bike_id": "4caa81ed99e2d6eb71a197c32f71fe71", "is_disabled": 0, "is_reserved": 0}, {"rental_uris": {"ios": "https://dc.lft.to/lastmile_qr_scan", "android": "https://dc.lft.to/lastmile_qr_scan"}, "lon": -77.04192, "type": "electric_scooter", "fusion_lat": 0.0, "lat": 38.92019166666667, "name": "b7fea1a2e1ad4eb99e815ca1e5f9bfa9", "fusion_lon": 0.0, "bike_id": "b7fea1a2e1ad4eb99e815ca1e5f9bfa9", "is_disabled": 0, "is_reserved": 0}, {"rental_uris": {"ios": "https://dc.lft.to/lastmile_qr_scan", "android": "https://dc.lft.to/lastmile_qr_scan"}, "lon": -77.01112083333334, "type": "electric_scooter", "fusion_lat": 0.0, "lat": 38.895261833333336, "name": "99f60e5f8d112baa54dd30ba6d628849", "fusion_lon": 0.0, "bike_id": "99f60e5f8d112baa54dd30ba6d628849", "is_disabled": 0, "is_reserved": 0}, {"rental_uris": {"ios": "https://dc.lft.to/lastmile_qr_scan", "android": "https://dc.lft.to/lastmile_qr_scan"}, "lon": -76.94655666666667, "type": "electric_scooter", "fusion_lat": 0.0, "lat": 38.89826333333333, "name": "34fe54a2e5591a950f4f49e85bec90b4", "fusion_lon": 0.0, "bike_id": "34fe54a2e5591a950f4f49e85bec90b4", "is_disabled": 0, "is_reserved": 0}, {"rental_uris": {"ios": "https://dc.lft.to/lastmile_qr_scan", "android": "https://dc.lft.to/lastmile_qr_scan"}, "lon": -77.024655, "type": "electric_scooter", "fusion_lat": 0.0, "lat": 38.90630383333333, "name": "90439c3482e4d919a47a8a7694492ec3", "fusion_lon": 0.0, "bike_id": "90439c3482e4d919a47a8a7694492ec3", "is_disabled": 0, "is_reserved": 0}, {"rental_uris": {"ios": "https://dc.lft.to/lastmile_qr_scan", "android": "https://dc.lft.to/lastmile_qr_scan"}, "lon": -77.02697983333333, "type": "electric_scooter", "fusion_lat": 0.0, "lat": 38.915762666666666, "name": "5f8254d856f9be019881b8ce0042cb4d", "fusion_lon": 0.0, "bike_id": "5f8254d856f9be019881b8ce0042cb4d", "is_disabled": 0, "is_reserved": 0}, {"rental_uris": {"ios": "https://dc.lft.to/lastmile_qr_scan", "android": "https://dc.lft.to/lastmile_qr_scan"}, "lon": -77.03351066666667, "type": "electric_scooter", "fusion_lat": 0.0, "lat": 38.906379, "name": "7db6bd5d3bd35ea7e20677ba782bc44b", "fusion_lon": 0.0, "bike_id": "7db6bd5d3bd35ea7e20677ba782bc44b", "is_disabled": 0, "is_reserved": 0}, {"rental_uris": {"ios": "https://dc.lft.to/lastmile_qr_scan", "android": "https://dc.lft.to/lastmile_qr_scan"}, "lon": -77.04459816666666, "type": "electric_scooter", "fusion_lat": 0.0, "lat": 38.9187795, "name": "3541c122aa08375120004e7f432719d8", "fusion_lon": 0.0, "bike_id": "3541c122aa08375120004e7f432719d8", "is_disabled": 0, "is_reserved": 0}, {"rental_uris": {"ios": "https://dc.lft.to/lastmile_qr_scan", "android": "https://dc.lft.to/lastmile_qr_scan"}, "lon": -77.022276, "type": "electric_scooter", "fusion_lat": 0.0, "lat": 38.912660833333334, "name": "b554eaf64c174a9366f19f9a9bdc0efe", "fusion_lon": 0.0, "bike_id": "b554eaf64c174a9366f19f9a9bdc0efe", "is_disabled": 0, "is_reserved": 0}, {"rental_uris": {"ios": "https://dc.lft.to/lastmile_qr_scan", "android": "https://dc.lft.to/lastmile_qr_scan"}, "lon": -77.06518733333333, "type": "electric_bike", "fusion_lat": 0.0, "lat": 38.9054825, "name": "393fa714a180c4b13abf31e1cb58de09", "fusion_lon": 0.0, "bike_id": "393fa714a180c4b13abf31e1cb58de09", "is_disabled": 0, "is_reserved": 0}, {"rental_uris": {"ios": "https://dc.lft.to/lastmile_qr_scan", "android": "https://dc.lft.to/lastmile_qr_scan"}, "lon": -76.98346583333333, "type": "electric_scooter", "fusion_lat": 0.0, "lat": 38.9153215, "name": "6ce2dde3803595476ebe3d520551e43f", "fusion_lon": 0.0, "bike_id": "6ce2dde3803595476ebe3d520551e43f", "is_disabled": 0, "is_reserved": 0}, {"rental_uris": {"ios": "https://dc.lft.to/lastmile_qr_scan", "android": "https://dc.lft.to/lastmile_qr_scan"}, "lon": -76.97454083333334, "type": "electric_scooter", "fusion_lat": 0.0, "lat": 38.86543283333334, "name": "70f22ef29bf24876b894c351a602046b", "fusion_lon": 0.0, "bike_id": "70f22ef29bf24876b894c351a602046b", "is_disabled": 0, "is_reserved": 0}, {"rental_uris": {"ios": "https://dc.lft.to/lastmile_qr_scan", "android": "https://dc.lft.to/lastmile_qr_scan"}, "lon": -77.03216433333333, "type": "electric_scooter", "fusion_lat": 0.0, "lat": 38.90021816666667, "name": "a3838c1dd7648e8420cb45c09cdec10c", "fusion_lon": 0.0, "bike_id": "a3838c1dd7648e8420cb45c09cdec10c", "is_disabled": 0, "is_reserved": 0}, {"rental_uris": {"ios": "https://dc.lft.to/lastmile_qr_scan", "android": "https://dc.lft.to/lastmile_qr_scan"}, "lon": -77.0473265, "type": "electric_scooter", "fusion_lat": 0.0, "lat": 38.89733416666667, "name": "b0229dc7fe7e26e8e69bdd4f75f06295", "fusion_lon": 0.0, "bike_id": "b0229dc7fe7e26e8e69bdd4f75f06295", "is_disabled": 0, "is_reserved": 0}, {"rental_uris": {"ios": "https://dc.lft.to/lastmile_qr_scan", "android": "https://dc.lft.to/lastmile_qr_scan"}, "lon": -77.05362916666667, "type": "electric_scooter", "fusion_lat": 0.0, "lat": 38.903994, "name": "820a2c95e5ee42fc12437018c8da0b00", "fusion_lon": 0.0, "bike_id": "820a2c95e5ee42fc12437018c8da0b00", "is_disabled": 0, "is_reserved": 0}, {"rental_uris": {"ios": "https://dc.lft.to/lastmile_qr_scan", "android": "https://dc.lft.to/lastmile_qr_scan"}, "lon": -77.012273, "type": "electric_scooter", "fusion_lat": 0.0, "lat": 38.91594166666667, "name": "685d1701dfee2a7e92543ab04c40208e", "fusion_lon": 0.0, "bike_id": "685d1701dfee2a7e92543ab04c40208e", "is_disabled": 0, "is_reserved": 0}, {"rental_uris": {"ios": "https://dc.lft.to/lastmile_qr_scan", "android": "https://dc.lft.to/lastmile_qr_scan"}, "lon": -77.03840316666667, "type": "electric_scooter", "fusion_lat": 0.0, "lat": 38.926446166666665, "name": "f23236c07f647f048fd02cbe4456a2ce", "fusion_lon": 0.0, "bike_id": "f23236c07f647f048fd02cbe4456a2ce", "is_disabled": 0, "is_reserved": 0}, {"rental_uris": {"ios": "https://dc.lft.to/lastmile_qr_scan", "android": "https://dc.lft.to/lastmile_qr_scan"}, "lon": -77.05981133333333, "type": "electric_scooter", "fusion_lat": 0.0, "lat": 38.935545, "name": "efb6cb373098f847be678b6ed1f3ca28", "fusion_lon": 0.0, "bike_id": "efb6cb373098f847be678b6ed1f3ca28", "is_disabled": 0, "is_reserved": 0}, {"rental_uris": {"ios": "https://dc.lft.to/lastmile_qr_scan", "android": "https://dc.lft.to/lastmile_qr_scan"}, "lon": -77.0121305, "type": "electric_scooter", "fusion_lat": 0.0, "lat": 38.9149375, "name": "4f47836ec56710dcc59abfacd639a5b7", "fusion_lon": 0.0, "bike_id": "4f47836ec56710dcc59abfacd639a5b7", "is_disabled": 0, "is_reserved": 0}, {"rental_uris": {"ios": "https://dc.lft.to/lastmile_qr_scan", "android": "https://dc.lft.to/lastmile_qr_scan"}, "lon": -77.0500095, "type": "electric_scooter", "fusion_lat": 0.0, "lat": 38.8923185, "name": "30134d9bd31ec77d1ee20d8c9ac2e95e", "fusion_lon": 0.0, "bike_id": "30134d9bd31ec77d1ee20d8c9ac2e95e", "is_disabled": 0, "is_reserved": 0}, {"rental_uris": {"ios": "https://dc.lft.to/lastmile_qr_scan", "android": "https://dc.lft.to/lastmile_qr_scan"}, "lon": -76.95469016666667, "type": "electric_bike", "fusion_lat": 0.0, "lat": 38.886426166666666, "name": "7766b3b413890dba64c1f004b7769c6c", "fusion_lon": 0.0, "bike_id": "7766b3b413890dba64c1f004b7769c6c", "is_disabled": 0, "is_reserved": 0}, {"rental_uris": {"ios": "https://dc.lft.to/lastmile_qr_scan", "android": "https://dc.lft.to/lastmile_qr_scan"}, "lon": -76.98787166666666, "type": "electric_bike", "fusion_lat": 0.0, "lat": 38.904154, "name": "8f62788bb94f23faaf23b85054394860", "fusion_lon": 0.0, "bike_id": "8f62788bb94f23faaf23b85054394860", "is_disabled": 0, "is_reserved": 0}, {"rental_uris": {"ios": "https://dc.lft.to/lastmile_qr_scan", "android": "https://dc.lft.to/lastmile_qr_scan"}, "lon": -77.04217716666666, "type": "electric_scooter", "fusion_lat": 0.0, "lat": 38.9111485, "name": "afe009a517f8e5bb018b6623de7e618e", "fusion_lon": 0.0, "bike_id": "afe009a517f8e5bb018b6623de7e618e", "is_disabled": 0, "is_reserved": 0}, {"rental_uris": {"ios": "https://dc.lft.to/lastmile_qr_scan", "android": "https://dc.lft.to/lastmile_qr_scan"}, "lon": -77.00934033333333, "type": "electric_scooter", "fusion_lat": 0.0, "lat": 38.8719775, "name": "d3e96d766207182b2155edac845f6cf3", "fusion_lon": 0.0, "bike_id": "d3e96d766207182b2155edac845f6cf3", "is_disabled": 0, "is_reserved": 0}, {"rental_uris": {"ios": "https://dc.lft.to/lastmile_qr_scan", "android": "https://dc.lft.to/lastmile_qr_scan"}, "lon": -77.02208533333334, "type": "electric_scooter", "fusion_lat": 0.0, "lat": 38.90834783333333, "name": "e53a0d66c3eb2653d6fe8710e7cc769c", "fusion_lon": 0.0, "bike_id": "e53a0d66c3eb2653d6fe8710e7cc769c", "is_disabled": 0, "is_reserved": 0}, {"rental_uris": {"ios": "https://dc.lft.to/lastmile_qr_scan", "android": "https://dc.lft.to/lastmile_qr_scan"}, "lon": -77.04088083333333, "type": "electric_scooter", "fusion_lat": 0.0, "lat": 38.919853833333335, "name": "24ca91cad608fb8221aac6b3729bb0d9", "fusion_lon": 0.0, "bike_id": "24ca91cad608fb8221aac6b3729bb0d9", "is_disabled": 0, "is_reserved": 0}, {"rental_uris": {"ios": "https://dc.lft.to/lastmile_qr_scan", "android": "https://dc.lft.to/lastmile_qr_scan"}, "lon": -76.99071533333333, "type": "electric_scooter", "fusion_lat": 0.0, "lat": 38.863611, "name": "ebffba7405c0398bd70b2af0420b1bda", "fusion_lon": 0.0, "bike_id": "ebffba7405c0398bd70b2af0420b1bda", "is_disabled": 0, "is_reserved": 0}, {"rental_uris": {"ios": "https://dc.lft.to/lastmile_qr_scan", "android": "https://dc.lft.to/lastmile_qr_scan"}, "lon": -77.02434183333334, "type": "electric_scooter", "fusion_lat": 0.0, "lat": 38.92258416666667, "name": "299b7c70e6428e8abde8c4f944897ad6", "fusion_lon": 0.0, "bike_id": "299b7c70e6428e8abde8c4f944897ad6", "is_disabled": 0, "is_reserved": 0}, {"rental_uris": {"ios": "https://dc.lft.to/lastmile_qr_scan", "android": "https://dc.lft.to/lastmile_qr_scan"}, "lon": -77.01515183333333, "type": "electric_scooter", "fusion_lat": 0.0, "lat": 38.887409166666664, "name": "6838f396208232407fadc2a37620c821", "fusion_lon": 0.0, "bike_id": "6838f396208232407fadc2a37620c821", "is_disabled": 0, "is_reserved": 0}, {"rental_uris": {"ios": "https://dc.lft.to/lastmile_qr_scan", "android": "https://dc.lft.to/lastmile_qr_scan"}, "lon": -77.04169916666666, "type": "electric_scooter", "fusion_lat": 0.0, "lat": 38.91395766666667, "name": "031063bda7239053b5beb44249a3c659", "fusion_lon": 0.0, "bike_id": "031063bda7239053b5beb44249a3c659", "is_disabled": 0, "is_reserved": 0}, {"rental_uris": {"ios": "https://dc.lft.to/lastmile_qr_scan", "android": "https://dc.lft.to/lastmile_qr_scan"}, "lon": -77.0531705, "type": "electric_scooter", "fusion_lat": 0.0, "lat": 38.90169216666666, "name": "3c45cdcad650fe35d2b92810407976f7", "fusion_lon": 0.0, "bike_id": "3c45cdcad650fe35d2b92810407976f7", "is_disabled": 0, "is_reserved": 0}, {"rental_uris": {"ios": "https://dc.lft.to/lastmile_qr_scan", "android": "https://dc.lft.to/lastmile_qr_scan"}, "lon": -76.9324025, "type": "electric_bike", "fusion_lat": 0.0, "lat": 38.8828105, "name": "7999911e1c3f44b1b27447dd9c811b40", "fusion_lon": 0.0, "bike_id": "7999911e1c3f44b1b27447dd9c811b40", "is_disabled": 0, "is_reserved": 0}, {"rental_uris": {"ios": "https://dc.lft.to/lastmile_qr_scan", "android": "https://dc.lft.to/lastmile_qr_scan"}, "lon": -77.05047433333333, "type": "electric_scooter", "fusion_lat": 0.0, "lat": 38.923669833333335, "name": "67d779d343022567186f55b82f48396e", "fusion_lon": 0.0, "bike_id": "67d779d343022567186f55b82f48396e", "is_disabled": 0, "is_reserved": 0}, {"rental_uris": {"ios": "https://dc.lft.to/lastmile_qr_scan", "android": "https://dc.lft.to/lastmile_qr_scan"}, "lon": -77.02564033333333, "type": "electric_scooter", "fusion_lat": 0.0, "lat": 38.908559833333335, "name": "c4917158580c3ed7240b59430d8335f4", "fusion_lon": 0.0, "bike_id": "c4917158580c3ed7240b59430d8335f4", "is_disabled": 0, "is_reserved": 0}, {"rental_uris": {"ios": "https://dc.lft.to/lastmile_qr_scan", "android": "https://dc.lft.to/lastmile_qr_scan"}, "lon": -77.07092916666667, "type": "electric_scooter", "fusion_lat": 0.0, "lat": 38.933657833333335, "name": "84935cced0b087ce22588602bd9fba96", "fusion_lon": 0.0, "bike_id": "84935cced0b087ce22588602bd9fba96", "is_disabled": 0, "is_reserved": 0}, {"rental_uris": {"ios": "https://dc.lft.to/lastmile_qr_scan", "android": "https://dc.lft.to/lastmile_qr_scan"}, "lon": -76.98213866666667, "type": "electric_scooter", "fusion_lat": 0.0, "lat": 38.890905833333335, "name": "f74154332ea0332425e5bf66fb46f824", "fusion_lon": 0.0, "bike_id": "f74154332ea0332425e5bf66fb46f824", "is_disabled": 0, "is_reserved": 0}, {"rental_uris": {"ios": "https://dc.lft.to/lastmile_qr_scan", "android": "https://dc.lft.to/lastmile_qr_scan"}, "lon": -77.03103516666667, "type": "electric_scooter", "fusion_lat": 0.0, "lat": 38.918089333333334, "name": "86a4b4b1a97705817bd2090d458efa09", "fusion_lon": 0.0, "bike_id": "86a4b4b1a97705817bd2090d458efa09", "is_disabled": 0, "is_reserved": 0}, {"rental_uris": {"ios": "https://dc.lft.to/lastmile_qr_scan", "android": "https://dc.lft.to/lastmile_qr_scan"}, "lon": -77.05505733333334, "type": "electric_scooter", "fusion_lat": 0.0, "lat": 38.929703833333335, "name": "a8eee710fbd69bcebaea22a8fd153388", "fusion_lon": 0.0, "bike_id": "a8eee710fbd69bcebaea22a8fd153388", "is_disabled": 0, "is_reserved": 0}, {"rental_uris": {"ios": "https://dc.lft.to/lastmile_qr_scan", "android": "https://dc.lft.to/lastmile_qr_scan"}, "lon": -77.02787383333333, "type": "electric_scooter", "fusion_lat": 0.0, "lat": 38.96136583333333, "name": "87f96096fab0ef110d34fd0d61694169", "fusion_lon": 0.0, "bike_id": "87f96096fab0ef110d34fd0d61694169", "is_disabled": 0, "is_reserved": 0}, {"rental_uris": {"ios": "https://dc.lft.to/lastmile_qr_scan", "android": "https://dc.lft.to/lastmile_qr_scan"}, "lon": -77.03216733333333, "type": "electric_scooter", "fusion_lat": 0.0, "lat": 38.92066283333333, "name": "ea61195dfe6d5f1eaf2ba9acb03e3233", "fusion_lon": 0.0, "bike_id": "ea61195dfe6d5f1eaf2ba9acb03e3233", "is_disabled": 0, "is_reserved": 0}, {"rental_uris": {"ios": "https://dc.lft.to/lastmile_qr_scan", "android": "https://dc.lft.to/lastmile_qr_scan"}, "lon": -77.03953416666667, "type": "electric_scooter", "fusion_lat": 0.0, "lat": 38.9261045, "name": "2b7168d9f0ffd3437a29f49d4ae5f809", "fusion_lon": 0.0, "bike_id": "2b7168d9f0ffd3437a29f49d4ae5f809", "is_disabled": 0, "is_reserved": 0}, {"rental_uris": {"ios": "https://dc.lft.to/lastmile_qr_scan", "android": "https://dc.lft.to/lastmile_qr_scan"}, "lon": -77.02748183333334, "type": "electric_scooter", "fusion_lat": 0.0, "lat": 38.971497, "name": "a4a08a4c1dccf93a949af796b49f8bf9", "fusion_lon": 0.0, "bike_id": "a4a08a4c1dccf93a949af796b49f8bf9", "is_disabled": 0, "is_reserved": 0}, {"rental_uris": {"ios": "https://dc.lft.to/lastmile_qr_scan", "android": "https://dc.lft.to/lastmile_qr_scan"}, "lon": -77.03658533333333, "type": "electric_scooter", "fusion_lat": 0.0, "lat": 38.903311, "name": "831d98023270617a496e3cd3954a9c3b", "fusion_lon": 0.0, "bike_id": "831d98023270617a496e3cd3954a9c3b", "is_disabled": 0, "is_reserved": 0}, {"rental_uris": {"ios": "https://dc.lft.to/lastmile_qr_scan", "android": "https://dc.lft.to/lastmile_qr_scan"}, "lon": -77.0418045, "type": "electric_scooter", "fusion_lat": 0.0, "lat": 38.9220335, "name": "e96aaef0d41517f714ecd2a1e62cad75", "fusion_lon": 0.0, "bike_id": "e96aaef0d41517f714ecd2a1e62cad75", "is_disabled": 0, "is_reserved": 0}, {"rental_uris": {"ios": "https://dc.lft.to/lastmile_qr_scan", "android": "https://dc.lft.to/lastmile_qr_scan"}, "lon": -77.05080933333333, "type": "electric_scooter", "fusion_lat": 0.0, "lat": 38.924645166666664, "name": "5f8deddd5430b78335a59f2f64c7c43a", "fusion_lon": 0.0, "bike_id": "5f8deddd5430b78335a59f2f64c7c43a", "is_disabled": 0, "is_reserved": 0}, {"rental_uris": {"ios": "https://dc.lft.to/lastmile_qr_scan", "android": "https://dc.lft.to/lastmile_qr_scan"}, "lon": -76.99182066666667, "type": "electric_scooter", "fusion_lat": 0.0, "lat": 38.90457283333333, "name": "63647b99f5e36a896a2b0608c3aabad3", "fusion_lon": 0.0, "bike_id": "63647b99f5e36a896a2b0608c3aabad3", "is_disabled": 0, "is_reserved": 0}, {"rental_uris": {"ios": "https://dc.lft.to/lastmile_qr_scan", "android": "https://dc.lft.to/lastmile_qr_scan"}, "lon": -77.04210083333334, "type": "electric_scooter", "fusion_lat": 0.0, "lat": 38.92050483333333, "name": "81b497cf515b2c122bae120072307756", "fusion_lon": 0.0, "bike_id": "81b497cf515b2c122bae120072307756", "is_disabled": 0, "is_reserved": 0}, {"rental_uris": {"ios": "https://dc.lft.to/lastmile_qr_scan", "android": "https://dc.lft.to/lastmile_qr_scan"}, "lon": -76.90829666666667, "type": "electric_bike", "fusion_lat": 0.0, "lat": 39.0025565, "name": "c0241e12d8cae65393d3aaec71d8437d", "fusion_lon": 0.0, "bike_id": "c0241e12d8cae65393d3aaec71d8437d", "is_disabled": 0, "is_reserved": 0}, {"rental_uris": {"ios": "https://dc.lft.to/lastmile_qr_scan", "android": "https://dc.lft.to/lastmile_qr_scan"}, "lon": -77.11216716666667, "type": "electric_bike", "fusion_lat": 0.0, "lat": 38.828758666666666, "name": "b10c62f5892305f6ecb3856e305bea05", "fusion_lon": 0.0, "bike_id": "b10c62f5892305f6ecb3856e305bea05", "is_disabled": 0, "is_reserved": 0}, {"rental_uris": {"ios": "https://dc.lft.to/lastmile_qr_scan", "android": "https://dc.lft.to/lastmile_qr_scan"}, "lon": -77.027389, "type": "electric_scooter", "fusion_lat": 0.0, "lat": 38.88156733333334, "name": "26df8bb50e8ed38a83edaf8b382b8474", "fusion_lon": 0.0, "bike_id": "26df8bb50e8ed38a83edaf8b382b8474", "is_disabled": 0, "is_reserved": 0}, {"rental_uris": {"ios": "https://dc.lft.to/lastmile_qr_scan", "android": "https://dc.lft.to/lastmile_qr_scan"}, "lon": -77.04646566666666, "type": "electric_scooter", "fusion_lat": 0.0, "lat": 38.90555, "name": "aa2b3a6d81fb09375f6e9a7e898c41c4", "fusion_lon": 0.0, "bike_id": "aa2b3a6d81fb09375f6e9a7e898c41c4", "is_disabled": 0, "is_reserved": 0}, {"rental_uris": {"ios": "https://dc.lft.to/lastmile_qr_scan", "android": "https://dc.lft.to/lastmile_qr_scan"}, "lon": -77.03923416666666, "type": "electric_scooter", "fusion_lat": 0.0, "lat": 38.921068, "name": "82f1ac6dade94d21b7bb02df59a2664d", "fusion_lon": 0.0, "bike_id": "82f1ac6dade94d21b7bb02df59a2664d", "is_disabled": 0, "is_reserved": 0}, {"rental_uris": {"ios": "https://dc.lft.to/lastmile_qr_scan", "android": "https://dc.lft.to/lastmile_qr_scan"}, "lon": -76.99952283333333, "type": "electric_scooter", "fusion_lat": 0.0, "lat": 38.842912, "name": "a97cf313fd4d3b960159820793124ddc", "fusion_lon": 0.0, "bike_id": "a97cf313fd4d3b960159820793124ddc", "is_disabled": 0, "is_reserved": 0}, {"rental_uris": {"ios": "https://dc.lft.to/lastmile_qr_scan", "android": "https://dc.lft.to/lastmile_qr_scan"}, "lon": -76.93177216666666, "type": "electric_scooter", "fusion_lat": 0.0, "lat": 38.898840666666665, "name": "b6e5713e244ac61c0a5d57b3fc51b619", "fusion_lon": 0.0, "bike_id": "b6e5713e244ac61c0a5d57b3fc51b619", "is_disabled": 0, "is_reserved": 0}, {"rental_uris": {"ios": "https://dc.lft.to/lastmile_qr_scan", "android": "https://dc.lft.to/lastmile_qr_scan"}, "lon": -76.92712283333333, "type": "electric_scooter", "fusion_lat": 0.0, "lat": 38.887687666666665, "name": "70a4317bb0325f396d032c6c383fc44e", "fusion_lon": 0.0, "bike_id": "70a4317bb0325f396d032c6c383fc44e", "is_disabled": 0, "is_reserved": 0}, {"rental_uris": {"ios": "https://dc.lft.to/lastmile_qr_scan", "android": "https://dc.lft.to/lastmile_qr_scan"}, "lon": -77.01585016666667, "type": "electric_scooter", "fusion_lat": 0.0, "lat": 38.91685, "name": "6b5f901ed67dce9ce3c7e1f503eda402", "fusion_lon": 0.0, "bike_id": "6b5f901ed67dce9ce3c7e1f503eda402", "is_disabled": 0, "is_reserved": 0}, {"rental_uris": {"ios": "https://dc.lft.to/lastmile_qr_scan", "android": "https://dc.lft.to/lastmile_qr_scan"}, "lon": -76.98720066666667, "type": "electric_scooter", "fusion_lat": 0.0, "lat": 38.8670295, "name": "0f147a0c9a248efacc6575d9ddf7672a", "fusion_lon": 0.0, "bike_id": "0f147a0c9a248efacc6575d9ddf7672a", "is_disabled": 0, "is_reserved": 0}, {"rental_uris": {"ios": "https://dc.lft.to/lastmile_qr_scan", "android": "https://dc.lft.to/lastmile_qr_scan"}, "lon": -77.03180183333333, "type": "electric_scooter", "fusion_lat": 0.0, "lat": 38.895983333333334, "name": "2002dff58e66712a45b5efd5a8e7ca87", "fusion_lon": 0.0, "bike_id": "2002dff58e66712a45b5efd5a8e7ca87", "is_disabled": 0, "is_reserved": 0}, {"rental_uris": {"ios": "https://dc.lft.to/lastmile_qr_scan", "android": "https://dc.lft.to/lastmile_qr_scan"}, "lon": -77.00903316666667, "type": "electric_scooter", "fusion_lat": 0.0, "lat": 38.912398833333334, "name": "35fc98aabb96fc070eb90df3c56004f6", "fusion_lon": 0.0, "bike_id": "35fc98aabb96fc070eb90df3c56004f6", "is_disabled": 0, "is_reserved": 0}, {"rental_uris": {"ios": "https://dc.lft.to/lastmile_qr_scan", "android": "https://dc.lft.to/lastmile_qr_scan"}, "lon": -77.02505433333333, "type": "electric_scooter", "fusion_lat": 0.0, "lat": 38.93095316666667, "name": "fc693454b5178fc8fa02567d93832f2b", "fusion_lon": 0.0, "bike_id": "fc693454b5178fc8fa02567d93832f2b", "is_disabled": 0, "is_reserved": 0}, {"rental_uris": {"ios": "https://dc.lft.to/lastmile_qr_scan", "android": "https://dc.lft.to/lastmile_qr_scan"}, "lon": -76.957629, "type": "electric_scooter", "fusion_lat": 0.0, "lat": 38.886881, "name": "57b4c3dcde532e991db8984ca2d4395b", "fusion_lon": 0.0, "bike_id": "57b4c3dcde532e991db8984ca2d4395b", "is_disabled": 0, "is_reserved": 0}, {"rental_uris": {"ios": "https://dc.lft.to/lastmile_qr_scan", "android": "https://dc.lft.to/lastmile_qr_scan"}, "lon": -77.00730866666666, "type": "electric_scooter", "fusion_lat": 0.0, "lat": 38.896184166666664, "name": "3cc56f49f7832686797035d8aa6db3c8", "fusion_lon": 0.0, "bike_id": "3cc56f49f7832686797035d8aa6db3c8", "is_disabled": 0, "is_reserved": 0}, {"rental_uris": {"ios": "https://dc.lft.to/lastmile_qr_scan", "android": "https://dc.lft.to/lastmile_qr_scan"}, "lon": -76.958856, "type": "electric_scooter", "fusion_lat": 0.0, "lat": 38.858526, "name": "ee2bda1bf7d0a7b03dcb5935f450b304", "fusion_lon": 0.0, "bike_id": "ee2bda1bf7d0a7b03dcb5935f450b304", "is_disabled": 0, "is_reserved": 0}, {"rental_uris": {"ios": "https://dc.lft.to/lastmile_qr_scan", "android": "https://dc.lft.to/lastmile_qr_scan"}, "lon": -77.0212655, "type": "electric_scooter", "fusion_lat": 0.0, "lat": 38.93702533333333, "name": "fb5c2a98444eafd532afb946fa3a2cdf", "fusion_lon": 0.0, "bike_id": "fb5c2a98444eafd532afb946fa3a2cdf", "is_disabled": 0, "is_reserved": 0}, {"rental_uris": {"ios": "https://dc.lft.to/lastmile_qr_scan", "android": "https://dc.lft.to/lastmile_qr_scan"}, "lon": -77.06538666666667, "type": "electric_scooter", "fusion_lat": 0.0, "lat": 38.90478916666667, "name": "b8e8a3842247ccf2fa2b232c6117dbb1", "fusion_lon": 0.0, "bike_id": "b8e8a3842247ccf2fa2b232c6117dbb1", "is_disabled": 0, "is_reserved": 0}, {"rental_uris": {"ios": "https://dc.lft.to/lastmile_qr_scan", "android": "https://dc.lft.to/lastmile_qr_scan"}, "lon": -77.04334816666666, "type": "electric_scooter", "fusion_lat": 0.0, "lat": 38.927915, "name": "ae9023b1d82b3546efdce61acff80241", "fusion_lon": 0.0, "bike_id": "ae9023b1d82b3546efdce61acff80241", "is_disabled": 0, "is_reserved": 0}, {"rental_uris": {"ios": "https://dc.lft.to/lastmile_qr_scan", "android": "https://dc.lft.to/lastmile_qr_scan"}, "lon": -76.99680816666667, "type": "electric_scooter", "fusion_lat": 0.0, "lat": 38.886879, "name": "a292459e578ad3a924cd850126ad7715", "fusion_lon": 0.0, "bike_id": "a292459e578ad3a924cd850126ad7715", "is_disabled": 0, "is_reserved": 0}, {"rental_uris": {"ios": "https://dc.lft.to/lastmile_qr_scan", "android": "https://dc.lft.to/lastmile_qr_scan"}, "lon": -76.93608883333333, "type": "electric_bike", "fusion_lat": 0.0, "lat": 38.970588666666664, "name": "a461a0877325715b1b3515f60cc34892", "fusion_lon": 0.0, "bike_id": "a461a0877325715b1b3515f60cc34892", "is_disabled": 0, "is_reserved": 0}, {"rental_uris": {"ios": "https://dc.lft.to/lastmile_qr_scan", "android": "https://dc.lft.to/lastmile_qr_scan"}, "lon": -77.006177, "type": "electric_scooter", "fusion_lat": 0.0, "lat": 38.91565466666667, "name": "794123a45e7c2ca9f609916ff1d481a7", "fusion_lon": 0.0, "bike_id": "794123a45e7c2ca9f609916ff1d481a7", "is_disabled": 0, "is_reserved": 0}, {"rental_uris": {"ios": "https://dc.lft.to/lastmile_qr_scan", "android": "https://dc.lft.to/lastmile_qr_scan"}, "lon": -77.0054245, "type": "electric_scooter", "fusion_lat": 0.0, "lat": 38.874585, "name": "5fa22e132c0a046abfbf1c569fdf00ec", "fusion_lon": 0.0, "bike_id": "5fa22e132c0a046abfbf1c569fdf00ec", "is_disabled": 0, "is_reserved": 0}, {"rental_uris": {"ios": "https://dc.lft.to/lastmile_qr_scan", "android": "https://dc.lft.to/lastmile_qr_scan"}, "lon": -77.02349416666667, "type": "electric_scooter", "fusion_lat": 0.0, "lat": 38.933890166666664, "name": "666df0e6ea6c7ee58bc9211ace29e186", "fusion_lon": 0.0, "bike_id": "666df0e6ea6c7ee58bc9211ace29e186", "is_disabled": 0, "is_reserved": 0}, {"rental_uris": {"ios": "https://dc.lft.to/lastmile_qr_scan", "android": "https://dc.lft.to/lastmile_qr_scan"}, "lon": -76.98087866666667, "type": "electric_bike", "fusion_lat": 0.0, "lat": 38.90286016666667, "name": "499cba42eb629044888c98627a9df08f", "fusion_lon": 0.0, "bike_id": "499cba42eb629044888c98627a9df08f", "is_disabled": 0, "is_reserved": 0}, {"rental_uris": {"ios": "https://dc.lft.to/lastmile_qr_scan", "android": "https://dc.lft.to/lastmile_qr_scan"}, "lon": -77.0790325, "type": "electric_bike", "fusion_lat": 0.0, "lat": 38.839402, "name": "3adee61beea4ec1c298cdc5209f4854d", "fusion_lon": 0.0, "bike_id": "3adee61beea4ec1c298cdc5209f4854d", "is_disabled": 0, "is_reserved": 0}, {"rental_uris": {"ios": "https://dc.lft.to/lastmile_qr_scan", "android": "https://dc.lft.to/lastmile_qr_scan"}, "lon": -77.02364183333333, "type": "electric_scooter", "fusion_lat": 0.0, "lat": 38.90840883333333, "name": "8e046329bfa960fd2ea0f0469096b4f3", "fusion_lon": 0.0, "bike_id": "8e046329bfa960fd2ea0f0469096b4f3", "is_disabled": 0, "is_reserved": 0}, {"rental_uris": {"ios": "https://dc.lft.to/lastmile_qr_scan", "android": "https://dc.lft.to/lastmile_qr_scan"}, "lon": -77.01761783333333, "type": "electric_scooter", "fusion_lat": 0.0, "lat": 38.90567033333333, "name": "12d5e2a0b84ce803232ddb88afb2c674", "fusion_lon": 0.0, "bike_id": "12d5e2a0b84ce803232ddb88afb2c674", "is_disabled": 0, "is_reserved": 0}, {"rental_uris": {"ios": "https://dc.lft.to/lastmile_qr_scan", "android": "https://dc.lft.to/lastmile_qr_scan"}, "lon": -76.9927575, "type": "electric_scooter", "fusion_lat": 0.0, "lat": 38.92134933333333, "name": "b83e7e361ec2ffd89d3e2c5ed89c371c", "fusion_lon": 0.0, "bike_id": "b83e7e361ec2ffd89d3e2c5ed89c371c", "is_disabled": 0, "is_reserved": 0}, {"rental_uris": {"ios": "https://dc.lft.to/lastmile_qr_scan", "android": "https://dc.lft.to/lastmile_qr_scan"}, "lon": -77.05385516666666, "type": "electric_scooter", "fusion_lat": 0.0, "lat": 38.90250733333333, "name": "d988095a6da431168b860f4d715e4d60", "fusion_lon": 0.0, "bike_id": "d988095a6da431168b860f4d715e4d60", "is_disabled": 0, "is_reserved": 0}, {"rental_uris": {"ios": "https://dc.lft.to/lastmile_qr_scan", "android": "https://dc.lft.to/lastmile_qr_scan"}, "lon": -77.04357666666667, "type": "electric_scooter", "fusion_lat": 0.0, "lat": 38.892236, "name": "c2c5076b73a282c32f60e0ff8203ca1b", "fusion_lon": 0.0, "bike_id": "c2c5076b73a282c32f60e0ff8203ca1b", "is_disabled": 0, "is_reserved": 0}, {"rental_uris": {"ios": "https://dc.lft.to/lastmile_qr_scan", "android": "https://dc.lft.to/lastmile_qr_scan"}, "lon": -77.06405333333333, "type": "electric_bike", "fusion_lat": 0.0, "lat": 38.84347366666667, "name": "f2813bbf2e7e1fe00571a452a5dd4ec3", "fusion_lon": 0.0, "bike_id": "f2813bbf2e7e1fe00571a452a5dd4ec3", "is_disabled": 0, "is_reserved": 0}, {"rental_uris": {"ios": "https://dc.lft.to/lastmile_qr_scan", "android": "https://dc.lft.to/lastmile_qr_scan"}, "lon": -76.99777333333333, "type": "electric_scooter", "fusion_lat": 0.0, "lat": 38.844250833333334, "name": "4572fd166caddd8fe4550b53519cc6d9", "fusion_lon": 0.0, "bike_id": "4572fd166caddd8fe4550b53519cc6d9", "is_disabled": 0, "is_reserved": 0}, {"rental_uris": {"ios": "https://dc.lft.to/lastmile_qr_scan", "android": "https://dc.lft.to/lastmile_qr_scan"}, "lon": -76.94887966666667, "type": "electric_scooter", "fusion_lat": 0.0, "lat": 38.89534733333333, "name": "f5900d7be7e0c67e0475408d495d96d7", "fusion_lon": 0.0, "bike_id": "f5900d7be7e0c67e0475408d495d96d7", "is_disabled": 0, "is_reserved": 0}, {"rental_uris": {"ios": "https://dc.lft.to/lastmile_qr_scan", "android": "https://dc.lft.to/lastmile_qr_scan"}, "lon": -77.0071025, "type": "electric_scooter", "fusion_lat": 0.0, "lat": 38.884934666666666, "name": "18eb7124db980dcb9576fb02680e31c6", "fusion_lon": 0.0, "bike_id": "18eb7124db980dcb9576fb02680e31c6", "is_disabled": 0, "is_reserved": 0}, {"rental_uris": {"ios": "https://dc.lft.to/lastmile_qr_scan", "android": "https://dc.lft.to/lastmile_qr_scan"}, "lon": -77.03366316666667, "type": "electric_scooter", "fusion_lat": 0.0, "lat": 38.887579, "name": "9606623fac8c6c1189fe7f2a4923e3a0", "fusion_lon": 0.0, "bike_id": "9606623fac8c6c1189fe7f2a4923e3a0", "is_disabled": 0, "is_reserved": 0}, {"rental_uris": {"ios": "https://dc.lft.to/lastmile_qr_scan", "android": "https://dc.lft.to/lastmile_qr_scan"}, "lon": -76.9462235, "type": "electric_bike", "fusion_lat": 0.0, "lat": 38.83234866666667, "name": "6619bf2c96f3a05900e4a53eb4628d94", "fusion_lon": 0.0, "bike_id": "6619bf2c96f3a05900e4a53eb4628d94", "is_disabled": 0, "is_reserved": 0}, {"rental_uris": {"ios": "https://dc.lft.to/lastmile_qr_scan", "android": "https://dc.lft.to/lastmile_qr_scan"}, "lon": -77.02956716666667, "type": "electric_scooter", "fusion_lat": 0.0, "lat": 38.8874245, "name": "7bead010960d3f6e04076553d5600037", "fusion_lon": 0.0, "bike_id": "7bead010960d3f6e04076553d5600037", "is_disabled": 0, "is_reserved": 0}, {"rental_uris": {"ios": "https://dc.lft.to/lastmile_qr_scan", "android": "https://dc.lft.to/lastmile_qr_scan"}, "lon": -77.043663, "type": "electric_scooter", "fusion_lat": 0.0, "lat": 38.93344733333333, "name": "6f106ce097780d61b7ddff2b48d63f69", "fusion_lon": 0.0, "bike_id": "6f106ce097780d61b7ddff2b48d63f69", "is_disabled": 0, "is_reserved": 0}, {"rental_uris": {"ios": "https://dc.lft.to/lastmile_qr_scan", "android": "https://dc.lft.to/lastmile_qr_scan"}, "lon": -77.05467733333333, "type": "electric_scooter", "fusion_lat": 0.0, "lat": 38.89669633333333, "name": "2e2011370d8ab80b0cb44d77770e73bb", "fusion_lon": 0.0, "bike_id": "2e2011370d8ab80b0cb44d77770e73bb", "is_disabled": 0, "is_reserved": 0}, {"rental_uris": {"ios": "https://dc.lft.to/lastmile_qr_scan", "android": "https://dc.lft.to/lastmile_qr_scan"}, "lon": -76.9759645, "type": "electric_scooter", "fusion_lat": 0.0, "lat": 38.90331333333334, "name": "69bb1c74eb58229b7475234e608d813b", "fusion_lon": 0.0, "bike_id": "69bb1c74eb58229b7475234e608d813b", "is_disabled": 0, "is_reserved": 0}, {"rental_uris": {"ios": "https://dc.lft.to/lastmile_qr_scan", "android": "https://dc.lft.to/lastmile_qr_scan"}, "lon": -77.01432866666667, "type": "electric_scooter", "fusion_lat": 0.0, "lat": 38.90645, "name": "5fc358e26298c4300cd21859d1e32d9b", "fusion_lon": 0.0, "bike_id": "5fc358e26298c4300cd21859d1e32d9b", "is_disabled": 0, "is_reserved": 0}, {"rental_uris": {"ios": "https://dc.lft.to/lastmile_qr_scan", "android": "https://dc.lft.to/lastmile_qr_scan"}, "lon": -76.9854545, "type": "electric_scooter", "fusion_lat": 0.0, "lat": 38.904217, "name": "88ea6f54ee9ca8d2cd58e0ddb65c5b41", "fusion_lon": 0.0, "bike_id": "88ea6f54ee9ca8d2cd58e0ddb65c5b41", "is_disabled": 0, "is_reserved": 0}, {"rental_uris": {"ios": "https://dc.lft.to/lastmile_qr_scan", "android": "https://dc.lft.to/lastmile_qr_scan"}, "lon": -76.9807725, "type": "electric_scooter", "fusion_lat": 0.0, "lat": 38.90168116666667, "name": "0a6f9a564e07dc87d8674c33fb2f80cc", "fusion_lon": 0.0, "bike_id": "0a6f9a564e07dc87d8674c33fb2f80cc", "is_disabled": 0, "is_reserved": 0}, {"rental_uris": {"ios": "https://dc.lft.to/lastmile_qr_scan", "android": "https://dc.lft.to/lastmile_qr_scan"}, "lon": -76.97741466666666, "type": "electric_scooter", "fusion_lat": 0.0, "lat": 38.900074833333335, "name": "a1b545e3ece62ce202759898ff4dafb4", "fusion_lon": 0.0, "bike_id": "a1b545e3ece62ce202759898ff4dafb4", "is_disabled": 0, "is_reserved": 0}, {"rental_uris": {"ios": "https://dc.lft.to/lastmile_qr_scan", "android": "https://dc.lft.to/lastmile_qr_scan"}, "lon": -76.94633516666667, "type": "electric_scooter", "fusion_lat": 0.0, "lat": 38.898344, "name": "b9bf0e3f57b0f16834903b29ed56d3d8", "fusion_lon": 0.0, "bike_id": "b9bf0e3f57b0f16834903b29ed56d3d8", "is_disabled": 0, "is_reserved": 0}, {"rental_uris": {"ios": "https://dc.lft.to/lastmile_qr_scan", "android": "https://dc.lft.to/lastmile_qr_scan"}, "lon": -77.0379155, "type": "electric_scooter", "fusion_lat": 0.0, "lat": 38.92634066666667, "name": "c098b42f4738aa8ac32a2dc64db9d418", "fusion_lon": 0.0, "bike_id": "c098b42f4738aa8ac32a2dc64db9d418", "is_disabled": 0, "is_reserved": 0}, {"rental_uris": {"ios": "https://dc.lft.to/lastmile_qr_scan", "android": "https://dc.lft.to/lastmile_qr_scan"}, "lon": -77.02367033333333, "type": "electric_scooter", "fusion_lat": 0.0, "lat": 38.90308616666667, "name": "0360fc64b0f192693df575519b55107f", "fusion_lon": 0.0, "bike_id": "0360fc64b0f192693df575519b55107f", "is_disabled": 0, "is_reserved": 0}, {"rental_uris": {"ios": "https://dc.lft.to/lastmile_qr_scan", "android": "https://dc.lft.to/lastmile_qr_scan"}, "lon": -76.87821116666667, "type": "electric_bike", "fusion_lat": 0.0, "lat": 38.9922775, "name": "a6fce0dfcbba1f5af4f7815db9a42566", "fusion_lon": 0.0, "bike_id": "a6fce0dfcbba1f5af4f7815db9a42566", "is_disabled": 0, "is_reserved": 0}, {"rental_uris": {"ios": "https://dc.lft.to/lastmile_qr_scan", "android": "https://dc.lft.to/lastmile_qr_scan"}, "lon": -77.00297033333334, "type": "electric_bike", "fusion_lat": 0.0, "lat": 38.9161575, "name": "b50ea8074bde79d1797e8da1ceba5347", "fusion_lon": 0.0, "bike_id": "b50ea8074bde79d1797e8da1ceba5347", "is_disabled": 0, "is_reserved": 0}, {"rental_uris": {"ios": "https://dc.lft.to/lastmile_qr_scan", "android": "https://dc.lft.to/lastmile_qr_scan"}, "lon": -77.03480966666666, "type": "electric_scooter", "fusion_lat": 0.0, "lat": 38.9052005, "name": "22f6f708f9e5509feef5bd78066e588b", "fusion_lon": 0.0, "bike_id": "22f6f708f9e5509feef5bd78066e588b", "is_disabled": 0, "is_reserved": 0}, {"rental_uris": {"ios": "https://dc.lft.to/lastmile_qr_scan", "android": "https://dc.lft.to/lastmile_qr_scan"}, "lon": -77.032001, "type": "electric_scooter", "fusion_lat": 0.0, "lat": 38.9161925, "name": "00a0d142abfe27dad4cca3cc746ae2e8", "fusion_lon": 0.0, "bike_id": "00a0d142abfe27dad4cca3cc746ae2e8", "is_disabled": 0, "is_reserved": 0}, {"rental_uris": {"ios": "https://dc.lft.to/lastmile_qr_scan", "android": "https://dc.lft.to/lastmile_qr_scan"}, "lon": -76.97622133333333, "type": "electric_scooter", "fusion_lat": 0.0, "lat": 38.9038185, "name": "b09c809ff8d0dc2515542fd473f979b1", "fusion_lon": 0.0, "bike_id": "b09c809ff8d0dc2515542fd473f979b1", "is_disabled": 0, "is_reserved": 0}, {"rental_uris": {"ios": "https://dc.lft.to/lastmile_qr_scan", "android": "https://dc.lft.to/lastmile_qr_scan"}, "lon": -76.99356183333333, "type": "electric_scooter", "fusion_lat": 0.0, "lat": 38.900352833333336, "name": "1db2a9ae95f1da91a8b3308a5ea047d3", "fusion_lon": 0.0, "bike_id": "1db2a9ae95f1da91a8b3308a5ea047d3", "is_disabled": 0, "is_reserved": 0}, {"rental_uris": {"ios": "https://dc.lft.to/lastmile_qr_scan", "android": "https://dc.lft.to/lastmile_qr_scan"}, "lon": -77.10725966666666, "type": "electric_bike", "fusion_lat": 0.0, "lat": 38.85516666666667, "name": "311f4389a1750002812e7af56aa61dab", "fusion_lon": 0.0, "bike_id": "311f4389a1750002812e7af56aa61dab", "is_disabled": 0, "is_reserved": 0}, {"rental_uris": {"ios": "https://dc.lft.to/lastmile_qr_scan", "android": "https://dc.lft.to/lastmile_qr_scan"}, "lon": -77.0693775, "type": "electric_scooter", "fusion_lat": 0.0, "lat": 38.905147666666664, "name": "f992fa1fd545010c7811b4607a2472c3", "fusion_lon": 0.0, "bike_id": "f992fa1fd545010c7811b4607a2472c3", "is_disabled": 0, "is_reserved": 0}, {"rental_uris": {"ios": "https://dc.lft.to/lastmile_qr_scan", "android": "https://dc.lft.to/lastmile_qr_scan"}, "lon": -77.035483, "type": "electric_bike", "fusion_lat": 0.0, "lat": 38.92414766666667, "name": "a68c0226b7ef879781c4841747abf5f5", "fusion_lon": 0.0, "bike_id": "a68c0226b7ef879781c4841747abf5f5", "is_disabled": 0, "is_reserved": 0}, {"rental_uris": {"ios": "https://dc.lft.to/lastmile_qr_scan", "android": "https://dc.lft.to/lastmile_qr_scan"}, "lon": -77.04417066666667, "type": "electric_scooter", "fusion_lat": 0.0, "lat": 38.911295833333334, "name": "d39e9e2039107e2986652c0c45ef97ae", "fusion_lon": 0.0, "bike_id": "d39e9e2039107e2986652c0c45ef97ae", "is_disabled": 0, "is_reserved": 0}, {"rental_uris": {"ios": "https://dc.lft.to/lastmile_qr_scan", "android": "https://dc.lft.to/lastmile_qr_scan"}, "lon": -77.0462735, "type": "electric_scooter", "fusion_lat": 0.0, "lat": 38.91522583333333, "name": "4f14908d12d36a8257caf75680405b6c", "fusion_lon": 0.0, "bike_id": "4f14908d12d36a8257caf75680405b6c", "is_disabled": 0, "is_reserved": 0}, {"rental_uris": {"ios": "https://dc.lft.to/lastmile_qr_scan", "android": "https://dc.lft.to/lastmile_qr_scan"}, "lon": -77.01640133333333, "type": "electric_scooter", "fusion_lat": 0.0, "lat": 38.929388, "name": "e78ee301b4c5d0861970726fcf212f18", "fusion_lon": 0.0, "bike_id": "e78ee301b4c5d0861970726fcf212f18", "is_disabled": 0, "is_reserved": 0}, {"rental_uris": {"ios": "https://dc.lft.to/lastmile_qr_scan", "android": "https://dc.lft.to/lastmile_qr_scan"}, "lon": -77.06003833333334, "type": "electric_scooter", "fusion_lat": 0.0, "lat": 38.9052105, "name": "09c89b9f4929d02c2c307aab9bf646b9", "fusion_lon": 0.0, "bike_id": "09c89b9f4929d02c2c307aab9bf646b9", "is_disabled": 0, "is_reserved": 0}, {"rental_uris": {"ios": "https://dc.lft.to/lastmile_qr_scan", "android": "https://dc.lft.to/lastmile_qr_scan"}, "lon": -77.03976266666666, "type": "electric_scooter", "fusion_lat": 0.0, "lat": 38.9231775, "name": "2022582b67419e75eeb71f8c29d97353", "fusion_lon": 0.0, "bike_id": "2022582b67419e75eeb71f8c29d97353", "is_disabled": 0, "is_reserved": 0}, {"rental_uris": {"ios": "https://dc.lft.to/lastmile_qr_scan", "android": "https://dc.lft.to/lastmile_qr_scan"}, "lon": -77.0484225, "type": "electric_scooter", "fusion_lat": 0.0, "lat": 38.907200833333334, "name": "8a93c594d2326963885b0f7fa6f256c5", "fusion_lon": 0.0, "bike_id": "8a93c594d2326963885b0f7fa6f256c5", "is_disabled": 0, "is_reserved": 0}, {"rental_uris": {"ios": "https://dc.lft.to/lastmile_qr_scan", "android": "https://dc.lft.to/lastmile_qr_scan"}, "lon": -76.99484816666667, "type": "electric_scooter", "fusion_lat": 0.0, "lat": 38.902368833333334, "name": "55caf2a725f287b11c20d8b5238dd2a6", "fusion_lon": 0.0, "bike_id": "55caf2a725f287b11c20d8b5238dd2a6", "is_disabled": 0, "is_reserved": 0}, {"rental_uris": {"ios": "https://dc.lft.to/lastmile_qr_scan", "android": "https://dc.lft.to/lastmile_qr_scan"}, "lon": -77.04023416666666, "type": "electric_scooter", "fusion_lat": 0.0, "lat": 38.92445, "name": "a3308ff61de55cc82a99199ce6ec05f9", "fusion_lon": 0.0, "bike_id": "a3308ff61de55cc82a99199ce6ec05f9", "is_disabled": 0, "is_reserved": 0}, {"rental_uris": {"ios": "https://dc.lft.to/lastmile_qr_scan", "android": "https://dc.lft.to/lastmile_qr_scan"}, "lon": -77.04260066666667, "type": "electric_scooter", "fusion_lat": 0.0, "lat": 38.9220895, "name": "8981d6da58a435373efd1573ed40dcde", "fusion_lon": 0.0, "bike_id": "8981d6da58a435373efd1573ed40dcde", "is_disabled": 0, "is_reserved": 0}, {"rental_uris": {"ios": "https://dc.lft.to/lastmile_qr_scan", "android": "https://dc.lft.to/lastmile_qr_scan"}, "lon": -77.03641666666667, "type": "electric_scooter", "fusion_lat": 0.0, "lat": 38.92931383333333, "name": "3adafb19ebe7576c7b9add910eaa71a3", "fusion_lon": 0.0, "bike_id": "3adafb19ebe7576c7b9add910eaa71a3", "is_disabled": 0, "is_reserved": 0}, {"rental_uris": {"ios": "https://dc.lft.to/lastmile_qr_scan", "android": "https://dc.lft.to/lastmile_qr_scan"}, "lon": -77.02820183333333, "type": "electric_scooter", "fusion_lat": 0.0, "lat": 38.896392166666665, "name": "f0d08136adb6159b6d5e3f6eb9bbdcf3", "fusion_lon": 0.0, "bike_id": "f0d08136adb6159b6d5e3f6eb9bbdcf3", "is_disabled": 0, "is_reserved": 0}, {"rental_uris": {"ios": "https://dc.lft.to/lastmile_qr_scan", "android": "https://dc.lft.to/lastmile_qr_scan"}, "lon": -77.01937116666667, "type": "electric_scooter", "fusion_lat": 0.0, "lat": 38.94930133333333, "name": "4fbad814cbda22e4cd852acd1e8aa4c7", "fusion_lon": 0.0, "bike_id": "4fbad814cbda22e4cd852acd1e8aa4c7", "is_disabled": 0, "is_reserved": 0}, {"rental_uris": {"ios": "https://dc.lft.to/lastmile_qr_scan", "android": "https://dc.lft.to/lastmile_qr_scan"}, "lon": -77.073228, "type": "electric_scooter", "fusion_lat": 0.0, "lat": 38.924939333333334, "name": "d3ad2f066ec0ba17f403dca8a1fa5d56", "fusion_lon": 0.0, "bike_id": "d3ad2f066ec0ba17f403dca8a1fa5d56", "is_disabled": 0, "is_reserved": 0}, {"rental_uris": {"ios": "https://dc.lft.to/lastmile_qr_scan", "android": "https://dc.lft.to/lastmile_qr_scan"}, "lon": -77.03120783333334, "type": "electric_scooter", "fusion_lat": 0.0, "lat": 38.914032166666665, "name": "488cff4ec8f697c7b03f0ba6e139fe29", "fusion_lon": 0.0, "bike_id": "488cff4ec8f697c7b03f0ba6e139fe29", "is_disabled": 0, "is_reserved": 0}, {"rental_uris": {"ios": "https://dc.lft.to/lastmile_qr_scan", "android": "https://dc.lft.to/lastmile_qr_scan"}, "lon": -77.07562133333333, "type": "electric_scooter", "fusion_lat": 0.0, "lat": 38.914322, "name": "c50b2b803fb604414d463095292e92c2", "fusion_lon": 0.0, "bike_id": "c50b2b803fb604414d463095292e92c2", "is_disabled": 0, "is_reserved": 0}, {"rental_uris": {"ios": "https://dc.lft.to/lastmile_qr_scan", "android": "https://dc.lft.to/lastmile_qr_scan"}, "lon": -77.04153466666666, "type": "electric_scooter", "fusion_lat": 0.0, "lat": 38.91422983333333, "name": "10e274bc386337910db99990918d8a11", "fusion_lon": 0.0, "bike_id": "10e274bc386337910db99990918d8a11", "is_disabled": 0, "is_reserved": 0}, {"rental_uris": {"ios": "https://dc.lft.to/lastmile_qr_scan", "android": "https://dc.lft.to/lastmile_qr_scan"}, "lon": -77.04487866666666, "type": "electric_scooter", "fusion_lat": 0.0, "lat": 38.911033833333335, "name": "888a59b15a4e12840584dc9263013982", "fusion_lon": 0.0, "bike_id": "888a59b15a4e12840584dc9263013982", "is_disabled": 0, "is_reserved": 0}, {"rental_uris": {"ios": "https://dc.lft.to/lastmile_qr_scan", "android": "https://dc.lft.to/lastmile_qr_scan"}, "lon": -77.0092675, "type": "electric_scooter", "fusion_lat": 0.0, "lat": 38.916429, "name": "29079f31e4b38f4cfc146866a4c33060", "fusion_lon": 0.0, "bike_id": "29079f31e4b38f4cfc146866a4c33060", "is_disabled": 0, "is_reserved": 0}, {"rental_uris": {"ios": "https://dc.lft.to/lastmile_qr_scan", "android": "https://dc.lft.to/lastmile_qr_scan"}, "lon": -77.017515, "type": "electric_scooter", "fusion_lat": 0.0, "lat": 38.876824166666665, "name": "3bb870a8db8b198dcb3052b3cb1ffb96", "fusion_lon": 0.0, "bike_id": "3bb870a8db8b198dcb3052b3cb1ffb96", "is_disabled": 0, "is_reserved": 0}, {"rental_uris": {"ios": "https://dc.lft.to/lastmile_qr_scan", "android": "https://dc.lft.to/lastmile_qr_scan"}, "lon": -76.988222, "type": "electric_scooter", "fusion_lat": 0.0, "lat": 38.903349666666664, "name": "e2f266629b502eeafa7054b1a4510ace", "fusion_lon": 0.0, "bike_id": "e2f266629b502eeafa7054b1a4510ace", "is_disabled": 0, "is_reserved": 0}, {"rental_uris": {"ios": "https://dc.lft.to/lastmile_qr_scan", "android": "https://dc.lft.to/lastmile_qr_scan"}, "lon": -77.0118415, "type": "electric_scooter", "fusion_lat": 0.0, "lat": 38.9066145, "name": "8c56a0fb2b4afb8172f236d678275e95", "fusion_lon": 0.0, "bike_id": "8c56a0fb2b4afb8172f236d678275e95", "is_disabled": 0, "is_reserved": 0}, {"rental_uris": {"ios": "https://dc.lft.to/lastmile_qr_scan", "android": "https://dc.lft.to/lastmile_qr_scan"}, "lon": -77.02153166666666, "type": "electric_scooter", "fusion_lat": 0.0, "lat": 38.912693, "name": "0a21595496859742213bbe8d865cd27f", "fusion_lon": 0.0, "bike_id": "0a21595496859742213bbe8d865cd27f", "is_disabled": 0, "is_reserved": 0}, {"rental_uris": {"ios": "https://dc.lft.to/lastmile_qr_scan", "android": "https://dc.lft.to/lastmile_qr_scan"}, "lon": -77.05323, "type": "electric_scooter", "fusion_lat": 0.0, "lat": 38.93967383333333, "name": "0fc964c65c00f7cceb61bbf98f477220", "fusion_lon": 0.0, "bike_id": "0fc964c65c00f7cceb61bbf98f477220", "is_disabled": 0, "is_reserved": 0}, {"rental_uris": {"ios": "https://dc.lft.to/lastmile_qr_scan", "android": "https://dc.lft.to/lastmile_qr_scan"}, "lon": -77.01751783333333, "type": "electric_scooter", "fusion_lat": 0.0, "lat": 38.9037, "name": "693ff4d47d9766a04d236b9ca367028f", "fusion_lon": 0.0, "bike_id": "693ff4d47d9766a04d236b9ca367028f", "is_disabled": 0, "is_reserved": 0}, {"rental_uris": {"ios": "https://dc.lft.to/lastmile_qr_scan", "android": "https://dc.lft.to/lastmile_qr_scan"}, "lon": -77.01222916666667, "type": "electric_scooter", "fusion_lat": 0.0, "lat": 38.909787333333334, "name": "a14ad98fd04ed297466238b9c2f522ae", "fusion_lon": 0.0, "bike_id": "a14ad98fd04ed297466238b9c2f522ae", "is_disabled": 0, "is_reserved": 0}, {"rental_uris": {"ios": "https://dc.lft.to/lastmile_qr_scan", "android": "https://dc.lft.to/lastmile_qr_scan"}, "lon": -76.93305016666666, "type": "electric_scooter", "fusion_lat": 0.0, "lat": 38.89883916666667, "name": "142bad513ef811fc359d6b6c00d8af93", "fusion_lon": 0.0, "bike_id": "142bad513ef811fc359d6b6c00d8af93", "is_disabled": 0, "is_reserved": 0}, {"rental_uris": {"ios": "https://dc.lft.to/lastmile_qr_scan", "android": "https://dc.lft.to/lastmile_qr_scan"}, "lon": -77.09551216666667, "type": "electric_scooter", "fusion_lat": 0.0, "lat": 38.916556166666666, "name": "8b7de9bee5d520b094de3793cb1fa95b", "fusion_lon": 0.0, "bike_id": "8b7de9bee5d520b094de3793cb1fa95b", "is_disabled": 0, "is_reserved": 0}, {"rental_uris": {"ios": "https://dc.lft.to/lastmile_qr_scan", "android": "https://dc.lft.to/lastmile_qr_scan"}, "lon": -76.98362583333333, "type": "electric_scooter", "fusion_lat": 0.0, "lat": 38.91494516666667, "name": "16dee610503041523e550322b4213d80", "fusion_lon": 0.0, "bike_id": "16dee610503041523e550322b4213d80", "is_disabled": 0, "is_reserved": 0}, {"rental_uris": {"ios": "https://dc.lft.to/lastmile_qr_scan", "android": "https://dc.lft.to/lastmile_qr_scan"}, "lon": -77.03909033333333, "type": "electric_scooter", "fusion_lat": 0.0, "lat": 38.92315416666667, "name": "e7c7dfbd204a3c624f7101860058f445", "fusion_lon": 0.0, "bike_id": "e7c7dfbd204a3c624f7101860058f445", "is_disabled": 0, "is_reserved": 0}, {"rental_uris": {"ios": "https://dc.lft.to/lastmile_qr_scan", "android": "https://dc.lft.to/lastmile_qr_scan"}, "lon": -77.041882, "type": "electric_scooter", "fusion_lat": 0.0, "lat": 38.90356883333333, "name": "2b6884a67a43d541553070e658d5149c", "fusion_lon": 0.0, "bike_id": "2b6884a67a43d541553070e658d5149c", "is_disabled": 0, "is_reserved": 0}, {"rental_uris": {"ios": "https://dc.lft.to/lastmile_qr_scan", "android": "https://dc.lft.to/lastmile_qr_scan"}, "lon": -77.00864716666666, "type": "electric_bike", "fusion_lat": 0.0, "lat": 38.827294333333334, "name": "7099a0a25872ac6ca21cd520d8bc4354", "fusion_lon": 0.0, "bike_id": "7099a0a25872ac6ca21cd520d8bc4354", "is_disabled": 0, "is_reserved": 0}, {"rental_uris": {"ios": "https://dc.lft.to/lastmile_qr_scan", "android": "https://dc.lft.to/lastmile_qr_scan"}, "lon": -76.99813433333334, "type": "electric_scooter", "fusion_lat": 0.0, "lat": 38.90031483333333, "name": "b901ac3bf0f6f3e1fe064e0c2b6824ad", "fusion_lon": 0.0, "bike_id": "b901ac3bf0f6f3e1fe064e0c2b6824ad", "is_disabled": 0, "is_reserved": 0}, {"rental_uris": {"ios": "https://dc.lft.to/lastmile_qr_scan", "android": "https://dc.lft.to/lastmile_qr_scan"}, "lon": -76.9899835, "type": "electric_scooter", "fusion_lat": 0.0, "lat": 38.865053, "name": "5c172a9ca4aa9a4a4d15f8fbafa45023", "fusion_lon": 0.0, "bike_id": "5c172a9ca4aa9a4a4d15f8fbafa45023", "is_disabled": 0, "is_reserved": 0}, {"rental_uris": {"ios": "https://dc.lft.to/lastmile_qr_scan", "android": "https://dc.lft.to/lastmile_qr_scan"}, "lon": -77.0194985, "type": "electric_scooter", "fusion_lat": 0.0, "lat": 38.924159833333334, "name": "df9c58b2ec0d23c1f9aa5e1a85ae8e55", "fusion_lon": 0.0, "bike_id": "df9c58b2ec0d23c1f9aa5e1a85ae8e55", "is_disabled": 0, "is_reserved": 0}, {"rental_uris": {"ios": "https://dc.lft.to/lastmile_qr_scan", "android": "https://dc.lft.to/lastmile_qr_scan"}, "lon": -77.031506, "type": "electric_scooter", "fusion_lat": 0.0, "lat": 38.914162166666664, "name": "3b33a196d8145368afff83100d48792a", "fusion_lon": 0.0, "bike_id": "3b33a196d8145368afff83100d48792a", "is_disabled": 0, "is_reserved": 0}, {"rental_uris": {"ios": "https://dc.lft.to/lastmile_qr_scan", "android": "https://dc.lft.to/lastmile_qr_scan"}, "lon": -77.04717016666666, "type": "electric_scooter", "fusion_lat": 0.0, "lat": 38.922356666666666, "name": "85ba50c831d2d003c2f59ffe81777262", "fusion_lon": 0.0, "bike_id": "85ba50c831d2d003c2f59ffe81777262", "is_disabled": 0, "is_reserved": 0}, {"rental_uris": {"ios": "https://dc.lft.to/lastmile_qr_scan", "android": "https://dc.lft.to/lastmile_qr_scan"}, "lon": -77.03302966666666, "type": "electric_scooter", "fusion_lat": 0.0, "lat": 38.8922515, "name": "1ae3a90f77f0036b5fe5596e132d225e", "fusion_lon": 0.0, "bike_id": "1ae3a90f77f0036b5fe5596e132d225e", "is_disabled": 0, "is_reserved": 0}, {"rental_uris": {"ios": "https://dc.lft.to/lastmile_qr_scan", "android": "https://dc.lft.to/lastmile_qr_scan"}, "lon": -77.01766983333333, "type": "electric_scooter", "fusion_lat": 0.0, "lat": 38.921200166666665, "name": "1d8da68aa3ae80dfb58c2da40154f9a5", "fusion_lon": 0.0, "bike_id": "1d8da68aa3ae80dfb58c2da40154f9a5", "is_disabled": 0, "is_reserved": 0}, {"rental_uris": {"ios": "https://dc.lft.to/lastmile_qr_scan", "android": "https://dc.lft.to/lastmile_qr_scan"}, "lon": -77.05401716666667, "type": "electric_scooter", "fusion_lat": 0.0, "lat": 38.902576, "name": "faa6a78c29b089793ff3b75281455080", "fusion_lon": 0.0, "bike_id": "faa6a78c29b089793ff3b75281455080", "is_disabled": 0, "is_reserved": 0}, {"rental_uris": {"ios": "https://dc.lft.to/lastmile_qr_scan", "android": "https://dc.lft.to/lastmile_qr_scan"}, "lon": -77.0349965, "type": "electric_scooter", "fusion_lat": 0.0, "lat": 38.9214595, "name": "a12da895d31f8330261411f127dd9edb", "fusion_lon": 0.0, "bike_id": "a12da895d31f8330261411f127dd9edb", "is_disabled": 0, "is_reserved": 0}, {"rental_uris": {"ios": "https://dc.lft.to/lastmile_qr_scan", "android": "https://dc.lft.to/lastmile_qr_scan"}, "lon": -77.05285966666666, "type": "electric_scooter", "fusion_lat": 0.0, "lat": 38.918909666666664, "name": "3073fa44291aabb0f3513b9131bad857", "fusion_lon": 0.0, "bike_id": "3073fa44291aabb0f3513b9131bad857", "is_disabled": 0, "is_reserved": 0}, {"rental_uris": {"ios": "https://dc.lft.to/lastmile_qr_scan", "android": "https://dc.lft.to/lastmile_qr_scan"}, "lon": -77.0706405, "type": "electric_scooter", "fusion_lat": 0.0, "lat": 38.952139, "name": "59e12c13601f3c168543e3a5ee8f38a0", "fusion_lon": 0.0, "bike_id": "59e12c13601f3c168543e3a5ee8f38a0", "is_disabled": 0, "is_reserved": 0}, {"rental_uris": {"ios": "https://dc.lft.to/lastmile_qr_scan", "android": "https://dc.lft.to/lastmile_qr_scan"}, "lon": -77.055031, "type": "electric_scooter", "fusion_lat": 0.0, "lat": 38.929770500000004, "name": "240bc09525d09aa6c4a98f4bf06b99ec", "fusion_lon": 0.0, "bike_id": "240bc09525d09aa6c4a98f4bf06b99ec", "is_disabled": 0, "is_reserved": 0}, {"rental_uris": {"ios": "https://dc.lft.to/lastmile_qr_scan", "android": "https://dc.lft.to/lastmile_qr_scan"}, "lon": -76.98548, "type": "electric_scooter", "fusion_lat": 0.0, "lat": 38.855789, "name": "c3a34aa60ab75843832ace9839d82e88", "fusion_lon": 0.0, "bike_id": "c3a34aa60ab75843832ace9839d82e88", "is_disabled": 0, "is_reserved": 0}, {"rental_uris": {"ios": "https://dc.lft.to/lastmile_qr_scan", "android": "https://dc.lft.to/lastmile_qr_scan"}, "lon": -76.9489925, "type": "electric_scooter", "fusion_lat": 0.0, "lat": 38.8952835, "name": "7751e26c9ccfbc52185136fb21e3bb4d", "fusion_lon": 0.0, "bike_id": "7751e26c9ccfbc52185136fb21e3bb4d", "is_disabled": 0, "is_reserved": 0}, {"rental_uris": {"ios": "https://dc.lft.to/lastmile_qr_scan", "android": "https://dc.lft.to/lastmile_qr_scan"}, "lon": -77.06606316666667, "type": "electric_scooter", "fusion_lat": 0.0, "lat": 38.90526583333333, "name": "2f4bc248fcd73af244c855c569242b20", "fusion_lon": 0.0, "bike_id": "2f4bc248fcd73af244c855c569242b20", "is_disabled": 0, "is_reserved": 0}, {"rental_uris": {"ios": "https://dc.lft.to/lastmile_qr_scan", "android": "https://dc.lft.to/lastmile_qr_scan"}, "lon": -77.04864333333333, "type": "electric_scooter", "fusion_lat": 0.0, "lat": 38.89221933333334, "name": "a28fa7964d5b7ca64b385af1182f0a9c", "fusion_lon": 0.0, "bike_id": "a28fa7964d5b7ca64b385af1182f0a9c", "is_disabled": 0, "is_reserved": 0}, {"rental_uris": {"ios": "https://dc.lft.to/lastmile_qr_scan", "android": "https://dc.lft.to/lastmile_qr_scan"}, "lon": -76.99951733333333, "type": "electric_bike", "fusion_lat": 0.0, "lat": 38.9234255, "name": "964b6b208099db817dafac556688850f", "fusion_lon": 0.0, "bike_id": "964b6b208099db817dafac556688850f", "is_disabled": 0, "is_reserved": 0}, {"rental_uris": {"ios": "https://dc.lft.to/lastmile_qr_scan", "android": "https://dc.lft.to/lastmile_qr_scan"}, "lon": -77.02796066666667, "type": "electric_scooter", "fusion_lat": 0.0, "lat": 38.9308485, "name": "9de653ccae8666410bcac691ca20c4e6", "fusion_lon": 0.0, "bike_id": "9de653ccae8666410bcac691ca20c4e6", "is_disabled": 0, "is_reserved": 0}, {"rental_uris": {"ios": "https://dc.lft.to/lastmile_qr_scan", "android": "https://dc.lft.to/lastmile_qr_scan"}, "lon": -77.0332895, "type": "electric_scooter", "fusion_lat": 0.0, "lat": 38.898141833333334, "name": "935b6766c60aa7b29df0637838912b6c", "fusion_lon": 0.0, "bike_id": "935b6766c60aa7b29df0637838912b6c", "is_disabled": 0, "is_reserved": 0}, {"rental_uris": {"ios": "https://dc.lft.to/lastmile_qr_scan", "android": "https://dc.lft.to/lastmile_qr_scan"}, "lon": -77.01536116666666, "type": "electric_scooter", "fusion_lat": 0.0, "lat": 38.872666, "name": "0ba2fa44acb092dd7346616ccbf75458", "fusion_lon": 0.0, "bike_id": "0ba2fa44acb092dd7346616ccbf75458", "is_disabled": 0, "is_reserved": 0}, {"rental_uris": {"ios": "https://dc.lft.to/lastmile_qr_scan", "android": "https://dc.lft.to/lastmile_qr_scan"}, "lon": -77.04157166666667, "type": "electric_scooter", "fusion_lat": 0.0, "lat": 38.917279666666666, "name": "71686a3d00e997fa19dd4b346dc22552", "fusion_lon": 0.0, "bike_id": "71686a3d00e997fa19dd4b346dc22552", "is_disabled": 0, "is_reserved": 0}, {"rental_uris": {"ios": "https://dc.lft.to/lastmile_qr_scan", "android": "https://dc.lft.to/lastmile_qr_scan"}, "lon": -77.039274, "type": "electric_scooter", "fusion_lat": 0.0, "lat": 38.920997166666666, "name": "4cb427c9ab27b6da9ad68f9c35659c93", "fusion_lon": 0.0, "bike_id": "4cb427c9ab27b6da9ad68f9c35659c93", "is_disabled": 0, "is_reserved": 0}, {"rental_uris": {"ios": "https://dc.lft.to/lastmile_qr_scan", "android": "https://dc.lft.to/lastmile_qr_scan"}, "lon": -76.997772, "type": "electric_scooter", "fusion_lat": 0.0, "lat": 38.844291, "name": "d7087b378eeed4fd763f649d718cda4f", "fusion_lon": 0.0, "bike_id": "d7087b378eeed4fd763f649d718cda4f", "is_disabled": 0, "is_reserved": 0}, {"rental_uris": {"ios": "https://dc.lft.to/lastmile_qr_scan", "android": "https://dc.lft.to/lastmile_qr_scan"}, "lon": -77.00936333333334, "type": "electric_scooter", "fusion_lat": 0.0, "lat": 38.87199416666667, "name": "33279f1876e764e35cd69de6be873589", "fusion_lon": 0.0, "bike_id": "33279f1876e764e35cd69de6be873589", "is_disabled": 0, "is_reserved": 0}, {"rental_uris": {"ios": "https://dc.lft.to/lastmile_qr_scan", "android": "https://dc.lft.to/lastmile_qr_scan"}, "lon": -77.02414566666667, "type": "electric_bike", "fusion_lat": 0.0, "lat": 38.99430516666666, "name": "7223432b38b577002761e9d9106c6660", "fusion_lon": 0.0, "bike_id": "7223432b38b577002761e9d9106c6660", "is_disabled": 0, "is_reserved": 0}, {"rental_uris": {"ios": "https://dc.lft.to/lastmile_qr_scan", "android": "https://dc.lft.to/lastmile_qr_scan"}, "lon": -77.03973416666666, "type": "electric_scooter", "fusion_lat": 0.0, "lat": 38.902919833333335, "name": "56a4c421a951ba223c2a3380fc68b436", "fusion_lon": 0.0, "bike_id": "56a4c421a951ba223c2a3380fc68b436", "is_disabled": 0, "is_reserved": 0}, {"rental_uris": {"ios": "https://dc.lft.to/lastmile_qr_scan", "android": "https://dc.lft.to/lastmile_qr_scan"}, "lon": -77.04124283333333, "type": "electric_scooter", "fusion_lat": 0.0, "lat": 38.92204683333333, "name": "240b27c82c88fa9e1643b743d615d45d", "fusion_lon": 0.0, "bike_id": "240b27c82c88fa9e1643b743d615d45d", "is_disabled": 0, "is_reserved": 0}, {"rental_uris": {"ios": "https://dc.lft.to/lastmile_qr_scan", "android": "https://dc.lft.to/lastmile_qr_scan"}, "lon": -77.02240433333333, "type": "electric_scooter", "fusion_lat": 0.0, "lat": 38.91647533333333, "name": "1eb8926489bd85d06ca61e20495a0404", "fusion_lon": 0.0, "bike_id": "1eb8926489bd85d06ca61e20495a0404", "is_disabled": 0, "is_reserved": 0}, {"rental_uris": {"ios": "https://dc.lft.to/lastmile_qr_scan", "android": "https://dc.lft.to/lastmile_qr_scan"}, "lon": -77.0636415, "type": "electric_scooter", "fusion_lat": 0.0, "lat": 38.90932633333333, "name": "8756884bfd5f7749308ece312e410686", "fusion_lon": 0.0, "bike_id": "8756884bfd5f7749308ece312e410686", "is_disabled": 0, "is_reserved": 0}, {"rental_uris": {"ios": "https://dc.lft.to/lastmile_qr_scan", "android": "https://dc.lft.to/lastmile_qr_scan"}, "lon": -77.07039616666667, "type": "electric_bike", "fusion_lat": 0.0, "lat": 38.824444, "name": "3120a1c5e5d57630603cd75b4a877b77", "fusion_lon": 0.0, "bike_id": "3120a1c5e5d57630603cd75b4a877b77", "is_disabled": 0, "is_reserved": 0}, {"rental_uris": {"ios": "https://dc.lft.to/lastmile_qr_scan", "android": "https://dc.lft.to/lastmile_qr_scan"}, "lon": -76.99948283333333, "type": "electric_scooter", "fusion_lat": 0.0, "lat": 38.842929833333336, "name": "4660298832f63d1b6cb8334677ce3f29", "fusion_lon": 0.0, "bike_id": "4660298832f63d1b6cb8334677ce3f29", "is_disabled": 0, "is_reserved": 0}, {"rental_uris": {"ios": "https://dc.lft.to/lastmile_qr_scan", "android": "https://dc.lft.to/lastmile_qr_scan"}, "lon": -76.91599516666666, "type": "electric_bike", "fusion_lat": 0.0, "lat": 38.8798205, "name": "4070cfca4e75c1bf802fee3dc7911d25", "fusion_lon": 0.0, "bike_id": "4070cfca4e75c1bf802fee3dc7911d25", "is_disabled": 0, "is_reserved": 0}, {"rental_uris": {"ios": "https://dc.lft.to/lastmile_qr_scan", "android": "https://dc.lft.to/lastmile_qr_scan"}, "lon": -77.01656266666667, "type": "electric_scooter", "fusion_lat": 0.0, "lat": 38.903834833333335, "name": "06ad231ee9c71876ae820189849aaf0b", "fusion_lon": 0.0, "bike_id": "06ad231ee9c71876ae820189849aaf0b", "is_disabled": 0, "is_reserved": 0}, {"rental_uris": {"ios": "https://dc.lft.to/lastmile_qr_scan", "android": "https://dc.lft.to/lastmile_qr_scan"}, "lon": -77.06888183333334, "type": "electric_scooter", "fusion_lat": 0.0, "lat": 38.94026516666667, "name": "adcf7dd389e302c5359b4f97b8e29c7e", "fusion_lon": 0.0, "bike_id": "adcf7dd389e302c5359b4f97b8e29c7e", "is_disabled": 0, "is_reserved": 0}, {"rental_uris": {"ios": "https://dc.lft.to/lastmile_qr_scan", "android": "https://dc.lft.to/lastmile_qr_scan"}, "lon": -77.04075016666667, "type": "electric_scooter", "fusion_lat": 0.0, "lat": 38.9266295, "name": "ba75cfc3307b97baa29f769a2c06c30d", "fusion_lon": 0.0, "bike_id": "ba75cfc3307b97baa29f769a2c06c30d", "is_disabled": 0, "is_reserved": 0}, {"rental_uris": {"ios": "https://dc.lft.to/lastmile_qr_scan", "android": "https://dc.lft.to/lastmile_qr_scan"}, "lon": -77.03316683333334, "type": "electric_scooter", "fusion_lat": 0.0, "lat": 38.90113516666667, "name": "2cdc3a6c0711227668ba5d05e67619ee", "fusion_lon": 0.0, "bike_id": "2cdc3a6c0711227668ba5d05e67619ee", "is_disabled": 0, "is_reserved": 0}, {"rental_uris": {"ios": "https://dc.lft.to/lastmile_qr_scan", "android": "https://dc.lft.to/lastmile_qr_scan"}, "lon": -76.9443955, "type": "electric_bike", "fusion_lat": 0.0, "lat": 38.902982333333334, "name": "a9de5c38c6f02d26ae9e088ae541269a", "fusion_lon": 0.0, "bike_id": "a9de5c38c6f02d26ae9e088ae541269a", "is_disabled": 0, "is_reserved": 0}, {"rental_uris": {"ios": "https://dc.lft.to/lastmile_qr_scan", "android": "https://dc.lft.to/lastmile_qr_scan"}, "lon": -77.01767766666667, "type": "electric_scooter", "fusion_lat": 0.0, "lat": 38.91841216666667, "name": "3ba7c73bc6b8eeab006bdda88cfd4fe8", "fusion_lon": 0.0, "bike_id": "3ba7c73bc6b8eeab006bdda88cfd4fe8", "is_disabled": 0, "is_reserved": 0}, {"rental_uris": {"ios": "https://dc.lft.to/lastmile_qr_scan", "android": "https://dc.lft.to/lastmile_qr_scan"}, "lon": -77.01733133333333, "type": "electric_scooter", "fusion_lat": 0.0, "lat": 38.902597166666666, "name": "de0f1bef523fcbb6ff7ce6c01fabba1b", "fusion_lon": 0.0, "bike_id": "de0f1bef523fcbb6ff7ce6c01fabba1b", "is_disabled": 0, "is_reserved": 0}, {"rental_uris": {"ios": "https://dc.lft.to/lastmile_qr_scan", "android": "https://dc.lft.to/lastmile_qr_scan"}, "lon": -77.06384033333333, "type": "electric_bike", "fusion_lat": 0.0, "lat": 38.905086833333336, "name": "97cfac5f1992710f77e8527102522f00", "fusion_lon": 0.0, "bike_id": "97cfac5f1992710f77e8527102522f00", "is_disabled": 0, "is_reserved": 0}, {"rental_uris": {"ios": "https://dc.lft.to/lastmile_qr_scan", "android": "https://dc.lft.to/lastmile_qr_scan"}, "lon": -76.972215, "type": "electric_bike", "fusion_lat": 0.0, "lat": 38.844812, "name": "bd1c23b137f6df6e2a3d2b93d9c400cd", "fusion_lon": 0.0, "bike_id": "bd1c23b137f6df6e2a3d2b93d9c400cd", "is_disabled": 0, "is_reserved": 0}, {"rental_uris": {"ios": "https://dc.lft.to/lastmile_qr_scan", "android": "https://dc.lft.to/lastmile_qr_scan"}, "lon": -77.030171, "type": "electric_scooter", "fusion_lat": 0.0, "lat": 38.93110566666667, "name": "039b3a6ab1637abdc588b9ee373d82be", "fusion_lon": 0.0, "bike_id": "039b3a6ab1637abdc588b9ee373d82be", "is_disabled": 0, "is_reserved": 0}, {"rental_uris": {"ios": "https://dc.lft.to/lastmile_qr_scan", "android": "https://dc.lft.to/lastmile_qr_scan"}, "lon": -77.022256, "type": "electric_scooter", "fusion_lat": 0.0, "lat": 38.892215666666665, "name": "3a8ebe4906f7f8fc849915634bd7c0d3", "fusion_lon": 0.0, "bike_id": "3a8ebe4906f7f8fc849915634bd7c0d3", "is_disabled": 0, "is_reserved": 0}, {"rental_uris": {"ios": "https://dc.lft.to/lastmile_qr_scan", "android": "https://dc.lft.to/lastmile_qr_scan"}, "lon": -77.01158133333334, "type": "electric_scooter", "fusion_lat": 0.0, "lat": 38.900263, "name": "2ea29955cb5dbf27bdf0eaa12085ae73", "fusion_lon": 0.0, "bike_id": "2ea29955cb5dbf27bdf0eaa12085ae73", "is_disabled": 0, "is_reserved": 0}, {"rental_uris": {"ios": "https://dc.lft.to/lastmile_qr_scan", "android": "https://dc.lft.to/lastmile_qr_scan"}, "lon": -77.08544499999999, "type": "electric_bike", "fusion_lat": 0.0, "lat": 38.856224, "name": "d0b01ef69358a0a916471ffe2b7a21c4", "fusion_lon": 0.0, "bike_id": "d0b01ef69358a0a916471ffe2b7a21c4", "is_disabled": 0, "is_reserved": 0}, {"rental_uris": {"ios": "https://dc.lft.to/lastmile_qr_scan", "android": "https://dc.lft.to/lastmile_qr_scan"}, "lon": -77.02981683333333, "type": "electric_scooter", "fusion_lat": 0.0, "lat": 38.96229733333333, "name": "decd2bf729c24fb5bf85d800885541d0", "fusion_lon": 0.0, "bike_id": "decd2bf729c24fb5bf85d800885541d0", "is_disabled": 0, "is_reserved": 0}, {"rental_uris": {"ios": "https://dc.lft.to/lastmile_qr_scan", "android": "https://dc.lft.to/lastmile_qr_scan"}, "lon": -76.98885266666667, "type": "electric_scooter", "fusion_lat": 0.0, "lat": 38.866612, "name": "0762f1206a71e8ebc39012015540e29e", "fusion_lon": 0.0, "bike_id": "0762f1206a71e8ebc39012015540e29e", "is_disabled": 0, "is_reserved": 0}, {"rental_uris": {"ios": "https://dc.lft.to/lastmile_qr_scan", "android": "https://dc.lft.to/lastmile_qr_scan"}, "lon": -77.04101733333333, "type": "electric_scooter", "fusion_lat": 0.0, "lat": 38.918542, "name": "8f9d385e14306b39f65909d3a0b1a998", "fusion_lon": 0.0, "bike_id": "8f9d385e14306b39f65909d3a0b1a998", "is_disabled": 0, "is_reserved": 0}, {"rental_uris": {"ios": "https://dc.lft.to/lastmile_qr_scan", "android": "https://dc.lft.to/lastmile_qr_scan"}, "lon": -77.04158216666667, "type": "electric_scooter", "fusion_lat": 0.0, "lat": 38.914219, "name": "be32fc4043d43d6a696b4b2c0ddfd992", "fusion_lon": 0.0, "bike_id": "be32fc4043d43d6a696b4b2c0ddfd992", "is_disabled": 0, "is_reserved": 0}, {"rental_uris": {"ios": "https://dc.lft.to/lastmile_qr_scan", "android": "https://dc.lft.to/lastmile_qr_scan"}, "lon": -77.02699583333333, "type": "electric_scooter", "fusion_lat": 0.0, "lat": 38.94980483333333, "name": "55815b17dd2e382234ba05a12a43d00a", "fusion_lon": 0.0, "bike_id": "55815b17dd2e382234ba05a12a43d00a", "is_disabled": 0, "is_reserved": 0}, {"rental_uris": {"ios": "https://dc.lft.to/lastmile_qr_scan", "android": "https://dc.lft.to/lastmile_qr_scan"}, "lon": -76.96626966666666, "type": "electric_bike", "fusion_lat": 0.0, "lat": 38.94203066666667, "name": "1cc73282ac4191f27249b468abdfc191", "fusion_lon": 0.0, "bike_id": "1cc73282ac4191f27249b468abdfc191", "is_disabled": 0, "is_reserved": 0}, {"rental_uris": {"ios": "https://dc.lft.to/lastmile_qr_scan", "android": "https://dc.lft.to/lastmile_qr_scan"}, "lon": -77.03167516666667, "type": "electric_scooter", "fusion_lat": 0.0, "lat": 38.915646333333335, "name": "d0a11633a90cab8454c74d785e165133", "fusion_lon": 0.0, "bike_id": "d0a11633a90cab8454c74d785e165133", "is_disabled": 0, "is_reserved": 0}, {"rental_uris": {"ios": "https://dc.lft.to/lastmile_qr_scan", "android": "https://dc.lft.to/lastmile_qr_scan"}, "lon": -77.021036, "type": "electric_scooter", "fusion_lat": 0.0, "lat": 38.913100666666665, "name": "fa51da59546b95661f7c1c1b9d3dca8a", "fusion_lon": 0.0, "bike_id": "fa51da59546b95661f7c1c1b9d3dca8a", "is_disabled": 0, "is_reserved": 0}, {"rental_uris": {"ios": "https://dc.lft.to/lastmile_qr_scan", "android": "https://dc.lft.to/lastmile_qr_scan"}, "lon": -77.02258333333333, "type": "electric_scooter", "fusion_lat": 0.0, "lat": 38.9330135, "name": "44c3dbdb440114ab404181a02eaad438", "fusion_lon": 0.0, "bike_id": "44c3dbdb440114ab404181a02eaad438", "is_disabled": 0, "is_reserved": 0}, {"rental_uris": {"ios": "https://dc.lft.to/lastmile_qr_scan", "android": "https://dc.lft.to/lastmile_qr_scan"}, "lon": -76.93799433333334, "type": "electric_scooter", "fusion_lat": 0.0, "lat": 38.882347, "name": "8a3c89ef896e7e84b09bcd5a200b30f2", "fusion_lon": 0.0, "bike_id": "8a3c89ef896e7e84b09bcd5a200b30f2", "is_disabled": 0, "is_reserved": 0}, {"rental_uris": {"ios": "https://dc.lft.to/lastmile_qr_scan", "android": "https://dc.lft.to/lastmile_qr_scan"}, "lon": -77.00988016666666, "type": "electric_scooter", "fusion_lat": 0.0, "lat": 38.914876, "name": "0f07da71775fc498b77a2b00489a3006", "fusion_lon": 0.0, "bike_id": "0f07da71775fc498b77a2b00489a3006", "is_disabled": 0, "is_reserved": 0}, {"rental_uris": {"ios": "https://dc.lft.to/lastmile_qr_scan", "android": "https://dc.lft.to/lastmile_qr_scan"}, "lon": -77.01053733333333, "type": "electric_scooter", "fusion_lat": 0.0, "lat": 38.87935816666667, "name": "2a34824d6f2ef2dbed8f36dbcccac38d", "fusion_lon": 0.0, "bike_id": "2a34824d6f2ef2dbed8f36dbcccac38d", "is_disabled": 0, "is_reserved": 0}, {"rental_uris": {"ios": "https://dc.lft.to/lastmile_qr_scan", "android": "https://dc.lft.to/lastmile_qr_scan"}, "lon": -77.02824966666667, "type": "electric_scooter", "fusion_lat": 0.0, "lat": 38.902696, "name": "e88f880a193665981a41fce6b4ee1380", "fusion_lon": 0.0, "bike_id": "e88f880a193665981a41fce6b4ee1380", "is_disabled": 0, "is_reserved": 0}, {"rental_uris": {"ios": "https://dc.lft.to/lastmile_qr_scan", "android": "https://dc.lft.to/lastmile_qr_scan"}, "lon": -77.00974316666667, "type": "electric_scooter", "fusion_lat": 0.0, "lat": 38.91413433333334, "name": "da2fe9f878899631cb53557eee8fc9ce", "fusion_lon": 0.0, "bike_id": "da2fe9f878899631cb53557eee8fc9ce", "is_disabled": 0, "is_reserved": 0}, {"rental_uris": {"ios": "https://dc.lft.to/lastmile_qr_scan", "android": "https://dc.lft.to/lastmile_qr_scan"}, "lon": -76.9485345, "type": "electric_scooter", "fusion_lat": 0.0, "lat": 38.89589483333334, "name": "cd368738c51b3b633e6c861678e4ca83", "fusion_lon": 0.0, "bike_id": "cd368738c51b3b633e6c861678e4ca83", "is_disabled": 0, "is_reserved": 0}, {"rental_uris": {"ios": "https://dc.lft.to/lastmile_qr_scan", "android": "https://dc.lft.to/lastmile_qr_scan"}, "lon": -77.0107455, "type": "electric_bike", "fusion_lat": 0.0, "lat": 38.91911533333333, "name": "cc8fd22617e1801b451344131477edfd", "fusion_lon": 0.0, "bike_id": "cc8fd22617e1801b451344131477edfd", "is_disabled": 0, "is_reserved": 0}, {"rental_uris": {"ios": "https://dc.lft.to/lastmile_qr_scan", "android": "https://dc.lft.to/lastmile_qr_scan"}, "lon": -77.059187, "type": "electric_scooter", "fusion_lat": 0.0, "lat": 38.9061365, "name": "a608ab9cfa2e8e4b87f5acbac925d365", "fusion_lon": 0.0, "bike_id": "a608ab9cfa2e8e4b87f5acbac925d365", "is_disabled": 0, "is_reserved": 0}, {"rental_uris": {"ios": "https://dc.lft.to/lastmile_qr_scan", "android": "https://dc.lft.to/lastmile_qr_scan"}, "lon": -77.0280005, "type": "electric_scooter", "fusion_lat": 0.0, "lat": 38.910665, "name": "2c7f59bdf8bbc24692de7079fb7847bc", "fusion_lon": 0.0, "bike_id": "2c7f59bdf8bbc24692de7079fb7847bc", "is_disabled": 0, "is_reserved": 0}, {"rental_uris": {"ios": "https://dc.lft.to/lastmile_qr_scan", "android": "https://dc.lft.to/lastmile_qr_scan"}, "lon": -76.91649266666667, "type": "electric_bike", "fusion_lat": 0.0, "lat": 38.86860183333334, "name": "20b826e24e54dc3688b73bc9d757dfa2", "fusion_lon": 0.0, "bike_id": "20b826e24e54dc3688b73bc9d757dfa2", "is_disabled": 0, "is_reserved": 0}, {"rental_uris": {"ios": "https://dc.lft.to/lastmile_qr_scan", "android": "https://dc.lft.to/lastmile_qr_scan"}, "lon": -77.02714483333334, "type": "electric_scooter", "fusion_lat": 0.0, "lat": 38.909060833333335, "name": "f7ea98c91cefdd18fab300c6f962284a", "fusion_lon": 0.0, "bike_id": "f7ea98c91cefdd18fab300c6f962284a", "is_disabled": 0, "is_reserved": 0}, {"rental_uris": {"ios": "https://dc.lft.to/lastmile_qr_scan", "android": "https://dc.lft.to/lastmile_qr_scan"}, "lon": -77.0106925, "type": "electric_scooter", "fusion_lat": 0.0, "lat": 38.874754333333335, "name": "894d1572d7eb57a9a4d7ece48c3e53fa", "fusion_lon": 0.0, "bike_id": "894d1572d7eb57a9a4d7ece48c3e53fa", "is_disabled": 0, "is_reserved": 0}, {"rental_uris": {"ios": "https://dc.lft.to/lastmile_qr_scan", "android": "https://dc.lft.to/lastmile_qr_scan"}, "lon": -77.12733433333334, "type": "electric_bike", "fusion_lat": 0.0, "lat": 38.895629166666666, "name": "9f64df203b35fa813123cb996df4d1e9", "fusion_lon": 0.0, "bike_id": "9f64df203b35fa813123cb996df4d1e9", "is_disabled": 0, "is_reserved": 0}, {"rental_uris": {"ios": "https://dc.lft.to/lastmile_qr_scan", "android": "https://dc.lft.to/lastmile_qr_scan"}, "lon": -77.030685, "type": "electric_scooter", "fusion_lat": 0.0, "lat": 38.9057525, "name": "092d4e2c595a88a6d09e7bc1ef521917", "fusion_lon": 0.0, "bike_id": "092d4e2c595a88a6d09e7bc1ef521917", "is_disabled": 0, "is_reserved": 0}, {"rental_uris": {"ios": "https://dc.lft.to/lastmile_qr_scan", "android": "https://dc.lft.to/lastmile_qr_scan"}, "lon": -77.04837383333333, "type": "electric_scooter", "fusion_lat": 0.0, "lat": 38.9096615, "name": "3e5e01e7d16f1c600a3bb08673b7ec93", "fusion_lon": 0.0, "bike_id": "3e5e01e7d16f1c600a3bb08673b7ec93", "is_disabled": 0, "is_reserved": 0}, {"rental_uris": {"ios": "https://dc.lft.to/lastmile_qr_scan", "android": "https://dc.lft.to/lastmile_qr_scan"}, "lon": -77.0031175, "type": "electric_scooter", "fusion_lat": 0.0, "lat": 38.8950065, "name": "a2c0bf5e61462e89284d2a8273a75eaf", "fusion_lon": 0.0, "bike_id": "a2c0bf5e61462e89284d2a8273a75eaf", "is_disabled": 0, "is_reserved": 0}, {"rental_uris": {"ios": "https://dc.lft.to/lastmile_qr_scan", "android": "https://dc.lft.to/lastmile_qr_scan"}, "lon": -77.005189, "type": "electric_scooter", "fusion_lat": 0.0, "lat": 38.8791535, "name": "18c683a0f851a4ded8843e76e3b4756c", "fusion_lon": 0.0, "bike_id": "18c683a0f851a4ded8843e76e3b4756c", "is_disabled": 0, "is_reserved": 0}, {"rental_uris": {"ios": "https://dc.lft.to/lastmile_qr_scan", "android": "https://dc.lft.to/lastmile_qr_scan"}, "lon": -77.01457583333334, "type": "electric_scooter", "fusion_lat": 0.0, "lat": 38.912688333333335, "name": "e3faaa9ffbe776303c03758b8f54611c", "fusion_lon": 0.0, "bike_id": "e3faaa9ffbe776303c03758b8f54611c", "is_disabled": 0, "is_reserved": 0}, {"rental_uris": {"ios": "https://dc.lft.to/lastmile_qr_scan", "android": "https://dc.lft.to/lastmile_qr_scan"}, "lon": -77.01073883333333, "type": "electric_bike", "fusion_lat": 0.0, "lat": 38.956567166666666, "name": "c911a14d01f1bce55ca588f536ed7a2a", "fusion_lon": 0.0, "bike_id": "c911a14d01f1bce55ca588f536ed7a2a", "is_disabled": 0, "is_reserved": 0}, {"rental_uris": {"ios": "https://dc.lft.to/lastmile_qr_scan", "android": "https://dc.lft.to/lastmile_qr_scan"}, "lon": -77.02208333333333, "type": "electric_scooter", "fusion_lat": 0.0, "lat": 38.9110985, "name": "bac6e49518b1484ff9a02c9de626883d", "fusion_lon": 0.0, "bike_id": "bac6e49518b1484ff9a02c9de626883d", "is_disabled": 0, "is_reserved": 0}, {"rental_uris": {"ios": "https://dc.lft.to/lastmile_qr_scan", "android": "https://dc.lft.to/lastmile_qr_scan"}, "lon": -76.98844766666667, "type": "electric_bike", "fusion_lat": 0.0, "lat": 38.842765666666665, "name": "cceff88523aafb02bf3e1472d6bd3dc3", "fusion_lon": 0.0, "bike_id": "cceff88523aafb02bf3e1472d6bd3dc3", "is_disabled": 0, "is_reserved": 0}, {"rental_uris": {"ios": "https://dc.lft.to/lastmile_qr_scan", "android": "https://dc.lft.to/lastmile_qr_scan"}, "lon": -77.03783316666667, "type": "electric_scooter", "fusion_lat": 0.0, "lat": 38.92624166666667, "name": "ffd634f0af403e44e5488b3da639f308", "fusion_lon": 0.0, "bike_id": "ffd634f0af403e44e5488b3da639f308", "is_disabled": 0, "is_reserved": 0}, {"rental_uris": {"ios": "https://dc.lft.to/lastmile_qr_scan", "android": "https://dc.lft.to/lastmile_qr_scan"}, "lon": -77.00262133333334, "type": "electric_scooter", "fusion_lat": 0.0, "lat": 38.89894616666667, "name": "826b624664a5cc24255087c685f986c4", "fusion_lon": 0.0, "bike_id": "826b624664a5cc24255087c685f986c4", "is_disabled": 0, "is_reserved": 0}, {"rental_uris": {"ios": "https://dc.lft.to/lastmile_qr_scan", "android": "https://dc.lft.to/lastmile_qr_scan"}, "lon": -76.996187, "type": "electric_scooter", "fusion_lat": 0.0, "lat": 38.87732583333333, "name": "c2fd2f9972d8020e5f2cc0730c4fc5e8", "fusion_lon": 0.0, "bike_id": "c2fd2f9972d8020e5f2cc0730c4fc5e8", "is_disabled": 0, "is_reserved": 0}, {"rental_uris": {"ios": "https://dc.lft.to/lastmile_qr_scan", "android": "https://dc.lft.to/lastmile_qr_scan"}, "lon": -77.01879933333333, "type": "electric_scooter", "fusion_lat": 0.0, "lat": 38.91745683333333, "name": "fa401643c60912cab82c8ca1f71ce3c2", "fusion_lon": 0.0, "bike_id": "fa401643c60912cab82c8ca1f71ce3c2", "is_disabled": 0, "is_reserved": 0}, {"rental_uris": {"ios": "https://dc.lft.to/lastmile_qr_scan", "android": "https://dc.lft.to/lastmile_qr_scan"}, "lon": -77.0339695, "type": "electric_scooter", "fusion_lat": 0.0, "lat": 38.9058345, "name": "2bce23077b2316cb4c21ba844bbd0993", "fusion_lon": 0.0, "bike_id": "2bce23077b2316cb4c21ba844bbd0993", "is_disabled": 0, "is_reserved": 0}, {"rental_uris": {"ios": "https://dc.lft.to/lastmile_qr_scan", "android": "https://dc.lft.to/lastmile_qr_scan"}, "lon": -77.04252766666667, "type": "electric_scooter", "fusion_lat": 0.0, "lat": 38.92205416666667, "name": "cd9f5aebfdb764822bf802f3a1f30fa0", "fusion_lon": 0.0, "bike_id": "cd9f5aebfdb764822bf802f3a1f30fa0", "is_disabled": 0, "is_reserved": 0}, {"rental_uris": {"ios": "https://dc.lft.to/lastmile_qr_scan", "android": "https://dc.lft.to/lastmile_qr_scan"}, "lon": -77.07777616666667, "type": "electric_scooter", "fusion_lat": 0.0, "lat": 38.9455795, "name": "78ea770e941c83ea9ad8b4370bb06e5e", "fusion_lon": 0.0, "bike_id": "78ea770e941c83ea9ad8b4370bb06e5e", "is_disabled": 0, "is_reserved": 0}, {"rental_uris": {"ios": "https://dc.lft.to/lastmile_qr_scan", "android": "https://dc.lft.to/lastmile_qr_scan"}, "lon": -77.027181, "type": "electric_scooter", "fusion_lat": 0.0, "lat": 38.909080333333335, "name": "effa51169cb3b1a2835c7234de56f826", "fusion_lon": 0.0, "bike_id": "effa51169cb3b1a2835c7234de56f826", "is_disabled": 0, "is_reserved": 0}, {"rental_uris": {"ios": "https://dc.lft.to/lastmile_qr_scan", "android": "https://dc.lft.to/lastmile_qr_scan"}, "lon": -77.02260883333334, "type": "electric_scooter", "fusion_lat": 0.0, "lat": 38.923113666666666, "name": "9972ce43859c363c267d7a2e8e05dd81", "fusion_lon": 0.0, "bike_id": "9972ce43859c363c267d7a2e8e05dd81", "is_disabled": 0, "is_reserved": 0}, {"rental_uris": {"ios": "https://dc.lft.to/lastmile_qr_scan", "android": "https://dc.lft.to/lastmile_qr_scan"}, "lon": -77.00368533333334, "type": "electric_scooter", "fusion_lat": 0.0, "lat": 38.838062666666666, "name": "ec985fa2f975495b740ae59598cdeaef", "fusion_lon": 0.0, "bike_id": "ec985fa2f975495b740ae59598cdeaef", "is_disabled": 0, "is_reserved": 0}, {"rental_uris": {"ios": "https://dc.lft.to/lastmile_qr_scan", "android": "https://dc.lft.to/lastmile_qr_scan"}, "lon": -76.93160633333333, "type": "electric_bike", "fusion_lat": 0.0, "lat": 38.90864416666667, "name": "79f7010c101d3c6ba8f0ff6a73626960", "fusion_lon": 0.0, "bike_id": "79f7010c101d3c6ba8f0ff6a73626960", "is_disabled": 0, "is_reserved": 0}, {"rental_uris": {"ios": "https://dc.lft.to/lastmile_qr_scan", "android": "https://dc.lft.to/lastmile_qr_scan"}, "lon": -77.02890816666667, "type": "electric_scooter", "fusion_lat": 0.0, "lat": 38.907136, "name": "6377991e46f902faea558ffee0b68c85", "fusion_lon": 0.0, "bike_id": "6377991e46f902faea558ffee0b68c85", "is_disabled": 0, "is_reserved": 0}, {"rental_uris": {"ios": "https://dc.lft.to/lastmile_qr_scan", "android": "https://dc.lft.to/lastmile_qr_scan"}, "lon": -76.99066616666667, "type": "electric_scooter", "fusion_lat": 0.0, "lat": 38.86359183333333, "name": "f187246b31ede54473dab93b2f6582a6", "fusion_lon": 0.0, "bike_id": "f187246b31ede54473dab93b2f6582a6", "is_disabled": 0, "is_reserved": 0}, {"rental_uris": {"ios": "https://dc.lft.to/lastmile_qr_scan", "android": "https://dc.lft.to/lastmile_qr_scan"}, "lon": -76.94143866666667, "type": "electric_scooter", "fusion_lat": 0.0, "lat": 38.89679783333333, "name": "b320995600c25b9944bd9b1ff6471c71", "fusion_lon": 0.0, "bike_id": "b320995600c25b9944bd9b1ff6471c71", "is_disabled": 0, "is_reserved": 0}, {"rental_uris": {"ios": "https://dc.lft.to/lastmile_qr_scan", "android": "https://dc.lft.to/lastmile_qr_scan"}, "lon": -76.97008866666667, "type": "electric_bike", "fusion_lat": 0.0, "lat": 38.86371416666667, "name": "a9bf1b25a773caa39ed73ad9aa184873", "fusion_lon": 0.0, "bike_id": "a9bf1b25a773caa39ed73ad9aa184873", "is_disabled": 0, "is_reserved": 0}, {"rental_uris": {"ios": "https://dc.lft.to/lastmile_qr_scan", "android": "https://dc.lft.to/lastmile_qr_scan"}, "lon": -77.05333466666667, "type": "electric_scooter", "fusion_lat": 0.0, "lat": 38.90473266666667, "name": "d5f4b71ce1ded9b945e9020568b6c9b2", "fusion_lon": 0.0, "bike_id": "d5f4b71ce1ded9b945e9020568b6c9b2", "is_disabled": 0, "is_reserved": 0}, {"rental_uris": {"ios": "https://dc.lft.to/lastmile_qr_scan", "android": "https://dc.lft.to/lastmile_qr_scan"}, "lon": -77.09546966666667, "type": "electric_bike", "fusion_lat": 0.0, "lat": 38.837312833333336, "name": "1df4f3e291eadc27a35a8ede8a70ed05", "fusion_lon": 0.0, "bike_id": "1df4f3e291eadc27a35a8ede8a70ed05", "is_disabled": 0, "is_reserved": 0}, {"rental_uris": {"ios": "https://dc.lft.to/lastmile_qr_scan", "android": "https://dc.lft.to/lastmile_qr_scan"}, "lon": -77.00379583333333, "type": "electric_bike", "fusion_lat": 0.0, "lat": 38.836080833333334, "name": "345f835ac2f677e9ca8859d923630e11", "fusion_lon": 0.0, "bike_id": "345f835ac2f677e9ca8859d923630e11", "is_disabled": 0, "is_reserved": 0}, {"rental_uris": {"ios": "https://dc.lft.to/lastmile_qr_scan", "android": "https://dc.lft.to/lastmile_qr_scan"}, "lon": -77.02761383333333, "type": "electric_scooter", "fusion_lat": 0.0, "lat": 38.956124, "name": "32251afe5f4ae76e56cb6edf8d62fc35", "fusion_lon": 0.0, "bike_id": "32251afe5f4ae76e56cb6edf8d62fc35", "is_disabled": 0, "is_reserved": 0}, {"rental_uris": {"ios": "https://dc.lft.to/lastmile_qr_scan", "android": "https://dc.lft.to/lastmile_qr_scan"}, "lon": -77.04118683333333, "type": "electric_scooter", "fusion_lat": 0.0, "lat": 38.9061465, "name": "7962ece2405228c97ccaf11027b25d28", "fusion_lon": 0.0, "bike_id": "7962ece2405228c97ccaf11027b25d28", "is_disabled": 0, "is_reserved": 0}, {"rental_uris": {"ios": "https://dc.lft.to/lastmile_qr_scan", "android": "https://dc.lft.to/lastmile_qr_scan"}, "lon": -77.01251633333334, "type": "electric_scooter", "fusion_lat": 0.0, "lat": 38.8996625, "name": "360cc89261f9c430553005b060e17fb4", "fusion_lon": 0.0, "bike_id": "360cc89261f9c430553005b060e17fb4", "is_disabled": 0, "is_reserved": 0}, {"rental_uris": {"ios": "https://dc.lft.to/lastmile_qr_scan", "android": "https://dc.lft.to/lastmile_qr_scan"}, "lon": -77.04174733333333, "type": "electric_scooter", "fusion_lat": 0.0, "lat": 38.900529, "name": "79180244655671703474374ba0f20894", "fusion_lon": 0.0, "bike_id": "79180244655671703474374ba0f20894", "is_disabled": 0, "is_reserved": 0}, {"rental_uris": {"ios": "https://dc.lft.to/lastmile_qr_scan", "android": "https://dc.lft.to/lastmile_qr_scan"}, "lon": -77.13598833333333, "type": "electric_bike", "fusion_lat": 0.0, "lat": 39.05347416666667, "name": "b93d56ec677bbda7148f44b6f90999ac", "fusion_lon": 0.0, "bike_id": "b93d56ec677bbda7148f44b6f90999ac", "is_disabled": 0, "is_reserved": 0}, {"rental_uris": {"ios": "https://dc.lft.to/lastmile_qr_scan", "android": "https://dc.lft.to/lastmile_qr_scan"}, "lon": -77.03343616666666, "type": "electric_scooter", "fusion_lat": 0.0, "lat": 38.91917433333333, "name": "d58998b928043e8c88abe1ab47c1bb2f", "fusion_lon": 0.0, "bike_id": "d58998b928043e8c88abe1ab47c1bb2f", "is_disabled": 0, "is_reserved": 0}, {"rental_uris": {"ios": "https://dc.lft.to/lastmile_qr_scan", "android": "https://dc.lft.to/lastmile_qr_scan"}, "lon": -77.07878683333334, "type": "electric_scooter", "fusion_lat": 0.0, "lat": 38.9254735, "name": "70e972763f9eadd4da757a7129d5efbf", "fusion_lon": 0.0, "bike_id": "70e972763f9eadd4da757a7129d5efbf", "is_disabled": 0, "is_reserved": 0}, {"rental_uris": {"ios": "https://dc.lft.to/lastmile_qr_scan", "android": "https://dc.lft.to/lastmile_qr_scan"}, "lon": -76.98614366666666, "type": "electric_scooter", "fusion_lat": 0.0, "lat": 38.86828333333333, "name": "6d6001a107ffbe7e87fbd34e71d65c2c", "fusion_lon": 0.0, "bike_id": "6d6001a107ffbe7e87fbd34e71d65c2c", "is_disabled": 0, "is_reserved": 0}, {"rental_uris": {"ios": "https://dc.lft.to/lastmile_qr_scan", "android": "https://dc.lft.to/lastmile_qr_scan"},