{"data": {"bikes": [{"rental_uris": {"ios": "https://dc.lft.to/lastmile_qr_scan", "android": "https://dc.lft.to/lastmile_qr_scan"}, "fusion_lat": 0.0, "name": "f4ecba85b01f1a661fbdf32c298f2b78", "bike_id": "f4ecba85b01f1a661fbdf32c298f2b78", "is_disabled": 0, "type": "electric_scooter", "lat": 38.91880966666667, "lon": -77.03509133333333, "is_reserved": 0, "fusion_lon": 0.0}, {"rental_uris": {"ios": "https://dc.lft.to/lastmile_qr_scan", "android": "https://dc.lft.to/lastmile_qr_scan"}, "fusion_lat": 0.0, "name": "9f6c18f52767c72687a20980f115ace2", "bike_id": "9f6c18f52767c72687a20980f115ace2", "is_disabled": 0, "type": "electric_bike", "lat": 38.93415983333333, "lon": -77.02514783333334, "is_reserved": 0, "fusion_lon": 0.0}, {"rental_uris": {"ios": "https://dc.lft.to/lastmile_qr_scan", "android": "https://dc.lft.to/lastmile_qr_scan"}, "fusion_lat": 0.0, "name": "fa261d7f586a0e50d7147b143ac58da6", "bike_id": "fa261d7f586a0e50d7147b143ac58da6", "is_disabled": 0, "type": "electric_scooter", "lat": 38.896078, "lon": -77.04544716666666, "is_reserved": 0, "fusion_lon": 0.0}, {"rental_uris": {"ios": "https://dc.lft.to/lastmile_qr_scan", "android": "https://dc.lft.to/lastmile_qr_scan"}, "fusion_lat": 0.0, "name": "f12a6b959b8d7287a8e00fa46c4c0945", "bike_id": "f12a6b959b8d7287a8e00fa46c4c0945", "is_disabled": 0, "type": "electric_scooter", "lat": 38.90375483333333, "lon": -77.0321225, "is_reserved": 0, "fusion_lon": 0.0}, {"rental_uris": {"ios": "https://dc.lft.to/lastmile_qr_scan", "android": "https://dc.lft.to/lastmile_qr_scan"}, "fusion_lat": 0.0, "name": "f4839ac84cf7d524084672cef2671f9f", "bike_id": "f4839ac84cf7d524084672cef2671f9f", "is_disabled": 0, "type": "electric_scooter", "lat": 38.920599333333335, "lon": -77.0435465, "is_reserved": 0, "fusion_lon": 0.0}, {"rental_uris": {"ios": "https://dc.lft.to/lastmile_qr_scan", "android": "https://dc.lft.to/lastmile_qr_scan"}, "fusion_lat": 0.0, "name": "ec037dc005e32f82d517d1212ac568b2", "bike_id": "ec037dc005e32f82d517d1212ac568b2", "is_disabled": 0, "type": "electric_scooter", "lat": 38.902816666666666, "lon": -77.03370183333334, "is_reserved": 0, "fusion_lon": 0.0}, {"rental_uris": {"ios": "https://dc.lft.to/lastmile_qr_scan", "android": "https://dc.lft.to/lastmile_qr_scan"}, "fusion_lat": 0.0, "name": "1c274afb89e9f947f9004dda919adc97", "bike_id": "1c274afb89e9f947f9004dda919adc97", "is_disabled": 0, "type": "electric_scooter", "lat": 38.8996425, "lon": -77.03069916666666, "is_reserved": 0, "fusion_lon": 0.0}, {"rental_uris": {"ios": "https://dc.lft.to/lastmile_qr_scan", "android": "https://dc.lft.to/lastmile_qr_scan"}, "fusion_lat": 0.0, "name": "f1b68c8f1fb817649d0115b4dfc65fc7", "bike_id": "f1b68c8f1fb817649d0115b4dfc65fc7", "is_disabled": 0, "type": "electric_scooter", "lat": 38.8872925, "lon": -77.02826816666666, "is_reserved": 0, "fusion_lon": 0.0}, {"rental_uris": {"ios": "https://dc.lft.to/lastmile_qr_scan", "android": "https://dc.lft.to/lastmile_qr_scan"}, "fusion_lat": 0.0, "name": "7bffde187eb274e9eaacff1105fe8fc2", "bike_id": "7bffde187eb274e9eaacff1105fe8fc2", "is_disabled": 0, "type": "electric_scooter", "lat": 38.909552, "lon": -77.03786466666666, "is_reserved": 0, "fusion_lon": 0.0}, {"rental_uris": {"ios": "https://dc.lft.to/lastmile_qr_scan", "android": "https://dc.lft.to/lastmile_qr_scan"}, "fusion_lat": 0.0, "name": "fb5686c8224f707a06ad791219422e89", "bike_id": "fb5686c8224f707a06ad791219422e89", "is_disabled": 0, "type": "electric_scooter", "lat": 38.8857595, "lon": -77.03072633333333, "is_reserved": 0, "fusion_lon": 0.0}, {"rental_uris": {"ios": "https://dc.lft.to/lastmile_qr_scan", "android": "https://dc.lft.to/lastmile_qr_scan"}, "fusion_lat": 0.0, "name": "cd05efda327d12449abad44c7eb8fb80", "bike_id": "cd05efda327d12449abad44c7eb8fb80", "is_disabled": 0, "type": "electric_scooter", "lat": 38.905609166666665, "lon": -77.0271535, "is_reserved": 0, "fusion_lon": 0.0}, {"rental_uris": {"ios": "https://dc.lft.to/lastmile_qr_scan", "android": "https://dc.lft.to/lastmile_qr_scan"}, "fusion_lat": 0.0, "name": "41af34bf359b3097d1fe747d04160088", "bike_id": "41af34bf359b3097d1fe747d04160088", "is_disabled": 0, "type": "electric_scooter", "lat": 38.89345633333333, "lon": -77.041457, "is_reserved": 0, "fusion_lon": 0.0}, {"rental_uris": {"ios": "https://dc.lft.to/lastmile_qr_scan", "android": "https://dc.lft.to/lastmile_qr_scan"}, "fusion_lat": 0.0, "name": "b665f989aa4fa7c6dacaa1f29b4d57a2", "bike_id": "b665f989aa4fa7c6dacaa1f29b4d57a2", "is_disabled": 0, "type": "electric_scooter", "lat": 38.913316, "lon": -77.031681, "is_reserved": 0, "fusion_lon": 0.0}, {"rental_uris": {"ios": "https://dc.lft.to/lastmile_qr_scan", "android": "https://dc.lft.to/lastmile_qr_scan"}, "fusion_lat": 0.0, "name": "6b36572e597b0e0361c3a76cc04fa28c", "bike_id": "6b36572e597b0e0361c3a76cc04fa28c", "is_disabled": 0, "type": "electric_scooter", "lat": 38.905505833333336, "lon": -77.00286516666667, "is_reserved": 0, "fusion_lon": 0.0}, {"rental_uris": {"ios": "https://dc.lft.to/lastmile_qr_scan", "android": "https://dc.lft.to/lastmile_qr_scan"}, "fusion_lat": 0.0, "name": "1ecb4ef67fa0ce935fb3638b187d1416", "bike_id": "1ecb4ef67fa0ce935fb3638b187d1416", "is_disabled": 0, "type": "electric_bike", "lat": 38.94553766666667, "lon": -76.89540583333333, "is_reserved": 0, "fusion_lon": 0.0}, {"rental_uris": {"ios": "https://dc.lft.to/lastmile_qr_scan", "android": "https://dc.lft.to/lastmile_qr_scan"}, "fusion_lat": 0.0, "name": "08c68cc5436ae81ecdf79916ff26ea20", "bike_id": "08c68cc5436ae81ecdf79916ff26ea20", "is_disabled": 0, "type": "electric_scooter", "lat": 38.907334666666664, "lon": -77.02587416666667, "is_reserved": 0, "fusion_lon": 0.0}, {"rental_uris": {"ios": "https://dc.lft.to/lastmile_qr_scan", "android": "https://dc.lft.to/lastmile_qr_scan"}, "fusion_lat": 0.0, "name": "3a0eeef779b0f8aff0d5601f4b872b24", "bike_id": "3a0eeef779b0f8aff0d5601f4b872b24", "is_disabled": 0, "type": "electric_scooter", "lat": 38.932470333333335, "lon": -77.0297475, "is_reserved": 0, "fusion_lon": 0.0}, {"rental_uris": {"ios": "https://dc.lft.to/lastmile_qr_scan", "android": "https://dc.lft.to/lastmile_qr_scan"}, "fusion_lat": 0.0, "name": "f65170c84ddbb8fa33ca45db7a5709f1", "bike_id": "f65170c84ddbb8fa33ca45db7a5709f1", "is_disabled": 0, "type": "electric_scooter", "lat": 38.911117833333336, "lon": -77.044657, "is_reserved": 0, "fusion_lon": 0.0}, {"rental_uris": {"ios": "https://dc.lft.to/lastmile_qr_scan", "android": "https://dc.lft.to/lastmile_qr_scan"}, "fusion_lat": 0.0, "name": "0e4e859ef83eade8d8fb6a34f4708fbf", "bike_id": "0e4e859ef83eade8d8fb6a34f4708fbf", "is_disabled": 0, "type": "electric_scooter", "lat": 38.85194083333333, "lon": -76.976334, "is_reserved": 0, "fusion_lon": 0.0}, {"rental_uris": {"ios": "https://dc.lft.to/lastmile_qr_scan", "android": "https://dc.lft.to/lastmile_qr_scan"}, "fusion_lat": 0.0, "name": "5e92c68ad97bfa518137ed976698aea0", "bike_id": "5e92c68ad97bfa518137ed976698aea0", "is_disabled": 0, "type": "electric_scooter", "lat": 38.900149666666664, "lon": -77.04885733333333, "is_reserved": 0, "fusion_lon": 0.0}, {"rental_uris": {"ios": "https://dc.lft.to/lastmile_qr_scan", "android": "https://dc.lft.to/lastmile_qr_scan"}, "fusion_lat": 0.0, "name": "d601b439349029706d8bd4ca7253ae4e", "bike_id": "d601b439349029706d8bd4ca7253ae4e", "is_disabled": 0, "type": "electric_scooter", "lat": 38.9126415, "lon": -77.04552883333334, "is_reserved": 0, "fusion_lon": 0.0}, {"rental_uris": {"ios": "https://dc.lft.to/lastmile_qr_scan", "android": "https://dc.lft.to/lastmile_qr_scan"}, "fusion_lat": 0.0, "name": "89bc0fb5038f87ab40f9201e0b968840", "bike_id": "89bc0fb5038f87ab40f9201e0b968840", "is_disabled": 0, "type": "electric_scooter", "lat": 38.933292333333334, "lon": -77.04382766666667, "is_reserved": 0, "fusion_lon": 0.0}, {"rental_uris": {"ios": "https://dc.lft.to/lastmile_qr_scan", "android": "https://dc.lft.to/lastmile_qr_scan"}, "fusion_lat": 0.0, "name": "e516481b8c41f6366fb726d6204ac973", "bike_id": "e516481b8c41f6366fb726d6204ac973", "is_disabled": 0, "type": "electric_bike", "lat": 38.85221083333333, "lon": -77.129594, "is_reserved": 0, "fusion_lon": 0.0}, {"rental_uris": {"ios": "https://dc.lft.to/lastmile_qr_scan", "android": "https://dc.lft.to/lastmile_qr_scan"}, "fusion_lat": 0.0, "name": "459d2bcc39d98b6cc6555034802c0500", "bike_id": "459d2bcc39d98b6cc6555034802c0500", "is_disabled": 0, "type": "electric_bike", "lat": 38.8980455, "lon": -76.99070016666667, "is_reserved": 0, "fusion_lon": 0.0}, {"rental_uris": {"ios": "https://dc.lft.to/lastmile_qr_scan", "android": "https://dc.lft.to/lastmile_qr_scan"}, "fusion_lat": 0.0, "name": "25dff0a58244cc3a2bc2ed0401fa2e62", "bike_id": "25dff0a58244cc3a2bc2ed0401fa2e62", "is_disabled": 0, "type": "electric_scooter", "lat": 38.90976666666667, "lon": -77.03188533333334, "is_reserved": 0, "fusion_lon": 0.0}, {"rental_uris": {"ios": "https://dc.lft.to/lastmile_qr_scan", "android": "https://dc.lft.to/lastmile_qr_scan"}, "fusion_lat": 0.0, "name": "0e972f2d7057e5bb3d4089f42c357767", "bike_id": "0e972f2d7057e5bb3d4089f42c357767", "is_disabled": 0, "type": "electric_scooter", "lat": 38.89827566666666, "lon": -77.0240065, "is_reserved": 0, "fusion_lon": 0.0}, {"rental_uris": {"ios": "https://dc.lft.to/lastmile_qr_scan", "android": "https://dc.lft.to/lastmile_qr_scan"}, "fusion_lat": 0.0, "name": "e81443d959eeb889a1b62a2ac92cfaa7", "bike_id": "e81443d959eeb889a1b62a2ac92cfaa7", "is_disabled": 0, "type": "electric_scooter", "lat": 38.892181666666666, "lon": -77.02626283333333, "is_reserved": 0, "fusion_lon": 0.0}, {"rental_uris": {"ios": "https://dc.lft.to/lastmile_qr_scan", "android": "https://dc.lft.to/lastmile_qr_scan"}, "fusion_lat": 0.0, "name": "6c0b6ed900792757368f5bd24688bd8d", "bike_id": "6c0b6ed900792757368f5bd24688bd8d", "is_disabled": 0, "type": "electric_scooter", "lat": 38.8762145, "lon": -77.014637, "is_reserved": 0, "fusion_lon": 0.0}, {"rental_uris": {"ios": "https://dc.lft.to/lastmile_qr_scan", "android": "https://dc.lft.to/lastmile_qr_scan"}, "fusion_lat": 0.0, "name": "a9c61d4ab15946323399e39ae25cdba1", "bike_id": "a9c61d4ab15946323399e39ae25cdba1", "is_disabled": 0, "type": "electric_scooter", "lat": 38.9170925, "lon": -77.03673616666667, "is_reserved": 0, "fusion_lon": 0.0}, {"rental_uris": {"ios": "https://dc.lft.to/lastmile_qr_scan", "android": "https://dc.lft.to/lastmile_qr_scan"}, "fusion_lat": 0.0, "name": "c7db54e255104df0d4c1c6a6e2d16cb9", "bike_id": "c7db54e255104df0d4c1c6a6e2d16cb9", "is_disabled": 0, "type": "electric_bike", "lat": 38.86594933333333, "lon": -76.9322835, "is_reserved": 0, "fusion_lon": 0.0}, {"rental_uris": {"ios": "https://dc.lft.to/lastmile_qr_scan", "android": "https://dc.lft.to/lastmile_qr_scan"}, "fusion_lat": 0.0, "name": "61b12daf349044a47bb2963e402cacbb", "bike_id": "61b12daf349044a47bb2963e402cacbb", "is_disabled": 0, "type": "electric_scooter", "lat": 38.915650666666664, "lon": -77.01198166666667, "is_reserved": 0, "fusion_lon": 0.0}, {"rental_uris": {"ios": "https://dc.lft.to/lastmile_qr_scan", "android": "https://dc.lft.to/lastmile_qr_scan"}, "fusion_lat": 0.0, "name": "9bf2aa2eb2a962e59b1526cfcc41d1b2", "bike_id": "9bf2aa2eb2a962e59b1526cfcc41d1b2", "is_disabled": 0, "type": "electric_bike", "lat": 38.953550666666665, "lon": -76.9809005, "is_reserved": 0, "fusion_lon": 0.0}, {"rental_uris": {"ios": "https://dc.lft.to/lastmile_qr_scan", "android": "https://dc.lft.to/lastmile_qr_scan"}, "fusion_lat": 0.0, "name": "671539fc63f42c1bf807e095941f37c9", "bike_id": "671539fc63f42c1bf807e095941f37c9", "is_disabled": 0, "type": "electric_scooter", "lat": 38.90997766666667, "lon": -77.04010683333334, "is_reserved": 0, "fusion_lon": 0.0}, {"rental_uris": {"ios": "https://dc.lft.to/lastmile_qr_scan", "android": "https://dc.lft.to/lastmile_qr_scan"}, "fusion_lat": 0.0, "name": "49bd4e0b489e92d4b60588e9173264a7", "bike_id": "49bd4e0b489e92d4b60588e9173264a7", "is_disabled": 0, "type": "electric_scooter", "lat": 38.91694833333333, "lon": -77.03956566666666, "is_reserved": 0, "fusion_lon": 0.0}, {"rental_uris": {"ios": "https://dc.lft.to/lastmile_qr_scan", "android": "https://dc.lft.to/lastmile_qr_scan"}, "fusion_lat": 0.0, "name": "aef22386c587f6e869d835a89b884891", "bike_id": "aef22386c587f6e869d835a89b884891", "is_disabled": 0, "type": "electric_bike", "lat": 38.806636833333336, "lon": -77.060652, "is_reserved": 0, "fusion_lon": 0.0}, {"rental_uris": {"ios": "https://dc.lft.to/lastmile_qr_scan", "android": "https://dc.lft.to/lastmile_qr_scan"}, "fusion_lat": 0.0, "name": "fe001d68620e8aa3be7c82df3eb25705", "bike_id": "fe001d68620e8aa3be7c82df3eb25705", "is_disabled": 0, "type": "electric_scooter", "lat": 38.86522033333333, "lon": -76.990291, "is_reserved": 0, "fusion_lon": 0.0}, {"rental_uris": {"ios": "https://dc.lft.to/lastmile_qr_scan", "android": "https://dc.lft.to/lastmile_qr_scan"}, "fusion_lat": 0.0, "name": "1eec6ed3fff4dd097cce06a4ab0eacbe", "bike_id": "1eec6ed3fff4dd097cce06a4ab0eacbe", "is_disabled": 0, "type": "electric_scooter", "lat": 38.924506666666666, "lon": -77.04013483333334, "is_reserved": 0, "fusion_lon": 0.0}, {"rental_uris": {"ios": "https://dc.lft.to/lastmile_qr_scan", "android": "https://dc.lft.to/lastmile_qr_scan"}, "fusion_lat": 0.0, "name": "4b3516df343b9c0c43f27e5cbf9ef0c8", "bike_id": "4b3516df343b9c0c43f27e5cbf9ef0c8", "is_disabled": 0, "type": "electric_scooter", "lat": 38.9025935, "lon": -77.0274025, "is_reserved": 0, "fusion_lon": 0.0}, {"rental_uris": {"ios": "https://dc.lft.to/lastmile_qr_scan", "android": "https://dc.lft.to/lastmile_qr_scan"}, "fusion_lat": 0.0, "name": "67b6a48109cf7c1e49c35a78967bd18b", "bike_id": "67b6a48109cf7c1e49c35a78967bd18b", "is_disabled": 0, "type": "electric_scooter", "lat": 38.906704, "lon": -77.0502015, "is_reserved": 0, "fusion_lon": 0.0}, {"rental_uris": {"ios": "https://dc.lft.to/lastmile_qr_scan", "android": "https://dc.lft.to/lastmile_qr_scan"}, "fusion_lat": 0.0, "name": "885489540fde1748919b390f6068bda6", "bike_id": "885489540fde1748919b390f6068bda6", "is_disabled": 0, "type": "electric_scooter", "lat": 38.91034116666667, "lon": -77.038675, "is_reserved": 0, "fusion_lon": 0.0}, {"rental_uris": {"ios": "https://dc.lft.to/lastmile_qr_scan", "android": "https://dc.lft.to/lastmile_qr_scan"}, "fusion_lat": 0.0, "name": "991377869c365cbf0a0bb41599ae14bf", "bike_id": "991377869c365cbf0a0bb41599ae14bf", "is_disabled": 0, "type": "electric_scooter", "lat": 38.912713833333335, "lon": -77.04484416666666, "is_reserved": 0, "fusion_lon": 0.0}, {"rental_uris": {"ios": "https://dc.lft.to/lastmile_qr_scan", "android": "https://dc.lft.to/lastmile_qr_scan"}, "fusion_lat": 0.0, "name": "c3157c0dbc5a37f57413448d14f588ad", "bike_id": "c3157c0dbc5a37f57413448d14f588ad", "is_disabled": 0, "type": "electric_scooter", "lat": 38.887289333333335, "lon": -77.02823533333333, "is_reserved": 0, "fusion_lon": 0.0}, {"rental_uris": {"ios": "https://dc.lft.to/lastmile_qr_scan", "android": "https://dc.lft.to/lastmile_qr_scan"}, "fusion_lat": 0.0, "name": "72ecb3e08c3edd7202171ed63a0c0108", "bike_id": "72ecb3e08c3edd7202171ed63a0c0108", "is_disabled": 0, "type": "electric_scooter", "lat": 38.88143266666667, "lon": -77.01762666666667, "is_reserved": 0, "fusion_lon": 0.0}, {"rental_uris": {"ios": "https://dc.lft.to/lastmile_qr_scan", "android": "https://dc.lft.to/lastmile_qr_scan"}, "fusion_lat": 0.0, "name": "8482550a10c8d300ad834d0480daf04a", "bike_id": "8482550a10c8d300ad834d0480daf04a", "is_disabled": 0, "type": "electric_scooter", "lat": 38.91175416666667, "lon": -77.03850966666667, "is_reserved": 0, "fusion_lon": 0.0}, {"rental_uris": {"ios": "https://dc.lft.to/lastmile_qr_scan", "android": "https://dc.lft.to/lastmile_qr_scan"}, "fusion_lat": 0.0, "name": "10726ad7dc0378ac2e53a253a254335c", "bike_id": "10726ad7dc0378ac2e53a253a254335c", "is_disabled": 0, "type": "electric_scooter", "lat": 38.91545416666666, "lon": -76.9852225, "is_reserved": 0, "fusion_lon": 0.0}, {"rental_uris": {"ios": "https://dc.lft.to/lastmile_qr_scan", "android": "https://dc.lft.to/lastmile_qr_scan"}, "fusion_lat": 0.0, "name": "30ad7d5c271ceb70d6035a6ced60d380", "bike_id": "30ad7d5c271ceb70d6035a6ced60d380", "is_disabled": 0, "type": "electric_scooter", "lat": 38.8922355, "lon": -77.0464815, "is_reserved": 0, "fusion_lon": 0.0}, {"rental_uris": {"ios": "https://dc.lft.to/lastmile_qr_scan", "android": "https://dc.lft.to/lastmile_qr_scan"}, "fusion_lat": 0.0, "name": "203bd7da5b8700f786d6b1458448d165", "bike_id": "203bd7da5b8700f786d6b1458448d165", "is_disabled": 0, "type": "electric_scooter", "lat": 38.909600166666664, "lon": -77.04621283333333, "is_reserved": 0, "fusion_lon": 0.0}, {"rental_uris": {"ios": "https://dc.lft.to/lastmile_qr_scan", "android": "https://dc.lft.to/lastmile_qr_scan"}, "fusion_lat": 0.0, "name": "f1290f8eca8986e64435c0e020d001e0", "bike_id": "f1290f8eca8986e64435c0e020d001e0", "is_disabled": 0, "type": "electric_scooter", "lat": 38.92474566666667, "lon": -77.03915316666667, "is_reserved": 0, "fusion_lon": 0.0}, {"rental_uris": {"ios": "https://dc.lft.to/lastmile_qr_scan", "android": "https://dc.lft.to/lastmile_qr_scan"}, "fusion_lat": 0.0, "name": "76c4c61b136678d79b581b7ad90f4c6c", "bike_id": "76c4c61b136678d79b581b7ad90f4c6c", "is_disabled": 0, "type": "electric_scooter", "lat": 38.89224866666667, "lon": -77.0489475, "is_reserved": 0, "fusion_lon": 0.0}, {"rental_uris": {"ios": "https://dc.lft.to/lastmile_qr_scan", "android": "https://dc.lft.to/lastmile_qr_scan"}, "fusion_lat": 0.0, "name": "9b6decee4b9b4bd031a85f7111e44366", "bike_id": "9b6decee4b9b4bd031a85f7111e44366", "is_disabled": 0, "type": "electric_scooter", "lat": 38.89606533333333, "lon": -77.05470083333333, "is_reserved": 0, "fusion_lon": 0.0}, {"rental_uris": {"ios": "https://dc.lft.to/lastmile_qr_scan", "android": "https://dc.lft.to/lastmile_qr_scan"}, "fusion_lat": 0.0, "name": "6bf2b52a81f9fda24f037d8d4b25854b", "bike_id": "6bf2b52a81f9fda24f037d8d4b25854b", "is_disabled": 0, "type": "electric_scooter", "lat": 38.924184833333335, "lon": -77.02277333333333, "is_reserved": 0, "fusion_lon": 0.0}, {"rental_uris": {"ios": "https://dc.lft.to/lastmile_qr_scan", "android": "https://dc.lft.to/lastmile_qr_scan"}, "fusion_lat": 0.0, "name": "d40679851b332b1fd62fbc7fdae1fb3e", "bike_id": "d40679851b332b1fd62fbc7fdae1fb3e", "is_disabled": 0, "type": "electric_scooter", "lat": 38.862405333333335, "lon": -76.9949435, "is_reserved": 0, "fusion_lon": 0.0}, {"rental_uris": {"ios": "https://dc.lft.to/lastmile_qr_scan", "android": "https://dc.lft.to/lastmile_qr_scan"}, "fusion_lat": 0.0, "name": "54396a594eebfecd99894abcec1bf3ea", "bike_id": "54396a594eebfecd99894abcec1bf3ea", "is_disabled": 0, "type": "electric_scooter", "lat": 38.924223, "lon": -77.025583, "is_reserved": 0, "fusion_lon": 0.0}, {"rental_uris": {"ios": "https://dc.lft.to/lastmile_qr_scan", "android": "https://dc.lft.to/lastmile_qr_scan"}, "fusion_lat": 0.0, "name": "c3ae89b13acf24f3ea1bd532e0880036", "bike_id": "c3ae89b13acf24f3ea1bd532e0880036", "is_disabled": 0, "type": "electric_scooter", "lat": 38.92458716666667, "lon": -77.0575695, "is_reserved": 0, "fusion_lon": 0.0}, {"rental_uris": {"ios": "https://dc.lft.to/lastmile_qr_scan", "android": "https://dc.lft.to/lastmile_qr_scan"}, "fusion_lat": 0.0, "name": "f03324f1dd6c327d59537264ab55fde5", "bike_id": "f03324f1dd6c327d59537264ab55fde5", "is_disabled": 0, "type": "electric_bike", "lat": 38.90163183333333, "lon": -77.05062416666667, "is_reserved": 0, "fusion_lon": 0.0}, {"rental_uris": {"ios": "https://dc.lft.to/lastmile_qr_scan", "android": "https://dc.lft.to/lastmile_qr_scan"}, "fusion_lat": 0.0, "name": "7164187663ae30ab646d9ad0df6cef36", "bike_id": "7164187663ae30ab646d9ad0df6cef36", "is_disabled": 0, "type": "electric_scooter", "lat": 38.85173116666667, "lon": -76.995765, "is_reserved": 0, "fusion_lon": 0.0}, {"rental_uris": {"ios": "https://dc.lft.to/lastmile_qr_scan", "android": "https://dc.lft.to/lastmile_qr_scan"}, "fusion_lat": 0.0, "name": "b1afec520d6ffd09d38ca1c3e8a5a046", "bike_id": "b1afec520d6ffd09d38ca1c3e8a5a046", "is_disabled": 0, "type": "electric_scooter", "lat": 38.90057083333333, "lon": -77.007633, "is_reserved": 0, "fusion_lon": 0.0}, {"rental_uris": {"ios": "https://dc.lft.to/lastmile_qr_scan", "android": "https://dc.lft.to/lastmile_qr_scan"}, "fusion_lat": 0.0, "name": "9ef9568a1cc186957a4ec69716b46424", "bike_id": "9ef9568a1cc186957a4ec69716b46424", "is_disabled": 0, "type": "electric_scooter", "lat": 38.892278833333336, "lon": -77.050042, "is_reserved": 0, "fusion_lon": 0.0}, {"rental_uris": {"ios": "https://dc.lft.to/lastmile_qr_scan", "android": "https://dc.lft.to/lastmile_qr_scan"}, "fusion_lat": 0.0, "name": "58a98a79178bc967f61a6f619a371d02", "bike_id": "58a98a79178bc967f61a6f619a371d02", "is_disabled": 0, "type": "electric_scooter", "lat": 38.913282, "lon": -77.03182766666667, "is_reserved": 0, "fusion_lon": 0.0}, {"rental_uris": {"ios": "https://dc.lft.to/lastmile_qr_scan", "android": "https://dc.lft.to/lastmile_qr_scan"}, "fusion_lat": 0.0, "name": "7fb8da09cf599c850d98994934a43a13", "bike_id": "7fb8da09cf599c850d98994934a43a13", "is_disabled": 0, "type": "electric_scooter", "lat": 38.92816033333333, "lon": -77.02875516666667, "is_reserved": 0, "fusion_lon": 0.0}, {"rental_uris": {"ios": "https://dc.lft.to/lastmile_qr_scan", "android": "https://dc.lft.to/lastmile_qr_scan"}, "fusion_lat": 0.0, "name": "2f984bbfdcca236212bfd7a55f2826fd", "bike_id": "2f984bbfdcca236212bfd7a55f2826fd", "is_disabled": 0, "type": "electric_scooter", "lat": 38.86652133333333, "lon": -76.985198, "is_reserved": 0, "fusion_lon": 0.0}, {"rental_uris": {"ios": "https://dc.lft.to/lastmile_qr_scan", "android": "https://dc.lft.to/lastmile_qr_scan"}, "fusion_lat": 0.0, "name": "84ec8264b7b2875e127c12ed27d97ae9", "bike_id": "84ec8264b7b2875e127c12ed27d97ae9", "is_disabled": 0, "type": "electric_scooter", "lat": 38.91870616666667, "lon": -77.03573816666666, "is_reserved": 0, "fusion_lon": 0.0}, {"rental_uris": {"ios": "https://dc.lft.to/lastmile_qr_scan", "android": "https://dc.lft.to/lastmile_qr_scan"}, "fusion_lat": 0.0, "name": "ec0e726f6f2e77d102bc66ccb360e9d0", "bike_id": "ec0e726f6f2e77d102bc66ccb360e9d0", "is_disabled": 0, "type": "electric_scooter", "lat": 38.90827616666667, "lon": -77.04464333333334, "is_reserved": 0, "fusion_lon": 0.0}, {"rental_uris": {"ios": "https://dc.lft.to/lastmile_qr_scan", "android": "https://dc.lft.to/lastmile_qr_scan"}, "fusion_lat": 0.0, "name": "81a90ed97284975842ba99e497280769", "bike_id": "81a90ed97284975842ba99e497280769", "is_disabled": 0, "type": "electric_scooter", "lat": 38.928588500000004, "lon": -77.0309455, "is_reserved": 0, "fusion_lon": 0.0}, {"rental_uris": {"ios": "https://dc.lft.to/lastmile_qr_scan", "android": "https://dc.lft.to/lastmile_qr_scan"}, "fusion_lat": 0.0, "name": "41ec2a78079a8b42d084c718f577158f", "bike_id": "41ec2a78079a8b42d084c718f577158f", "is_disabled": 0, "type": "electric_scooter", "lat": 38.907502666666666, "lon": -77.00096483333333, "is_reserved": 0, "fusion_lon": 0.0}, {"rental_uris": {"ios": "https://dc.lft.to/lastmile_qr_scan", "android": "https://dc.lft.to/lastmile_qr_scan"}, "fusion_lat": 0.0, "name": "477b3840bcf77cc7c55f2845eb12eed0", "bike_id": "477b3840bcf77cc7c55f2845eb12eed0", "is_disabled": 0, "type": "electric_bike", "lat": 38.862073, "lon": -76.9978255, "is_reserved": 0, "fusion_lon": 0.0}, {"rental_uris": {"ios": "https://dc.lft.to/lastmile_qr_scan", "android": "https://dc.lft.to/lastmile_qr_scan"}, "fusion_lat": 0.0, "name": "7e6da1f589c6c28d802a791683120683", "bike_id": "7e6da1f589c6c28d802a791683120683", "is_disabled": 0, "type": "electric_scooter", "lat": 38.89880466666666, "lon": -76.93181116666666, "is_reserved": 0, "fusion_lon": 0.0}, {"rental_uris": {"ios": "https://dc.lft.to/lastmile_qr_scan", "android": "https://dc.lft.to/lastmile_qr_scan"}, "fusion_lat": 0.0, "name": "31794fe2ad096594efdc6c7a0b590289", "bike_id": "31794fe2ad096594efdc6c7a0b590289", "is_disabled": 0, "type": "electric_scooter", "lat": 38.954215, "lon": -77.02769733333334, "is_reserved": 0, "fusion_lon": 0.0}, {"rental_uris": {"ios": "https://dc.lft.to/lastmile_qr_scan", "android": "https://dc.lft.to/lastmile_qr_scan"}, "fusion_lat": 0.0, "name": "fa9657db29755ed323f9c0cf5abb8ee2", "bike_id": "fa9657db29755ed323f9c0cf5abb8ee2", "is_disabled": 0, "type": "electric_scooter", "lat": 38.886594833333334, "lon": -77.01361383333334, "is_reserved": 0, "fusion_lon": 0.0}, {"rental_uris": {"ios": "https://dc.lft.to/lastmile_qr_scan", "android": "https://dc.lft.to/lastmile_qr_scan"}, "fusion_lat": 0.0, "name": "a8f75db89488b9b379d600a3d310ab38", "bike_id": "a8f75db89488b9b379d600a3d310ab38", "is_disabled": 0, "type": "electric_scooter", "lat": 38.92384966666667, "lon": -77.0575515, "is_reserved": 0, "fusion_lon": 0.0}, {"rental_uris": {"ios": "https://dc.lft.to/lastmile_qr_scan", "android": "https://dc.lft.to/lastmile_qr_scan"}, "fusion_lat": 0.0, "name": "cc7664fee58bb3a21599c6f5bcf76386", "bike_id": "cc7664fee58bb3a21599c6f5bcf76386", "is_disabled": 0, "type": "electric_bike", "lat": 38.962276333333335, "lon": -77.02628716666666, "is_reserved": 0, "fusion_lon": 0.0}, {"rental_uris": {"ios": "https://dc.lft.to/lastmile_qr_scan", "android": "https://dc.lft.to/lastmile_qr_scan"}, "fusion_lat": 0.0, "name": "9470d0c1fd4dc64674ea47bfe245472d", "bike_id": "9470d0c1fd4dc64674ea47bfe245472d", "is_disabled": 0, "type": "electric_scooter", "lat": 38.89368783333333, "lon": -77.047852, "is_reserved": 0, "fusion_lon": 0.0}, {"rental_uris": {"ios": "https://dc.lft.to/lastmile_qr_scan", "android": "https://dc.lft.to/lastmile_qr_scan"}, "fusion_lat": 0.0, "name": "f37f04804d89a54da7ebaf6381294f66", "bike_id": "f37f04804d89a54da7ebaf6381294f66", "is_disabled": 0, "type": "electric_scooter", "lat": 38.918640833333335, "lon": -77.04039916666666, "is_reserved": 0, "fusion_lon": 0.0}, {"rental_uris": {"ios": "https://dc.lft.to/lastmile_qr_scan", "android": "https://dc.lft.to/lastmile_qr_scan"}, "fusion_lat": 0.0, "name": "81d492a83c1e828f5166ed2fd9496ecf", "bike_id": "81d492a83c1e828f5166ed2fd9496ecf", "is_disabled": 0, "type": "electric_scooter", "lat": 38.942894833333334, "lon": -77.02172266666666, "is_reserved": 0, "fusion_lon": 0.0}, {"rental_uris": {"ios": "https://dc.lft.to/lastmile_qr_scan", "android": "https://dc.lft.to/lastmile_qr_scan"}, "fusion_lat": 0.0, "name": "26ca8339b4992d8499289d64058bc26d", "bike_id": "26ca8339b4992d8499289d64058bc26d", "is_disabled": 0, "type": "electric_scooter", "lat": 38.910134, "lon": -77.03849633333333, "is_reserved": 0, "fusion_lon": 0.0}, {"rental_uris": {"ios": "https://dc.lft.to/lastmile_qr_scan", "android": "https://dc.lft.to/lastmile_qr_scan"}, "fusion_lat": 0.0, "name": "ed2c50761d30361db6216b02b8700dbd", "bike_id": "ed2c50761d30361db6216b02b8700dbd", "is_disabled": 0, "type": "electric_scooter", "lat": 38.87625533333333, "lon": -76.96529066666666, "is_reserved": 0, "fusion_lon": 0.0}, {"rental_uris": {"ios": "https://dc.lft.to/lastmile_qr_scan", "android": "https://dc.lft.to/lastmile_qr_scan"}, "fusion_lat": 0.0, "name": "50d3eb34572d8e75cf2176522c7271fd", "bike_id": "50d3eb34572d8e75cf2176522c7271fd", "is_disabled": 0, "type": "electric_scooter", "lat": 38.90639566666667, "lon": -77.00590716666666, "is_reserved": 0, "fusion_lon": 0.0}, {"rental_uris": {"ios": "https://dc.lft.to/lastmile_qr_scan", "android": "https://dc.lft.to/lastmile_qr_scan"}, "fusion_lat": 0.0, "name": "d616685dd742086d8a857abc18023b50", "bike_id": "d616685dd742086d8a857abc18023b50", "is_disabled": 0, "type": "electric_scooter", "lat": 38.89337783333333, "lon": -76.931419, "is_reserved": 0, "fusion_lon": 0.0}, {"rental_uris": {"ios": "https://dc.lft.to/lastmile_qr_scan", "android": "https://dc.lft.to/lastmile_qr_scan"}, "fusion_lat": 0.0, "name": "e81ed23a7cb9919f38835bbe42414e32", "bike_id": "e81ed23a7cb9919f38835bbe42414e32", "is_disabled": 0, "type": "electric_scooter", "lat": 38.91169266666667, "lon": -77.03191083333333, "is_reserved": 0, "fusion_lon": 0.0}, {"rental_uris": {"ios": "https://dc.lft.to/lastmile_qr_scan", "android": "https://dc.lft.to/lastmile_qr_scan"}, "fusion_lat": 0.0, "name": "7fad68377ebe34787b0e941f7ffbb801", "bike_id": "7fad68377ebe34787b0e941f7ffbb801", "is_disabled": 0, "type": "electric_scooter", "lat": 38.908808, "lon": -77.005759, "is_reserved": 0, "fusion_lon": 0.0}, {"rental_uris": {"ios": "https://dc.lft.to/lastmile_qr_scan", "android": "https://dc.lft.to/lastmile_qr_scan"}, "fusion_lat": 0.0, "name": "73b788cfa070867b2153abeffd1126f8", "bike_id": "73b788cfa070867b2153abeffd1126f8", "is_disabled": 0, "type": "electric_scooter", "lat": 38.85446316666667, "lon": -76.9857915, "is_reserved": 0, "fusion_lon": 0.0}, {"rental_uris": {"ios": "https://dc.lft.to/lastmile_qr_scan", "android": "https://dc.lft.to/lastmile_qr_scan"}, "fusion_lat": 0.0, "name": "6a10b402ed404c1e007a14e46eade0d9", "bike_id": "6a10b402ed404c1e007a14e46eade0d9", "is_disabled": 0, "type": "electric_scooter", "lat": 38.90208483333333, "lon": -77.02318166666667, "is_reserved": 0, "fusion_lon": 0.0}, {"rental_uris": {"ios": "https://dc.lft.to/lastmile_qr_scan", "android": "https://dc.lft.to/lastmile_qr_scan"}, "fusion_lat": 0.0, "name": "e9d9a54999597836d9f6ec7c1f75c405", "bike_id": "e9d9a54999597836d9f6ec7c1f75c405", "is_disabled": 0, "type": "electric_bike", "lat": 38.96930533333333, "lon": -77.03338483333333, "is_reserved": 0, "fusion_lon": 0.0}, {"rental_uris": {"ios": "https://dc.lft.to/lastmile_qr_scan", "android": "https://dc.lft.to/lastmile_qr_scan"}, "fusion_lat": 0.0, "name": "8719bc51aaa15272ec7ba25d0949ea8f", "bike_id": "8719bc51aaa15272ec7ba25d0949ea8f", "is_disabled": 0, "type": "electric_scooter", "lat": 38.92421433333333, "lon": -77.02012083333334, "is_reserved": 0, "fusion_lon": 0.0}, {"rental_uris": {"ios": "https://dc.lft.to/lastmile_qr_scan", "android": "https://dc.lft.to/lastmile_qr_scan"}, "fusion_lat": 0.0, "name": "9faac3a3f4a272211595438a3b832b87", "bike_id": "9faac3a3f4a272211595438a3b832b87", "is_disabled": 0, "type": "electric_scooter", "lat": 38.92247366666667, "lon": -77.03666216666667, "is_reserved": 0, "fusion_lon": 0.0}, {"rental_uris": {"ios": "https://dc.lft.to/lastmile_qr_scan", "android": "https://dc.lft.to/lastmile_qr_scan"}, "fusion_lat": 0.0, "name": "f515a57564d6aed0888b45520ae49577", "bike_id": "f515a57564d6aed0888b45520ae49577", "is_disabled": 0, "type": "electric_scooter", "lat": 38.923762333333336, "lon": -77.02558016666667, "is_reserved": 0, "fusion_lon": 0.0}, {"rental_uris": {"ios": "https://dc.lft.to/lastmile_qr_scan", "android": "https://dc.lft.to/lastmile_qr_scan"}, "fusion_lat": 0.0, "name": "19d22c0eddff0c59251480a1b6aab4d2", "bike_id": "19d22c0eddff0c59251480a1b6aab4d2", "is_disabled": 0, "type": "electric_scooter", "lat": 38.90276016666667, "lon": -77.05808016666667, "is_reserved": 0, "fusion_lon": 0.0}, {"rental_uris": {"ios": "https://dc.lft.to/lastmile_qr_scan", "android": "https://dc.lft.to/lastmile_qr_scan"}, "fusion_lat": 0.0, "name": "a855b6254fc84cb95afa4742e1578870", "bike_id": "a855b6254fc84cb95afa4742e1578870", "is_disabled": 0, "type": "electric_scooter", "lat": 38.924431, "lon": -77.04029183333333, "is_reserved": 0, "fusion_lon": 0.0}, {"rental_uris": {"ios": "https://dc.lft.to/lastmile_qr_scan", "android": "https://dc.lft.to/lastmile_qr_scan"}, "fusion_lat": 0.0, "name": "c654d8d9c25a2ac8ee87eb0ade90fbab", "bike_id": "c654d8d9c25a2ac8ee87eb0ade90fbab", "is_disabled": 0, "type": "electric_scooter", "lat": 38.90342233333333, "lon": -77.01095933333333, "is_reserved": 0, "fusion_lon": 0.0}, {"rental_uris": {"ios": "https://dc.lft.to/lastmile_qr_scan", "android": "https://dc.lft.to/lastmile_qr_scan"}, "fusion_lat": 0.0, "name": "68f3c7bcfa546a802901951e7ed33017", "bike_id": "68f3c7bcfa546a802901951e7ed33017", "is_disabled": 0, "type": "electric_scooter", "lat": 38.90392533333333, "lon": -76.98093916666667, "is_reserved": 0, "fusion_lon": 0.0}, {"rental_uris": {"ios": "https://dc.lft.to/lastmile_qr_scan", "android": "https://dc.lft.to/lastmile_qr_scan"}, "fusion_lat": 0.0, "name": "e8918a488aded384415167d26164beb0", "bike_id": "e8918a488aded384415167d26164beb0", "is_disabled": 0, "type": "electric_scooter", "lat": 38.89040266666667, "lon": -76.937624, "is_reserved": 0, "fusion_lon": 0.0}, {"rental_uris": {"ios": "https://dc.lft.to/lastmile_qr_scan", "android": "https://dc.lft.to/lastmile_qr_scan"}, "fusion_lat": 0.0, "name": "f63c594487cfca536b85396227d9799c", "bike_id": "f63c594487cfca536b85396227d9799c", "is_disabled": 0, "type": "electric_scooter", "lat": 38.904469666666664, "lon": -77.03246783333333, "is_reserved": 0, "fusion_lon": 0.0}, {"rental_uris": {"ios": "https://dc.lft.to/lastmile_qr_scan", "android": "https://dc.lft.to/lastmile_qr_scan"}, "fusion_lat": 0.0, "name": "1758217949660d78eb8982a9684f5ac6", "bike_id": "1758217949660d78eb8982a9684f5ac6", "is_disabled": 0, "type": "electric_bike", "lat": 38.8402875, "lon": -76.97581533333333, "is_reserved": 0, "fusion_lon": 0.0}, {"rental_uris": {"ios": "https://dc.lft.to/lastmile_qr_scan", "android": "https://dc.lft.to/lastmile_qr_scan"}, "fusion_lat": 0.0, "name": "f40e02436b1473fe51a35c3bef3f574a", "bike_id": "f40e02436b1473fe51a35c3bef3f574a", "is_disabled": 0, "type": "electric_scooter", "lat": 38.90068433333333, "lon": -77.027133, "is_reserved": 0, "fusion_lon": 0.0}, {"rental_uris": {"ios": "https://dc.lft.to/lastmile_qr_scan", "android": "https://dc.lft.to/lastmile_qr_scan"}, "fusion_lat": 0.0, "name": "c46e3877748d1d2c739adb7e71751c42", "bike_id": "c46e3877748d1d2c739adb7e71751c42", "is_disabled": 0, "type": "electric_scooter", "lat": 38.935292833333335, "lon": -77.07289666666667, "is_reserved": 0, "fusion_lon": 0.0}, {"rental_uris": {"ios": "https://dc.lft.to/lastmile_qr_scan", "android": "https://dc.lft.to/lastmile_qr_scan"}, "fusion_lat": 0.0, "name": "b551bc0a6315b48b07f1ff2a36b8b656", "bike_id": "b551bc0a6315b48b07f1ff2a36b8b656", "is_disabled": 0, "type": "electric_scooter", "lat": 38.93884966666667, "lon": -77.02483866666667, "is_reserved": 0, "fusion_lon": 0.0}, {"rental_uris": {"ios": "https://dc.lft.to/lastmile_qr_scan", "android": "https://dc.lft.to/lastmile_qr_scan"}, "fusion_lat": 0.0, "name": "5e22356ce674e25cf6c106110c35084f", "bike_id": "5e22356ce674e25cf6c106110c35084f", "is_disabled": 0, "type": "electric_scooter", "lat": 38.90732716666667, "lon": -77.03448716666666, "is_reserved": 0, "fusion_lon": 0.0}, {"rental_uris": {"ios": "https://dc.lft.to/lastmile_qr_scan", "android": "https://dc.lft.to/lastmile_qr_scan"}, "fusion_lat": 0.0, "name": "f63e3e8a2818b46ee2610fcc56204741", "bike_id": "f63e3e8a2818b46ee2610fcc56204741", "is_disabled": 0, "type": "electric_scooter", "lat": 38.891966833333335, "lon": -77.00310916666666, "is_reserved": 0, "fusion_lon": 0.0}, {"rental_uris": {"ios": "https://dc.lft.to/lastmile_qr_scan", "android": "https://dc.lft.to/lastmile_qr_scan"}, "fusion_lat": 0.0, "name": "07538ec47aa139c211e4e3d86cacc373", "bike_id": "07538ec47aa139c211e4e3d86cacc373", "is_disabled": 0, "type": "electric_scooter", "lat": 38.882518166666664, "lon": -76.99507983333334, "is_reserved": 0, "fusion_lon": 0.0}, {"rental_uris": {"ios": "https://dc.lft.to/lastmile_qr_scan", "android": "https://dc.lft.to/lastmile_qr_scan"}, "fusion_lat": 0.0, "name": "ee7042e4be26ceae8f34c280843cf7e1", "bike_id": "ee7042e4be26ceae8f34c280843cf7e1", "is_disabled": 0, "type": "electric_scooter", "lat": 38.9260095, "lon": -77.03662966666667, "is_reserved": 0, "fusion_lon": 0.0}, {"rental_uris": {"ios": "https://dc.lft.to/lastmile_qr_scan", "android": "https://dc.lft.to/lastmile_qr_scan"}, "fusion_lat": 0.0, "name": "95986d47603a92413ecab23ebfb9accd", "bike_id": "95986d47603a92413ecab23ebfb9accd", "is_disabled": 0, "type": "electric_scooter", "lat": 38.91784033333333, "lon": -77.023416, "is_reserved": 0, "fusion_lon": 0.0}, {"rental_uris": {"ios": "https://dc.lft.to/lastmile_qr_scan", "android": "https://dc.lft.to/lastmile_qr_scan"}, "fusion_lat": 0.0, "name": "828680777acb35e469d257a41591a8c8", "bike_id": "828680777acb35e469d257a41591a8c8", "is_disabled": 0, "type": "electric_scooter", "lat": 38.900976666666665, "lon": -76.98009516666667, "is_reserved": 0, "fusion_lon": 0.0}, {"rental_uris": {"ios": "https://dc.lft.to/lastmile_qr_scan", "android": "https://dc.lft.to/lastmile_qr_scan"}, "fusion_lat": 0.0, "name": "4d16f828cffbd76bde55b5cc96456c70", "bike_id": "4d16f828cffbd76bde55b5cc96456c70", "is_disabled": 0, "type": "electric_scooter", "lat": 38.91881383333333, "lon": -77.02187016666667, "is_reserved": 0, "fusion_lon": 0.0}, {"rental_uris": {"ios": "https://dc.lft.to/lastmile_qr_scan", "android": "https://dc.lft.to/lastmile_qr_scan"}, "fusion_lat": 0.0, "name": "e7e95d564efbd614edd4cd5533c338d1", "bike_id": "e7e95d564efbd614edd4cd5533c338d1", "is_disabled": 0, "type": "electric_scooter", "lat": 38.9110925, "lon": -77.04350666666667, "is_reserved": 0, "fusion_lon": 0.0}, {"rental_uris": {"ios": "https://dc.lft.to/lastmile_qr_scan", "android": "https://dc.lft.to/lastmile_qr_scan"}, "fusion_lat": 0.0, "name": "e0052cb3f0240bc1b00836bccb28dc6a", "bike_id": "e0052cb3f0240bc1b00836bccb28dc6a", "is_disabled": 0, "type": "electric_bike", "lat": 38.806805833333335, "lon": -77.08119216666667, "is_reserved": 0, "fusion_lon": 0.0}, {"rental_uris": {"ios": "https://dc.lft.to/lastmile_qr_scan", "android": "https://dc.lft.to/lastmile_qr_scan"}, "fusion_lat": 0.0, "name": "82c639b45bdd76bb5a8f36d0e38c3cd8", "bike_id": "82c639b45bdd76bb5a8f36d0e38c3cd8", "is_disabled": 0, "type": "electric_scooter", "lat": 38.924293666666664, "lon": -77.0400835, "is_reserved": 0, "fusion_lon": 0.0}, {"rental_uris": {"ios": "https://dc.lft.to/lastmile_qr_scan", "android": "https://dc.lft.to/lastmile_qr_scan"}, "fusion_lat": 0.0, "name": "38eb66bfe14e56c6bb7b0fb05f09d101", "bike_id": "38eb66bfe14e56c6bb7b0fb05f09d101", "is_disabled": 0, "type": "electric_scooter", "lat": 38.938900333333336, "lon": -77.024834, "is_reserved": 0, "fusion_lon": 0.0}, {"rental_uris": {"ios": "https://dc.lft.to/lastmile_qr_scan", "android": "https://dc.lft.to/lastmile_qr_scan"}, "fusion_lat": 0.0, "name": "7d47cf276645dd443875d54cc2d77d10", "bike_id": "7d47cf276645dd443875d54cc2d77d10", "is_disabled": 0, "type": "electric_scooter", "lat": 38.89223666666667, "lon": -77.04896416666666, "is_reserved": 0, "fusion_lon": 0.0}, {"rental_uris": {"ios": "https://dc.lft.to/lastmile_qr_scan", "android": "https://dc.lft.to/lastmile_qr_scan"}, "fusion_lat": 0.0, "name": "5dc5482907b26e40845f70e52684fd77", "bike_id": "5dc5482907b26e40845f70e52684fd77", "is_disabled": 0, "type": "electric_scooter", "lat": 38.899763666666665, "lon": -77.0557215, "is_reserved": 0, "fusion_lon": 0.0}, {"rental_uris": {"ios": "https://dc.lft.to/lastmile_qr_scan", "android": "https://dc.lft.to/lastmile_qr_scan"}, "fusion_lat": 0.0, "name": "5f9e98d9725aa1697f4bcd9a814029b7", "bike_id": "5f9e98d9725aa1697f4bcd9a814029b7", "is_disabled": 0, "type": "electric_scooter", "lat": 38.925703166666665, "lon": -77.0269845, "is_reserved": 0, "fusion_lon": 0.0}, {"rental_uris": {"ios": "https://dc.lft.to/lastmile_qr_scan", "android": "https://dc.lft.to/lastmile_qr_scan"}, "fusion_lat": 0.0, "name": "d72713ebe147487999618bf718d93bd2", "bike_id": "d72713ebe147487999618bf718d93bd2", "is_disabled": 0, "type": "electric_scooter", "lat": 38.918417166666664, "lon": -77.03202816666666, "is_reserved": 0, "fusion_lon": 0.0}, {"rental_uris": {"ios": "https://dc.lft.to/lastmile_qr_scan", "android": "https://dc.lft.to/lastmile_qr_scan"}, "fusion_lat": 0.0, "name": "8a11474381e5b4b3680ce2f1b6c6687d", "bike_id": "8a11474381e5b4b3680ce2f1b6c6687d", "is_disabled": 0, "type": "electric_scooter", "lat": 38.92341616666667, "lon": -77.034975, "is_reserved": 0, "fusion_lon": 0.0}, {"rental_uris": {"ios": "https://dc.lft.to/lastmile_qr_scan", "android": "https://dc.lft.to/lastmile_qr_scan"}, "fusion_lat": 0.0, "name": "7902d2a57c10a1aefe4c5725fc412821", "bike_id": "7902d2a57c10a1aefe4c5725fc412821", "is_disabled": 0, "type": "electric_scooter", "lat": 38.9039945, "lon": -77.038565, "is_reserved": 0, "fusion_lon": 0.0}, {"rental_uris": {"ios": "https://dc.lft.to/lastmile_qr_scan", "android": "https://dc.lft.to/lastmile_qr_scan"}, "fusion_lat": 0.0, "name": "3086f65d1e482779693bcc34cd8380b9", "bike_id": "3086f65d1e482779693bcc34cd8380b9", "is_disabled": 0, "type": "electric_scooter", "lat": 38.892244833333336, "lon": -77.0322105, "is_reserved": 0, "fusion_lon": 0.0}, {"rental_uris": {"ios": "https://dc.lft.to/lastmile_qr_scan", "android": "https://dc.lft.to/lastmile_qr_scan"}, "fusion_lat": 0.0, "name": "3645cd5f35496e900fecaf4f8527b33f", "bike_id": "3645cd5f35496e900fecaf4f8527b33f", "is_disabled": 0, "type": "electric_scooter", "lat": 38.921267, "lon": -77.0318145, "is_reserved": 0, "fusion_lon": 0.0}, {"rental_uris": {"ios": "https://dc.lft.to/lastmile_qr_scan", "android": "https://dc.lft.to/lastmile_qr_scan"}, "fusion_lat": 0.0, "name": "31cf4825ef59279ce0db4ac3d36053be", "bike_id": "31cf4825ef59279ce0db4ac3d36053be", "is_disabled": 0, "type": "electric_scooter", "lat": 38.892204166666666, "lon": -77.0316135, "is_reserved": 0, "fusion_lon": 0.0}, {"rental_uris": {"ios": "https://dc.lft.to/lastmile_qr_scan", "android": "https://dc.lft.to/lastmile_qr_scan"}, "fusion_lat": 0.0, "name": "88a7a048cbdca3e3b1217ca07cc7b1a8", "bike_id": "88a7a048cbdca3e3b1217ca07cc7b1a8", "is_disabled": 0, "type": "electric_scooter", "lat": 38.89800366666667, "lon": -77.04613516666667, "is_reserved": 0, "fusion_lon": 0.0}, {"rental_uris": {"ios": "https://dc.lft.to/lastmile_qr_scan", "android": "https://dc.lft.to/lastmile_qr_scan"}, "fusion_lat": 0.0, "name": "27ef0b4f34caadfc9212c7bd14b2b3bc", "bike_id": "27ef0b4f34caadfc9212c7bd14b2b3bc", "is_disabled": 0, "type": "electric_scooter", "lat": 38.928397833333335, "lon": -76.993641, "is_reserved": 0, "fusion_lon": 0.0}, {"rental_uris": {"ios": "https://dc.lft.to/lastmile_qr_scan", "android": "https://dc.lft.to/lastmile_qr_scan"}, "fusion_lat": 0.0, "name": "ea73c8d0ec2ecec9a8a387ec6b833de4", "bike_id": "ea73c8d0ec2ecec9a8a387ec6b833de4", "is_disabled": 0, "type": "electric_scooter", "lat": 38.92750016666667, "lon": -77.03414983333333, "is_reserved": 0, "fusion_lon": 0.0}, {"rental_uris": {"ios": "https://dc.lft.to/lastmile_qr_scan", "android": "https://dc.lft.to/lastmile_qr_scan"}, "fusion_lat": 0.0, "name": "9148eecfc7f4ba2a36fc1bd6bad254ec", "bike_id": "9148eecfc7f4ba2a36fc1bd6bad254ec", "is_disabled": 0, "type": "electric_scooter", "lat": 38.892233833333336, "lon": -77.03220783333333, "is_reserved": 0, "fusion_lon": 0.0}, {"rental_uris": {"ios": "https://dc.lft.to/lastmile_qr_scan", "android": "https://dc.lft.to/lastmile_qr_scan"}, "fusion_lat": 0.0, "name": "d8064a9142bc43f3fa9072ef137f065a", "bike_id": "d8064a9142bc43f3fa9072ef137f065a", "is_disabled": 0, "type": "electric_scooter", "lat": 38.90825616666667, "lon": -77.03549483333333, "is_reserved": 0, "fusion_lon": 0.0}, {"rental_uris": {"ios": "https://dc.lft.to/lastmile_qr_scan", "android": "https://dc.lft.to/lastmile_qr_scan"}, "fusion_lat": 0.0, "name": "5f4c3afc0c2cda6640f5a81cae23d39b", "bike_id": "5f4c3afc0c2cda6640f5a81cae23d39b", "is_disabled": 0, "type": "electric_scooter", "lat": 38.895759, "lon": -77.00347616666667, "is_reserved": 0, "fusion_lon": 0.0}, {"rental_uris": {"ios": "https://dc.lft.to/lastmile_qr_scan", "android": "https://dc.lft.to/lastmile_qr_scan"}, "fusion_lat": 0.0, "name": "31b13a541880d4212170f60d9fbd880e", "bike_id": "31b13a541880d4212170f60d9fbd880e", "is_disabled": 0, "type": "electric_scooter", "lat": 38.91745133333333, "lon": -77.0239465, "is_reserved": 0, "fusion_lon": 0.0}, {"rental_uris": {"ios": "https://dc.lft.to/lastmile_qr_scan", "android": "https://dc.lft.to/lastmile_qr_scan"}, "fusion_lat": 0.0, "name": "308171fb0a1c4be7659a510a097edb4c", "bike_id": "308171fb0a1c4be7659a510a097edb4c", "is_disabled": 0, "type": "electric_scooter", "lat": 38.90165116666667, "lon": -77.02606966666667, "is_reserved": 0, "fusion_lon": 0.0}, {"rental_uris": {"ios": "https://dc.lft.to/lastmile_qr_scan", "android": "https://dc.lft.to/lastmile_qr_scan"}, "fusion_lat": 0.0, "name": "143a324a7d2029e41e6d92debc52a09f", "bike_id": "143a324a7d2029e41e6d92debc52a09f", "is_disabled": 0, "type": "electric_scooter", "lat": 38.92969683333333, "lon": -77.03001516666667, "is_reserved": 0, "fusion_lon": 0.0}, {"rental_uris": {"ios": "https://dc.lft.to/lastmile_qr_scan", "android": "https://dc.lft.to/lastmile_qr_scan"}, "fusion_lat": 0.0, "name": "9d9ec4d2499f5f51334cc4c921688374", "bike_id": "9d9ec4d2499f5f51334cc4c921688374", "is_disabled": 0, "type": "electric_scooter", "lat": 38.898760333333335, "lon": -77.039746, "is_reserved": 0, "fusion_lon": 0.0}, {"rental_uris": {"ios": "https://dc.lft.to/lastmile_qr_scan", "android": "https://dc.lft.to/lastmile_qr_scan"}, "fusion_lat": 0.0, "name": "f701f009e3bbc163e3be7d057596fb47", "bike_id": "f701f009e3bbc163e3be7d057596fb47", "is_disabled": 0, "type": "electric_scooter", "lat": 38.8989265, "lon": -77.04036283333333, "is_reserved": 0, "fusion_lon": 0.0}, {"rental_uris": {"ios": "https://dc.lft.to/lastmile_qr_scan", "android": "https://dc.lft.to/lastmile_qr_scan"}, "fusion_lat": 0.0, "name": "4817fb0e55c166c132b6c6cfd40bf5c5", "bike_id": "4817fb0e55c166c132b6c6cfd40bf5c5", "is_disabled": 0, "type": "electric_bike", "lat": 38.962035, "lon": -77.03512666666667, "is_reserved": 0, "fusion_lon": 0.0}, {"rental_uris": {"ios": "https://dc.lft.to/lastmile_qr_scan", "android": "https://dc.lft.to/lastmile_qr_scan"}, "fusion_lat": 0.0, "name": "55067577f926054722ce9ac319716e6c", "bike_id": "55067577f926054722ce9ac319716e6c", "is_disabled": 0, "type": "electric_scooter", "lat": 38.90030733333333, "lon": -77.0020795, "is_reserved": 0, "fusion_lon": 0.0}, {"rental_uris": {"ios": "https://dc.lft.to/lastmile_qr_scan", "android": "https://dc.lft.to/lastmile_qr_scan"}, "fusion_lat": 0.0, "name": "5ad3854c1866bd3cfc254a5813cd97a8", "bike_id": "5ad3854c1866bd3cfc254a5813cd97a8", "is_disabled": 0, "type": "electric_scooter", "lat": 38.91765016666667, "lon": -77.04156283333333, "is_reserved": 0, "fusion_lon": 0.0}, {"rental_uris": {"ios": "https://dc.lft.to/lastmile_qr_scan", "android": "https://dc.lft.to/lastmile_qr_scan"}, "fusion_lat": 0.0, "name": "c418d4101455243d767f0fdb183231e9", "bike_id": "c418d4101455243d767f0fdb183231e9", "is_disabled": 0, "type": "electric_scooter", "lat": 38.917193166666664, "lon": -77.032142, "is_reserved": 0, "fusion_lon": 0.0}, {"rental_uris": {"ios": "https://dc.lft.to/lastmile_qr_scan", "android": "https://dc.lft.to/lastmile_qr_scan"}, "fusion_lat": 0.0, "name": "90e1cbd3760c91c48ca509d0876d2a9c", "bike_id": "90e1cbd3760c91c48ca509d0876d2a9c", "is_disabled": 0, "type": "electric_scooter", "lat": 38.91687433333333, "lon": -77.02812116666666, "is_reserved": 0, "fusion_lon": 0.0}, {"rental_uris": {"ios": "https://dc.lft.to/lastmile_qr_scan", "android": "https://dc.lft.to/lastmile_qr_scan"}, "fusion_lat": 0.0, "name": "ac6f5f61757837ca805ffacabb7ca322", "bike_id": "ac6f5f61757837ca805ffacabb7ca322", "is_disabled": 0, "type": "electric_scooter", "lat": 38.95161366666667, "lon": -77.02750516666667, "is_reserved": 0, "fusion_lon": 0.0}, {"rental_uris": {"ios": "https://dc.lft.to/lastmile_qr_scan", "android": "https://dc.lft.to/lastmile_qr_scan"}, "fusion_lat": 0.0, "name": "b9cdc8b0ff8484c8af05dccf03c41420", "bike_id": "b9cdc8b0ff8484c8af05dccf03c41420", "is_disabled": 0, "type": "electric_bike", "lat": 38.8134475, "lon": -77.04920066666666, "is_reserved": 0, "fusion_lon": 0.0}, {"rental_uris": {"ios": "https://dc.lft.to/lastmile_qr_scan", "android": "https://dc.lft.to/lastmile_qr_scan"}, "fusion_lat": 0.0, "name": "16c6f7fc259078416e24965eab1a96fd", "bike_id": "16c6f7fc259078416e24965eab1a96fd", "is_disabled": 0, "type": "electric_scooter", "lat": 38.904280166666666, "lon": -77.00215333333334, "is_reserved": 0, "fusion_lon": 0.0}, {"rental_uris": {"ios": "https://dc.lft.to/lastmile_qr_scan", "android": "https://dc.lft.to/lastmile_qr_scan"}, "fusion_lat": 0.0, "name": "34559c62f17884550547d36823613f15", "bike_id": "34559c62f17884550547d36823613f15", "is_disabled": 0, "type": "electric_scooter", "lat": 38.9060095, "lon": -77.0412315, "is_reserved": 0, "fusion_lon": 0.0}, {"rental_uris": {"ios": "https://dc.lft.to/lastmile_qr_scan", "android": "https://dc.lft.to/lastmile_qr_scan"}, "fusion_lat": 0.0, "name": "71b900a83894034372a4efa7472202d3", "bike_id": "71b900a83894034372a4efa7472202d3", "is_disabled": 0, "type": "electric_scooter", "lat": 38.917447833333334, "lon": -77.02397583333334, "is_reserved": 0, "fusion_lon": 0.0}, {"rental_uris": {"ios": "https://dc.lft.to/lastmile_qr_scan", "android": "https://dc.lft.to/lastmile_qr_scan"}, "fusion_lat": 0.0, "name": "c9ae6e0bdae653640614320776cc4eb7", "bike_id": "c9ae6e0bdae653640614320776cc4eb7", "is_disabled": 0, "type": "electric_scooter", "lat": 38.886712, "lon": -77.01360483333333, "is_reserved": 0, "fusion_lon": 0.0}, {"rental_uris": {"ios": "https://dc.lft.to/lastmile_qr_scan", "android": "https://dc.lft.to/lastmile_qr_scan"}, "fusion_lat": 0.0, "name": "66506283b9abb64dbc1a4e81ee726894", "bike_id": "66506283b9abb64dbc1a4e81ee726894", "is_disabled": 0, "type": "electric_bike", "lat": 38.819326, "lon": -77.00207283333333, "is_reserved": 0, "fusion_lon": 0.0}, {"rental_uris": {"ios": "https://dc.lft.to/lastmile_qr_scan", "android": "https://dc.lft.to/lastmile_qr_scan"}, "fusion_lat": 0.0, "name": "c47977eca512ed1f997609978819eecb", "bike_id": "c47977eca512ed1f997609978819eecb", "is_disabled": 0, "type": "electric_scooter", "lat": 38.89219533333333, "lon": -77.043693, "is_reserved": 0, "fusion_lon": 0.0}, {"rental_uris": {"ios": "https://dc.lft.to/lastmile_qr_scan", "android": "https://dc.lft.to/lastmile_qr_scan"}, "fusion_lat": 0.0, "name": "1852efba30db31c660a935db7f04eb68", "bike_id": "1852efba30db31c660a935db7f04eb68", "is_disabled": 0, "type": "electric_scooter", "lat": 38.911907, "lon": -77.04847516666666, "is_reserved": 0, "fusion_lon": 0.0}, {"rental_uris": {"ios": "https://dc.lft.to/lastmile_qr_scan", "android": "https://dc.lft.to/lastmile_qr_scan"}, "fusion_lat": 0.0, "name": "8006a0ff3e3299b0adb0cb948367b612", "bike_id": "8006a0ff3e3299b0adb0cb948367b612", "is_disabled": 0, "type": "electric_scooter", "lat": 38.910682333333334, "lon": -77.04101966666667, "is_reserved": 0, "fusion_lon": 0.0}, {"rental_uris": {"ios": "https://dc.lft.to/lastmile_qr_scan", "android": "https://dc.lft.to/lastmile_qr_scan"}, "fusion_lat": 0.0, "name": "fe2e34d8caf068b1ba1985745bb1d272", "bike_id": "fe2e34d8caf068b1ba1985745bb1d272", "is_disabled": 0, "type": "electric_scooter", "lat": 38.90970766666667, "lon": -77.0344055, "is_reserved": 0, "fusion_lon": 0.0}, {"rental_uris": {"ios": "https://dc.lft.to/lastmile_qr_scan", "android": "https://dc.lft.to/lastmile_qr_scan"}, "fusion_lat": 0.0, "name": "877c8259413efecb2d0412fbde51ea59", "bike_id": "877c8259413efecb2d0412fbde51ea59", "is_disabled": 0, "type": "electric_scooter", "lat": 38.904722666666665, "lon": -77.00205233333334, "is_reserved": 0, "fusion_lon": 0.0}, {"rental_uris": {"ios": "https://dc.lft.to/lastmile_qr_scan", "android": "https://dc.lft.to/lastmile_qr_scan"}, "fusion_lat": 0.0, "name": "3dcfc53c48c66cf3313250b57e654c3d", "bike_id": "3dcfc53c48c66cf3313250b57e654c3d", "is_disabled": 0, "type": "electric_scooter", "lat": 38.905973, "lon": -77.026927, "is_reserved": 0, "fusion_lon": 0.0}, {"rental_uris": {"ios": "https://dc.lft.to/lastmile_qr_scan", "android": "https://dc.lft.to/lastmile_qr_scan"}, "fusion_lat": 0.0, "name": "5d880c37cd7948e1e5cb0589e237f99c", "bike_id": "5d880c37cd7948e1e5cb0589e237f99c", "is_disabled": 0, "type": "electric_bike", "lat": 38.8049695, "lon": -77.04129083333333, "is_reserved": 0, "fusion_lon": 0.0}, {"rental_uris": {"ios": "https://dc.lft.to/lastmile_qr_scan", "android": "https://dc.lft.to/lastmile_qr_scan"}, "fusion_lat": 0.0, "name": "7e2545d47ab41f757fa88819c4ed89ee", "bike_id": "7e2545d47ab41f757fa88819c4ed89ee", "is_disabled": 0, "type": "electric_scooter", "lat": 38.90970766666667, "lon": -77.03442, "is_reserved": 0, "fusion_lon": 0.0}, {"rental_uris": {"ios": "https://dc.lft.to/lastmile_qr_scan", "android": "https://dc.lft.to/lastmile_qr_scan"}, "fusion_lat": 0.0, "name": "4aba80b57f75c2ea5b7d75a8dad5523d", "bike_id": "4aba80b57f75c2ea5b7d75a8dad5523d", "is_disabled": 0, "type": "electric_scooter", "lat": 38.911170166666665, "lon": -77.04211166666667, "is_reserved": 0, "fusion_lon": 0.0}, {"rental_uris": {"ios": "https://dc.lft.to/lastmile_qr_scan", "android": "https://dc.lft.to/lastmile_qr_scan"}, "fusion_lat": 0.0, "name": "5c18f9d38077f1d28ee2fd4dd4042876", "bike_id": "5c18f9d38077f1d28ee2fd4dd4042876", "is_disabled": 0, "type": "electric_scooter", "lat": 38.9242645, "lon": -77.040085, "is_reserved": 0, "fusion_lon": 0.0}, {"rental_uris": {"ios": "https://dc.lft.to/lastmile_qr_scan", "android": "https://dc.lft.to/lastmile_qr_scan"}, "fusion_lat": 0.0, "name": "5085800c53db06f8a8f81a6e35ef6a55", "bike_id": "5085800c53db06f8a8f81a6e35ef6a55", "is_disabled": 0, "type": "electric_scooter", "lat": 38.922607666666664, "lon": -77.04294716666666, "is_reserved": 0, "fusion_lon": 0.0}, {"rental_uris": {"ios": "https://dc.lft.to/lastmile_qr_scan", "android": "https://dc.lft.to/lastmile_qr_scan"}, "fusion_lat": 0.0, "name": "2d30ac644294278ff05330cd668a76de", "bike_id": "2d30ac644294278ff05330cd668a76de", "is_disabled": 0, "type": "electric_scooter", "lat": 38.90004833333333, "lon": -76.99819366666667, "is_reserved": 0, "fusion_lon": 0.0}, {"rental_uris": {"ios": "https://dc.lft.to/lastmile_qr_scan", "android": "https://dc.lft.to/lastmile_qr_scan"}, "fusion_lat": 0.0, "name": "e40e1bb10bd5c6ecbc0fd39d5404f73f", "bike_id": "e40e1bb10bd5c6ecbc0fd39d5404f73f", "is_disabled": 0, "type": "electric_scooter", "lat": 38.906182, "lon": -77.0260905, "is_reserved": 0, "fusion_lon": 0.0}, {"rental_uris": {"ios": "https://dc.lft.to/lastmile_qr_scan", "android": "https://dc.lft.to/lastmile_qr_scan"}, "fusion_lat": 0.0, "name": "d4d018d5d3c740a521632d3e6d990c80", "bike_id": "d4d018d5d3c740a521632d3e6d990c80", "is_disabled": 0, "type": "electric_scooter", "lat": 38.89499633333333, "lon": -76.94876833333333, "is_reserved": 0, "fusion_lon": 0.0}, {"rental_uris": {"ios": "https://dc.lft.to/lastmile_qr_scan", "android": "https://dc.lft.to/lastmile_qr_scan"}, "fusion_lat": 0.0, "name": "0c26748443e4287c6e5d9c56c4d6dfd7", "bike_id": "0c26748443e4287c6e5d9c56c4d6dfd7", "is_disabled": 0, "type": "electric_scooter", "lat": 38.906402666666665, "lon": -76.99505666666667, "is_reserved": 0, "fusion_lon": 0.0}, {"rental_uris": {"ios": "https://dc.lft.to/lastmile_qr_scan", "android": "https://dc.lft.to/lastmile_qr_scan"}, "fusion_lat": 0.0, "name": "b61103660b5d2b527c14dbd39a31ce81", "bike_id": "b61103660b5d2b527c14dbd39a31ce81", "is_disabled": 0, "type": "electric_bike", "lat": 38.82870966666667, "lon": -77.11220483333334, "is_reserved": 0, "fusion_lon": 0.0}, {"rental_uris": {"ios": "https://dc.lft.to/lastmile_qr_scan", "android": "https://dc.lft.to/lastmile_qr_scan"}, "fusion_lat": 0.0, "name": "0679a83b69351c5265e8df1e9aa2f7d2", "bike_id": "0679a83b69351c5265e8df1e9aa2f7d2", "is_disabled": 0, "type": "electric_scooter", "lat": 38.89223916666667, "lon": -77.03163533333333, "is_reserved": 0, "fusion_lon": 0.0}, {"rental_uris": {"ios": "https://dc.lft.to/lastmile_qr_scan", "android": "https://dc.lft.to/lastmile_qr_scan"}, "fusion_lat": 0.0, "name": "506784d60be9a6288b0f8856ee0d9ddf", "bike_id": "506784d60be9a6288b0f8856ee0d9ddf", "is_disabled": 0, "type": "electric_scooter", "lat": 38.9524435, "lon": -77.06981, "is_reserved": 0, "fusion_lon": 0.0}, {"rental_uris": {"ios": "https://dc.lft.to/lastmile_qr_scan", "android": "https://dc.lft.to/lastmile_qr_scan"}, "fusion_lat": 0.0, "name": "559b01578a896b7a627369e67fddab3a", "bike_id": "559b01578a896b7a627369e67fddab3a", "is_disabled": 0, "type": "electric_scooter", "lat": 38.95420333333333, "lon": -77.02769366666666, "is_reserved": 0, "fusion_lon": 0.0}, {"rental_uris": {"ios": "https://dc.lft.to/lastmile_qr_scan", "android": "https://dc.lft.to/lastmile_qr_scan"}, "fusion_lat": 0.0, "name": "1d690df5ee168c41c2cfc77ab0d1bd92", "bike_id": "1d690df5ee168c41c2cfc77ab0d1bd92", "is_disabled": 0, "type": "electric_scooter", "lat": 38.8998015, "lon": -76.939916, "is_reserved": 0, "fusion_lon": 0.0}, {"rental_uris": {"ios": "https://dc.lft.to/lastmile_qr_scan", "android": "https://dc.lft.to/lastmile_qr_scan"}, "fusion_lat": 0.0, "name": "c0da2a322c6f847457770b3bba64e70c", "bike_id": "c0da2a322c6f847457770b3bba64e70c", "is_disabled": 0, "type": "electric_scooter", "lat": 38.903143, "lon": -77.01198766666667, "is_reserved": 0, "fusion_lon": 0.0}, {"rental_uris": {"ios": "https://dc.lft.to/lastmile_qr_scan", "android": "https://dc.lft.to/lastmile_qr_scan"}, "fusion_lat": 0.0, "name": "adb93b6d9e10114d0790fe05ec72d002", "bike_id": "adb93b6d9e10114d0790fe05ec72d002", "is_disabled": 0, "type": "electric_scooter", "lat": 38.91032216666667, "lon": -77.0426425, "is_reserved": 0, "fusion_lon": 0.0}, {"rental_uris": {"ios": "https://dc.lft.to/lastmile_qr_scan", "android": "https://dc.lft.to/lastmile_qr_scan"}, "fusion_lat": 0.0, "name": "26e613189323dec20f7ed90590a2bf18", "bike_id": "26e613189323dec20f7ed90590a2bf18", "is_disabled": 0, "type": "electric_scooter", "lat": 38.86497166666667, "lon": -76.98989666666667, "is_reserved": 0, "fusion_lon": 0.0}, {"rental_uris": {"ios": "https://dc.lft.to/lastmile_qr_scan", "android": "https://dc.lft.to/lastmile_qr_scan"}, "fusion_lat": 0.0, "name": "e5eb8c8c67d0f5cf5a30c809b6d165b3", "bike_id": "e5eb8c8c67d0f5cf5a30c809b6d165b3", "is_disabled": 0, "type": "electric_scooter", "lat": 38.908584833333336, "lon": -77.0061405, "is_reserved": 0, "fusion_lon": 0.0}, {"rental_uris": {"ios": "https://dc.lft.to/lastmile_qr_scan", "android": "https://dc.lft.to/lastmile_qr_scan"}, "fusion_lat": 0.0, "name": "6d89ac3bee6b4e30a31dc1cf9a28252c", "bike_id": "6d89ac3bee6b4e30a31dc1cf9a28252c", "is_disabled": 0, "type": "electric_scooter", "lat": 38.93017833333333, "lon": -77.04452183333333, "is_reserved": 0, "fusion_lon": 0.0}, {"rental_uris": {"ios": "https://dc.lft.to/lastmile_qr_scan", "android": "https://dc.lft.to/lastmile_qr_scan"}, "fusion_lat": 0.0, "name": "2b78e8e2d8354acaa7185dbe09bf8dc6", "bike_id": "2b78e8e2d8354acaa7185dbe09bf8dc6", "is_disabled": 0, "type": "electric_scooter", "lat": 38.892232666666665, "lon": -77.03164666666666, "is_reserved": 0, "fusion_lon": 0.0}, {"rental_uris": {"ios": "https://dc.lft.to/lastmile_qr_scan", "android": "https://dc.lft.to/lastmile_qr_scan"}, "fusion_lat": 0.0, "name": "15ada1446866733f9c5192e5b68b65f3", "bike_id": "15ada1446866733f9c5192e5b68b65f3", "is_disabled": 0, "type": "electric_bike", "lat": 38.839769, "lon": -77.0056725, "is_reserved": 0, "fusion_lon": 0.0}, {"rental_uris": {"ios": "https://dc.lft.to/lastmile_qr_scan", "android": "https://dc.lft.to/lastmile_qr_scan"}, "fusion_lat": 0.0, "name": "2f7529c7f1e186062661158a16c694ed", "bike_id": "2f7529c7f1e186062661158a16c694ed", "is_disabled": 0, "type": "electric_scooter", "lat": 38.92048366666667, "lon": -77.0340645, "is_reserved": 0, "fusion_lon": 0.0}, {"rental_uris": {"ios": "https://dc.lft.to/lastmile_qr_scan", "android": "https://dc.lft.to/lastmile_qr_scan"}, "fusion_lat": 0.0, "name": "29b7a2054dff157ff8ac88f6ee754213", "bike_id": "29b7a2054dff157ff8ac88f6ee754213", "is_disabled": 0, "type": "electric_scooter", "lat": 38.866844666666665, "lon": -76.98521916666667, "is_reserved": 0, "fusion_lon": 0.0}, {"rental_uris": {"ios": "https://dc.lft.to/lastmile_qr_scan", "android": "https://dc.lft.to/lastmile_qr_scan"}, "fusion_lat": 0.0, "name": "94712303b7274a597d0bd880872b2c6d", "bike_id": "94712303b7274a597d0bd880872b2c6d", "is_disabled": 0, "type": "electric_scooter", "lat": 38.908925833333335, "lon": -77.03209616666666, "is_reserved": 0, "fusion_lon": 0.0}, {"rental_uris": {"ios": "https://dc.lft.to/lastmile_qr_scan", "android": "https://dc.lft.to/lastmile_qr_scan"}, "fusion_lat": 0.0, "name": "d226f2d8fc5040c0960cd16e25a6d0ea", "bike_id": "d226f2d8fc5040c0960cd16e25a6d0ea", "is_disabled": 0, "type": "electric_scooter", "lat": 38.9317615, "lon": -77.0706035, "is_reserved": 0, "fusion_lon": 0.0}, {"rental_uris": {"ios": "https://dc.lft.to/lastmile_qr_scan", "android": "https://dc.lft.to/lastmile_qr_scan"}, "fusion_lat": 0.0, "name": "4019198ff64966fbda0c0b2cd2bb42dc", "bike_id": "4019198ff64966fbda0c0b2cd2bb42dc", "is_disabled": 0, "type": "electric_scooter", "lat": 38.91806183333333, "lon": -77.02494033333333, "is_reserved": 0, "fusion_lon": 0.0}, {"rental_uris": {"ios": "https://dc.lft.to/lastmile_qr_scan", "android": "https://dc.lft.to/lastmile_qr_scan"}, "fusion_lat": 0.0, "name": "920c0c8ee77a242848fa7fb3e7575c24", "bike_id": "920c0c8ee77a242848fa7fb3e7575c24", "is_disabled": 0, "type": "electric_scooter", "lat": 38.90071416666667, "lon": -77.0271415, "is_reserved": 0, "fusion_lon": 0.0}, {"rental_uris": {"ios": "https://dc.lft.to/lastmile_qr_scan", "android": "https://dc.lft.to/lastmile_qr_scan"}, "fusion_lat": 0.0, "name": "321f9592a508d8b6f175d82696c6adad", "bike_id": "321f9592a508d8b6f175d82696c6adad", "is_disabled": 0, "type": "electric_scooter", "lat": 38.913866, "lon": -77.03959333333333, "is_reserved": 0, "fusion_lon": 0.0}, {"rental_uris": {"ios": "https://dc.lft.to/lastmile_qr_scan", "android": "https://dc.lft.to/lastmile_qr_scan"}, "fusion_lat": 0.0, "name": "5847cf6c45c88ec998d0f31129d11201", "bike_id": "5847cf6c45c88ec998d0f31129d11201", "is_disabled": 0, "type": "electric_scooter", "lat": 38.916890333333335, "lon": -77.028154, "is_reserved": 0, "fusion_lon": 0.0}, {"rental_uris": {"ios": "https://dc.lft.to/lastmile_qr_scan", "android": "https://dc.lft.to/lastmile_qr_scan"}, "fusion_lat": 0.0, "name": "c4b775921d67fe8dbdcd3a8bd4678073", "bike_id": "c4b775921d67fe8dbdcd3a8bd4678073", "is_disabled": 0, "type": "electric_bike", "lat": 38.87666883333333, "lon": -77.0144405, "is_reserved": 0, "fusion_lon": 0.0}, {"rental_uris": {"ios": "https://dc.lft.to/lastmile_qr_scan", "android": "https://dc.lft.to/lastmile_qr_scan"}, "fusion_lat": 0.0, "name": "dcdd3e3f0c449108e841826228732b33", "bike_id": "dcdd3e3f0c449108e841826228732b33", "is_disabled": 0, "type": "electric_scooter", "lat": 38.9079315, "lon": -77.03836266666667, "is_reserved": 0, "fusion_lon": 0.0}, {"rental_uris": {"ios": "https://dc.lft.to/lastmile_qr_scan", "android": "https://dc.lft.to/lastmile_qr_scan"}, "fusion_lat": 0.0, "name": "cbbed75e49fd14e7f89a312088554b8e", "bike_id": "cbbed75e49fd14e7f89a312088554b8e", "is_disabled": 0, "type": "electric_scooter", "lat": 38.892235666666664, "lon": -77.03156783333333, "is_reserved": 0, "fusion_lon": 0.0}, {"rental_uris": {"ios": "https://dc.lft.to/lastmile_qr_scan", "android": "https://dc.lft.to/lastmile_qr_scan"}, "fusion_lat": 0.0, "name": "17ca28f7389643faeef193581e33d82e", "bike_id": "17ca28f7389643faeef193581e33d82e", "is_disabled": 0, "type": "electric_scooter", "lat": 38.888132166666665, "lon": -76.93343633333333, "is_reserved": 0, "fusion_lon": 0.0}, {"rental_uris": {"ios": "https://dc.lft.to/lastmile_qr_scan", "android": "https://dc.lft.to/lastmile_qr_scan"}, "fusion_lat": 0.0, "name": "35c2d9a785afc98bfa666c7868f74fcf", "bike_id": "35c2d9a785afc98bfa666c7868f74fcf", "is_disabled": 0, "type": "electric_scooter", "lat": 38.924508, "lon": -77.0338805, "is_reserved": 0, "fusion_lon": 0.0}, {"rental_uris": {"ios": "https://dc.lft.to/lastmile_qr_scan", "android": "https://dc.lft.to/lastmile_qr_scan"}, "fusion_lat": 0.0, "name": "f43d2ecc4bb1705d90fdd8a3db8cb5af", "bike_id": "f43d2ecc4bb1705d90fdd8a3db8cb5af", "is_disabled": 0, "type": "electric_bike", "lat": 38.8132975, "lon": -77.0508035, "is_reserved": 0, "fusion_lon": 0.0}, {"rental_uris": {"ios": "https://dc.lft.to/lastmile_qr_scan", "android": "https://dc.lft.to/lastmile_qr_scan"}, "fusion_lat": 0.0, "name": "aaf14f81218ddbefdd47c0eae5836c12", "bike_id": "aaf14f81218ddbefdd47c0eae5836c12", "is_disabled": 0, "type": "electric_scooter", "lat": 38.88713283333333, "lon": -77.01778483333334, "is_reserved": 0, "fusion_lon": 0.0}, {"rental_uris": {"ios": "https://dc.lft.to/lastmile_qr_scan", "android": "https://dc.lft.to/lastmile_qr_scan"}, "fusion_lat": 0.0, "name": "554ecb16dcbe277094f536d193945dce", "bike_id": "554ecb16dcbe277094f536d193945dce", "is_disabled": 0, "type": "electric_scooter", "lat": 38.918132166666666, "lon": -77.03215766666666, "is_reserved": 0, "fusion_lon": 0.0}, {"rental_uris": {"ios": "https://dc.lft.to/lastmile_qr_scan", "android": "https://dc.lft.to/lastmile_qr_scan"}, "fusion_lat": 0.0, "name": "b587c1cb8a34ce7f4034d6b754263c51", "bike_id": "b587c1cb8a34ce7f4034d6b754263c51", "is_disabled": 0, "type": "electric_scooter", "lat": 38.890282, "lon": -76.95129883333334, "is_reserved": 0, "fusion_lon": 0.0}, {"rental_uris": {"ios": "https://dc.lft.to/lastmile_qr_scan", "android": "https://dc.lft.to/lastmile_qr_scan"}, "fusion_lat": 0.0, "name": "128a89e3a57f3f193bf039acb7aa239b", "bike_id": "128a89e3a57f3f193bf039acb7aa239b", "is_disabled": 0, "type": "electric_scooter", "lat": 38.9084825, "lon": -76.99804833333333, "is_reserved": 0, "fusion_lon": 0.0}, {"rental_uris": {"ios": "https://dc.lft.to/lastmile_qr_scan", "android": "https://dc.lft.to/lastmile_qr_scan"}, "fusion_lat": 0.0, "name": "0f69d4bf1d62e8e31f7aa77bb6ccc161", "bike_id": "0f69d4bf1d62e8e31f7aa77bb6ccc161", "is_disabled": 0, "type": "electric_scooter", "lat": 38.9354885, "lon": -77.02223816666667, "is_reserved": 0, "fusion_lon": 0.0}, {"rental_uris": {"ios": "https://dc.lft.to/lastmile_qr_scan", "android": "https://dc.lft.to/lastmile_qr_scan"}, "fusion_lat": 0.0, "name": "a7d3302fd9be37139264374cfd5b3180", "bike_id": "a7d3302fd9be37139264374cfd5b3180", "is_disabled": 0, "type": "electric_bike", "lat": 38.8480305, "lon": -77.07514666666667, "is_reserved": 0, "fusion_lon": 0.0}, {"rental_uris": {"ios": "https://dc.lft.to/lastmile_qr_scan", "android": "https://dc.lft.to/lastmile_qr_scan"}, "fusion_lat": 0.0, "name": "0186f9bf50772f0110d0a77595887838", "bike_id": "0186f9bf50772f0110d0a77595887838", "is_disabled": 0, "type": "electric_scooter", "lat": 38.920550666666664, "lon": -77.04190266666667, "is_reserved": 0, "fusion_lon": 0.0}, {"rental_uris": {"ios": "https://dc.lft.to/lastmile_qr_scan", "android": "https://dc.lft.to/lastmile_qr_scan"}, "fusion_lat": 0.0, "name": "9b58f1138fa515de4583542d970a7a29", "bike_id": "9b58f1138fa515de4583542d970a7a29", "is_disabled": 0, "type": "electric_scooter", "lat": 38.93074283333333, "lon": -77.03741333333333, "is_reserved": 0, "fusion_lon": 0.0}, {"rental_uris": {"ios": "https://dc.lft.to/lastmile_qr_scan", "android": "https://dc.lft.to/lastmile_qr_scan"}, "fusion_lat": 0.0, "name": "5abbe9036495cc1f1a7039640b62314f", "bike_id": "5abbe9036495cc1f1a7039640b62314f", "is_disabled": 0, "type": "electric_scooter", "lat": 38.912563, "lon": -77.04442016666667, "is_reserved": 0, "fusion_lon": 0.0}, {"rental_uris": {"ios": "https://dc.lft.to/lastmile_qr_scan", "android": "https://dc.lft.to/lastmile_qr_scan"}, "fusion_lat": 0.0, "name": "7db0aaaef18494c0521a2a0c91f1e03d", "bike_id": "7db0aaaef18494c0521a2a0c91f1e03d", "is_disabled": 0, "type": "electric_scooter", "lat": 38.901378333333334, "lon": -77.043918, "is_reserved": 0, "fusion_lon": 0.0}, {"rental_uris": {"ios": "https://dc.lft.to/lastmile_qr_scan", "android": "https://dc.lft.to/lastmile_qr_scan"}, "fusion_lat": 0.0, "name": "0b9f5b3ea3711e9b6659ecf75e108b3c", "bike_id": "0b9f5b3ea3711e9b6659ecf75e108b3c", "is_disabled": 0, "type": "electric_scooter", "lat": 38.95073033333333, "lon": -77.03104166666667, "is_reserved": 0, "fusion_lon": 0.0}, {"rental_uris": {"ios": "https://dc.lft.to/lastmile_qr_scan", "android": "https://dc.lft.to/lastmile_qr_scan"}, "fusion_lat": 0.0, "name": "c79f6eda356a52cb8657d1d465eeed39", "bike_id": "c79f6eda356a52cb8657d1d465eeed39", "is_disabled": 0, "type": "electric_scooter", "lat": 38.892178, "lon": -77.022199, "is_reserved": 0, "fusion_lon": 0.0}, {"rental_uris": {"ios": "https://dc.lft.to/lastmile_qr_scan", "android": "https://dc.lft.to/lastmile_qr_scan"}, "fusion_lat": 0.0, "name": "40492408e21e01a7a7209a939620a154", "bike_id": "40492408e21e01a7a7209a939620a154", "is_disabled": 0, "type": "electric_scooter", "lat": 38.898897166666664, "lon": -77.03967683333333, "is_reserved": 0, "fusion_lon": 0.0}, {"rental_uris": {"ios": "https://dc.lft.to/lastmile_qr_scan", "android": "https://dc.lft.to/lastmile_qr_scan"}, "fusion_lat": 0.0, "name": "79dcb30ef7d5000bc86f003f68d7c8bf", "bike_id": "79dcb30ef7d5000bc86f003f68d7c8bf", "is_disabled": 0, "type": "electric_scooter", "lat": 38.900521166666664, "lon": -76.997595, "is_reserved": 0, "fusion_lon": 0.0}, {"rental_uris": {"ios": "https://dc.lft.to/lastmile_qr_scan", "android": "https://dc.lft.to/lastmile_qr_scan"}, "fusion_lat": 0.0, "name": "9c903440897a623f7e6ea7a9e8747e98", "bike_id": "9c903440897a623f7e6ea7a9e8747e98", "is_disabled": 0, "type": "electric_scooter", "lat": 38.93485233333333, "lon": -77.07263583333334, "is_reserved": 0, "fusion_lon": 0.0}, {"rental_uris": {"ios": "https://dc.lft.to/lastmile_qr_scan", "android": "https://dc.lft.to/lastmile_qr_scan"}, "fusion_lat": 0.0, "name": "02d8bbe1189081b02b638d51d1d3e6b0", "bike_id": "02d8bbe1189081b02b638d51d1d3e6b0", "is_disabled": 0, "type": "electric_scooter", "lat": 38.92589866666667, "lon": -77.02142483333333, "is_reserved": 0, "fusion_lon": 0.0}, {"rental_uris": {"ios": "https://dc.lft.to/lastmile_qr_scan", "android": "https://dc.lft.to/lastmile_qr_scan"}, "fusion_lat": 0.0, "name": "11df6b6b3ad1ec42f5cef0995572c61f", "bike_id": "11df6b6b3ad1ec42f5cef0995572c61f", "is_disabled": 0, "type": "electric_scooter", "lat": 38.89997833333334, "lon": -77.04037283333334, "is_reserved": 0, "fusion_lon": 0.0}, {"rental_uris": {"ios": "https://dc.lft.to/lastmile_qr_scan", "android": "https://dc.lft.to/lastmile_qr_scan"}, "fusion_lat": 0.0, "name": "67aafdfc853906271d83e29119a715fe", "bike_id": "67aafdfc853906271d83e29119a715fe", "is_disabled": 0, "type": "electric_scooter", "lat": 38.905508166666664, "lon": -77.03436766666667, "is_reserved": 0, "fusion_lon": 0.0}, {"rental_uris": {"ios": "https://dc.lft.to/lastmile_qr_scan", "android": "https://dc.lft.to/lastmile_qr_scan"}, "fusion_lat": 0.0, "name": "4d5afffefc99e5ec1d8482681868935d", "bike_id": "4d5afffefc99e5ec1d8482681868935d", "is_disabled": 0, "type": "electric_scooter", "lat": 38.92615816666667, "lon": -77.03947333333333, "is_reserved": 0, "fusion_lon": 0.0}, {"rental_uris": {"ios": "https://dc.lft.to/lastmile_qr_scan", "android": "https://dc.lft.to/lastmile_qr_scan"}, "fusion_lat": 0.0, "name": "654001e19adaa835b63f35aec5e108fe", "bike_id": "654001e19adaa835b63f35aec5e108fe", "is_disabled": 0, "type": "electric_scooter", "lat": 38.9329895, "lon": -77.02463183333333, "is_reserved": 0, "fusion_lon": 0.0}, {"rental_uris": {"ios": "https://dc.lft.to/lastmile_qr_scan", "android": "https://dc.lft.to/lastmile_qr_scan"}, "fusion_lat": 0.0, "name": "224f058795ac48a351346c6486b1ecad", "bike_id": "224f058795ac48a351346c6486b1ecad", "is_disabled": 0, "type": "electric_bike", "lat": 38.8428895, "lon": -77.04492683333334, "is_reserved": 0, "fusion_lon": 0.0}, {"rental_uris": {"ios": "https://dc.lft.to/lastmile_qr_scan", "android": "https://dc.lft.to/lastmile_qr_scan"}, "fusion_lat": 0.0, "name": "f42390cbfb53d5904797165027abf1f9", "bike_id": "f42390cbfb53d5904797165027abf1f9", "is_disabled": 0, "type": "electric_scooter", "lat": 38.89909183333333, "lon": -76.93353116666667, "is_reserved": 0, "fusion_lon": 0.0}, {"rental_uris": {"ios": "https://dc.lft.to/lastmile_qr_scan", "android": "https://dc.lft.to/lastmile_qr_scan"}, "fusion_lat": 0.0, "name": "b6283040b145b3c847c898d256395a28", "bike_id": "b6283040b145b3c847c898d256395a28", "is_disabled": 0, "type": "electric_scooter", "lat": 38.913701, "lon": -77.03214566666666, "is_reserved": 0, "fusion_lon": 0.0}, {"rental_uris": {"ios": "https://dc.lft.to/lastmile_qr_scan", "android": "https://dc.lft.to/lastmile_qr_scan"}, "fusion_lat": 0.0, "name": "f83f01390f9b2f33abbf010ad49917e5", "bike_id": "f83f01390f9b2f33abbf010ad49917e5", "is_disabled": 0, "type": "electric_scooter", "lat": 38.90785116666667, "lon": -77.038572, "is_reserved": 0, "fusion_lon": 0.0}, {"rental_uris": {"ios": "https://dc.lft.to/lastmile_qr_scan", "android": "https://dc.lft.to/lastmile_qr_scan"}, "fusion_lat": 0.0, "name": "bc54a686c93d0a5ea4f0f902b25160bf", "bike_id": "bc54a686c93d0a5ea4f0f902b25160bf", "is_disabled": 0, "type": "electric_bike", "lat": 38.86373833333333, "lon": -76.970118, "is_reserved": 0, "fusion_lon": 0.0}, {"rental_uris": {"ios": "https://dc.lft.to/lastmile_qr_scan", "android": "https://dc.lft.to/lastmile_qr_scan"}, "fusion_lat": 0.0, "name": "6ae0023d6341b3a8624dfa99690e6906", "bike_id": "6ae0023d6341b3a8624dfa99690e6906", "is_disabled": 0, "type": "electric_scooter", "lat": 38.910224666666664, "lon": -77.042602, "is_reserved": 0, "fusion_lon": 0.0}, {"rental_uris": {"ios": "https://dc.lft.to/lastmile_qr_scan", "android": "https://dc.lft.to/lastmile_qr_scan"}, "fusion_lat": 0.0, "name": "bee9171745ad5f52f090c60defaa1163", "bike_id": "bee9171745ad5f52f090c60defaa1163", "is_disabled": 0, "type": "electric_scooter", "lat": 38.929979833333334, "lon": -77.0326165, "is_reserved": 0, "fusion_lon": 0.0}, {"rental_uris": {"ios": "https://dc.lft.to/lastmile_qr_scan", "android": "https://dc.lft.to/lastmile_qr_scan"}, "fusion_lat": 0.0, "name": "05a990ce4cec8bb568f8353d55ef9372", "bike_id": "05a990ce4cec8bb568f8353d55ef9372", "is_disabled": 0, "type": "electric_scooter", "lat": 38.92022883333333, "lon": -77.03151816666667, "is_reserved": 0, "fusion_lon": 0.0}, {"rental_uris": {"ios": "https://dc.lft.to/lastmile_qr_scan", "android": "https://dc.lft.to/lastmile_qr_scan"}, "fusion_lat": 0.0, "name": "b6348daf71635900ee09abc6a7df139b", "bike_id": "b6348daf71635900ee09abc6a7df139b", "is_disabled": 0, "type": "electric_scooter", "lat": 38.90983283333333, "lon": -76.994885, "is_reserved": 0, "fusion_lon": 0.0}, {"rental_uris": {"ios": "https://dc.lft.to/lastmile_qr_scan", "android": "https://dc.lft.to/lastmile_qr_scan"}, "fusion_lat": 0.0, "name": "126699c3d483d7628dadc78b1af9000b", "bike_id": "126699c3d483d7628dadc78b1af9000b", "is_disabled": 0, "type": "electric_bike", "lat": 38.828732, "lon": -77.008376, "is_reserved": 0, "fusion_lon": 0.0}, {"rental_uris": {"ios": "https://dc.lft.to/lastmile_qr_scan", "android": "https://dc.lft.to/lastmile_qr_scan"}, "fusion_lat": 0.0, "name": "7023e8cc6a220053bfadc70ca4020c57", "bike_id": "7023e8cc6a220053bfadc70ca4020c57", "is_disabled": 0, "type": "electric_scooter", "lat": 38.8874075, "lon": -77.02572016666667, "is_reserved": 0, "fusion_lon": 0.0}, {"rental_uris": {"ios": "https://dc.lft.to/lastmile_qr_scan", "android": "https://dc.lft.to/lastmile_qr_scan"}, "fusion_lat": 0.0, "name": "5ff3179708f6832902d9d655c42cea99", "bike_id": "5ff3179708f6832902d9d655c42cea99", "is_disabled": 0, "type": "electric_bike", "lat": 38.932345166666664, "lon": -76.974251, "is_reserved": 0, "fusion_lon": 0.0}, {"rental_uris": {"ios": "https://dc.lft.to/lastmile_qr_scan", "android": "https://dc.lft.to/lastmile_qr_scan"}, "fusion_lat": 0.0, "name": "bc1d53f6b3815e3e5a03a8b49f76efa6", "bike_id": "bc1d53f6b3815e3e5a03a8b49f76efa6", "is_disabled": 0, "type": "electric_scooter", "lat": 38.85081616666667, "lon": -76.96708333333333, "is_reserved": 0, "fusion_lon": 0.0}, {"rental_uris": {"ios": "https://dc.lft.to/lastmile_qr_scan", "android": "https://dc.lft.to/lastmile_qr_scan"}, "fusion_lat": 0.0, "name": "935c1762e365bd6ad258f33a6a1926fe", "bike_id": "935c1762e365bd6ad258f33a6a1926fe", "is_disabled": 0, "type": "electric_scooter", "lat": 38.862403666666665, "lon": -76.994963, "is_reserved": 0, "fusion_lon": 0.0}, {"rental_uris": {"ios": "https://dc.lft.to/lastmile_qr_scan", "android": "https://dc.lft.to/lastmile_qr_scan"}, "fusion_lat": 0.0, "name": "19088d61b8864e16512ddc0d87b21f50", "bike_id": "19088d61b8864e16512ddc0d87b21f50", "is_disabled": 0, "type": "electric_scooter", "lat": 38.9024505, "lon": -77.04341033333333, "is_reserved": 0, "fusion_lon": 0.0}, {"rental_uris": {"ios": "https://dc.lft.to/lastmile_qr_scan", "android": "https://dc.lft.to/lastmile_qr_scan"}, "fusion_lat": 0.0, "name": "da871042f00e6c4ce1cc383181632a90", "bike_id": "da871042f00e6c4ce1cc383181632a90", "is_disabled": 0, "type": "electric_scooter", "lat": 38.921449, "lon": -77.07313583333334, "is_reserved": 0, "fusion_lon": 0.0}, {"rental_uris": {"ios": "https://dc.lft.to/lastmile_qr_scan", "android": "https://dc.lft.to/lastmile_qr_scan"}, "fusion_lat": 0.0, "name": "1b5871d59904196d6483478b6a9467b6", "bike_id": "1b5871d59904196d6483478b6a9467b6", "is_disabled": 0, "type": "electric_scooter", "lat": 38.91635616666667, "lon": -77.01080766666666, "is_reserved": 0, "fusion_lon": 0.0}, {"rental_uris": {"ios": "https://dc.lft.to/lastmile_qr_scan", "android": "https://dc.lft.to/lastmile_qr_scan"}, "fusion_lat": 0.0, "name": "3be8198709f8b389712363f8f98208e2", "bike_id": "3be8198709f8b389712363f8f98208e2", "is_disabled": 0, "type": "electric_scooter", "lat": 38.85453833333333, "lon": -76.97225616666667, "is_reserved": 0, "fusion_lon": 0.0}, {"rental_uris": {"ios": "https://dc.lft.to/lastmile_qr_scan", "android": "https://dc.lft.to/lastmile_qr_scan"}, "fusion_lat": 0.0, "name": "bba80ad95a7134a30f02cfefc769e7e5", "bike_id": "bba80ad95a7134a30f02cfefc769e7e5", "is_disabled": 0, "type": "electric_bike", "lat": 39.0304515, "lon": -77.0948345, "is_reserved": 0, "fusion_lon": 0.0}, {"rental_uris": {"ios": "https://dc.lft.to/lastmile_qr_scan", "android": "https://dc.lft.to/lastmile_qr_scan"}, "fusion_lat": 0.0, "name": "3db3847d09c122a0e405f59f3a0de427", "bike_id": "3db3847d09c122a0e405f59f3a0de427", "is_disabled": 0, "type": "electric_scooter", "lat": 38.87792116666667, "lon": -77.001191, "is_reserved": 0, "fusion_lon": 0.0}, {"rental_uris": {"ios": "https://dc.lft.to/lastmile_qr_scan", "android": "https://dc.lft.to/lastmile_qr_scan"}, "fusion_lat": 0.0, "name": "cf935769c3848da7fbc8956c783af270", "bike_id": "cf935769c3848da7fbc8956c783af270", "is_disabled": 0, "type": "electric_scooter", "lat": 38.9057095, "lon": -77.00066016666666, "is_reserved": 0, "fusion_lon": 0.0}, {"rental_uris": {"ios": "https://dc.lft.to/lastmile_qr_scan", "android": "https://dc.lft.to/lastmile_qr_scan"}, "fusion_lat": 0.0, "name": "86508e1665b46d5df75db23a43341fca", "bike_id": "86508e1665b46d5df75db23a43341fca", "is_disabled": 0, "type": "electric_scooter", "lat": 38.913368166666665, "lon": -77.04879016666666, "is_reserved": 0, "fusion_lon": 0.0}, {"rental_uris": {"ios": "https://dc.lft.to/lastmile_qr_scan", "android": "https://dc.lft.to/lastmile_qr_scan"}, "fusion_lat": 0.0, "name": "84c85e468fcb5584a78fc083b2355b82", "bike_id": "84c85e468fcb5584a78fc083b2355b82", "is_disabled": 0, "type": "electric_scooter", "lat": 38.91683833333333, "lon": -77.02973033333333, "is_reserved": 0, "fusion_lon": 0.0}, {"rental_uris": {"ios": "https://dc.lft.to/lastmile_qr_scan", "android": "https://dc.lft.to/lastmile_qr_scan"}, "fusion_lat": 0.0, "name": "0c8bad3016883aacbe547df5ae159767", "bike_id": "0c8bad3016883aacbe547df5ae159767", "is_disabled": 0, "type": "electric_scooter", "lat": 38.88446666666667, "lon": -77.03034466666666, "is_reserved": 0, "fusion_lon": 0.0}, {"rental_uris": {"ios": "https://dc.lft.to/lastmile_qr_scan", "android": "https://dc.lft.to/lastmile_qr_scan"}, "fusion_lat": 0.0, "name": "fec9ec5a794211dba8096164f9daa456", "bike_id": "fec9ec5a794211dba8096164f9daa456", "is_disabled": 0, "type": "electric_scooter", "lat": 38.875704999999996, "lon": -77.02082816666666, "is_reserved": 0, "fusion_lon": 0.0}, {"rental_uris": {"ios": "https://dc.lft.to/lastmile_qr_scan", "android": "https://dc.lft.to/lastmile_qr_scan"}, "fusion_lat": 0.0, "name": "e8c9cd32c12026561d669467f77213ca", "bike_id": "e8c9cd32c12026561d669467f77213ca", "is_disabled": 0, "type": "electric_scooter", "lat": 38.904097166666666, "lon": -76.97328316666666, "is_reserved": 0, "fusion_lon": 0.0}, {"rental_uris": {"ios": "https://dc.lft.to/lastmile_qr_scan", "android": "https://dc.lft.to/lastmile_qr_scan"}, "fusion_lat": 0.0, "name": "ef613dd3b4929dbeadb23d45b99e6d50", "bike_id": "ef613dd3b4929dbeadb23d45b99e6d50", "is_disabled": 0, "type": "electric_scooter", "lat": 38.917436333333335, "lon": -77.02395333333334, "is_reserved": 0, "fusion_lon": 0.0}, {"rental_uris": {"ios": "https://dc.lft.to/lastmile_qr_scan", "android": "https://dc.lft.to/lastmile_qr_scan"}, "fusion_lat": 0.0, "name": "4f759d987c32ed1aa517da50298597c5", "bike_id": "4f759d987c32ed1aa517da50298597c5", "is_disabled": 0, "type": "electric_scooter", "lat": 38.8939525, "lon": -77.05000633333333, "is_reserved": 0, "fusion_lon": 0.0}, {"rental_uris": {"ios": "https://dc.lft.to/lastmile_qr_scan", "android": "https://dc.lft.to/lastmile_qr_scan"}, "fusion_lat": 0.0, "name": "422420308fad789df2c9032dce0cf443", "bike_id": "422420308fad789df2c9032dce0cf443", "is_disabled": 0, "type": "electric_scooter", "lat": 38.91569916666667, "lon": -77.03201466666667, "is_reserved": 0, "fusion_lon": 0.0}, {"rental_uris": {"ios": "https://dc.lft.to/lastmile_qr_scan", "android": "https://dc.lft.to/lastmile_qr_scan"}, "fusion_lat": 0.0, "name": "634c69cc9295278fb1fd27f76a8db7bb", "bike_id": "634c69cc9295278fb1fd27f76a8db7bb", "is_disabled": 0, "type": "electric_scooter", "lat": 38.902724166666665, "lon": -77.063205, "is_reserved": 0, "fusion_lon": 0.0}, {"rental_uris": {"ios": "https://dc.lft.to/lastmile_qr_scan", "android": "https://dc.lft.to/lastmile_qr_scan"}, "fusion_lat": 0.0, "name": "51fa5284b93f67e18db9ca606f0c7bf2", "bike_id": "51fa5284b93f67e18db9ca606f0c7bf2", "is_disabled": 0, "type": "electric_scooter", "lat": 38.90358783333333, "lon": -77.046706, "is_reserved": 0, "fusion_lon": 0.0}, {"rental_uris": {"ios": "https://dc.lft.to/lastmile_qr_scan", "android": "https://dc.lft.to/lastmile_qr_scan"}, "fusion_lat": 0.0, "name": "1028029552bdf63662c483d3b4a4cea1", "bike_id": "1028029552bdf63662c483d3b4a4cea1", "is_disabled": 0, "type": "electric_scooter", "lat": 38.91697716666667, "lon": -77.03915533333333, "is_reserved": 0, "fusion_lon": 0.0}, {"rental_uris": {"ios": "https://dc.lft.to/lastmile_qr_scan", "android": "https://dc.lft.to/lastmile_qr_scan"}, "fusion_lat": 0.0, "name": "6e6e0c661e8003976cc20a6ad58788c1", "bike_id": "6e6e0c661e8003976cc20a6ad58788c1", "is_disabled": 0, "type": "electric_scooter", "lat": 38.904031833333335, "lon": -77.0294965, "is_reserved": 0, "fusion_lon": 0.0}, {"rental_uris": {"ios": "https://dc.lft.to/lastmile_qr_scan", "android": "https://dc.lft.to/lastmile_qr_scan"}, "fusion_lat": 0.0, "name": "31077378f48263ff13b10c0556aeac01", "bike_id": "31077378f48263ff13b10c0556aeac01", "is_disabled": 0, "type": "electric_scooter", "lat": 38.9198795, "lon": -77.04763116666666, "is_reserved": 0, "fusion_lon": 0.0}, {"rental_uris": {"ios": "https://dc.lft.to/lastmile_qr_scan", "android": "https://dc.lft.to/lastmile_qr_scan"}, "fusion_lat": 0.0, "name": "45caec5dbeda8f3b34b2fbcc9048c233", "bike_id": "45caec5dbeda8f3b34b2fbcc9048c233", "is_disabled": 0, "type": "electric_scooter", "lat": 38.9097615, "lon": -77.03433216666667, "is_reserved": 0, "fusion_lon": 0.0}, {"rental_uris": {"ios": "https://dc.lft.to/lastmile_qr_scan", "android": "https://dc.lft.to/lastmile_qr_scan"}, "fusion_lat": 0.0, "name": "5f31371f32a49ffd81438cd5746e18e5", "bike_id": "5f31371f32a49ffd81438cd5746e18e5", "is_disabled": 0, "type": "electric_scooter", "lat": 38.937484, "lon": -77.034501, "is_reserved": 0, "fusion_lon": 0.0}, {"rental_uris": {"ios": "https://dc.lft.to/lastmile_qr_scan", "android": "https://dc.lft.to/lastmile_qr_scan"}, "fusion_lat": 0.0, "name": "72caf20e7d332eddb1cbfe8542a5eeb5", "bike_id": "72caf20e7d332eddb1cbfe8542a5eeb5", "is_disabled": 0, "type": "electric_scooter", "lat": 38.924773, "lon": -77.0347975, "is_reserved": 0, "fusion_lon": 0.0}, {"rental_uris": {"ios": "https://dc.lft.to/lastmile_qr_scan", "android": "https://dc.lft.to/lastmile_qr_scan"}, "fusion_lat": 0.0, "name": "c4e3fa61a8a70c5c01f3e76eb6e457dd", "bike_id": "c4e3fa61a8a70c5c01f3e76eb6e457dd", "is_disabled": 0, "type": "electric_scooter", "lat": 38.866816666666665, "lon": -76.98526683333333, "is_reserved": 0, "fusion_lon": 0.0}, {"rental_uris": {"ios": "https://dc.lft.to/lastmile_qr_scan", "android": "https://dc.lft.to/lastmile_qr_scan"}, "fusion_lat": 0.0, "name": "34b622713be54c94955e22bea81143dc", "bike_id": "34b622713be54c94955e22bea81143dc", "is_disabled": 0, "type": "electric_scooter", "lat": 38.919247, "lon": -77.034182, "is_reserved": 0, "fusion_lon": 0.0}, {"rental_uris": {"ios": "https://dc.lft.to/lastmile_qr_scan", "android": "https://dc.lft.to/lastmile_qr_scan"}, "fusion_lat": 0.0, "name": "b938ea44adceedcc315dbcd2213b3c4e", "bike_id": "b938ea44adceedcc315dbcd2213b3c4e", "is_disabled": 0, "type": "electric_scooter", "lat": 38.91561383333333, "lon": -77.03163966666666, "is_reserved": 0, "fusion_lon": 0.0}, {"rental_uris": {"ios": "https://dc.lft.to/lastmile_qr_scan", "android": "https://dc.lft.to/lastmile_qr_scan"}, "fusion_lat": 0.0, "name": "d72327cdb684f63e5d54aa83f2b774e1", "bike_id": "d72327cdb684f63e5d54aa83f2b774e1", "is_disabled": 0, "type": "electric_scooter", "lat": 38.8764585, "lon": -77.00715833333334, "is_reserved": 0, "fusion_lon": 0.0}, {"rental_uris": {"ios": "https://dc.lft.to/lastmile_qr_scan", "android": "https://dc.lft.to/lastmile_qr_scan"}, "fusion_lat": 0.0, "name": "edc0c61ad2584c0a2384bbbc98ed5bd7", "bike_id": "edc0c61ad2584c0a2384bbbc98ed5bd7", "is_disabled": 0, "type": "electric_scooter", "lat": 38.89456466666667, "lon": -77.0225445, "is_reserved": 0, "fusion_lon": 0.0}, {"rental_uris": {"ios": "https://dc.lft.to/lastmile_qr_scan", "android": "https://dc.lft.to/lastmile_qr_scan"}, "fusion_lat": 0.0, "name": "e111f3d99fab0c9116ca4bec99b6a767", "bike_id": "e111f3d99fab0c9116ca4bec99b6a767", "is_disabled": 0, "type": "electric_scooter", "lat": 38.944471166666666, "lon": -77.06193916666666, "is_reserved": 0, "fusion_lon": 0.0}, {"rental_uris": {"ios": "https://dc.lft.to/lastmile_qr_scan", "android": "https://dc.lft.to/lastmile_qr_scan"}, "fusion_lat": 0.0, "name": "d94125ea65fa0f6c2aaa8686374cf900", "bike_id": "d94125ea65fa0f6c2aaa8686374cf900", "is_disabled": 0, "type": "electric_scooter", "lat": 38.915582, "lon": -77.03868933333334, "is_reserved": 0, "fusion_lon": 0.0}, {"rental_uris": {"ios": "https://dc.lft.to/lastmile_qr_scan", "android": "https://dc.lft.to/lastmile_qr_scan"}, "fusion_lat": 0.0, "name": "2a355cc4f4fecfcc3bfa92d63bc5569d", "bike_id": "2a355cc4f4fecfcc3bfa92d63bc5569d", "is_disabled": 0, "type": "electric_scooter", "lat": 38.91954366666667, "lon": -77.02499183333333, "is_reserved": 0, "fusion_lon": 0.0}, {"rental_uris": {"ios": "https://dc.lft.to/lastmile_qr_scan", "android": "https://dc.lft.to/lastmile_qr_scan"}, "fusion_lat": 0.0, "name": "a875eb0d032e6094bf1bd3c9ac2af1b7", "bike_id": "a875eb0d032e6094bf1bd3c9ac2af1b7", "is_disabled": 0, "type": "electric_scooter", "lat": 38.907539666666665, "lon": -77.028098, "is_reserved": 0, "fusion_lon": 0.0}, {"rental_uris": {"ios": "https://dc.lft.to/lastmile_qr_scan", "android": "https://dc.lft.to/lastmile_qr_scan"}, "fusion_lat": 0.0, "name": "b0403b7271654a98e9aa2b8181af6012", "bike_id": "b0403b7271654a98e9aa2b8181af6012", "is_disabled": 0, "type": "electric_scooter", "lat": 38.90001933333333, "lon": -76.9961745, "is_reserved": 0, "fusion_lon": 0.0}, {"rental_uris": {"ios": "https://dc.lft.to/lastmile_qr_scan", "android": "https://dc.lft.to/lastmile_qr_scan"}, "fusion_lat": 0.0, "name": "262cf743119c8d625ffdd72134689cfb", "bike_id": "262cf743119c8d625ffdd72134689cfb", "is_disabled": 0, "type": "electric_scooter", "lat": 38.9185025, "lon": -77.03206933333334, "is_reserved": 0, "fusion_lon": 0.0}, {"rental_uris": {"ios": "https://dc.lft.to/lastmile_qr_scan", "android": "https://dc.lft.to/lastmile_qr_scan"}, "fusion_lat": 0.0, "name": "6cf62c46fa1e129d30203f3536d212d0", "bike_id": "6cf62c46fa1e129d30203f3536d212d0", "is_disabled": 0, "type": "electric_bike", "lat": 38.95293516666667, "lon": -77.02465616666667, "is_reserved": 0, "fusion_lon": 0.0}, {"rental_uris": {"ios": "https://dc.lft.to/lastmile_qr_scan", "android": "https://dc.lft.to/lastmile_qr_scan"}, "fusion_lat": 0.0, "name": "dc9db87a662cd8ca1d9f6c11e0d6aafd", "bike_id": "dc9db87a662cd8ca1d9f6c11e0d6aafd", "is_disabled": 0, "type": "electric_scooter", "lat": 38.916943833333335, "lon": -77.0408355, "is_reserved": 0, "fusion_lon": 0.0}, {"rental_uris": {"ios": "https://dc.lft.to/lastmile_qr_scan", "android": "https://dc.lft.to/lastmile_qr_scan"}, "fusion_lat": 0.0, "name": "20792959e9baf0c8a99a2afb2d7ffb89", "bike_id": "20792959e9baf0c8a99a2afb2d7ffb89", "is_disabled": 0, "type": "electric_scooter", "lat": 38.8950155, "lon": -76.94875766666667, "is_reserved": 0, "fusion_lon": 0.0}, {"rental_uris": {"ios": "https://dc.lft.to/lastmile_qr_scan", "android": "https://dc.lft.to/lastmile_qr_scan"}, "fusion_lat": 0.0, "name": "492eb6d9fa0b3d81bf14d1d0ab93f994", "bike_id": "492eb6d9fa0b3d81bf14d1d0ab93f994", "is_disabled": 0, "type": "electric_scooter", "lat": 38.8664545, "lon": -76.98885516666667, "is_reserved": 0, "fusion_lon": 0.0}, {"rental_uris": {"ios": "https://dc.lft.to/lastmile_qr_scan", "android": "https://dc.lft.to/lastmile_qr_scan"}, "fusion_lat": 0.0, "name": "5dd06f9a73a5c4a07e66ba504a8ca4ff", "bike_id": "5dd06f9a73a5c4a07e66ba504a8ca4ff", "is_disabled": 0, "type": "electric_scooter", "lat": 38.9084445, "lon": -77.02058816666667, "is_reserved": 0, "fusion_lon": 0.0}, {"rental_uris": {"ios": "https://dc.lft.to/lastmile_qr_scan", "android": "https://dc.lft.to/lastmile_qr_scan"}, "fusion_lat": 0.0, "name": "e929ca67e112ce466e813d2f67d1bf97", "bike_id": "e929ca67e112ce466e813d2f67d1bf97", "is_disabled": 0, "type": "electric_scooter", "lat": 38.89886683333334, "lon": -76.9990525, "is_reserved": 0, "fusion_lon": 0.0}, {"rental_uris": {"ios": "https://dc.lft.to/lastmile_qr_scan", "android": "https://dc.lft.to/lastmile_qr_scan"}, "fusion_lat": 0.0, "name": "bef32683f2ee95371d1efd8b7f0b6b94", "bike_id": "bef32683f2ee95371d1efd8b7f0b6b94", "is_disabled": 0, "type": "electric_scooter", "lat": 38.9008815, "lon": -77.04919866666667, "is_reserved": 0, "fusion_lon": 0.0}, {"rental_uris": {"ios": "https://dc.lft.to/lastmile_qr_scan", "android": "https://dc.lft.to/lastmile_qr_scan"}, "fusion_lat": 0.0, "name": "ddb0cde7586f18c50a886fe15164ab0b", "bike_id": "ddb0cde7586f18c50a886fe15164ab0b", "is_disabled": 0, "type": "electric_scooter", "lat": 38.8649635, "lon": -76.9898665, "is_reserved": 0, "fusion_lon": 0.0}, {"rental_uris": {"ios": "https://dc.lft.to/lastmile_qr_scan", "android": "https://dc.lft.to/lastmile_qr_scan"}, "fusion_lat": 0.0, "name": "d118c6a860c5366b57159c04c55ebd8a", "bike_id": "d118c6a860c5366b57159c04c55ebd8a", "is_disabled": 0, "type": "electric_scooter", "lat": 38.90987633333334, "lon": -77.03840333333333, "is_reserved": 0, "fusion_lon": 0.0}, {"rental_uris": {"ios": "https://dc.lft.to/lastmile_qr_scan", "android": "https://dc.lft.to/lastmile_qr_scan"}, "fusion_lat": 0.0, "name": "b9efe5982ddc858b263585ba6456edde", "bike_id": "b9efe5982ddc858b263585ba6456edde", "is_disabled": 0, "type": "electric_scooter", "lat": 38.920882166666665, "lon": -77.03179083333333, "is_reserved": 0, "fusion_lon": 0.0}, {"rental_uris": {"ios": "https://dc.lft.to/lastmile_qr_scan", "android": "https://dc.lft.to/lastmile_qr_scan"}, "fusion_lat": 0.0, "name": "4cd8535dcc51456682a03601866984eb", "bike_id": "4cd8535dcc51456682a03601866984eb", "is_disabled": 0, "type": "electric_scooter", "lat": 38.89229916666667, "lon": -77.01366283333333, "is_reserved": 0, "fusion_lon": 0.0}, {"rental_uris": {"ios": "https://dc.lft.to/lastmile_qr_scan", "android": "https://dc.lft.to/lastmile_qr_scan"}, "fusion_lat": 0.0, "name": "fab16c4ae11715c6018ee906c34efc6e", "bike_id": "fab16c4ae11715c6018ee906c34efc6e", "is_disabled": 0, "type": "electric_scooter", "lat": 38.89513616666667, "lon": -77.02418683333333, "is_reserved": 0, "fusion_lon": 0.0}, {"rental_uris": {"ios": "https://dc.lft.to/lastmile_qr_scan", "android": "https://dc.lft.to/lastmile_qr_scan"}, "fusion_lat": 0.0, "name": "e10375e8f10da06ee8627f93c1baeae4", "bike_id": "e10375e8f10da06ee8627f93c1baeae4", "is_disabled": 0, "type": "electric_scooter", "lat": 38.9171215, "lon": -77.02574283333334, "is_reserved": 0, "fusion_lon": 0.0}, {"rental_uris": {"ios": "https://dc.lft.to/lastmile_qr_scan", "android": "https://dc.lft.to/lastmile_qr_scan"}, "fusion_lat": 0.0, "name": "c7e2a6d497f44f7b11960a59d70fba41", "bike_id": "c7e2a6d497f44f7b11960a59d70fba41", "is_disabled": 0, "type": "electric_scooter", "lat": 38.9316225, "lon": -77.05610466666667, "is_reserved": 0, "fusion_lon": 0.0}, {"rental_uris": {"ios": "https://dc.lft.to/lastmile_qr_scan", "android": "https://dc.lft.to/lastmile_qr_scan"}, "fusion_lat": 0.0, "name": "249b253e5e123839c616691284fccaaf", "bike_id": "249b253e5e123839c616691284fccaaf", "is_disabled": 0, "type": "electric_scooter", "lat": 38.92829066666667, "lon": -77.03707383333334, "is_reserved": 0, "fusion_lon": 0.0}, {"rental_uris": {"ios": "https://dc.lft.to/lastmile_qr_scan", "android": "https://dc.lft.to/lastmile_qr_scan"}, "fusion_lat": 0.0, "name": "66ee02ce15ce268e554eaa9ef0165d43", "bike_id": "66ee02ce15ce268e554eaa9ef0165d43", "is_disabled": 0, "type": "electric_scooter", "lat": 38.905859666666665, "lon": -77.03860716666667, "is_reserved": 0, "fusion_lon": 0.0}, {"rental_uris": {"ios": "https://dc.lft.to/lastmile_qr_scan", "android": "https://dc.lft.to/lastmile_qr_scan"}, "fusion_lat": 0.0, "name": "f264329ab07b27b1cd5fcf894ffe6ebc", "bike_id": "f264329ab07b27b1cd5fcf894ffe6ebc", "is_disabled": 0, "type": "electric_scooter", "lat": 38.932914, "lon": -77.02195683333333, "is_reserved": 0, "fusion_lon": 0.0}, {"rental_uris": {"ios": "https://dc.lft.to/lastmile_qr_scan", "android": "https://dc.lft.to/lastmile_qr_scan"}, "fusion_lat": 0.0, "name": "ab371156716981a1ce73f94d7da10890", "bike_id": "ab371156716981a1ce73f94d7da10890", "is_disabled": 0, "type": "electric_scooter", "lat": 38.92629066666667, "lon": -77.02268733333334, "is_reserved": 0, "fusion_lon": 0.0}, {"rental_uris": {"ios": "https://dc.lft.to/lastmile_qr_scan", "android": "https://dc.lft.to/lastmile_qr_scan"}, "fusion_lat": 0.0, "name": "f2b209add0729d46262aaf7456cb3907", "bike_id": "f2b209add0729d46262aaf7456cb3907", "is_disabled": 0, "type": "electric_scooter", "lat": 38.89221216666667, "lon": -77.04331166666667, "is_reserved": 0, "fusion_lon": 0.0}, {"rental_uris": {"ios": "https://dc.lft.to/lastmile_qr_scan", "android": "https://dc.lft.to/lastmile_qr_scan"}, "fusion_lat": 0.0, "name": "271fffb3ebd2743bfffe08fb15c3f3e4", "bike_id": "271fffb3ebd2743bfffe08fb15c3f3e4", "is_disabled": 0, "type": "electric_scooter", "lat": 38.909745666666666, "lon": -77.02177033333334, "is_reserved": 0, "fusion_lon": 0.0}, {"rental_uris": {"ios": "https://dc.lft.to/lastmile_qr_scan", "android": "https://dc.lft.to/lastmile_qr_scan"}, "fusion_lat": 0.0, "name": "d4379a0d5ecdf6831e030ba6ffb3c511", "bike_id": "d4379a0d5ecdf6831e030ba6ffb3c511", "is_disabled": 0, "type": "electric_scooter", "lat": 38.91674833333333, "lon": -77.02388833333333, "is_reserved": 0, "fusion_lon": 0.0}, {"rental_uris": {"ios": "https://dc.lft.to/lastmile_qr_scan", "android": "https://dc.lft.to/lastmile_qr_scan"}, "fusion_lat": 0.0, "name": "c21fa1d9146d6046b1063dc6a11891e1", "bike_id": "c21fa1d9146d6046b1063dc6a11891e1", "is_disabled": 0, "type": "electric_scooter", "lat": 38.9103935, "lon": -77.0437085, "is_reserved": 0, "fusion_lon": 0.0}, {"rental_uris": {"ios": "https://dc.lft.to/lastmile_qr_scan", "android": "https://dc.lft.to/lastmile_qr_scan"}, "fusion_lat": 0.0, "name": "14cc71496010e86e5815f1ab033d928b", "bike_id": "14cc71496010e86e5815f1ab033d928b", "is_disabled": 0, "type": "electric_scooter", "lat": 38.89507066666667, "lon": -77.02395466666667, "is_reserved": 0, "fusion_lon": 0.0}, {"rental_uris": {"ios": "https://dc.lft.to/lastmile_qr_scan", "android": "https://dc.lft.to/lastmile_qr_scan"}, "fusion_lat": 0.0, "name": "8b89259e970c3b43e29fa0cb9bbf5dfc", "bike_id": "8b89259e970c3b43e29fa0cb9bbf5dfc", "is_disabled": 0, "type": "electric_scooter", "lat": 38.887442666666665, "lon": -77.03144133333333, "is_reserved": 0, "fusion_lon": 0.0}, {"rental_uris": {"ios": "https://dc.lft.to/lastmile_qr_scan", "android": "https://dc.lft.to/lastmile_qr_scan"}, "fusion_lat": 0.0, "name": "2ec70874613d81b395dc4d13632c08da", "bike_id": "2ec70874613d81b395dc4d13632c08da", "is_disabled": 0, "type": "electric_scooter", "lat": 38.92056683333333, "lon": -77.03395583333334, "is_reserved": 0, "fusion_lon": 0.0}, {"rental_uris": {"ios": "https://dc.lft.to/lastmile_qr_scan", "android": "https://dc.lft.to/lastmile_qr_scan"}, "fusion_lat": 0.0, "name": "7d002e9ec3a2179c4357d14098c60341", "bike_id": "7d002e9ec3a2179c4357d14098c60341", "is_disabled": 0, "type": "electric_scooter", "lat": 38.919753166666666, "lon": -77.01208416666667, "is_reserved": 0, "fusion_lon": 0.0}, {"rental_uris": {"ios": "https://dc.lft.to/lastmile_qr_scan", "android": "https://dc.lft.to/lastmile_qr_scan"}, "fusion_lat": 0.0, "name": "6a41a0835511aa6fedda57537c845df6", "bike_id": "6a41a0835511aa6fedda57537c845df6", "is_disabled": 0, "type": "electric_scooter", "lat": 38.90678916666667, "lon": -77.02695283333334, "is_reserved": 0, "fusion_lon": 0.0}, {"rental_uris": {"ios": "https://dc.lft.to/lastmile_qr_scan", "android": "https://dc.lft.to/lastmile_qr_scan"}, "fusion_lat": 0.0, "name": "84b72594b3c401ccc06646c91178d302", "bike_id": "84b72594b3c401ccc06646c91178d302", "is_disabled": 0, "type": "electric_scooter", "lat": 38.89353, "lon": -77.00334583333333, "is_reserved": 0, "fusion_lon": 0.0}, {"rental_uris": {"ios": "https://dc.lft.to/lastmile_qr_scan", "android": "https://dc.lft.to/lastmile_qr_scan"}, "fusion_lat": 0.0, "name": "83c76a0025c0f242af06ba3bf5c26c57", "bike_id": "83c76a0025c0f242af06ba3bf5c26c57", "is_disabled": 0, "type": "electric_scooter", "lat": 38.939136500000004, "lon": -77.07651133333333, "is_reserved": 0, "fusion_lon": 0.0}, {"rental_uris": {"ios": "https://dc.lft.to/lastmile_qr_scan", "android": "https://dc.lft.to/lastmile_qr_scan"}, "fusion_lat": 0.0, "name": "260ad66603381b5692d9955fe9963fc0", "bike_id": "260ad66603381b5692d9955fe9963fc0", "is_disabled": 0, "type": "electric_scooter", "lat": 38.92210266666667, "lon": -77.036598, "is_reserved": 0, "fusion_lon": 0.0}, {"rental_uris": {"ios": "https://dc.lft.to/lastmile_qr_scan", "android": "https://dc.lft.to/lastmile_qr_scan"}, "fusion_lat": 0.0, "name": "10848d741c34535cdf0b304d33ba1f12", "bike_id": "10848d741c34535cdf0b304d33ba1f12", "is_disabled": 0, "type": "electric_scooter", "lat": 38.937477666666666, "lon": -77.03450483333333, "is_reserved": 0, "fusion_lon": 0.0}, {"rental_uris": {"ios": "https://dc.lft.to/lastmile_qr_scan", "android": "https://dc.lft.to/lastmile_qr_scan"}, "fusion_lat": 0.0, "name": "8f3726db6ec783272796c508d7e2eab9", "bike_id": "8f3726db6ec783272796c508d7e2eab9", "is_disabled": 0, "type": "electric_bike", "lat": 38.856074, "lon": -77.112444, "is_reserved": 0, "fusion_lon": 0.0}, {"rental_uris": {"ios": "https://dc.lft.to/lastmile_qr_scan", "android": "https://dc.lft.to/lastmile_qr_scan"}, "fusion_lat": 0.0, "name": "92c495eed77735c93ec5bd4e43ba9d2b", "bike_id": "92c495eed77735c93ec5bd4e43ba9d2b", "is_disabled": 0, "type": "electric_bike", "lat": 38.911353166666665, "lon": -76.988108, "is_reserved": 0, "fusion_lon": 0.0}, {"rental_uris": {"ios": "https://dc.lft.to/lastmile_qr_scan", "android": "https://dc.lft.to/lastmile_qr_scan"}, "fusion_lat": 0.0, "name": "3726f0b1a33a27ea5efe60143795b38c", "bike_id": "3726f0b1a33a27ea5efe60143795b38c", "is_disabled": 0, "type": "electric_scooter", "lat": 38.911244833333335, "lon": -77.02693416666666, "is_reserved": 0, "fusion_lon": 0.0},