{"data": {"bikes": [{"fusion_lon": 0.0, "name": "ab7ea1fba9689c176f579bb4c6dff5be", "rental_uris": {"android": "https://dc.lft.to/lastmile_qr_scan", "ios": "https://dc.lft.to/lastmile_qr_scan"}, "lat": 38.920527166666666, "bike_id": "ab7ea1fba9689c176f579bb4c6dff5be", "is_disabled": 0, "lon": -77.0418385, "is_reserved": 0, "fusion_lat": 0.0, "type": "electric_scooter"}, {"fusion_lon": 0.0, "name": "f0db0e8dd8713efc787356d285782de9", "rental_uris": {"android": "https://dc.lft.to/lastmile_qr_scan", "ios": "https://dc.lft.to/lastmile_qr_scan"}, "lat": 38.8837365, "bike_id": "f0db0e8dd8713efc787356d285782de9", "is_disabled": 0, "lon": -76.92420933333334, "is_reserved": 0, "fusion_lat": 0.0, "type": "electric_scooter"}, {"fusion_lon": 0.0, "name": "23960d2368ce749cf75d577333370303", "rental_uris": {"android": "https://dc.lft.to/lastmile_qr_scan", "ios": "https://dc.lft.to/lastmile_qr_scan"}, "lat": 38.92361966666667, "bike_id": "23960d2368ce749cf75d577333370303", "is_disabled": 0, "lon": -77.05059716666666, "is_reserved": 0, "fusion_lat": 0.0, "type": "electric_scooter"}, {"fusion_lon": 0.0, "name": "52064ed510796909d51593f09321e471", "rental_uris": {"android": "https://dc.lft.to/lastmile_qr_scan", "ios": "https://dc.lft.to/lastmile_qr_scan"}, "lat": 38.908313666666665, "bike_id": "52064ed510796909d51593f09321e471", "is_disabled": 0, "lon": -77.0731155, "is_reserved": 0, "fusion_lat": 0.0, "type": "electric_scooter"}, {"fusion_lon": 0.0, "name": "26c73e71d82789369f4996f358fafb21", "rental_uris": {"android": "https://dc.lft.to/lastmile_qr_scan", "ios": "https://dc.lft.to/lastmile_qr_scan"}, "lat": 38.9149245, "bike_id": "26c73e71d82789369f4996f358fafb21", "is_disabled": 0, "lon": -77.02192933333333, "is_reserved": 0, "fusion_lat": 0.0, "type": "electric_scooter"}, {"fusion_lon": 0.0, "name": "74718230ec7b283545af79dae078b062", "rental_uris": {"android": "https://dc.lft.to/lastmile_qr_scan", "ios": "https://dc.lft.to/lastmile_qr_scan"}, "lat": 38.9233065, "bike_id": "74718230ec7b283545af79dae078b062", "is_disabled": 0, "lon": -77.03617, "is_reserved": 0, "fusion_lat": 0.0, "type": "electric_scooter"}, {"fusion_lon": 0.0, "name": "5ffeb7fdd7675d118c349b2dedf43388", "rental_uris": {"android": "https://dc.lft.to/lastmile_qr_scan", "ios": "https://dc.lft.to/lastmile_qr_scan"}, "lat": 38.90269216666667, "bike_id": "5ffeb7fdd7675d118c349b2dedf43388", "is_disabled": 0, "lon": -77.0173585, "is_reserved": 0, "fusion_lat": 0.0, "type": "electric_scooter"}, {"fusion_lon": 0.0, "name": "74155a2f4de24d6767c5787d3a1e6c06", "rental_uris": {"android": "https://dc.lft.to/lastmile_qr_scan", "ios": "https://dc.lft.to/lastmile_qr_scan"}, "lat": 38.922451833333334, "bike_id": "74155a2f4de24d6767c5787d3a1e6c06", "is_disabled": 0, "lon": -77.02152283333334, "is_reserved": 0, "fusion_lat": 0.0, "type": "electric_scooter"}, {"fusion_lon": 0.0, "name": "764ee00b9424bee1c70232da9c644f73", "rental_uris": {"android": "https://dc.lft.to/lastmile_qr_scan", "ios": "https://dc.lft.to/lastmile_qr_scan"}, "lat": 38.92489283333333, "bike_id": "764ee00b9424bee1c70232da9c644f73", "is_disabled": 0, "lon": -77.00889066666667, "is_reserved": 0, "fusion_lat": 0.0, "type": "electric_scooter"}, {"fusion_lon": 0.0, "name": "9d22feb681b8cad49e5c913fa4f1c6c1", "rental_uris": {"android": "https://dc.lft.to/lastmile_qr_scan", "ios": "https://dc.lft.to/lastmile_qr_scan"}, "lat": 38.891941833333334, "bike_id": "9d22feb681b8cad49e5c913fa4f1c6c1", "is_disabled": 0, "lon": -76.95811716666667, "is_reserved": 0, "fusion_lat": 0.0, "type": "electric_scooter"}, {"fusion_lon": 0.0, "name": "9fc7a5a9ca0a94b80375c8e221369a59", "rental_uris": {"android": "https://dc.lft.to/lastmile_qr_scan", "ios": "https://dc.lft.to/lastmile_qr_scan"}, "lat": 38.930828, "bike_id": "9fc7a5a9ca0a94b80375c8e221369a59", "is_disabled": 0, "lon": -77.03657383333334, "is_reserved": 0, "fusion_lat": 0.0, "type": "electric_scooter"}, {"fusion_lon": 0.0, "name": "6c909ab506f5c52cf98caaacdd31d604", "rental_uris": {"android": "https://dc.lft.to/lastmile_qr_scan", "ios": "https://dc.lft.to/lastmile_qr_scan"}, "lat": 38.91984266666667, "bike_id": "6c909ab506f5c52cf98caaacdd31d604", "is_disabled": 0, "lon": -77.032632, "is_reserved": 0, "fusion_lat": 0.0, "type": "electric_scooter"}, {"fusion_lon": 0.0, "name": "5fab8a0c32c8b56cc18721140646e947", "rental_uris": {"android": "https://dc.lft.to/lastmile_qr_scan", "ios": "https://dc.lft.to/lastmile_qr_scan"}, "lat": 38.902638333333336, "bike_id": "5fab8a0c32c8b56cc18721140646e947", "is_disabled": 0, "lon": -77.00326233333334, "is_reserved": 0, "fusion_lat": 0.0, "type": "electric_scooter"}, {"fusion_lon": 0.0, "name": "077fceb25d9eaf7ee9dfb7a7b2cee79a", "rental_uris": {"android": "https://dc.lft.to/lastmile_qr_scan", "ios": "https://dc.lft.to/lastmile_qr_scan"}, "lat": 38.889629, "bike_id": "077fceb25d9eaf7ee9dfb7a7b2cee79a", "is_disabled": 0, "lon": -76.98826483333333, "is_reserved": 0, "fusion_lat": 0.0, "type": "electric_scooter"}, {"fusion_lon": 0.0, "name": "a0474105da0ede7b2f0351f5501d70d9", "rental_uris": {"android": "https://dc.lft.to/lastmile_qr_scan", "ios": "https://dc.lft.to/lastmile_qr_scan"}, "lat": 38.89233766666667, "bike_id": "a0474105da0ede7b2f0351f5501d70d9", "is_disabled": 0, "lon": -77.05001816666666, "is_reserved": 0, "fusion_lat": 0.0, "type": "electric_scooter"}, {"fusion_lon": 0.0, "name": "dda42581c134cec23f8b92bee0d35061", "rental_uris": {"android": "https://dc.lft.to/lastmile_qr_scan", "ios": "https://dc.lft.to/lastmile_qr_scan"}, "lat": 38.9356165, "bike_id": "dda42581c134cec23f8b92bee0d35061", "is_disabled": 0, "lon": -77.03485083333334, "is_reserved": 0, "fusion_lat": 0.0, "type": "electric_scooter"}, {"fusion_lon": 0.0, "name": "96131cf55a21ea07fd58fc780526d263", "rental_uris": {"android": "https://dc.lft.to/lastmile_qr_scan", "ios": "https://dc.lft.to/lastmile_qr_scan"}, "lat": 38.929164166666666, "bike_id": "96131cf55a21ea07fd58fc780526d263", "is_disabled": 0, "lon": -76.99811633333333, "is_reserved": 0, "fusion_lat": 0.0, "type": "electric_scooter"}, {"fusion_lon": 0.0, "name": "0caedb9421e6722b27271a9e30a6a718", "rental_uris": {"android": "https://dc.lft.to/lastmile_qr_scan", "ios": "https://dc.lft.to/lastmile_qr_scan"}, "lat": 38.90047283333333, "bike_id": "0caedb9421e6722b27271a9e30a6a718", "is_disabled": 0, "lon": -76.985569, "is_reserved": 0, "fusion_lat": 0.0, "type": "electric_scooter"}, {"fusion_lon": 0.0, "name": "a80ac6a26ef2e002013e9eb7ac292db4", "rental_uris": {"android": "https://dc.lft.to/lastmile_qr_scan", "ios": "https://dc.lft.to/lastmile_qr_scan"}, "lat": 38.93504633333333, "bike_id": "a80ac6a26ef2e002013e9eb7ac292db4", "is_disabled": 0, "lon": -77.02007183333333, "is_reserved": 0, "fusion_lat": 0.0, "type": "electric_scooter"}, {"fusion_lon": 0.0, "name": "c5877fc4148a960b2db61275e611c31e", "rental_uris": {"android": "https://dc.lft.to/lastmile_qr_scan", "ios": "https://dc.lft.to/lastmile_qr_scan"}, "lat": 38.922456833333335, "bike_id": "c5877fc4148a960b2db61275e611c31e", "is_disabled": 0, "lon": -77.04368533333333, "is_reserved": 0, "fusion_lat": 0.0, "type": "electric_scooter"}, {"fusion_lon": 0.0, "name": "871c4011165efbd544e121586cb5d144", "rental_uris": {"android": "https://dc.lft.to/lastmile_qr_scan", "ios": "https://dc.lft.to/lastmile_qr_scan"}, "lat": 38.90060233333333, "bike_id": "871c4011165efbd544e121586cb5d144", "is_disabled": 0, "lon": -77.04906883333334, "is_reserved": 0, "fusion_lat": 0.0, "type": "electric_scooter"}, {"fusion_lon": 0.0, "name": "6d803d5a39e0601a9e0333f7147d5e58", "rental_uris": {"android": "https://dc.lft.to/lastmile_qr_scan", "ios": "https://dc.lft.to/lastmile_qr_scan"}, "lat": 38.896807333333335, "bike_id": "6d803d5a39e0601a9e0333f7147d5e58", "is_disabled": 0, "lon": -77.0434315, "is_reserved": 0, "fusion_lat": 0.0, "type": "electric_scooter"}, {"fusion_lon": 0.0, "name": "934efd38806cf5ec6a9523721aa3f8a4", "rental_uris": {"android": "https://dc.lft.to/lastmile_qr_scan", "ios": "https://dc.lft.to/lastmile_qr_scan"}, "lat": 38.914249166666664, "bike_id": "934efd38806cf5ec6a9523721aa3f8a4", "is_disabled": 0, "lon": -77.018075, "is_reserved": 0, "fusion_lat": 0.0, "type": "electric_scooter"}, {"fusion_lon": 0.0, "name": "41654799f368336ba264e21ac30ad658", "rental_uris": {"android": "https://dc.lft.to/lastmile_qr_scan", "ios": "https://dc.lft.to/lastmile_qr_scan"}, "lat": 38.922640666666666, "bike_id": "41654799f368336ba264e21ac30ad658", "is_disabled": 0, "lon": -77.019373, "is_reserved": 0, "fusion_lat": 0.0, "type": "electric_scooter"}, {"fusion_lon": 0.0, "name": "481f545c5dcf2c8aeabaef779746a9d8", "rental_uris": {"android": "https://dc.lft.to/lastmile_qr_scan", "ios": "https://dc.lft.to/lastmile_qr_scan"}, "lat": 38.96128866666667, "bike_id": "481f545c5dcf2c8aeabaef779746a9d8", "is_disabled": 0, "lon": -77.03274833333333, "is_reserved": 0, "fusion_lat": 0.0, "type": "electric_bike"}, {"fusion_lon": 0.0, "name": "2588697b6dbd8e6313e95e780f79e59b", "rental_uris": {"android": "https://dc.lft.to/lastmile_qr_scan", "ios": "https://dc.lft.to/lastmile_qr_scan"}, "lat": 38.8481195, "bike_id": "2588697b6dbd8e6313e95e780f79e59b", "is_disabled": 0, "lon": -76.95248566666666, "is_reserved": 0, "fusion_lat": 0.0, "type": "electric_bike"}, {"fusion_lon": 0.0, "name": "746925414509a238ef28c9d101f4b6e3", "rental_uris": {"android": "https://dc.lft.to/lastmile_qr_scan", "ios": "https://dc.lft.to/lastmile_qr_scan"}, "lat": 38.900810166666666, "bike_id": "746925414509a238ef28c9d101f4b6e3", "is_disabled": 0, "lon": -77.0507815, "is_reserved": 0, "fusion_lat": 0.0, "type": "electric_scooter"}, {"fusion_lon": 0.0, "name": "4c8fb21e8c67e5ad16c5ff4b602534fa", "rental_uris": {"android": "https://dc.lft.to/lastmile_qr_scan", "ios": "https://dc.lft.to/lastmile_qr_scan"}, "lat": 38.894229333333335, "bike_id": "4c8fb21e8c67e5ad16c5ff4b602534fa", "is_disabled": 0, "lon": -76.9977295, "is_reserved": 0, "fusion_lat": 0.0, "type": "electric_scooter"}, {"fusion_lon": 0.0, "name": "b6d55f05bef4e46923e132819e281f1b", "rental_uris": {"android": "https://dc.lft.to/lastmile_qr_scan", "ios": "https://dc.lft.to/lastmile_qr_scan"}, "lat": 38.903675166666666, "bike_id": "b6d55f05bef4e46923e132819e281f1b", "is_disabled": 0, "lon": -76.98059983333333, "is_reserved": 0, "fusion_lat": 0.0, "type": "electric_scooter"}, {"fusion_lon": 0.0, "name": "a1cf00426d6bcfda9878272cad2f49d1", "rental_uris": {"android": "https://dc.lft.to/lastmile_qr_scan", "ios": "https://dc.lft.to/lastmile_qr_scan"}, "lat": 38.913595, "bike_id": "a1cf00426d6bcfda9878272cad2f49d1", "is_disabled": 0, "lon": -77.01985833333333, "is_reserved": 0, "fusion_lat": 0.0, "type": "electric_scooter"}, {"fusion_lon": 0.0, "name": "21836d3970372b60ded33ac4f6e05569", "rental_uris": {"android": "https://dc.lft.to/lastmile_qr_scan", "ios": "https://dc.lft.to/lastmile_qr_scan"}, "lat": 38.886159666666664, "bike_id": "21836d3970372b60ded33ac4f6e05569", "is_disabled": 0, "lon": -77.0217245, "is_reserved": 0, "fusion_lat": 0.0, "type": "electric_scooter"}, {"fusion_lon": 0.0, "name": "0250800b92e4ba1be8c660ad6d3dafb6", "rental_uris": {"android": "https://dc.lft.to/lastmile_qr_scan", "ios": "https://dc.lft.to/lastmile_qr_scan"}, "lat": 38.992374833333336, "bike_id": "0250800b92e4ba1be8c660ad6d3dafb6", "is_disabled": 0, "lon": -77.02387416666667, "is_reserved": 0, "fusion_lat": 0.0, "type": "electric_bike"}, {"fusion_lon": 0.0, "name": "3ba33e6bfe0e954958cd8d7596b32da5", "rental_uris": {"android": "https://dc.lft.to/lastmile_qr_scan", "ios": "https://dc.lft.to/lastmile_qr_scan"}, "lat": 38.929989166666665, "bike_id": "3ba33e6bfe0e954958cd8d7596b32da5", "is_disabled": 0, "lon": -77.02214316666667, "is_reserved": 0, "fusion_lat": 0.0, "type": "electric_scooter"}, {"fusion_lon": 0.0, "name": "b525d6e4c5f3914aba88d975f2a3cb8a", "rental_uris": {"android": "https://dc.lft.to/lastmile_qr_scan", "ios": "https://dc.lft.to/lastmile_qr_scan"}, "lat": 38.905793, "bike_id": "b525d6e4c5f3914aba88d975f2a3cb8a", "is_disabled": 0, "lon": -77.0218575, "is_reserved": 0, "fusion_lat": 0.0, "type": "electric_scooter"}, {"fusion_lon": 0.0, "name": "a7087df4a403df8f2bcdd51976d7fa77", "rental_uris": {"android": "https://dc.lft.to/lastmile_qr_scan", "ios": "https://dc.lft.to/lastmile_qr_scan"}, "lat": 38.966121333333334, "bike_id": "a7087df4a403df8f2bcdd51976d7fa77", "is_disabled": 0, "lon": -77.02292333333334, "is_reserved": 0, "fusion_lat": 0.0, "type": "electric_scooter"}, {"fusion_lon": 0.0, "name": "a1e782696dadcd34f7540ecaccd945cb", "rental_uris": {"android": "https://dc.lft.to/lastmile_qr_scan", "ios": "https://dc.lft.to/lastmile_qr_scan"}, "lat": 38.928908666666665, "bike_id": "a1e782696dadcd34f7540ecaccd945cb", "is_disabled": 0, "lon": -77.03347116666667, "is_reserved": 0, "fusion_lat": 0.0, "type": "electric_scooter"}, {"fusion_lon": 0.0, "name": "41407683097a4005db051f6bf7c2695b", "rental_uris": {"android": "https://dc.lft.to/lastmile_qr_scan", "ios": "https://dc.lft.to/lastmile_qr_scan"}, "lat": 38.920703, "bike_id": "41407683097a4005db051f6bf7c2695b", "is_disabled": 0, "lon": -77.0232025, "is_reserved": 0, "fusion_lat": 0.0, "type": "electric_scooter"}, {"fusion_lon": 0.0, "name": "91877c4ae2634c69f6b7f8e03e582661", "rental_uris": {"android": "https://dc.lft.to/lastmile_qr_scan", "ios": "https://dc.lft.to/lastmile_qr_scan"}, "lat": 38.85787933333334, "bike_id": "91877c4ae2634c69f6b7f8e03e582661", "is_disabled": 0, "lon": -76.98762083333334, "is_reserved": 0, "fusion_lat": 0.0, "type": "electric_bike"}, {"fusion_lon": 0.0, "name": "b4b12e44f8c0bc2b30899da24d94c068", "rental_uris": {"android": "https://dc.lft.to/lastmile_qr_scan", "ios": "https://dc.lft.to/lastmile_qr_scan"}, "lat": 38.895526, "bike_id": "b4b12e44f8c0bc2b30899da24d94c068", "is_disabled": 0, "lon": -77.01210483333334, "is_reserved": 0, "fusion_lat": 0.0, "type": "electric_scooter"}, {"fusion_lon": 0.0, "name": "6b1e0c8d4a71bc85c0011e178a346446", "rental_uris": {"android": "https://dc.lft.to/lastmile_qr_scan", "ios": "https://dc.lft.to/lastmile_qr_scan"}, "lat": 38.884705333333336, "bike_id": "6b1e0c8d4a71bc85c0011e178a346446", "is_disabled": 0, "lon": -76.92606016666667, "is_reserved": 0, "fusion_lat": 0.0, "type": "electric_scooter"}, {"fusion_lon": 0.0, "name": "c7d0d69ffc0bb4a9e329c1d56bb8b16e", "rental_uris": {"android": "https://dc.lft.to/lastmile_qr_scan", "ios": "https://dc.lft.to/lastmile_qr_scan"}, "lat": 38.90168466666667, "bike_id": "c7d0d69ffc0bb4a9e329c1d56bb8b16e", "is_disabled": 0, "lon": -76.94982433333334, "is_reserved": 0, "fusion_lat": 0.0, "type": "electric_scooter"}, {"fusion_lon": 0.0, "name": "74ab1a7d886d75cd6cac2dd72610d2f9", "rental_uris": {"android": "https://dc.lft.to/lastmile_qr_scan", "ios": "https://dc.lft.to/lastmile_qr_scan"}, "lat": 38.901952666666666, "bike_id": "74ab1a7d886d75cd6cac2dd72610d2f9", "is_disabled": 0, "lon": -77.01220966666666, "is_reserved": 0, "fusion_lat": 0.0, "type": "electric_scooter"}, {"fusion_lon": 0.0, "name": "77fefa23ce41ecbe42c9745ea137ea02", "rental_uris": {"android": "https://dc.lft.to/lastmile_qr_scan", "ios": "https://dc.lft.to/lastmile_qr_scan"}, "lat": 38.92018016666667, "bike_id": "77fefa23ce41ecbe42c9745ea137ea02", "is_disabled": 0, "lon": -77.0219565, "is_reserved": 0, "fusion_lat": 0.0, "type": "electric_scooter"}, {"fusion_lon": 0.0, "name": "dc64789171fa86fe36fa69c8def4be75", "rental_uris": {"android": "https://dc.lft.to/lastmile_qr_scan", "ios": "https://dc.lft.to/lastmile_qr_scan"}, "lat": 38.928297, "bike_id": "dc64789171fa86fe36fa69c8def4be75", "is_disabled": 0, "lon": -77.0233215, "is_reserved": 0, "fusion_lat": 0.0, "type": "electric_scooter"}, {"fusion_lon": 0.0, "name": "657c22626c4746432ef938f9929940cb", "rental_uris": {"android": "https://dc.lft.to/lastmile_qr_scan", "ios": "https://dc.lft.to/lastmile_qr_scan"}, "lat": 38.931930666666666, "bike_id": "657c22626c4746432ef938f9929940cb", "is_disabled": 0, "lon": -77.02820933333334, "is_reserved": 0, "fusion_lat": 0.0, "type": "electric_scooter"}, {"fusion_lon": 0.0, "name": "c6154280382a797d9929a7518ea910ba", "rental_uris": {"android": "https://dc.lft.to/lastmile_qr_scan", "ios": "https://dc.lft.to/lastmile_qr_scan"}, "lat": 38.89223633333334, "bike_id": "c6154280382a797d9929a7518ea910ba", "is_disabled": 0, "lon": -77.02164733333333, "is_reserved": 0, "fusion_lat": 0.0, "type": "electric_scooter"}, {"fusion_lon": 0.0, "name": "6702a8f49c86b2a1e9e394cf95136366", "rental_uris": {"android": "https://dc.lft.to/lastmile_qr_scan", "ios": "https://dc.lft.to/lastmile_qr_scan"}, "lat": 38.902411, "bike_id": "6702a8f49c86b2a1e9e394cf95136366", "is_disabled": 0, "lon": -77.04633133333333, "is_reserved": 0, "fusion_lat": 0.0, "type": "electric_scooter"}, {"fusion_lon": 0.0, "name": "caea7c90bd17dfbc256cbffd8a0ce1bd", "rental_uris": {"android": "https://dc.lft.to/lastmile_qr_scan", "ios": "https://dc.lft.to/lastmile_qr_scan"}, "lat": 38.91820466666667, "bike_id": "caea7c90bd17dfbc256cbffd8a0ce1bd", "is_disabled": 0, "lon": -77.036695, "is_reserved": 0, "fusion_lat": 0.0, "type": "electric_scooter"}, {"fusion_lon": 0.0, "name": "3aa6ae91ef14d222b8498789972d9aba", "rental_uris": {"android": "https://dc.lft.to/lastmile_qr_scan", "ios": "https://dc.lft.to/lastmile_qr_scan"}, "lat": 38.92211783333333, "bike_id": "3aa6ae91ef14d222b8498789972d9aba", "is_disabled": 0, "lon": -77.02663183333334, "is_reserved": 0, "fusion_lat": 0.0, "type": "electric_scooter"}, {"fusion_lon": 0.0, "name": "b559e9a36dcf39eaed067466b5114281", "rental_uris": {"android": "https://dc.lft.to/lastmile_qr_scan", "ios": "https://dc.lft.to/lastmile_qr_scan"}, "lat": 38.924000666666664, "bike_id": "b559e9a36dcf39eaed067466b5114281", "is_disabled": 0, "lon": -76.99373333333334, "is_reserved": 0, "fusion_lat": 0.0, "type": "electric_scooter"}, {"fusion_lon": 0.0, "name": "84825c8d58530aaed254d025d9131374", "rental_uris": {"android": "https://dc.lft.to/lastmile_qr_scan", "ios": "https://dc.lft.to/lastmile_qr_scan"}, "lat": 38.9142135, "bike_id": "84825c8d58530aaed254d025d9131374", "is_disabled": 0, "lon": -77.01804716666666, "is_reserved": 0, "fusion_lat": 0.0, "type": "electric_scooter"}, {"fusion_lon": 0.0, "name": "e37f4439dbd0f4dcdcc4702957f2c96a", "rental_uris": {"android": "https://dc.lft.to/lastmile_qr_scan", "ios": "https://dc.lft.to/lastmile_qr_scan"}, "lat": 38.921212, "bike_id": "e37f4439dbd0f4dcdcc4702957f2c96a", "is_disabled": 0, "lon": -77.04398483333334, "is_reserved": 0, "fusion_lat": 0.0, "type": "electric_scooter"}, {"fusion_lon": 0.0, "name": "dcbff00d8a281f0fe302392c8981219a", "rental_uris": {"android": "https://dc.lft.to/lastmile_qr_scan", "ios": "https://dc.lft.to/lastmile_qr_scan"}, "lat": 38.91671933333333, "bike_id": "dcbff00d8a281f0fe302392c8981219a", "is_disabled": 0, "lon": -77.02796, "is_reserved": 0, "fusion_lat": 0.0, "type": "electric_scooter"}, {"fusion_lon": 0.0, "name": "82ff581145da684b1fa85747a200f8ea", "rental_uris": {"android": "https://dc.lft.to/lastmile_qr_scan", "ios": "https://dc.lft.to/lastmile_qr_scan"}, "lat": 38.881137, "bike_id": "82ff581145da684b1fa85747a200f8ea", "is_disabled": 0, "lon": -77.01678833333334, "is_reserved": 0, "fusion_lat": 0.0, "type": "electric_bike"}, {"fusion_lon": 0.0, "name": "fc87993d793a052a01b99ca2dcba1bb0", "rental_uris": {"android": "https://dc.lft.to/lastmile_qr_scan", "ios": "https://dc.lft.to/lastmile_qr_scan"}, "lat": 38.862243166666666, "bike_id": "fc87993d793a052a01b99ca2dcba1bb0", "is_disabled": 0, "lon": -76.97919633333333, "is_reserved": 0, "fusion_lat": 0.0, "type": "electric_scooter"}, {"fusion_lon": 0.0, "name": "bd70238ba9e6ed9f929cd87fa4cdaf1b", "rental_uris": {"android": "https://dc.lft.to/lastmile_qr_scan", "ios": "https://dc.lft.to/lastmile_qr_scan"}, "lat": 38.914039, "bike_id": "bd70238ba9e6ed9f929cd87fa4cdaf1b", "is_disabled": 0, "lon": -77.02207366666667, "is_reserved": 0, "fusion_lat": 0.0, "type": "electric_scooter"}, {"fusion_lon": 0.0, "name": "37ac190849cd3c1b0b183746f15a1c91", "rental_uris": {"android": "https://dc.lft.to/lastmile_qr_scan", "ios": "https://dc.lft.to/lastmile_qr_scan"}, "lat": 38.91197866666667, "bike_id": "37ac190849cd3c1b0b183746f15a1c91", "is_disabled": 0, "lon": -77.03206583333333, "is_reserved": 0, "fusion_lat": 0.0, "type": "electric_scooter"}, {"fusion_lon": 0.0, "name": "db26dccf103ac24e925e0f070717a5b5", "rental_uris": {"android": "https://dc.lft.to/lastmile_qr_scan", "ios": "https://dc.lft.to/lastmile_qr_scan"}, "lat": 38.96033516666667, "bike_id": "db26dccf103ac24e925e0f070717a5b5", "is_disabled": 0, "lon": -77.0242765, "is_reserved": 0, "fusion_lat": 0.0, "type": "electric_scooter"}, {"fusion_lon": 0.0, "name": "be76c43214803dae400178cc2defe30c", "rental_uris": {"android": "https://dc.lft.to/lastmile_qr_scan", "ios": "https://dc.lft.to/lastmile_qr_scan"}, "lat": 38.92618266666667, "bike_id": "be76c43214803dae400178cc2defe30c", "is_disabled": 0, "lon": -77.057069, "is_reserved": 0, "fusion_lat": 0.0, "type": "electric_scooter"}, {"fusion_lon": 0.0, "name": "013880efa448ad481bf871e044808c1b", "rental_uris": {"android": "https://dc.lft.to/lastmile_qr_scan", "ios": "https://dc.lft.to/lastmile_qr_scan"}, "lat": 38.914673666666665, "bike_id": "013880efa448ad481bf871e044808c1b", "is_disabled": 0, "lon": -77.038434, "is_reserved": 0, "fusion_lat": 0.0, "type": "electric_scooter"}, {"fusion_lon": 0.0, "name": "775bf631ef8427f6ddab31375c4ef920", "rental_uris": {"android": "https://dc.lft.to/lastmile_qr_scan", "ios": "https://dc.lft.to/lastmile_qr_scan"}, "lat": 38.87686716666666, "bike_id": "775bf631ef8427f6ddab31375c4ef920", "is_disabled": 0, "lon": -77.00721383333334, "is_reserved": 0, "fusion_lat": 0.0, "type": "electric_scooter"}, {"fusion_lon": 0.0, "name": "5ce372f83ff3b8fecb61c6d437fbf532", "rental_uris": {"android": "https://dc.lft.to/lastmile_qr_scan", "ios": "https://dc.lft.to/lastmile_qr_scan"}, "lat": 38.8852155, "bike_id": "5ce372f83ff3b8fecb61c6d437fbf532", "is_disabled": 0, "lon": -76.977067, "is_reserved": 0, "fusion_lat": 0.0, "type": "electric_scooter"}, {"fusion_lon": 0.0, "name": "03116b811f7c3ff2c7e9208d4f227dcf", "rental_uris": {"android": "https://dc.lft.to/lastmile_qr_scan", "ios": "https://dc.lft.to/lastmile_qr_scan"}, "lat": 38.91566516666666, "bike_id": "03116b811f7c3ff2c7e9208d4f227dcf", "is_disabled": 0, "lon": -77.03036183333333, "is_reserved": 0, "fusion_lat": 0.0, "type": "electric_scooter"}, {"fusion_lon": 0.0, "name": "b09f0d637a855c8e759ebec31ae55f88", "rental_uris": {"android": "https://dc.lft.to/lastmile_qr_scan", "ios": "https://dc.lft.to/lastmile_qr_scan"}, "lat": 38.92676316666667, "bike_id": "b09f0d637a855c8e759ebec31ae55f88", "is_disabled": 0, "lon": -77.01513966666667, "is_reserved": 0, "fusion_lat": 0.0, "type": "electric_scooter"}, {"fusion_lon": 0.0, "name": "05a3f932d4471cb79ba30cdbad266c3f", "rental_uris": {"android": "https://dc.lft.to/lastmile_qr_scan", "ios": "https://dc.lft.to/lastmile_qr_scan"}, "lat": 38.920772666666664, "bike_id": "05a3f932d4471cb79ba30cdbad266c3f", "is_disabled": 0, "lon": -77.02498983333334, "is_reserved": 0, "fusion_lat": 0.0, "type": "electric_scooter"}, {"fusion_lon": 0.0, "name": "20538eff4234e4fc0c150d2bf18609f0", "rental_uris": {"android": "https://dc.lft.to/lastmile_qr_scan", "ios": "https://dc.lft.to/lastmile_qr_scan"}, "lat": 38.92224783333333, "bike_id": "20538eff4234e4fc0c150d2bf18609f0", "is_disabled": 0, "lon": -77.01815783333333, "is_reserved": 0, "fusion_lat": 0.0, "type": "electric_scooter"}, {"fusion_lon": 0.0, "name": "f038714f8e18f3c1730406432d59b201", "rental_uris": {"android": "https://dc.lft.to/lastmile_qr_scan", "ios": "https://dc.lft.to/lastmile_qr_scan"}, "lat": 38.923822, "bike_id": "f038714f8e18f3c1730406432d59b201", "is_disabled": 0, "lon": -77.02559983333333, "is_reserved": 0, "fusion_lat": 0.0, "type": "electric_scooter"}, {"fusion_lon": 0.0, "name": "558632fb7a4e6f490d2febea2344fa60", "rental_uris": {"android": "https://dc.lft.to/lastmile_qr_scan", "ios": "https://dc.lft.to/lastmile_qr_scan"}, "lat": 38.906778, "bike_id": "558632fb7a4e6f490d2febea2344fa60", "is_disabled": 0, "lon": -77.02697816666667, "is_reserved": 0, "fusion_lat": 0.0, "type": "electric_scooter"}, {"fusion_lon": 0.0, "name": "2417f9ecd5dee354e4014bbe9886d193", "rental_uris": {"android": "https://dc.lft.to/lastmile_qr_scan", "ios": "https://dc.lft.to/lastmile_qr_scan"}, "lat": 38.90137083333333, "bike_id": "2417f9ecd5dee354e4014bbe9886d193", "is_disabled": 0, "lon": -77.03042966666666, "is_reserved": 0, "fusion_lat": 0.0, "type": "electric_scooter"}, {"fusion_lon": 0.0, "name": "7ec5e4633fc4494838f21704cb81cdc1", "rental_uris": {"android": "https://dc.lft.to/lastmile_qr_scan", "ios": "https://dc.lft.to/lastmile_qr_scan"}, "lat": 38.90522583333333, "bike_id": "7ec5e4633fc4494838f21704cb81cdc1", "is_disabled": 0, "lon": -77.06003233333334, "is_reserved": 0, "fusion_lat": 0.0, "type": "electric_scooter"}, {"fusion_lon": 0.0, "name": "49b2e3f12c56b9c29b0551c1508b334b", "rental_uris": {"android": "https://dc.lft.to/lastmile_qr_scan", "ios": "https://dc.lft.to/lastmile_qr_scan"}, "lat": 38.902424833333335, "bike_id": "49b2e3f12c56b9c29b0551c1508b334b", "is_disabled": 0, "lon": -77.00207066666667, "is_reserved": 0, "fusion_lat": 0.0, "type": "electric_scooter"}, {"fusion_lon": 0.0, "name": "91795b65c537950bceaefb293bb84a8a", "rental_uris": {"android": "https://dc.lft.to/lastmile_qr_scan", "ios": "https://dc.lft.to/lastmile_qr_scan"}, "lat": 38.90151783333334, "bike_id": "91795b65c537950bceaefb293bb84a8a", "is_disabled": 0, "lon": -77.02188316666667, "is_reserved": 0, "fusion_lat": 0.0, "type": "electric_scooter"}, {"fusion_lon": 0.0, "name": "5e9b4a781bb2557abc2968555a6f44f4", "rental_uris": {"android": "https://dc.lft.to/lastmile_qr_scan", "ios": "https://dc.lft.to/lastmile_qr_scan"}, "lat": 38.8717505, "bike_id": "5e9b4a781bb2557abc2968555a6f44f4", "is_disabled": 0, "lon": -77.00627633333333, "is_reserved": 0, "fusion_lat": 0.0, "type": "electric_scooter"}, {"fusion_lon": 0.0, "name": "203e83b564d9c2a449bfd68a09150948", "rental_uris": {"android": "https://dc.lft.to/lastmile_qr_scan", "ios": "https://dc.lft.to/lastmile_qr_scan"}, "lat": 38.9059585, "bike_id": "203e83b564d9c2a449bfd68a09150948", "is_disabled": 0, "lon": -77.02592733333333, "is_reserved": 0, "fusion_lat": 0.0, "type": "electric_scooter"}, {"fusion_lon": 0.0, "name": "f0d1df6cb9e0612a56a677b4eac0a625", "rental_uris": {"android": "https://dc.lft.to/lastmile_qr_scan", "ios": "https://dc.lft.to/lastmile_qr_scan"}, "lat": 38.93450433333334, "bike_id": "f0d1df6cb9e0612a56a677b4eac0a625", "is_disabled": 0, "lon": -77.08967866666667, "is_reserved": 0, "fusion_lat": 0.0, "type": "electric_scooter"}, {"fusion_lon": 0.0, "name": "c12965580d3db00b976d4c5244da3776", "rental_uris": {"android": "https://dc.lft.to/lastmile_qr_scan", "ios": "https://dc.lft.to/lastmile_qr_scan"}, "lat": 38.9071125, "bike_id": "c12965580d3db00b976d4c5244da3776", "is_disabled": 0, "lon": -77.0239035, "is_reserved": 0, "fusion_lat": 0.0, "type": "electric_scooter"}, {"fusion_lon": 0.0, "name": "f0ce346e552a95ce81dba382a9438c5b", "rental_uris": {"android": "https://dc.lft.to/lastmile_qr_scan", "ios": "https://dc.lft.to/lastmile_qr_scan"}, "lat": 38.92371933333333, "bike_id": "f0ce346e552a95ce81dba382a9438c5b", "is_disabled": 0, "lon": -77.03057333333334, "is_reserved": 0, "fusion_lat": 0.0, "type": "electric_scooter"}, {"fusion_lon": 0.0, "name": "389971031b3a6e07cb1f09298e2daee5", "rental_uris": {"android": "https://dc.lft.to/lastmile_qr_scan", "ios": "https://dc.lft.to/lastmile_qr_scan"}, "lat": 38.93841233333333, "bike_id": "389971031b3a6e07cb1f09298e2daee5", "is_disabled": 0, "lon": -77.02461666666666, "is_reserved": 0, "fusion_lat": 0.0, "type": "electric_scooter"}, {"fusion_lon": 0.0, "name": "8ee1e54083f8986f867f6b69f8fac20e", "rental_uris": {"android": "https://dc.lft.to/lastmile_qr_scan", "ios": "https://dc.lft.to/lastmile_qr_scan"}, "lat": 38.902353166666664, "bike_id": "8ee1e54083f8986f867f6b69f8fac20e", "is_disabled": 0, "lon": -77.01567416666667, "is_reserved": 0, "fusion_lat": 0.0, "type": "electric_scooter"}, {"fusion_lon": 0.0, "name": "30a447b8b3eba701b55e241d8a2ffafb", "rental_uris": {"android": "https://dc.lft.to/lastmile_qr_scan", "ios": "https://dc.lft.to/lastmile_qr_scan"}, "lat": 38.91564283333334, "bike_id": "30a447b8b3eba701b55e241d8a2ffafb", "is_disabled": 0, "lon": -77.02385783333334, "is_reserved": 0, "fusion_lat": 0.0, "type": "electric_scooter"}, {"fusion_lon": 0.0, "name": "9c009f1462f72e2590a98746880c82dd", "rental_uris": {"android": "https://dc.lft.to/lastmile_qr_scan", "ios": "https://dc.lft.to/lastmile_qr_scan"}, "lat": 38.922593666666664, "bike_id": "9c009f1462f72e2590a98746880c82dd", "is_disabled": 0, "lon": -77.07327116666667, "is_reserved": 0, "fusion_lat": 0.0, "type": "electric_scooter"}, {"fusion_lon": 0.0, "name": "46af27a409df1b0eeb1c5e97051fece2", "rental_uris": {"android": "https://dc.lft.to/lastmile_qr_scan", "ios": "https://dc.lft.to/lastmile_qr_scan"}, "lat": 38.957170833333336, "bike_id": "46af27a409df1b0eeb1c5e97051fece2", "is_disabled": 0, "lon": -77.00235033333334, "is_reserved": 0, "fusion_lat": 0.0, "type": "electric_scooter"}, {"fusion_lon": 0.0, "name": "7486a7238b6f60aa6c6e501b2c1ae6cb", "rental_uris": {"android": "https://dc.lft.to/lastmile_qr_scan", "ios": "https://dc.lft.to/lastmile_qr_scan"}, "lat": 38.904601666666665, "bike_id": "7486a7238b6f60aa6c6e501b2c1ae6cb", "is_disabled": 0, "lon": -77.02956766666667, "is_reserved": 0, "fusion_lat": 0.0, "type": "electric_scooter"}, {"fusion_lon": 0.0, "name": "3411d376137440f58c84b2d6bfb51b08", "rental_uris": {"android": "https://dc.lft.to/lastmile_qr_scan", "ios": "https://dc.lft.to/lastmile_qr_scan"}, "lat": 38.9693635, "bike_id": "3411d376137440f58c84b2d6bfb51b08", "is_disabled": 0, "lon": -77.02705833333333, "is_reserved": 0, "fusion_lat": 0.0, "type": "electric_scooter"}, {"fusion_lon": 0.0, "name": "0deb2a1bb4dcabc3ef87abd1bdc15b04", "rental_uris": {"android": "https://dc.lft.to/lastmile_qr_scan", "ios": "https://dc.lft.to/lastmile_qr_scan"}, "lat": 38.90006566666667, "bike_id": "0deb2a1bb4dcabc3ef87abd1bdc15b04", "is_disabled": 0, "lon": -76.99485666666666, "is_reserved": 0, "fusion_lat": 0.0, "type": "electric_scooter"}, {"fusion_lon": 0.0, "name": "87f7901662b2d2052ce4f7484d3f10b7", "rental_uris": {"android": "https://dc.lft.to/lastmile_qr_scan", "ios": "https://dc.lft.to/lastmile_qr_scan"}, "lat": 38.923315833333334, "bike_id": "87f7901662b2d2052ce4f7484d3f10b7", "is_disabled": 0, "lon": -77.0378115, "is_reserved": 0, "fusion_lat": 0.0, "type": "electric_scooter"}, {"fusion_lon": 0.0, "name": "fe5779142861e61037efad48cb424e73", "rental_uris": {"android": "https://dc.lft.to/lastmile_qr_scan", "ios": "https://dc.lft.to/lastmile_qr_scan"}, "lat": 38.909606, "bike_id": "fe5779142861e61037efad48cb424e73", "is_disabled": 0, "lon": -77.01408833333333, "is_reserved": 0, "fusion_lat": 0.0, "type": "electric_scooter"}, {"fusion_lon": 0.0, "name": "9c6135669d71fdb02dbe8ef277bdba62", "rental_uris": {"android": "https://dc.lft.to/lastmile_qr_scan", "ios": "https://dc.lft.to/lastmile_qr_scan"}, "lat": 38.82431666666667, "bike_id": "9c6135669d71fdb02dbe8ef277bdba62", "is_disabled": 0, "lon": -77.12042916666667, "is_reserved": 0, "fusion_lat": 0.0, "type": "electric_bike"}, {"fusion_lon": 0.0, "name": "6f8d927500487cb2e342fdd9b602cd2c", "rental_uris": {"android": "https://dc.lft.to/lastmile_qr_scan", "ios": "https://dc.lft.to/lastmile_qr_scan"}, "lat": 38.90275033333333, "bike_id": "6f8d927500487cb2e342fdd9b602cd2c", "is_disabled": 0, "lon": -77.0176515, "is_reserved": 0, "fusion_lat": 0.0, "type": "electric_scooter"}, {"fusion_lon": 0.0, "name": "b3730756b6b6a5480a6c2d013d336500", "rental_uris": {"android": "https://dc.lft.to/lastmile_qr_scan", "ios": "https://dc.lft.to/lastmile_qr_scan"}, "lat": 38.93968483333333, "bike_id": "b3730756b6b6a5480a6c2d013d336500", "is_disabled": 0, "lon": -76.98617016666667, "is_reserved": 0, "fusion_lat": 0.0, "type": "electric_bike"}, {"fusion_lon": 0.0, "name": "0c6bb2e17684216aca75d0465ca84ed4", "rental_uris": {"android": "https://dc.lft.to/lastmile_qr_scan", "ios": "https://dc.lft.to/lastmile_qr_scan"}, "lat": 38.924759, "bike_id": "0c6bb2e17684216aca75d0465ca84ed4", "is_disabled": 0, "lon": -77.02112783333334, "is_reserved": 0, "fusion_lat": 0.0, "type": "electric_scooter"}, {"fusion_lon": 0.0, "name": "bff8d3418ef53dc4525b1ae47eedfca9", "rental_uris": {"android": "https://dc.lft.to/lastmile_qr_scan", "ios": "https://dc.lft.to/lastmile_qr_scan"}, "lat": 38.917127666666666, "bike_id": "bff8d3418ef53dc4525b1ae47eedfca9", "is_disabled": 0, "lon": -77.02888616666667, "is_reserved": 0, "fusion_lat": 0.0, "type": "electric_scooter"}, {"fusion_lon": 0.0, "name": "ff5790c6a3b9c3f6ebe0c3814a40a760", "rental_uris": {"android": "https://dc.lft.to/lastmile_qr_scan", "ios": "https://dc.lft.to/lastmile_qr_scan"}, "lat": 38.922599166666664, "bike_id": "ff5790c6a3b9c3f6ebe0c3814a40a760", "is_disabled": 0, "lon": -77.036647, "is_reserved": 0, "fusion_lat": 0.0, "type": "electric_scooter"}, {"fusion_lon": 0.0, "name": "0473b22bc1fdfdcfb2f855b691a96daf", "rental_uris": {"android": "https://dc.lft.to/lastmile_qr_scan", "ios": "https://dc.lft.to/lastmile_qr_scan"}, "lat": 38.857785166666666, "bike_id": "0473b22bc1fdfdcfb2f855b691a96daf", "is_disabled": 0, "lon": -76.9874935, "is_reserved": 0, "fusion_lat": 0.0, "type": "electric_bike"}, {"fusion_lon": 0.0, "name": "d61a23e18a8c14798dc9f8de0440213b", "rental_uris": {"android": "https://dc.lft.to/lastmile_qr_scan", "ios": "https://dc.lft.to/lastmile_qr_scan"}, "lat": 38.90555833333333, "bike_id": "d61a23e18a8c14798dc9f8de0440213b", "is_disabled": 0, "lon": -77.03471083333334, "is_reserved": 0, "fusion_lat": 0.0, "type": "electric_scooter"}, {"fusion_lon": 0.0, "name": "2c187a69306777ee869126589d98c633", "rental_uris": {"android": "https://dc.lft.to/lastmile_qr_scan", "ios": "https://dc.lft.to/lastmile_qr_scan"}, "lat": 38.90078916666667, "bike_id": "2c187a69306777ee869126589d98c633", "is_disabled": 0, "lon": -77.02163783333333, "is_reserved": 0, "fusion_lat": 0.0, "type": "electric_scooter"}, {"fusion_lon": 0.0, "name": "5c66d8131bc1886118a552a3fca6ca20", "rental_uris": {"android": "https://dc.lft.to/lastmile_qr_scan", "ios": "https://dc.lft.to/lastmile_qr_scan"}, "lat": 38.926023666666666, "bike_id": "5c66d8131bc1886118a552a3fca6ca20", "is_disabled": 0, "lon": -77.02153516666667, "is_reserved": 0, "fusion_lat": 0.0, "type": "electric_scooter"}, {"fusion_lon": 0.0, "name": "d5db2347110be8efc70db97965552660", "rental_uris": {"android": "https://dc.lft.to/lastmile_qr_scan", "ios": "https://dc.lft.to/lastmile_qr_scan"}, "lat": 38.89679566666667, "bike_id": "d5db2347110be8efc70db97965552660", "is_disabled": 0, "lon": -76.9366595, "is_reserved": 0, "fusion_lat": 0.0, "type": "electric_scooter"}, {"fusion_lon": 0.0, "name": "3ba65fa5e1c6b60ddfb6cda6feb43ca5", "rental_uris": {"android": "https://dc.lft.to/lastmile_qr_scan", "ios": "https://dc.lft.to/lastmile_qr_scan"}, "lat": 38.923077, "bike_id": "3ba65fa5e1c6b60ddfb6cda6feb43ca5", "is_disabled": 0, "lon": -77.03021916666667, "is_reserved": 0, "fusion_lat": 0.0, "type": "electric_scooter"}, {"fusion_lon": 0.0, "name": "8cba818621b32b122bcf929ad87b5627", "rental_uris": {"android": "https://dc.lft.to/lastmile_qr_scan", "ios": "https://dc.lft.to/lastmile_qr_scan"}, "lat": 38.90275666666667, "bike_id": "8cba818621b32b122bcf929ad87b5627", "is_disabled": 0, "lon": -77.017697, "is_reserved": 0, "fusion_lat": 0.0, "type": "electric_scooter"}, {"fusion_lon": 0.0, "name": "6a7e8cb94a939cd2a4e95d868d32568a", "rental_uris": {"android": "https://dc.lft.to/lastmile_qr_scan", "ios": "https://dc.lft.to/lastmile_qr_scan"}, "lat": 38.80384333333333, "bike_id": "6a7e8cb94a939cd2a4e95d868d32568a", "is_disabled": 0, "lon": -76.98812733333334, "is_reserved": 0, "fusion_lat": 0.0, "type": "electric_bike"}, {"fusion_lon": 0.0, "name": "6b3b1e21517ae5ea95684580ca373c2d", "rental_uris": {"android": "https://dc.lft.to/lastmile_qr_scan", "ios": "https://dc.lft.to/lastmile_qr_scan"}, "lat": 38.941796833333335, "bike_id": "6b3b1e21517ae5ea95684580ca373c2d", "is_disabled": 0, "lon": -77.03089666666666, "is_reserved": 0, "fusion_lat": 0.0, "type": "electric_scooter"}, {"fusion_lon": 0.0, "name": "b3de5b0333cfcc2233f3f80b69a087ad", "rental_uris": {"android": "https://dc.lft.to/lastmile_qr_scan", "ios": "https://dc.lft.to/lastmile_qr_scan"}, "lat": 38.924119833333336, "bike_id": "b3de5b0333cfcc2233f3f80b69a087ad", "is_disabled": 0, "lon": -76.99591733333334, "is_reserved": 0, "fusion_lat": 0.0, "type": "electric_scooter"}, {"fusion_lon": 0.0, "name": "83ef80197b795f6310d5712c2a30dbb7", "rental_uris": {"android": "https://dc.lft.to/lastmile_qr_scan", "ios": "https://dc.lft.to/lastmile_qr_scan"}, "lat": 38.907288, "bike_id": "83ef80197b795f6310d5712c2a30dbb7", "is_disabled": 0, "lon": -77.025476, "is_reserved": 0, "fusion_lat": 0.0, "type": "electric_scooter"}, {"fusion_lon": 0.0, "name": "4c8a36ac8c1f135b26cf2b8dbd4d1477", "rental_uris": {"android": "https://dc.lft.to/lastmile_qr_scan", "ios": "https://dc.lft.to/lastmile_qr_scan"}, "lat": 38.86658166666667, "bike_id": "4c8a36ac8c1f135b26cf2b8dbd4d1477", "is_disabled": 0, "lon": -76.97913583333333, "is_reserved": 0, "fusion_lat": 0.0, "type": "electric_scooter"}, {"fusion_lon": 0.0, "name": "bea41be5903d6b198d45e19d4edf3f96", "rental_uris": {"android": "https://dc.lft.to/lastmile_qr_scan", "ios": "https://dc.lft.to/lastmile_qr_scan"}, "lat": 38.905835, "bike_id": "bea41be5903d6b198d45e19d4edf3f96", "is_disabled": 0, "lon": -77.034879, "is_reserved": 0, "fusion_lat": 0.0, "type": "electric_scooter"}, {"fusion_lon": 0.0, "name": "ab0575a2fbe5b7c858f4ddabf4d8af7f", "rental_uris": {"android": "https://dc.lft.to/lastmile_qr_scan", "ios": "https://dc.lft.to/lastmile_qr_scan"}, "lat": 38.9189155, "bike_id": "ab0575a2fbe5b7c858f4ddabf4d8af7f", "is_disabled": 0, "lon": -77.02760766666667, "is_reserved": 0, "fusion_lat": 0.0, "type": "electric_scooter"}, {"fusion_lon": 0.0, "name": "6405158185fedc25cf8a2c9fa38c4d4c", "rental_uris": {"android": "https://dc.lft.to/lastmile_qr_scan", "ios": "https://dc.lft.to/lastmile_qr_scan"}, "lat": 38.88024933333333, "bike_id": "6405158185fedc25cf8a2c9fa38c4d4c", "is_disabled": 0, "lon": -76.94326033333333, "is_reserved": 0, "fusion_lat": 0.0, "type": "electric_scooter"}, {"fusion_lon": 0.0, "name": "c531c9433c27db212c28c235fe5f2d75", "rental_uris": {"android": "https://dc.lft.to/lastmile_qr_scan", "ios": "https://dc.lft.to/lastmile_qr_scan"}, "lat": 38.93038416666667, "bike_id": "c531c9433c27db212c28c235fe5f2d75", "is_disabled": 0, "lon": -77.029673, "is_reserved": 0, "fusion_lat": 0.0, "type": "electric_scooter"}, {"fusion_lon": 0.0, "name": "7e9e6cc3c43f1c4cfa4a82fb57c945a1", "rental_uris": {"android": "https://dc.lft.to/lastmile_qr_scan", "ios": "https://dc.lft.to/lastmile_qr_scan"}, "lat": 38.920879, "bike_id": "7e9e6cc3c43f1c4cfa4a82fb57c945a1", "is_disabled": 0, "lon": -77.02393316666667, "is_reserved": 0, "fusion_lat": 0.0, "type": "electric_scooter"}, {"fusion_lon": 0.0, "name": "b5f342095cd7642144b2d31b927dd596", "rental_uris": {"android": "https://dc.lft.to/lastmile_qr_scan", "ios": "https://dc.lft.to/lastmile_qr_scan"}, "lat": 38.9296695, "bike_id": "b5f342095cd7642144b2d31b927dd596", "is_disabled": 0, "lon": -77.041991, "is_reserved": 0, "fusion_lat": 0.0, "type": "electric_scooter"}, {"fusion_lon": 0.0, "name": "1517f649989d1a1f8ebaa470ffcb8463", "rental_uris": {"android": "https://dc.lft.to/lastmile_qr_scan", "ios": "https://dc.lft.to/lastmile_qr_scan"}, "lat": 38.907616166666664, "bike_id": "1517f649989d1a1f8ebaa470ffcb8463", "is_disabled": 0, "lon": -77.03578083333333, "is_reserved": 0, "fusion_lat": 0.0, "type": "electric_scooter"}, {"fusion_lon": 0.0, "name": "259e5e381907e45e086e6529f0837f6e", "rental_uris": {"android": "https://dc.lft.to/lastmile_qr_scan", "ios": "https://dc.lft.to/lastmile_qr_scan"}, "lat": 38.92237083333333, "bike_id": "259e5e381907e45e086e6529f0837f6e", "is_disabled": 0, "lon": -77.028486, "is_reserved": 0, "fusion_lat": 0.0, "type": "electric_scooter"}, {"fusion_lon": 0.0, "name": "406185e9a61b3c5a592840b49eda3e19", "rental_uris": {"android": "https://dc.lft.to/lastmile_qr_scan", "ios": "https://dc.lft.to/lastmile_qr_scan"}, "lat": 38.9264165, "bike_id": "406185e9a61b3c5a592840b49eda3e19", "is_disabled": 0, "lon": -77.025075, "is_reserved": 0, "fusion_lat": 0.0, "type": "electric_scooter"}, {"fusion_lon": 0.0, "name": "373a207185d0666eb54c85b6646d5187", "rental_uris": {"android": "https://dc.lft.to/lastmile_qr_scan", "ios": "https://dc.lft.to/lastmile_qr_scan"}, "lat": 38.87718016666667, "bike_id": "373a207185d0666eb54c85b6646d5187", "is_disabled": 0, "lon": -77.01645733333334, "is_reserved": 0, "fusion_lat": 0.0, "type": "electric_scooter"}, {"fusion_lon": 0.0, "name": "a9265a3580cb92a1a677410c2208457c", "rental_uris": {"android": "https://dc.lft.to/lastmile_qr_scan", "ios": "https://dc.lft.to/lastmile_qr_scan"}, "lat": 38.916578, "bike_id": "a9265a3580cb92a1a677410c2208457c", "is_disabled": 0, "lon": -77.02957083333334, "is_reserved": 0, "fusion_lat": 0.0, "type": "electric_scooter"}, {"fusion_lon": 0.0, "name": "462459d6dd7a8f4502a31ac52c3fad65", "rental_uris": {"android": "https://dc.lft.to/lastmile_qr_scan", "ios": "https://dc.lft.to/lastmile_qr_scan"}, "lat": 38.9153835, "bike_id": "462459d6dd7a8f4502a31ac52c3fad65", "is_disabled": 0, "lon": -77.04468066666666, "is_reserved": 0, "fusion_lat": 0.0, "type": "electric_scooter"}, {"fusion_lon": 0.0, "name": "063be71744e215bcf5606f5c5ac2a274", "rental_uris": {"android": "https://dc.lft.to/lastmile_qr_scan", "ios": "https://dc.lft.to/lastmile_qr_scan"}, "lat": 38.928611, "bike_id": "063be71744e215bcf5606f5c5ac2a274", "is_disabled": 0, "lon": -77.028791, "is_reserved": 0, "fusion_lat": 0.0, "type": "electric_scooter"}, {"fusion_lon": 0.0, "name": "02f7e5c59bd160a1a44d2a76f355a9ff", "rental_uris": {"android": "https://dc.lft.to/lastmile_qr_scan", "ios": "https://dc.lft.to/lastmile_qr_scan"}, "lat": 38.900332666666664, "bike_id": "02f7e5c59bd160a1a44d2a76f355a9ff", "is_disabled": 0, "lon": -77.040901, "is_reserved": 0, "fusion_lat": 0.0, "type": "electric_scooter"}, {"fusion_lon": 0.0, "name": "caabe7d2c7bf00f7536ce505a2bc7430", "rental_uris": {"android": "https://dc.lft.to/lastmile_qr_scan", "ios": "https://dc.lft.to/lastmile_qr_scan"}, "lat": 38.9473075, "bike_id": "caabe7d2c7bf00f7536ce505a2bc7430", "is_disabled": 0, "lon": -77.06545783333334, "is_reserved": 0, "fusion_lat": 0.0, "type": "electric_scooter"}, {"fusion_lon": 0.0, "name": "9035664113553febfcb4ddf98a283c0d", "rental_uris": {"android": "https://dc.lft.to/lastmile_qr_scan", "ios": "https://dc.lft.to/lastmile_qr_scan"}, "lat": 38.921563666666664, "bike_id": "9035664113553febfcb4ddf98a283c0d", "is_disabled": 0, "lon": -77.03364366666666, "is_reserved": 0, "fusion_lat": 0.0, "type": "electric_scooter"}, {"fusion_lon": 0.0, "name": "c400e81630a2b099cc23c0131403300d", "rental_uris": {"android": "https://dc.lft.to/lastmile_qr_scan", "ios": "https://dc.lft.to/lastmile_qr_scan"}, "lat": 38.90352, "bike_id": "c400e81630a2b099cc23c0131403300d", "is_disabled": 0, "lon": -77.02517166666667, "is_reserved": 0, "fusion_lat": 0.0, "type": "electric_scooter"}, {"fusion_lon": 0.0, "name": "47890141fd6ad8b06e70866cb20116ea", "rental_uris": {"android": "https://dc.lft.to/lastmile_qr_scan", "ios": "https://dc.lft.to/lastmile_qr_scan"}, "lat": 38.936071166666665, "bike_id": "47890141fd6ad8b06e70866cb20116ea", "is_disabled": 0, "lon": -77.03657433333333, "is_reserved": 0, "fusion_lat": 0.0, "type": "electric_scooter"}, {"fusion_lon": 0.0, "name": "b83a6b9ad427bdd939854e8b3f931b3d", "rental_uris": {"android": "https://dc.lft.to/lastmile_qr_scan", "ios": "https://dc.lft.to/lastmile_qr_scan"}, "lat": 38.912084666666665, "bike_id": "b83a6b9ad427bdd939854e8b3f931b3d", "is_disabled": 0, "lon": -77.04666466666667, "is_reserved": 0, "fusion_lat": 0.0, "type": "electric_scooter"}, {"fusion_lon": 0.0, "name": "44c6bbead42d8146679b17f7254d86a2", "rental_uris": {"android": "https://dc.lft.to/lastmile_qr_scan", "ios": "https://dc.lft.to/lastmile_qr_scan"}, "lat": 38.91912816666667, "bike_id": "44c6bbead42d8146679b17f7254d86a2", "is_disabled": 0, "lon": -77.03422416666666, "is_reserved": 0, "fusion_lat": 0.0, "type": "electric_scooter"}, {"fusion_lon": 0.0, "name": "8d47ed69a9730c89e9fbec98bb16814a", "rental_uris": {"android": "https://dc.lft.to/lastmile_qr_scan", "ios": "https://dc.lft.to/lastmile_qr_scan"}, "lat": 38.91327883333334, "bike_id": "8d47ed69a9730c89e9fbec98bb16814a", "is_disabled": 0, "lon": -77.044799, "is_reserved": 0, "fusion_lat": 0.0, "type": "electric_scooter"}, {"fusion_lon": 0.0, "name": "379706e75b6d474a120efcfb0bbba3f6", "rental_uris": {"android": "https://dc.lft.to/lastmile_qr_scan", "ios": "https://dc.lft.to/lastmile_qr_scan"}, "lat": 38.905749, "bike_id": "379706e75b6d474a120efcfb0bbba3f6", "is_disabled": 0, "lon": -77.00581366666667, "is_reserved": 0, "fusion_lat": 0.0, "type": "electric_scooter"}, {"fusion_lon": 0.0, "name": "64c7e361e1122abd04e7863b3b6667ba", "rental_uris": {"android": "https://dc.lft.to/lastmile_qr_scan", "ios": "https://dc.lft.to/lastmile_qr_scan"}, "lat": 38.89605483333333, "bike_id": "64c7e361e1122abd04e7863b3b6667ba", "is_disabled": 0, "lon": -77.00914233333333, "is_reserved": 0, "fusion_lat": 0.0, "type": "electric_scooter"}, {"fusion_lon": 0.0, "name": "6ba1939b4b3954519863e7a2daa74bfc", "rental_uris": {"android": "https://dc.lft.to/lastmile_qr_scan", "ios": "https://dc.lft.to/lastmile_qr_scan"}, "lat": 38.90244166666667, "bike_id": "6ba1939b4b3954519863e7a2daa74bfc", "is_disabled": 0, "lon": -77.03167216666667, "is_reserved": 0, "fusion_lat": 0.0, "type": "electric_scooter"}, {"fusion_lon": 0.0, "name": "bbe54466128012d6a52ffefe030095b5", "rental_uris": {"android": "https://dc.lft.to/lastmile_qr_scan", "ios": "https://dc.lft.to/lastmile_qr_scan"}, "lat": 38.901833, "bike_id": "bbe54466128012d6a52ffefe030095b5", "is_disabled": 0, "lon": -76.92996633333334, "is_reserved": 0, "fusion_lat": 0.0, "type": "electric_scooter"}, {"fusion_lon": 0.0, "name": "f107a4e3b8c9d882022390418ee6ed26", "rental_uris": {"android": "https://dc.lft.to/lastmile_qr_scan", "ios": "https://dc.lft.to/lastmile_qr_scan"}, "lat": 38.924003, "bike_id": "f107a4e3b8c9d882022390418ee6ed26", "is_disabled": 0, "lon": -77.02365583333334, "is_reserved": 0, "fusion_lat": 0.0, "type": "electric_scooter"}, {"fusion_lon": 0.0, "name": "88412e0f51744ceda2db0c7d69587753", "rental_uris": {"android": "https://dc.lft.to/lastmile_qr_scan", "ios": "https://dc.lft.to/lastmile_qr_scan"}, "lat": 38.91561766666667, "bike_id": "88412e0f51744ceda2db0c7d69587753", "is_disabled": 0, "lon": -77.04887133333334, "is_reserved": 0, "fusion_lat": 0.0, "type": "electric_scooter"}, {"fusion_lon": 0.0, "name": "faee13706a62a84d1be40a59a826efb6", "rental_uris": {"android": "https://dc.lft.to/lastmile_qr_scan", "ios": "https://dc.lft.to/lastmile_qr_scan"}, "lat": 38.91191966666667, "bike_id": "faee13706a62a84d1be40a59a826efb6", "is_disabled": 0, "lon": -77.03203316666666, "is_reserved": 0, "fusion_lat": 0.0, "type": "electric_scooter"}, {"fusion_lon": 0.0, "name": "7705c5de6ea2b1a821c2dda5d854678b", "rental_uris": {"android": "https://dc.lft.to/lastmile_qr_scan", "ios": "https://dc.lft.to/lastmile_qr_scan"}, "lat": 38.89468633333333, "bike_id": "7705c5de6ea2b1a821c2dda5d854678b", "is_disabled": 0, "lon": -76.997106, "is_reserved": 0, "fusion_lat": 0.0, "type": "electric_scooter"}, {"fusion_lon": 0.0, "name": "e69cc3eae8d55233da28da8b80f41f2c", "rental_uris": {"android": "https://dc.lft.to/lastmile_qr_scan", "ios": "https://dc.lft.to/lastmile_qr_scan"}, "lat": 38.904946333333335, "bike_id": "e69cc3eae8d55233da28da8b80f41f2c", "is_disabled": 0, "lon": -76.97742116666667, "is_reserved": 0, "fusion_lat": 0.0, "type": "electric_scooter"}, {"fusion_lon": 0.0, "name": "ee360dfea50f9d2aec9229aac2e14c23", "rental_uris": {"android": "https://dc.lft.to/lastmile_qr_scan", "ios": "https://dc.lft.to/lastmile_qr_scan"}, "lat": 38.933293166666665, "bike_id": "ee360dfea50f9d2aec9229aac2e14c23", "is_disabled": 0, "lon": -77.02920733333333, "is_reserved": 0, "fusion_lat": 0.0, "type": "electric_scooter"}, {"fusion_lon": 0.0, "name": "b157b66c4fb8e2bea09b30fe063823db", "rental_uris": {"android": "https://dc.lft.to/lastmile_qr_scan", "ios": "https://dc.lft.to/lastmile_qr_scan"}, "lat": 38.93145716666667, "bike_id": "b157b66c4fb8e2bea09b30fe063823db", "is_disabled": 0, "lon": -77.078489, "is_reserved": 0, "fusion_lat": 0.0, "type": "electric_scooter"}, {"fusion_lon": 0.0, "name": "042b3c7cf6cb64aef970d926b8186c4f", "rental_uris": {"android": "https://dc.lft.to/lastmile_qr_scan", "ios": "https://dc.lft.to/lastmile_qr_scan"}, "lat": 38.85240133333333, "bike_id": "042b3c7cf6cb64aef970d926b8186c4f", "is_disabled": 0, "lon": -77.05309433333333, "is_reserved": 0, "fusion_lat": 0.0, "type": "electric_bike"}, {"fusion_lon": 0.0, "name": "f94ae4d916ea8bef5f1920df126eefc0", "rental_uris": {"android": "https://dc.lft.to/lastmile_qr_scan", "ios": "https://dc.lft.to/lastmile_qr_scan"}, "lat": 38.95912666666667, "bike_id": "f94ae4d916ea8bef5f1920df126eefc0", "is_disabled": 0, "lon": -77.000203, "is_reserved": 0, "fusion_lat": 0.0, "type": "electric_scooter"}, {"fusion_lon": 0.0, "name": "f55ec3dbafdb4809aa62592aa8a8e5a2", "rental_uris": {"android": "https://dc.lft.to/lastmile_qr_scan", "ios": "https://dc.lft.to/lastmile_qr_scan"}, "lat": 38.900848833333335, "bike_id": "f55ec3dbafdb4809aa62592aa8a8e5a2", "is_disabled": 0, "lon": -77.047497, "is_reserved": 0, "fusion_lat": 0.0, "type": "electric_scooter"}, {"fusion_lon": 0.0, "name": "6f28053e438992a2d4fba2591745f9e7", "rental_uris": {"android": "https://dc.lft.to/lastmile_qr_scan", "ios": "https://dc.lft.to/lastmile_qr_scan"}, "lat": 38.900319833333334, "bike_id": "6f28053e438992a2d4fba2591745f9e7", "is_disabled": 0, "lon": -76.996207, "is_reserved": 0, "fusion_lat": 0.0, "type": "electric_scooter"}, {"fusion_lon": 0.0, "name": "753e1bb3d2a408f24e78d5ab8e11691b", "rental_uris": {"android": "https://dc.lft.to/lastmile_qr_scan", "ios": "https://dc.lft.to/lastmile_qr_scan"}, "lat": 38.89232583333333, "bike_id": "753e1bb3d2a408f24e78d5ab8e11691b", "is_disabled": 0, "lon": -77.0500365, "is_reserved": 0, "fusion_lat": 0.0, "type": "electric_scooter"}, {"fusion_lon": 0.0, "name": "78bb05a5d42f248f257eb27cc3018a5d", "rental_uris": {"android": "https://dc.lft.to/lastmile_qr_scan", "ios": "https://dc.lft.to/lastmile_qr_scan"}, "lat": 38.903350333333336, "bike_id": "78bb05a5d42f248f257eb27cc3018a5d", "is_disabled": 0, "lon": -76.98216866666667, "is_reserved": 0, "fusion_lat": 0.0, "type": "electric_scooter"}, {"fusion_lon": 0.0, "name": "ce8d865694f509eb695188450ffda2d5", "rental_uris": {"android": "https://dc.lft.to/lastmile_qr_scan", "ios": "https://dc.lft.to/lastmile_qr_scan"}, "lat": 38.957634666666664, "bike_id": "ce8d865694f509eb695188450ffda2d5", "is_disabled": 0, "lon": -77.00918933333334, "is_reserved": 0, "fusion_lat": 0.0, "type": "electric_scooter"}, {"fusion_lon": 0.0, "name": "425302ed34c7d96629e7044b37a36e55", "rental_uris": {"android": "https://dc.lft.to/lastmile_qr_scan", "ios": "https://dc.lft.to/lastmile_qr_scan"}, "lat": 38.912464666666665, "bike_id": "425302ed34c7d96629e7044b37a36e55", "is_disabled": 0, "lon": -77.03204283333334, "is_reserved": 0, "fusion_lat": 0.0, "type": "electric_scooter"}, {"fusion_lon": 0.0, "name": "58abceab414b47bfd7679225dcc19d1f", "rental_uris": {"android": "https://dc.lft.to/lastmile_qr_scan", "ios": "https://dc.lft.to/lastmile_qr_scan"}, "lat": 38.92062683333333, "bike_id": "58abceab414b47bfd7679225dcc19d1f", "is_disabled": 0, "lon": -77.02376966666667, "is_reserved": 0, "fusion_lat": 0.0, "type": "electric_scooter"}, {"fusion_lon": 0.0, "name": "33b73f2755df09cbdd6d7a72d015dbec", "rental_uris": {"android": "https://dc.lft.to/lastmile_qr_scan", "ios": "https://dc.lft.to/lastmile_qr_scan"}, "lat": 38.92144, "bike_id": "33b73f2755df09cbdd6d7a72d015dbec", "is_disabled": 0, "lon": -77.03375166666666, "is_reserved": 0, "fusion_lat": 0.0, "type": "electric_scooter"}, {"fusion_lon": 0.0, "name": "3f5c88d73986797988e93976c285479d", "rental_uris": {"android": "https://dc.lft.to/lastmile_qr_scan", "ios": "https://dc.lft.to/lastmile_qr_scan"}, "lat": 38.89232583333333, "bike_id": "3f5c88d73986797988e93976c285479d", "is_disabled": 0, "lon": -77.02386033333333, "is_reserved": 0, "fusion_lat": 0.0, "type": "electric_scooter"}, {"fusion_lon": 0.0, "name": "747852161da28cb9c63378ed35873639", "rental_uris": {"android": "https://dc.lft.to/lastmile_qr_scan", "ios": "https://dc.lft.to/lastmile_qr_scan"}, "lat": 38.920727666666664, "bike_id": "747852161da28cb9c63378ed35873639", "is_disabled": 0, "lon": -77.02406883333333, "is_reserved": 0, "fusion_lat": 0.0, "type": "electric_scooter"}, {"fusion_lon": 0.0, "name": "e9efab0df563caa8567e2ba8616e9efa", "rental_uris": {"android": "https://dc.lft.to/lastmile_qr_scan", "ios": "https://dc.lft.to/lastmile_qr_scan"}, "lat": 38.92058083333333, "bike_id": "e9efab0df563caa8567e2ba8616e9efa", "is_disabled": 0, "lon": -77.02447516666666, "is_reserved": 0, "fusion_lat": 0.0, "type": "electric_scooter"}, {"fusion_lon": 0.0, "name": "bdea1f84530035b9e62aa4f88f58bc5c", "rental_uris": {"android": "https://dc.lft.to/lastmile_qr_scan", "ios": "https://dc.lft.to/lastmile_qr_scan"}, "lat": 38.9436875, "bike_id": "bdea1f84530035b9e62aa4f88f58bc5c", "is_disabled": 0, "lon": -77.06099583333334, "is_reserved": 0, "fusion_lat": 0.0, "type": "electric_scooter"}, {"fusion_lon": 0.0, "name": "bb8db6dfcd42158bb5c24fd2d28055e3", "rental_uris": {"android": "https://dc.lft.to/lastmile_qr_scan", "ios": "https://dc.lft.to/lastmile_qr_scan"}, "lat": 38.95517683333333, "bike_id": "bb8db6dfcd42158bb5c24fd2d28055e3", "is_disabled": 0, "lon": -77.010401, "is_reserved": 0, "fusion_lat": 0.0, "type": "electric_scooter"}, {"fusion_lon": 0.0, "name": "11bf43135551e8d44b94c3c017c0b602", "rental_uris": {"android": "https://dc.lft.to/lastmile_qr_scan", "ios": "https://dc.lft.to/lastmile_qr_scan"}, "lat": 38.922677, "bike_id": "11bf43135551e8d44b94c3c017c0b602", "is_disabled": 0, "lon": -77.03397266666667, "is_reserved": 0, "fusion_lat": 0.0, "type": "electric_scooter"}, {"fusion_lon": 0.0, "name": "2b40de1d512ae21fa58ec5b58bd7e377", "rental_uris": {"android": "https://dc.lft.to/lastmile_qr_scan", "ios": "https://dc.lft.to/lastmile_qr_scan"}, "lat": 38.9205305, "bike_id": "2b40de1d512ae21fa58ec5b58bd7e377", "is_disabled": 0, "lon": -76.99114983333334, "is_reserved": 0, "fusion_lat": 0.0, "type": "electric_bike"}, {"fusion_lon": 0.0, "name": "ed656a52b0d2ba2ac03d2acb52d4029c", "rental_uris": {"android": "https://dc.lft.to/lastmile_qr_scan", "ios": "https://dc.lft.to/lastmile_qr_scan"}, "lat": 38.91870683333333, "bike_id": "ed656a52b0d2ba2ac03d2acb52d4029c", "is_disabled": 0, "lon": -77.04480866666667, "is_reserved": 0, "fusion_lat": 0.0, "type": "electric_scooter"}, {"fusion_lon": 0.0, "name": "bfda664ff43d864bc2c40a47e3754762", "rental_uris": {"android": "https://dc.lft.to/lastmile_qr_scan", "ios": "https://dc.lft.to/lastmile_qr_scan"}, "lat": 38.876783833333334, "bike_id": "bfda664ff43d864bc2c40a47e3754762", "is_disabled": 0, "lon": -77.0006575, "is_reserved": 0, "fusion_lat": 0.0, "type": "electric_scooter"}, {"fusion_lon": 0.0, "name": "9e97d08d94e7745dd35a90f7891fe726", "rental_uris": {"android": "https://dc.lft.to/lastmile_qr_scan", "ios": "https://dc.lft.to/lastmile_qr_scan"}, "lat": 38.9209185, "bike_id": "9e97d08d94e7745dd35a90f7891fe726", "is_disabled": 0, "lon": -77.0231295, "is_reserved": 0, "fusion_lat": 0.0, "type": "electric_scooter"}, {"fusion_lon": 0.0, "name": "50d191565080edfea6a023f9002d1dc6", "rental_uris": {"android": "https://dc.lft.to/lastmile_qr_scan", "ios": "https://dc.lft.to/lastmile_qr_scan"}, "lat": 38.921716, "bike_id": "50d191565080edfea6a023f9002d1dc6", "is_disabled": 0, "lon": -77.02674616666667, "is_reserved": 0, "fusion_lat": 0.0, "type": "electric_scooter"}, {"fusion_lon": 0.0, "name": "b7070c5db23ba320f986448698569b24", "rental_uris": {"android": "https://dc.lft.to/lastmile_qr_scan", "ios": "https://dc.lft.to/lastmile_qr_scan"}, "lat": 38.901907666666666, "bike_id": "b7070c5db23ba320f986448698569b24", "is_disabled": 0, "lon": -77.02155183333333, "is_reserved": 0, "fusion_lat": 0.0, "type": "electric_scooter"}, {"fusion_lon": 0.0, "name": "67236487694aa80423d16bab6dfa63de", "rental_uris": {"android": "https://dc.lft.to/lastmile_qr_scan", "ios": "https://dc.lft.to/lastmile_qr_scan"}, "lat": 38.880241166666664, "bike_id": "67236487694aa80423d16bab6dfa63de", "is_disabled": 0, "lon": -77.00576933333333, "is_reserved": 0, "fusion_lat": 0.0, "type": "electric_scooter"}, {"fusion_lon": 0.0, "name": "ce36e38cfc778721e7830c5a2b9e9bcd", "rental_uris": {"android": "https://dc.lft.to/lastmile_qr_scan", "ios": "https://dc.lft.to/lastmile_qr_scan"}, "lat": 38.938771833333334, "bike_id": "ce36e38cfc778721e7830c5a2b9e9bcd", "is_disabled": 0, "lon": -77.02479816666667, "is_reserved": 0, "fusion_lat": 0.0, "type": "electric_scooter"}, {"fusion_lon": 0.0, "name": "ebc86d771dc7e69c448530a45ca83519", "rental_uris": {"android": "https://dc.lft.to/lastmile_qr_scan", "ios": "https://dc.lft.to/lastmile_qr_scan"}, "lat": 38.89757516666667, "bike_id": "ebc86d771dc7e69c448530a45ca83519", "is_disabled": 0, "lon": -77.02703283333334, "is_reserved": 0, "fusion_lat": 0.0, "type": "electric_scooter"}, {"fusion_lon": 0.0, "name": "d95cc295dbf101e34fa80b5237cdd7a8", "rental_uris": {"android": "https://dc.lft.to/lastmile_qr_scan", "ios": "https://dc.lft.to/lastmile_qr_scan"}, "lat": 38.92789416666667, "bike_id": "d95cc295dbf101e34fa80b5237cdd7a8", "is_disabled": 0, "lon": -77.02190166666666, "is_reserved": 0, "fusion_lat": 0.0, "type": "electric_bike"}, {"fusion_lon": 0.0, "name": "4bd3773204f4e0fa3328f3fe7ef6498e", "rental_uris": {"android": "https://dc.lft.to/lastmile_qr_scan", "ios": "https://dc.lft.to/lastmile_qr_scan"}, "lat": 38.910293833333334, "bike_id": "4bd3773204f4e0fa3328f3fe7ef6498e", "is_disabled": 0, "lon": -77.0487325, "is_reserved": 0, "fusion_lat": 0.0, "type": "electric_scooter"}, {"fusion_lon": 0.0, "name": "c2c9331a173f1dda696819e1b696055f", "rental_uris": {"android": "https://dc.lft.to/lastmile_qr_scan", "ios": "https://dc.lft.to/lastmile_qr_scan"}, "lat": 38.8807085, "bike_id": "c2c9331a173f1dda696819e1b696055f", "is_disabled": 0, "lon": -77.01526683333333, "is_reserved": 0, "fusion_lat": 0.0, "type": "electric_scooter"}, {"fusion_lon": 0.0, "name": "fae3a7cb403e81c9a7db77109d99320a", "rental_uris": {"android": "https://dc.lft.to/lastmile_qr_scan", "ios": "https://dc.lft.to/lastmile_qr_scan"}, "lat": 38.89902933333333, "bike_id": "fae3a7cb403e81c9a7db77109d99320a", "is_disabled": 0, "lon": -76.93870033333333, "is_reserved": 0, "fusion_lat": 0.0, "type": "electric_scooter"}, {"fusion_lon": 0.0, "name": "ccf47901b9e0f01e055e61efa1e8753a", "rental_uris": {"android": "https://dc.lft.to/lastmile_qr_scan", "ios": "https://dc.lft.to/lastmile_qr_scan"}, "lat": 38.90241016666667, "bike_id": "ccf47901b9e0f01e055e61efa1e8753a", "is_disabled": 0, "lon": -77.00206666666666, "is_reserved": 0, "fusion_lat": 0.0, "type": "electric_scooter"}, {"fusion_lon": 0.0, "name": "0523f1a6515be865d18ccf6ee5af01ed", "rental_uris": {"android": "https://dc.lft.to/lastmile_qr_scan", "ios": "https://dc.lft.to/lastmile_qr_scan"}, "lat": 38.92671833333333, "bike_id": "0523f1a6515be865d18ccf6ee5af01ed", "is_disabled": 0, "lon": -77.03089666666666, "is_reserved": 0, "fusion_lat": 0.0, "type": "electric_scooter"}, {"fusion_lon": 0.0, "name": "09e1e9f0b805c3c99a47f54f2593c9d2", "rental_uris": {"android": "https://dc.lft.to/lastmile_qr_scan", "ios": "https://dc.lft.to/lastmile_qr_scan"}, "lat": 38.925443333333334, "bike_id": "09e1e9f0b805c3c99a47f54f2593c9d2", "is_disabled": 0, "lon": -77.02973333333334, "is_reserved": 0, "fusion_lat": 0.0, "type": "electric_scooter"}, {"fusion_lon": 0.0, "name": "a509231b1523d83f53921d9f51b93a3f", "rental_uris": {"android": "https://dc.lft.to/lastmile_qr_scan", "ios": "https://dc.lft.to/lastmile_qr_scan"}, "lat": 38.929309833333335, "bike_id": "a509231b1523d83f53921d9f51b93a3f", "is_disabled": 0, "lon": -77.00678, "is_reserved": 0, "fusion_lat": 0.0, "type": "electric_scooter"}, {"fusion_lon": 0.0, "name": "c409738fa552fd68006212757ac5f0c6", "rental_uris": {"android": "https://dc.lft.to/lastmile_qr_scan", "ios": "https://dc.lft.to/lastmile_qr_scan"}, "lat": 38.912508333333335, "bike_id": "c409738fa552fd68006212757ac5f0c6", "is_disabled": 0, "lon": -76.983657, "is_reserved": 0, "fusion_lat": 0.0, "type": "electric_scooter"}, {"fusion_lon": 0.0, "name": "80ec659bde20ebbe4b2ddde8b899d762", "rental_uris": {"android": "https://dc.lft.to/lastmile_qr_scan", "ios": "https://dc.lft.to/lastmile_qr_scan"}, "lat": 38.93463416666667, "bike_id": "80ec659bde20ebbe4b2ddde8b899d762", "is_disabled": 0, "lon": -77.058137, "is_reserved": 0, "fusion_lat": 0.0, "type": "electric_scooter"}, {"fusion_lon": 0.0, "name": "ff23894f9f1caf54156d039da42b8dc7", "rental_uris": {"android": "https://dc.lft.to/lastmile_qr_scan", "ios": "https://dc.lft.to/lastmile_qr_scan"}, "lat": 38.905668, "bike_id": "ff23894f9f1caf54156d039da42b8dc7", "is_disabled": 0, "lon": -76.98208616666666, "is_reserved": 0, "fusion_lat": 0.0, "type": "electric_scooter"}, {"fusion_lon": 0.0, "name": "0276c8911dd81e218bb7fe7df541af2f", "rental_uris": {"android": "https://dc.lft.to/lastmile_qr_scan", "ios": "https://dc.lft.to/lastmile_qr_scan"}, "lat": 38.8970955, "bike_id": "0276c8911dd81e218bb7fe7df541af2f", "is_disabled": 0, "lon": -77.04484866666667, "is_reserved": 0, "fusion_lat": 0.0, "type": "electric_scooter"}, {"fusion_lon": 0.0, "name": "d730951b88348b8bf1f557dcb1a28744", "rental_uris": {"android": "https://dc.lft.to/lastmile_qr_scan", "ios": "https://dc.lft.to/lastmile_qr_scan"}, "lat": 38.8765525, "bike_id": "d730951b88348b8bf1f557dcb1a28744", "is_disabled": 0, "lon": -77.00590566666666, "is_reserved": 0, "fusion_lat": 0.0, "type": "electric_scooter"}, {"fusion_lon": 0.0, "name": "1235ccde650d1a993728cd21ccf5f1d6", "rental_uris": {"android": "https://dc.lft.to/lastmile_qr_scan", "ios": "https://dc.lft.to/lastmile_qr_scan"}, "lat": 38.90178183333333, "bike_id": "1235ccde650d1a993728cd21ccf5f1d6", "is_disabled": 0, "lon": -77.0240605, "is_reserved": 0, "fusion_lat": 0.0, "type": "electric_scooter"}, {"fusion_lon": 0.0, "name": "7be58eabc26cd95fcc48f23ffdfda611", "rental_uris": {"android": "https://dc.lft.to/lastmile_qr_scan", "ios": "https://dc.lft.to/lastmile_qr_scan"}, "lat": 38.924598833333334, "bike_id": "7be58eabc26cd95fcc48f23ffdfda611", "is_disabled": 0, "lon": -77.03294233333334, "is_reserved": 0, "fusion_lat": 0.0, "type": "electric_scooter"}, {"fusion_lon": 0.0, "name": "5d6c380bf8b4122be3e13705bfa24bef", "rental_uris": {"android": "https://dc.lft.to/lastmile_qr_scan", "ios": "https://dc.lft.to/lastmile_qr_scan"}, "lat": 38.918522833333334, "bike_id": "5d6c380bf8b4122be3e13705bfa24bef", "is_disabled": 0, "lon": -77.0319655, "is_reserved": 0, "fusion_lat": 0.0, "type": "electric_scooter"}, {"fusion_lon": 0.0, "name": "7cde66fe06a1bc45aea3a1af28eb79ae", "rental_uris": {"android": "https://dc.lft.to/lastmile_qr_scan", "ios": "https://dc.lft.to/lastmile_qr_scan"}, "lat": 38.91842966666667, "bike_id": "7cde66fe06a1bc45aea3a1af28eb79ae", "is_disabled": 0, "lon": -77.03859666666666, "is_reserved": 0, "fusion_lat": 0.0, "type": "electric_scooter"}, {"fusion_lon": 0.0, "name": "a5f6ccd61a152bc44b446d82f6d9ea38", "rental_uris": {"android": "https://dc.lft.to/lastmile_qr_scan", "ios": "https://dc.lft.to/lastmile_qr_scan"}, "lat": 38.877593833333336, "bike_id": "a5f6ccd61a152bc44b446d82f6d9ea38", "is_disabled": 0, "lon": -77.012039, "is_reserved": 0, "fusion_lat": 0.0, "type": "electric_bike"}, {"fusion_lon": 0.0, "name": "db1ca15a763bdc3dfc7cf7da0da163c1", "rental_uris": {"android": "https://dc.lft.to/lastmile_qr_scan", "ios": "https://dc.lft.to/lastmile_qr_scan"}, "lat": 38.880471666666665, "bike_id": "db1ca15a763bdc3dfc7cf7da0da163c1", "is_disabled": 0, "lon": -77.00362433333333, "is_reserved": 0, "fusion_lat": 0.0, "type": "electric_scooter"}, {"fusion_lon": 0.0, "name": "9e32c15526ec42885513cc30f3a42bae", "rental_uris": {"android": "https://dc.lft.to/lastmile_qr_scan", "ios": "https://dc.lft.to/lastmile_qr_scan"}, "lat": 38.93634133333333, "bike_id": "9e32c15526ec42885513cc30f3a42bae", "is_disabled": 0, "lon": -77.03267166666667, "is_reserved": 0, "fusion_lat": 0.0, "type": "electric_scooter"}, {"fusion_lon": 0.0, "name": "3a7b99dcda568686d4903551ac97db48", "rental_uris": {"android": "https://dc.lft.to/lastmile_qr_scan", "ios": "https://dc.lft.to/lastmile_qr_scan"}, "lat": 38.902735, "bike_id": "3a7b99dcda568686d4903551ac97db48", "is_disabled": 0, "lon": -77.017386, "is_reserved": 0, "fusion_lat": 0.0, "type": "electric_scooter"}, {"fusion_lon": 0.0, "name": "969607414151e3eeb3192c8315087987", "rental_uris": {"android": "https://dc.lft.to/lastmile_qr_scan", "ios": "https://dc.lft.to/lastmile_qr_scan"}, "lat": 38.89547816666666, "bike_id": "969607414151e3eeb3192c8315087987", "is_disabled": 0, "lon": -76.98337433333333, "is_reserved": 0, "fusion_lat": 0.0, "type": "electric_scooter"}, {"fusion_lon": 0.0, "name": "a95d7a461c16fda69f733e351ca76bc1", "rental_uris": {"android": "https://dc.lft.to/lastmile_qr_scan", "ios": "https://dc.lft.to/lastmile_qr_scan"}, "lat": 38.90762466666666, "bike_id": "a95d7a461c16fda69f733e351ca76bc1", "is_disabled": 0, "lon": -77.05972383333334, "is_reserved": 0, "fusion_lat": 0.0, "type": "electric_scooter"}, {"fusion_lon": 0.0, "name": "1b466bb88ecdd8e7e6dd1c9e4e8f47d6", "rental_uris": {"android": "https://dc.lft.to/lastmile_qr_scan", "ios": "https://dc.lft.to/lastmile_qr_scan"}, "lat": 38.91917016666667, "bike_id": "1b466bb88ecdd8e7e6dd1c9e4e8f47d6", "is_disabled": 0, "lon": -77.03422016666667, "is_reserved": 0, "fusion_lat": 0.0, "type": "electric_scooter"}, {"fusion_lon": 0.0, "name": "b8155decddde5925761a78b9fb90e7c6", "rental_uris": {"android": "https://dc.lft.to/lastmile_qr_scan", "ios": "https://dc.lft.to/lastmile_qr_scan"}, "lat": 38.92482566666666, "bike_id": "b8155decddde5925761a78b9fb90e7c6", "is_disabled": 0, "lon": -77.0382965, "is_reserved": 0, "fusion_lat": 0.0, "type": "electric_scooter"}, {"fusion_lon": 0.0, "name": "87dc0064a39e9e3a766e21feba4f9edf", "rental_uris": {"android": "https://dc.lft.to/lastmile_qr_scan", "ios": "https://dc.lft.to/lastmile_qr_scan"}, "lat": 38.91711033333333, "bike_id": "87dc0064a39e9e3a766e21feba4f9edf", "is_disabled": 0, "lon": -77.0386685, "is_reserved": 0, "fusion_lat": 0.0, "type": "electric_scooter"}, {"fusion_lon": 0.0, "name": "dea717ab43bb7a9a8b9d8fdf2e629b6d", "rental_uris": {"android": "https://dc.lft.to/lastmile_qr_scan", "ios": "https://dc.lft.to/lastmile_qr_scan"}, "lat": 38.944620666666665, "bike_id": "dea717ab43bb7a9a8b9d8fdf2e629b6d", "is_disabled": 0, "lon": -77.06392916666667, "is_reserved": 0, "fusion_lat": 0.0, "type": "electric_scooter"}, {"fusion_lon": 0.0, "name": "0f6e054dd16d53612acd67d38f6fa9e4", "rental_uris": {"android": "https://dc.lft.to/lastmile_qr_scan", "ios": "https://dc.lft.to/lastmile_qr_scan"}, "lat": 38.923155333333334, "bike_id": "0f6e054dd16d53612acd67d38f6fa9e4", "is_disabled": 0, "lon": -77.040394, "is_reserved": 0, "fusion_lat": 0.0, "type": "electric_scooter"}, {"fusion_lon": 0.0, "name": "169b13f7ef27e81bce6596bbd581b65c", "rental_uris": {"android": "https://dc.lft.to/lastmile_qr_scan", "ios": "https://dc.lft.to/lastmile_qr_scan"}, "lat": 38.94171766666667, "bike_id": "169b13f7ef27e81bce6596bbd581b65c", "is_disabled": 0, "lon": -77.0232365, "is_reserved": 0, "fusion_lat": 0.0, "type": "electric_scooter"}, {"fusion_lon": 0.0, "name": "1b04bceb28baa799885ee7a4f34a1e0d", "rental_uris": {"android": "https://dc.lft.to/lastmile_qr_scan", "ios": "https://dc.lft.to/lastmile_qr_scan"}, "lat": 38.898768833333335, "bike_id": "1b04bceb28baa799885ee7a4f34a1e0d", "is_disabled": 0, "lon": -76.9883825, "is_reserved": 0, "fusion_lat": 0.0, "type": "electric_scooter"}, {"fusion_lon": 0.0, "name": "5a1b7a6c027ac6bcc2c20b2cfa5a436b", "rental_uris": {"android": "https://dc.lft.to/lastmile_qr_scan", "ios": "https://dc.lft.to/lastmile_qr_scan"}, "lat": 38.900167333333336, "bike_id": "5a1b7a6c027ac6bcc2c20b2cfa5a436b", "is_disabled": 0, "lon": -77.0022025, "is_reserved": 0, "fusion_lat": 0.0, "type": "electric_scooter"}, {"fusion_lon": 0.0, "name": "7c018d96d702180c34d975e74e6b0a80", "rental_uris": {"android": "https://dc.lft.to/lastmile_qr_scan", "ios": "https://dc.lft.to/lastmile_qr_scan"}, "lat": 38.90007166666667, "bike_id": "7c018d96d702180c34d975e74e6b0a80", "is_disabled": 0, "lon": -77.04652433333334, "is_reserved": 0, "fusion_lat": 0.0, "type": "electric_scooter"}, {"fusion_lon": 0.0, "name": "b82241442cfc4f0ecb51b8715fb571ee", "rental_uris": {"android": "https://dc.lft.to/lastmile_qr_scan", "ios": "https://dc.lft.to/lastmile_qr_scan"}, "lat": 38.922197833333335, "bike_id": "b82241442cfc4f0ecb51b8715fb571ee", "is_disabled": 0, "lon": -77.0242655, "is_reserved": 0, "fusion_lat": 0.0, "type": "electric_scooter"}, {"fusion_lon": 0.0, "name": "28637de60d25bb4b92647ec11d9830e6", "rental_uris": {"android": "https://dc.lft.to/lastmile_qr_scan", "ios": "https://dc.lft.to/lastmile_qr_scan"}, "lat": 38.92257466666667, "bike_id": "28637de60d25bb4b92647ec11d9830e6", "is_disabled": 0, "lon": -77.03665316666667, "is_reserved": 0, "fusion_lat": 0.0, "type": "electric_scooter"}, {"fusion_lon": 0.0, "name": "a39b7ad64345af14aae35b64762e8e31", "rental_uris": {"android": "https://dc.lft.to/lastmile_qr_scan", "ios": "https://dc.lft.to/lastmile_qr_scan"}, "lat": 38.9267735, "bike_id": "a39b7ad64345af14aae35b64762e8e31", "is_disabled": 0, "lon": -77.02865583333333, "is_reserved": 0, "fusion_lat": 0.0, "type": "electric_scooter"}, {"fusion_lon": 0.0, "name": "f4d9d0af7c7c7366007879bf96c15c04", "rental_uris": {"android": "https://dc.lft.to/lastmile_qr_scan", "ios": "https://dc.lft.to/lastmile_qr_scan"}, "lat": 38.907277666666666, "bike_id": "f4d9d0af7c7c7366007879bf96c15c04", "is_disabled": 0, "lon": -77.02795983333333, "is_reserved": 0, "fusion_lat": 0.0, "type": "electric_scooter"}, {"fusion_lon": 0.0, "name": "a24bb92428a1c1352b09e359248823d9", "rental_uris": {"android": "https://dc.lft.to/lastmile_qr_scan", "ios": "https://dc.lft.to/lastmile_qr_scan"}, "lat": 38.89953833333333, "bike_id": "a24bb92428a1c1352b09e359248823d9", "is_disabled": 0, "lon": -77.04856766666667, "is_reserved": 0, "fusion_lat": 0.0, "type": "electric_scooter"}, {"fusion_lon": 0.0, "name": "ca0f2021cf3d6028866d84569b8ba8e7", "rental_uris": {"android": "https://dc.lft.to/lastmile_qr_scan", "ios": "https://dc.lft.to/lastmile_qr_scan"}, "lat": 38.919561, "bike_id": "ca0f2021cf3d6028866d84569b8ba8e7", "is_disabled": 0, "lon": -77.043602, "is_reserved": 0, "fusion_lat": 0.0, "type": "electric_scooter"}, {"fusion_lon": 0.0, "name": "ccc0d28e631a499df308c843f5460794", "rental_uris": {"android": "https://dc.lft.to/lastmile_qr_scan", "ios": "https://dc.lft.to/lastmile_qr_scan"}, "lat": 38.90218866666667, "bike_id": "ccc0d28e631a499df308c843f5460794", "is_disabled": 0, "lon": -77.02375433333333, "is_reserved": 0, "fusion_lat": 0.0, "type": "electric_scooter"}, {"fusion_lon": 0.0, "name": "3321bfbf9783d59608739176cb7988e6", "rental_uris": {"android": "https://dc.lft.to/lastmile_qr_scan", "ios": "https://dc.lft.to/lastmile_qr_scan"}, "lat": 38.9199185, "bike_id": "3321bfbf9783d59608739176cb7988e6", "is_disabled": 0, "lon": -77.02179283333334, "is_reserved": 0, "fusion_lat": 0.0, "type": "electric_scooter"}, {"fusion_lon": 0.0, "name": "3e5c2842f0d09e6b578d0e8d8f8012ba", "rental_uris": {"android": "https://dc.lft.to/lastmile_qr_scan", "ios": "https://dc.lft.to/lastmile_qr_scan"}, "lat": 38.923875833333334, "bike_id": "3e5c2842f0d09e6b578d0e8d8f8012ba", "is_disabled": 0, "lon": -77.029554, "is_reserved": 0, "fusion_lat": 0.0, "type": "electric_scooter"}, {"fusion_lon": 0.0, "name": "4d7f7ed62cf812863f09322fb4e7bfe7", "rental_uris": {"android": "https://dc.lft.to/lastmile_qr_scan", "ios": "https://dc.lft.to/lastmile_qr_scan"}, "lat": 38.892389, "bike_id": "4d7f7ed62cf812863f09322fb4e7bfe7", "is_disabled": 0, "lon": -77.03363883333333, "is_reserved": 0, "fusion_lat": 0.0, "type": "electric_scooter"}, {"fusion_lon": 0.0, "name": "9cb2bf9289799afcec46f3fbd5641a8d", "rental_uris": {"android": "https://dc.lft.to/lastmile_qr_scan", "ios": "https://dc.lft.to/lastmile_qr_scan"}, "lat": 38.89885616666667, "bike_id": "9cb2bf9289799afcec46f3fbd5641a8d", "is_disabled": 0, "lon": -77.04556416666667, "is_reserved": 0, "fusion_lat": 0.0, "type": "electric_scooter"}, {"fusion_lon": 0.0, "name": "c84f87539fcdcb5f11da6d6a325d64ba", "rental_uris": {"android": "https://dc.lft.to/lastmile_qr_scan", "ios": "https://dc.lft.to/lastmile_qr_scan"}, "lat": 38.90519116666667, "bike_id": "c84f87539fcdcb5f11da6d6a325d64ba", "is_disabled": 0, "lon": -77.0643455, "is_reserved": 0, "fusion_lat": 0.0, "type": "electric_scooter"}, {"fusion_lon": 0.0, "name": "9a64e0756be1926b31157320b603c32f", "rental_uris": {"android": "https://dc.lft.to/lastmile_qr_scan", "ios": "https://dc.lft.to/lastmile_qr_scan"}, "lat": 38.867537666666664, "bike_id": "9a64e0756be1926b31157320b603c32f", "is_disabled": 0, "lon": -76.94535866666666, "is_reserved": 0, "fusion_lat": 0.0, "type": "electric_bike"}, {"fusion_lon": 0.0, "name": "a633997a2a4adef1b912d44f2c4b0d22", "rental_uris": {"android": "https://dc.lft.to/lastmile_qr_scan", "ios": "https://dc.lft.to/lastmile_qr_scan"}, "lat": 38.884852333333335, "bike_id": "a633997a2a4adef1b912d44f2c4b0d22", "is_disabled": 0, "lon": -77.02647366666666, "is_reserved": 0, "fusion_lat": 0.0, "type": "electric_scooter"}, {"fusion_lon": 0.0, "name": "6008d5b6a4a0c6c29306fa264ef76fe2", "rental_uris": {"android": "https://dc.lft.to/lastmile_qr_scan", "ios": "https://dc.lft.to/lastmile_qr_scan"}, "lat": 38.90127283333333, "bike_id": "6008d5b6a4a0c6c29306fa264ef76fe2", "is_disabled": 0, "lon": -77.04328816666667, "is_reserved": 0, "fusion_lat": 0.0, "type": "electric_scooter"}, {"fusion_lon": 0.0, "name": "c44da7d905a83739db9a4edfed2b56e2", "rental_uris": {"android": "https://dc.lft.to/lastmile_qr_scan", "ios": "https://dc.lft.to/lastmile_qr_scan"}, "lat": 38.91246133333333, "bike_id": "c44da7d905a83739db9a4edfed2b56e2", "is_disabled": 0, "lon": -77.03216566666667, "is_reserved": 0, "fusion_lat": 0.0, "type": "electric_scooter"}, {"fusion_lon": 0.0, "name": "024db6a49f16598e77f1dc0205910cd5", "rental_uris": {"android": "https://dc.lft.to/lastmile_qr_scan", "ios": "https://dc.lft.to/lastmile_qr_scan"}, "lat": 38.900696833333335, "bike_id": "024db6a49f16598e77f1dc0205910cd5", "is_disabled": 0, "lon": -77.04645583333334, "is_reserved": 0, "fusion_lat": 0.0, "type": "electric_scooter"}, {"fusion_lon": 0.0, "name": "61aa4debc5dbaca8e2936dadbb29ea59", "rental_uris": {"android": "https://dc.lft.to/lastmile_qr_scan", "ios": "https://dc.lft.to/lastmile_qr_scan"}, "lat": 38.8756325, "bike_id": "61aa4debc5dbaca8e2936dadbb29ea59", "is_disabled": 0, "lon": -77.00601683333333, "is_reserved": 0, "fusion_lat": 0.0, "type": "electric_scooter"}, {"fusion_lon": 0.0, "name": "369d40d99fc4df092685960f6cb27e83", "rental_uris": {"android": "https://dc.lft.to/lastmile_qr_scan", "ios": "https://dc.lft.to/lastmile_qr_scan"}, "lat": 38.9275785, "bike_id": "369d40d99fc4df092685960f6cb27e83", "is_disabled": 0, "lon": -77.0526305, "is_reserved": 0, "fusion_lat": 0.0, "type": "electric_scooter"}, {"fusion_lon": 0.0, "name": "58419b0110a2a74c9909bc9e3980d93a", "rental_uris": {"android": "https://dc.lft.to/lastmile_qr_scan", "ios": "https://dc.lft.to/lastmile_qr_scan"}, "lat": 38.92738416666667, "bike_id": "58419b0110a2a74c9909bc9e3980d93a", "is_disabled": 0, "lon": -77.02588833333333, "is_reserved": 0, "fusion_lat": 0.0, "type": "electric_scooter"}, {"fusion_lon": 0.0, "name": "cbe450a8a5e886c644e32a06ccd07a45", "rental_uris": {"android": "https://dc.lft.to/lastmile_qr_scan", "ios": "https://dc.lft.to/lastmile_qr_scan"}, "lat": 38.85713166666667, "bike_id": "cbe450a8a5e886c644e32a06ccd07a45", "is_disabled": 0, "lon": -76.98129533333334, "is_reserved": 0, "fusion_lat": 0.0, "type": "electric_scooter"}, {"fusion_lon": 0.0, "name": "70fbe9be4257b987d5f99902bd4df758", "rental_uris": {"android": "https://dc.lft.to/lastmile_qr_scan", "ios": "https://dc.lft.to/lastmile_qr_scan"}, "lat": 38.929985333333335, "bike_id": "70fbe9be4257b987d5f99902bd4df758", "is_disabled": 0, "lon": -77.03253416666666, "is_reserved": 0, "fusion_lat": 0.0, "type": "electric_scooter"}, {"fusion_lon": 0.0, "name": "8a29b8600712bf49177e6870c4929cdf", "rental_uris": {"android": "https://dc.lft.to/lastmile_qr_scan", "ios": "https://dc.lft.to/lastmile_qr_scan"}, "lat": 38.925965166666664, "bike_id": "8a29b8600712bf49177e6870c4929cdf", "is_disabled": 0, "lon": -77.0249055, "is_reserved": 0, "fusion_lat": 0.0, "type": "electric_scooter"}, {"fusion_lon": 0.0, "name": "d7e680137ea546da0181e0528da7fb58", "rental_uris": {"android": "https://dc.lft.to/lastmile_qr_scan", "ios": "https://dc.lft.to/lastmile_qr_scan"}, "lat": 38.8756715, "bike_id": "d7e680137ea546da0181e0528da7fb58", "is_disabled": 0, "lon": -77.00602733333334, "is_reserved": 0, "fusion_lat": 0.0, "type": "electric_scooter"}, {"fusion_lon": 0.0, "name": "75a146cabbd59f01b968e704f754d210", "rental_uris": {"android": "https://dc.lft.to/lastmile_qr_scan", "ios": "https://dc.lft.to/lastmile_qr_scan"}, "lat": 38.865112, "bike_id": "75a146cabbd59f01b968e704f754d210", "is_disabled": 0, "lon": -76.96899416666666, "is_reserved": 0, "fusion_lat": 0.0, "type": "electric_scooter"}, {"fusion_lon": 0.0, "name": "ce56cff3a11686272574f9fa89044f93", "rental_uris": {"android": "https://dc.lft.to/lastmile_qr_scan", "ios": "https://dc.lft.to/lastmile_qr_scan"}, "lat": 38.86478616666667, "bike_id": "ce56cff3a11686272574f9fa89044f93", "is_disabled": 0, "lon": -76.98236433333334, "is_reserved": 0, "fusion_lat": 0.0, "type": "electric_scooter"}, {"fusion_lon": 0.0, "name": "9034736ce8befdfe2db8d91c77c85418", "rental_uris": {"android": "https://dc.lft.to/lastmile_qr_scan", "ios": "https://dc.lft.to/lastmile_qr_scan"}, "lat": 38.897382, "bike_id": "9034736ce8befdfe2db8d91c77c85418", "is_disabled": 0, "lon": -77.02169116666667, "is_reserved": 0, "fusion_lat": 0.0, "type": "electric_scooter"}, {"fusion_lon": 0.0, "name": "65033bafca52c280226d08976b62f40f", "rental_uris": {"android": "https://dc.lft.to/lastmile_qr_scan", "ios": "https://dc.lft.to/lastmile_qr_scan"}, "lat": 38.918857333333335, "bike_id": "65033bafca52c280226d08976b62f40f", "is_disabled": 0, "lon": -77.018969, "is_reserved": 0, "fusion_lat": 0.0, "type": "electric_scooter"}, {"fusion_lon": 0.0, "name": "6b48578bd51eb12a601f65b50ae034de", "rental_uris": {"android": "https://dc.lft.to/lastmile_qr_scan", "ios": "https://dc.lft.to/lastmile_qr_scan"}, "lat": 38.9207735, "bike_id": "6b48578bd51eb12a601f65b50ae034de", "is_disabled": 0, "lon": -77.023179, "is_reserved": 0, "fusion_lat": 0.0, "type": "electric_scooter"}, {"fusion_lon": 0.0, "name": "4f7d204130030998997466e67a727afb", "rental_uris": {"android": "https://dc.lft.to/lastmile_qr_scan", "ios": "https://dc.lft.to/lastmile_qr_scan"}, "lat": 38.9060135, "bike_id": "4f7d204130030998997466e67a727afb", "is_disabled": 0, "lon": -77.002759, "is_reserved": 0, "fusion_lat": 0.0, "type": "electric_scooter"}, {"fusion_lon": 0.0, "name": "44f1a58099bb8c4d36042633a4dd0745", "rental_uris": {"android": "https://dc.lft.to/lastmile_qr_scan", "ios": "https://dc.lft.to/lastmile_qr_scan"}, "lat": 38.927957166666666, "bike_id": "44f1a58099bb8c4d36042633a4dd0745", "is_disabled": 0, "lon": -77.0369655, "is_reserved": 0, "fusion_lat": 0.0, "type": "electric_scooter"}, {"fusion_lon": 0.0, "name": "8f6573c5e5bc6151717eda665c580408", "rental_uris": {"android": "https://dc.lft.to/lastmile_qr_scan", "ios": "https://dc.lft.to/lastmile_qr_scan"}, "lat": 38.923269166666664, "bike_id": "8f6573c5e5bc6151717eda665c580408", "is_disabled": 0, "lon": -77.036829, "is_reserved": 0, "fusion_lat": 0.0, "type": "electric_scooter"}, {"fusion_lon": 0.0, "name": "911a2400ce12dae9d19eaacdfd27a429", "rental_uris": {"android": "https://dc.lft.to/lastmile_qr_scan", "ios": "https://dc.lft.to/lastmile_qr_scan"}, "lat": 38.9190945, "bike_id": "911a2400ce12dae9d19eaacdfd27a429", "is_disabled": 0, "lon": -77.04629766666666, "is_reserved": 0, "fusion_lat": 0.0, "type": "electric_scooter"}, {"fusion_lon": 0.0, "name": "18af05dd3f66d5781dcda5427a5deb29", "rental_uris": {"android": "https://dc.lft.to/lastmile_qr_scan", "ios": "https://dc.lft.to/lastmile_qr_scan"}, "lat": 38.92257583333333, "bike_id": "18af05dd3f66d5781dcda5427a5deb29", "is_disabled": 0, "lon": -77.0304865, "is_reserved": 0, "fusion_lat": 0.0, "type": "electric_scooter"}, {"fusion_lon": 0.0, "name": "ae26949edfc587f123ef3492a8103ebd", "rental_uris": {"android": "https://dc.lft.to/lastmile_qr_scan", "ios": "https://dc.lft.to/lastmile_qr_scan"}, "lat": 38.91338116666667, "bike_id": "ae26949edfc587f123ef3492a8103ebd", "is_disabled": 0, "lon": -77.0162, "is_reserved": 0, "fusion_lat": 0.0, "type": "electric_scooter"}, {"fusion_lon": 0.0, "name": "02a1e3e97e2d7bccfd0de241fa00a41b", "rental_uris": {"android": "https://dc.lft.to/lastmile_qr_scan", "ios": "https://dc.lft.to/lastmile_qr_scan"}, "lat": 38.9111115, "bike_id": "02a1e3e97e2d7bccfd0de241fa00a41b", "is_disabled": 0, "lon": -77.03830916666666, "is_reserved": 0, "fusion_lat": 0.0, "type": "electric_scooter"}, {"fusion_lon": 0.0, "name": "66c5622fe7542ba04ffb1b3e2d36d284", "rental_uris": {"android": "https://dc.lft.to/lastmile_qr_scan", "ios": "https://dc.lft.to/lastmile_qr_scan"}, "lat": 38.95467266666667, "bike_id": "66c5622fe7542ba04ffb1b3e2d36d284", "is_disabled": 0, "lon": -77.070106, "is_reserved": 0, "fusion_lat": 0.0, "type": "electric_scooter"}, {"fusion_lon": 0.0, "name": "4e46d16d792d58ce8ac727503fd01504", "rental_uris": {"android": "https://dc.lft.to/lastmile_qr_scan", "ios": "https://dc.lft.to/lastmile_qr_scan"}, "lat": 38.908616, "bike_id": "4e46d16d792d58ce8ac727503fd01504", "is_disabled": 0, "lon": -77.03547166666667, "is_reserved": 0, "fusion_lat": 0.0, "type": "electric_scooter"}, {"fusion_lon": 0.0, "name": "9e5141e8ec13d81744b8cf7260a92ddd", "rental_uris": {"android": "https://dc.lft.to/lastmile_qr_scan", "ios": "https://dc.lft.to/lastmile_qr_scan"}, "lat": 38.904283166666666, "bike_id": "9e5141e8ec13d81744b8cf7260a92ddd", "is_disabled": 0, "lon": -77.0258765, "is_reserved": 0, "fusion_lat": 0.0, "type": "electric_scooter"}, {"fusion_lon": 0.0, "name": "cf6eb90aa623026dff78756b57b8ef05", "rental_uris": {"android": "https://dc.lft.to/lastmile_qr_scan", "ios": "https://dc.lft.to/lastmile_qr_scan"}, "lat": 38.91293916666667, "bike_id": "cf6eb90aa623026dff78756b57b8ef05", "is_disabled": 0, "lon": -76.9854425, "is_reserved": 0, "fusion_lat": 0.0, "type": "electric_scooter"}, {"fusion_lon": 0.0, "name": "546eb948dd8c55cbf8854d7fed4ba532", "rental_uris": {"android": "https://dc.lft.to/lastmile_qr_scan", "ios": "https://dc.lft.to/lastmile_qr_scan"}, "lat": 38.955749833333336, "bike_id": "546eb948dd8c55cbf8854d7fed4ba532", "is_disabled": 0, "lon": -77.07010333333334, "is_reserved": 0, "fusion_lat": 0.0, "type": "electric_scooter"}, {"fusion_lon": 0.0, "name": "949f15a96c073d18073d9f7afa92fe33", "rental_uris": {"android": "https://dc.lft.to/lastmile_qr_scan", "ios": "https://dc.lft.to/lastmile_qr_scan"}, "lat": 38.892214833333334, "bike_id": "949f15a96c073d18073d9f7afa92fe33", "is_disabled": 0, "lon": -77.03997066666666, "is_reserved": 0, "fusion_lat": 0.0, "type": "electric_scooter"}, {"fusion_lon": 0.0, "name": "60ebfe586ea5f9ea57c038a34ad3f6f1", "rental_uris": {"android": "https://dc.lft.to/lastmile_qr_scan", "ios": "https://dc.lft.to/lastmile_qr_scan"}, "lat": 38.87672333333333, "bike_id": "60ebfe586ea5f9ea57c038a34ad3f6f1", "is_disabled": 0, "lon": -77.00569783333333, "is_reserved": 0, "fusion_lat": 0.0, "type": "electric_scooter"}, {"fusion_lon": 0.0, "name": "10309a5f3b16671c20d9655355cbe2e8", "rental_uris": {"android": "https://dc.lft.to/lastmile_qr_scan", "ios": "https://dc.lft.to/lastmile_qr_scan"}, "lat": 38.924695, "bike_id": "10309a5f3b16671c20d9655355cbe2e8", "is_disabled": 0, "lon": -77.0221645, "is_reserved": 0, "fusion_lat": 0.0, "type": "electric_scooter"}, {"fusion_lon": 0.0, "name": "d2f8779317dd22910c33e4854e88bd31", "rental_uris": {"android": "https://dc.lft.to/lastmile_qr_scan", "ios": "https://dc.lft.to/lastmile_qr_scan"}, "lat": 38.92060633333333, "bike_id": "d2f8779317dd22910c33e4854e88bd31", "is_disabled": 0, "lon": -77.02442666666667, "is_reserved": 0, "fusion_lat": 0.0, "type": "electric_scooter"}, {"fusion_lon": 0.0, "name": "6ae454740b8bb55cb559bf3367c4ae9e", "rental_uris": {"android": "https://dc.lft.to/lastmile_qr_scan", "ios": "https://dc.lft.to/lastmile_qr_scan"}, "lat": 38.88512466666667, "bike_id": "6ae454740b8bb55cb559bf3367c4ae9e", "is_disabled": 0, "lon": -77.0111785, "is_reserved": 0, "fusion_lat": 0.0, "type": "electric_scooter"}, {"fusion_lon": 0.0, "name": "7e0af50a58f005aba704c857f3412f1d", "rental_uris": {"android": "https://dc.lft.to/lastmile_qr_scan", "ios": "https://dc.lft.to/lastmile_qr_scan"}, "lat": 38.90012133333333, "bike_id": "7e0af50a58f005aba704c857f3412f1d", "is_disabled": 0, "lon": -77.04643116666666, "is_reserved": 0, "fusion_lat": 0.0, "type": "electric_scooter"}, {"fusion_lon": 0.0, "name": "44adb828014879b7db3d7ebf054b2a63", "rental_uris": {"android": "https://dc.lft.to/lastmile_qr_scan", "ios": "https://dc.lft.to/lastmile_qr_scan"}, "lat": 38.9236075, "bike_id": "44adb828014879b7db3d7ebf054b2a63", "is_disabled": 0, "lon": -77.05056433333333, "is_reserved": 0, "fusion_lat": 0.0, "type": "electric_scooter"}, {"fusion_lon": 0.0, "name": "676671a85851d95ac07aca8b0d2bf8ef", "rental_uris": {"android": "https://dc.lft.to/lastmile_qr_scan", "ios": "https://dc.lft.to/lastmile_qr_scan"}, "lat": 38.8747655, "bike_id": "676671a85851d95ac07aca8b0d2bf8ef", "is_disabled": 0, "lon": -77.00886816666667, "is_reserved": 0, "fusion_lat": 0.0, "type": "electric_bike"}, {"fusion_lon": 0.0, "name": "b931b2ceca43c25decec736bb24ccbe7", "rental_uris": {"android": "https://dc.lft.to/lastmile_qr_scan", "ios": "https://dc.lft.to/lastmile_qr_scan"}, "lat": 38.887633, "bike_id": "b931b2ceca43c25decec736bb24ccbe7", "is_disabled": 0, "lon": -76.99765683333334, "is_reserved": 0, "fusion_lat": 0.0, "type": "electric_scooter"}, {"fusion_lon": 0.0, "name": "a3b78afa13c8420f1500565a5ecf80bf", "rental_uris": {"android": "https://dc.lft.to/lastmile_qr_scan", "ios": "https://dc.lft.to/lastmile_qr_scan"}, "lat": 38.91216933333333, "bike_id": "a3b78afa13c8420f1500565a5ecf80bf", "is_disabled": 0, "lon": -77.03189683333333, "is_reserved": 0, "fusion_lat": 0.0, "type": "electric_scooter"}, {"fusion_lon": 0.0, "name": "b2309d83077d85a68273ab03f7e681d8", "rental_uris": {"android": "https://dc.lft.to/lastmile_qr_scan", "ios": "https://dc.lft.to/lastmile_qr_scan"}, "lat": 38.89233633333333, "bike_id": "b2309d83077d85a68273ab03f7e681d8", "is_disabled": 0, "lon": -77.0500125, "is_reserved": 0, "fusion_lat": 0.0, "type": "electric_scooter"}, {"fusion_lon": 0.0, "name": "63891b540a955c8db1d8c3a58a0ab3a6", "rental_uris": {"android": "https://dc.lft.to/lastmile_qr_scan", "ios": "https://dc.lft.to/lastmile_qr_scan"}, "lat": 38.912687, "bike_id": "63891b540a955c8db1d8c3a58a0ab3a6", "is_disabled": 0, "lon": -77.03276966666667, "is_reserved": 0, "fusion_lat": 0.0, "type": "electric_scooter"}, {"fusion_lon": 0.0, "name": "c8079d5de9f3804ac29d3d7ae0cf2e56", "rental_uris": {"android": "https://dc.lft.to/lastmile_qr_scan", "ios": "https://dc.lft.to/lastmile_qr_scan"}, "lat": 38.922177, "bike_id": "c8079d5de9f3804ac29d3d7ae0cf2e56", "is_disabled": 0, "lon": -77.02418666666667, "is_reserved": 0, "fusion_lat": 0.0, "type": "electric_scooter"}, {"fusion_lon": 0.0, "name": "8eb8a3e72d90d5d2848143b844d01b3a", "rental_uris": {"android": "https://dc.lft.to/lastmile_qr_scan", "ios": "https://dc.lft.to/lastmile_qr_scan"}, "lat": 38.895946, "bike_id": "8eb8a3e72d90d5d2848143b844d01b3a", "is_disabled": 0, "lon": -77.04805783333333, "is_reserved": 0, "fusion_lat": 0.0, "type": "electric_scooter"}, {"fusion_lon": 0.0, "name": "86a837c36ac68480cf645d58d0e5c12c", "rental_uris": {"android": "https://dc.lft.to/lastmile_qr_scan", "ios": "https://dc.lft.to/lastmile_qr_scan"}, "lat": 38.906432, "bike_id": "86a837c36ac68480cf645d58d0e5c12c", "is_disabled": 0, "lon": -77.03457416666667, "is_reserved": 0, "fusion_lat": 0.0, "type": "electric_scooter"}, {"fusion_lon": 0.0, "name": "2f32658b028c154ee632869a325a67cd", "rental_uris": {"android": "https://dc.lft.to/lastmile_qr_scan", "ios": "https://dc.lft.to/lastmile_qr_scan"}, "lat": 38.920382833333335, "bike_id": "2f32658b028c154ee632869a325a67cd", "is_disabled": 0, "lon": -77.04818583333333, "is_reserved": 0, "fusion_lat": 0.0, "type": "electric_scooter"}, {"fusion_lon": 0.0, "name": "1575a75e4bcf3c83beb181323544c90a", "rental_uris": {"android": "https://dc.lft.to/lastmile_qr_scan", "ios": "https://dc.lft.to/lastmile_qr_scan"}, "lat": 38.9306165, "bike_id": "1575a75e4bcf3c83beb181323544c90a", "is_disabled": 0, "lon": -77.02324516666667, "is_reserved": 0, "fusion_lat": 0.0, "type": "electric_scooter"}, {"fusion_lon": 0.0, "name": "a0726699ba00be2229f25c663129745b", "rental_uris": {"android": "https://dc.lft.to/lastmile_qr_scan", "ios": "https://dc.lft.to/lastmile_qr_scan"}, "lat": 38.92849316666667, "bike_id": "a0726699ba00be2229f25c663129745b", "is_disabled": 0, "lon": -77.054351, "is_reserved": 0, "fusion_lat": 0.0, "type": "electric_scooter"}, {"fusion_lon": 0.0, "name": "c6e2070a8a63ecc46fb5af8ecc94280c", "rental_uris": {"android": "https://dc.lft.to/lastmile_qr_scan", "ios": "https://dc.lft.to/lastmile_qr_scan"}, "lat": 38.93061133333333, "bike_id": "c6e2070a8a63ecc46fb5af8ecc94280c", "is_disabled": 0, "lon": -77.03939666666666, "is_reserved": 0, "fusion_lat": 0.0, "type": "electric_scooter"}, {"fusion_lon": 0.0, "name": "4cc4561d88d96233d4b8975b69b36935", "rental_uris": {"android": "https://dc.lft.to/lastmile_qr_scan", "ios": "https://dc.lft.to/lastmile_qr_scan"}, "lat": 38.926407166666664, "bike_id": "4cc4561d88d96233d4b8975b69b36935", "is_disabled": 0, "lon": -77.03714116666667, "is_reserved": 0, "fusion_lat": 0.0, "type": "electric_scooter"}, {"fusion_lon": 0.0, "name": "1d18aa2761813caec5a5ba011b500683", "rental_uris": {"android": "https://dc.lft.to/lastmile_qr_scan", "ios": "https://dc.lft.to/lastmile_qr_scan"}, "lat": 38.957369666666665, "bike_id": "1d18aa2761813caec5a5ba011b500683", "is_disabled": 0, "lon": -77.02423233333333, "is_reserved": 0, "fusion_lat": 0.0, "type": "electric_scooter"}, {"fusion_lon": 0.0, "name": "ee9dd79db8fd0510d789b60c060297d5", "rental_uris": {"android": "https://dc.lft.to/lastmile_qr_scan", "ios": "https://dc.lft.to/lastmile_qr_scan"}, "lat": 38.91118, "bike_id": "ee9dd79db8fd0510d789b60c060297d5", "is_disabled": 0, "lon": -77.03830466666666, "is_reserved": 0, "fusion_lat": 0.0, "type": "electric_scooter"}, {"fusion_lon": 0.0, "name": "2c73ad6dafb2ec1ab48b816d9a1bf881", "rental_uris": {"android": "https://dc.lft.to/lastmile_qr_scan", "ios": "https://dc.lft.to/lastmile_qr_scan"}, "lat": 38.926188833333335, "bike_id": "2c73ad6dafb2ec1ab48b816d9a1bf881", "is_disabled": 0, "lon": -77.0367495, "is_reserved": 0, "fusion_lat": 0.0, "type": "electric_scooter"}, {"fusion_lon": 0.0, "name": "c311c54cf91a4b075d575d9175fef1a2", "rental_uris": {"android": "https://dc.lft.to/lastmile_qr_scan", "ios": "https://dc.lft.to/lastmile_qr_scan"}, "lat": 38.924701666666664, "bike_id": "c311c54cf91a4b075d575d9175fef1a2", "is_disabled": 0, "lon": -77.052406, "is_reserved": 0, "fusion_lat": 0.0, "type": "electric_scooter"}, {"fusion_lon": 0.0, "name": "6fe61f433883686bb126d4450d1a5ec1", "rental_uris": {"android": "https://dc.lft.to/lastmile_qr_scan", "ios": "https://dc.lft.to/lastmile_qr_scan"}, "lat": 38.9036315, "bike_id": "6fe61f433883686bb126d4450d1a5ec1", "is_disabled": 0, "lon": -77.026162, "is_reserved": 0, "fusion_lat": 0.0, "type": "electric_scooter"}, {"fusion_lon": 0.0, "name": "72db892a54d17a6a735feee4e286ba26", "rental_uris": {"android": "https://dc.lft.to/lastmile_qr_scan", "ios": "https://dc.lft.to/lastmile_qr_scan"}, "lat": 38.894825833333336, "bike_id": "72db892a54d17a6a735feee4e286ba26", "is_disabled": 0, "lon": -77.02130983333333, "is_reserved": 0, "fusion_lat": 0.0, "type": "electric_scooter"}, {"fusion_lon": 0.0, "name": "c6078215d63a2e861b98f06d6b404937", "rental_uris": {"android": "https://dc.lft.to/lastmile_qr_scan", "ios": "https://dc.lft.to/lastmile_qr_scan"}, "lat": 38.93291116666666, "bike_id": "c6078215d63a2e861b98f06d6b404937", "is_disabled": 0, "lon": -77.08526316666666, "is_reserved": 0, "fusion_lat": 0.0, "type": "electric_scooter"}, {"fusion_lon": 0.0, "name": "f622e9b63a85211f4036282e9f3e289d", "rental_uris": {"android": "https://dc.lft.to/lastmile_qr_scan", "ios": "https://dc.lft.to/lastmile_qr_scan"}, "lat": 38.893487666666665, "bike_id": "f622e9b63a85211f4036282e9f3e289d", "is_disabled": 0, "lon": -76.95248783333334, "is_reserved": 0, "fusion_lat": 0.0, "type": "electric_scooter"}, {"fusion_lon": 0.0, "name": "f81bda4beb522b560070a860526848bf", "rental_uris": {"android": "https://dc.lft.to/lastmile_qr_scan", "ios": "https://dc.lft.to/lastmile_qr_scan"}, "lat": 38.91915733333333, "bike_id": "f81bda4beb522b560070a860526848bf", "is_disabled": 0, "lon": -77.03330466666667, "is_reserved": 0, "fusion_lat": 0.0, "type": "electric_scooter"}, {"fusion_lon": 0.0, "name": "d82417af1ab91186e89845c4da5436e1", "rental_uris": {"android": "https://dc.lft.to/lastmile_qr_scan", "ios": "https://dc.lft.to/lastmile_qr_scan"}, "lat": 38.92339916666667, "bike_id": "d82417af1ab91186e89845c4da5436e1", "is_disabled": 0, "lon": -77.0548925, "is_reserved": 0, "fusion_lat": 0.0, "type": "electric_scooter"}, {"fusion_lon": 0.0, "name": "dd4c25a4b3bd0b2a0f357ce8ca6179b6", "rental_uris": {"android": "https://dc.lft.to/lastmile_qr_scan", "ios": "https://dc.lft.to/lastmile_qr_scan"}, "lat": 38.90346566666667, "bike_id": "dd4c25a4b3bd0b2a0f357ce8ca6179b6", "is_disabled": 0, "lon": -76.9827315, "is_reserved": 0, "fusion_lat": 0.0, "type": "electric_scooter"}, {"fusion_lon": 0.0, "name": "8d78b88f3cd06ace01d633286eb6f10f", "rental_uris": {"android": "https://dc.lft.to/lastmile_qr_scan", "ios": "https://dc.lft.to/lastmile_qr_scan"}, "lat": 38.900571666666664, "bike_id": "8d78b88f3cd06ace01d633286eb6f10f", "is_disabled": 0, "lon": -77.0335735, "is_reserved": 0, "fusion_lat": 0.0, "type": "electric_scooter"}, {"fusion_lon": 0.0, "name": "23e5658535457575767df77ebf3389f4", "rental_uris": {"android": "https://dc.lft.to/lastmile_qr_scan", "ios": "https://dc.lft.to/lastmile_qr_scan"}, "lat": 38.935442, "bike_id": "23e5658535457575767df77ebf3389f4", "is_disabled": 0, "lon": -77.03432533333333, "is_reserved": 0, "fusion_lat": 0.0, "type": "electric_scooter"}, {"fusion_lon": 0.0, "name": "8f1abbe9dde90e53a6eba9133016f85e", "rental_uris": {"android": "https://dc.lft.to/lastmile_qr_scan", "ios": "https://dc.lft.to/lastmile_qr_scan"}, "lat": 38.925132, "bike_id": "8f1abbe9dde90e53a6eba9133016f85e", "is_disabled": 0, "lon": -77.00871383333333, "is_reserved": 0, "fusion_lat": 0.0, "type": "electric_scooter"}, {"fusion_lon": 0.0, "name": "77dc8a80d7752d4853109b1ee29700f7", "rental_uris": {"android": "https://dc.lft.to/lastmile_qr_scan", "ios": "https://dc.lft.to/lastmile_qr_scan"}, "lat": 38.92247116666667, "bike_id": "77dc8a80d7752d4853109b1ee29700f7", "is_disabled": 0, "lon": -77.030745, "is_reserved": 0, "fusion_lat": 0.0, "type": "electric_scooter"}, {"fusion_lon": 0.0, "name": "057c6ffdeb511d6c1674dba9cef6f55b", "rental_uris": {"android": "https://dc.lft.to/lastmile_qr_scan", "ios": "https://dc.lft.to/lastmile_qr_scan"}, "lat": 38.92972016666667, "bike_id": "057c6ffdeb511d6c1674dba9cef6f55b", "is_disabled": 0, "lon": -77.01971566666667, "is_reserved": 0, "fusion_lat": 0.0, "type": "electric_scooter"}, {"fusion_lon": 0.0, "name": "cf5c39dd94e6e98b5ed46d959fdb8b25", "rental_uris": {"android": "https://dc.lft.to/lastmile_qr_scan", "ios": "https://dc.lft.to/lastmile_qr_scan"}, "lat": 38.903866, "bike_id": "cf5c39dd94e6e98b5ed46d959fdb8b25", "is_disabled": 0, "lon": -77.068525, "is_reserved": 0, "fusion_lat": 0.0, "type": "electric_scooter"}, {"fusion_lon": 0.0, "name": "2aeabbcddd15e317c75715761c0499bd", "rental_uris": {"android": "https://dc.lft.to/lastmile_qr_scan", "ios": "https://dc.lft.to/lastmile_qr_scan"}, "lat": 38.917915, "bike_id": "2aeabbcddd15e317c75715761c0499bd", "is_disabled": 0, "lon": -77.04026, "is_reserved": 0, "fusion_lat": 0.0, "type": "electric_scooter"}, {"fusion_lon": 0.0, "name": "5846b6a9d5be2f8eb07d6815a71b2314", "rental_uris": {"android": "https://dc.lft.to/lastmile_qr_scan", "ios": "https://dc.lft.to/lastmile_qr_scan"}, "lat": 38.919787666666664, "bike_id": "5846b6a9d5be2f8eb07d6815a71b2314", "is_disabled": 0, "lon": -77.071178, "is_reserved": 0, "fusion_lat": 0.0, "type": "electric_scooter"}, {"fusion_lon": 0.0, "name": "9586aaeb5d31ef4dda47140c7d102457", "rental_uris": {"android": "https://dc.lft.to/lastmile_qr_scan", "ios": "https://dc.lft.to/lastmile_qr_scan"}, "lat": 38.920754333333335, "bike_id": "9586aaeb5d31ef4dda47140c7d102457", "is_disabled": 0, "lon": -77.023859, "is_reserved": 0, "fusion_lat": 0.0, "type": "electric_scooter"}, {"fusion_lon": 0.0, "name": "03b781de3585ed578da03cca8b92c048", "rental_uris": {"android": "https://dc.lft.to/lastmile_qr_scan", "ios": "https://dc.lft.to/lastmile_qr_scan"}, "lat": 38.895660166666666, "bike_id": "03b781de3585ed578da03cca8b92c048", "is_disabled": 0, "lon": -77.011058, "is_reserved": 0, "fusion_lat": 0.0, "type": "electric_scooter"}, {"fusion_lon": 0.0, "name": "bae0dcda75aa69f9c29b6dfbcae43d62", "rental_uris": {"android": "https://dc.lft.to/lastmile_qr_scan", "ios": "https://dc.lft.to/lastmile_qr_scan"}, "lat": 38.964736333333335, "bike_id": "bae0dcda75aa69f9c29b6dfbcae43d62", "is_disabled": 0, "lon": -77.031657, "is_reserved": 0, "fusion_lat": 0.0, "type": "electric_bike"}, {"fusion_lon": 0.0, "name": "cda936b38e4333947cd35e82eb73c453", "rental_uris": {"android": "https://dc.lft.to/lastmile_qr_scan", "ios": "https://dc.lft.to/lastmile_qr_scan"}, "lat": 38.912656, "bike_id": "cda936b38e4333947cd35e82eb73c453", "is_disabled": 0, "lon": -77.0116255, "is_reserved": 0, "fusion_lat": 0.0, "type": "electric_scooter"}, {"fusion_lon": 0.0, "name": "83fc5793bc6d0c40b2bb90d2524931c4", "rental_uris": {"android": "https://dc.lft.to/lastmile_qr_scan", "ios": "https://dc.lft.to/lastmile_qr_scan"}, "lat": 38.91128666666667, "bike_id": "83fc5793bc6d0c40b2bb90d2524931c4", "is_disabled": 0, "lon": -77.0219785, "is_reserved": 0, "fusion_lat": 0.0, "type": "electric_scooter"}, {"fusion_lon": 0.0, "name": "5d2d915aec9945230e42c38f876728ab", "rental_uris": {"android": "https://dc.lft.to/lastmile_qr_scan", "ios": "https://dc.lft.to/lastmile_qr_scan"}, "lat": 38.933567333333336, "bike_id": "5d2d915aec9945230e42c38f876728ab", "is_disabled": 0, "lon": -77.07381283333333, "is_reserved": 0, "fusion_lat": 0.0, "type": "electric_scooter"}, {"fusion_lon": 0.0, "name": "dd07482b2d7f246bf592f2f3779410d0", "rental_uris": {"android": "https://dc.lft.to/lastmile_qr_scan", "ios": "https://dc.lft.to/lastmile_qr_scan"}, "lat": 38.95188916666667, "bike_id": "dd07482b2d7f246bf592f2f3779410d0", "is_disabled": 0, "lon": -76.99179216666667, "is_reserved": 0, "fusion_lat": 0.0, "type": "electric_scooter"}, {"fusion_lon": 0.0, "name": "d6b94bc6aa236bf68a9cb832b5ff738d", "rental_uris": {"android": "https://dc.lft.to/lastmile_qr_scan", "ios": "https://dc.lft.to/lastmile_qr_scan"}, "lat": 38.92058633333333, "bike_id": "d6b94bc6aa236bf68a9cb832b5ff738d", "is_disabled": 0, "lon": -77.02294033333334, "is_reserved": 0, "fusion_lat": 0.0, "type": "electric_scooter"},