{"data": {"bikes": [{"name": "b8a5d31123543aa498d0b23523d0a6ad", "is_reserved": 0, "is_disabled": 0, "lon": -76.9718335, "rental_uris": {"android": "https://dc.lft.to/lastmile_qr_scan", "ios": "https://dc.lft.to/lastmile_qr_scan"}, "fusion_lon": 0.0, "lat": 38.9126605, "type": "electric_scooter", "fusion_lat": 0.0, "bike_id": "b8a5d31123543aa498d0b23523d0a6ad"}, {"name": "3729255a3a4d15df1f5977201cb0ac01", "is_reserved": 0, "is_disabled": 0, "lon": -77.0338615, "rental_uris": {"android": "https://dc.lft.to/lastmile_qr_scan", "ios": "https://dc.lft.to/lastmile_qr_scan"}, "fusion_lon": 0.0, "lat": 38.9010115, "type": "electric_scooter", "fusion_lat": 0.0, "bike_id": "3729255a3a4d15df1f5977201cb0ac01"}, {"name": "16269f868b39eec8d6ef617db6d554e8", "is_reserved": 0, "is_disabled": 0, "lon": -77.04081533333333, "rental_uris": {"android": "https://dc.lft.to/lastmile_qr_scan", "ios": "https://dc.lft.to/lastmile_qr_scan"}, "fusion_lon": 0.0, "lat": 38.91697283333333, "type": "electric_scooter", "fusion_lat": 0.0, "bike_id": "16269f868b39eec8d6ef617db6d554e8"}, {"name": "87553810f88f4ddc2ef0864fa73b5b4e", "is_reserved": 0, "is_disabled": 0, "lon": -77.02893916666666, "rental_uris": {"android": "https://dc.lft.to/lastmile_qr_scan", "ios": "https://dc.lft.to/lastmile_qr_scan"}, "fusion_lon": 0.0, "lat": 38.90136583333334, "type": "electric_scooter", "fusion_lat": 0.0, "bike_id": "87553810f88f4ddc2ef0864fa73b5b4e"}, {"name": "ad3f4accca26adbb7cb9bd17b0ca4e66", "is_reserved": 0, "is_disabled": 0, "lon": -77.00713566666667, "rental_uris": {"android": "https://dc.lft.to/lastmile_qr_scan", "ios": "https://dc.lft.to/lastmile_qr_scan"}, "fusion_lon": 0.0, "lat": 38.884903666666666, "type": "electric_scooter", "fusion_lat": 0.0, "bike_id": "ad3f4accca26adbb7cb9bd17b0ca4e66"}, {"name": "64598724cf0a80367295f9798b61a574", "is_reserved": 0, "is_disabled": 0, "lon": -77.0482395, "rental_uris": {"android": "https://dc.lft.to/lastmile_qr_scan", "ios": "https://dc.lft.to/lastmile_qr_scan"}, "fusion_lon": 0.0, "lat": 38.918305, "type": "electric_scooter", "fusion_lat": 0.0, "bike_id": "64598724cf0a80367295f9798b61a574"}, {"name": "96b6a1d4b8d32ebdd4109edf8791efb9", "is_reserved": 0, "is_disabled": 0, "lon": -77.018482, "rental_uris": {"android": "https://dc.lft.to/lastmile_qr_scan", "ios": "https://dc.lft.to/lastmile_qr_scan"}, "fusion_lon": 0.0, "lat": 38.90401766666667, "type": "electric_scooter", "fusion_lat": 0.0, "bike_id": "96b6a1d4b8d32ebdd4109edf8791efb9"}, {"name": "b63fd2ce8633548792ce4f3ad4c99e56", "is_reserved": 0, "is_disabled": 0, "lon": -77.04394833333333, "rental_uris": {"android": "https://dc.lft.to/lastmile_qr_scan", "ios": "https://dc.lft.to/lastmile_qr_scan"}, "fusion_lon": 0.0, "lat": 38.90917833333334, "type": "electric_scooter", "fusion_lat": 0.0, "bike_id": "b63fd2ce8633548792ce4f3ad4c99e56"}, {"name": "a674896f348b81ac4938cd606433b6e7", "is_reserved": 0, "is_disabled": 0, "lon": -77.03261283333333, "rental_uris": {"android": "https://dc.lft.to/lastmile_qr_scan", "ios": "https://dc.lft.to/lastmile_qr_scan"}, "fusion_lon": 0.0, "lat": 38.902311166666664, "type": "electric_bike", "fusion_lat": 0.0, "bike_id": "a674896f348b81ac4938cd606433b6e7"}, {"name": "48ed3a9132b585880daa0bac927b4e30", "is_reserved": 0, "is_disabled": 0, "lon": -76.94890283333334, "rental_uris": {"android": "https://dc.lft.to/lastmile_qr_scan", "ios": "https://dc.lft.to/lastmile_qr_scan"}, "fusion_lon": 0.0, "lat": 38.8951315, "type": "electric_scooter", "fusion_lat": 0.0, "bike_id": "48ed3a9132b585880daa0bac927b4e30"}, {"name": "15e1935c6b44eab8ba6696acdd166a20", "is_reserved": 0, "is_disabled": 0, "lon": -76.992247, "rental_uris": {"android": "https://dc.lft.to/lastmile_qr_scan", "ios": "https://dc.lft.to/lastmile_qr_scan"}, "fusion_lon": 0.0, "lat": 38.89895833333333, "type": "electric_scooter", "fusion_lat": 0.0, "bike_id": "15e1935c6b44eab8ba6696acdd166a20"}, {"name": "a3fb614d3bed1e67602caeae61a09325", "is_reserved": 0, "is_disabled": 0, "lon": -77.040808, "rental_uris": {"android": "https://dc.lft.to/lastmile_qr_scan", "ios": "https://dc.lft.to/lastmile_qr_scan"}, "fusion_lon": 0.0, "lat": 38.91112966666667, "type": "electric_scooter", "fusion_lat": 0.0, "bike_id": "a3fb614d3bed1e67602caeae61a09325"}, {"name": "60f328b8758c645ca5b1ddc6bc51ce6f", "is_reserved": 0, "is_disabled": 0, "lon": -77.046744, "rental_uris": {"android": "https://dc.lft.to/lastmile_qr_scan", "ios": "https://dc.lft.to/lastmile_qr_scan"}, "fusion_lon": 0.0, "lat": 38.904254333333334, "type": "electric_scooter", "fusion_lat": 0.0, "bike_id": "60f328b8758c645ca5b1ddc6bc51ce6f"}, {"name": "91a5fde6de9ef7896f73645e983896d9", "is_reserved": 0, "is_disabled": 0, "lon": -77.07314616666666, "rental_uris": {"android": "https://dc.lft.to/lastmile_qr_scan", "ios": "https://dc.lft.to/lastmile_qr_scan"}, "fusion_lon": 0.0, "lat": 38.91204616666667, "type": "electric_scooter", "fusion_lat": 0.0, "bike_id": "91a5fde6de9ef7896f73645e983896d9"}, {"name": "45729266322fd154aebda279c2fcfbac", "is_reserved": 0, "is_disabled": 0, "lon": -77.02708616666666, "rental_uris": {"android": "https://dc.lft.to/lastmile_qr_scan", "ios": "https://dc.lft.to/lastmile_qr_scan"}, "fusion_lon": 0.0, "lat": 38.88165566666667, "type": "electric_scooter", "fusion_lat": 0.0, "bike_id": "45729266322fd154aebda279c2fcfbac"}, {"name": "6bb679ad91294e2657b781ca7ddddec9", "is_reserved": 0, "is_disabled": 0, "lon": -77.19907683333334, "rental_uris": {"android": "https://dc.lft.to/lastmile_qr_scan", "ios": "https://dc.lft.to/lastmile_qr_scan"}, "fusion_lon": 0.0, "lat": 38.875317333333335, "type": "electric_bike", "fusion_lat": 0.0, "bike_id": "6bb679ad91294e2657b781ca7ddddec9"}, {"name": "612a7720f7e1a3e33eac2c74e23f943e", "is_reserved": 0, "is_disabled": 0, "lon": -77.14986383333333, "rental_uris": {"android": "https://dc.lft.to/lastmile_qr_scan", "ios": "https://dc.lft.to/lastmile_qr_scan"}, "fusion_lon": 0.0, "lat": 39.09464716666667, "type": "electric_bike", "fusion_lat": 0.0, "bike_id": "612a7720f7e1a3e33eac2c74e23f943e"}, {"name": "47c4e30b878de4ec7b43ec54b3988a48", "is_reserved": 0, "is_disabled": 0, "lon": -77.09029516666666, "rental_uris": {"android": "https://dc.lft.to/lastmile_qr_scan", "ios": "https://dc.lft.to/lastmile_qr_scan"}, "fusion_lon": 0.0, "lat": 38.841163, "type": "electric_bike", "fusion_lat": 0.0, "bike_id": "47c4e30b878de4ec7b43ec54b3988a48"}, {"name": "4087d26b5af2d8871937cedd55438d40", "is_reserved": 0, "is_disabled": 0, "lon": -77.3530535, "rental_uris": {"android": "https://dc.lft.to/lastmile_qr_scan", "ios": "https://dc.lft.to/lastmile_qr_scan"}, "fusion_lon": 0.0, "lat": 38.95002, "type": "electric_bike", "fusion_lat": 0.0, "bike_id": "4087d26b5af2d8871937cedd55438d40"}, {"name": "66a5a5a9c9cb00731b8a1f33c21dc135", "is_reserved": 0, "is_disabled": 0, "lon": -77.033536, "rental_uris": {"android": "https://dc.lft.to/lastmile_qr_scan", "ios": "https://dc.lft.to/lastmile_qr_scan"}, "fusion_lon": 0.0, "lat": 38.956939, "type": "electric_bike", "fusion_lat": 0.0, "bike_id": "66a5a5a9c9cb00731b8a1f33c21dc135"}, {"name": "30c9f40a2d7d869c4e93f75a783ced16", "is_reserved": 0, "is_disabled": 0, "lon": -76.99706916666666, "rental_uris": {"android": "https://dc.lft.to/lastmile_qr_scan", "ios": "https://dc.lft.to/lastmile_qr_scan"}, "fusion_lon": 0.0, "lat": 38.911253, "type": "electric_scooter", "fusion_lat": 0.0, "bike_id": "30c9f40a2d7d869c4e93f75a783ced16"}, {"name": "e863d60c038636296e6ebd3592d8f99f", "is_reserved": 0, "is_disabled": 0, "lon": -76.94655, "rental_uris": {"android": "https://dc.lft.to/lastmile_qr_scan", "ios": "https://dc.lft.to/lastmile_qr_scan"}, "fusion_lon": 0.0, "lat": 38.89827433333333, "type": "electric_scooter", "fusion_lat": 0.0, "bike_id": "e863d60c038636296e6ebd3592d8f99f"}, {"name": "3e64cfc78dcf11b1d384d2be74af6817", "is_reserved": 0, "is_disabled": 0, "lon": -77.06347283333334, "rental_uris": {"android": "https://dc.lft.to/lastmile_qr_scan", "ios": "https://dc.lft.to/lastmile_qr_scan"}, "fusion_lon": 0.0, "lat": 38.913403, "type": "electric_scooter", "fusion_lat": 0.0, "bike_id": "3e64cfc78dcf11b1d384d2be74af6817"}, {"name": "3f13e5294249afe61e35ace66b55cd59", "is_reserved": 0, "is_disabled": 0, "lon": -77.04341416666666, "rental_uris": {"android": "https://dc.lft.to/lastmile_qr_scan", "ios": "https://dc.lft.to/lastmile_qr_scan"}, "fusion_lon": 0.0, "lat": 38.90877483333333, "type": "electric_scooter", "fusion_lat": 0.0, "bike_id": "3f13e5294249afe61e35ace66b55cd59"}, {"name": "54b2d0550e65bbd22a5be94d67ecbd7f", "is_reserved": 0, "is_disabled": 0, "lon": -77.0399185, "rental_uris": {"android": "https://dc.lft.to/lastmile_qr_scan", "ios": "https://dc.lft.to/lastmile_qr_scan"}, "fusion_lon": 0.0, "lat": 38.90117883333333, "type": "electric_scooter", "fusion_lat": 0.0, "bike_id": "54b2d0550e65bbd22a5be94d67ecbd7f"}, {"name": "4add79fc1c3c2cf10db9eed800c77fcc", "is_reserved": 0, "is_disabled": 0, "lon": -77.03190866666667, "rental_uris": {"android": "https://dc.lft.to/lastmile_qr_scan", "ios": "https://dc.lft.to/lastmile_qr_scan"}, "fusion_lon": 0.0, "lat": 38.91924983333333, "type": "electric_scooter", "fusion_lat": 0.0, "bike_id": "4add79fc1c3c2cf10db9eed800c77fcc"}, {"name": "12080f2fe4c0d2797a444ba76c1e7a3d", "is_reserved": 0, "is_disabled": 0, "lon": -77.021755, "rental_uris": {"android": "https://dc.lft.to/lastmile_qr_scan", "ios": "https://dc.lft.to/lastmile_qr_scan"}, "fusion_lon": 0.0, "lat": 38.89233683333333, "type": "electric_scooter", "fusion_lat": 0.0, "bike_id": "12080f2fe4c0d2797a444ba76c1e7a3d"}, {"name": "30c18b067cdbb40e41895ddd1bbf32bd", "is_reserved": 0, "is_disabled": 0, "lon": -77.02492116666667, "rental_uris": {"android": "https://dc.lft.to/lastmile_qr_scan", "ios": "https://dc.lft.to/lastmile_qr_scan"}, "fusion_lon": 0.0, "lat": 38.941865666666665, "type": "electric_scooter", "fusion_lat": 0.0, "bike_id": "30c18b067cdbb40e41895ddd1bbf32bd"}, {"name": "a5b3b1bc5dde36a7c7597b287f6e5bc8", "is_reserved": 0, "is_disabled": 0, "lon": -77.0454615, "rental_uris": {"android": "https://dc.lft.to/lastmile_qr_scan", "ios": "https://dc.lft.to/lastmile_qr_scan"}, "fusion_lon": 0.0, "lat": 38.907539, "type": "electric_scooter", "fusion_lat": 0.0, "bike_id": "a5b3b1bc5dde36a7c7597b287f6e5bc8"}, {"name": "b9115a02d0a4c323a9b6c45f04be01ca", "is_reserved": 0, "is_disabled": 0, "lon": -76.92777633333333, "rental_uris": {"android": "https://dc.lft.to/lastmile_qr_scan", "ios": "https://dc.lft.to/lastmile_qr_scan"}, "fusion_lon": 0.0, "lat": 38.902756333333336, "type": "electric_scooter", "fusion_lat": 0.0, "bike_id": "b9115a02d0a4c323a9b6c45f04be01ca"}, {"name": "138d0085a67ec09ae62677dee09103df", "is_reserved": 0, "is_disabled": 0, "lon": -77.00284733333334, "rental_uris": {"android": "https://dc.lft.to/lastmile_qr_scan", "ios": "https://dc.lft.to/lastmile_qr_scan"}, "fusion_lon": 0.0, "lat": 38.9089785, "type": "electric_scooter", "fusion_lat": 0.0, "bike_id": "138d0085a67ec09ae62677dee09103df"}, {"name": "cbc192e61794debf08cda41ed2316287", "is_reserved": 0, "is_disabled": 0, "lon": -77.0263725, "rental_uris": {"android": "https://dc.lft.to/lastmile_qr_scan", "ios": "https://dc.lft.to/lastmile_qr_scan"}, "fusion_lon": 0.0, "lat": 38.8811785, "type": "electric_scooter", "fusion_lat": 0.0, "bike_id": "cbc192e61794debf08cda41ed2316287"}, {"name": "9f4865dd6f38f5ae5a316e0093c95cba", "is_reserved": 0, "is_disabled": 0, "lon": -77.0463, "rental_uris": {"android": "https://dc.lft.to/lastmile_qr_scan", "ios": "https://dc.lft.to/lastmile_qr_scan"}, "fusion_lon": 0.0, "lat": 38.8975645, "type": "electric_scooter", "fusion_lat": 0.0, "bike_id": "9f4865dd6f38f5ae5a316e0093c95cba"}, {"name": "bee6427d5ecacf165c719c6ec62592dc", "is_reserved": 0, "is_disabled": 0, "lon": -77.06495583333333, "rental_uris": {"android": "https://dc.lft.to/lastmile_qr_scan", "ios": "https://dc.lft.to/lastmile_qr_scan"}, "fusion_lon": 0.0, "lat": 38.905204166666664, "type": "electric_scooter", "fusion_lat": 0.0, "bike_id": "bee6427d5ecacf165c719c6ec62592dc"}, {"name": "adce1bc5d06e63c11876b345598cc003", "is_reserved": 0, "is_disabled": 0, "lon": -76.96926366666666, "rental_uris": {"android": "https://dc.lft.to/lastmile_qr_scan", "ios": "https://dc.lft.to/lastmile_qr_scan"}, "fusion_lon": 0.0, "lat": 38.9302975, "type": "electric_scooter", "fusion_lat": 0.0, "bike_id": "adce1bc5d06e63c11876b345598cc003"}, {"name": "d06ef8e2016a29d2f40897bc8852ca3a", "is_reserved": 0, "is_disabled": 0, "lon": -77.02611383333333, "rental_uris": {"android": "https://dc.lft.to/lastmile_qr_scan", "ios": "https://dc.lft.to/lastmile_qr_scan"}, "fusion_lon": 0.0, "lat": 38.91428666666667, "type": "electric_scooter", "fusion_lat": 0.0, "bike_id": "d06ef8e2016a29d2f40897bc8852ca3a"}, {"name": "4de195b8d9388cbf3b9663edc8dba38d", "is_reserved": 0, "is_disabled": 0, "lon": -77.03549483333333, "rental_uris": {"android": "https://dc.lft.to/lastmile_qr_scan", "ios": "https://dc.lft.to/lastmile_qr_scan"}, "fusion_lon": 0.0, "lat": 38.916984, "type": "electric_scooter", "fusion_lat": 0.0, "bike_id": "4de195b8d9388cbf3b9663edc8dba38d"}, {"name": "acd4ba44982c8b537580bbec92d95c6c", "is_reserved": 0, "is_disabled": 0, "lon": -77.02298666666667, "rental_uris": {"android": "https://dc.lft.to/lastmile_qr_scan", "ios": "https://dc.lft.to/lastmile_qr_scan"}, "fusion_lon": 0.0, "lat": 38.90152233333333, "type": "electric_scooter", "fusion_lat": 0.0, "bike_id": "acd4ba44982c8b537580bbec92d95c6c"}, {"name": "01e264c37d43ad20d7b6c263432995cc", "is_reserved": 0, "is_disabled": 0, "lon": -77.02709883333333, "rental_uris": {"android": "https://dc.lft.to/lastmile_qr_scan", "ios": "https://dc.lft.to/lastmile_qr_scan"}, "fusion_lon": 0.0, "lat": 38.90668133333333, "type": "electric_scooter", "fusion_lat": 0.0, "bike_id": "01e264c37d43ad20d7b6c263432995cc"}, {"name": "94adb0293da104aba34cfce887b6a4cb", "is_reserved": 0, "is_disabled": 0, "lon": -76.9944575, "rental_uris": {"android": "https://dc.lft.to/lastmile_qr_scan", "ios": "https://dc.lft.to/lastmile_qr_scan"}, "fusion_lon": 0.0, "lat": 38.9051115, "type": "electric_scooter", "fusion_lat": 0.0, "bike_id": "94adb0293da104aba34cfce887b6a4cb"}, {"name": "faf5d61331ba564c15f74d3227ae7aae", "is_reserved": 0, "is_disabled": 0, "lon": -76.95515466666667, "rental_uris": {"android": "https://dc.lft.to/lastmile_qr_scan", "ios": "https://dc.lft.to/lastmile_qr_scan"}, "fusion_lon": 0.0, "lat": 38.890552666666665, "type": "electric_scooter", "fusion_lat": 0.0, "bike_id": "faf5d61331ba564c15f74d3227ae7aae"}, {"name": "d9cbd9b65e63f491a426fbae6f588306", "is_reserved": 0, "is_disabled": 0, "lon": -77.0318775, "rental_uris": {"android": "https://dc.lft.to/lastmile_qr_scan", "ios": "https://dc.lft.to/lastmile_qr_scan"}, "fusion_lon": 0.0, "lat": 38.90796116666667, "type": "electric_scooter", "fusion_lat": 0.0, "bike_id": "d9cbd9b65e63f491a426fbae6f588306"}, {"name": "dcfe3d75e3f46d26a36af3f3c382954b", "is_reserved": 0, "is_disabled": 0, "lon": -76.9463965, "rental_uris": {"android": "https://dc.lft.to/lastmile_qr_scan", "ios": "https://dc.lft.to/lastmile_qr_scan"}, "fusion_lon": 0.0, "lat": 38.89842983333333, "type": "electric_scooter", "fusion_lat": 0.0, "bike_id": "dcfe3d75e3f46d26a36af3f3c382954b"}, {"name": "9e9f190c453e80949e0f9a1a6e6251d6", "is_reserved": 0, "is_disabled": 0, "lon": -77.0212385, "rental_uris": {"android": "https://dc.lft.to/lastmile_qr_scan", "ios": "https://dc.lft.to/lastmile_qr_scan"}, "fusion_lon": 0.0, "lat": 38.93573083333333, "type": "electric_scooter", "fusion_lat": 0.0, "bike_id": "9e9f190c453e80949e0f9a1a6e6251d6"}, {"name": "3633ae2fd1e53adc2d40c893d3b99d37", "is_reserved": 0, "is_disabled": 0, "lon": -76.929205, "rental_uris": {"android": "https://dc.lft.to/lastmile_qr_scan", "ios": "https://dc.lft.to/lastmile_qr_scan"}, "fusion_lon": 0.0, "lat": 38.98030516666667, "type": "electric_bike", "fusion_lat": 0.0, "bike_id": "3633ae2fd1e53adc2d40c893d3b99d37"}, {"name": "06aee0ab2be09ff74adf34e17bad13c5", "is_reserved": 0, "is_disabled": 0, "lon": -77.01954116666667, "rental_uris": {"android": "https://dc.lft.to/lastmile_qr_scan", "ios": "https://dc.lft.to/lastmile_qr_scan"}, "fusion_lon": 0.0, "lat": 38.92266733333334, "type": "electric_scooter", "fusion_lat": 0.0, "bike_id": "06aee0ab2be09ff74adf34e17bad13c5"}, {"name": "898120706900787834a9880c521c6d0b", "is_reserved": 0, "is_disabled": 0, "lon": -77.0575475, "rental_uris": {"android": "https://dc.lft.to/lastmile_qr_scan", "ios": "https://dc.lft.to/lastmile_qr_scan"}, "fusion_lon": 0.0, "lat": 38.92505883333333, "type": "electric_scooter", "fusion_lat": 0.0, "bike_id": "898120706900787834a9880c521c6d0b"}, {"name": "3318769dddfe002311cb4da01092a422", "is_reserved": 0, "is_disabled": 0, "lon": -77.0611045, "rental_uris": {"android": "https://dc.lft.to/lastmile_qr_scan", "ios": "https://dc.lft.to/lastmile_qr_scan"}, "fusion_lon": 0.0, "lat": 38.9437015, "type": "electric_scooter", "fusion_lat": 0.0, "bike_id": "3318769dddfe002311cb4da01092a422"}, {"name": "b87a0db8f796a9df598275f9fad12d0f", "is_reserved": 0, "is_disabled": 0, "lon": -77.02026283333333, "rental_uris": {"android": "https://dc.lft.to/lastmile_qr_scan", "ios": "https://dc.lft.to/lastmile_qr_scan"}, "fusion_lon": 0.0, "lat": 38.924552, "type": "electric_scooter", "fusion_lat": 0.0, "bike_id": "b87a0db8f796a9df598275f9fad12d0f"}, {"name": "116acbb0e2ae5a87564808b4d5d6eb28", "is_reserved": 0, "is_disabled": 0, "lon": -76.99026633333334, "rental_uris": {"android": "https://dc.lft.to/lastmile_qr_scan", "ios": "https://dc.lft.to/lastmile_qr_scan"}, "fusion_lon": 0.0, "lat": 38.86407833333333, "type": "electric_scooter", "fusion_lat": 0.0, "bike_id": "116acbb0e2ae5a87564808b4d5d6eb28"}, {"name": "ee856695e001b0491494ceb0d501cd54", "is_reserved": 0, "is_disabled": 0, "lon": -77.0024695, "rental_uris": {"android": "https://dc.lft.to/lastmile_qr_scan", "ios": "https://dc.lft.to/lastmile_qr_scan"}, "fusion_lon": 0.0, "lat": 38.88025616666667, "type": "electric_scooter", "fusion_lat": 0.0, "bike_id": "ee856695e001b0491494ceb0d501cd54"}, {"name": "31691d394960d8b50c7bc92445fd4540", "is_reserved": 0, "is_disabled": 0, "lon": -76.99727566666667, "rental_uris": {"android": "https://dc.lft.to/lastmile_qr_scan", "ios": "https://dc.lft.to/lastmile_qr_scan"}, "fusion_lon": 0.0, "lat": 38.8989845, "type": "electric_scooter", "fusion_lat": 0.0, "bike_id": "31691d394960d8b50c7bc92445fd4540"}, {"name": "4d28985be9bc12802835e7418f9fc35a", "is_reserved": 0, "is_disabled": 0, "lon": -77.02682983333334, "rental_uris": {"android": "https://dc.lft.to/lastmile_qr_scan", "ios": "https://dc.lft.to/lastmile_qr_scan"}, "fusion_lon": 0.0, "lat": 38.90973116666667, "type": "electric_scooter", "fusion_lat": 0.0, "bike_id": "4d28985be9bc12802835e7418f9fc35a"}, {"name": "04d841d21b8f66e27a8806519e48d0eb", "is_reserved": 0, "is_disabled": 0, "lon": -77.067682, "rental_uris": {"android": "https://dc.lft.to/lastmile_qr_scan", "ios": "https://dc.lft.to/lastmile_qr_scan"}, "fusion_lon": 0.0, "lat": 38.903606833333335, "type": "electric_scooter", "fusion_lat": 0.0, "bike_id": "04d841d21b8f66e27a8806519e48d0eb"}, {"name": "883bd1a1c5931633d6729518f2b37a79", "is_reserved": 0, "is_disabled": 0, "lon": -77.04675566666667, "rental_uris": {"android": "https://dc.lft.to/lastmile_qr_scan", "ios": "https://dc.lft.to/lastmile_qr_scan"}, "fusion_lon": 0.0, "lat": 38.8950575, "type": "electric_scooter", "fusion_lat": 0.0, "bike_id": "883bd1a1c5931633d6729518f2b37a79"}, {"name": "bd09f183b1dcb0f3134a36035715509e", "is_reserved": 0, "is_disabled": 0, "lon": -77.01127, "rental_uris": {"android": "https://dc.lft.to/lastmile_qr_scan", "ios": "https://dc.lft.to/lastmile_qr_scan"}, "fusion_lon": 0.0, "lat": 38.89497016666667, "type": "electric_scooter", "fusion_lat": 0.0, "bike_id": "bd09f183b1dcb0f3134a36035715509e"}, {"name": "6417baee5c637c50cc501c37389fe9f7", "is_reserved": 0, "is_disabled": 0, "lon": -77.00818783333334, "rental_uris": {"android": "https://dc.lft.to/lastmile_qr_scan", "ios": "https://dc.lft.to/lastmile_qr_scan"}, "fusion_lon": 0.0, "lat": 38.91565166666667, "type": "electric_scooter", "fusion_lat": 0.0, "bike_id": "6417baee5c637c50cc501c37389fe9f7"}, {"name": "89a87d1c1e550e60ef1098f702fa483a", "is_reserved": 0, "is_disabled": 0, "lon": -77.03850516666667, "rental_uris": {"android": "https://dc.lft.to/lastmile_qr_scan", "ios": "https://dc.lft.to/lastmile_qr_scan"}, "fusion_lon": 0.0, "lat": 38.902768333333334, "type": "electric_scooter", "fusion_lat": 0.0, "bike_id": "89a87d1c1e550e60ef1098f702fa483a"}, {"name": "8ff037795fdc4717c3957f1788d91a8a", "is_reserved": 0, "is_disabled": 0, "lon": -77.03037783333333, "rental_uris": {"android": "https://dc.lft.to/lastmile_qr_scan", "ios": "https://dc.lft.to/lastmile_qr_scan"}, "fusion_lon": 0.0, "lat": 38.8838965, "type": "electric_scooter", "fusion_lat": 0.0, "bike_id": "8ff037795fdc4717c3957f1788d91a8a"}, {"name": "aa3211c1c3d1efc9ac6ea8027db95689", "is_reserved": 0, "is_disabled": 0, "lon": -77.03394016666667, "rental_uris": {"android": "https://dc.lft.to/lastmile_qr_scan", "ios": "https://dc.lft.to/lastmile_qr_scan"}, "fusion_lon": 0.0, "lat": 38.924415, "type": "electric_scooter", "fusion_lat": 0.0, "bike_id": "aa3211c1c3d1efc9ac6ea8027db95689"}, {"name": "e6f4b70ca55f5f9e13cd68a3e571f215", "is_reserved": 0, "is_disabled": 0, "lon": -77.07452283333333, "rental_uris": {"android": "https://dc.lft.to/lastmile_qr_scan", "ios": "https://dc.lft.to/lastmile_qr_scan"}, "fusion_lon": 0.0, "lat": 38.910958666666666, "type": "electric_scooter", "fusion_lat": 0.0, "bike_id": "e6f4b70ca55f5f9e13cd68a3e571f215"}, {"name": "6beb14e15769c38e16ecef98d9f94dad", "is_reserved": 0, "is_disabled": 0, "lon": -77.02306533333334, "rental_uris": {"android": "https://dc.lft.to/lastmile_qr_scan", "ios": "https://dc.lft.to/lastmile_qr_scan"}, "fusion_lon": 0.0, "lat": 38.909660333333335, "type": "electric_scooter", "fusion_lat": 0.0, "bike_id": "6beb14e15769c38e16ecef98d9f94dad"}, {"name": "9253d49cdcf4c724b5b76e90628840d4", "is_reserved": 0, "is_disabled": 0, "lon": -76.993889, "rental_uris": {"android": "https://dc.lft.to/lastmile_qr_scan", "ios": "https://dc.lft.to/lastmile_qr_scan"}, "fusion_lon": 0.0, "lat": 38.88452066666667, "type": "electric_scooter", "fusion_lat": 0.0, "bike_id": "9253d49cdcf4c724b5b76e90628840d4"}, {"name": "f5870754c687c95470c7f27cddde4afc", "is_reserved": 0, "is_disabled": 0, "lon": -77.06251616666667, "rental_uris": {"android": "https://dc.lft.to/lastmile_qr_scan", "ios": "https://dc.lft.to/lastmile_qr_scan"}, "fusion_lon": 0.0, "lat": 38.905254, "type": "electric_scooter", "fusion_lat": 0.0, "bike_id": "f5870754c687c95470c7f27cddde4afc"}, {"name": "a6703a9f552088c0a72317a61441c20e", "is_reserved": 0, "is_disabled": 0, "lon": -77.02230783333333, "rental_uris": {"android": "https://dc.lft.to/lastmile_qr_scan", "ios": "https://dc.lft.to/lastmile_qr_scan"}, "fusion_lon": 0.0, "lat": 38.8877025, "type": "electric_scooter", "fusion_lat": 0.0, "bike_id": "a6703a9f552088c0a72317a61441c20e"}, {"name": "f2e40f4c9fbe74190cbd4009270ef7d9", "is_reserved": 0, "is_disabled": 0, "lon": -77.02897366666667, "rental_uris": {"android": "https://dc.lft.to/lastmile_qr_scan", "ios": "https://dc.lft.to/lastmile_qr_scan"}, "fusion_lon": 0.0, "lat": 38.918139833333335, "type": "electric_scooter", "fusion_lat": 0.0, "bike_id": "f2e40f4c9fbe74190cbd4009270ef7d9"}, {"name": "9d58487ef5faeed7b636e6217769c7e5", "is_reserved": 0, "is_disabled": 0, "lon": -77.04235166666666, "rental_uris": {"android": "https://dc.lft.to/lastmile_qr_scan", "ios": "https://dc.lft.to/lastmile_qr_scan"}, "fusion_lon": 0.0, "lat": 38.909704833333336, "type": "electric_scooter", "fusion_lat": 0.0, "bike_id": "9d58487ef5faeed7b636e6217769c7e5"}, {"name": "83689a16bf47f9a8fef9f820aceae011", "is_reserved": 0, "is_disabled": 0, "lon": -77.02102383333333, "rental_uris": {"android": "https://dc.lft.to/lastmile_qr_scan", "ios": "https://dc.lft.to/lastmile_qr_scan"}, "fusion_lon": 0.0, "lat": 39.02296533333333, "type": "electric_bike", "fusion_lat": 0.0, "bike_id": "83689a16bf47f9a8fef9f820aceae011"}, {"name": "567b5e8e8bce8791ff9afcc49eeed04f", "is_reserved": 0, "is_disabled": 0, "lon": -77.0603255, "rental_uris": {"android": "https://dc.lft.to/lastmile_qr_scan", "ios": "https://dc.lft.to/lastmile_qr_scan"}, "fusion_lon": 0.0, "lat": 38.93926833333333, "type": "electric_scooter", "fusion_lat": 0.0, "bike_id": "567b5e8e8bce8791ff9afcc49eeed04f"}, {"name": "54d6494d1dcbb55189678699f7ae1381", "is_reserved": 0, "is_disabled": 0, "lon": -77.04676316666666, "rental_uris": {"android": "https://dc.lft.to/lastmile_qr_scan", "ios": "https://dc.lft.to/lastmile_qr_scan"}, "fusion_lon": 0.0, "lat": 38.895553666666665, "type": "electric_scooter", "fusion_lat": 0.0, "bike_id": "54d6494d1dcbb55189678699f7ae1381"}, {"name": "5595e146877adb95c31ac259ff2f5b0e", "is_reserved": 0, "is_disabled": 0, "lon": -77.03983133333334, "rental_uris": {"android": "https://dc.lft.to/lastmile_qr_scan", "ios": "https://dc.lft.to/lastmile_qr_scan"}, "fusion_lon": 0.0, "lat": 38.909353, "type": "electric_scooter", "fusion_lat": 0.0, "bike_id": "5595e146877adb95c31ac259ff2f5b0e"}, {"name": "fa6af41416575f0a5fdb8102b6816edd", "is_reserved": 0, "is_disabled": 0, "lon": -77.0228335, "rental_uris": {"android": "https://dc.lft.to/lastmile_qr_scan", "ios": "https://dc.lft.to/lastmile_qr_scan"}, "fusion_lon": 0.0, "lat": 38.92679483333333, "type": "electric_scooter", "fusion_lat": 0.0, "bike_id": "fa6af41416575f0a5fdb8102b6816edd"}, {"name": "0000db8aa1f2be1af296c2549f10d3dd", "is_reserved": 0, "is_disabled": 0, "lon": -77.02915916666667, "rental_uris": {"android": "https://dc.lft.to/lastmile_qr_scan", "ios": "https://dc.lft.to/lastmile_qr_scan"}, "fusion_lon": 0.0, "lat": 38.9169815, "type": "electric_scooter", "fusion_lat": 0.0, "bike_id": "0000db8aa1f2be1af296c2549f10d3dd"}, {"name": "440d6c8e7e85d52b0c219ca6f29bc390", "is_reserved": 0, "is_disabled": 0, "lon": -77.12900866666666, "rental_uris": {"android": "https://dc.lft.to/lastmile_qr_scan", "ios": "https://dc.lft.to/lastmile_qr_scan"}, "fusion_lon": 0.0, "lat": 38.86379083333333, "type": "electric_bike", "fusion_lat": 0.0, "bike_id": "440d6c8e7e85d52b0c219ca6f29bc390"}, {"name": "3a211df7c722715eb71cee1ccc816eab", "is_reserved": 0, "is_disabled": 0, "lon": -77.00605466666667, "rental_uris": {"android": "https://dc.lft.to/lastmile_qr_scan", "ios": "https://dc.lft.to/lastmile_qr_scan"}, "fusion_lon": 0.0, "lat": 38.88376733333333, "type": "electric_scooter", "fusion_lat": 0.0, "bike_id": "3a211df7c722715eb71cee1ccc816eab"}, {"name": "ac4e02cb962eda67e21d201b709c3368", "is_reserved": 0, "is_disabled": 0, "lon": -77.005699, "rental_uris": {"android": "https://dc.lft.to/lastmile_qr_scan", "ios": "https://dc.lft.to/lastmile_qr_scan"}, "fusion_lon": 0.0, "lat": 38.885361, "type": "electric_scooter", "fusion_lat": 0.0, "bike_id": "ac4e02cb962eda67e21d201b709c3368"}, {"name": "69d09689f3c1e730ab12f76f1efa8729", "is_reserved": 0, "is_disabled": 0, "lon": -77.045398, "rental_uris": {"android": "https://dc.lft.to/lastmile_qr_scan", "ios": "https://dc.lft.to/lastmile_qr_scan"}, "fusion_lon": 0.0, "lat": 38.918230333333334, "type": "electric_scooter", "fusion_lat": 0.0, "bike_id": "69d09689f3c1e730ab12f76f1efa8729"}, {"name": "084e01c44db64911e22827fa1487a1b1", "is_reserved": 0, "is_disabled": 0, "lon": -77.02154916666667, "rental_uris": {"android": "https://dc.lft.to/lastmile_qr_scan", "ios": "https://dc.lft.to/lastmile_qr_scan"}, "fusion_lon": 0.0, "lat": 38.926032, "type": "electric_scooter", "fusion_lat": 0.0, "bike_id": "084e01c44db64911e22827fa1487a1b1"}, {"name": "e14870fcfdf4559ea6cb57800f10f1f2", "is_reserved": 0, "is_disabled": 0, "lon": -76.99204533333334, "rental_uris": {"android": "https://dc.lft.to/lastmile_qr_scan", "ios": "https://dc.lft.to/lastmile_qr_scan"}, "fusion_lon": 0.0, "lat": 38.895277166666666, "type": "electric_scooter", "fusion_lat": 0.0, "bike_id": "e14870fcfdf4559ea6cb57800f10f1f2"}, {"name": "a55612c577ee7589d380446ce45f9890", "is_reserved": 0, "is_disabled": 0, "lon": -77.00759483333333, "rental_uris": {"android": "https://dc.lft.to/lastmile_qr_scan", "ios": "https://dc.lft.to/lastmile_qr_scan"}, "fusion_lon": 0.0, "lat": 38.900629, "type": "electric_scooter", "fusion_lat": 0.0, "bike_id": "a55612c577ee7589d380446ce45f9890"}, {"name": "fb2450c97c0877c54f937c1e45716da9", "is_reserved": 0, "is_disabled": 0, "lon": -77.01096516666667, "rental_uris": {"android": "https://dc.lft.to/lastmile_qr_scan", "ios": "https://dc.lft.to/lastmile_qr_scan"}, "fusion_lon": 0.0, "lat": 38.907296333333335, "type": "electric_scooter", "fusion_lat": 0.0, "bike_id": "fb2450c97c0877c54f937c1e45716da9"}, {"name": "75f966d8ef4ec5bcfc82f437b43bdf74", "is_reserved": 0, "is_disabled": 0, "lon": -77.01558166666666, "rental_uris": {"android": "https://dc.lft.to/lastmile_qr_scan", "ios": "https://dc.lft.to/lastmile_qr_scan"}, "fusion_lon": 0.0, "lat": 38.913701, "type": "electric_scooter", "fusion_lat": 0.0, "bike_id": "75f966d8ef4ec5bcfc82f437b43bdf74"}, {"name": "783d6b42fe3dfc0dcc86e79213672d3b", "is_reserved": 0, "is_disabled": 0, "lon": -77.0317795, "rental_uris": {"android": "https://dc.lft.to/lastmile_qr_scan", "ios": "https://dc.lft.to/lastmile_qr_scan"}, "fusion_lon": 0.0, "lat": 38.886636, "type": "electric_scooter", "fusion_lat": 0.0, "bike_id": "783d6b42fe3dfc0dcc86e79213672d3b"}, {"name": "dd59dc18b3b2992315cac42cdf8dfbe8", "is_reserved": 0, "is_disabled": 0, "lon": -77.03976783333333, "rental_uris": {"android": "https://dc.lft.to/lastmile_qr_scan", "ios": "https://dc.lft.to/lastmile_qr_scan"}, "fusion_lon": 0.0, "lat": 38.90267883333333, "type": "electric_scooter", "fusion_lat": 0.0, "bike_id": "dd59dc18b3b2992315cac42cdf8dfbe8"}, {"name": "445c0281971be7a0164bfde0166d037e", "is_reserved": 0, "is_disabled": 0, "lon": -77.03517116666667, "rental_uris": {"android": "https://dc.lft.to/lastmile_qr_scan", "ios": "https://dc.lft.to/lastmile_qr_scan"}, "fusion_lon": 0.0, "lat": 38.93282516666667, "type": "electric_scooter", "fusion_lat": 0.0, "bike_id": "445c0281971be7a0164bfde0166d037e"}, {"name": "c6018c86be5cb905ec70229cdff72713", "is_reserved": 0, "is_disabled": 0, "lon": -77.033346, "rental_uris": {"android": "https://dc.lft.to/lastmile_qr_scan", "ios": "https://dc.lft.to/lastmile_qr_scan"}, "fusion_lon": 0.0, "lat": 38.89828583333333, "type": "electric_scooter", "fusion_lat": 0.0, "bike_id": "c6018c86be5cb905ec70229cdff72713"}, {"name": "229d04270775b46f6adc720646276b74", "is_reserved": 0, "is_disabled": 0, "lon": -76.99496316666666, "rental_uris": {"android": "https://dc.lft.to/lastmile_qr_scan", "ios": "https://dc.lft.to/lastmile_qr_scan"}, "fusion_lon": 0.0, "lat": 38.862256333333335, "type": "electric_scooter", "fusion_lat": 0.0, "bike_id": "229d04270775b46f6adc720646276b74"}, {"name": "6f4413c817a71181b5f53e36b5f1f59d", "is_reserved": 0, "is_disabled": 0, "lon": -77.037996, "rental_uris": {"android": "https://dc.lft.to/lastmile_qr_scan", "ios": "https://dc.lft.to/lastmile_qr_scan"}, "fusion_lon": 0.0, "lat": 38.910385833333336, "type": "electric_scooter", "fusion_lat": 0.0, "bike_id": "6f4413c817a71181b5f53e36b5f1f59d"}, {"name": "51aa1508d688266933b0e0a7347740c3", "is_reserved": 0, "is_disabled": 0, "lon": -76.98379683333333, "rental_uris": {"android": "https://dc.lft.to/lastmile_qr_scan", "ios": "https://dc.lft.to/lastmile_qr_scan"}, "fusion_lon": 0.0, "lat": 38.8989295, "type": "electric_bike", "fusion_lat": 0.0, "bike_id": "51aa1508d688266933b0e0a7347740c3"}, {"name": "db04db32f70d75c8db21da9f5f48b759", "is_reserved": 0, "is_disabled": 0, "lon": -77.00211683333333, "rental_uris": {"android": "https://dc.lft.to/lastmile_qr_scan", "ios": "https://dc.lft.to/lastmile_qr_scan"}, "fusion_lon": 0.0, "lat": 38.900303, "type": "electric_scooter", "fusion_lat": 0.0, "bike_id": "db04db32f70d75c8db21da9f5f48b759"}, {"name": "a0a9f21b41e9fc1ae91160ecd37832e3", "is_reserved": 0, "is_disabled": 0, "lon": -77.10128016666667, "rental_uris": {"android": "https://dc.lft.to/lastmile_qr_scan", "ios": "https://dc.lft.to/lastmile_qr_scan"}, "fusion_lon": 0.0, "lat": 38.85214216666667, "type": "electric_bike", "fusion_lat": 0.0, "bike_id": "a0a9f21b41e9fc1ae91160ecd37832e3"}, {"name": "50838f53e4891c92243989afe1739829", "is_reserved": 0, "is_disabled": 0, "lon": -77.0238835, "rental_uris": {"android": "https://dc.lft.to/lastmile_qr_scan", "ios": "https://dc.lft.to/lastmile_qr_scan"}, "fusion_lon": 0.0, "lat": 38.9336225, "type": "electric_scooter", "fusion_lat": 0.0, "bike_id": "50838f53e4891c92243989afe1739829"}, {"name": "b3682bdd05e9602642b1461a49c46833", "is_reserved": 0, "is_disabled": 0, "lon": -77.02971666666667, "rental_uris": {"android": "https://dc.lft.to/lastmile_qr_scan", "ios": "https://dc.lft.to/lastmile_qr_scan"}, "fusion_lon": 0.0, "lat": 38.916818666666664, "type": "electric_scooter", "fusion_lat": 0.0, "bike_id": "b3682bdd05e9602642b1461a49c46833"}, {"name": "a2ec984087b41ec9b34ccffbdc5033ee", "is_reserved": 0, "is_disabled": 0, "lon": -77.04192733333333, "rental_uris": {"android": "https://dc.lft.to/lastmile_qr_scan", "ios": "https://dc.lft.to/lastmile_qr_scan"}, "fusion_lon": 0.0, "lat": 38.89980766666667, "type": "electric_scooter", "fusion_lat": 0.0, "bike_id": "a2ec984087b41ec9b34ccffbdc5033ee"}, {"name": "d3151a00a8458a97a3ea76711c5784bf", "is_reserved": 0, "is_disabled": 0, "lon": -77.02209466666666, "rental_uris": {"android": "https://dc.lft.to/lastmile_qr_scan", "ios": "https://dc.lft.to/lastmile_qr_scan"}, "fusion_lon": 0.0, "lat": 38.887167833333336, "type": "electric_scooter", "fusion_lat": 0.0, "bike_id": "d3151a00a8458a97a3ea76711c5784bf"}, {"name": "2a00e3c5f888047be2ff9bf564127965", "is_reserved": 0, "is_disabled": 0, "lon": -77.01044416666667, "rental_uris": {"android": "https://dc.lft.to/lastmile_qr_scan", "ios": "https://dc.lft.to/lastmile_qr_scan"}, "fusion_lon": 0.0, "lat": 38.906736, "type": "electric_scooter", "fusion_lat": 0.0, "bike_id": "2a00e3c5f888047be2ff9bf564127965"}, {"name": "7afca35aeb7b4a12f285e297fd4695a7", "is_reserved": 0, "is_disabled": 0, "lon": -77.04178583333334, "rental_uris": {"android": "https://dc.lft.to/lastmile_qr_scan", "ios": "https://dc.lft.to/lastmile_qr_scan"}, "fusion_lon": 0.0, "lat": 38.914191, "type": "electric_scooter", "fusion_lat": 0.0, "bike_id": "7afca35aeb7b4a12f285e297fd4695a7"}, {"name": "75a812646a3a961f6575f24fae577142", "is_reserved": 0, "is_disabled": 0, "lon": -77.02946766666666, "rental_uris": {"android": "https://dc.lft.to/lastmile_qr_scan", "ios": "https://dc.lft.to/lastmile_qr_scan"}, "fusion_lon": 0.0, "lat": 38.90241183333333, "type": "electric_scooter", "fusion_lat": 0.0, "bike_id": "75a812646a3a961f6575f24fae577142"}, {"name": "89317b1af4116f9150778cd48cb7c0ed", "is_reserved": 0, "is_disabled": 0, "lon": -77.013788, "rental_uris": {"android": "https://dc.lft.to/lastmile_qr_scan", "ios": "https://dc.lft.to/lastmile_qr_scan"}, "fusion_lon": 0.0, "lat": 38.92850966666666, "type": "electric_scooter", "fusion_lat": 0.0, "bike_id": "89317b1af4116f9150778cd48cb7c0ed"}, {"name": "60b9e7bda84689886be805529ae974d1", "is_reserved": 0, "is_disabled": 0, "lon": -76.983246, "rental_uris": {"android": "https://dc.lft.to/lastmile_qr_scan", "ios": "https://dc.lft.to/lastmile_qr_scan"}, "fusion_lon": 0.0, "lat": 38.90747616666667, "type": "electric_scooter", "fusion_lat": 0.0, "bike_id": "60b9e7bda84689886be805529ae974d1"}, {"name": "2007491591798fa89c5c505c7a4c69e3", "is_reserved": 0, "is_disabled": 0, "lon": -77.03310616666667, "rental_uris": {"android": "https://dc.lft.to/lastmile_qr_scan", "ios": "https://dc.lft.to/lastmile_qr_scan"}, "fusion_lon": 0.0, "lat": 38.898501, "type": "electric_scooter", "fusion_lat": 0.0, "bike_id": "2007491591798fa89c5c505c7a4c69e3"}, {"name": "b1c79cf117c498846f2604512ad73375", "is_reserved": 0, "is_disabled": 0, "lon": -77.03841833333334, "rental_uris": {"android": "https://dc.lft.to/lastmile_qr_scan", "ios": "https://dc.lft.to/lastmile_qr_scan"}, "fusion_lon": 0.0, "lat": 38.917354833333334, "type": "electric_scooter", "fusion_lat": 0.0, "bike_id": "b1c79cf117c498846f2604512ad73375"}, {"name": "fb5472148d08b93176b6baa3a427261b", "is_reserved": 0, "is_disabled": 0, "lon": -77.008898, "rental_uris": {"android": "https://dc.lft.to/lastmile_qr_scan", "ios": "https://dc.lft.to/lastmile_qr_scan"}, "fusion_lon": 0.0, "lat": 38.91291016666667, "type": "electric_scooter", "fusion_lat": 0.0, "bike_id": "fb5472148d08b93176b6baa3a427261b"}, {"name": "d9ac01d0416b2b7c2f8203bd3f0e94b3", "is_reserved": 0, "is_disabled": 0, "lon": -77.01974666666666, "rental_uris": {"android": "https://dc.lft.to/lastmile_qr_scan", "ios": "https://dc.lft.to/lastmile_qr_scan"}, "fusion_lon": 0.0, "lat": 38.90075183333333, "type": "electric_scooter", "fusion_lat": 0.0, "bike_id": "d9ac01d0416b2b7c2f8203bd3f0e94b3"}, {"name": "12bb3f0d7c3b45d1d74e86827a5f1b3b", "is_reserved": 0, "is_disabled": 0, "lon": -77.02382866666666, "rental_uris": {"android": "https://dc.lft.to/lastmile_qr_scan", "ios": "https://dc.lft.to/lastmile_qr_scan"}, "fusion_lon": 0.0, "lat": 38.9573765, "type": "electric_scooter", "fusion_lat": 0.0, "bike_id": "12bb3f0d7c3b45d1d74e86827a5f1b3b"}, {"name": "9f74c80f1f4ee3c52ceab798302067a0", "is_reserved": 0, "is_disabled": 0, "lon": -77.04660766666667, "rental_uris": {"android": "https://dc.lft.to/lastmile_qr_scan", "ios": "https://dc.lft.to/lastmile_qr_scan"}, "fusion_lon": 0.0, "lat": 38.892463666666664, "type": "electric_scooter", "fusion_lat": 0.0, "bike_id": "9f74c80f1f4ee3c52ceab798302067a0"}, {"name": "e420e7608aa02a9033afdde79a8f87d6", "is_reserved": 0, "is_disabled": 0, "lon": -77.01176033333333, "rental_uris": {"android": "https://dc.lft.to/lastmile_qr_scan", "ios": "https://dc.lft.to/lastmile_qr_scan"}, "fusion_lon": 0.0, "lat": 38.900125333333335, "type": "electric_scooter", "fusion_lat": 0.0, "bike_id": "e420e7608aa02a9033afdde79a8f87d6"}, {"name": "1476ba0716c16f93a798461a9498defe", "is_reserved": 0, "is_disabled": 0, "lon": -77.030858, "rental_uris": {"android": "https://dc.lft.to/lastmile_qr_scan", "ios": "https://dc.lft.to/lastmile_qr_scan"}, "fusion_lon": 0.0, "lat": 38.89989816666667, "type": "electric_scooter", "fusion_lat": 0.0, "bike_id": "1476ba0716c16f93a798461a9498defe"}, {"name": "84b7819b054b0ce1675600b41ededc76", "is_reserved": 0, "is_disabled": 0, "lon": -77.02722916666667, "rental_uris": {"android": "https://dc.lft.to/lastmile_qr_scan", "ios": "https://dc.lft.to/lastmile_qr_scan"}, "fusion_lon": 0.0, "lat": 38.8994945, "type": "electric_scooter", "fusion_lat": 0.0, "bike_id": "84b7819b054b0ce1675600b41ededc76"}, {"name": "e48aead93e884ee9dcf8923ec7cc0cd6", "is_reserved": 0, "is_disabled": 0, "lon": -76.93410383333334, "rental_uris": {"android": "https://dc.lft.to/lastmile_qr_scan", "ios": "https://dc.lft.to/lastmile_qr_scan"}, "fusion_lon": 0.0, "lat": 38.946263333333334, "type": "electric_bike", "fusion_lat": 0.0, "bike_id": "e48aead93e884ee9dcf8923ec7cc0cd6"}, {"name": "29059f23932d14f965cc60b4ae7d6aa3", "is_reserved": 0, "is_disabled": 0, "lon": -77.00577783333334, "rental_uris": {"android": "https://dc.lft.to/lastmile_qr_scan", "ios": "https://dc.lft.to/lastmile_qr_scan"}, "fusion_lon": 0.0, "lat": 38.88534283333333, "type": "electric_scooter", "fusion_lat": 0.0, "bike_id": "29059f23932d14f965cc60b4ae7d6aa3"}, {"name": "d71c2e7a5b982779a444ad33bbfd32a5", "is_reserved": 0, "is_disabled": 0, "lon": -77.0326265, "rental_uris": {"android": "https://dc.lft.to/lastmile_qr_scan", "ios": "https://dc.lft.to/lastmile_qr_scan"}, "fusion_lon": 0.0, "lat": 38.9309605, "type": "electric_scooter", "fusion_lat": 0.0, "bike_id": "d71c2e7a5b982779a444ad33bbfd32a5"}, {"name": "125fe7f9d416ec1084639f17bc37a525", "is_reserved": 0, "is_disabled": 0, "lon": -77.0295575, "rental_uris": {"android": "https://dc.lft.to/lastmile_qr_scan", "ios": "https://dc.lft.to/lastmile_qr_scan"}, "fusion_lon": 0.0, "lat": 38.893104666666666, "type": "electric_scooter", "fusion_lat": 0.0, "bike_id": "125fe7f9d416ec1084639f17bc37a525"}, {"name": "a64be401d8f93008835efd507cfd87c1", "is_reserved": 0, "is_disabled": 0, "lon": -76.924017, "rental_uris": {"android": "https://dc.lft.to/lastmile_qr_scan", "ios": "https://dc.lft.to/lastmile_qr_scan"}, "fusion_lon": 0.0, "lat": 38.889867333333335, "type": "electric_scooter", "fusion_lat": 0.0, "bike_id": "a64be401d8f93008835efd507cfd87c1"}, {"name": "6e7e85e35d040e4fe4d49a2d8b20f880", "is_reserved": 0, "is_disabled": 0, "lon": -77.0465795, "rental_uris": {"android": "https://dc.lft.to/lastmile_qr_scan", "ios": "https://dc.lft.to/lastmile_qr_scan"}, "fusion_lon": 0.0, "lat": 38.8924685, "type": "electric_scooter", "fusion_lat": 0.0, "bike_id": "6e7e85e35d040e4fe4d49a2d8b20f880"}, {"name": "26fd9890215b13d9ca0aa0c7a8b3b89d", "is_reserved": 0, "is_disabled": 0, "lon": -77.00727966666666, "rental_uris": {"android": "https://dc.lft.to/lastmile_qr_scan", "ios": "https://dc.lft.to/lastmile_qr_scan"}, "fusion_lon": 0.0, "lat": 38.877136, "type": "electric_scooter", "fusion_lat": 0.0, "bike_id": "26fd9890215b13d9ca0aa0c7a8b3b89d"}, {"name": "e946118e410ea02d2a44e9f5ea9c6386", "is_reserved": 0, "is_disabled": 0, "lon": -77.0107645, "rental_uris": {"android": "https://dc.lft.to/lastmile_qr_scan", "ios": "https://dc.lft.to/lastmile_qr_scan"}, "fusion_lon": 0.0, "lat": 38.9626625, "type": "electric_bike", "fusion_lat": 0.0, "bike_id": "e946118e410ea02d2a44e9f5ea9c6386"}, {"name": "9c9173aead9a02353167d9a49663da2b", "is_reserved": 0, "is_disabled": 0, "lon": -77.01459616666666, "rental_uris": {"android": "https://dc.lft.to/lastmile_qr_scan", "ios": "https://dc.lft.to/lastmile_qr_scan"}, "fusion_lon": 0.0, "lat": 38.910382166666665, "type": "electric_scooter", "fusion_lat": 0.0, "bike_id": "9c9173aead9a02353167d9a49663da2b"}, {"name": "4aaf54569c188bc2d20f6db4248a3543", "is_reserved": 0, "is_disabled": 0, "lon": -77.02888266666666, "rental_uris": {"android": "https://dc.lft.to/lastmile_qr_scan", "ios": "https://dc.lft.to/lastmile_qr_scan"}, "fusion_lon": 0.0, "lat": 38.91414233333333, "type": "electric_scooter", "fusion_lat": 0.0, "bike_id": "4aaf54569c188bc2d20f6db4248a3543"}, {"name": "7d54070ea7ddd70403c3ec2ba18fb027", "is_reserved": 0, "is_disabled": 0, "lon": -77.01997, "rental_uris": {"android": "https://dc.lft.to/lastmile_qr_scan", "ios": "https://dc.lft.to/lastmile_qr_scan"}, "fusion_lon": 0.0, "lat": 38.9663005, "type": "electric_scooter", "fusion_lat": 0.0, "bike_id": "7d54070ea7ddd70403c3ec2ba18fb027"}, {"name": "30fce7113c7d768d894887d3a3498837", "is_reserved": 0, "is_disabled": 0, "lon": -77.012602, "rental_uris": {"android": "https://dc.lft.to/lastmile_qr_scan", "ios": "https://dc.lft.to/lastmile_qr_scan"}, "fusion_lon": 0.0, "lat": 38.90847816666667, "type": "electric_scooter", "fusion_lat": 0.0, "bike_id": "30fce7113c7d768d894887d3a3498837"}, {"name": "a09ad5eae6163a6c9b7a5680b032fad8", "is_reserved": 0, "is_disabled": 0, "lon": -77.00403433333334, "rental_uris": {"android": "https://dc.lft.to/lastmile_qr_scan", "ios": "https://dc.lft.to/lastmile_qr_scan"}, "fusion_lon": 0.0, "lat": 38.911088166666666, "type": "electric_scooter", "fusion_lat": 0.0, "bike_id": "a09ad5eae6163a6c9b7a5680b032fad8"}, {"name": "1dd415ecd8cc245ad770f379ec6aadf0", "is_reserved": 0, "is_disabled": 0, "lon": -76.99162616666666, "rental_uris": {"android": "https://dc.lft.to/lastmile_qr_scan", "ios": "https://dc.lft.to/lastmile_qr_scan"}, "fusion_lon": 0.0, "lat": 38.87348166666666, "type": "electric_scooter", "fusion_lat": 0.0, "bike_id": "1dd415ecd8cc245ad770f379ec6aadf0"}, {"name": "d4c81bdad2df588180c82c1f68e22b59", "is_reserved": 0, "is_disabled": 0, "lon": -76.99841816666667, "rental_uris": {"android": "https://dc.lft.to/lastmile_qr_scan", "ios": "https://dc.lft.to/lastmile_qr_scan"}, "fusion_lon": 0.0, "lat": 38.839186833333336, "type": "electric_bike", "fusion_lat": 0.0, "bike_id": "d4c81bdad2df588180c82c1f68e22b59"}, {"name": "cc0c5f6b898546cd419ff1110543ca0e", "is_reserved": 0, "is_disabled": 0, "lon": -77.0364285, "rental_uris": {"android": "https://dc.lft.to/lastmile_qr_scan", "ios": "https://dc.lft.to/lastmile_qr_scan"}, "fusion_lon": 0.0, "lat": 38.912233666666665, "type": "electric_scooter", "fusion_lat": 0.0, "bike_id": "cc0c5f6b898546cd419ff1110543ca0e"}, {"name": "d8efe2d784e7b313a1196f073498c95f", "is_reserved": 0, "is_disabled": 0, "lon": -77.00835466666666, "rental_uris": {"android": "https://dc.lft.to/lastmile_qr_scan", "ios": "https://dc.lft.to/lastmile_qr_scan"}, "fusion_lon": 0.0, "lat": 38.8751535, "type": "electric_bike", "fusion_lat": 0.0, "bike_id": "d8efe2d784e7b313a1196f073498c95f"}, {"name": "4927868289ea5364936b549ea0c3d0c2", "is_reserved": 0, "is_disabled": 0, "lon": -77.10022, "rental_uris": {"android": "https://dc.lft.to/lastmile_qr_scan", "ios": "https://dc.lft.to/lastmile_qr_scan"}, "fusion_lon": 0.0, "lat": 38.99071133333333, "type": "electric_bike", "fusion_lat": 0.0, "bike_id": "4927868289ea5364936b549ea0c3d0c2"}, {"name": "d4a99511129436017a331fe6954cf601", "is_reserved": 0, "is_disabled": 0, "lon": -77.0450335, "rental_uris": {"android": "https://dc.lft.to/lastmile_qr_scan", "ios": "https://dc.lft.to/lastmile_qr_scan"}, "fusion_lon": 0.0, "lat": 38.91867416666667, "type": "electric_scooter", "fusion_lat": 0.0, "bike_id": "d4a99511129436017a331fe6954cf601"}, {"name": "51d82f3d5ffa7669941ac7a93d9efb38", "is_reserved": 0, "is_disabled": 0, "lon": -77.01911633333333, "rental_uris": {"android": "https://dc.lft.to/lastmile_qr_scan", "ios": "https://dc.lft.to/lastmile_qr_scan"}, "fusion_lon": 0.0, "lat": 38.92342683333333, "type": "electric_scooter", "fusion_lat": 0.0, "bike_id": "51d82f3d5ffa7669941ac7a93d9efb38"}, {"name": "c1cf392f0d0fa513df4b481228eec362", "is_reserved": 0, "is_disabled": 0, "lon": -77.03987216666667, "rental_uris": {"android": "https://dc.lft.to/lastmile_qr_scan", "ios": "https://dc.lft.to/lastmile_qr_scan"}, "fusion_lon": 0.0, "lat": 38.913381, "type": "electric_scooter", "fusion_lat": 0.0, "bike_id": "c1cf392f0d0fa513df4b481228eec362"}, {"name": "5a2bba964e797308ccf39ea35aa74efb", "is_reserved": 0, "is_disabled": 0, "lon": -77.05909866666667, "rental_uris": {"android": "https://dc.lft.to/lastmile_qr_scan", "ios": "https://dc.lft.to/lastmile_qr_scan"}, "fusion_lon": 0.0, "lat": 38.9100975, "type": "electric_scooter", "fusion_lat": 0.0, "bike_id": "5a2bba964e797308ccf39ea35aa74efb"}, {"name": "c427fbf9e14a573e3209919c6d563c54", "is_reserved": 0, "is_disabled": 0, "lon": -77.0490055, "rental_uris": {"android": "https://dc.lft.to/lastmile_qr_scan", "ios": "https://dc.lft.to/lastmile_qr_scan"}, "fusion_lon": 0.0, "lat": 38.874954333333335, "type": "electric_bike", "fusion_lat": 0.0, "bike_id": "c427fbf9e14a573e3209919c6d563c54"}, {"name": "30402cb25641662a6b076cc1d97f5df9", "is_reserved": 0, "is_disabled": 0, "lon": -77.01610466666666, "rental_uris": {"android": "https://dc.lft.to/lastmile_qr_scan", "ios": "https://dc.lft.to/lastmile_qr_scan"}, "fusion_lon": 0.0, "lat": 38.905919833333336, "type": "electric_scooter", "fusion_lat": 0.0, "bike_id": "30402cb25641662a6b076cc1d97f5df9"}, {"name": "9a3228fbdd8302d952880ed3634106e4", "is_reserved": 0, "is_disabled": 0, "lon": -77.022773, "rental_uris": {"android": "https://dc.lft.to/lastmile_qr_scan", "ios": "https://dc.lft.to/lastmile_qr_scan"}, "fusion_lon": 0.0, "lat": 38.878397166666666, "type": "electric_scooter", "fusion_lat": 0.0, "bike_id": "9a3228fbdd8302d952880ed3634106e4"}, {"name": "1594b4b791686535a0fceaabe1e519da", "is_reserved": 0, "is_disabled": 0, "lon": -77.01336566666667, "rental_uris": {"android": "https://dc.lft.to/lastmile_qr_scan", "ios": "https://dc.lft.to/lastmile_qr_scan"}, "fusion_lon": 0.0, "lat": 38.8812835, "type": "electric_scooter", "fusion_lat": 0.0, "bike_id": "1594b4b791686535a0fceaabe1e519da"}, {"name": "59884c388cad60a1aeee2075c65d841c", "is_reserved": 0, "is_disabled": 0, "lon": -77.03409783333333, "rental_uris": {"android": "https://dc.lft.to/lastmile_qr_scan", "ios": "https://dc.lft.to/lastmile_qr_scan"}, "fusion_lon": 0.0, "lat": 38.90963966666666, "type": "electric_scooter", "fusion_lat": 0.0, "bike_id": "59884c388cad60a1aeee2075c65d841c"}, {"name": "fc4a2a649d248aa7a23422b90ce2540b", "is_reserved": 0, "is_disabled": 0, "lon": -77.01181133333333, "rental_uris": {"android": "https://dc.lft.to/lastmile_qr_scan", "ios": "https://dc.lft.to/lastmile_qr_scan"}, "fusion_lon": 0.0, "lat": 38.897411166666664, "type": "electric_scooter", "fusion_lat": 0.0, "bike_id": "fc4a2a649d248aa7a23422b90ce2540b"}, {"name": "fcd18a444335322cccd9735630d3cdc1", "is_reserved": 0, "is_disabled": 0, "lon": -77.03034683333334, "rental_uris": {"android": "https://dc.lft.to/lastmile_qr_scan", "ios": "https://dc.lft.to/lastmile_qr_scan"}, "fusion_lon": 0.0, "lat": 38.8838605, "type": "electric_scooter", "fusion_lat": 0.0, "bike_id": "fcd18a444335322cccd9735630d3cdc1"}, {"name": "53d5c29b0af93a4f8783b69e2325bd53", "is_reserved": 0, "is_disabled": 0, "lon": -77.0339675, "rental_uris": {"android": "https://dc.lft.to/lastmile_qr_scan", "ios": "https://dc.lft.to/lastmile_qr_scan"}, "fusion_lon": 0.0, "lat": 38.935417, "type": "electric_scooter", "fusion_lat": 0.0, "bike_id": "53d5c29b0af93a4f8783b69e2325bd53"}, {"name": "c010a9ed1eb6f2c2c4e1011fefe5080e", "is_reserved": 0, "is_disabled": 0, "lon": -77.03527683333333, "rental_uris": {"android": "https://dc.lft.to/lastmile_qr_scan", "ios": "https://dc.lft.to/lastmile_qr_scan"}, "fusion_lon": 0.0, "lat": 38.92505, "type": "electric_scooter", "fusion_lat": 0.0, "bike_id": "c010a9ed1eb6f2c2c4e1011fefe5080e"}, {"name": "b6696a556446d59ee51ec627a9312a05", "is_reserved": 0, "is_disabled": 0, "lon": -77.03218383333333, "rental_uris": {"android": "https://dc.lft.to/lastmile_qr_scan", "ios": "https://dc.lft.to/lastmile_qr_scan"}, "fusion_lon": 0.0, "lat": 38.93968133333333, "type": "electric_scooter", "fusion_lat": 0.0, "bike_id": "b6696a556446d59ee51ec627a9312a05"}, {"name": "200b53f1f0e5e595d520ea6f439a5134", "is_reserved": 0, "is_disabled": 0, "lon": -77.06760683333333, "rental_uris": {"android": "https://dc.lft.to/lastmile_qr_scan", "ios": "https://dc.lft.to/lastmile_qr_scan"}, "fusion_lon": 0.0, "lat": 38.9497485, "type": "electric_scooter", "fusion_lat": 0.0, "bike_id": "200b53f1f0e5e595d520ea6f439a5134"}, {"name": "b50c033097dfc9f967ea1a17d07bc620", "is_reserved": 0, "is_disabled": 0, "lon": -77.0227825, "rental_uris": {"android": "https://dc.lft.to/lastmile_qr_scan", "ios": "https://dc.lft.to/lastmile_qr_scan"}, "fusion_lon": 0.0, "lat": 38.917062, "type": "electric_scooter", "fusion_lat": 0.0, "bike_id": "b50c033097dfc9f967ea1a17d07bc620"}, {"name": "13ee5de6e0d20b0c36f418db728b9411", "is_reserved": 0, "is_disabled": 0, "lon": -77.02055066666667, "rental_uris": {"android": "https://dc.lft.to/lastmile_qr_scan", "ios": "https://dc.lft.to/lastmile_qr_scan"}, "fusion_lon": 0.0, "lat": 38.95872133333334, "type": "electric_scooter", "fusion_lat": 0.0, "bike_id": "13ee5de6e0d20b0c36f418db728b9411"}, {"name": "30895568e52b3a7f2cf4c1552f1a090e", "is_reserved": 0, "is_disabled": 0, "lon": -76.97213466666666, "rental_uris": {"android": "https://dc.lft.to/lastmile_qr_scan", "ios": "https://dc.lft.to/lastmile_qr_scan"}, "fusion_lon": 0.0, "lat": 38.8448285, "type": "electric_bike", "fusion_lat": 0.0, "bike_id": "30895568e52b3a7f2cf4c1552f1a090e"}, {"name": "a19f90c0fc1cbffb0d27c8702645cca9", "is_reserved": 0, "is_disabled": 0, "lon": -77.03270916666666, "rental_uris": {"android": "https://dc.lft.to/lastmile_qr_scan", "ios": "https://dc.lft.to/lastmile_qr_scan"}, "fusion_lon": 0.0, "lat": 38.91263266666667, "type": "electric_scooter", "fusion_lat": 0.0, "bike_id": "a19f90c0fc1cbffb0d27c8702645cca9"}, {"name": "f2cf6bbe143a04f775aad799f4d99b89", "is_reserved": 0, "is_disabled": 0, "lon": -77.02152433333333, "rental_uris": {"android": "https://dc.lft.to/lastmile_qr_scan", "ios": "https://dc.lft.to/lastmile_qr_scan"}, "fusion_lon": 0.0, "lat": 38.9260175, "type": "electric_scooter", "fusion_lat": 0.0, "bike_id": "f2cf6bbe143a04f775aad799f4d99b89"}, {"name": "e90bcbb826c71c9b762827e9c7b64cb2", "is_reserved": 0, "is_disabled": 0, "lon": -77.030396, "rental_uris": {"android": "https://dc.lft.to/lastmile_qr_scan", "ios": "https://dc.lft.to/lastmile_qr_scan"}, "fusion_lon": 0.0, "lat": 38.9398315, "type": "electric_scooter", "fusion_lat": 0.0, "bike_id": "e90bcbb826c71c9b762827e9c7b64cb2"}, {"name": "e3d8a478d4ab861e9f4c64242a1ae0e4", "is_reserved": 0, "is_disabled": 0, "lon": -77.0435155, "rental_uris": {"android": "https://dc.lft.to/lastmile_qr_scan", "ios": "https://dc.lft.to/lastmile_qr_scan"}, "fusion_lon": 0.0, "lat": 38.901375333333334, "type": "electric_scooter", "fusion_lat": 0.0, "bike_id": "e3d8a478d4ab861e9f4c64242a1ae0e4"}, {"name": "2a61b15e80fa34bcab2809cde0def535", "is_reserved": 0, "is_disabled": 0, "lon": -77.04363516666666, "rental_uris": {"android": "https://dc.lft.to/lastmile_qr_scan", "ios": "https://dc.lft.to/lastmile_qr_scan"}, "fusion_lon": 0.0, "lat": 38.89237983333334, "type": "electric_scooter", "fusion_lat": 0.0, "bike_id": "2a61b15e80fa34bcab2809cde0def535"}, {"name": "67aaa90be428e7de4a8e4cfdb258aff1", "is_reserved": 0, "is_disabled": 0, "lon": -77.022071, "rental_uris": {"android": "https://dc.lft.to/lastmile_qr_scan", "ios": "https://dc.lft.to/lastmile_qr_scan"}, "fusion_lon": 0.0, "lat": 38.91537066666667, "type": "electric_scooter", "fusion_lat": 0.0, "bike_id": "67aaa90be428e7de4a8e4cfdb258aff1"}, {"name": "61772a0fa2a772d796d3a963bc7d8c8f", "is_reserved": 0, "is_disabled": 0, "lon": -77.02813516666667, "rental_uris": {"android": "https://dc.lft.to/lastmile_qr_scan", "ios": "https://dc.lft.to/lastmile_qr_scan"}, "fusion_lon": 0.0, "lat": 38.892482, "type": "electric_scooter", "fusion_lat": 0.0, "bike_id": "61772a0fa2a772d796d3a963bc7d8c8f"}, {"name": "2720b673bf04ce7b2d4697dfb554d226", "is_reserved": 0, "is_disabled": 0, "lon": -77.01711283333333, "rental_uris": {"android": "https://dc.lft.to/lastmile_qr_scan", "ios": "https://dc.lft.to/lastmile_qr_scan"}, "fusion_lon": 0.0, "lat": 38.9053325, "type": "electric_scooter", "fusion_lat": 0.0, "bike_id": "2720b673bf04ce7b2d4697dfb554d226"}, {"name": "f5ccd685ca822458c73254c989ee01d4", "is_reserved": 0, "is_disabled": 0, "lon": -77.0226595, "rental_uris": {"android": "https://dc.lft.to/lastmile_qr_scan", "ios": "https://dc.lft.to/lastmile_qr_scan"}, "fusion_lon": 0.0, "lat": 38.947171166666664, "type": "electric_scooter", "fusion_lat": 0.0, "bike_id": "f5ccd685ca822458c73254c989ee01d4"}, {"name": "da5325be910e6fe5f5116eac43da126e", "is_reserved": 0, "is_disabled": 0, "lon": -76.98491783333333, "rental_uris": {"android": "https://dc.lft.to/lastmile_qr_scan", "ios": "https://dc.lft.to/lastmile_qr_scan"}, "fusion_lon": 0.0, "lat": 38.88976816666667, "type": "electric_scooter", "fusion_lat": 0.0, "bike_id": "da5325be910e6fe5f5116eac43da126e"}, {"name": "dd98e6d7b3e68b0fabb6a98e37cbdbd0", "is_reserved": 0, "is_disabled": 0, "lon": -77.0027205, "rental_uris": {"android": "https://dc.lft.to/lastmile_qr_scan", "ios": "https://dc.lft.to/lastmile_qr_scan"}, "fusion_lon": 0.0, "lat": 38.903842833333336, "type": "electric_scooter", "fusion_lat": 0.0, "bike_id": "dd98e6d7b3e68b0fabb6a98e37cbdbd0"}, {"name": "bcbb0e525bb3f01d38232fbe98f717c1", "is_reserved": 0, "is_disabled": 0, "lon": -77.02178016666667, "rental_uris": {"android": "https://dc.lft.to/lastmile_qr_scan", "ios": "https://dc.lft.to/lastmile_qr_scan"}, "fusion_lon": 0.0, "lat": 38.920149333333335, "type": "electric_scooter", "fusion_lat": 0.0, "bike_id": "bcbb0e525bb3f01d38232fbe98f717c1"}, {"name": "b74cdd76dd37ffdba16d98b71bd24cb6", "is_reserved": 0, "is_disabled": 0, "lon": -77.00543783333333, "rental_uris": {"android": "https://dc.lft.to/lastmile_qr_scan", "ios": "https://dc.lft.to/lastmile_qr_scan"}, "fusion_lon": 0.0, "lat": 38.8746035, "type": "electric_scooter", "fusion_lat": 0.0, "bike_id": "b74cdd76dd37ffdba16d98b71bd24cb6"}, {"name": "e38690349f238c9e77b4d6b96861abd0", "is_reserved": 0, "is_disabled": 0, "lon": -76.9678715, "rental_uris": {"android": "https://dc.lft.to/lastmile_qr_scan", "ios": "https://dc.lft.to/lastmile_qr_scan"}, "fusion_lon": 0.0, "lat": 38.873414833333335, "type": "electric_scooter", "fusion_lat": 0.0, "bike_id": "e38690349f238c9e77b4d6b96861abd0"}, {"name": "e0ab40b95683e0e2e146b85d44c944f9", "is_reserved": 0, "is_disabled": 0, "lon": -77.06072266666666, "rental_uris": {"android": "https://dc.lft.to/lastmile_qr_scan", "ios": "https://dc.lft.to/lastmile_qr_scan"}, "fusion_lon": 0.0, "lat": 38.905181166666665, "type": "electric_scooter", "fusion_lat": 0.0, "bike_id": "e0ab40b95683e0e2e146b85d44c944f9"}, {"name": "4aaec7503a563005429375197029274e", "is_reserved": 0, "is_disabled": 0, "lon": -77.0230505, "rental_uris": {"android": "https://dc.lft.to/lastmile_qr_scan", "ios": "https://dc.lft.to/lastmile_qr_scan"}, "fusion_lon": 0.0, "lat": 38.91608, "type": "electric_scooter", "fusion_lat": 0.0, "bike_id": "4aaec7503a563005429375197029274e"}, {"name": "92a16556979ff2c0d99133425bf5e08c", "is_reserved": 0, "is_disabled": 0, "lon": -76.99876083333334, "rental_uris": {"android": "https://dc.lft.to/lastmile_qr_scan", "ios": "https://dc.lft.to/lastmile_qr_scan"}, "fusion_lon": 0.0, "lat": 38.920517333333336, "type": "electric_scooter", "fusion_lat": 0.0, "bike_id": "92a16556979ff2c0d99133425bf5e08c"}, {"name": "af8273aa9fc727b207984674b98adeec", "is_reserved": 0, "is_disabled": 0, "lon": -77.04242433333333, "rental_uris": {"android": "https://dc.lft.to/lastmile_qr_scan", "ios": "https://dc.lft.to/lastmile_qr_scan"}, "fusion_lon": 0.0, "lat": 38.9178625, "type": "electric_scooter", "fusion_lat": 0.0, "bike_id": "af8273aa9fc727b207984674b98adeec"}, {"name": "b22786af39e71e06d8a5970b9f59628a", "is_reserved": 0, "is_disabled": 0, "lon": -77.02206366666667, "rental_uris": {"android": "https://dc.lft.to/lastmile_qr_scan", "ios": "https://dc.lft.to/lastmile_qr_scan"}, "fusion_lon": 0.0, "lat": 38.905489833333334, "type": "electric_scooter", "fusion_lat": 0.0, "bike_id": "b22786af39e71e06d8a5970b9f59628a"}, {"name": "95f13f8f6a790c895b61168ea6a79647", "is_reserved": 0, "is_disabled": 0, "lon": -76.94887466666667, "rental_uris": {"android": "https://dc.lft.to/lastmile_qr_scan", "ios": "https://dc.lft.to/lastmile_qr_scan"}, "fusion_lon": 0.0, "lat": 38.89513616666667, "type": "electric_scooter", "fusion_lat": 0.0, "bike_id": "95f13f8f6a790c895b61168ea6a79647"}, {"name": "3481bf6ef6468a442fc494bfaff5ec01", "is_reserved": 0, "is_disabled": 0, "lon": -77.04180716666667, "rental_uris": {"android": "https://dc.lft.to/lastmile_qr_scan", "ios": "https://dc.lft.to/lastmile_qr_scan"}, "fusion_lon": 0.0, "lat": 38.91415683333334, "type": "electric_scooter", "fusion_lat": 0.0, "bike_id": "3481bf6ef6468a442fc494bfaff5ec01"}, {"name": "129f31dbeab3ab529bdc3e7b4dbb47c8", "is_reserved": 0, "is_disabled": 0, "lon": -77.042339, "rental_uris": {"android": "https://dc.lft.to/lastmile_qr_scan", "ios": "https://dc.lft.to/lastmile_qr_scan"}, "fusion_lon": 0.0, "lat": 38.921753333333335, "type": "electric_scooter", "fusion_lat": 0.0, "bike_id": "129f31dbeab3ab529bdc3e7b4dbb47c8"}, {"name": "e3880e89df9cdbf6171a8e27e9eb76c0", "is_reserved": 0, "is_disabled": 0, "lon": -76.995125, "rental_uris": {"android": "https://dc.lft.to/lastmile_qr_scan", "ios": "https://dc.lft.to/lastmile_qr_scan"}, "fusion_lon": 0.0, "lat": 38.89548833333333, "type": "electric_scooter", "fusion_lat": 0.0, "bike_id": "e3880e89df9cdbf6171a8e27e9eb76c0"}, {"name": "63fe2a95620d6e82cfdc5f1069a94784", "is_reserved": 0, "is_disabled": 0, "lon": -77.04236583333333, "rental_uris": {"android": "https://dc.lft.to/lastmile_qr_scan", "ios": "https://dc.lft.to/lastmile_qr_scan"}, "fusion_lon": 0.0, "lat": 38.9225105, "type": "electric_scooter", "fusion_lat": 0.0, "bike_id": "63fe2a95620d6e82cfdc5f1069a94784"}, {"name": "334a003ac3a3119b98f4d941a10019c1", "is_reserved": 0, "is_disabled": 0, "lon": -77.03914933333333, "rental_uris": {"android": "https://dc.lft.to/lastmile_qr_scan", "ios": "https://dc.lft.to/lastmile_qr_scan"}, "fusion_lon": 0.0, "lat": 38.92313216666667, "type": "electric_scooter", "fusion_lat": 0.0, "bike_id": "334a003ac3a3119b98f4d941a10019c1"}, {"name": "75ee2c19145b1e994a6296177272350c", "is_reserved": 0, "is_disabled": 0, "lon": -76.99123616666667, "rental_uris": {"android": "https://dc.lft.to/lastmile_qr_scan", "ios": "https://dc.lft.to/lastmile_qr_scan"}, "fusion_lon": 0.0, "lat": 38.933863333333335, "type": "electric_scooter", "fusion_lat": 0.0, "bike_id": "75ee2c19145b1e994a6296177272350c"}, {"name": "a7f97136d73b970d8c98bc689273cd07", "is_reserved": 0, "is_disabled": 0, "lon": -77.01672333333333, "rental_uris": {"android": "https://dc.lft.to/lastmile_qr_scan", "ios": "https://dc.lft.to/lastmile_qr_scan"}, "fusion_lon": 0.0, "lat": 38.88119866666667, "type": "electric_scooter", "fusion_lat": 0.0, "bike_id": "a7f97136d73b970d8c98bc689273cd07"}, {"name": "44fdf9e0edac3876f1abf1ba9eff89e4", "is_reserved": 0, "is_disabled": 0, "lon": -76.93192, "rental_uris": {"android": "https://dc.lft.to/lastmile_qr_scan", "ios": "https://dc.lft.to/lastmile_qr_scan"}, "fusion_lon": 0.0, "lat": 38.89852233333333, "type": "electric_bike", "fusion_lat": 0.0, "bike_id": "44fdf9e0edac3876f1abf1ba9eff89e4"}, {"name": "b090886925b2f8702839320aad4fd28e", "is_reserved": 0, "is_disabled": 0, "lon": -77.002807, "rental_uris": {"android": "https://dc.lft.to/lastmile_qr_scan", "ios": "https://dc.lft.to/lastmile_qr_scan"}, "fusion_lon": 0.0, "lat": 38.93922366666666, "type": "electric_scooter", "fusion_lat": 0.0, "bike_id": "b090886925b2f8702839320aad4fd28e"}, {"name": "bf2a4811879d933c32df4f3ce0279da8", "is_reserved": 0, "is_disabled": 0, "lon": -77.04707166666667, "rental_uris": {"android": "https://dc.lft.to/lastmile_qr_scan", "ios": "https://dc.lft.to/lastmile_qr_scan"}, "fusion_lon": 0.0, "lat": 38.912664, "type": "electric_scooter", "fusion_lat": 0.0, "bike_id": "bf2a4811879d933c32df4f3ce0279da8"}, {"name": "0b370c8f74a8ad6db8a852b5df0ded6d", "is_reserved": 0, "is_disabled": 0, "lon": -76.988426, "rental_uris": {"android": "https://dc.lft.to/lastmile_qr_scan", "ios": "https://dc.lft.to/lastmile_qr_scan"}, "fusion_lon": 0.0, "lat": 38.902028333333334, "type": "electric_scooter", "fusion_lat": 0.0, "bike_id": "0b370c8f74a8ad6db8a852b5df0ded6d"}, {"name": "c8e109eedf6d4829f2d85786cca89e76", "is_reserved": 0, "is_disabled": 0, "lon": -77.02698333333333, "rental_uris": {"android": "https://dc.lft.to/lastmile_qr_scan", "ios": "https://dc.lft.to/lastmile_qr_scan"}, "fusion_lon": 0.0, "lat": 38.90845016666667, "type": "electric_scooter", "fusion_lat": 0.0, "bike_id": "c8e109eedf6d4829f2d85786cca89e76"}, {"name": "78a46f45303aee3b3b49a3431e6bc7e3", "is_reserved": 0, "is_disabled": 0, "lon": -76.93743483333333, "rental_uris": {"android": "https://dc.lft.to/lastmile_qr_scan", "ios": "https://dc.lft.to/lastmile_qr_scan"}, "fusion_lon": 0.0, "lat": 38.890141666666665, "type": "electric_scooter", "fusion_lat": 0.0, "bike_id": "78a46f45303aee3b3b49a3431e6bc7e3"}, {"name": "beb5d936da970df49a2e23646f7db832", "is_reserved": 0, "is_disabled": 0, "lon": -76.9904135, "rental_uris": {"android": "https://dc.lft.to/lastmile_qr_scan", "ios": "https://dc.lft.to/lastmile_qr_scan"}, "fusion_lon": 0.0, "lat": 38.9027925, "type": "electric_scooter", "fusion_lat": 0.0, "bike_id": "beb5d936da970df49a2e23646f7db832"}, {"name": "b3eec1874558418da2aeccdc2cd41bfe", "is_reserved": 0, "is_disabled": 0, "lon": -76.97410916666666, "rental_uris": {"android": "https://dc.lft.to/lastmile_qr_scan", "ios": "https://dc.lft.to/lastmile_qr_scan"}, "fusion_lon": 0.0, "lat": 38.865759833333335, "type": "electric_scooter", "fusion_lat": 0.0, "bike_id": "b3eec1874558418da2aeccdc2cd41bfe"}, {"name": "97c9b061efd37cadf0454928c4c66cbf", "is_reserved": 0, "is_disabled": 0, "lon": -76.9937125, "rental_uris": {"android": "https://dc.lft.to/lastmile_qr_scan", "ios": "https://dc.lft.to/lastmile_qr_scan"}, "fusion_lon": 0.0, "lat": 38.900552, "type": "electric_scooter", "fusion_lat": 0.0, "bike_id": "97c9b061efd37cadf0454928c4c66cbf"}, {"name": "79ae1e29d5b96aa739aa4db1a11d04aa", "is_reserved": 0, "is_disabled": 0, "lon": -76.98853933333334, "rental_uris": {"android": "https://dc.lft.to/lastmile_qr_scan", "ios": "https://dc.lft.to/lastmile_qr_scan"}, "fusion_lon": 0.0, "lat": 38.903541833333335, "type": "electric_scooter", "fusion_lat": 0.0, "bike_id": "79ae1e29d5b96aa739aa4db1a11d04aa"}, {"name": "24a60f0c83f702ccbb83b2a5f3627d4f", "is_reserved": 0, "is_disabled": 0, "lon": -77.02711866666667, "rental_uris": {"android": "https://dc.lft.to/lastmile_qr_scan", "ios": "https://dc.lft.to/lastmile_qr_scan"}, "fusion_lon": 0.0, "lat": 38.90451483333333, "type": "electric_scooter", "fusion_lat": 0.0, "bike_id": "24a60f0c83f702ccbb83b2a5f3627d4f"}, {"name": "a764b83e6679ea7622b0a835ead1b506", "is_reserved": 0, "is_disabled": 0, "lon": -77.050023, "rental_uris": {"android": "https://dc.lft.to/lastmile_qr_scan", "ios": "https://dc.lft.to/lastmile_qr_scan"}, "fusion_lon": 0.0, "lat": 38.90413916666667, "type": "electric_scooter", "fusion_lat": 0.0, "bike_id": "a764b83e6679ea7622b0a835ead1b506"}, {"name": "21d22f9725679647accff5a62d762f24", "is_reserved": 0, "is_disabled": 0, "lon": -76.978378, "rental_uris": {"android": "https://dc.lft.to/lastmile_qr_scan", "ios": "https://dc.lft.to/lastmile_qr_scan"}, "fusion_lon": 0.0, "lat": 38.89607866666667, "type": "electric_scooter", "fusion_lat": 0.0, "bike_id": "21d22f9725679647accff5a62d762f24"}, {"name": "8f3abf390517fc9a48e80195559648b4", "is_reserved": 0, "is_disabled": 0, "lon": -77.06259033333333, "rental_uris": {"android": "https://dc.lft.to/lastmile_qr_scan", "ios": "https://dc.lft.to/lastmile_qr_scan"}, "fusion_lon": 0.0, "lat": 38.904093, "type": "electric_scooter", "fusion_lat": 0.0, "bike_id": "8f3abf390517fc9a48e80195559648b4"}, {"name": "63b6cc9c864a6e07455c640936719a9f", "is_reserved": 0, "is_disabled": 0, "lon": -77.02506033333333, "rental_uris": {"android": "https://dc.lft.to/lastmile_qr_scan", "ios": "https://dc.lft.to/lastmile_qr_scan"}, "fusion_lon": 0.0, "lat": 38.93286583333333, "type": "electric_scooter", "fusion_lat": 0.0, "bike_id": "63b6cc9c864a6e07455c640936719a9f"}, {"name": "1147620e85febb7fc986b00097e81ac4", "is_reserved": 0, "is_disabled": 0, "lon": -77.0278065, "rental_uris": {"android": "https://dc.lft.to/lastmile_qr_scan", "ios": "https://dc.lft.to/lastmile_qr_scan"}, "fusion_lon": 0.0, "lat": 38.89218233333333, "type": "electric_scooter", "fusion_lat": 0.0, "bike_id": "1147620e85febb7fc986b00097e81ac4"}, {"name": "0fcccd3873867b83987828c25bccca2a", "is_reserved": 0, "is_disabled": 0, "lon": -77.03991366666666, "rental_uris": {"android": "https://dc.lft.to/lastmile_qr_scan", "ios": "https://dc.lft.to/lastmile_qr_scan"}, "fusion_lon": 0.0, "lat": 38.893581833333336, "type": "electric_scooter", "fusion_lat": 0.0, "bike_id": "0fcccd3873867b83987828c25bccca2a"}, {"name": "29adcc066443ac8ac9c6910de115b406", "is_reserved": 0, "is_disabled": 0, "lon": -77.04865433333333, "rental_uris": {"android": "https://dc.lft.to/lastmile_qr_scan", "ios": "https://dc.lft.to/lastmile_qr_scan"}, "fusion_lon": 0.0, "lat": 38.912006, "type": "electric_scooter", "fusion_lat": 0.0, "bike_id": "29adcc066443ac8ac9c6910de115b406"}, {"name": "07dbb8dd10de142f1bcac5191ad75907", "is_reserved": 0, "is_disabled": 0, "lon": -76.99509133333333, "rental_uris": {"android": "https://dc.lft.to/lastmile_qr_scan", "ios": "https://dc.lft.to/lastmile_qr_scan"}, "fusion_lon": 0.0, "lat": 38.8777795, "type": "electric_scooter", "fusion_lat": 0.0, "bike_id": "07dbb8dd10de142f1bcac5191ad75907"}, {"name": "1df45f388c2fabe7a0b7d07f3ebe833e", "is_reserved": 0, "is_disabled": 0, "lon": -77.04241666666667, "rental_uris": {"android": "https://dc.lft.to/lastmile_qr_scan", "ios": "https://dc.lft.to/lastmile_qr_scan"}, "fusion_lon": 0.0, "lat": 38.92226983333333, "type": "electric_scooter", "fusion_lat": 0.0, "bike_id": "1df45f388c2fabe7a0b7d07f3ebe833e"}, {"name": "b14650701dfcfb06d5413794701160a8", "is_reserved": 0, "is_disabled": 0, "lon": -77.046267, "rental_uris": {"android": "https://dc.lft.to/lastmile_qr_scan", "ios": "https://dc.lft.to/lastmile_qr_scan"}, "fusion_lon": 0.0, "lat": 38.9096885, "type": "electric_scooter", "fusion_lat": 0.0, "bike_id": "b14650701dfcfb06d5413794701160a8"}, {"name": "e1a6ebf409c2862d7f295c44e05118c1", "is_reserved": 0, "is_disabled": 0, "lon": -77.043797, "rental_uris": {"android": "https://dc.lft.to/lastmile_qr_scan", "ios": "https://dc.lft.to/lastmile_qr_scan"}, "fusion_lon": 0.0, "lat": 38.920693, "type": "electric_scooter", "fusion_lat": 0.0, "bike_id": "e1a6ebf409c2862d7f295c44e05118c1"}, {"name": "02510395211dadcf9f1998b3eea32ea2", "is_reserved": 0, "is_disabled": 0, "lon": -77.0268365, "rental_uris": {"android": "https://dc.lft.to/lastmile_qr_scan", "ios": "https://dc.lft.to/lastmile_qr_scan"}, "fusion_lon": 0.0, "lat": 38.90973533333333, "type": "electric_scooter", "fusion_lat": 0.0, "bike_id": "02510395211dadcf9f1998b3eea32ea2"}, {"name": "667a3dc60736241974753f4cb0fe55d8", "is_reserved": 0, "is_disabled": 0, "lon": -76.95023383333333, "rental_uris": {"android": "https://dc.lft.to/lastmile_qr_scan", "ios": "https://dc.lft.to/lastmile_qr_scan"}, "fusion_lon": 0.0, "lat": 38.9072645, "type": "electric_scooter", "fusion_lat": 0.0, "bike_id": "667a3dc60736241974753f4cb0fe55d8"}, {"name": "a815e9313580d84f19c57adc4d62a49f", "is_reserved": 0, "is_disabled": 0, "lon": -77.0397645, "rental_uris": {"android": "https://dc.lft.to/lastmile_qr_scan", "ios": "https://dc.lft.to/lastmile_qr_scan"}, "fusion_lon": 0.0, "lat": 38.916402833333336, "type": "electric_scooter", "fusion_lat": 0.0, "bike_id": "a815e9313580d84f19c57adc4d62a49f"}, {"name": "93b63b12843522f8129fa7918fbef01f", "is_reserved": 0, "is_disabled": 0, "lon": -77.028181, "rental_uris": {"android": "https://dc.lft.to/lastmile_qr_scan", "ios": "https://dc.lft.to/lastmile_qr_scan"}, "fusion_lon": 0.0, "lat": 38.914163333333335, "type": "electric_scooter", "fusion_lat": 0.0, "bike_id": "93b63b12843522f8129fa7918fbef01f"}, {"name": "74dac34f14dd4e00cdf2cd82ac585391", "is_reserved": 0, "is_disabled": 0, "lon": -77.02294216666667, "rental_uris": {"android": "https://dc.lft.to/lastmile_qr_scan", "ios": "https://dc.lft.to/lastmile_qr_scan"}, "fusion_lon": 0.0, "lat": 38.908890666666665, "type": "electric_scooter", "fusion_lat": 0.0, "bike_id": "74dac34f14dd4e00cdf2cd82ac585391"}, {"name": "cede2e95bb99bfbd03614b1c5680de11", "is_reserved": 0, "is_disabled": 0, "lon": -77.024816, "rental_uris": {"android": "https://dc.lft.to/lastmile_qr_scan", "ios": "https://dc.lft.to/lastmile_qr_scan"}, "fusion_lon": 0.0, "lat": 38.93283266666667, "type": "electric_scooter", "fusion_lat": 0.0, "bike_id": "cede2e95bb99bfbd03614b1c5680de11"}, {"name": "6054af7e80b36d1d58140233777ae729", "is_reserved": 0, "is_disabled": 0, "lon": -76.98032483333333, "rental_uris": {"android": "https://dc.lft.to/lastmile_qr_scan", "ios": "https://dc.lft.to/lastmile_qr_scan"}, "fusion_lon": 0.0, "lat": 38.8573105, "type": "electric_scooter", "fusion_lat": 0.0, "bike_id": "6054af7e80b36d1d58140233777ae729"}, {"name": "12a94bc28a18f021eae9c13450944663", "is_reserved": 0, "is_disabled": 0, "lon": -76.99612183333333, "rental_uris": {"android": "https://dc.lft.to/lastmile_qr_scan", "ios": "https://dc.lft.to/lastmile_qr_scan"}, "fusion_lon": 0.0, "lat": 38.9033455, "type": "electric_scooter", "fusion_lat": 0.0, "bike_id": "12a94bc28a18f021eae9c13450944663"}, {"name": "0bc2eb857a6a5db4020b8a21599b5a5e", "is_reserved": 0, "is_disabled": 0, "lon": -77.02976216666667, "rental_uris": {"android": "https://dc.lft.to/lastmile_qr_scan", "ios": "https://dc.lft.to/lastmile_qr_scan"}, "fusion_lon": 0.0, "lat": 38.925432, "type": "electric_scooter", "fusion_lat": 0.0, "bike_id": "0bc2eb857a6a5db4020b8a21599b5a5e"}, {"name": "2181294881d8a46b42ca93202332d448", "is_reserved": 0, "is_disabled": 0, "lon": -76.94988966666666, "rental_uris": {"android": "https://dc.lft.to/lastmile_qr_scan", "ios": "https://dc.lft.to/lastmile_qr_scan"}, "fusion_lon": 0.0, "lat": 38.894371166666666, "type": "electric_scooter", "fusion_lat": 0.0, "bike_id": "2181294881d8a46b42ca93202332d448"}, {"name": "7e54e112396a7f38001b6e8c5e4bbac7", "is_reserved": 0, "is_disabled": 0, "lon": -76.99085766666667, "rental_uris": {"android": "https://dc.lft.to/lastmile_qr_scan", "ios": "https://dc.lft.to/lastmile_qr_scan"}, "fusion_lon": 0.0, "lat": 38.862365, "type": "electric_scooter", "fusion_lat": 0.0, "bike_id": "7e54e112396a7f38001b6e8c5e4bbac7"}, {"name": "cda08e6b80b118baf378211dd362c445", "is_reserved": 0, "is_disabled": 0, "lon": -77.03657633333333, "rental_uris": {"android": "https://dc.lft.to/lastmile_qr_scan", "ios": "https://dc.lft.to/lastmile_qr_scan"}, "fusion_lon": 0.0, "lat": 38.912842166666664, "type": "electric_scooter", "fusion_lat": 0.0, "bike_id": "cda08e6b80b118baf378211dd362c445"}, {"name": "a353ced084a3770843e713837b353eee", "is_reserved": 0, "is_disabled": 0, "lon": -76.98728933333334, "rental_uris": {"android": "https://dc.lft.to/lastmile_qr_scan", "ios": "https://dc.lft.to/lastmile_qr_scan"}, "fusion_lon": 0.0, "lat": 38.86709483333333, "type": "electric_scooter", "fusion_lat": 0.0, "bike_id": "a353ced084a3770843e713837b353eee"}, {"name": "f89982711bea5a15765045d2649d2ea2", "is_reserved": 0, "is_disabled": 0, "lon": -77.00916983333333, "rental_uris": {"android": "https://dc.lft.to/lastmile_qr_scan", "ios": "https://dc.lft.to/lastmile_qr_scan"}, "fusion_lon": 0.0, "lat": 38.895580333333335, "type": "electric_scooter", "fusion_lat": 0.0, "bike_id": "f89982711bea5a15765045d2649d2ea2"}, {"name": "92d3a4ad95cee598b6ef4b0315908d0e", "is_reserved": 0, "is_disabled": 0, "lon": -77.01927433333333, "rental_uris": {"android": "https://dc.lft.to/lastmile_qr_scan", "ios": "https://dc.lft.to/lastmile_qr_scan"}, "fusion_lon": 0.0, "lat": 38.94476983333333, "type": "electric_scooter", "fusion_lat": 0.0, "bike_id": "92d3a4ad95cee598b6ef4b0315908d0e"}, {"name": "aa2679a7cf0241c31824943099c44a39", "is_reserved": 0, "is_disabled": 0, "lon": -77.03794833333333, "rental_uris": {"android": "https://dc.lft.to/lastmile_qr_scan", "ios": "https://dc.lft.to/lastmile_qr_scan"}, "fusion_lon": 0.0, "lat": 38.906692666666665, "type": "electric_scooter", "fusion_lat": 0.0, "bike_id": "aa2679a7cf0241c31824943099c44a39"}, {"name": "ad139737a1182900aa2015525f799032", "is_reserved": 0, "is_disabled": 0, "lon": -76.97991183333333, "rental_uris": {"android": "https://dc.lft.to/lastmile_qr_scan", "ios": "https://dc.lft.to/lastmile_qr_scan"}, "fusion_lon": 0.0, "lat": 38.887679166666665, "type": "electric_scooter", "fusion_lat": 0.0, "bike_id": "ad139737a1182900aa2015525f799032"}, {"name": "751d18b5b6bcc444b5ff0e86bb09e38d", "is_reserved": 0, "is_disabled": 0, "lon": -77.02241416666666, "rental_uris": {"android": "https://dc.lft.to/lastmile_qr_scan", "ios": "https://dc.lft.to/lastmile_qr_scan"}, "fusion_lon": 0.0, "lat": 38.916479333333335, "type": "electric_scooter", "fusion_lat": 0.0, "bike_id": "751d18b5b6bcc444b5ff0e86bb09e38d"}, {"name": "4dc0ef7461b935b7d8184aa6087048c9", "is_reserved": 0, "is_disabled": 0, "lon": -77.04386166666667, "rental_uris": {"android": "https://dc.lft.to/lastmile_qr_scan", "ios": "https://dc.lft.to/lastmile_qr_scan"}, "fusion_lon": 0.0, "lat": 38.902277, "type": "electric_scooter", "fusion_lat": 0.0, "bike_id": "4dc0ef7461b935b7d8184aa6087048c9"}, {"name": "6a70ce519573236f16b0e9154c6f6dda", "is_reserved": 0, "is_disabled": 0, "lon": -77.04178833333333, "rental_uris": {"android": "https://dc.lft.to/lastmile_qr_scan", "ios": "https://dc.lft.to/lastmile_qr_scan"}, "fusion_lon": 0.0, "lat": 38.911425333333334, "type": "electric_scooter", "fusion_lat": 0.0, "bike_id": "6a70ce519573236f16b0e9154c6f6dda"}, {"name": "adfa5d78f04ce76307983d30aa05ce5e", "is_reserved": 0, "is_disabled": 0, "lon": -77.003347, "rental_uris": {"android": "https://dc.lft.to/lastmile_qr_scan", "ios": "https://dc.lft.to/lastmile_qr_scan"}, "fusion_lon": 0.0, "lat": 38.8960805, "type": "electric_scooter", "fusion_lat": 0.0, "bike_id": "adfa5d78f04ce76307983d30aa05ce5e"}, {"name": "e9d2904f1e40c563c7bdd49f91abae6b", "is_reserved": 0, "is_disabled": 0, "lon": -77.06628966666666, "rental_uris": {"android": "https://dc.lft.to/lastmile_qr_scan", "ios": "https://dc.lft.to/lastmile_qr_scan"}, "fusion_lon": 0.0, "lat": 38.926711833333336, "type": "electric_scooter", "fusion_lat": 0.0, "bike_id": "e9d2904f1e40c563c7bdd49f91abae6b"}, {"name": "dab3071b3bb10a783023876ff824a275", "is_reserved": 0, "is_disabled": 0, "lon": -77.06849233333334, "rental_uris": {"android": "https://dc.lft.to/lastmile_qr_scan", "ios": "https://dc.lft.to/lastmile_qr_scan"}, "fusion_lon": 0.0, "lat": 38.95204833333333, "type": "electric_scooter", "fusion_lat": 0.0, "bike_id": "dab3071b3bb10a783023876ff824a275"}, {"name": "08626528537c746146f4af435ebc486c", "is_reserved": 0, "is_disabled": 0, "lon": -77.04196466666667, "rental_uris": {"android": "https://dc.lft.to/lastmile_qr_scan", "ios": "https://dc.lft.to/lastmile_qr_scan"}, "fusion_lon": 0.0, "lat": 38.923389, "type": "electric_scooter", "fusion_lat": 0.0, "bike_id": "08626528537c746146f4af435ebc486c"}, {"name": "9147abaf3386db048665eae9d74832ee", "is_reserved": 0, "is_disabled": 0, "lon": -76.94839783333333, "rental_uris": {"android": "https://dc.lft.to/lastmile_qr_scan", "ios": "https://dc.lft.to/lastmile_qr_scan"}, "fusion_lon": 0.0, "lat": 38.894870166666664, "type": "electric_scooter", "fusion_lat": 0.0, "bike_id": "9147abaf3386db048665eae9d74832ee"}, {"name": "2e580f94788c5cb83919dfe80b785b68", "is_reserved": 0, "is_disabled": 0, "lon": -77.0551725, "rental_uris": {"android": "https://dc.lft.to/lastmile_qr_scan", "ios": "https://dc.lft.to/lastmile_qr_scan"}, "fusion_lon": 0.0, "lat": 38.94418433333333, "type": "electric_scooter", "fusion_lat": 0.0, "bike_id": "2e580f94788c5cb83919dfe80b785b68"}, {"name": "f32cc37ad1d58b7fd04ec68291cf99a5", "is_reserved": 0, "is_disabled": 0, "lon": -77.03211283333333, "rental_uris": {"android": "https://dc.lft.to/lastmile_qr_scan", "ios": "https://dc.lft.to/lastmile_qr_scan"}, "fusion_lon": 0.0, "lat": 38.89840233333334, "type": "electric_scooter", "fusion_lat": 0.0, "bike_id": "f32cc37ad1d58b7fd04ec68291cf99a5"}, {"name": "d4eaa978106b146a219f80fb9608eb6b", "is_reserved": 0, "is_disabled": 0, "lon": -76.9485415, "rental_uris": {"android": "https://dc.lft.to/lastmile_qr_scan", "ios": "https://dc.lft.to/lastmile_qr_scan"}, "fusion_lon": 0.0, "lat": 38.88300266666667, "type": "electric_scooter", "fusion_lat": 0.0, "bike_id": "d4eaa978106b146a219f80fb9608eb6b"}, {"name": "1407a9b629900796d9fa13fbbd4a958e", "is_reserved": 0, "is_disabled": 0, "lon": -77.00762616666667, "rental_uris": {"android": "https://dc.lft.to/lastmile_qr_scan", "ios": "https://dc.lft.to/lastmile_qr_scan"}, "fusion_lon": 0.0, "lat": 38.907496333333334, "type": "electric_scooter", "fusion_lat": 0.0, "bike_id": "1407a9b629900796d9fa13fbbd4a958e"}, {"name": "8f10c5e92e95c4b27d04d92d6c9b9222", "is_reserved": 0, "is_disabled": 0, "lon": -77.02981416666667, "rental_uris": {"android": "https://dc.lft.to/lastmile_qr_scan", "ios": "https://dc.lft.to/lastmile_qr_scan"}, "fusion_lon": 0.0, "lat": 38.934482833333334, "type": "electric_bike", "fusion_lat": 0.0, "bike_id": "8f10c5e92e95c4b27d04d92d6c9b9222"}, {"name": "3b71428fd5ec924775e74b266e98842e", "is_reserved": 0, "is_disabled": 0, "lon": -77.03147833333334, "rental_uris": {"android": "https://dc.lft.to/lastmile_qr_scan", "ios": "https://dc.lft.to/lastmile_qr_scan"}, "fusion_lon": 0.0, "lat": 38.887483833333334, "type": "electric_scooter", "fusion_lat": 0.0, "bike_id": "3b71428fd5ec924775e74b266e98842e"}, {"name": "9f356b5a5f70d4618f87ec91dbc3a9f0", "is_reserved": 0, "is_disabled": 0, "lon": -77.06297983333333, "rental_uris": {"android": "https://dc.lft.to/lastmile_qr_scan", "ios": "https://dc.lft.to/lastmile_qr_scan"}, "fusion_lon": 0.0, "lat": 38.90397866666667, "type": "electric_scooter", "fusion_lat": 0.0, "bike_id": "9f356b5a5f70d4618f87ec91dbc3a9f0"}, {"name": "c5e0c09a3ebb2cc301286fbecc1b647e", "is_reserved": 0, "is_disabled": 0, "lon": -77.04232416666666, "rental_uris": {"android": "https://dc.lft.to/lastmile_qr_scan", "ios": "https://dc.lft.to/lastmile_qr_scan"}, "fusion_lon": 0.0, "lat": 38.922435666666665, "type": "electric_scooter", "fusion_lat": 0.0, "bike_id": "c5e0c09a3ebb2cc301286fbecc1b647e"}, {"name": "b279a3f0e637a5cbb9c3b5949a8d7bef", "is_reserved": 0, "is_disabled": 0, "lon": -77.03899333333334, "rental_uris": {"android": "https://dc.lft.to/lastmile_qr_scan", "ios": "https://dc.lft.to/lastmile_qr_scan"}, "fusion_lon": 0.0, "lat": 38.922127833333334, "type": "electric_scooter", "fusion_lat": 0.0, "bike_id": "b279a3f0e637a5cbb9c3b5949a8d7bef"}, {"name": "6584eeeac19692136358814d8153a1d9", "is_reserved": 0, "is_disabled": 0, "lon": -77.02224083333333, "rental_uris": {"android": "https://dc.lft.to/lastmile_qr_scan", "ios": "https://dc.lft.to/lastmile_qr_scan"}, "fusion_lon": 0.0, "lat": 38.90077383333333, "type": "electric_scooter", "fusion_lat": 0.0, "bike_id": "6584eeeac19692136358814d8153a1d9"}, {"name": "009b69ed031769d662ce915a988e6969", "is_reserved": 0, "is_disabled": 0, "lon": -77.032576, "rental_uris": {"android": "https://dc.lft.to/lastmile_qr_scan", "ios": "https://dc.lft.to/lastmile_qr_scan"}, "fusion_lon": 0.0, "lat": 38.92832816666667, "type": "electric_bike", "fusion_lat": 0.0, "bike_id": "009b69ed031769d662ce915a988e6969"}, {"name": "d5211e2ca27e420b9a232698419bab96", "is_reserved": 0, "is_disabled": 0, "lon": -77.0294525, "rental_uris": {"android": "https://dc.lft.to/lastmile_qr_scan", "ios": "https://dc.lft.to/lastmile_qr_scan"}, "fusion_lon": 0.0, "lat": 38.898289166666665, "type": "electric_scooter", "fusion_lat": 0.0, "bike_id": "d5211e2ca27e420b9a232698419bab96"}, {"name": "f523e716e468df14da0cff6d6815bd8b", "is_reserved": 0, "is_disabled": 0, "lon": -77.0245285, "rental_uris": {"android": "https://dc.lft.to/lastmile_qr_scan", "ios": "https://dc.lft.to/lastmile_qr_scan"}, "fusion_lon": 0.0, "lat": 38.92900266666667, "type": "electric_scooter", "fusion_lat": 0.0, "bike_id": "f523e716e468df14da0cff6d6815bd8b"}, {"name": "0d61b184c8787e20d2b61aa3a064f5ac", "is_reserved": 0, "is_disabled": 0, "lon": -77.023448, "rental_uris": {"android": "https://dc.lft.to/lastmile_qr_scan", "ios": "https://dc.lft.to/lastmile_qr_scan"}, "fusion_lon": 0.0, "lat": 38.9312005, "type": "electric_scooter", "fusion_lat": 0.0, "bike_id": "0d61b184c8787e20d2b61aa3a064f5ac"}, {"name": "569bde8e506d50f3a8575cafb8d9f76e", "is_reserved": 0, "is_disabled": 0, "lon": -76.98915033333333, "rental_uris": {"android": "https://dc.lft.to/lastmile_qr_scan", "ios": "https://dc.lft.to/lastmile_qr_scan"}, "fusion_lon": 0.0, "lat": 38.9023945, "type": "electric_scooter", "fusion_lat": 0.0, "bike_id": "569bde8e506d50f3a8575cafb8d9f76e"}, {"name": "773125c7a31aa8091591cacad96eedbe", "is_reserved": 0, "is_disabled": 0, "lon": -77.04661383333334, "rental_uris": {"android": "https://dc.lft.to/lastmile_qr_scan", "ios": "https://dc.lft.to/lastmile_qr_scan"}, "fusion_lon": 0.0, "lat": 38.9042785, "type": "electric_scooter", "fusion_lat": 0.0, "bike_id": "773125c7a31aa8091591cacad96eedbe"}, {"name": "2192469142ac40658fdffa0543eea50f", "is_reserved": 0, "is_disabled": 0, "lon": -77.095526, "rental_uris": {"android": "https://dc.lft.to/lastmile_qr_scan", "ios": "https://dc.lft.to/lastmile_qr_scan"}, "fusion_lon": 0.0, "lat": 38.838083, "type": "electric_bike", "fusion_lat": 0.0, "bike_id": "2192469142ac40658fdffa0543eea50f"}, {"name": "2f5d33db2453c9f047dc22fd66f35547", "is_reserved": 0, "is_disabled": 0, "lon": -77.02851683333333, "rental_uris": {"android": "https://dc.lft.to/lastmile_qr_scan", "ios": "https://dc.lft.to/lastmile_qr_scan"}, "fusion_lon": 0.0, "lat": 38.93272566666667, "type": "electric_scooter", "fusion_lat": 0.0, "bike_id": "2f5d33db2453c9f047dc22fd66f35547"}, {"name": "b617d601a78d54b12ae94aa125e78a64", "is_reserved": 0, "is_disabled": 0, "lon": -77.0658125, "rental_uris": {"android": "https://dc.lft.to/lastmile_qr_scan", "ios": "https://dc.lft.to/lastmile_qr_scan"}, "fusion_lon": 0.0, "lat": 38.903458, "type": "electric_scooter", "fusion_lat": 0.0, "bike_id": "b617d601a78d54b12ae94aa125e78a64"}, {"name": "82d27f767790047595e7954cde6b15e8", "is_reserved": 0, "is_disabled": 0, "lon": -77.030856, "rental_uris": {"android": "https://dc.lft.to/lastmile_qr_scan", "ios": "https://dc.lft.to/lastmile_qr_scan"}, "fusion_lon": 0.0, "lat": 38.8999265, "type": "electric_scooter", "fusion_lat": 0.0, "bike_id": "82d27f767790047595e7954cde6b15e8"}, {"name": "82b1e0709d839363206035046fec0381", "is_reserved": 0, "is_disabled": 0, "lon": -77.013349, "rental_uris": {"android": "https://dc.lft.to/lastmile_qr_scan", "ios": "https://dc.lft.to/lastmile_qr_scan"}, "fusion_lon": 0.0, "lat": 38.88134016666667, "type": "electric_scooter", "fusion_lat": 0.0, "bike_id": "82b1e0709d839363206035046fec0381"}, {"name": "399919659e5651c5df2114c8952ad9ef", "is_reserved": 0, "is_disabled": 0, "lon": -77.01134383333333, "rental_uris": {"android": "https://dc.lft.to/lastmile_qr_scan", "ios": "https://dc.lft.to/lastmile_qr_scan"}, "fusion_lon": 0.0, "lat": 38.88529416666667, "type": "electric_scooter", "fusion_lat": 0.0, "bike_id": "399919659e5651c5df2114c8952ad9ef"}, {"name": "ae375957eb73dcf121e5218bf36496ae", "is_reserved": 0, "is_disabled": 0, "lon": -77.02823366666667, "rental_uris": {"android": "https://dc.lft.to/lastmile_qr_scan", "ios": "https://dc.lft.to/lastmile_qr_scan"}, "fusion_lon": 0.0, "lat": 38.93070516666667, "type": "electric_scooter", "fusion_lat": 0.0, "bike_id": "ae375957eb73dcf121e5218bf36496ae"}, {"name": "5fbaf461f16a409f1fa8c14b6a68b943", "is_reserved": 0, "is_disabled": 0, "lon": -77.03837533333333, "rental_uris": {"android": "https://dc.lft.to/lastmile_qr_scan", "ios": "https://dc.lft.to/lastmile_qr_scan"}, "fusion_lon": 0.0, "lat": 38.9039245, "type": "electric_scooter", "fusion_lat": 0.0, "bike_id": "5fbaf461f16a409f1fa8c14b6a68b943"}, {"name": "de72c5666c9862825c7472daac689a50", "is_reserved": 0, "is_disabled": 0, "lon": -77.02866533333334, "rental_uris": {"android": "https://dc.lft.to/lastmile_qr_scan", "ios": "https://dc.lft.to/lastmile_qr_scan"}, "fusion_lon": 0.0, "lat": 38.90145733333333, "type": "electric_scooter", "fusion_lat": 0.0, "bike_id": "de72c5666c9862825c7472daac689a50"}, {"name": "b584cce14b0647195fdaaaff057551a0", "is_reserved": 0, "is_disabled": 0, "lon": -77.01579433333333, "rental_uris": {"android": "https://dc.lft.to/lastmile_qr_scan", "ios": "https://dc.lft.to/lastmile_qr_scan"}, "fusion_lon": 0.0, "lat": 38.87684566666667, "type": "electric_scooter", "fusion_lat": 0.0, "bike_id": "b584cce14b0647195fdaaaff057551a0"}, {"name": "e847f0137fb311ad9783b99d815d1542", "is_reserved": 0, "is_disabled": 0, "lon": -77.04244666666666, "rental_uris": {"android": "https://dc.lft.to/lastmile_qr_scan", "ios": "https://dc.lft.to/lastmile_qr_scan"}, "fusion_lon": 0.0, "lat": 38.917917, "type": "electric_scooter", "fusion_lat": 0.0, "bike_id": "e847f0137fb311ad9783b99d815d1542"}, {"name": "ebe7dfbd0b026b8145b18ad4107ae568", "is_reserved": 0, "is_disabled": 0, "lon": -77.10495883333333, "rental_uris": {"android": "https://dc.lft.to/lastmile_qr_scan", "ios": "https://dc.lft.to/lastmile_qr_scan"}, "fusion_lon": 0.0, "lat": 38.928474333333334, "type": "electric_bike", "fusion_lat": 0.0, "bike_id": "ebe7dfbd0b026b8145b18ad4107ae568"}, {"name": "d290ed5f62854a0b2d4b5b6126b355a1", "is_reserved": 0, "is_disabled": 0, "lon": -77.04345983333333, "rental_uris": {"android": "https://dc.lft.to/lastmile_qr_scan", "ios": "https://dc.lft.to/lastmile_qr_scan"}, "fusion_lon": 0.0, "lat": 38.8985905, "type": "electric_scooter", "fusion_lat": 0.0, "bike_id": "d290ed5f62854a0b2d4b5b6126b355a1"}, {"name": "221b352539830af60e972f41d7a4467e", "is_reserved": 0, "is_disabled": 0, "lon": -76.93158516666666, "rental_uris": {"android": "https://dc.lft.to/lastmile_qr_scan", "ios": "https://dc.lft.to/lastmile_qr_scan"}, "fusion_lon": 0.0, "lat": 38.8988005, "type": "electric_scooter", "fusion_lat": 0.0, "bike_id": "221b352539830af60e972f41d7a4467e"}, {"name": "c95f92c7d350dbfaa3a477396e429515", "is_reserved": 0, "is_disabled": 0, "lon": -77.06159616666666, "rental_uris": {"android": "https://dc.lft.to/lastmile_qr_scan", "ios": "https://dc.lft.to/lastmile_qr_scan"}, "fusion_lon": 0.0, "lat": 38.94224233333333, "type": "electric_scooter", "fusion_lat": 0.0, "bike_id": "c95f92c7d350dbfaa3a477396e429515"}, {"name": "dc74c2d45ff4c5491ff56e8fa3a9027a", "is_reserved": 0, "is_disabled": 0, "lon": -77.02428983333333, "rental_uris": {"android": "https://dc.lft.to/lastmile_qr_scan", "ios": "https://dc.lft.to/lastmile_qr_scan"}, "fusion_lon": 0.0, "lat": 38.905669833333334, "type": "electric_scooter", "fusion_lat": 0.0, "bike_id": "dc74c2d45ff4c5491ff56e8fa3a9027a"}, {"name": "288da854942f8470163cd3672eca8e5c", "is_reserved": 0, "is_disabled": 0, "lon": -77.02176983333334, "rental_uris": {"android": "https://dc.lft.to/lastmile_qr_scan", "ios": "https://dc.lft.to/lastmile_qr_scan"}, "fusion_lon": 0.0, "lat": 38.9060775, "type": "electric_scooter", "fusion_lat": 0.0, "bike_id": "288da854942f8470163cd3672eca8e5c"}, {"name": "2a917a6c01d99cbc879d8583c69d5b41", "is_reserved": 0, "is_disabled": 0, "lon": -76.98675166666666, "rental_uris": {"android": "https://dc.lft.to/lastmile_qr_scan", "ios": "https://dc.lft.to/lastmile_qr_scan"}, "fusion_lon": 0.0, "lat": 38.85574233333333, "type": "electric_scooter", "fusion_lat": 0.0, "bike_id": "2a917a6c01d99cbc879d8583c69d5b41"}, {"name": "42eb7b1522cdd19b1bf23cefb354d18b", "is_reserved": 0, "is_disabled": 0, "lon": -77.02419066666667, "rental_uris": {"android": "https://dc.lft.to/lastmile_qr_scan", "ios": "https://dc.lft.to/lastmile_qr_scan"}, "fusion_lon": 0.0, "lat": 38.89230966666667, "type": "electric_scooter", "fusion_lat": 0.0, "bike_id": "42eb7b1522cdd19b1bf23cefb354d18b"}, {"name": "95a22741e6df47e0de99a932dcb008fd", "is_reserved": 0, "is_disabled": 0, "lon": -77.04367116666667, "rental_uris": {"android": "https://dc.lft.to/lastmile_qr_scan", "ios": "https://dc.lft.to/lastmile_qr_scan"}, "fusion_lon": 0.0, "lat": 38.921549166666665, "type": "electric_scooter", "fusion_lat": 0.0, "bike_id": "95a22741e6df47e0de99a932dcb008fd"}, {"name": "c8ac73a551b2e63a7dce2ae00b884845", "is_reserved": 0, "is_disabled": 0, "lon": -77.04446066666667, "rental_uris": {"android": "https://dc.lft.to/lastmile_qr_scan", "ios": "https://dc.lft.to/lastmile_qr_scan"}, "fusion_lon": 0.0, "lat": 38.91121366666667, "type": "electric_scooter", "fusion_lat": 0.0, "bike_id": "c8ac73a551b2e63a7dce2ae00b884845"}, {"name": "b73b16625625ef5d88342cdd52cb4871", "is_reserved": 0, "is_disabled": 0, "lon": -76.9877465, "rental_uris": {"android": "https://dc.lft.to/lastmile_qr_scan", "ios": "https://dc.lft.to/lastmile_qr_scan"}, "fusion_lon": 0.0, "lat": 38.91201316666667, "type": "electric_scooter", "fusion_lat": 0.0, "bike_id": "b73b16625625ef5d88342cdd52cb4871"}, {"name": "dd845ac904de42e9b759592ee63c2082", "is_reserved": 0, "is_disabled": 0, "lon": -76.941204, "rental_uris": {"android": "https://dc.lft.to/lastmile_qr_scan", "ios": "https://dc.lft.to/lastmile_qr_scan"}, "fusion_lon": 0.0, "lat": 38.907936666666664, "type": "electric_scooter", "fusion_lat": 0.0, "bike_id": "dd845ac904de42e9b759592ee63c2082"}, {"name": "fda48fd2e734cccadae418502ed35015", "is_reserved": 0, "is_disabled": 0, "lon": -77.04709233333334, "rental_uris": {"android": "https://dc.lft.to/lastmile_qr_scan", "ios": "https://dc.lft.to/lastmile_qr_scan"}, "fusion_lon": 0.0, "lat": 38.89951766666667, "type": "electric_scooter", "fusion_lat": 0.0, "bike_id": "fda48fd2e734cccadae418502ed35015"}, {"name": "41d524f75b4c6764f285f54c05b77e22", "is_reserved": 0, "is_disabled": 0, "lon": -77.03093183333333, "rental_uris": {"android": "https://dc.lft.to/lastmile_qr_scan", "ios": "https://dc.lft.to/lastmile_qr_scan"}, "fusion_lon": 0.0, "lat": 38.89993, "type": "electric_scooter", "fusion_lat": 0.0, "bike_id": "41d524f75b4c6764f285f54c05b77e22"}, {"name": "9aa81e25b583655b82f0d041f5905981", "is_reserved": 0, "is_disabled": 0, "lon": -76.968356, "rental_uris": {"android": "https://dc.lft.to/lastmile_qr_scan", "ios": "https://dc.lft.to/lastmile_qr_scan"}, "fusion_lon": 0.0, "lat": 38.924467166666666, "type": "electric_bike", "fusion_lat": 0.0, "bike_id": "9aa81e25b583655b82f0d041f5905981"}, {"name": "db1b2bc5946733d821997a8827293a00", "is_reserved": 0, "is_disabled": 0, "lon": -77.03634483333333, "rental_uris": {"android": "https://dc.lft.to/lastmile_qr_scan", "ios": "https://dc.lft.to/lastmile_qr_scan"}, "fusion_lon": 0.0, "lat": 38.931722666666666, "type": "electric_scooter", "fusion_lat": 0.0, "bike_id": "db1b2bc5946733d821997a8827293a00"}, {"name": "3d4a24d1a7b4afbec6ff3f778569e5d7", "is_reserved": 0, "is_disabled": 0, "lon": -77.03799683333334, "rental_uris": {"android": "https://dc.lft.to/lastmile_qr_scan", "ios": "https://dc.lft.to/lastmile_qr_scan"}, "fusion_lon": 0.0, "lat": 38.9232415, "type": "electric_scooter", "fusion_lat": 0.0, "bike_id": "3d4a24d1a7b4afbec6ff3f778569e5d7"}, {"name": "1f344794516b7d9acab006e9ce3b0ba7", "is_reserved": 0, "is_disabled": 0, "lon": -77.015044, "rental_uris": {"android": "https://dc.lft.to/lastmile_qr_scan", "ios": "https://dc.lft.to/lastmile_qr_scan"}, "fusion_lon": 0.0, "lat": 38.884487, "type": "electric_scooter", "fusion_lat": 0.0, "bike_id": "1f344794516b7d9acab006e9ce3b0ba7"}, {"name": "023b82c9879723b48a404700653e0e5d", "is_reserved": 0, "is_disabled": 0, "lon": -77.038437, "rental_uris": {"android": "https://dc.lft.to/lastmile_qr_scan", "ios": "https://dc.lft.to/lastmile_qr_scan"}, "fusion_lon": 0.0, "lat": 38.913295166666664, "type": "electric_scooter", "fusion_lat": 0.0, "bike_id": "023b82c9879723b48a404700653e0e5d"}, {"name": "01947856cf891ce91326c251c9c35796", "is_reserved": 0, "is_disabled": 0, "lon": -76.9650375, "rental_uris": {"android": "https://dc.lft.to/lastmile_qr_scan", "ios": "https://dc.lft.to/lastmile_qr_scan"}, "fusion_lon": 0.0, "lat": 38.87647533333333, "type": "electric_scooter", "fusion_lat": 0.0, "bike_id": "01947856cf891ce91326c251c9c35796"}, {"name": "352b22525221837d59d268e74b5e355a", "is_reserved": 0, "is_disabled": 0, "lon": -77.00573683333333, "rental_uris": {"android": "https://dc.lft.to/lastmile_qr_scan", "ios": "https://dc.lft.to/lastmile_qr_scan"}, "fusion_lon": 0.0, "lat": 38.87556033333333, "type": "electric_scooter", "fusion_lat": 0.0, "bike_id": "352b22525221837d59d268e74b5e355a"}, {"name": "38c82f328de3adeb67c9f3efab693535", "is_reserved": 0, "is_disabled": 0, "lon": -76.9832685, "rental_uris": {"android": "https://dc.lft.to/lastmile_qr_scan", "ios": "https://dc.lft.to/lastmile_qr_scan"}, "fusion_lon": 0.0, "lat": 38.86173216666667, "type": "electric_scooter", "fusion_lat": 0.0, "bike_id": "38c82f328de3adeb67c9f3efab693535"}, {"name": "ae34a7351799a03f28dce0fb075e8efd", "is_reserved": 0, "is_disabled": 0, "lon": -77.1526795, "rental_uris": {"android": "https://dc.lft.to/lastmile_qr_scan", "ios": "https://dc.lft.to/lastmile_qr_scan"}, "fusion_lon": 0.0, "lat": 39.105683666666664, "type": "electric_bike", "fusion_lat": 0.0, "bike_id": "ae34a7351799a03f28dce0fb075e8efd"}, {"name": "887f47f53effd6d3c2ddd67ff0b35706", "is_reserved": 0, "is_disabled": 0, "lon": -77.03312433333333, "rental_uris": {"android": "https://dc.lft.to/lastmile_qr_scan", "ios": "https://dc.lft.to/lastmile_qr_scan"}, "fusion_lon": 0.0, "lat": 38.960322, "type": "electric_scooter", "fusion_lat": 0.0, "bike_id": "887f47f53effd6d3c2ddd67ff0b35706"}, {"name": "38da021455f582c256ce40aaee3186e5", "is_reserved": 0, "is_disabled": 0, "lon": -77.026953, "rental_uris": {"android": "https://dc.lft.to/lastmile_qr_scan", "ios": "https://dc.lft.to/lastmile_qr_scan"}, "fusion_lon": 0.0, "lat": 38.91249533333333, "type": "electric_scooter", "fusion_lat": 0.0, "bike_id": "38da021455f582c256ce40aaee3186e5"}, {"name": "28066137836cf4760a3eeec260e01cff", "is_reserved": 0, "is_disabled": 0, "lon": -76.97911533333334, "rental_uris": {"android": "https://dc.lft.to/lastmile_qr_scan", "ios": "https://dc.lft.to/lastmile_qr_scan"}, "fusion_lon": 0.0, "lat": 38.894378333333336, "type": "electric_scooter", "fusion_lat": 0.0, "bike_id": "28066137836cf4760a3eeec260e01cff"}, {"name": "a87433bd673ea4e5eac94b4f7238eb2d", "is_reserved": 0, "is_disabled": 0, "lon": -77.10683933333334, "rental_uris": {"android": "https://dc.lft.to/lastmile_qr_scan", "ios": "https://dc.lft.to/lastmile_qr_scan"}, "fusion_lon": 0.0, "lat": 38.935846833333336, "type": "electric_bike", "fusion_lat": 0.0, "bike_id": "a87433bd673ea4e5eac94b4f7238eb2d"}, {"name": "fb2532aa0a9192b45675663232f2b9ff", "is_reserved": 0, "is_disabled": 0, "lon": -77.00611033333334, "rental_uris": {"android": "https://dc.lft.to/lastmile_qr_scan", "ios": "https://dc.lft.to/lastmile_qr_scan"}, "fusion_lon": 0.0, "lat": 38.8718085, "type": "electric_scooter", "fusion_lat": 0.0, "bike_id": "fb2532aa0a9192b45675663232f2b9ff"}, {"name": "63e597bf28e0395892fcb47bba0dc7da", "is_reserved": 0, "is_disabled": 0, "lon": -77.005507, "rental_uris": {"android": "https://dc.lft.to/lastmile_qr_scan", "ios": "https://dc.lft.to/lastmile_qr_scan"}, "fusion_lon": 0.0, "lat": 38.8747405, "type": "electric_scooter", "fusion_lat": 0.0, "bike_id": "63e597bf28e0395892fcb47bba0dc7da"}, {"name": "925a36748c80d93478ca617c6f39616e", "is_reserved": 0, "is_disabled": 0, "lon": -77.02225133333333, "rental_uris": {"android": "https://dc.lft.to/lastmile_qr_scan", "ios": "https://dc.lft.to/lastmile_qr_scan"}, "fusion_lon": 0.0, "lat": 38.8922385, "type": "electric_scooter", "fusion_lat": 0.0, "bike_id": "925a36748c80d93478ca617c6f39616e"}, {"name": "c6b6715e282f27b22ad20f8e16261ebc", "is_reserved": 0, "is_disabled": 0, "lon": -77.0269735, "rental_uris": {"android": "https://dc.lft.to/lastmile_qr_scan", "ios": "https://dc.lft.to/lastmile_qr_scan"}, "fusion_lon": 0.0, "lat": 38.8962415, "type": "electric_scooter", "fusion_lat": 0.0, "bike_id": "c6b6715e282f27b22ad20f8e16261ebc"}, {"name": "8b026283d45410f321fba444adc034ee", "is_reserved": 0, "is_disabled": 0, "lon": -77.030693, "rental_uris": {"android": "https://dc.lft.to/lastmile_qr_scan", "ios": "https://dc.lft.to/lastmile_qr_scan"}, "fusion_lon": 0.0, "lat": 38.916635666666664, "type": "electric_scooter", "fusion_lat": 0.0, "bike_id": "8b026283d45410f321fba444adc034ee"}, {"name": "d0a9b07310e6f2ae1a750f7d4f883512", "is_reserved": 0, "is_disabled": 0, "lon": -76.997544, "rental_uris": {"android": "https://dc.lft.to/lastmile_qr_scan", "ios": "https://dc.lft.to/lastmile_qr_scan"}, "fusion_lon": 0.0, "lat": 38.900513333333336, "type": "electric_scooter", "fusion_lat": 0.0, "bike_id": "d0a9b07310e6f2ae1a750f7d4f883512"}, {"name": "2b572d60a56f1af8d1367cd3a793edc2", "is_reserved": 0, "is_disabled": 0, "lon": -77.04196916666666, "rental_uris": {"android": "https://dc.lft.to/lastmile_qr_scan", "ios": "https://dc.lft.to/lastmile_qr_scan"}, "fusion_lon": 0.0, "lat": 38.892235166666666, "type": "electric_scooter", "fusion_lat": 0.0, "bike_id": "2b572d60a56f1af8d1367cd3a793edc2"}, {"name": "29acaeefa9e2adb87aa792ba580d978c", "is_reserved": 0, "is_disabled": 0, "lon": -77.031012, "rental_uris": {"android": "https://dc.lft.to/lastmile_qr_scan", "ios": "https://dc.lft.to/lastmile_qr_scan"}, "fusion_lon": 0.0, "lat": 38.925723833333336, "type": "electric_scooter", "fusion_lat": 0.0, "bike_id": "29acaeefa9e2adb87aa792ba580d978c"}, {"name": "5236f8c238ca8077060bc1b5692febb2", "is_reserved": 0, "is_disabled": 0, "lon": -77.01390516666666, "rental_uris": {"android": "https://dc.lft.to/lastmile_qr_scan", "ios": "https://dc.lft.to/lastmile_qr_scan"}, "fusion_lon": 0.0, "lat": 38.88029916666667, "type": "electric_scooter", "fusion_lat": 0.0, "bike_id": "5236f8c238ca8077060bc1b5692febb2"}, {"name": "17c973c771fbfdbeeeac1169e638c2aa", "is_reserved": 0, "is_disabled": 0, "lon": -76.9670425, "rental_uris": {"android": "https://dc.lft.to/lastmile_qr_scan", "ios": "https://dc.lft.to/lastmile_qr_scan"},