{"data": {"bikes": [{"lon": -77.028443, "lat": 38.92573066666667, "rental_uris": {"ios": "https://dc.lft.to/lastmile_qr_scan", "android": "https://dc.lft.to/lastmile_qr_scan"}, "bike_id": "f3b799fc0e69ba449bb8a4cd8f350746", "type": "electric_scooter", "is_disabled": 0, "fusion_lat": 0.0, "fusion_lon": 0.0, "is_reserved": 0, "name": "f3b799fc0e69ba449bb8a4cd8f350746"}, {"lon": -77.0348375, "lat": 38.92335083333333, "rental_uris": {"ios": "https://dc.lft.to/lastmile_qr_scan", "android": "https://dc.lft.to/lastmile_qr_scan"}, "bike_id": "89239676f8c34bd67f7d254f5bdb10c0", "type": "electric_scooter", "is_disabled": 0, "fusion_lat": 0.0, "fusion_lon": 0.0, "is_reserved": 0, "name": "89239676f8c34bd67f7d254f5bdb10c0"}, {"lon": -76.98539583333333, "lat": 38.91023583333333, "rental_uris": {"ios": "https://dc.lft.to/lastmile_qr_scan", "android": "https://dc.lft.to/lastmile_qr_scan"}, "bike_id": "294b5fb40df9cfb81412aa53bc80fddc", "type": "electric_scooter", "is_disabled": 0, "fusion_lat": 0.0, "fusion_lon": 0.0, "is_reserved": 0, "name": "294b5fb40df9cfb81412aa53bc80fddc"}, {"lon": -76.961508, "lat": 38.8835265, "rental_uris": {"ios": "https://dc.lft.to/lastmile_qr_scan", "android": "https://dc.lft.to/lastmile_qr_scan"}, "bike_id": "c31ace165e7720a7d996a5e49c642721", "type": "electric_scooter", "is_disabled": 0, "fusion_lat": 0.0, "fusion_lon": 0.0, "is_reserved": 0, "name": "c31ace165e7720a7d996a5e49c642721"}, {"lon": -77.02803933333334, "lat": 38.89972566666667, "rental_uris": {"ios": "https://dc.lft.to/lastmile_qr_scan", "android": "https://dc.lft.to/lastmile_qr_scan"}, "bike_id": "98ba0dd78c08c4584f97fee3e372b694", "type": "electric_scooter", "is_disabled": 0, "fusion_lat": 0.0, "fusion_lon": 0.0, "is_reserved": 0, "name": "98ba0dd78c08c4584f97fee3e372b694"}, {"lon": -76.98586716666667, "lat": 38.860554, "rental_uris": {"ios": "https://dc.lft.to/lastmile_qr_scan", "android": "https://dc.lft.to/lastmile_qr_scan"}, "bike_id": "2126ea401b646b84b92d3514a1c4e114", "type": "electric_scooter", "is_disabled": 0, "fusion_lat": 0.0, "fusion_lon": 0.0, "is_reserved": 0, "name": "2126ea401b646b84b92d3514a1c4e114"}, {"lon": -77.04033866666667, "lat": 38.9037125, "rental_uris": {"ios": "https://dc.lft.to/lastmile_qr_scan", "android": "https://dc.lft.to/lastmile_qr_scan"}, "bike_id": "508f7cecebc6bef955b2d8ac1f7817f4", "type": "electric_scooter", "is_disabled": 0, "fusion_lat": 0.0, "fusion_lon": 0.0, "is_reserved": 0, "name": "508f7cecebc6bef955b2d8ac1f7817f4"}, {"lon": -77.04446483333334, "lat": 38.918819166666665, "rental_uris": {"ios": "https://dc.lft.to/lastmile_qr_scan", "android": "https://dc.lft.to/lastmile_qr_scan"}, "bike_id": "1b99f1e08150f1d89b8c9fbb4e3db333", "type": "electric_scooter", "is_disabled": 0, "fusion_lat": 0.0, "fusion_lon": 0.0, "is_reserved": 0, "name": "1b99f1e08150f1d89b8c9fbb4e3db333"}, {"lon": -77.04218583333333, "lat": 38.920832, "rental_uris": {"ios": "https://dc.lft.to/lastmile_qr_scan", "android": "https://dc.lft.to/lastmile_qr_scan"}, "bike_id": "34aaff472590488741a200030166c589", "type": "electric_scooter", "is_disabled": 0, "fusion_lat": 0.0, "fusion_lon": 0.0, "is_reserved": 0, "name": "34aaff472590488741a200030166c589"}, {"lon": -76.987171, "lat": 38.86706, "rental_uris": {"ios": "https://dc.lft.to/lastmile_qr_scan", "android": "https://dc.lft.to/lastmile_qr_scan"}, "bike_id": "da36b18a94976f51efe9c48d3e6c817f", "type": "electric_scooter", "is_disabled": 0, "fusion_lat": 0.0, "fusion_lon": 0.0, "is_reserved": 0, "name": "da36b18a94976f51efe9c48d3e6c817f"}, {"lon": -77.04505616666667, "lat": 38.911065, "rental_uris": {"ios": "https://dc.lft.to/lastmile_qr_scan", "android": "https://dc.lft.to/lastmile_qr_scan"}, "bike_id": "1deb961720ee6c399d523faf84d620b4", "type": "electric_scooter", "is_disabled": 0, "fusion_lat": 0.0, "fusion_lon": 0.0, "is_reserved": 0, "name": "1deb961720ee6c399d523faf84d620b4"}, {"lon": -77.04241566666667, "lat": 38.92426416666667, "rental_uris": {"ios": "https://dc.lft.to/lastmile_qr_scan", "android": "https://dc.lft.to/lastmile_qr_scan"}, "bike_id": "fe1aa3305ac88368000579573134380b", "type": "electric_scooter", "is_disabled": 0, "fusion_lat": 0.0, "fusion_lon": 0.0, "is_reserved": 0, "name": "fe1aa3305ac88368000579573134380b"}, {"lon": -77.0311935, "lat": 38.91705283333334, "rental_uris": {"ios": "https://dc.lft.to/lastmile_qr_scan", "android": "https://dc.lft.to/lastmile_qr_scan"}, "bike_id": "6f677eb836f087484b171541b6cf10d6", "type": "electric_scooter", "is_disabled": 0, "fusion_lat": 0.0, "fusion_lon": 0.0, "is_reserved": 0, "name": "6f677eb836f087484b171541b6cf10d6"}, {"lon": -77.001866, "lat": 38.8219735, "rental_uris": {"ios": "https://dc.lft.to/lastmile_qr_scan", "android": "https://dc.lft.to/lastmile_qr_scan"}, "bike_id": "9482594a822c209814fcaefb4797f4c7", "type": "electric_scooter", "is_disabled": 0, "fusion_lat": 0.0, "fusion_lon": 0.0, "is_reserved": 0, "name": "9482594a822c209814fcaefb4797f4c7"}, {"lon": -77.10600583333333, "lat": 38.928975333333334, "rental_uris": {"ios": "https://dc.lft.to/lastmile_qr_scan", "android": "https://dc.lft.to/lastmile_qr_scan"}, "bike_id": "3f5457ad676843924217d3330317dc57", "type": "electric_bike", "is_disabled": 0, "fusion_lat": 0.0, "fusion_lon": 0.0, "is_reserved": 0, "name": "3f5457ad676843924217d3330317dc57"}, {"lon": -77.02203883333334, "lat": 38.91375083333333, "rental_uris": {"ios": "https://dc.lft.to/lastmile_qr_scan", "android": "https://dc.lft.to/lastmile_qr_scan"}, "bike_id": "41d5cfd3f38615f1cfdf389767ec059e", "type": "electric_scooter", "is_disabled": 0, "fusion_lat": 0.0, "fusion_lon": 0.0, "is_reserved": 0, "name": "41d5cfd3f38615f1cfdf389767ec059e"}, {"lon": -77.04348133333333, "lat": 38.90722933333333, "rental_uris": {"ios": "https://dc.lft.to/lastmile_qr_scan", "android": "https://dc.lft.to/lastmile_qr_scan"}, "bike_id": "8414a8d6a14fec5b088134b144716ec0", "type": "electric_scooter", "is_disabled": 0, "fusion_lat": 0.0, "fusion_lon": 0.0, "is_reserved": 0, "name": "8414a8d6a14fec5b088134b144716ec0"}, {"lon": -77.036256, "lat": 38.9180475, "rental_uris": {"ios": "https://dc.lft.to/lastmile_qr_scan", "android": "https://dc.lft.to/lastmile_qr_scan"}, "bike_id": "30cc7547dcd909f2455339858af6e695", "type": "electric_scooter", "is_disabled": 0, "fusion_lat": 0.0, "fusion_lon": 0.0, "is_reserved": 0, "name": "30cc7547dcd909f2455339858af6e695"}, {"lon": -77.03860916666666, "lat": 38.93197116666666, "rental_uris": {"ios": "https://dc.lft.to/lastmile_qr_scan", "android": "https://dc.lft.to/lastmile_qr_scan"}, "bike_id": "0c2f98820572059ef9ca7e8ae2a81088", "type": "electric_scooter", "is_disabled": 0, "fusion_lat": 0.0, "fusion_lon": 0.0, "is_reserved": 0, "name": "0c2f98820572059ef9ca7e8ae2a81088"}, {"lon": -77.06448033333334, "lat": 38.9051715, "rental_uris": {"ios": "https://dc.lft.to/lastmile_qr_scan", "android": "https://dc.lft.to/lastmile_qr_scan"}, "bike_id": "71c9faf916e30c0fa18f19d808b325d6", "type": "electric_scooter", "is_disabled": 0, "fusion_lat": 0.0, "fusion_lon": 0.0, "is_reserved": 0, "name": "71c9faf916e30c0fa18f19d808b325d6"}, {"lon": -77.038628, "lat": 38.907863166666665, "rental_uris": {"ios": "https://dc.lft.to/lastmile_qr_scan", "android": "https://dc.lft.to/lastmile_qr_scan"}, "bike_id": "5d2d82a3ce9f1467e1b0566356ada8bb", "type": "electric_scooter", "is_disabled": 0, "fusion_lat": 0.0, "fusion_lon": 0.0, "is_reserved": 0, "name": "5d2d82a3ce9f1467e1b0566356ada8bb"}, {"lon": -76.9624075, "lat": 38.877632166666665, "rental_uris": {"ios": "https://dc.lft.to/lastmile_qr_scan", "android": "https://dc.lft.to/lastmile_qr_scan"}, "bike_id": "27e6b901d1d948d74d2c0759d9627f38", "type": "electric_scooter", "is_disabled": 0, "fusion_lat": 0.0, "fusion_lon": 0.0, "is_reserved": 0, "name": "27e6b901d1d948d74d2c0759d9627f38"}, {"lon": -77.012121, "lat": 38.918372, "rental_uris": {"ios": "https://dc.lft.to/lastmile_qr_scan", "android": "https://dc.lft.to/lastmile_qr_scan"}, "bike_id": "5a399a0dbda4bd4d8d7b0ae7734672ed", "type": "electric_scooter", "is_disabled": 0, "fusion_lat": 0.0, "fusion_lon": 0.0, "is_reserved": 0, "name": "5a399a0dbda4bd4d8d7b0ae7734672ed"}, {"lon": -77.07389716666667, "lat": 38.961816166666665, "rental_uris": {"ios": "https://dc.lft.to/lastmile_qr_scan", "android": "https://dc.lft.to/lastmile_qr_scan"}, "bike_id": "d9a876623db6e4d6f75e2e44d290170c", "type": "electric_bike", "is_disabled": 0, "fusion_lat": 0.0, "fusion_lon": 0.0, "is_reserved": 0, "name": "d9a876623db6e4d6f75e2e44d290170c"}, {"lon": -77.03171916666666, "lat": 38.91546116666667, "rental_uris": {"ios": "https://dc.lft.to/lastmile_qr_scan", "android": "https://dc.lft.to/lastmile_qr_scan"}, "bike_id": "b2e88a60fdb558bdd6f4c223952efc51", "type": "electric_scooter", "is_disabled": 0, "fusion_lat": 0.0, "fusion_lon": 0.0, "is_reserved": 0, "name": "b2e88a60fdb558bdd6f4c223952efc51"}, {"lon": -77.02491666666667, "lat": 38.94181433333333, "rental_uris": {"ios": "https://dc.lft.to/lastmile_qr_scan", "android": "https://dc.lft.to/lastmile_qr_scan"}, "bike_id": "100b93e9f0be4b97be5b67f2ed6d2f44", "type": "electric_scooter", "is_disabled": 0, "fusion_lat": 0.0, "fusion_lon": 0.0, "is_reserved": 0, "name": "100b93e9f0be4b97be5b67f2ed6d2f44"}, {"lon": -77.012303, "lat": 38.92872783333333, "rental_uris": {"ios": "https://dc.lft.to/lastmile_qr_scan", "android": "https://dc.lft.to/lastmile_qr_scan"}, "bike_id": "91af8ab627c0e3d6d4d38b16410fc5a8", "type": "electric_scooter", "is_disabled": 0, "fusion_lat": 0.0, "fusion_lon": 0.0, "is_reserved": 0, "name": "91af8ab627c0e3d6d4d38b16410fc5a8"}, {"lon": -77.017922, "lat": 38.90393183333333, "rental_uris": {"ios": "https://dc.lft.to/lastmile_qr_scan", "android": "https://dc.lft.to/lastmile_qr_scan"}, "bike_id": "4cbdfd53b7114fbe32b8725cc3aa27f8", "type": "electric_scooter", "is_disabled": 0, "fusion_lat": 0.0, "fusion_lon": 0.0, "is_reserved": 0, "name": "4cbdfd53b7114fbe32b8725cc3aa27f8"}, {"lon": -77.04540883333334, "lat": 38.93410333333333, "rental_uris": {"ios": "https://dc.lft.to/lastmile_qr_scan", "android": "https://dc.lft.to/lastmile_qr_scan"}, "bike_id": "cb7445cbe92428ba850525efcdfadbfb", "type": "electric_scooter", "is_disabled": 0, "fusion_lat": 0.0, "fusion_lon": 0.0, "is_reserved": 0, "name": "cb7445cbe92428ba850525efcdfadbfb"}, {"lon": -77.039343, "lat": 38.91761616666667, "rental_uris": {"ios": "https://dc.lft.to/lastmile_qr_scan", "android": "https://dc.lft.to/lastmile_qr_scan"}, "bike_id": "25dc3e1d3fc8a4b5d1b1e3e1fe53f0c9", "type": "electric_scooter", "is_disabled": 0, "fusion_lat": 0.0, "fusion_lon": 0.0, "is_reserved": 0, "name": "25dc3e1d3fc8a4b5d1b1e3e1fe53f0c9"}, {"lon": -77.03773633333333, "lat": 38.9219955, "rental_uris": {"ios": "https://dc.lft.to/lastmile_qr_scan", "android": "https://dc.lft.to/lastmile_qr_scan"}, "bike_id": "6dc58ae3d113a731a821ea87d1c0847e", "type": "electric_scooter", "is_disabled": 0, "fusion_lat": 0.0, "fusion_lon": 0.0, "is_reserved": 0, "name": "6dc58ae3d113a731a821ea87d1c0847e"}, {"lon": -77.05151716666667, "lat": 38.8967035, "rental_uris": {"ios": "https://dc.lft.to/lastmile_qr_scan", "android": "https://dc.lft.to/lastmile_qr_scan"}, "bike_id": "223e3613f13d7abd0185f80bb1249e1f", "type": "electric_scooter", "is_disabled": 0, "fusion_lat": 0.0, "fusion_lon": 0.0, "is_reserved": 0, "name": "223e3613f13d7abd0185f80bb1249e1f"}, {"lon": -77.05530033333334, "lat": 38.92797516666667, "rental_uris": {"ios": "https://dc.lft.to/lastmile_qr_scan", "android": "https://dc.lft.to/lastmile_qr_scan"}, "bike_id": "b18718df3b52f0e40eb1bbe9b777b0c7", "type": "electric_scooter", "is_disabled": 0, "fusion_lat": 0.0, "fusion_lon": 0.0, "is_reserved": 0, "name": "b18718df3b52f0e40eb1bbe9b777b0c7"}, {"lon": -77.04305683333334, "lat": 38.89362666666667, "rental_uris": {"ios": "https://dc.lft.to/lastmile_qr_scan", "android": "https://dc.lft.to/lastmile_qr_scan"}, "bike_id": "fe0153ef82765997e114aea43348ec07", "type": "electric_scooter", "is_disabled": 0, "fusion_lat": 0.0, "fusion_lon": 0.0, "is_reserved": 0, "name": "fe0153ef82765997e114aea43348ec07"}, {"lon": -77.00727183333333, "lat": 38.88484316666667, "rental_uris": {"ios": "https://dc.lft.to/lastmile_qr_scan", "android": "https://dc.lft.to/lastmile_qr_scan"}, "bike_id": "8c84f10d12f46a6f5058d5a070fe4411", "type": "electric_scooter", "is_disabled": 0, "fusion_lat": 0.0, "fusion_lon": 0.0, "is_reserved": 0, "name": "8c84f10d12f46a6f5058d5a070fe4411"}, {"lon": -77.04513733333333, "lat": 38.901470833333335, "rental_uris": {"ios": "https://dc.lft.to/lastmile_qr_scan", "android": "https://dc.lft.to/lastmile_qr_scan"}, "bike_id": "817c6f53b8eab00d9e19e3ac119ad960", "type": "electric_scooter", "is_disabled": 0, "fusion_lat": 0.0, "fusion_lon": 0.0, "is_reserved": 0, "name": "817c6f53b8eab00d9e19e3ac119ad960"}, {"lon": -77.0242555, "lat": 38.894489666666665, "rental_uris": {"ios": "https://dc.lft.to/lastmile_qr_scan", "android": "https://dc.lft.to/lastmile_qr_scan"}, "bike_id": "c7d3b5dc51c4d4c9b4dd2e5b467cf75e", "type": "electric_scooter", "is_disabled": 0, "fusion_lat": 0.0, "fusion_lon": 0.0, "is_reserved": 0, "name": "c7d3b5dc51c4d4c9b4dd2e5b467cf75e"}, {"lon": -77.02597516666667, "lat": 38.91688366666666, "rental_uris": {"ios": "https://dc.lft.to/lastmile_qr_scan", "android": "https://dc.lft.to/lastmile_qr_scan"}, "bike_id": "16b98287103a33c592ab795564479830", "type": "electric_scooter", "is_disabled": 0, "fusion_lat": 0.0, "fusion_lon": 0.0, "is_reserved": 0, "name": "16b98287103a33c592ab795564479830"}, {"lon": -77.02407566666666, "lat": 38.9573165, "rental_uris": {"ios": "https://dc.lft.to/lastmile_qr_scan", "android": "https://dc.lft.to/lastmile_qr_scan"}, "bike_id": "982a08c67acf5a0b526f27b8399aa103", "type": "electric_scooter", "is_disabled": 0, "fusion_lat": 0.0, "fusion_lon": 0.0, "is_reserved": 0, "name": "982a08c67acf5a0b526f27b8399aa103"}, {"lon": -76.94878966666667, "lat": 38.895507, "rental_uris": {"ios": "https://dc.lft.to/lastmile_qr_scan", "android": "https://dc.lft.to/lastmile_qr_scan"}, "bike_id": "d0e4c3572004acff7bf4f291006a4f05", "type": "electric_scooter", "is_disabled": 0, "fusion_lat": 0.0, "fusion_lon": 0.0, "is_reserved": 0, "name": "d0e4c3572004acff7bf4f291006a4f05"}, {"lon": -77.02677783333333, "lat": 38.89797466666667, "rental_uris": {"ios": "https://dc.lft.to/lastmile_qr_scan", "android": "https://dc.lft.to/lastmile_qr_scan"}, "bike_id": "22c7cc04407266d844dc06f9a8859ee7", "type": "electric_scooter", "is_disabled": 0, "fusion_lat": 0.0, "fusion_lon": 0.0, "is_reserved": 0, "name": "22c7cc04407266d844dc06f9a8859ee7"}, {"lon": -76.9463725, "lat": 38.898371833333336, "rental_uris": {"ios": "https://dc.lft.to/lastmile_qr_scan", "android": "https://dc.lft.to/lastmile_qr_scan"}, "bike_id": "226ea2bfdb6a4939c1faec5e3dcd6b7c", "type": "electric_scooter", "is_disabled": 0, "fusion_lat": 0.0, "fusion_lon": 0.0, "is_reserved": 0, "name": "226ea2bfdb6a4939c1faec5e3dcd6b7c"}, {"lon": -77.0369035, "lat": 38.916666666666664, "rental_uris": {"ios": "https://dc.lft.to/lastmile_qr_scan", "android": "https://dc.lft.to/lastmile_qr_scan"}, "bike_id": "728f023977e1bfcfefc45f264b1935b7", "type": "electric_scooter", "is_disabled": 0, "fusion_lat": 0.0, "fusion_lon": 0.0, "is_reserved": 0, "name": "728f023977e1bfcfefc45f264b1935b7"}, {"lon": -77.04890083333333, "lat": 38.901094666666665, "rental_uris": {"ios": "https://dc.lft.to/lastmile_qr_scan", "android": "https://dc.lft.to/lastmile_qr_scan"}, "bike_id": "f8f9f2aa628a79744ab0c7b207b83670", "type": "electric_scooter", "is_disabled": 0, "fusion_lat": 0.0, "fusion_lon": 0.0, "is_reserved": 0, "name": "f8f9f2aa628a79744ab0c7b207b83670"}, {"lon": -77.03137116666667, "lat": 38.92568516666667, "rental_uris": {"ios": "https://dc.lft.to/lastmile_qr_scan", "android": "https://dc.lft.to/lastmile_qr_scan"}, "bike_id": "430c28e572f6baa561cb70989e36deb3", "type": "electric_scooter", "is_disabled": 0, "fusion_lat": 0.0, "fusion_lon": 0.0, "is_reserved": 0, "name": "430c28e572f6baa561cb70989e36deb3"}, {"lon": -77.01973933333333, "lat": 38.9127675, "rental_uris": {"ios": "https://dc.lft.to/lastmile_qr_scan", "android": "https://dc.lft.to/lastmile_qr_scan"}, "bike_id": "7e971651b49ed2a429ea2d8b6ee2e06e", "type": "electric_scooter", "is_disabled": 0, "fusion_lat": 0.0, "fusion_lon": 0.0, "is_reserved": 0, "name": "7e971651b49ed2a429ea2d8b6ee2e06e"}, {"lon": -76.99544783333333, "lat": 38.926666833333336, "rental_uris": {"ios": "https://dc.lft.to/lastmile_qr_scan", "android": "https://dc.lft.to/lastmile_qr_scan"}, "bike_id": "9e552a5611b46a4c1991e6364c7afe38", "type": "electric_scooter", "is_disabled": 0, "fusion_lat": 0.0, "fusion_lon": 0.0, "is_reserved": 0, "name": "9e552a5611b46a4c1991e6364c7afe38"}, {"lon": -77.01209633333333, "lat": 38.86410766666667, "rental_uris": {"ios": "https://dc.lft.to/lastmile_qr_scan", "android": "https://dc.lft.to/lastmile_qr_scan"}, "bike_id": "f254efc79d3341f23b3cb10969f8bf09", "type": "electric_scooter", "is_disabled": 0, "fusion_lat": 0.0, "fusion_lon": 0.0, "is_reserved": 0, "name": "f254efc79d3341f23b3cb10969f8bf09"}, {"lon": -77.02649583333333, "lat": 38.8981095, "rental_uris": {"ios": "https://dc.lft.to/lastmile_qr_scan", "android": "https://dc.lft.to/lastmile_qr_scan"}, "bike_id": "517b44efda0e49d9d6061a2ac849931a", "type": "electric_scooter", "is_disabled": 0, "fusion_lat": 0.0, "fusion_lon": 0.0, "is_reserved": 0, "name": "517b44efda0e49d9d6061a2ac849931a"}, {"lon": -77.03587416666667, "lat": 38.916954, "rental_uris": {"ios": "https://dc.lft.to/lastmile_qr_scan", "android": "https://dc.lft.to/lastmile_qr_scan"}, "bike_id": "766b87a59bb22b769d45f04ec1fb4bef", "type": "electric_scooter", "is_disabled": 0, "fusion_lat": 0.0, "fusion_lon": 0.0, "is_reserved": 0, "name": "766b87a59bb22b769d45f04ec1fb4bef"}, {"lon": -77.016373, "lat": 38.92899166666667, "rental_uris": {"ios": "https://dc.lft.to/lastmile_qr_scan", "android": "https://dc.lft.to/lastmile_qr_scan"}, "bike_id": "03f5740ed3bb389bd656d0777b661326", "type": "electric_scooter", "is_disabled": 0, "fusion_lat": 0.0, "fusion_lon": 0.0, "is_reserved": 0, "name": "03f5740ed3bb389bd656d0777b661326"}, {"lon": -77.02172116666667, "lat": 38.92617666666666, "rental_uris": {"ios": "https://dc.lft.to/lastmile_qr_scan", "android": "https://dc.lft.to/lastmile_qr_scan"}, "bike_id": "b1099a57dc27639f4bdfd7781714b25e", "type": "electric_scooter", "is_disabled": 0, "fusion_lat": 0.0, "fusion_lon": 0.0, "is_reserved": 0, "name": "b1099a57dc27639f4bdfd7781714b25e"}, {"lon": -77.02116766666667, "lat": 38.9247555, "rental_uris": {"ios": "https://dc.lft.to/lastmile_qr_scan", "android": "https://dc.lft.to/lastmile_qr_scan"}, "bike_id": "51519dcc5383c64aaf1528d5a88a0287", "type": "electric_scooter", "is_disabled": 0, "fusion_lat": 0.0, "fusion_lon": 0.0, "is_reserved": 0, "name": "51519dcc5383c64aaf1528d5a88a0287"}, {"lon": -76.99547916666667, "lat": 38.86260633333333, "rental_uris": {"ios": "https://dc.lft.to/lastmile_qr_scan", "android": "https://dc.lft.to/lastmile_qr_scan"}, "bike_id": "2dde3cd12b5d44acb439edaf6fabb7ee", "type": "electric_scooter", "is_disabled": 0, "fusion_lat": 0.0, "fusion_lon": 0.0, "is_reserved": 0, "name": "2dde3cd12b5d44acb439edaf6fabb7ee"}, {"lon": -77.038536, "lat": 38.915451166666664, "rental_uris": {"ios": "https://dc.lft.to/lastmile_qr_scan", "android": "https://dc.lft.to/lastmile_qr_scan"}, "bike_id": "d0e5a66805ce085319a771b6a5fdfcd9", "type": "electric_scooter", "is_disabled": 0, "fusion_lat": 0.0, "fusion_lon": 0.0, "is_reserved": 0, "name": "d0e5a66805ce085319a771b6a5fdfcd9"}, {"lon": -76.98092483333333, "lat": 38.953559, "rental_uris": {"ios": "https://dc.lft.to/lastmile_qr_scan", "android": "https://dc.lft.to/lastmile_qr_scan"}, "bike_id": "16aac5671f6e83c579d88be569d75ef7", "type": "electric_bike", "is_disabled": 0, "fusion_lat": 0.0, "fusion_lon": 0.0, "is_reserved": 0, "name": "16aac5671f6e83c579d88be569d75ef7"}, {"lon": -77.02363466666667, "lat": 38.892173, "rental_uris": {"ios": "https://dc.lft.to/lastmile_qr_scan", "android": "https://dc.lft.to/lastmile_qr_scan"}, "bike_id": "5346d4bd0e99e9393c326d7bc465834c", "type": "electric_scooter", "is_disabled": 0, "fusion_lat": 0.0, "fusion_lon": 0.0, "is_reserved": 0, "name": "5346d4bd0e99e9393c326d7bc465834c"}, {"lon": -76.93132683333333, "lat": 38.87609233333333, "rental_uris": {"ios": "https://dc.lft.to/lastmile_qr_scan", "android": "https://dc.lft.to/lastmile_qr_scan"}, "bike_id": "2cd43e1227a3a3aef398a760dcc16522", "type": "electric_scooter", "is_disabled": 0, "fusion_lat": 0.0, "fusion_lon": 0.0, "is_reserved": 0, "name": "2cd43e1227a3a3aef398a760dcc16522"}, {"lon": -77.04871183333333, "lat": 38.90969916666667, "rental_uris": {"ios": "https://dc.lft.to/lastmile_qr_scan", "android": "https://dc.lft.to/lastmile_qr_scan"}, "bike_id": "7c1f2c7d5eedd1df4b528205e38b8a5c", "type": "electric_scooter", "is_disabled": 0, "fusion_lat": 0.0, "fusion_lon": 0.0, "is_reserved": 0, "name": "7c1f2c7d5eedd1df4b528205e38b8a5c"}, {"lon": -77.04455133333333, "lat": 38.9239735, "rental_uris": {"ios": "https://dc.lft.to/lastmile_qr_scan", "android": "https://dc.lft.to/lastmile_qr_scan"}, "bike_id": "a1f6a6fc7da9dbd5ea8a760d4e759831", "type": "electric_scooter", "is_disabled": 0, "fusion_lat": 0.0, "fusion_lon": 0.0, "is_reserved": 0, "name": "a1f6a6fc7da9dbd5ea8a760d4e759831"}, {"lon": -77.04284116666666, "lat": 38.91655166666666, "rental_uris": {"ios": "https://dc.lft.to/lastmile_qr_scan", "android": "https://dc.lft.to/lastmile_qr_scan"}, "bike_id": "92a6da1c368d43a4e7a01573119264df", "type": "electric_scooter", "is_disabled": 0, "fusion_lat": 0.0, "fusion_lon": 0.0, "is_reserved": 0, "name": "92a6da1c368d43a4e7a01573119264df"}, {"lon": -77.03191666666666, "lat": 38.91567516666667, "rental_uris": {"ios": "https://dc.lft.to/lastmile_qr_scan", "android": "https://dc.lft.to/lastmile_qr_scan"}, "bike_id": "7cc95ad07f2ae4dcd04ade2600f30ac5", "type": "electric_scooter", "is_disabled": 0, "fusion_lat": 0.0, "fusion_lon": 0.0, "is_reserved": 0, "name": "7cc95ad07f2ae4dcd04ade2600f30ac5"}, {"lon": -77.02653466666666, "lat": 38.89218133333333, "rental_uris": {"ios": "https://dc.lft.to/lastmile_qr_scan", "android": "https://dc.lft.to/lastmile_qr_scan"}, "bike_id": "cbd8ea3ec1ad68235a7deb6c04e1f1bc", "type": "electric_scooter", "is_disabled": 0, "fusion_lat": 0.0, "fusion_lon": 0.0, "is_reserved": 0, "name": "cbd8ea3ec1ad68235a7deb6c04e1f1bc"}, {"lon": -77.01532766666666, "lat": 38.88738, "rental_uris": {"ios": "https://dc.lft.to/lastmile_qr_scan", "android": "https://dc.lft.to/lastmile_qr_scan"}, "bike_id": "58fdb77ab6082d5ed27937b1a0d377c9", "type": "electric_scooter", "is_disabled": 0, "fusion_lat": 0.0, "fusion_lon": 0.0, "is_reserved": 0, "name": "58fdb77ab6082d5ed27937b1a0d377c9"}, {"lon": -77.03074316666667, "lat": 38.90747983333333, "rental_uris": {"ios": "https://dc.lft.to/lastmile_qr_scan", "android": "https://dc.lft.to/lastmile_qr_scan"}, "bike_id": "299a2948232fd9889f2a8d4e96297bac", "type": "electric_scooter", "is_disabled": 0, "fusion_lat": 0.0, "fusion_lon": 0.0, "is_reserved": 0, "name": "299a2948232fd9889f2a8d4e96297bac"}, {"lon": -77.04627483333333, "lat": 38.923107333333334, "rental_uris": {"ios": "https://dc.lft.to/lastmile_qr_scan", "android": "https://dc.lft.to/lastmile_qr_scan"}, "bike_id": "aafd402e61a8637d49263c4f2497fa17", "type": "electric_scooter", "is_disabled": 0, "fusion_lat": 0.0, "fusion_lon": 0.0, "is_reserved": 0, "name": "aafd402e61a8637d49263c4f2497fa17"}, {"lon": -77.01255566666667, "lat": 38.8860925, "rental_uris": {"ios": "https://dc.lft.to/lastmile_qr_scan", "android": "https://dc.lft.to/lastmile_qr_scan"}, "bike_id": "98372225efcf670070bd003ea1627c66", "type": "electric_scooter", "is_disabled": 0, "fusion_lat": 0.0, "fusion_lon": 0.0, "is_reserved": 0, "name": "98372225efcf670070bd003ea1627c66"}, {"lon": -77.04148783333333, "lat": 38.90728566666667, "rental_uris": {"ios": "https://dc.lft.to/lastmile_qr_scan", "android": "https://dc.lft.to/lastmile_qr_scan"}, "bike_id": "48432cdb429f72c27cf1fa38e4fe3bb8", "type": "electric_scooter", "is_disabled": 0, "fusion_lat": 0.0, "fusion_lon": 0.0, "is_reserved": 0, "name": "48432cdb429f72c27cf1fa38e4fe3bb8"}, {"lon": -77.01512783333334, "lat": 38.88664383333333, "rental_uris": {"ios": "https://dc.lft.to/lastmile_qr_scan", "android": "https://dc.lft.to/lastmile_qr_scan"}, "bike_id": "3e2dd2935962d97ef5e70fb3dff16303", "type": "electric_scooter", "is_disabled": 0, "fusion_lat": 0.0, "fusion_lon": 0.0, "is_reserved": 0, "name": "3e2dd2935962d97ef5e70fb3dff16303"}, {"lon": -77.0241605, "lat": 38.897132, "rental_uris": {"ios": "https://dc.lft.to/lastmile_qr_scan", "android": "https://dc.lft.to/lastmile_qr_scan"}, "bike_id": "9cd625af33bc90bdb9d3c7a341554cb0", "type": "electric_scooter", "is_disabled": 0, "fusion_lat": 0.0, "fusion_lon": 0.0, "is_reserved": 0, "name": "9cd625af33bc90bdb9d3c7a341554cb0"}, {"lon": -77.04276183333333, "lat": 38.90860033333333, "rental_uris": {"ios": "https://dc.lft.to/lastmile_qr_scan", "android": "https://dc.lft.to/lastmile_qr_scan"}, "bike_id": "be3cbe096bf9119ebe4a1bd093ba7f94", "type": "electric_scooter", "is_disabled": 0, "fusion_lat": 0.0, "fusion_lon": 0.0, "is_reserved": 0, "name": "be3cbe096bf9119ebe4a1bd093ba7f94"}, {"lon": -77.05318466666667, "lat": 38.9044055, "rental_uris": {"ios": "https://dc.lft.to/lastmile_qr_scan", "android": "https://dc.lft.to/lastmile_qr_scan"}, "bike_id": "26dfd2f2073ff6ff288a0ee6067b4522", "type": "electric_scooter", "is_disabled": 0, "fusion_lat": 0.0, "fusion_lon": 0.0, "is_reserved": 0, "name": "26dfd2f2073ff6ff288a0ee6067b4522"}, {"lon": -77.02502966666667, "lat": 38.930874333333335, "rental_uris": {"ios": "https://dc.lft.to/lastmile_qr_scan", "android": "https://dc.lft.to/lastmile_qr_scan"}, "bike_id": "756abf7162af6261d8a3944a01add14b", "type": "electric_scooter", "is_disabled": 0, "fusion_lat": 0.0, "fusion_lon": 0.0, "is_reserved": 0, "name": "756abf7162af6261d8a3944a01add14b"}, {"lon": -76.9914175, "lat": 38.863103, "rental_uris": {"ios": "https://dc.lft.to/lastmile_qr_scan", "android": "https://dc.lft.to/lastmile_qr_scan"}, "bike_id": "6f6229049d1bec73eb4aeb20f9c82f58", "type": "electric_scooter", "is_disabled": 0, "fusion_lat": 0.0, "fusion_lon": 0.0, "is_reserved": 0, "name": "6f6229049d1bec73eb4aeb20f9c82f58"}, {"lon": -77.02669583333333, "lat": 38.907271333333334, "rental_uris": {"ios": "https://dc.lft.to/lastmile_qr_scan", "android": "https://dc.lft.to/lastmile_qr_scan"}, "bike_id": "b7c5ee8ab9bebfa3cb984a157a38345e", "type": "electric_scooter", "is_disabled": 0, "fusion_lat": 0.0, "fusion_lon": 0.0, "is_reserved": 0, "name": "b7c5ee8ab9bebfa3cb984a157a38345e"}, {"lon": -77.03166866666666, "lat": 38.936053, "rental_uris": {"ios": "https://dc.lft.to/lastmile_qr_scan", "android": "https://dc.lft.to/lastmile_qr_scan"}, "bike_id": "5d4b32beb85d8cb2e03871ec684bcf4a", "type": "electric_scooter", "is_disabled": 0, "fusion_lat": 0.0, "fusion_lon": 0.0, "is_reserved": 0, "name": "5d4b32beb85d8cb2e03871ec684bcf4a"}, {"lon": -77.03161183333333, "lat": 38.9208355, "rental_uris": {"ios": "https://dc.lft.to/lastmile_qr_scan", "android": "https://dc.lft.to/lastmile_qr_scan"}, "bike_id": "9b9e77effb156bcf920c79f59c52fbbf", "type": "electric_bike", "is_disabled": 0, "fusion_lat": 0.0, "fusion_lon": 0.0, "is_reserved": 0, "name": "9b9e77effb156bcf920c79f59c52fbbf"}, {"lon": -77.07598233333333, "lat": 38.91214383333333, "rental_uris": {"ios": "https://dc.lft.to/lastmile_qr_scan", "android": "https://dc.lft.to/lastmile_qr_scan"}, "bike_id": "48114dfbc539e9326afe53ff72e89c7b", "type": "electric_scooter", "is_disabled": 0, "fusion_lat": 0.0, "fusion_lon": 0.0, "is_reserved": 0, "name": "48114dfbc539e9326afe53ff72e89c7b"}, {"lon": -77.03291166666666, "lat": 38.89872033333333, "rental_uris": {"ios": "https://dc.lft.to/lastmile_qr_scan", "android": "https://dc.lft.to/lastmile_qr_scan"}, "bike_id": "b174d9c57830d7f5c89e5953a62323dd", "type": "electric_scooter", "is_disabled": 0, "fusion_lat": 0.0, "fusion_lon": 0.0, "is_reserved": 0, "name": "b174d9c57830d7f5c89e5953a62323dd"}, {"lon": -77.03247833333333, "lat": 38.92918683333333, "rental_uris": {"ios": "https://dc.lft.to/lastmile_qr_scan", "android": "https://dc.lft.to/lastmile_qr_scan"}, "bike_id": "c11cdd6859d6b7864cf3b80116a1f5d7", "type": "electric_scooter", "is_disabled": 0, "fusion_lat": 0.0, "fusion_lon": 0.0, "is_reserved": 0, "name": "c11cdd6859d6b7864cf3b80116a1f5d7"}, {"lon": -76.996111, "lat": 38.886971, "rental_uris": {"ios": "https://dc.lft.to/lastmile_qr_scan", "android": "https://dc.lft.to/lastmile_qr_scan"}, "bike_id": "72acad20f5b9c17506715b9af61472bd", "type": "electric_scooter", "is_disabled": 0, "fusion_lat": 0.0, "fusion_lon": 0.0, "is_reserved": 0, "name": "72acad20f5b9c17506715b9af61472bd"}, {"lon": -77.08078333333333, "lat": 39.05275133333333, "rental_uris": {"ios": "https://dc.lft.to/lastmile_qr_scan", "android": "https://dc.lft.to/lastmile_qr_scan"}, "bike_id": "a7842802d660e8c7e5993949ce140846", "type": "electric_bike", "is_disabled": 0, "fusion_lat": 0.0, "fusion_lon": 0.0, "is_reserved": 0, "name": "a7842802d660e8c7e5993949ce140846"}, {"lon": -76.99020033333333, "lat": 38.86641183333333, "rental_uris": {"ios": "https://dc.lft.to/lastmile_qr_scan", "android": "https://dc.lft.to/lastmile_qr_scan"}, "bike_id": "5749657694563ba2e84f6119adc30cc1", "type": "electric_scooter", "is_disabled": 0, "fusion_lat": 0.0, "fusion_lon": 0.0, "is_reserved": 0, "name": "5749657694563ba2e84f6119adc30cc1"}, {"lon": -77.0281625, "lat": 38.895185166666664, "rental_uris": {"ios": "https://dc.lft.to/lastmile_qr_scan", "android": "https://dc.lft.to/lastmile_qr_scan"}, "bike_id": "e3dd83ddd1f3f7c1c6c41d90e18e8cb8", "type": "electric_scooter", "is_disabled": 0, "fusion_lat": 0.0, "fusion_lon": 0.0, "is_reserved": 0, "name": "e3dd83ddd1f3f7c1c6c41d90e18e8cb8"}, {"lon": -77.0248045, "lat": 38.9386345, "rental_uris": {"ios": "https://dc.lft.to/lastmile_qr_scan", "android": "https://dc.lft.to/lastmile_qr_scan"}, "bike_id": "866cf40a31d961db0e1f25af925cb1cc", "type": "electric_scooter", "is_disabled": 0, "fusion_lat": 0.0, "fusion_lon": 0.0, "is_reserved": 0, "name": "866cf40a31d961db0e1f25af925cb1cc"}, {"lon": -77.02325583333334, "lat": 38.9247025, "rental_uris": {"ios": "https://dc.lft.to/lastmile_qr_scan", "android": "https://dc.lft.to/lastmile_qr_scan"}, "bike_id": "2845b0648e51f9d18f866ada8d90463b", "type": "electric_scooter", "is_disabled": 0, "fusion_lat": 0.0, "fusion_lon": 0.0, "is_reserved": 0, "name": "2845b0648e51f9d18f866ada8d90463b"}, {"lon": -77.04163166666666, "lat": 38.906571166666666, "rental_uris": {"ios": "https://dc.lft.to/lastmile_qr_scan", "android": "https://dc.lft.to/lastmile_qr_scan"}, "bike_id": "f6bd38133792e86856ce1739bade79cb", "type": "electric_scooter", "is_disabled": 0, "fusion_lat": 0.0, "fusion_lon": 0.0, "is_reserved": 0, "name": "f6bd38133792e86856ce1739bade79cb"}, {"lon": -77.06892433333333, "lat": 38.918295666666666, "rental_uris": {"ios": "https://dc.lft.to/lastmile_qr_scan", "android": "https://dc.lft.to/lastmile_qr_scan"}, "bike_id": "e287c9f01a1403016436448853fa5c29", "type": "electric_scooter", "is_disabled": 0, "fusion_lat": 0.0, "fusion_lon": 0.0, "is_reserved": 0, "name": "e287c9f01a1403016436448853fa5c29"}, {"lon": -76.98759766666667, "lat": 38.85759766666666, "rental_uris": {"ios": "https://dc.lft.to/lastmile_qr_scan", "android": "https://dc.lft.to/lastmile_qr_scan"}, "bike_id": "5d1ea4b94142524ac1faac7bfec1c9b1", "type": "electric_bike", "is_disabled": 0, "fusion_lat": 0.0, "fusion_lon": 0.0, "is_reserved": 0, "name": "5d1ea4b94142524ac1faac7bfec1c9b1"}, {"lon": -77.03950483333334, "lat": 38.902685, "rental_uris": {"ios": "https://dc.lft.to/lastmile_qr_scan", "android": "https://dc.lft.to/lastmile_qr_scan"}, "bike_id": "a8f4b364fc405230e057938050c5068a", "type": "electric_scooter", "is_disabled": 0, "fusion_lat": 0.0, "fusion_lon": 0.0, "is_reserved": 0, "name": "a8f4b364fc405230e057938050c5068a"}, {"lon": -76.97479916666667, "lat": 38.90350333333333, "rental_uris": {"ios": "https://dc.lft.to/lastmile_qr_scan", "android": "https://dc.lft.to/lastmile_qr_scan"}, "bike_id": "1d43ddca42da4678032ff7229c287f45", "type": "electric_scooter", "is_disabled": 0, "fusion_lat": 0.0, "fusion_lon": 0.0, "is_reserved": 0, "name": "1d43ddca42da4678032ff7229c287f45"}, {"lon": -77.00681416666667, "lat": 38.900087666666664, "rental_uris": {"ios": "https://dc.lft.to/lastmile_qr_scan", "android": "https://dc.lft.to/lastmile_qr_scan"}, "bike_id": "ca8f25b99af0ed883a8f029506d18fc4", "type": "electric_scooter", "is_disabled": 0, "fusion_lat": 0.0, "fusion_lon": 0.0, "is_reserved": 0, "name": "ca8f25b99af0ed883a8f029506d18fc4"}, {"lon": -77.02903766666667, "lat": 39.03747233333333, "rental_uris": {"ios": "https://dc.lft.to/lastmile_qr_scan", "android": "https://dc.lft.to/lastmile_qr_scan"}, "bike_id": "9526c4ba955b3c8a663ac839d42a86d3", "type": "electric_scooter", "is_disabled": 0, "fusion_lat": 0.0, "fusion_lon": 0.0, "is_reserved": 0, "name": "9526c4ba955b3c8a663ac839d42a86d3"}, {"lon": -77.04872316666666, "lat": 38.909752166666664, "rental_uris": {"ios": "https://dc.lft.to/lastmile_qr_scan", "android": "https://dc.lft.to/lastmile_qr_scan"}, "bike_id": "9bea89b72c1634c2b15a486f0adbcedc", "type": "electric_scooter", "is_disabled": 0, "fusion_lat": 0.0, "fusion_lon": 0.0, "is_reserved": 0, "name": "9bea89b72c1634c2b15a486f0adbcedc"}, {"lon": -77.04040116666667, "lat": 38.91858933333334, "rental_uris": {"ios": "https://dc.lft.to/lastmile_qr_scan", "android": "https://dc.lft.to/lastmile_qr_scan"}, "bike_id": "d8f79eb37542eb7f22dfee8fa58467e9", "type": "electric_scooter", "is_disabled": 0, "fusion_lat": 0.0, "fusion_lon": 0.0, "is_reserved": 0, "name": "d8f79eb37542eb7f22dfee8fa58467e9"}, {"lon": -77.029747, "lat": 38.91056716666667, "rental_uris": {"ios": "https://dc.lft.to/lastmile_qr_scan", "android": "https://dc.lft.to/lastmile_qr_scan"}, "bike_id": "5f0f01fc4f5d920cfa7b0bc7512192a1", "type": "electric_scooter", "is_disabled": 0, "fusion_lat": 0.0, "fusion_lon": 0.0, "is_reserved": 0, "name": "5f0f01fc4f5d920cfa7b0bc7512192a1"}, {"lon": -77.043597, "lat": 38.905784833333335, "rental_uris": {"ios": "https://dc.lft.to/lastmile_qr_scan", "android": "https://dc.lft.to/lastmile_qr_scan"}, "bike_id": "ff940368e6469a5d255cff8eb2ee6399", "type": "electric_scooter", "is_disabled": 0, "fusion_lat": 0.0, "fusion_lon": 0.0, "is_reserved": 0, "name": "ff940368e6469a5d255cff8eb2ee6399"}, {"lon": -77.017317, "lat": 38.8727735, "rental_uris": {"ios": "https://dc.lft.to/lastmile_qr_scan", "android": "https://dc.lft.to/lastmile_qr_scan"}, "bike_id": "6d5fd8ab7cf2c2ad3b157c7660c2ce16", "type": "electric_scooter", "is_disabled": 0, "fusion_lat": 0.0, "fusion_lon": 0.0, "is_reserved": 0, "name": "6d5fd8ab7cf2c2ad3b157c7660c2ce16"}, {"lon": -76.98142233333333, "lat": 38.90557483333333, "rental_uris": {"ios": "https://dc.lft.to/lastmile_qr_scan", "android": "https://dc.lft.to/lastmile_qr_scan"}, "bike_id": "af48b9bf17eeb798fe3c8647851c5900", "type": "electric_scooter", "is_disabled": 0, "fusion_lat": 0.0, "fusion_lon": 0.0, "is_reserved": 0, "name": "af48b9bf17eeb798fe3c8647851c5900"}, {"lon": -77.01601066666667, "lat": 38.88311433333333, "rental_uris": {"ios": "https://dc.lft.to/lastmile_qr_scan", "android": "https://dc.lft.to/lastmile_qr_scan"}, "bike_id": "61c2d9fd11d37a19b4f3fb39ba803cfe", "type": "electric_scooter", "is_disabled": 0, "fusion_lat": 0.0, "fusion_lon": 0.0, "is_reserved": 0, "name": "61c2d9fd11d37a19b4f3fb39ba803cfe"}, {"lon": -77.0420805, "lat": 38.91968766666667, "rental_uris": {"ios": "https://dc.lft.to/lastmile_qr_scan", "android": "https://dc.lft.to/lastmile_qr_scan"}, "bike_id": "8aa87bb55678472805b51bcbb0a30226", "type": "electric_scooter", "is_disabled": 0, "fusion_lat": 0.0, "fusion_lon": 0.0, "is_reserved": 0, "name": "8aa87bb55678472805b51bcbb0a30226"}, {"lon": -76.99755416666666, "lat": 38.9081645, "rental_uris": {"ios": "https://dc.lft.to/lastmile_qr_scan", "android": "https://dc.lft.to/lastmile_qr_scan"}, "bike_id": "05e3394638a93265ade4b25e01a97803", "type": "electric_scooter", "is_disabled": 0, "fusion_lat": 0.0, "fusion_lon": 0.0, "is_reserved": 0, "name": "05e3394638a93265ade4b25e01a97803"}, {"lon": -77.04306733333334, "lat": 38.9232825, "rental_uris": {"ios": "https://dc.lft.to/lastmile_qr_scan", "android": "https://dc.lft.to/lastmile_qr_scan"}, "bike_id": "186442b6dda5c0ac592bd1d0f7dafd96", "type": "electric_scooter", "is_disabled": 0, "fusion_lat": 0.0, "fusion_lon": 0.0, "is_reserved": 0, "name": "186442b6dda5c0ac592bd1d0f7dafd96"}, {"lon": -77.06131116666667, "lat": 38.94083033333333, "rental_uris": {"ios": "https://dc.lft.to/lastmile_qr_scan", "android": "https://dc.lft.to/lastmile_qr_scan"}, "bike_id": "7c352544c7b423f7e075bcdc95455154", "type": "electric_scooter", "is_disabled": 0, "fusion_lat": 0.0, "fusion_lon": 0.0, "is_reserved": 0, "name": "7c352544c7b423f7e075bcdc95455154"}, {"lon": -77.04014866666667, "lat": 38.924460333333336, "rental_uris": {"ios": "https://dc.lft.to/lastmile_qr_scan", "android": "https://dc.lft.to/lastmile_qr_scan"}, "bike_id": "7964e0533eb9e4988abdbdc5c8c57d9c", "type": "electric_scooter", "is_disabled": 0, "fusion_lat": 0.0, "fusion_lon": 0.0, "is_reserved": 0, "name": "7964e0533eb9e4988abdbdc5c8c57d9c"}, {"lon": -77.02781166666666, "lat": 38.926845166666666, "rental_uris": {"ios": "https://dc.lft.to/lastmile_qr_scan", "android": "https://dc.lft.to/lastmile_qr_scan"}, "bike_id": "2d617b54a3d47d758011197c217e9711", "type": "electric_scooter", "is_disabled": 0, "fusion_lat": 0.0, "fusion_lon": 0.0, "is_reserved": 0, "name": "2d617b54a3d47d758011197c217e9711"}, {"lon": -77.02702133333334, "lat": 38.90841616666667, "rental_uris": {"ios": "https://dc.lft.to/lastmile_qr_scan", "android": "https://dc.lft.to/lastmile_qr_scan"}, "bike_id": "b1dd3d88623a51d0e396e4c76049722b", "type": "electric_scooter", "is_disabled": 0, "fusion_lat": 0.0, "fusion_lon": 0.0, "is_reserved": 0, "name": "b1dd3d88623a51d0e396e4c76049722b"}, {"lon": -77.00704333333333, "lat": 38.878438, "rental_uris": {"ios": "https://dc.lft.to/lastmile_qr_scan", "android": "https://dc.lft.to/lastmile_qr_scan"}, "bike_id": "d5f2c82a1158430ae3e9bdf6861120b8", "type": "electric_scooter", "is_disabled": 0, "fusion_lat": 0.0, "fusion_lon": 0.0, "is_reserved": 0, "name": "d5f2c82a1158430ae3e9bdf6861120b8"}, {"lon": -77.06056566666666, "lat": 38.939144666666664, "rental_uris": {"ios": "https://dc.lft.to/lastmile_qr_scan", "android": "https://dc.lft.to/lastmile_qr_scan"}, "bike_id": "dd39ee5bbba279343c205046128f634f", "type": "electric_scooter", "is_disabled": 0, "fusion_lat": 0.0, "fusion_lon": 0.0, "is_reserved": 0, "name": "dd39ee5bbba279343c205046128f634f"}, {"lon": -77.07341733333334, "lat": 38.91096133333333, "rental_uris": {"ios": "https://dc.lft.to/lastmile_qr_scan", "android": "https://dc.lft.to/lastmile_qr_scan"}, "bike_id": "9f0ad60a18d01bf08d3c65d5f823cd8f", "type": "electric_scooter", "is_disabled": 0, "fusion_lat": 0.0, "fusion_lon": 0.0, "is_reserved": 0, "name": "9f0ad60a18d01bf08d3c65d5f823cd8f"}, {"lon": -76.994661, "lat": 38.862219, "rental_uris": {"ios": "https://dc.lft.to/lastmile_qr_scan", "android": "https://dc.lft.to/lastmile_qr_scan"}, "bike_id": "b61452987be30a433575655c0a11cc05", "type": "electric_scooter", "is_disabled": 0, "fusion_lat": 0.0, "fusion_lon": 0.0, "is_reserved": 0, "name": "b61452987be30a433575655c0a11cc05"}, {"lon": -77.04358283333333, "lat": 38.90425183333333, "rental_uris": {"ios": "https://dc.lft.to/lastmile_qr_scan", "android": "https://dc.lft.to/lastmile_qr_scan"}, "bike_id": "3e8ebd6191d7d762aafa63a53dd683d4", "type": "electric_scooter", "is_disabled": 0, "fusion_lat": 0.0, "fusion_lon": 0.0, "is_reserved": 0, "name": "3e8ebd6191d7d762aafa63a53dd683d4"}, {"lon": -76.94573083333333, "lat": 38.93745283333333, "rental_uris": {"ios": "https://dc.lft.to/lastmile_qr_scan", "android": "https://dc.lft.to/lastmile_qr_scan"}, "bike_id": "08a51209a32a0da3f6229be60389e11a", "type": "electric_bike", "is_disabled": 0, "fusion_lat": 0.0, "fusion_lon": 0.0, "is_reserved": 0, "name": "08a51209a32a0da3f6229be60389e11a"}, {"lon": -77.04402483333334, "lat": 38.909181, "rental_uris": {"ios": "https://dc.lft.to/lastmile_qr_scan", "android": "https://dc.lft.to/lastmile_qr_scan"}, "bike_id": "0ec5e51a3eef49f0165de85586094e3c", "type": "electric_scooter", "is_disabled": 0, "fusion_lat": 0.0, "fusion_lon": 0.0, "is_reserved": 0, "name": "0ec5e51a3eef49f0165de85586094e3c"}, {"lon": -77.04086016666666, "lat": 38.910488666666666, "rental_uris": {"ios": "https://dc.lft.to/lastmile_qr_scan", "android": "https://dc.lft.to/lastmile_qr_scan"}, "bike_id": "e5b7c66290960d64cb46622b347d0e36", "type": "electric_scooter", "is_disabled": 0, "fusion_lat": 0.0, "fusion_lon": 0.0, "is_reserved": 0, "name": "e5b7c66290960d64cb46622b347d0e36"}, {"lon": -77.05230416666667, "lat": 38.92510683333333, "rental_uris": {"ios": "https://dc.lft.to/lastmile_qr_scan", "android": "https://dc.lft.to/lastmile_qr_scan"}, "bike_id": "055c15a9d43d67969d724ee50553e6b3", "type": "electric_scooter", "is_disabled": 0, "fusion_lat": 0.0, "fusion_lon": 0.0, "is_reserved": 0, "name": "055c15a9d43d67969d724ee50553e6b3"}, {"lon": -77.0232465, "lat": 38.955294333333335, "rental_uris": {"ios": "https://dc.lft.to/lastmile_qr_scan", "android": "https://dc.lft.to/lastmile_qr_scan"}, "bike_id": "3e4e7fd37ea557ccd625221ab6cd9abe", "type": "electric_scooter", "is_disabled": 0, "fusion_lat": 0.0, "fusion_lon": 0.0, "is_reserved": 0, "name": "3e4e7fd37ea557ccd625221ab6cd9abe"}, {"lon": -77.03957416666667, "lat": 38.892395, "rental_uris": {"ios": "https://dc.lft.to/lastmile_qr_scan", "android": "https://dc.lft.to/lastmile_qr_scan"}, "bike_id": "7219e946b9a2ecd6e822c4a7b2e668f0", "type": "electric_scooter", "is_disabled": 0, "fusion_lat": 0.0, "fusion_lon": 0.0, "is_reserved": 0, "name": "7219e946b9a2ecd6e822c4a7b2e668f0"}, {"lon": -77.0200155, "lat": 38.89542633333333, "rental_uris": {"ios": "https://dc.lft.to/lastmile_qr_scan", "android": "https://dc.lft.to/lastmile_qr_scan"}, "bike_id": "93c7aa359beefd390eaae0e7238dbc43", "type": "electric_scooter", "is_disabled": 0, "fusion_lat": 0.0, "fusion_lon": 0.0, "is_reserved": 0, "name": "93c7aa359beefd390eaae0e7238dbc43"}, {"lon": -77.080448, "lat": 38.94941566666667, "rental_uris": {"ios": "https://dc.lft.to/lastmile_qr_scan", "android": "https://dc.lft.to/lastmile_qr_scan"}, "bike_id": "060d88f746922ca0e22a8a1eeb05dc0a", "type": "electric_scooter", "is_disabled": 0, "fusion_lat": 0.0, "fusion_lon": 0.0, "is_reserved": 0, "name": "060d88f746922ca0e22a8a1eeb05dc0a"}, {"lon": -77.036539, "lat": 38.93627266666667, "rental_uris": {"ios": "https://dc.lft.to/lastmile_qr_scan", "android": "https://dc.lft.to/lastmile_qr_scan"}, "bike_id": "09923b63c40197e164a55c3e426327ed", "type": "electric_scooter", "is_disabled": 0, "fusion_lat": 0.0, "fusion_lon": 0.0, "is_reserved": 0, "name": "09923b63c40197e164a55c3e426327ed"}, {"lon": -77.02476783333333, "lat": 38.938766333333334, "rental_uris": {"ios": "https://dc.lft.to/lastmile_qr_scan", "android": "https://dc.lft.to/lastmile_qr_scan"}, "bike_id": "490e58e0b545fa300aba2ed6f9e4240b", "type": "electric_scooter", "is_disabled": 0, "fusion_lat": 0.0, "fusion_lon": 0.0, "is_reserved": 0, "name": "490e58e0b545fa300aba2ed6f9e4240b"}, {"lon": -77.01261133333334, "lat": 38.892351, "rental_uris": {"ios": "https://dc.lft.to/lastmile_qr_scan", "android": "https://dc.lft.to/lastmile_qr_scan"}, "bike_id": "52bf631e23d10b3d0b72fcccf445b5a6", "type": "electric_scooter", "is_disabled": 0, "fusion_lat": 0.0, "fusion_lon": 0.0, "is_reserved": 0, "name": "52bf631e23d10b3d0b72fcccf445b5a6"}, {"lon": -76.98021733333333, "lat": 38.8531225, "rental_uris": {"ios": "https://dc.lft.to/lastmile_qr_scan", "android": "https://dc.lft.to/lastmile_qr_scan"}, "bike_id": "cf7f7f7b0e0e2ea823754b96f46e38bb", "type": "electric_scooter", "is_disabled": 0, "fusion_lat": 0.0, "fusion_lon": 0.0, "is_reserved": 0, "name": "cf7f7f7b0e0e2ea823754b96f46e38bb"}, {"lon": -77.03864583333333, "lat": 38.906507833333336, "rental_uris": {"ios": "https://dc.lft.to/lastmile_qr_scan", "android": "https://dc.lft.to/lastmile_qr_scan"}, "bike_id": "f224bb59d020f282a97bb91e3260a088", "type": "electric_scooter", "is_disabled": 0, "fusion_lat": 0.0, "fusion_lon": 0.0, "is_reserved": 0, "name": "f224bb59d020f282a97bb91e3260a088"}, {"lon": -77.02673383333334, "lat": 38.896416333333335, "rental_uris": {"ios": "https://dc.lft.to/lastmile_qr_scan", "android": "https://dc.lft.to/lastmile_qr_scan"}, "bike_id": "a6888ba79f2c48a839ad1503719cd5fe", "type": "electric_scooter", "is_disabled": 0, "fusion_lat": 0.0, "fusion_lon": 0.0, "is_reserved": 0, "name": "a6888ba79f2c48a839ad1503719cd5fe"}, {"lon": -77.03161616666667, "lat": 38.89781383333333, "rental_uris": {"ios": "https://dc.lft.to/lastmile_qr_scan", "android": "https://dc.lft.to/lastmile_qr_scan"}, "bike_id": "864d310fa52fb8ff5563801ed24adabb", "type": "electric_scooter", "is_disabled": 0, "fusion_lat": 0.0, "fusion_lon": 0.0, "is_reserved": 0, "name": "864d310fa52fb8ff5563801ed24adabb"}, {"lon": -77.02911933333333, "lat": 38.89819033333333, "rental_uris": {"ios": "https://dc.lft.to/lastmile_qr_scan", "android": "https://dc.lft.to/lastmile_qr_scan"}, "bike_id": "3079f54aed3836ea3face239df990d10", "type": "electric_scooter", "is_disabled": 0, "fusion_lat": 0.0, "fusion_lon": 0.0, "is_reserved": 0, "name": "3079f54aed3836ea3face239df990d10"}, {"lon": -76.95474116666666, "lat": 38.886386333333334, "rental_uris": {"ios": "https://dc.lft.to/lastmile_qr_scan", "android": "https://dc.lft.to/lastmile_qr_scan"}, "bike_id": "47e105e25f59ebcbd96107a6ba967b05", "type": "electric_scooter", "is_disabled": 0, "fusion_lat": 0.0, "fusion_lon": 0.0, "is_reserved": 0, "name": "47e105e25f59ebcbd96107a6ba967b05"}, {"lon": -77.02297466666667, "lat": 38.901431, "rental_uris": {"ios": "https://dc.lft.to/lastmile_qr_scan", "android": "https://dc.lft.to/lastmile_qr_scan"}, "bike_id": "ca76b963202db4a6870896dc2ce3b27c", "type": "electric_scooter", "is_disabled": 0, "fusion_lat": 0.0, "fusion_lon": 0.0, "is_reserved": 0, "name": "ca76b963202db4a6870896dc2ce3b27c"}, {"lon": -77.0367105, "lat": 38.9231805, "rental_uris": {"ios": "https://dc.lft.to/lastmile_qr_scan", "android": "https://dc.lft.to/lastmile_qr_scan"}, "bike_id": "f06cbf36a99e23fc9cfcebeb62bc3d6d", "type": "electric_scooter", "is_disabled": 0, "fusion_lat": 0.0, "fusion_lon": 0.0, "is_reserved": 0, "name": "f06cbf36a99e23fc9cfcebeb62bc3d6d"}, {"lon": -77.04501533333334, "lat": 38.909663, "rental_uris": {"ios": "https://dc.lft.to/lastmile_qr_scan", "android": "https://dc.lft.to/lastmile_qr_scan"}, "bike_id": "3e983cc998662fbc2a983be860121c85", "type": "electric_scooter", "is_disabled": 0, "fusion_lat": 0.0, "fusion_lon": 0.0, "is_reserved": 0, "name": "3e983cc998662fbc2a983be860121c85"}, {"lon": -77.03246233333333, "lat": 38.909608666666664, "rental_uris": {"ios": "https://dc.lft.to/lastmile_qr_scan", "android": "https://dc.lft.to/lastmile_qr_scan"}, "bike_id": "c0cdb631bdc28696f13e25e716a16b8a", "type": "electric_scooter", "is_disabled": 0, "fusion_lat": 0.0, "fusion_lon": 0.0, "is_reserved": 0, "name": "c0cdb631bdc28696f13e25e716a16b8a"}, {"lon": -77.02396583333334, "lat": 38.897711, "rental_uris": {"ios": "https://dc.lft.to/lastmile_qr_scan", "android": "https://dc.lft.to/lastmile_qr_scan"}, "bike_id": "1ddf65a7c3d1ca3241e37e8ad7d777e3", "type": "electric_scooter", "is_disabled": 0, "fusion_lat": 0.0, "fusion_lon": 0.0, "is_reserved": 0, "name": "1ddf65a7c3d1ca3241e37e8ad7d777e3"}, {"lon": -77.031907, "lat": 38.916404166666666, "rental_uris": {"ios": "https://dc.lft.to/lastmile_qr_scan", "android": "https://dc.lft.to/lastmile_qr_scan"}, "bike_id": "84cc153c14a794f21db69e0b0dadf52d", "type": "electric_scooter", "is_disabled": 0, "fusion_lat": 0.0, "fusion_lon": 0.0, "is_reserved": 0, "name": "84cc153c14a794f21db69e0b0dadf52d"}, {"lon": -77.02228266666667, "lat": 38.892188833333336, "rental_uris": {"ios": "https://dc.lft.to/lastmile_qr_scan", "android": "https://dc.lft.to/lastmile_qr_scan"}, "bike_id": "fddc14bd4d93d2ab16f1e62f20aeb5e5", "type": "electric_scooter", "is_disabled": 0, "fusion_lat": 0.0, "fusion_lon": 0.0, "is_reserved": 0, "name": "fddc14bd4d93d2ab16f1e62f20aeb5e5"}, {"lon": -76.98650866666667, "lat": 38.8672955, "rental_uris": {"ios": "https://dc.lft.to/lastmile_qr_scan", "android": "https://dc.lft.to/lastmile_qr_scan"}, "bike_id": "e46053256929bc897cec5f4465df94e4", "type": "electric_scooter", "is_disabled": 0, "fusion_lat": 0.0, "fusion_lon": 0.0, "is_reserved": 0, "name": "e46053256929bc897cec5f4465df94e4"}, {"lon": -77.00971366666667, "lat": 38.9079, "rental_uris": {"ios": "https://dc.lft.to/lastmile_qr_scan", "android": "https://dc.lft.to/lastmile_qr_scan"}, "bike_id": "81c68c189c3ddfc3ae84c81b89cd5908", "type": "electric_scooter", "is_disabled": 0, "fusion_lat": 0.0, "fusion_lon": 0.0, "is_reserved": 0, "name": "81c68c189c3ddfc3ae84c81b89cd5908"}, {"lon": -76.94527583333333, "lat": 38.867510833333334, "rental_uris": {"ios": "https://dc.lft.to/lastmile_qr_scan", "android": "https://dc.lft.to/lastmile_qr_scan"}, "bike_id": "47d84fdbbcdc5d9b2c552e1b55eed579", "type": "electric_bike", "is_disabled": 0, "fusion_lat": 0.0, "fusion_lon": 0.0, "is_reserved": 0, "name": "47d84fdbbcdc5d9b2c552e1b55eed579"}, {"lon": -77.00056283333333, "lat": 38.89622466666667, "rental_uris": {"ios": "https://dc.lft.to/lastmile_qr_scan", "android": "https://dc.lft.to/lastmile_qr_scan"}, "bike_id": "64577225d5521bce18b387c8af9168af", "type": "electric_scooter", "is_disabled": 0, "fusion_lat": 0.0, "fusion_lon": 0.0, "is_reserved": 0, "name": "64577225d5521bce18b387c8af9168af"}, {"lon": -77.00048716666667, "lat": 38.90011766666667, "rental_uris": {"ios": "https://dc.lft.to/lastmile_qr_scan", "android": "https://dc.lft.to/lastmile_qr_scan"}, "bike_id": "fa1e582933086b8b5fd4bc6409ee707d", "type": "electric_scooter", "is_disabled": 0, "fusion_lat": 0.0, "fusion_lon": 0.0, "is_reserved": 0, "name": "fa1e582933086b8b5fd4bc6409ee707d"}, {"lon": -77.00297666666667, "lat": 38.8949405, "rental_uris": {"ios": "https://dc.lft.to/lastmile_qr_scan", "android": "https://dc.lft.to/lastmile_qr_scan"}, "bike_id": "da920810120efa4c738826e5f722e24f", "type": "electric_scooter", "is_disabled": 0, "fusion_lat": 0.0, "fusion_lon": 0.0, "is_reserved": 0, "name": "da920810120efa4c738826e5f722e24f"}, {"lon": -77.03254083333333, "lat": 38.9028395, "rental_uris": {"ios": "https://dc.lft.to/lastmile_qr_scan", "android": "https://dc.lft.to/lastmile_qr_scan"}, "bike_id": "a3bf8d38ab49c21e6eae76fcbaaff495", "type": "electric_scooter", "is_disabled": 0, "fusion_lat": 0.0, "fusion_lon": 0.0, "is_reserved": 0, "name": "a3bf8d38ab49c21e6eae76fcbaaff495"}, {"lon": -76.98697033333333, "lat": 38.86248633333334, "rental_uris": {"ios": "https://dc.lft.to/lastmile_qr_scan", "android": "https://dc.lft.to/lastmile_qr_scan"}, "bike_id": "35aed1301f9b2e2d7de822da05676e0d", "type": "electric_scooter", "is_disabled": 0, "fusion_lat": 0.0, "fusion_lon": 0.0, "is_reserved": 0, "name": "35aed1301f9b2e2d7de822da05676e0d"}, {"lon": -77.02847216666666, "lat": 38.887450333333334, "rental_uris": {"ios": "https://dc.lft.to/lastmile_qr_scan", "android": "https://dc.lft.to/lastmile_qr_scan"}, "bike_id": "7359071a0b8e6f64b5533c5bda911fdc", "type": "electric_scooter", "is_disabled": 0, "fusion_lat": 0.0, "fusion_lon": 0.0, "is_reserved": 0, "name": "7359071a0b8e6f64b5533c5bda911fdc"}, {"lon": -77.02100633333333, "lat": 38.931147, "rental_uris": {"ios": "https://dc.lft.to/lastmile_qr_scan", "android": "https://dc.lft.to/lastmile_qr_scan"}, "bike_id": "ce92a3a44a2b884f03b69932e58b2d57", "type": "electric_scooter", "is_disabled": 0, "fusion_lat": 0.0, "fusion_lon": 0.0, "is_reserved": 0, "name": "ce92a3a44a2b884f03b69932e58b2d57"}, {"lon": -76.9732935, "lat": 38.9040795, "rental_uris": {"ios": "https://dc.lft.to/lastmile_qr_scan", "android": "https://dc.lft.to/lastmile_qr_scan"}, "bike_id": "e56ab514f48170e5c0ae7c5f3f3a418f", "type": "electric_scooter", "is_disabled": 0, "fusion_lat": 0.0, "fusion_lon": 0.0, "is_reserved": 0, "name": "e56ab514f48170e5c0ae7c5f3f3a418f"}, {"lon": -77.00205516666666, "lat": 38.89539116666667, "rental_uris": {"ios": "https://dc.lft.to/lastmile_qr_scan", "android": "https://dc.lft.to/lastmile_qr_scan"}, "bike_id": "c4f17eb46b1836fcad22599c74c0f807", "type": "electric_scooter", "is_disabled": 0, "fusion_lat": 0.0, "fusion_lon": 0.0, "is_reserved": 0, "name": "c4f17eb46b1836fcad22599c74c0f807"}, {"lon": -77.058819, "lat": 38.93634083333333, "rental_uris": {"ios": "https://dc.lft.to/lastmile_qr_scan", "android": "https://dc.lft.to/lastmile_qr_scan"}, "bike_id": "a6cdf26988bd17c7e129410402a18797", "type": "electric_scooter", "is_disabled": 0, "fusion_lat": 0.0, "fusion_lon": 0.0, "is_reserved": 0, "name": "a6cdf26988bd17c7e129410402a18797"}, {"lon": -77.04176616666666, "lat": 38.90590616666667, "rental_uris": {"ios": "https://dc.lft.to/lastmile_qr_scan", "android": "https://dc.lft.to/lastmile_qr_scan"}, "bike_id": "ff0d98fa49e7f1f8b556a6aca6860df0", "type": "electric_scooter", "is_disabled": 0, "fusion_lat": 0.0, "fusion_lon": 0.0, "is_reserved": 0, "name": "ff0d98fa49e7f1f8b556a6aca6860df0"}, {"lon": -77.06291966666667, "lat": 38.943461166666665, "rental_uris": {"ios": "https://dc.lft.to/lastmile_qr_scan", "android": "https://dc.lft.to/lastmile_qr_scan"}, "bike_id": "df43f60be6cb29009d339a5d74fa7f2b", "type": "electric_scooter", "is_disabled": 0, "fusion_lat": 0.0, "fusion_lon": 0.0, "is_reserved": 0, "name": "df43f60be6cb29009d339a5d74fa7f2b"}, {"lon": -77.003638, "lat": 38.89723883333333, "rental_uris": {"ios": "https://dc.lft.to/lastmile_qr_scan", "android": "https://dc.lft.to/lastmile_qr_scan"}, "bike_id": "8a870e96e43f974131300178373f50b0", "type": "electric_scooter", "is_disabled": 0, "fusion_lat": 0.0, "fusion_lon": 0.0, "is_reserved": 0, "name": "8a870e96e43f974131300178373f50b0"}, {"lon": -76.993642, "lat": 38.92838, "rental_uris": {"ios": "https://dc.lft.to/lastmile_qr_scan", "android": "https://dc.lft.to/lastmile_qr_scan"}, "bike_id": "0184ff8a8959f2998487ac114bbea830", "type": "electric_scooter", "is_disabled": 0, "fusion_lat": 0.0, "fusion_lon": 0.0, "is_reserved": 0, "name": "0184ff8a8959f2998487ac114bbea830"}, {"lon": -77.04326216666666, "lat": 38.892185833333336, "rental_uris": {"ios": "https://dc.lft.to/lastmile_qr_scan", "android": "https://dc.lft.to/lastmile_qr_scan"}, "bike_id": "c5c44ca76391adfd746cec3660f389ac", "type": "electric_scooter", "is_disabled": 0, "fusion_lat": 0.0, "fusion_lon": 0.0, "is_reserved": 0, "name": "c5c44ca76391adfd746cec3660f389ac"}, {"lon": -77.0534475, "lat": 38.902271166666665, "rental_uris": {"ios": "https://dc.lft.to/lastmile_qr_scan", "android": "https://dc.lft.to/lastmile_qr_scan"}, "bike_id": "90e70e86827a8945fea64899779ef476", "type": "electric_scooter", "is_disabled": 0, "fusion_lat": 0.0, "fusion_lon": 0.0, "is_reserved": 0, "name": "90e70e86827a8945fea64899779ef476"}, {"lon": -76.98879683333334, "lat": 38.866613, "rental_uris": {"ios": "https://dc.lft.to/lastmile_qr_scan", "android": "https://dc.lft.to/lastmile_qr_scan"}, "bike_id": "e3affad5af9c0e632f6b141f43e424c3", "type": "electric_scooter", "is_disabled": 0, "fusion_lat": 0.0, "fusion_lon": 0.0, "is_reserved": 0, "name": "e3affad5af9c0e632f6b141f43e424c3"}, {"lon": -77.04851366666666, "lat": 38.919615666666665, "rental_uris": {"ios": "https://dc.lft.to/lastmile_qr_scan", "android": "https://dc.lft.to/lastmile_qr_scan"}, "bike_id": "bb6cc2e59992fb2d1fe86e5128ec3e81", "type": "electric_scooter", "is_disabled": 0, "fusion_lat": 0.0, "fusion_lon": 0.0, "is_reserved": 0, "name": "bb6cc2e59992fb2d1fe86e5128ec3e81"}, {"lon": -77.05134716666667, "lat": 38.905355166666666, "rental_uris": {"ios": "https://dc.lft.to/lastmile_qr_scan", "android": "https://dc.lft.to/lastmile_qr_scan"}, "bike_id": "bc35283397a96e63f97e9a6f2a8fd47c", "type": "electric_scooter", "is_disabled": 0, "fusion_lat": 0.0, "fusion_lon": 0.0, "is_reserved": 0, "name": "bc35283397a96e63f97e9a6f2a8fd47c"}, {"lon": -77.0198735, "lat": 38.87582233333333, "rental_uris": {"ios": "https://dc.lft.to/lastmile_qr_scan", "android": "https://dc.lft.to/lastmile_qr_scan"}, "bike_id": "2830d84ce03e3c4d3cf7cf1f7d20f16d", "type": "electric_scooter", "is_disabled": 0, "fusion_lat": 0.0, "fusion_lon": 0.0, "is_reserved": 0, "name": "2830d84ce03e3c4d3cf7cf1f7d20f16d"}, {"lon": -77.02428033333334, "lat": 38.937176666666666, "rental_uris": {"ios": "https://dc.lft.to/lastmile_qr_scan", "android": "https://dc.lft.to/lastmile_qr_scan"}, "bike_id": "d4535f47097adc510b67240528748a0e", "type": "electric_scooter", "is_disabled": 0, "fusion_lat": 0.0, "fusion_lon": 0.0, "is_reserved": 0, "name": "d4535f47097adc510b67240528748a0e"}, {"lon": -77.03936483333334, "lat": 38.901111666666665, "rental_uris": {"ios": "https://dc.lft.to/lastmile_qr_scan", "android": "https://dc.lft.to/lastmile_qr_scan"}, "bike_id": "e9042cfde53b768155a8d82c27a1734b", "type": "electric_scooter", "is_disabled": 0, "fusion_lat": 0.0, "fusion_lon": 0.0, "is_reserved": 0, "name": "e9042cfde53b768155a8d82c27a1734b"}, {"lon": -77.02160816666667, "lat": 38.926074166666666, "rental_uris": {"ios": "https://dc.lft.to/lastmile_qr_scan", "android": "https://dc.lft.to/lastmile_qr_scan"}, "bike_id": "e44d3620c80d175768e8aed3a4b4e36b", "type": "electric_scooter", "is_disabled": 0, "fusion_lat": 0.0, "fusion_lon": 0.0, "is_reserved": 0, "name": "e44d3620c80d175768e8aed3a4b4e36b"}, {"lon": -76.98745383333333, "lat": 38.886139666666665, "rental_uris": {"ios": "https://dc.lft.to/lastmile_qr_scan", "android": "https://dc.lft.to/lastmile_qr_scan"}, "bike_id": "8e72e1f72d0e0cdd84f2c127c4fb4fe9", "type": "electric_scooter", "is_disabled": 0, "fusion_lat": 0.0, "fusion_lon": 0.0, "is_reserved": 0, "name": "8e72e1f72d0e0cdd84f2c127c4fb4fe9"}, {"lon": -77.03826516666666, "lat": 38.92165833333333, "rental_uris": {"ios": "https://dc.lft.to/lastmile_qr_scan", "android": "https://dc.lft.to/lastmile_qr_scan"}, "bike_id": "22a7bc70232f7e0639679740cb7deb09", "type": "electric_scooter", "is_disabled": 0, "fusion_lat": 0.0, "fusion_lon": 0.0, "is_reserved": 0, "name": "22a7bc70232f7e0639679740cb7deb09"}, {"lon": -77.0411165, "lat": 38.91262966666667, "rental_uris": {"ios": "https://dc.lft.to/lastmile_qr_scan", "android": "https://dc.lft.to/lastmile_qr_scan"}, "bike_id": "f459b463302f6152b29787197e0bb8a8", "type": "electric_scooter", "is_disabled": 0, "fusion_lat": 0.0, "fusion_lon": 0.0, "is_reserved": 0, "name": "f459b463302f6152b29787197e0bb8a8"}, {"lon": -77.02391483333334, "lat": 38.90707483333333, "rental_uris": {"ios": "https://dc.lft.to/lastmile_qr_scan", "android": "https://dc.lft.to/lastmile_qr_scan"}, "bike_id": "906cacf968d89048e41ec576b8479d10", "type": "electric_bike", "is_disabled": 0, "fusion_lat": 0.0, "fusion_lon": 0.0, "is_reserved": 0, "name": "906cacf968d89048e41ec576b8479d10"}, {"lon": -77.04367516666667, "lat": 38.922257, "rental_uris": {"ios": "https://dc.lft.to/lastmile_qr_scan", "android": "https://dc.lft.to/lastmile_qr_scan"}, "bike_id": "618304cc19cfe0e2348b4768e7257811", "type": "electric_scooter", "is_disabled": 0, "fusion_lat": 0.0, "fusion_lon": 0.0, "is_reserved": 0, "name": "618304cc19cfe0e2348b4768e7257811"}, {"lon": -77.028015, "lat": 38.8923045, "rental_uris": {"ios": "https://dc.lft.to/lastmile_qr_scan", "android": "https://dc.lft.to/lastmile_qr_scan"}, "bike_id": "73f648bc147c668c254860ccdb1a27ff", "type": "electric_scooter", "is_disabled": 0, "fusion_lat": 0.0, "fusion_lon": 0.0, "is_reserved": 0, "name": "73f648bc147c668c254860ccdb1a27ff"}, {"lon": -77.04496733333333, "lat": 38.90373366666667, "rental_uris": {"ios": "https://dc.lft.to/lastmile_qr_scan", "android": "https://dc.lft.to/lastmile_qr_scan"}, "bike_id": "1bf22b83df7fe32a4bfafa91bcdfb39d", "type": "electric_scooter", "is_disabled": 0, "fusion_lat": 0.0, "fusion_lon": 0.0, "is_reserved": 0, "name": "1bf22b83df7fe32a4bfafa91bcdfb39d"}, {"lon": -77.03467483333333, "lat": 38.920639333333334, "rental_uris": {"ios": "https://dc.lft.to/lastmile_qr_scan", "android": "https://dc.lft.to/lastmile_qr_scan"}, "bike_id": "3d97c2d903a3361009f1a8f3ceeac80c", "type": "electric_scooter", "is_disabled": 0, "fusion_lat": 0.0, "fusion_lon": 0.0, "is_reserved": 0, "name": "3d97c2d903a3361009f1a8f3ceeac80c"}, {"lon": -76.93265, "lat": 38.89893716666667, "rental_uris": {"ios": "https://dc.lft.to/lastmile_qr_scan", "android": "https://dc.lft.to/lastmile_qr_scan"}, "bike_id": "1868391d6d08262974ae5c0ece20a30b", "type": "electric_scooter", "is_disabled": 0, "fusion_lat": 0.0, "fusion_lon": 0.0, "is_reserved": 0, "name": "1868391d6d08262974ae5c0ece20a30b"}, {"lon": -77.04266616666666, "lat": 38.913306, "rental_uris": {"ios": "https://dc.lft.to/lastmile_qr_scan", "android": "https://dc.lft.to/lastmile_qr_scan"}, "bike_id": "308ff744f82e10bbcbabbb3f12a6dc16", "type": "electric_scooter", "is_disabled": 0, "fusion_lat": 0.0, "fusion_lon": 0.0, "is_reserved": 0, "name": "308ff744f82e10bbcbabbb3f12a6dc16"}, {"lon": -77.00612766666667, "lat": 38.90851116666666, "rental_uris": {"ios": "https://dc.lft.to/lastmile_qr_scan", "android": "https://dc.lft.to/lastmile_qr_scan"}, "bike_id": "cc91032cf93098afbc401f51f6554325", "type": "electric_scooter", "is_disabled": 0, "fusion_lat": 0.0, "fusion_lon": 0.0, "is_reserved": 0, "name": "cc91032cf93098afbc401f51f6554325"}, {"lon": -77.03208083333334, "lat": 38.896302, "rental_uris": {"ios": "https://dc.lft.to/lastmile_qr_scan", "android": "https://dc.lft.to/lastmile_qr_scan"}, "bike_id": "a05b472224fd8e921f4a3ba3452fb68f", "type": "electric_scooter", "is_disabled": 0, "fusion_lat": 0.0, "fusion_lon": 0.0, "is_reserved": 0, "name": "a05b472224fd8e921f4a3ba3452fb68f"}, {"lon": -77.04253333333334, "lat": 38.9223225, "rental_uris": {"ios": "https://dc.lft.to/lastmile_qr_scan", "android": "https://dc.lft.to/lastmile_qr_scan"}, "bike_id": "f8b32a4840706b4b0a16ff119294c0ca", "type": "electric_scooter", "is_disabled": 0, "fusion_lat": 0.0, "fusion_lon": 0.0, "is_reserved": 0, "name": "f8b32a4840706b4b0a16ff119294c0ca"}, {"lon": -77.01793366666666, "lat": 38.903958, "rental_uris": {"ios": "https://dc.lft.to/lastmile_qr_scan", "android": "https://dc.lft.to/lastmile_qr_scan"}, "bike_id": "f271a64524f03db92508340124230a71", "type": "electric_scooter", "is_disabled": 0, "fusion_lat": 0.0, "fusion_lon": 0.0, "is_reserved": 0, "name": "f271a64524f03db92508340124230a71"}, {"lon": -77.00781983333333, "lat": 38.90566283333333, "rental_uris": {"ios": "https://dc.lft.to/lastmile_qr_scan", "android": "https://dc.lft.to/lastmile_qr_scan"}, "bike_id": "b751498f61037cd53325a705ce2ea29a", "type": "electric_scooter", "is_disabled": 0, "fusion_lat": 0.0, "fusion_lon": 0.0, "is_reserved": 0, "name": "b751498f61037cd53325a705ce2ea29a"}, {"lon": -77.1170815, "lat": 38.867448333333336, "rental_uris": {"ios": "https://dc.lft.to/lastmile_qr_scan", "android": "https://dc.lft.to/lastmile_qr_scan"}, "bike_id": "b84e9358f265aae5341edda876de591f", "type": "electric_bike", "is_disabled": 0, "fusion_lat": 0.0, "fusion_lon": 0.0, "is_reserved": 0, "name": "b84e9358f265aae5341edda876de591f"}, {"lon": -77.01165033333334, "lat": 38.900324499999996, "rental_uris": {"ios": "https://dc.lft.to/lastmile_qr_scan", "android": "https://dc.lft.to/lastmile_qr_scan"}, "bike_id": "fa3ffdb0c6538a71298177bf1851d284", "type": "electric_scooter", "is_disabled": 0, "fusion_lat": 0.0, "fusion_lon": 0.0, "is_reserved": 0, "name": "fa3ffdb0c6538a71298177bf1851d284"}, {"lon": -77.022094, "lat": 38.8970745, "rental_uris": {"ios": "https://dc.lft.to/lastmile_qr_scan", "android": "https://dc.lft.to/lastmile_qr_scan"}, "bike_id": "85ee121b31e48e20bba436c45e4ad7c7", "type": "electric_scooter", "is_disabled": 0, "fusion_lat": 0.0, "fusion_lon": 0.0, "is_reserved": 0, "name": "85ee121b31e48e20bba436c45e4ad7c7"}, {"lon": -77.03252333333333, "lat": 38.92853383333333, "rental_uris": {"ios": "https://dc.lft.to/lastmile_qr_scan", "android": "https://dc.lft.to/lastmile_qr_scan"}, "bike_id": "a9eaf82b7769fb55f0b809d4cd30075e", "type": "electric_scooter", "is_disabled": 0, "fusion_lat": 0.0, "fusion_lon": 0.0, "is_reserved": 0, "name": "a9eaf82b7769fb55f0b809d4cd30075e"}, {"lon": -77.00726066666667, "lat": 38.8848985, "rental_uris": {"ios": "https://dc.lft.to/lastmile_qr_scan", "android": "https://dc.lft.to/lastmile_qr_scan"}, "bike_id": "682f45b9acc574f0c8e79c5d01b0d019", "type": "electric_scooter", "is_disabled": 0, "fusion_lat": 0.0, "fusion_lon": 0.0, "is_reserved": 0, "name": "682f45b9acc574f0c8e79c5d01b0d019"}, {"lon": -76.98457966666666, "lat": 38.903818, "rental_uris": {"ios": "https://dc.lft.to/lastmile_qr_scan", "android": "https://dc.lft.to/lastmile_qr_scan"}, "bike_id": "4f804227dae420eea88f8fa4784da7bc", "type": "electric_scooter", "is_disabled": 0, "fusion_lat": 0.0, "fusion_lon": 0.0, "is_reserved": 0, "name": "4f804227dae420eea88f8fa4784da7bc"}, {"lon": -77.01763116666666, "lat": 38.87685916666667, "rental_uris": {"ios": "https://dc.lft.to/lastmile_qr_scan", "android": "https://dc.lft.to/lastmile_qr_scan"}, "bike_id": "b740afc4fe5cf210058b94e7dcdeb19e", "type": "electric_scooter", "is_disabled": 0, "fusion_lat": 0.0, "fusion_lon": 0.0, "is_reserved": 0, "name": "b740afc4fe5cf210058b94e7dcdeb19e"}, {"lon": -76.988253, "lat": 38.9003625, "rental_uris": {"ios": "https://dc.lft.to/lastmile_qr_scan", "android": "https://dc.lft.to/lastmile_qr_scan"}, "bike_id": "82cc68bf35815a84593fecd1ea43d1d9", "type": "electric_scooter", "is_disabled": 0, "fusion_lat": 0.0, "fusion_lon": 0.0, "is_reserved": 0, "name": "82cc68bf35815a84593fecd1ea43d1d9"}, {"lon": -77.00372933333334, "lat": 38.882582666666664, "rental_uris": {"ios": "https://dc.lft.to/lastmile_qr_scan", "android": "https://dc.lft.to/lastmile_qr_scan"}, "bike_id": "87c94f552ad70233a2a9d477efeb9a24", "type": "electric_scooter", "is_disabled": 0, "fusion_lat": 0.0, "fusion_lon": 0.0, "is_reserved": 0, "name": "87c94f552ad70233a2a9d477efeb9a24"}, {"lon": -77.00737766666667, "lat": 38.89818566666667, "rental_uris": {"ios": "https://dc.lft.to/lastmile_qr_scan", "android": "https://dc.lft.to/lastmile_qr_scan"}, "bike_id": "64332a4aabd3c010e2cf3bd63e75a427", "type": "electric_scooter", "is_disabled": 0, "fusion_lat": 0.0, "fusion_lon": 0.0, "is_reserved": 0, "name": "64332a4aabd3c010e2cf3bd63e75a427"}, {"lon": -77.03826816666667, "lat": 38.90353733333333, "rental_uris": {"ios": "https://dc.lft.to/lastmile_qr_scan", "android": "https://dc.lft.to/lastmile_qr_scan"}, "bike_id": "c541acebd7d92d8b1964b171e1818606", "type": "electric_scooter", "is_disabled": 0, "fusion_lat": 0.0, "fusion_lon": 0.0, "is_reserved": 0, "name": "c541acebd7d92d8b1964b171e1818606"}, {"lon": -77.11246383333334, "lat": 38.856451, "rental_uris": {"ios": "https://dc.lft.to/lastmile_qr_scan", "android": "https://dc.lft.to/lastmile_qr_scan"}, "bike_id": "89be335f24190ee79ff1b9c2102e15b9", "type": "electric_bike", "is_disabled": 0, "fusion_lat": 0.0, "fusion_lon": 0.0, "is_reserved": 0, "name": "89be335f24190ee79ff1b9c2102e15b9"}, {"lon": -77.03270366666666, "lat": 38.928507833333335, "rental_uris": {"ios": "https://dc.lft.to/lastmile_qr_scan", "android": "https://dc.lft.to/lastmile_qr_scan"}, "bike_id": "9d39b117efa557dbc090dca55ec73cf9", "type": "electric_scooter", "is_disabled": 0, "fusion_lat": 0.0, "fusion_lon": 0.0, "is_reserved": 0, "name": "9d39b117efa557dbc090dca55ec73cf9"}, {"lon": -77.01141966666667, "lat": 38.915864, "rental_uris": {"ios": "https://dc.lft.to/lastmile_qr_scan", "android": "https://dc.lft.to/lastmile_qr_scan"}, "bike_id": "8400ef927855d7a629164c65a25b79fd", "type": "electric_scooter", "is_disabled": 0, "fusion_lat": 0.0, "fusion_lon": 0.0, "is_reserved": 0, "name": "8400ef927855d7a629164c65a25b79fd"}, {"lon": -77.06738233333333, "lat": 38.950095166666664, "rental_uris": {"ios": "https://dc.lft.to/lastmile_qr_scan", "android": "https://dc.lft.to/lastmile_qr_scan"}, "bike_id": "59574bbf60dbf647718c141c045afdfa", "type": "electric_scooter", "is_disabled": 0, "fusion_lat": 0.0, "fusion_lon": 0.0, "is_reserved": 0, "name": "59574bbf60dbf647718c141c045afdfa"}, {"lon": -77.0615275, "lat": 38.902550166666664, "rental_uris": {"ios": "https://dc.lft.to/lastmile_qr_scan", "android": "https://dc.lft.to/lastmile_qr_scan"}, "bike_id": "1fb8a5fc0e0febf459a8880442aba241", "type": "electric_scooter", "is_disabled": 0, "fusion_lat": 0.0, "fusion_lon": 0.0, "is_reserved": 0, "name": "1fb8a5fc0e0febf459a8880442aba241"}, {"lon": -77.04605933333333, "lat": 38.91608883333333, "rental_uris": {"ios": "https://dc.lft.to/lastmile_qr_scan", "android": "https://dc.lft.to/lastmile_qr_scan"}, "bike_id": "4a872fc60571cb80a3d7ae2e0025ce54", "type": "electric_scooter", "is_disabled": 0, "fusion_lat": 0.0, "fusion_lon": 0.0, "is_reserved": 0, "name": "4a872fc60571cb80a3d7ae2e0025ce54"}, {"lon": -77.03957983333333, "lat": 38.8924065, "rental_uris": {"ios": "https://dc.lft.to/lastmile_qr_scan", "android": "https://dc.lft.to/lastmile_qr_scan"}, "bike_id": "161776bd77cb081f62b6c5de68f037db", "type": "electric_scooter", "is_disabled": 0, "fusion_lat": 0.0, "fusion_lon": 0.0, "is_reserved": 0, "name": "161776bd77cb081f62b6c5de68f037db"}, {"lon": -77.03439783333333, "lat": 38.9056335, "rental_uris": {"ios": "https://dc.lft.to/lastmile_qr_scan", "android": "https://dc.lft.to/lastmile_qr_scan"}, "bike_id": "e1e5b3c334ba4348d9ffbd2fc77383ee", "type": "electric_scooter", "is_disabled": 0, "fusion_lat": 0.0, "fusion_lon": 0.0, "is_reserved": 0, "name": "e1e5b3c334ba4348d9ffbd2fc77383ee"}, {"lon": -77.04191616666667, "lat": 38.903655666666666, "rental_uris": {"ios": "https://dc.lft.to/lastmile_qr_scan", "android": "https://dc.lft.to/lastmile_qr_scan"}, "bike_id": "eb4ec5dd382ecf66017dc1e5058ba2d1", "type": "electric_scooter", "is_disabled": 0, "fusion_lat": 0.0, "fusion_lon": 0.0, "is_reserved": 0, "name": "eb4ec5dd382ecf66017dc1e5058ba2d1"}, {"lon": -77.0175565, "lat": 38.917367, "rental_uris": {"ios": "https://dc.lft.to/lastmile_qr_scan", "android": "https://dc.lft.to/lastmile_qr_scan"}, "bike_id": "40d74efeb014ba5367959c345e5a3014", "type": "electric_scooter", "is_disabled": 0, "fusion_lat": 0.0, "fusion_lon": 0.0, "is_reserved": 0, "name": "40d74efeb014ba5367959c345e5a3014"}, {"lon": -77.012399, "lat": 38.83045833333333, "rental_uris": {"ios": "https://dc.lft.to/lastmile_qr_scan", "android": "https://dc.lft.to/lastmile_qr_scan"}, "bike_id": "5f166f7b146629866a6d23b07492b28d", "type": "electric_scooter", "is_disabled": 0, "fusion_lat": 0.0, "fusion_lon": 0.0, "is_reserved": 0, "name": "5f166f7b146629866a6d23b07492b28d"}, {"lon": -77.0272455, "lat": 38.94082916666667, "rental_uris": {"ios": "https://dc.lft.to/lastmile_qr_scan", "android": "https://dc.lft.to/lastmile_qr_scan"}, "bike_id": "a8f5d1e899c7bebaa7112ede4db9eeae", "type": "electric_scooter", "is_disabled": 0, "fusion_lat": 0.0, "fusion_lon": 0.0, "is_reserved": 0, "name": "a8f5d1e899c7bebaa7112ede4db9eeae"}, {"lon": -77.0344785, "lat": 38.930931666666666, "rental_uris": {"ios": "https://dc.lft.to/lastmile_qr_scan", "android": "https://dc.lft.to/lastmile_qr_scan"}, "bike_id": "f58c6cc15ddbe0614f3a60864e80ef6c", "type": "electric_scooter", "is_disabled": 0, "fusion_lat": 0.0, "fusion_lon": 0.0, "is_reserved": 0, "name": "f58c6cc15ddbe0614f3a60864e80ef6c"}, {"lon": -77.00338683333334, "lat": 38.8987285, "rental_uris": {"ios": "https://dc.lft.to/lastmile_qr_scan", "android": "https://dc.lft.to/lastmile_qr_scan"}, "bike_id": "c473185cf8705a8300ffe15f03fac4d5", "type": "electric_scooter", "is_disabled": 0, "fusion_lat": 0.0, "fusion_lon": 0.0, "is_reserved": 0, "name": "c473185cf8705a8300ffe15f03fac4d5"}, {"lon": -77.04484983333333, "lat": 38.92404, "rental_uris": {"ios": "https://dc.lft.to/lastmile_qr_scan", "android": "https://dc.lft.to/lastmile_qr_scan"}, "bike_id": "9fd470a206556a8d62732998a2945771", "type": "electric_scooter", "is_disabled": 0, "fusion_lat": 0.0, "fusion_lon": 0.0, "is_reserved": 0, "name": "9fd470a206556a8d62732998a2945771"}, {"lon": -77.05581, "lat": 38.93612066666667, "rental_uris": {"ios": "https://dc.lft.to/lastmile_qr_scan", "android": "https://dc.lft.to/lastmile_qr_scan"}, "bike_id": "bab8b5201af5f08cd1561bcc772d93d1", "type": "electric_scooter", "is_disabled": 0, "fusion_lat": 0.0, "fusion_lon": 0.0, "is_reserved": 0, "name": "bab8b5201af5f08cd1561bcc772d93d1"}, {"lon": -77.02476483333334, "lat": 38.93861033333334, "rental_uris": {"ios": "https://dc.lft.to/lastmile_qr_scan", "android": "https://dc.lft.to/lastmile_qr_scan"}, "bike_id": "071b0636f59fb5d3a744ab8ab62bafbe", "type": "electric_scooter", "is_disabled": 0, "fusion_lat": 0.0, "fusion_lon": 0.0, "is_reserved": 0, "name": "071b0636f59fb5d3a744ab8ab62bafbe"}, {"lon": -77.027723, "lat": 38.954279166666666, "rental_uris": {"ios": "https://dc.lft.to/lastmile_qr_scan", "android": "https://dc.lft.to/lastmile_qr_scan"}, "bike_id": "fce83b7341d053f6ac900e00055f74da", "type": "electric_scooter", "is_disabled": 0, "fusion_lat": 0.0, "fusion_lon": 0.0, "is_reserved": 0, "name": "fce83b7341d053f6ac900e00055f74da"}, {"lon": -76.96603633333334, "lat": 38.87109566666667, "rental_uris": {"ios": "https://dc.lft.to/lastmile_qr_scan", "android": "https://dc.lft.to/lastmile_qr_scan"}, "bike_id": "cc89fa402fdebc740eda9a813955be1c", "type": "electric_scooter", "is_disabled": 0, "fusion_lat": 0.0, "fusion_lon": 0.0, "is_reserved": 0, "name": "cc89fa402fdebc740eda9a813955be1c"}, {"lon": -77.02275966666667, "lat": 38.898401166666666, "rental_uris": {"ios": "https://dc.lft.to/lastmile_qr_scan", "android": "https://dc.lft.to/lastmile_qr_scan"}, "bike_id": "c6da4e2209b93877e30b41779fa0cd6d", "type": "electric_scooter", "is_disabled": 0, "fusion_lat": 0.0, "fusion_lon": 0.0, "is_reserved": 0, "name": "c6da4e2209b93877e30b41779fa0cd6d"}, {"lon": -77.02393033333334, "lat": 38.896222, "rental_uris": {"ios": "https://dc.lft.to/lastmile_qr_scan", "android": "https://dc.lft.to/lastmile_qr_scan"}, "bike_id": "e3d0cbc9522fddec9c96030a068dd39a", "type": "electric_scooter", "is_disabled": 0, "fusion_lat": 0.0, "fusion_lon": 0.0, "is_reserved": 0, "name": "e3d0cbc9522fddec9c96030a068dd39a"}, {"lon": -77.03862566666666, "lat": 38.92145933333333, "rental_uris": {"ios": "https://dc.lft.to/lastmile_qr_scan", "android": "https://dc.lft.to/lastmile_qr_scan"}, "bike_id": "859f9e2eb8be7c7d33a6d1cc84ae62e5", "type": "electric_scooter", "is_disabled": 0, "fusion_lat": 0.0, "fusion_lon": 0.0, "is_reserved": 0, "name": "859f9e2eb8be7c7d33a6d1cc84ae62e5"}, {"lon": -77.03190983333333, "lat": 38.9164465, "rental_uris": {"ios": "https://dc.lft.to/lastmile_qr_scan", "android": "https://dc.lft.to/lastmile_qr_scan"}, "bike_id": "7bb424a7de4ac5acbad3bcf290b67ee2", "type": "electric_scooter", "is_disabled": 0, "fusion_lat": 0.0, "fusion_lon": 0.0, "is_reserved": 0, "name": "7bb424a7de4ac5acbad3bcf290b67ee2"}, {"lon": -77.02625533333334, "lat": 38.962216833333336, "rental_uris": {"ios": "https://dc.lft.to/lastmile_qr_scan", "android": "https://dc.lft.to/lastmile_qr_scan"}, "bike_id": "7323e6fd6b603105edbb4d8253c30119", "type": "electric_bike", "is_disabled": 0, "fusion_lat": 0.0, "fusion_lon": 0.0, "is_reserved": 0, "name": "7323e6fd6b603105edbb4d8253c30119"}, {"lon": -77.05477466666666, "lat": 38.910647833333336, "rental_uris": {"ios": "https://dc.lft.to/lastmile_qr_scan", "android": "https://dc.lft.to/lastmile_qr_scan"}, "bike_id": "bf67053b799b53fcc3d7008c9df1ef73", "type": "electric_scooter", "is_disabled": 0, "fusion_lat": 0.0, "fusion_lon": 0.0, "is_reserved": 0, "name": "bf67053b799b53fcc3d7008c9df1ef73"}, {"lon": -77.066758, "lat": 38.9495695, "rental_uris": {"ios": "https://dc.lft.to/lastmile_qr_scan", "android": "https://dc.lft.to/lastmile_qr_scan"}, "bike_id": "d71b9f40d11f62c44a0b1b3c2fa4f565", "type": "electric_scooter", "is_disabled": 0, "fusion_lat": 0.0, "fusion_lon": 0.0, "is_reserved": 0, "name": "d71b9f40d11f62c44a0b1b3c2fa4f565"}, {"lon": -77.02977233333333, "lat": 38.916784, "rental_uris": {"ios": "https://dc.lft.to/lastmile_qr_scan", "android": "https://dc.lft.to/lastmile_qr_scan"}, "bike_id": "0804ff152c53f7ef8e60959289d74e9d", "type": "electric_scooter", "is_disabled": 0, "fusion_lat": 0.0, "fusion_lon": 0.0, "is_reserved": 0, "name": "0804ff152c53f7ef8e60959289d74e9d"}, {"lon": -77.00618416666667, "lat": 38.87173166666667, "rental_uris": {"ios": "https://dc.lft.to/lastmile_qr_scan", "android": "https://dc.lft.to/lastmile_qr_scan"}, "bike_id": "051001220a5dca0e5964a7290e4e162c", "type": "electric_scooter", "is_disabled": 0, "fusion_lat": 0.0, "fusion_lon": 0.0, "is_reserved": 0, "name": "051001220a5dca0e5964a7290e4e162c"}, {"lon": -77.04719366666667, "lat": 38.909560166666665, "rental_uris": {"ios": "https://dc.lft.to/lastmile_qr_scan", "android": "https://dc.lft.to/lastmile_qr_scan"}, "bike_id": "cc4fff6ee2cca537fca0870edcb190e1", "type": "electric_scooter", "is_disabled": 0, "fusion_lat": 0.0, "fusion_lon": 0.0, "is_reserved": 0, "name": "cc4fff6ee2cca537fca0870edcb190e1"}, {"lon": -77.03835966666666, "lat": 38.902838, "rental_uris": {"ios": "https://dc.lft.to/lastmile_qr_scan", "android": "https://dc.lft.to/lastmile_qr_scan"}, "bike_id": "2d5de7769aba75a88ee9f732b039f214", "type": "electric_scooter", "is_disabled": 0, "fusion_lat": 0.0, "fusion_lon": 0.0, "is_reserved": 0, "name": "2d5de7769aba75a88ee9f732b039f214"}, {"lon": -77.04322616666667, "lat": 38.89223716666667, "rental_uris": {"ios": "https://dc.lft.to/lastmile_qr_scan", "android": "https://dc.lft.to/lastmile_qr_scan"}, "bike_id": "2d2fb039a9303f4ed56ee511523c5845", "type": "electric_scooter", "is_disabled": 0, "fusion_lat": 0.0, "fusion_lon": 0.0, "is_reserved": 0, "name": "2d2fb039a9303f4ed56ee511523c5845"}, {"lon": -77.00487016666666, "lat": 38.87475933333333, "rental_uris": {"ios": "https://dc.lft.to/lastmile_qr_scan", "android": "https://dc.lft.to/lastmile_qr_scan"}, "bike_id": "53ccde947e2f3c7ff6f14489c92c5e60", "type": "electric_scooter", "is_disabled": 0, "fusion_lat": 0.0, "fusion_lon": 0.0, "is_reserved": 0, "name": "53ccde947e2f3c7ff6f14489c92c5e60"}, {"lon": -76.98099483333333, "lat": 38.9211005, "rental_uris": {"ios": "https://dc.lft.to/lastmile_qr_scan", "android": "https://dc.lft.to/lastmile_qr_scan"}, "bike_id": "586e84cd9d226b00d270fc22fe3bf585", "type": "electric_bike", "is_disabled": 0, "fusion_lat": 0.0, "fusion_lon": 0.0, "is_reserved": 0, "name": "586e84cd9d226b00d270fc22fe3bf585"}, {"lon": -76.9979725, "lat": 38.956421166666665, "rental_uris": {"ios": "https://dc.lft.to/lastmile_qr_scan", "android": "https://dc.lft.to/lastmile_qr_scan"}, "bike_id": "97d92ac4c4d2659850c8566ae3254edb", "type": "electric_bike", "is_disabled": 0, "fusion_lat": 0.0, "fusion_lon": 0.0, "is_reserved": 0, "name": "97d92ac4c4d2659850c8566ae3254edb"}, {"lon": -76.99579133333333, "lat": 38.85288933333333, "rental_uris": {"ios": "https://dc.lft.to/lastmile_qr_scan", "android": "https://dc.lft.to/lastmile_qr_scan"}, "bike_id": "3949ea68c72b2192f8cfa251c196c890", "type": "electric_bike", "is_disabled": 0, "fusion_lat": 0.0, "fusion_lon": 0.0, "is_reserved": 0, "name": "3949ea68c72b2192f8cfa251c196c890"}, {"lon": -77.03264083333333, "lat": 38.946222166666665, "rental_uris": {"ios": "https://dc.lft.to/lastmile_qr_scan", "android": "https://dc.lft.to/lastmile_qr_scan"}, "bike_id": "0b0d4453ab8e5d8fcb589191f753cfe3", "type": "electric_scooter", "is_disabled": 0, "fusion_lat": 0.0, "fusion_lon": 0.0, "is_reserved": 0, "name": "0b0d4453ab8e5d8fcb589191f753cfe3"}, {"lon": -76.95533966666666, "lat": 38.8877205, "rental_uris": {"ios": "https://dc.lft.to/lastmile_qr_scan", "android": "https://dc.lft.to/lastmile_qr_scan"}, "bike_id": "a44fe9ec4308ef777182a30d08a79984", "type": "electric_scooter", "is_disabled": 0, "fusion_lat": 0.0, "fusion_lon": 0.0, "is_reserved": 0, "name": "a44fe9ec4308ef777182a30d08a79984"}, {"lon": -77.0492345, "lat": 38.8952535, "rental_uris": {"ios": "https://dc.lft.to/lastmile_qr_scan", "android": "https://dc.lft.to/lastmile_qr_scan"}, "bike_id": "f946db9f2a6daa49617fda4694f3dc2c", "type": "electric_scooter", "is_disabled": 0, "fusion_lat": 0.0, "fusion_lon": 0.0, "is_reserved": 0, "name": "f946db9f2a6daa49617fda4694f3dc2c"}, {"lon": -77.05356916666666, "lat": 38.92720116666667, "rental_uris": {"ios": "https://dc.lft.to/lastmile_qr_scan", "android": "https://dc.lft.to/lastmile_qr_scan"}, "bike_id": "c6041d50b096a334ebf7a7b694f666dd", "type": "electric_scooter", "is_disabled": 0, "fusion_lat": 0.0, "fusion_lon": 0.0, "is_reserved": 0, "name": "c6041d50b096a334ebf7a7b694f666dd"}, {"lon": -77.02374083333333, "lat": 38.907441666666664, "rental_uris": {"ios": "https://dc.lft.to/lastmile_qr_scan", "android": "https://dc.lft.to/lastmile_qr_scan"}, "bike_id": "7dc10ab86d8e2a28244d29b025ff1be3", "type": "electric_scooter", "is_disabled": 0, "fusion_lat": 0.0, "fusion_lon": 0.0, "is_reserved": 0, "name": "7dc10ab86d8e2a28244d29b025ff1be3"}, {"lon": -77.00345833333333, "lat": 38.88614466666667, "rental_uris": {"ios": "https://dc.lft.to/lastmile_qr_scan", "android": "https://dc.lft.to/lastmile_qr_scan"}, "bike_id": "54baa65c588a6e3c23120218ca67abcc", "type": "electric_scooter", "is_disabled": 0, "fusion_lat": 0.0, "fusion_lon": 0.0, "is_reserved": 0, "name": "54baa65c588a6e3c23120218ca67abcc"}, {"lon": -77.03775616666667, "lat": 38.92205516666667, "rental_uris": {"ios": "https://dc.lft.to/lastmile_qr_scan", "android": "https://dc.lft.to/lastmile_qr_scan"}, "bike_id": "047e472bc98a96699acd0344684c8a08", "type": "electric_scooter", "is_disabled": 0, "fusion_lat": 0.0, "fusion_lon": 0.0, "is_reserved": 0, "name": "047e472bc98a96699acd0344684c8a08"}, {"lon": -76.99528533333333, "lat": 38.883644833333335, "rental_uris": {"ios": "https://dc.lft.to/lastmile_qr_scan", "android": "https://dc.lft.to/lastmile_qr_scan"}, "bike_id": "43dfee4ac4641b084eec85fdeccbdade", "type": "electric_scooter", "is_disabled": 0, "fusion_lat": 0.0, "fusion_lon": 0.0, "is_reserved": 0, "name": "43dfee4ac4641b084eec85fdeccbdade"}, {"lon": -76.99412683333334, "lat": 38.87783783333333, "rental_uris": {"ios": "https://dc.lft.to/lastmile_qr_scan", "android": "https://dc.lft.to/lastmile_qr_scan"}, "bike_id": "593045024a7ba0a98f11a217ad37e888", "type": "electric_scooter", "is_disabled": 0, "fusion_lat": 0.0, "fusion_lon": 0.0, "is_reserved": 0, "name": "593045024a7ba0a98f11a217ad37e888"}, {"lon": -77.049899, "lat": 38.89730983333333, "rental_uris": {"ios": "https://dc.lft.to/lastmile_qr_scan", "android": "https://dc.lft.to/lastmile_qr_scan"}, "bike_id": "572ddf1b6df0411a020871110248e0cd", "type": "electric_scooter", "is_disabled": 0, "fusion_lat": 0.0, "fusion_lon": 0.0, "is_reserved": 0, "name": "572ddf1b6df0411a020871110248e0cd"}, {"lon": -77.03319116666667, "lat": 38.90003166666666, "rental_uris": {"ios": "https://dc.lft.to/lastmile_qr_scan", "android": "https://dc.lft.to/lastmile_qr_scan"}, "bike_id": "6af73ac38e680d3d3231b2d86d5eb993", "type": "electric_scooter", "is_disabled": 0, "fusion_lat": 0.0, "fusion_lon": 0.0, "is_reserved": 0, "name": "6af73ac38e680d3d3231b2d86d5eb993"}, {"lon": -77.08396733333333, "lat": 38.90804133333334, "rental_uris": {"ios": "https://dc.lft.to/lastmile_qr_scan", "android": "https://dc.lft.to/lastmile_qr_scan"}, "bike_id": "47d10eabf41551f7f81887cdc8efca96", "type": "electric_scooter", "is_disabled": 0, "fusion_lat": 0.0, "fusion_lon": 0.0, "is_reserved": 0, "name": "47d10eabf41551f7f81887cdc8efca96"}, {"lon": -77.01885766666666, "lat": 38.910094, "rental_uris": {"ios": "https://dc.lft.to/lastmile_qr_scan", "android": "https://dc.lft.to/lastmile_qr_scan"}, "bike_id": "d7fb5d881e7a13dcad96b41c3dac7bd8", "type": "electric_scooter", "is_disabled": 0, "fusion_lat": 0.0, "fusion_lon": 0.0, "is_reserved": 0, "name": "d7fb5d881e7a13dcad96b41c3dac7bd8"}, {"lon": -77.0287025, "lat": 38.9256345, "rental_uris": {"ios": "https://dc.lft.to/lastmile_qr_scan", "android": "https://dc.lft.to/lastmile_qr_scan"}, "bike_id": "5a6f78ae67899470c32c85ce658dc8e1", "type": "electric_scooter", "is_disabled": 0, "fusion_lat": 0.0, "fusion_lon": 0.0, "is_reserved": 0, "name": "5a6f78ae67899470c32c85ce658dc8e1"}, {"lon": -77.03689983333334, "lat": 38.916702, "rental_uris": {"ios": "https://dc.lft.to/lastmile_qr_scan", "android": "https://dc.lft.to/lastmile_qr_scan"}, "bike_id": "534899c1c4c8a09d162f8043b4511226", "type": "electric_scooter", "is_disabled": 0, "fusion_lat": 0.0, "fusion_lon": 0.0, "is_reserved": 0, "name": "534899c1c4c8a09d162f8043b4511226"}, {"lon": -77.026134, "lat": 38.92978183333334, "rental_uris": {"ios": "https://dc.lft.to/lastmile_qr_scan", "android": "https://dc.lft.to/lastmile_qr_scan"}, "bike_id": "292ee598903a75de8c92dd1f06158eba", "type": "electric_scooter", "is_disabled": 0, "fusion_lat": 0.0, "fusion_lon": 0.0, "is_reserved": 0, "name": "292ee598903a75de8c92dd1f06158eba"}, {"lon": -77.04506033333334, "lat": 38.907769333333334, "rental_uris": {"ios": "https://dc.lft.to/lastmile_qr_scan", "android": "https://dc.lft.to/lastmile_qr_scan"}, "bike_id": "5ba404e041f75e321c290e8a42870796", "type": "electric_scooter", "is_disabled": 0, "fusion_lat": 0.0, "fusion_lon": 0.0, "is_reserved": 0, "name": "5ba404e041f75e321c290e8a42870796"}, {"lon": -76.99067816666667, "lat": 38.863584333333336, "rental_uris": {"ios": "https://dc.lft.to/lastmile_qr_scan", "android": "https://dc.lft.to/lastmile_qr_scan"}, "bike_id": "1f82da7ff2b30deec6bcc01be0ae569b", "type": "electric_scooter", "is_disabled": 0, "fusion_lat": 0.0, "fusion_lon": 0.0, "is_reserved": 0, "name": "1f82da7ff2b30deec6bcc01be0ae569b"}, {"lon": -77.03861316666666, "lat": 38.944985, "rental_uris": {"ios": "https://dc.lft.to/lastmile_qr_scan", "android": "https://dc.lft.to/lastmile_qr_scan"}, "bike_id": "359ff9dc6f033462e3ddbfcc72bb86ad", "type": "electric_scooter", "is_disabled": 0, "fusion_lat": 0.0, "fusion_lon": 0.0, "is_reserved": 0, "name": "359ff9dc6f033462e3ddbfcc72bb86ad"}, {"lon": -76.98721383333333, "lat": 38.86677533333334, "rental_uris": {"ios": "https://dc.lft.to/lastmile_qr_scan", "android": "https://dc.lft.to/lastmile_qr_scan"}, "bike_id": "f85aeec475e91f5c78c05a25d6d2019b", "type": "electric_scooter", "is_disabled": 0, "fusion_lat": 0.0, "fusion_lon": 0.0, "is_reserved": 0, "name": "f85aeec475e91f5c78c05a25d6d2019b"}, {"lon": -76.98647116666666, "lat": 38.901668666666666, "rental_uris": {"ios": "https://dc.lft.to/lastmile_qr_scan", "android": "https://dc.lft.to/lastmile_qr_scan"}, "bike_id": "f5292b97b9529e098309b731b33e482d", "type": "electric_scooter", "is_disabled": 0, "fusion_lat": 0.0, "fusion_lon": 0.0, "is_reserved": 0, "name": "f5292b97b9529e098309b731b33e482d"}, {"lon": -76.9501685, "lat": 38.89384733333333, "rental_uris": {"ios": "https://dc.lft.to/lastmile_qr_scan", "android": "https://dc.lft.to/lastmile_qr_scan"}, "bike_id": "e0c48c89bd293345dda5ea82de744fea", "type": "electric_scooter", "is_disabled": 0, "fusion_lat": 0.0, "fusion_lon": 0.0, "is_reserved": 0, "name": "e0c48c89bd293345dda5ea82de744fea"}, {"lon": -76.9971165, "lat": 38.907726, "rental_uris": {"ios": "https://dc.lft.to/lastmile_qr_scan", "android": "https://dc.lft.to/lastmile_qr_scan"}, "bike_id": "246798a575f3bcbad50d78ff554479a8", "type": "electric_scooter", "is_disabled": 0, "fusion_lat": 0.0, "fusion_lon": 0.0, "is_reserved": 0, "name": "246798a575f3bcbad50d78ff554479a8"}, {"lon": -77.0467375, "lat": 38.89649266666667, "rental_uris": {"ios": "https://dc.lft.to/lastmile_qr_scan", "android": "https://dc.lft.to/lastmile_qr_scan"}, "bike_id": "7ebc71a4004e45a0b6a81e6b7e8073ea", "type": "electric_scooter", "is_disabled": 0, "fusion_lat": 0.0, "fusion_lon": 0.0, "is_reserved": 0, "name": "7ebc71a4004e45a0b6a81e6b7e8073ea"}, {"lon": -77.00760366666667, "lat": 38.876636166666664, "rental_uris": {"ios": "https://dc.lft.to/lastmile_qr_scan", "android": "https://dc.lft.to/lastmile_qr_scan"}, "bike_id": "c1e883106b8aec928a2b1d4566c1a3ca", "type": "electric_scooter", "is_disabled": 0, "fusion_lat": 0.0, "fusion_lon": 0.0, "is_reserved": 0, "name": "c1e883106b8aec928a2b1d4566c1a3ca"}, {"lon": -76.94876516666666, "lat": 38.89551933333333, "rental_uris": {"ios": "https://dc.lft.to/lastmile_qr_scan", "android": "https://dc.lft.to/lastmile_qr_scan"}, "bike_id": "20cc99a5206379fb515b7f4753a8bfa5", "type": "electric_scooter", "is_disabled": 0, "fusion_lat": 0.0, "fusion_lon": 0.0, "is_reserved": 0, "name": "20cc99a5206379fb515b7f4753a8bfa5"}, {"lon": -77.025526, "lat": 38.9413245, "rental_uris": {"ios": "https://dc.lft.to/lastmile_qr_scan", "android": "https://dc.lft.to/lastmile_qr_scan"}, "bike_id": "b4616193be709eb67be66fcceef589c4", "type": "electric_scooter", "is_disabled": 0, "fusion_lat": 0.0, "fusion_lon": 0.0, "is_reserved": 0, "name": "b4616193be709eb67be66fcceef589c4"}, {"lon": -77.02995616666666, "lat": 38.926726333333335, "rental_uris": {"ios": "https://dc.lft.to/lastmile_qr_scan", "android": "https://dc.lft.to/lastmile_qr_scan"}, "bike_id": "f684918e95e2995874c584501a9bd512", "type": "electric_scooter", "is_disabled": 0, "fusion_lat": 0.0, "fusion_lon": 0.0, "is_reserved": 0, "name": "f684918e95e2995874c584501a9bd512"}, {"lon": -77.02492166666667, "lat": 38.94197316666666, "rental_uris": {"ios": "https://dc.lft.to/lastmile_qr_scan", "android": "https://dc.lft.to/lastmile_qr_scan"}, "bike_id": "9c718bb34ef5bc34efed74ae8c476a3d", "type": "electric_scooter", "is_disabled": 0, "fusion_lat": 0.0, "fusion_lon": 0.0, "is_reserved": 0, "name": "9c718bb34ef5bc34efed74ae8c476a3d"}, {"lon": -77.0405455, "lat": 38.91869366666667, "rental_uris": {"ios": "https://dc.lft.to/lastmile_qr_scan", "android": "https://dc.lft.to/lastmile_qr_scan"}, "bike_id": "808e458ca48cd053e018c9d4acedb4b8", "type": "electric_scooter", "is_disabled": 0, "fusion_lat": 0.0, "fusion_lon": 0.0, "is_reserved": 0, "name": "808e458ca48cd053e018c9d4acedb4b8"}, {"lon": -77.05565183333333, "lat": 38.90931233333333, "rental_uris": {"ios": "https://dc.lft.to/lastmile_qr_scan", "android": "https://dc.lft.to/lastmile_qr_scan"}, "bike_id": "d08ee0ba2ae895b66030e106ff95753a", "type": "electric_scooter", "is_disabled": 0, "fusion_lat": 0.0, "fusion_lon": 0.0, "is_reserved": 0, "name": "d08ee0ba2ae895b66030e106ff95753a"}, {"lon": -77.032523, "lat": 38.932439, "rental_uris": {"ios": "https://dc.lft.to/lastmile_qr_scan", "android": "https://dc.lft.to/lastmile_qr_scan"}, "bike_id": "4da7566678c246a4c3031a1a5b4b143e", "type": "electric_scooter", "is_disabled": 0, "fusion_lat": 0.0, "fusion_lon": 0.0, "is_reserved": 0, "name": "4da7566678c246a4c3031a1a5b4b143e"}, {"lon": -77.00189533333334, "lat": 38.894435, "rental_uris": {"ios": "https://dc.lft.to/lastmile_qr_scan", "android": "https://dc.lft.to/lastmile_qr_scan"}, "bike_id": "6e68ef6f3c274533a7a017050ecc706a", "type": "electric_scooter", "is_disabled": 0, "fusion_lat": 0.0, "fusion_lon": 0.0, "is_reserved": 0, "name": "6e68ef6f3c274533a7a017050ecc706a"}, {"lon": -77.0537815, "lat": 38.8988345, "rental_uris": {"ios": "https://dc.lft.to/lastmile_qr_scan", "android": "https://dc.lft.to/lastmile_qr_scan"}, "bike_id": "d471a67f6208792b93d5a09f05a3e96e", "type": "electric_scooter", "is_disabled": 0, "fusion_lat": 0.0, "fusion_lon": 0.0, "is_reserved": 0, "name": "d471a67f6208792b93d5a09f05a3e96e"}, {"lon": -77.03086733333333, "lat": 38.927244333333334, "rental_uris": {"ios": "https://dc.lft.to/lastmile_qr_scan", "android": "https://dc.lft.to/lastmile_qr_scan"}, "bike_id": "8320e72b2f1c7cadee89366f26e5b925", "type": "electric_scooter", "is_disabled": 0, "fusion_lat": 0.0, "fusion_lon": 0.0, "is_reserved": 0, "name": "8320e72b2f1c7cadee89366f26e5b925"}, {"lon": -77.03593033333334, "lat": 38.9393045, "rental_uris": {"ios": "https://dc.lft.to/lastmile_qr_scan", "android": "https://dc.lft.to/lastmile_qr_scan"}, "bike_id": "1f2da267863c54c45cc420e6bd21cc63", "type": "electric_scooter", "is_disabled": 0, "fusion_lat": 0.0, "fusion_lon": 0.0, "is_reserved": 0, "name": "1f2da267863c54c45cc420e6bd21cc63"}, {"lon": -77.04121083333334, "lat": 38.91700616666667, "rental_uris": {"ios": "https://dc.lft.to/lastmile_qr_scan", "android": "https://dc.lft.to/lastmile_qr_scan"}, "bike_id": "208328e77b1c8968e079f9a7a75eb08a", "type": "electric_scooter", "is_disabled": 0, "fusion_lat": 0.0, "fusion_lon": 0.0, "is_reserved": 0, "name": "208328e77b1c8968e079f9a7a75eb08a"}, {"lon": -76.98801883333333, "lat": 38.867318, "rental_uris": {"ios": "https://dc.lft.to/lastmile_qr_scan", "android": "https://dc.lft.to/lastmile_qr_scan"}, "bike_id": "d895eb1429b209804d401606784869db", "type": "electric_scooter", "is_disabled": 0, "fusion_lat": 0.0, "fusion_lon": 0.0, "is_reserved": 0, "name": "d895eb1429b209804d401606784869db"}, {"lon": -77.079273, "lat": 38.93109883333333, "rental_uris": {"ios": "https://dc.lft.to/lastmile_qr_scan", "android": "https://dc.lft.to/lastmile_qr_scan"}, "bike_id": "f489fd822421057e8364b21b4268b423", "type": "electric_scooter", "is_disabled": 0, "fusion_lat": 0.0, "fusion_lon": 0.0, "is_reserved": 0, "name": "f489fd822421057e8364b21b4268b423"}, {"lon": -76.98302683333333, "lat": 38.905217, "rental_uris": {"ios": "https://dc.lft.to/lastmile_qr_scan", "android": "https://dc.lft.to/lastmile_qr_scan"}, "bike_id": "334018847af00bdbe1f6d3c5a7e81d1c", "type": "electric_scooter", "is_disabled": 0, "fusion_lat": 0.0, "fusion_lon": 0.0, "is_reserved": 0, "name": "334018847af00bdbe1f6d3c5a7e81d1c"}, {"lon": -76.98149833333333, "lat": 38.90315966666667, "rental_uris": {"ios": "https://dc.lft.to/lastmile_qr_scan", "android": "https://dc.lft.to/lastmile_qr_scan"}, "bike_id": "05bbe718409e58d4457cd099d7fba093", "type": "electric_scooter", "is_disabled": 0, "fusion_lat": 0.0, "fusion_lon": 0.0, "is_reserved": 0, "name": "05bbe718409e58d4457cd099d7fba093"}, {"lon": -77.03022883333334, "lat": 38.932137166666664, "rental_uris": {"ios": "https://dc.lft.to/lastmile_qr_scan", "android": "https://dc.lft.to/lastmile_qr_scan"}, "bike_id": "9caf8336654ac9d28372d622bb952702", "type": "electric_scooter", "is_disabled": 0, "fusion_lat": 0.0, "fusion_lon": 0.0, "is_reserved": 0, "name": "9caf8336654ac9d28372d622bb952702"}, {"lon": -77.024913, "lat": 38.92751, "rental_uris": {"ios": "https://dc.lft.to/lastmile_qr_scan", "android": "https://dc.lft.to/lastmile_qr_scan"}, "bike_id": "0273d2748f44d2272fc67026ed674242", "type": "electric_scooter", "is_disabled": 0, "fusion_lat": 0.0, "fusion_lon": 0.0, "is_reserved": 0, "name": "0273d2748f44d2272fc67026ed674242"}, {"lon": -77.03930433333333, "lat": 38.90258633333333, "rental_uris": {"ios": "https://dc.lft.to/lastmile_qr_scan", "android": "https://dc.lft.to/lastmile_qr_scan"}, "bike_id": "9e7c2044631f24d10cb0f2738ba8caa8", "type": "electric_scooter", "is_disabled": 0, "fusion_lat": 0.0, "fusion_lon": 0.0, "is_reserved": 0, "name": "9e7c2044631f24d10cb0f2738ba8caa8"}, {"lon": -77.02277233333334, "lat": 38.87874983333333, "rental_uris": {"ios": "https://dc.lft.to/lastmile_qr_scan", "android": "https://dc.lft.to/lastmile_qr_scan"}, "bike_id": "8a0ef7396fa353d5b7d5c13b6066c406", "type": "electric_scooter", "is_disabled": 0, "fusion_lat": 0.0, "fusion_lon": 0.0, "is_reserved": 0, "name": "8a0ef7396fa353d5b7d5c13b6066c406"}, {"lon": -77.03844416666666, "lat": 38.90377083333333, "rental_uris": {"ios": "https://dc.lft.to/lastmile_qr_scan", "android": "https://dc.lft.to/lastmile_qr_scan"}, "bike_id": "0af06558c6c86bd71d9eca0d5c119531", "type": "electric_scooter", "is_disabled": 0, "fusion_lat": 0.0, "fusion_lon": 0.0, "is_reserved": 0, "name": "0af06558c6c86bd71d9eca0d5c119531"}, {"lon": -77.02342283333333, "lat": 38.935267, "rental_uris": {"ios": "https://dc.lft.to/lastmile_qr_scan", "android": "https://dc.lft.to/lastmile_qr_scan"}, "bike_id": "cd1bc7c3b8f0932fc5bb2b3b54c6b123", "type": "electric_scooter", "is_disabled": 0, "fusion_lat": 0.0, "fusion_lon": 0.0, "is_reserved": 0, "name": "cd1bc7c3b8f0932fc5bb2b3b54c6b123"}, {"lon": -77.03846666666666, "lat": 38.9166095, "rental_uris": {"ios": "https://dc.lft.to/lastmile_qr_scan", "android": "https://dc.lft.to/lastmile_qr_scan"}, "bike_id": "2169dd3fe5277bba06b04f4fee359fbb", "type": "electric_scooter", "is_disabled": 0, "fusion_lat": 0.0, "fusion_lon": 0.0, "is_reserved": 0, "name": "2169dd3fe5277bba06b04f4fee359fbb"}, {"lon": -76.97670983333333, "lat": 38.95239333333333, "rental_uris": {"ios": "https://dc.lft.to/lastmile_qr_scan", "android": "https://dc.lft.to/lastmile_qr_scan"}, "bike_id": "5778db8a2300392a44d77820780bc998", "type": "electric_bike", "is_disabled": 0, "fusion_lat": 0.0, "fusion_lon": 0.0, "is_reserved": 0, "name": "5778db8a2300392a44d77820780bc998"}, {"lon": -77.03468483333333, "lat": 38.90633783333333, "rental_uris": {"ios": "https://dc.lft.to/lastmile_qr_scan", "android": "https://dc.lft.to/lastmile_qr_scan"}, "bike_id": "c579fb294f2ddb409040d591debc58a7", "type": "electric_scooter", "is_disabled": 0, "fusion_lat": 0.0, "fusion_lon": 0.0, "is_reserved": 0, "name": "c579fb294f2ddb409040d591debc58a7"}, {"lon": -77.04465383333333, "lat": 38.9038425, "rental_uris": {"ios": "https://dc.lft.to/lastmile_qr_scan", "android": "https://dc.lft.to/lastmile_qr_scan"}, "bike_id": "b8d12e500252946a86314d8d1a5d8f70", "type": "electric_scooter", "is_disabled": 0, "fusion_lat": 0.0, "fusion_lon": 0.0, "is_reserved": 0, "name": "b8d12e500252946a86314d8d1a5d8f70"}, {"lon": -76.98882316666666, "lat": 38.866585666666666, "rental_uris": {"ios": "https://dc.lft.to/lastmile_qr_scan", "android": "https://dc.lft.to/lastmile_qr_scan"}, "bike_id": "cd62639247e65ea58bff0a8afef80040", "type": "electric_scooter", "is_disabled": 0, "fusion_lat": 0.0, "fusion_lon": 0.0, "is_reserved": 0, "name": "cd62639247e65ea58bff0a8afef80040"}, {"lon": -77.0281665, "lat": 38.906156333333335, "rental_uris": {"ios": "https://dc.lft.to/lastmile_qr_scan", "android": "https://dc.lft.to/lastmile_qr_scan"}, "bike_id": "e744bcde2fa5674cf936c93a597b66ea", "type": "electric_scooter", "is_disabled": 0, "fusion_lat": 0.0, "fusion_lon": 0.0, "is_reserved": 0, "name": "e744bcde2fa5674cf936c93a597b66ea"}, {"lon": -77.0398735, "lat": 38.925833833333336, "rental_uris": {"ios": "https://dc.lft.to/lastmile_qr_scan", "android": "https://dc.lft.to/lastmile_qr_scan"}, "bike_id": "0f9f59a1043ba686bff8bda976864e5c", "type": "electric_scooter", "is_disabled": 0, "fusion_lat": 0.0, "fusion_lon": 0.0, "is_reserved": 0, "name": "0f9f59a1043ba686bff8bda976864e5c"}, {"lon": -77.02671416666666, "lat": 38.9023785, "rental_uris": {"ios": "https://dc.lft.to/lastmile_qr_scan", "android": "https://dc.lft.to/lastmile_qr_scan"}, "bike_id": "b70f141ae8004d5fcad486605d16f224", "type": "electric_scooter", "is_disabled": 0, "fusion_lat": 0.0, "fusion_lon": 0.0, "is_reserved": 0, "name": "b70f141ae8004d5fcad486605d16f224"}, {"lon": -77.032909, "lat": 38.9111435, "rental_uris": {"ios": "https://dc.lft.to/lastmile_qr_scan", "android": "https://dc.lft.to/lastmile_qr_scan"}, "bike_id": "092b09a33436f2709d24fcb2b0d7269b", "type": "electric_scooter", "is_disabled": 0, "fusion_lat": 0.0, "fusion_lon": 0.0, "is_reserved": 0, "name": "092b09a33436f2709d24fcb2b0d7269b"}, {"lon": -77.04176733333334, "lat": 38.905300833333335, "rental_uris": {"ios": "https://dc.lft.to/lastmile_qr_scan", "android": "https://dc.lft.to/lastmile_qr_scan"}, "bike_id": "eac431a7422a7dbcd060ef81ed54f62d", "type": "electric_scooter", "is_disabled": 0, "fusion_lat": 0.0, "fusion_lon": 0.0, "is_reserved": 0, "name": "eac431a7422a7dbcd060ef81ed54f62d"}, {"lon": -77.041554, "lat": 38.914178, "rental_uris": {"ios": "https://dc.lft.to/lastmile_qr_scan", "android": "https://dc.lft.to/lastmile_qr_scan"}, "bike_id": "b54d087d8c2732d78d831cd6ce3ab8f9", "type": "electric_scooter", "is_disabled": 0, "fusion_lat": 0.0, "fusion_lon": 0.0, "is_reserved": 0, "name": "b54d087d8c2732d78d831cd6ce3ab8f9"}, {"lon": -77.03550233333333, "lat": 38.923259, "rental_uris": {"ios": "https://dc.lft.to/lastmile_qr_scan", "android": "https://dc.lft.to/lastmile_qr_scan"}, "bike_id": "f9a68e25126b7382d9b04f777b5383d0", "type": "electric_scooter", "is_disabled": 0, "fusion_lat": 0.0, "fusion_lon": 0.0, "is_reserved": 0, "name": "f9a68e25126b7382d9b04f777b5383d0"},