{"data": {"bikes": [{"lat": 38.94170533333333, "lon": -76.9855235, "is_disabled": 0, "fusion_lon": 0.0, "is_reserved": 0, "name": "156119ab6a6480ea457155f46e0aa5ac", "type": "electric_bike", "bike_id": "156119ab6a6480ea457155f46e0aa5ac", "rental_uris": {"ios": "https://dc.lft.to/lastmile_qr_scan", "android": "https://dc.lft.to/lastmile_qr_scan"}, "fusion_lat": 0.0}, {"lat": 38.91548066666667, "lon": -77.03182266666667, "is_disabled": 0, "fusion_lon": 0.0, "is_reserved": 0, "name": "4907a1fd9f251842b44d3ea3652dc2ad", "type": "electric_scooter", "bike_id": "4907a1fd9f251842b44d3ea3652dc2ad", "rental_uris": {"ios": "https://dc.lft.to/lastmile_qr_scan", "android": "https://dc.lft.to/lastmile_qr_scan"}, "fusion_lat": 0.0}, {"lat": 38.90377333333333, "lon": -77.03836933333334, "is_disabled": 0, "fusion_lon": 0.0, "is_reserved": 0, "name": "d18adc1d98e580586c670663cb597620", "type": "electric_scooter", "bike_id": "d18adc1d98e580586c670663cb597620", "rental_uris": {"ios": "https://dc.lft.to/lastmile_qr_scan", "android": "https://dc.lft.to/lastmile_qr_scan"}, "fusion_lat": 0.0}, {"lat": 38.917624, "lon": -77.03212383333333, "is_disabled": 0, "fusion_lon": 0.0, "is_reserved": 0, "name": "d09c53b4c77188afc35932f166d6047c", "type": "electric_scooter", "bike_id": "d09c53b4c77188afc35932f166d6047c", "rental_uris": {"ios": "https://dc.lft.to/lastmile_qr_scan", "android": "https://dc.lft.to/lastmile_qr_scan"}, "fusion_lat": 0.0}, {"lat": 38.926638833333335, "lon": -77.02125966666667, "is_disabled": 0, "fusion_lon": 0.0, "is_reserved": 0, "name": "81d14f7a1e63d9a2bf0ca9a0764fe2fb", "type": "electric_scooter", "bike_id": "81d14f7a1e63d9a2bf0ca9a0764fe2fb", "rental_uris": {"ios": "https://dc.lft.to/lastmile_qr_scan", "android": "https://dc.lft.to/lastmile_qr_scan"}, "fusion_lat": 0.0}, {"lat": 38.89733066666667, "lon": -77.007777, "is_disabled": 0, "fusion_lon": 0.0, "is_reserved": 0, "name": "87f186f71f254deeffb13961d553a5e4", "type": "electric_scooter", "bike_id": "87f186f71f254deeffb13961d553a5e4", "rental_uris": {"ios": "https://dc.lft.to/lastmile_qr_scan", "android": "https://dc.lft.to/lastmile_qr_scan"}, "fusion_lat": 0.0}, {"lat": 38.84711633333333, "lon": -76.96816116666666, "is_disabled": 0, "fusion_lon": 0.0, "is_reserved": 0, "name": "faefe6e33a84f2bf0bdb3c18bda17b6c", "type": "electric_scooter", "bike_id": "faefe6e33a84f2bf0bdb3c18bda17b6c", "rental_uris": {"ios": "https://dc.lft.to/lastmile_qr_scan", "android": "https://dc.lft.to/lastmile_qr_scan"}, "fusion_lat": 0.0}, {"lat": 38.89869016666667, "lon": -77.02194166666666, "is_disabled": 0, "fusion_lon": 0.0, "is_reserved": 0, "name": "822180d4921b7eb961f75cd19f3b451a", "type": "electric_scooter", "bike_id": "822180d4921b7eb961f75cd19f3b451a", "rental_uris": {"ios": "https://dc.lft.to/lastmile_qr_scan", "android": "https://dc.lft.to/lastmile_qr_scan"}, "fusion_lat": 0.0}, {"lat": 38.92210733333334, "lon": -77.04191416666667, "is_disabled": 0, "fusion_lon": 0.0, "is_reserved": 0, "name": "e3b9698b818cd9c4a84f05d2d2787a15", "type": "electric_scooter", "bike_id": "e3b9698b818cd9c4a84f05d2d2787a15", "rental_uris": {"ios": "https://dc.lft.to/lastmile_qr_scan", "android": "https://dc.lft.to/lastmile_qr_scan"}, "fusion_lat": 0.0}, {"lat": 38.9141125, "lon": -77.020966, "is_disabled": 0, "fusion_lon": 0.0, "is_reserved": 0, "name": "9b322e38832fcaad387c7f08e1f87aad", "type": "electric_scooter", "bike_id": "9b322e38832fcaad387c7f08e1f87aad", "rental_uris": {"ios": "https://dc.lft.to/lastmile_qr_scan", "android": "https://dc.lft.to/lastmile_qr_scan"}, "fusion_lat": 0.0}, {"lat": 38.922244, "lon": -77.02214083333334, "is_disabled": 0, "fusion_lon": 0.0, "is_reserved": 0, "name": "c58f69075581a3c56adc6961114d1d0f", "type": "electric_scooter", "bike_id": "c58f69075581a3c56adc6961114d1d0f", "rental_uris": {"ios": "https://dc.lft.to/lastmile_qr_scan", "android": "https://dc.lft.to/lastmile_qr_scan"}, "fusion_lat": 0.0}, {"lat": 38.89219466666667, "lon": -77.02352116666667, "is_disabled": 0, "fusion_lon": 0.0, "is_reserved": 0, "name": "f6946eeec2884e2df4d772ad65ba69d8", "type": "electric_scooter", "bike_id": "f6946eeec2884e2df4d772ad65ba69d8", "rental_uris": {"ios": "https://dc.lft.to/lastmile_qr_scan", "android": "https://dc.lft.to/lastmile_qr_scan"}, "fusion_lat": 0.0}, {"lat": 38.904008, "lon": -77.03187383333334, "is_disabled": 0, "fusion_lon": 0.0, "is_reserved": 0, "name": "2824cb118ddcbf34732fc5a8ef7efd30", "type": "electric_scooter", "bike_id": "2824cb118ddcbf34732fc5a8ef7efd30", "rental_uris": {"ios": "https://dc.lft.to/lastmile_qr_scan", "android": "https://dc.lft.to/lastmile_qr_scan"}, "fusion_lat": 0.0}, {"lat": 38.899455, "lon": -77.04496566666667, "is_disabled": 0, "fusion_lon": 0.0, "is_reserved": 0, "name": "6bfc242100c30453f7c765e80f4c6bc6", "type": "electric_scooter", "bike_id": "6bfc242100c30453f7c765e80f4c6bc6", "rental_uris": {"ios": "https://dc.lft.to/lastmile_qr_scan", "android": "https://dc.lft.to/lastmile_qr_scan"}, "fusion_lat": 0.0}, {"lat": 38.92884816666667, "lon": -77.03231, "is_disabled": 0, "fusion_lon": 0.0, "is_reserved": 0, "name": "d63b52f7be0a985ee9c213226f41b3e5", "type": "electric_scooter", "bike_id": "d63b52f7be0a985ee9c213226f41b3e5", "rental_uris": {"ios": "https://dc.lft.to/lastmile_qr_scan", "android": "https://dc.lft.to/lastmile_qr_scan"}, "fusion_lat": 0.0}, {"lat": 38.898513, "lon": -77.04379583333333, "is_disabled": 0, "fusion_lon": 0.0, "is_reserved": 0, "name": "abd98997d1a513521c202a94e08e6bf6", "type": "electric_bike", "bike_id": "abd98997d1a513521c202a94e08e6bf6", "rental_uris": {"ios": "https://dc.lft.to/lastmile_qr_scan", "android": "https://dc.lft.to/lastmile_qr_scan"}, "fusion_lat": 0.0}, {"lat": 38.920461833333334, "lon": -77.041886, "is_disabled": 0, "fusion_lon": 0.0, "is_reserved": 0, "name": "1d62fcd1b3ac18cbc8d363416550b1b0", "type": "electric_scooter", "bike_id": "1d62fcd1b3ac18cbc8d363416550b1b0", "rental_uris": {"ios": "https://dc.lft.to/lastmile_qr_scan", "android": "https://dc.lft.to/lastmile_qr_scan"}, "fusion_lat": 0.0}, {"lat": 38.91041283333333, "lon": -77.0343805, "is_disabled": 0, "fusion_lon": 0.0, "is_reserved": 0, "name": "367192b398f71cf19b74b75a430801ba", "type": "electric_scooter", "bike_id": "367192b398f71cf19b74b75a430801ba", "rental_uris": {"ios": "https://dc.lft.to/lastmile_qr_scan", "android": "https://dc.lft.to/lastmile_qr_scan"}, "fusion_lat": 0.0}, {"lat": 38.86659266666667, "lon": -76.98893633333333, "is_disabled": 0, "fusion_lon": 0.0, "is_reserved": 0, "name": "18908b2f7623ac2705a5a8b918e4c255", "type": "electric_scooter", "bike_id": "18908b2f7623ac2705a5a8b918e4c255", "rental_uris": {"ios": "https://dc.lft.to/lastmile_qr_scan", "android": "https://dc.lft.to/lastmile_qr_scan"}, "fusion_lat": 0.0}, {"lat": 38.873303166666666, "lon": -77.00050683333333, "is_disabled": 0, "fusion_lon": 0.0, "is_reserved": 0, "name": "ab7dcbb990963f0019eebef476d8b446", "type": "electric_scooter", "bike_id": "ab7dcbb990963f0019eebef476d8b446", "rental_uris": {"ios": "https://dc.lft.to/lastmile_qr_scan", "android": "https://dc.lft.to/lastmile_qr_scan"}, "fusion_lat": 0.0}, {"lat": 38.8992905, "lon": -77.04008233333333, "is_disabled": 0, "fusion_lon": 0.0, "is_reserved": 0, "name": "a21bf58710f7834d0d15d6782768d362", "type": "electric_scooter", "bike_id": "a21bf58710f7834d0d15d6782768d362", "rental_uris": {"ios": "https://dc.lft.to/lastmile_qr_scan", "android": "https://dc.lft.to/lastmile_qr_scan"}, "fusion_lat": 0.0}, {"lat": 38.86196616666667, "lon": -77.07617983333333, "is_disabled": 0, "fusion_lon": 0.0, "is_reserved": 0, "name": "f75633bfebd101919b36eff4b0930a6a", "type": "electric_bike", "bike_id": "f75633bfebd101919b36eff4b0930a6a", "rental_uris": {"ios": "https://dc.lft.to/lastmile_qr_scan", "android": "https://dc.lft.to/lastmile_qr_scan"}, "fusion_lat": 0.0}, {"lat": 38.90365466666667, "lon": -77.0400295, "is_disabled": 0, "fusion_lon": 0.0, "is_reserved": 0, "name": "2adad2b33e7483bce8578c174eca0a94", "type": "electric_scooter", "bike_id": "2adad2b33e7483bce8578c174eca0a94", "rental_uris": {"ios": "https://dc.lft.to/lastmile_qr_scan", "android": "https://dc.lft.to/lastmile_qr_scan"}, "fusion_lat": 0.0}, {"lat": 38.925125, "lon": -76.9963585, "is_disabled": 0, "fusion_lon": 0.0, "is_reserved": 0, "name": "076e91644c9cbfab673337f312d75e6d", "type": "electric_scooter", "bike_id": "076e91644c9cbfab673337f312d75e6d", "rental_uris": {"ios": "https://dc.lft.to/lastmile_qr_scan", "android": "https://dc.lft.to/lastmile_qr_scan"}, "fusion_lat": 0.0}, {"lat": 38.8954955, "lon": -77.00909866666667, "is_disabled": 0, "fusion_lon": 0.0, "is_reserved": 0, "name": "29356ce83d299e22bcaa71c42ef4dd39", "type": "electric_scooter", "bike_id": "29356ce83d299e22bcaa71c42ef4dd39", "rental_uris": {"ios": "https://dc.lft.to/lastmile_qr_scan", "android": "https://dc.lft.to/lastmile_qr_scan"}, "fusion_lat": 0.0}, {"lat": 38.92895883333333, "lon": -77.01661833333333, "is_disabled": 0, "fusion_lon": 0.0, "is_reserved": 0, "name": "e8bfe0a7aa85e590584ea7dc676d0902", "type": "electric_scooter", "bike_id": "e8bfe0a7aa85e590584ea7dc676d0902", "rental_uris": {"ios": "https://dc.lft.to/lastmile_qr_scan", "android": "https://dc.lft.to/lastmile_qr_scan"}, "fusion_lat": 0.0}, {"lat": 38.89909633333333, "lon": -77.01380366666666, "is_disabled": 0, "fusion_lon": 0.0, "is_reserved": 0, "name": "6f268057f0da5c2f230ed4b6db428e90", "type": "electric_scooter", "bike_id": "6f268057f0da5c2f230ed4b6db428e90", "rental_uris": {"ios": "https://dc.lft.to/lastmile_qr_scan", "android": "https://dc.lft.to/lastmile_qr_scan"}, "fusion_lat": 0.0}, {"lat": 38.898426666666666, "lon": -77.0304505, "is_disabled": 0, "fusion_lon": 0.0, "is_reserved": 0, "name": "1ae0a43325cfbbf76332c00801d3a438", "type": "electric_scooter", "bike_id": "1ae0a43325cfbbf76332c00801d3a438", "rental_uris": {"ios": "https://dc.lft.to/lastmile_qr_scan", "android": "https://dc.lft.to/lastmile_qr_scan"}, "fusion_lat": 0.0}, {"lat": 38.91913666666667, "lon": -77.03121383333334, "is_disabled": 0, "fusion_lon": 0.0, "is_reserved": 0, "name": "1cc3a1c7485367663610e04b17bd332a", "type": "electric_scooter", "bike_id": "1cc3a1c7485367663610e04b17bd332a", "rental_uris": {"ios": "https://dc.lft.to/lastmile_qr_scan", "android": "https://dc.lft.to/lastmile_qr_scan"}, "fusion_lat": 0.0}, {"lat": 38.91038016666667, "lon": -77.0426555, "is_disabled": 0, "fusion_lon": 0.0, "is_reserved": 0, "name": "e47b738c11ef5d11d2d5ad07d2ff0feb", "type": "electric_scooter", "bike_id": "e47b738c11ef5d11d2d5ad07d2ff0feb", "rental_uris": {"ios": "https://dc.lft.to/lastmile_qr_scan", "android": "https://dc.lft.to/lastmile_qr_scan"}, "fusion_lat": 0.0}, {"lat": 38.92225366666667, "lon": -77.02007116666667, "is_disabled": 0, "fusion_lon": 0.0, "is_reserved": 0, "name": "176d383427f0cd0cc1ba8eb7fec736e8", "type": "electric_scooter", "bike_id": "176d383427f0cd0cc1ba8eb7fec736e8", "rental_uris": {"ios": "https://dc.lft.to/lastmile_qr_scan", "android": "https://dc.lft.to/lastmile_qr_scan"}, "fusion_lat": 0.0}, {"lat": 38.897155, "lon": -77.00799333333333, "is_disabled": 0, "fusion_lon": 0.0, "is_reserved": 0, "name": "2185c57e013854c6a70684e21c844273", "type": "electric_scooter", "bike_id": "2185c57e013854c6a70684e21c844273", "rental_uris": {"ios": "https://dc.lft.to/lastmile_qr_scan", "android": "https://dc.lft.to/lastmile_qr_scan"}, "fusion_lat": 0.0}, {"lat": 38.90667583333333, "lon": -77.02706016666667, "is_disabled": 0, "fusion_lon": 0.0, "is_reserved": 0, "name": "d55ff4d2e4876c79a5512ae4542275ea", "type": "electric_scooter", "bike_id": "d55ff4d2e4876c79a5512ae4542275ea", "rental_uris": {"ios": "https://dc.lft.to/lastmile_qr_scan", "android": "https://dc.lft.to/lastmile_qr_scan"}, "fusion_lat": 0.0}, {"lat": 38.884251, "lon": -77.00816033333334, "is_disabled": 0, "fusion_lon": 0.0, "is_reserved": 0, "name": "c7a1ae95f1111169d64d3abf0ef84c45", "type": "electric_scooter", "bike_id": "c7a1ae95f1111169d64d3abf0ef84c45", "rental_uris": {"ios": "https://dc.lft.to/lastmile_qr_scan", "android": "https://dc.lft.to/lastmile_qr_scan"}, "fusion_lat": 0.0}, {"lat": 38.923454, "lon": -77.0190465, "is_disabled": 0, "fusion_lon": 0.0, "is_reserved": 0, "name": "1e03b5e96607ea0d106069a8d0dfbdca", "type": "electric_scooter", "bike_id": "1e03b5e96607ea0d106069a8d0dfbdca", "rental_uris": {"ios": "https://dc.lft.to/lastmile_qr_scan", "android": "https://dc.lft.to/lastmile_qr_scan"}, "fusion_lat": 0.0}, {"lat": 38.90027216666667, "lon": -77.03992683333334, "is_disabled": 0, "fusion_lon": 0.0, "is_reserved": 0, "name": "de3bb00b8b4e435a3602b3dba97dedb0", "type": "electric_scooter", "bike_id": "de3bb00b8b4e435a3602b3dba97dedb0", "rental_uris": {"ios": "https://dc.lft.to/lastmile_qr_scan", "android": "https://dc.lft.to/lastmile_qr_scan"}, "fusion_lat": 0.0}, {"lat": 38.8876905, "lon": -76.98688183333333, "is_disabled": 0, "fusion_lon": 0.0, "is_reserved": 0, "name": "81d2662deaccb703f203c7d228ae59c1", "type": "electric_scooter", "bike_id": "81d2662deaccb703f203c7d228ae59c1", "rental_uris": {"ios": "https://dc.lft.to/lastmile_qr_scan", "android": "https://dc.lft.to/lastmile_qr_scan"}, "fusion_lat": 0.0}, {"lat": 38.89664583333333, "lon": -76.93208916666667, "is_disabled": 0, "fusion_lon": 0.0, "is_reserved": 0, "name": "b85bd596524c3734958619389abcc167", "type": "electric_scooter", "bike_id": "b85bd596524c3734958619389abcc167", "rental_uris": {"ios": "https://dc.lft.to/lastmile_qr_scan", "android": "https://dc.lft.to/lastmile_qr_scan"}, "fusion_lat": 0.0}, {"lat": 38.92462716666667, "lon": -77.0224265, "is_disabled": 0, "fusion_lon": 0.0, "is_reserved": 0, "name": "ecca97b5bfbc1d0a83d7c04c8444bc67", "type": "electric_scooter", "bike_id": "ecca97b5bfbc1d0a83d7c04c8444bc67", "rental_uris": {"ios": "https://dc.lft.to/lastmile_qr_scan", "android": "https://dc.lft.to/lastmile_qr_scan"}, "fusion_lat": 0.0}, {"lat": 38.90129533333333, "lon": -77.02546216666667, "is_disabled": 0, "fusion_lon": 0.0, "is_reserved": 0, "name": "60703fa6c7e69d3127f1fbae92d4721d", "type": "electric_scooter", "bike_id": "60703fa6c7e69d3127f1fbae92d4721d", "rental_uris": {"ios": "https://dc.lft.to/lastmile_qr_scan", "android": "https://dc.lft.to/lastmile_qr_scan"}, "fusion_lat": 0.0}, {"lat": 38.90172733333333, "lon": -77.02695116666666, "is_disabled": 0, "fusion_lon": 0.0, "is_reserved": 0, "name": "75388a5386272e3beb2f532d990443c6", "type": "electric_scooter", "bike_id": "75388a5386272e3beb2f532d990443c6", "rental_uris": {"ios": "https://dc.lft.to/lastmile_qr_scan", "android": "https://dc.lft.to/lastmile_qr_scan"}, "fusion_lat": 0.0}, {"lat": 38.91197283333333, "lon": -77.04537066666667, "is_disabled": 0, "fusion_lon": 0.0, "is_reserved": 0, "name": "f6d738cf3c3f51dea66bdca079ce5d2b", "type": "electric_scooter", "bike_id": "f6d738cf3c3f51dea66bdca079ce5d2b", "rental_uris": {"ios": "https://dc.lft.to/lastmile_qr_scan", "android": "https://dc.lft.to/lastmile_qr_scan"}, "fusion_lat": 0.0}, {"lat": 38.90068333333333, "lon": -77.04479416666666, "is_disabled": 0, "fusion_lon": 0.0, "is_reserved": 0, "name": "1f17a2cc1e0d8c1816468558f6a8c60e", "type": "electric_scooter", "bike_id": "1f17a2cc1e0d8c1816468558f6a8c60e", "rental_uris": {"ios": "https://dc.lft.to/lastmile_qr_scan", "android": "https://dc.lft.to/lastmile_qr_scan"}, "fusion_lat": 0.0}, {"lat": 38.9031815, "lon": -77.03328266666666, "is_disabled": 0, "fusion_lon": 0.0, "is_reserved": 0, "name": "0535ccb38d59e23d0a5a44540d4f8643", "type": "electric_scooter", "bike_id": "0535ccb38d59e23d0a5a44540d4f8643", "rental_uris": {"ios": "https://dc.lft.to/lastmile_qr_scan", "android": "https://dc.lft.to/lastmile_qr_scan"}, "fusion_lat": 0.0}, {"lat": 38.900212, "lon": -77.00681633333333, "is_disabled": 0, "fusion_lon": 0.0, "is_reserved": 0, "name": "ca2f0824854e3d3df9cd77c9cce582b7", "type": "electric_scooter", "bike_id": "ca2f0824854e3d3df9cd77c9cce582b7", "rental_uris": {"ios": "https://dc.lft.to/lastmile_qr_scan", "android": "https://dc.lft.to/lastmile_qr_scan"}, "fusion_lat": 0.0}, {"lat": 38.92446433333333, "lon": -77.02036566666666, "is_disabled": 0, "fusion_lon": 0.0, "is_reserved": 0, "name": "a1517fb4ff796503b4b77ef13db7d575", "type": "electric_scooter", "bike_id": "a1517fb4ff796503b4b77ef13db7d575", "rental_uris": {"ios": "https://dc.lft.to/lastmile_qr_scan", "android": "https://dc.lft.to/lastmile_qr_scan"}, "fusion_lat": 0.0}, {"lat": 38.917738666666665, "lon": -77.0212045, "is_disabled": 0, "fusion_lon": 0.0, "is_reserved": 0, "name": "11d80aa57892d946f7f49b45169cead8", "type": "electric_scooter", "bike_id": "11d80aa57892d946f7f49b45169cead8", "rental_uris": {"ios": "https://dc.lft.to/lastmile_qr_scan", "android": "https://dc.lft.to/lastmile_qr_scan"}, "fusion_lat": 0.0}, {"lat": 38.928872, "lon": -77.03257266666667, "is_disabled": 0, "fusion_lon": 0.0, "is_reserved": 0, "name": "5a17463f53dce2373c03e49b3a5d37b5", "type": "electric_scooter", "bike_id": "5a17463f53dce2373c03e49b3a5d37b5", "rental_uris": {"ios": "https://dc.lft.to/lastmile_qr_scan", "android": "https://dc.lft.to/lastmile_qr_scan"}, "fusion_lat": 0.0}, {"lat": 38.9213295, "lon": -77.0094345, "is_disabled": 0, "fusion_lon": 0.0, "is_reserved": 0, "name": "6df4513fe239ce52c8a87982a8e70b44", "type": "electric_scooter", "bike_id": "6df4513fe239ce52c8a87982a8e70b44", "rental_uris": {"ios": "https://dc.lft.to/lastmile_qr_scan", "android": "https://dc.lft.to/lastmile_qr_scan"}, "fusion_lat": 0.0}, {"lat": 38.9179815, "lon": -77.0271005, "is_disabled": 0, "fusion_lon": 0.0, "is_reserved": 0, "name": "d217c31ccf02ace643354daf4e893420", "type": "electric_scooter", "bike_id": "d217c31ccf02ace643354daf4e893420", "rental_uris": {"ios": "https://dc.lft.to/lastmile_qr_scan", "android": "https://dc.lft.to/lastmile_qr_scan"}, "fusion_lat": 0.0}, {"lat": 38.92906516666667, "lon": -77.07304016666667, "is_disabled": 0, "fusion_lon": 0.0, "is_reserved": 0, "name": "412a749f8f628ac73cd0dc66b5d9fa5a", "type": "electric_scooter", "bike_id": "412a749f8f628ac73cd0dc66b5d9fa5a", "rental_uris": {"ios": "https://dc.lft.to/lastmile_qr_scan", "android": "https://dc.lft.to/lastmile_qr_scan"}, "fusion_lat": 0.0}, {"lat": 38.903956666666666, "lon": -76.98471116666667, "is_disabled": 0, "fusion_lon": 0.0, "is_reserved": 0, "name": "826489573693c690c4ff044632ae4495", "type": "electric_scooter", "bike_id": "826489573693c690c4ff044632ae4495", "rental_uris": {"ios": "https://dc.lft.to/lastmile_qr_scan", "android": "https://dc.lft.to/lastmile_qr_scan"}, "fusion_lat": 0.0}, {"lat": 38.926398666666664, "lon": -77.0283955, "is_disabled": 0, "fusion_lon": 0.0, "is_reserved": 0, "name": "d7f528ec2da1717284d951496c3541b6", "type": "electric_bike", "bike_id": "d7f528ec2da1717284d951496c3541b6", "rental_uris": {"ios": "https://dc.lft.to/lastmile_qr_scan", "android": "https://dc.lft.to/lastmile_qr_scan"}, "fusion_lat": 0.0}, {"lat": 38.9104365, "lon": -77.03995766666667, "is_disabled": 0, "fusion_lon": 0.0, "is_reserved": 0, "name": "8cd643dc472c6e43c6ed1fff5c134ebf", "type": "electric_scooter", "bike_id": "8cd643dc472c6e43c6ed1fff5c134ebf", "rental_uris": {"ios": "https://dc.lft.to/lastmile_qr_scan", "android": "https://dc.lft.to/lastmile_qr_scan"}, "fusion_lat": 0.0}, {"lat": 38.91005216666667, "lon": -76.99409866666667, "is_disabled": 0, "fusion_lon": 0.0, "is_reserved": 0, "name": "eb9f23f9a9fa0e4965523d59b3ad37e4", "type": "electric_scooter", "bike_id": "eb9f23f9a9fa0e4965523d59b3ad37e4", "rental_uris": {"ios": "https://dc.lft.to/lastmile_qr_scan", "android": "https://dc.lft.to/lastmile_qr_scan"}, "fusion_lat": 0.0}, {"lat": 38.90034516666667, "lon": -77.01260933333333, "is_disabled": 0, "fusion_lon": 0.0, "is_reserved": 0, "name": "29727d618156618b6f011b334d4fa9a3", "type": "electric_scooter", "bike_id": "29727d618156618b6f011b334d4fa9a3", "rental_uris": {"ios": "https://dc.lft.to/lastmile_qr_scan", "android": "https://dc.lft.to/lastmile_qr_scan"}, "fusion_lat": 0.0}, {"lat": 38.89267816666667, "lon": -77.04677316666667, "is_disabled": 0, "fusion_lon": 0.0, "is_reserved": 0, "name": "cc754fba5b2ad3bcd851335532863087", "type": "electric_scooter", "bike_id": "cc754fba5b2ad3bcd851335532863087", "rental_uris": {"ios": "https://dc.lft.to/lastmile_qr_scan", "android": "https://dc.lft.to/lastmile_qr_scan"}, "fusion_lat": 0.0}, {"lat": 38.961404333333334, "lon": -77.02784083333333, "is_disabled": 0, "fusion_lon": 0.0, "is_reserved": 0, "name": "e2dd1d0c28aaf2e90833f6b46b7e3518", "type": "electric_scooter", "bike_id": "e2dd1d0c28aaf2e90833f6b46b7e3518", "rental_uris": {"ios": "https://dc.lft.to/lastmile_qr_scan", "android": "https://dc.lft.to/lastmile_qr_scan"}, "fusion_lat": 0.0}, {"lat": 38.91006516666667, "lon": -76.99410533333334, "is_disabled": 0, "fusion_lon": 0.0, "is_reserved": 0, "name": "bede0e0d351a16871467f5e618a8800d", "type": "electric_scooter", "bike_id": "bede0e0d351a16871467f5e618a8800d", "rental_uris": {"ios": "https://dc.lft.to/lastmile_qr_scan", "android": "https://dc.lft.to/lastmile_qr_scan"}, "fusion_lat": 0.0}, {"lat": 38.8922895, "lon": -77.048757, "is_disabled": 0, "fusion_lon": 0.0, "is_reserved": 0, "name": "27481f139bb1da8dd818a9449075b5af", "type": "electric_scooter", "bike_id": "27481f139bb1da8dd818a9449075b5af", "rental_uris": {"ios": "https://dc.lft.to/lastmile_qr_scan", "android": "https://dc.lft.to/lastmile_qr_scan"}, "fusion_lat": 0.0}, {"lat": 38.903827166666666, "lon": -76.97619883333333, "is_disabled": 0, "fusion_lon": 0.0, "is_reserved": 0, "name": "2dd531b66e93e88712087ab252bb282b", "type": "electric_scooter", "bike_id": "2dd531b66e93e88712087ab252bb282b", "rental_uris": {"ios": "https://dc.lft.to/lastmile_qr_scan", "android": "https://dc.lft.to/lastmile_qr_scan"}, "fusion_lat": 0.0}, {"lat": 38.911748333333335, "lon": -77.002759, "is_disabled": 0, "fusion_lon": 0.0, "is_reserved": 0, "name": "425cb3f8d136478f46b76ce03c30298b", "type": "electric_bike", "bike_id": "425cb3f8d136478f46b76ce03c30298b", "rental_uris": {"ios": "https://dc.lft.to/lastmile_qr_scan", "android": "https://dc.lft.to/lastmile_qr_scan"}, "fusion_lat": 0.0}, {"lat": 38.89943933333333, "lon": -77.03144216666666, "is_disabled": 0, "fusion_lon": 0.0, "is_reserved": 0, "name": "c00577cc425e5e56ebc26c9fdc3b68f4", "type": "electric_scooter", "bike_id": "c00577cc425e5e56ebc26c9fdc3b68f4", "rental_uris": {"ios": "https://dc.lft.to/lastmile_qr_scan", "android": "https://dc.lft.to/lastmile_qr_scan"}, "fusion_lat": 0.0}, {"lat": 38.8960965, "lon": -77.01339733333333, "is_disabled": 0, "fusion_lon": 0.0, "is_reserved": 0, "name": "15d6c5fdaf673c0ec305b18ba8449abb", "type": "electric_scooter", "bike_id": "15d6c5fdaf673c0ec305b18ba8449abb", "rental_uris": {"ios": "https://dc.lft.to/lastmile_qr_scan", "android": "https://dc.lft.to/lastmile_qr_scan"}, "fusion_lat": 0.0}, {"lat": 38.9091545, "lon": -76.99957966666666, "is_disabled": 0, "fusion_lon": 0.0, "is_reserved": 0, "name": "cedfe7835628b0548104504d3bf4f904", "type": "electric_scooter", "bike_id": "cedfe7835628b0548104504d3bf4f904", "rental_uris": {"ios": "https://dc.lft.to/lastmile_qr_scan", "android": "https://dc.lft.to/lastmile_qr_scan"}, "fusion_lat": 0.0}, {"lat": 38.91688933333333, "lon": -77.02894183333333, "is_disabled": 0, "fusion_lon": 0.0, "is_reserved": 0, "name": "08ac620fd474a385c3f63e2aefaf8696", "type": "electric_scooter", "bike_id": "08ac620fd474a385c3f63e2aefaf8696", "rental_uris": {"ios": "https://dc.lft.to/lastmile_qr_scan", "android": "https://dc.lft.to/lastmile_qr_scan"}, "fusion_lat": 0.0}, {"lat": 38.87185216666666, "lon": -77.00643033333333, "is_disabled": 0, "fusion_lon": 0.0, "is_reserved": 0, "name": "f7c74e483dde9426e6b848badb9b8d6b", "type": "electric_scooter", "bike_id": "f7c74e483dde9426e6b848badb9b8d6b", "rental_uris": {"ios": "https://dc.lft.to/lastmile_qr_scan", "android": "https://dc.lft.to/lastmile_qr_scan"}, "fusion_lat": 0.0}, {"lat": 38.902351333333336, "lon": -77.03340233333333, "is_disabled": 0, "fusion_lon": 0.0, "is_reserved": 0, "name": "432fb1fb830638b1550158896f5daa99", "type": "electric_scooter", "bike_id": "432fb1fb830638b1550158896f5daa99", "rental_uris": {"ios": "https://dc.lft.to/lastmile_qr_scan", "android": "https://dc.lft.to/lastmile_qr_scan"}, "fusion_lat": 0.0}, {"lat": 38.8934335, "lon": -76.95229466666666, "is_disabled": 0, "fusion_lon": 0.0, "is_reserved": 0, "name": "c1138df9b00f0223e30e28ae421e2e26", "type": "electric_scooter", "bike_id": "c1138df9b00f0223e30e28ae421e2e26", "rental_uris": {"ios": "https://dc.lft.to/lastmile_qr_scan", "android": "https://dc.lft.to/lastmile_qr_scan"}, "fusion_lat": 0.0}, {"lat": 38.972131833333336, "lon": -77.03336833333333, "is_disabled": 0, "fusion_lon": 0.0, "is_reserved": 0, "name": "bd1932c0f4e03ebf13c0a3a4b024a793", "type": "electric_scooter", "bike_id": "bd1932c0f4e03ebf13c0a3a4b024a793", "rental_uris": {"ios": "https://dc.lft.to/lastmile_qr_scan", "android": "https://dc.lft.to/lastmile_qr_scan"}, "fusion_lat": 0.0}, {"lat": 38.9004715, "lon": -76.98829183333334, "is_disabled": 0, "fusion_lon": 0.0, "is_reserved": 0, "name": "e6b83cc13017279756e9cf9c7ba04e80", "type": "electric_scooter", "bike_id": "e6b83cc13017279756e9cf9c7ba04e80", "rental_uris": {"ios": "https://dc.lft.to/lastmile_qr_scan", "android": "https://dc.lft.to/lastmile_qr_scan"}, "fusion_lat": 0.0}, {"lat": 38.925476, "lon": -77.0007435, "is_disabled": 0, "fusion_lon": 0.0, "is_reserved": 0, "name": "23ce21ec1e80d8d5d327cd4a25da0335", "type": "electric_scooter", "bike_id": "23ce21ec1e80d8d5d327cd4a25da0335", "rental_uris": {"ios": "https://dc.lft.to/lastmile_qr_scan", "android": "https://dc.lft.to/lastmile_qr_scan"}, "fusion_lat": 0.0}, {"lat": 38.9006235, "lon": -77.04537283333333, "is_disabled": 0, "fusion_lon": 0.0, "is_reserved": 0, "name": "fd33bf12f6031d7039793de8a0b3f15b", "type": "electric_scooter", "bike_id": "fd33bf12f6031d7039793de8a0b3f15b", "rental_uris": {"ios": "https://dc.lft.to/lastmile_qr_scan", "android": "https://dc.lft.to/lastmile_qr_scan"}, "fusion_lat": 0.0}, {"lat": 38.904116333333334, "lon": -77.04485733333334, "is_disabled": 0, "fusion_lon": 0.0, "is_reserved": 0, "name": "be3e64bab333cc2dd0b350fe741fd052", "type": "electric_scooter", "bike_id": "be3e64bab333cc2dd0b350fe741fd052", "rental_uris": {"ios": "https://dc.lft.to/lastmile_qr_scan", "android": "https://dc.lft.to/lastmile_qr_scan"}, "fusion_lat": 0.0}, {"lat": 38.92107416666666, "lon": -77.03239416666666, "is_disabled": 0, "fusion_lon": 0.0, "is_reserved": 0, "name": "12edfe1f57b96ac6eb79878cf5d9510c", "type": "electric_scooter", "bike_id": "12edfe1f57b96ac6eb79878cf5d9510c", "rental_uris": {"ios": "https://dc.lft.to/lastmile_qr_scan", "android": "https://dc.lft.to/lastmile_qr_scan"}, "fusion_lat": 0.0}, {"lat": 38.8935555, "lon": -77.00330433333333, "is_disabled": 0, "fusion_lon": 0.0, "is_reserved": 0, "name": "6fde18282801d5b95400f274547ec317", "type": "electric_scooter", "bike_id": "6fde18282801d5b95400f274547ec317", "rental_uris": {"ios": "https://dc.lft.to/lastmile_qr_scan", "android": "https://dc.lft.to/lastmile_qr_scan"}, "fusion_lat": 0.0}, {"lat": 38.95727, "lon": -77.02409416666667, "is_disabled": 0, "fusion_lon": 0.0, "is_reserved": 0, "name": "f1603300351806566399a6cb4b5e7c28", "type": "electric_scooter", "bike_id": "f1603300351806566399a6cb4b5e7c28", "rental_uris": {"ios": "https://dc.lft.to/lastmile_qr_scan", "android": "https://dc.lft.to/lastmile_qr_scan"}, "fusion_lat": 0.0}, {"lat": 38.89735016666667, "lon": -77.04352566666667, "is_disabled": 0, "fusion_lon": 0.0, "is_reserved": 0, "name": "9931db72a2190946a6ff9dfb2429d881", "type": "electric_scooter", "bike_id": "9931db72a2190946a6ff9dfb2429d881", "rental_uris": {"ios": "https://dc.lft.to/lastmile_qr_scan", "android": "https://dc.lft.to/lastmile_qr_scan"}, "fusion_lat": 0.0}, {"lat": 38.93715516666666, "lon": -77.03260483333334, "is_disabled": 0, "fusion_lon": 0.0, "is_reserved": 0, "name": "4d58eaba897eeed99398447636a00d60", "type": "electric_scooter", "bike_id": "4d58eaba897eeed99398447636a00d60", "rental_uris": {"ios": "https://dc.lft.to/lastmile_qr_scan", "android": "https://dc.lft.to/lastmile_qr_scan"}, "fusion_lat": 0.0}, {"lat": 38.91689733333333, "lon": -77.02876616666667, "is_disabled": 0, "fusion_lon": 0.0, "is_reserved": 0, "name": "c0c05b874da35b05c105d4b68869aa46", "type": "electric_scooter", "bike_id": "c0c05b874da35b05c105d4b68869aa46", "rental_uris": {"ios": "https://dc.lft.to/lastmile_qr_scan", "android": "https://dc.lft.to/lastmile_qr_scan"}, "fusion_lat": 0.0}, {"lat": 38.931838166666665, "lon": -77.03464083333333, "is_disabled": 0, "fusion_lon": 0.0, "is_reserved": 0, "name": "3275fe650f83f3f371b6a51f84eecd24", "type": "electric_scooter", "bike_id": "3275fe650f83f3f371b6a51f84eecd24", "rental_uris": {"ios": "https://dc.lft.to/lastmile_qr_scan", "android": "https://dc.lft.to/lastmile_qr_scan"}, "fusion_lat": 0.0}, {"lat": 38.93905083333333, "lon": -77.02496433333333, "is_disabled": 0, "fusion_lon": 0.0, "is_reserved": 0, "name": "dba3911c446d235abb8e2fc6038f936c", "type": "electric_scooter", "bike_id": "dba3911c446d235abb8e2fc6038f936c", "rental_uris": {"ios": "https://dc.lft.to/lastmile_qr_scan", "android": "https://dc.lft.to/lastmile_qr_scan"}, "fusion_lat": 0.0}, {"lat": 38.89220183333333, "lon": -77.04465566666667, "is_disabled": 0, "fusion_lon": 0.0, "is_reserved": 0, "name": "d856ffc519d471c4f5b18e0cff5a3571", "type": "electric_scooter", "bike_id": "d856ffc519d471c4f5b18e0cff5a3571", "rental_uris": {"ios": "https://dc.lft.to/lastmile_qr_scan", "android": "https://dc.lft.to/lastmile_qr_scan"}, "fusion_lat": 0.0}, {"lat": 38.95631633333333, "lon": -77.033003, "is_disabled": 0, "fusion_lon": 0.0, "is_reserved": 0, "name": "c91d3ae9bf112e54fbb8650ab5b3915c", "type": "electric_scooter", "bike_id": "c91d3ae9bf112e54fbb8650ab5b3915c", "rental_uris": {"ios": "https://dc.lft.to/lastmile_qr_scan", "android": "https://dc.lft.to/lastmile_qr_scan"}, "fusion_lat": 0.0}, {"lat": 38.90589716666667, "lon": -77.04318, "is_disabled": 0, "fusion_lon": 0.0, "is_reserved": 0, "name": "04d35db7ac0194e619b6a7f567d3764b", "type": "electric_scooter", "bike_id": "04d35db7ac0194e619b6a7f567d3764b", "rental_uris": {"ios": "https://dc.lft.to/lastmile_qr_scan", "android": "https://dc.lft.to/lastmile_qr_scan"}, "fusion_lat": 0.0}, {"lat": 38.89813616666667, "lon": -77.0315675, "is_disabled": 0, "fusion_lon": 0.0, "is_reserved": 0, "name": "152f7cb8b9c0d045548c9121813a0ca9", "type": "electric_scooter", "bike_id": "152f7cb8b9c0d045548c9121813a0ca9", "rental_uris": {"ios": "https://dc.lft.to/lastmile_qr_scan", "android": "https://dc.lft.to/lastmile_qr_scan"}, "fusion_lat": 0.0}, {"lat": 38.936052833333335, "lon": -77.0318435, "is_disabled": 0, "fusion_lon": 0.0, "is_reserved": 0, "name": "687a20f369d2ad094c96267f5e519071", "type": "electric_scooter", "bike_id": "687a20f369d2ad094c96267f5e519071", "rental_uris": {"ios": "https://dc.lft.to/lastmile_qr_scan", "android": "https://dc.lft.to/lastmile_qr_scan"}, "fusion_lat": 0.0}, {"lat": 38.89042366666666, "lon": -76.93754166666666, "is_disabled": 0, "fusion_lon": 0.0, "is_reserved": 0, "name": "6e97a3b7910c6471d7c6e6f51ee3789a", "type": "electric_scooter", "bike_id": "6e97a3b7910c6471d7c6e6f51ee3789a", "rental_uris": {"ios": "https://dc.lft.to/lastmile_qr_scan", "android": "https://dc.lft.to/lastmile_qr_scan"}, "fusion_lat": 0.0}, {"lat": 38.896097, "lon": -77.04272083333333, "is_disabled": 0, "fusion_lon": 0.0, "is_reserved": 0, "name": "6f137fd94a372d78672347f59b5d49c0", "type": "electric_scooter", "bike_id": "6f137fd94a372d78672347f59b5d49c0", "rental_uris": {"ios": "https://dc.lft.to/lastmile_qr_scan", "android": "https://dc.lft.to/lastmile_qr_scan"}, "fusion_lat": 0.0}, {"lat": 38.9160045, "lon": -77.049087, "is_disabled": 0, "fusion_lon": 0.0, "is_reserved": 0, "name": "cb324e377de2d1a86ae800797314135d", "type": "electric_scooter", "bike_id": "cb324e377de2d1a86ae800797314135d", "rental_uris": {"ios": "https://dc.lft.to/lastmile_qr_scan", "android": "https://dc.lft.to/lastmile_qr_scan"}, "fusion_lat": 0.0}, {"lat": 38.96662583333333, "lon": -76.974498, "is_disabled": 0, "fusion_lon": 0.0, "is_reserved": 0, "name": "728e2ebb90efa66450ca8cf8b60c7ad4", "type": "electric_bike", "bike_id": "728e2ebb90efa66450ca8cf8b60c7ad4", "rental_uris": {"ios": "https://dc.lft.to/lastmile_qr_scan", "android": "https://dc.lft.to/lastmile_qr_scan"}, "fusion_lat": 0.0}, {"lat": 38.916961, "lon": -77.02749066666667, "is_disabled": 0, "fusion_lon": 0.0, "is_reserved": 0, "name": "2d1f59b2e71a432a8a919ea15fe9cb5f", "type": "electric_scooter", "bike_id": "2d1f59b2e71a432a8a919ea15fe9cb5f", "rental_uris": {"ios": "https://dc.lft.to/lastmile_qr_scan", "android": "https://dc.lft.to/lastmile_qr_scan"}, "fusion_lat": 0.0}, {"lat": 38.89851266666667, "lon": -77.04371766666667, "is_disabled": 0, "fusion_lon": 0.0, "is_reserved": 0, "name": "1704783d15db61bca08bfcb16d7cfe60", "type": "electric_scooter", "bike_id": "1704783d15db61bca08bfcb16d7cfe60", "rental_uris": {"ios": "https://dc.lft.to/lastmile_qr_scan", "android": "https://dc.lft.to/lastmile_qr_scan"}, "fusion_lat": 0.0}, {"lat": 38.89218483333333, "lon": -77.045076, "is_disabled": 0, "fusion_lon": 0.0, "is_reserved": 0, "name": "b541edec48484d08b4b26bed04328274", "type": "electric_scooter", "bike_id": "b541edec48484d08b4b26bed04328274", "rental_uris": {"ios": "https://dc.lft.to/lastmile_qr_scan", "android": "https://dc.lft.to/lastmile_qr_scan"}, "fusion_lat": 0.0}, {"lat": 38.9051375, "lon": -77.04475916666667, "is_disabled": 0, "fusion_lon": 0.0, "is_reserved": 0, "name": "f14467c1a75cf6b16c52e1c0d924d369", "type": "electric_scooter", "bike_id": "f14467c1a75cf6b16c52e1c0d924d369", "rental_uris": {"ios": "https://dc.lft.to/lastmile_qr_scan", "android": "https://dc.lft.to/lastmile_qr_scan"}, "fusion_lat": 0.0}, {"lat": 38.87840883333333, "lon": -77.01936883333333, "is_disabled": 0, "fusion_lon": 0.0, "is_reserved": 0, "name": "bf5931023998420ee1b699ce839b2652", "type": "electric_scooter", "bike_id": "bf5931023998420ee1b699ce839b2652", "rental_uris": {"ios": "https://dc.lft.to/lastmile_qr_scan", "android": "https://dc.lft.to/lastmile_qr_scan"}, "fusion_lat": 0.0}, {"lat": 38.9344865, "lon": -77.03869266666666, "is_disabled": 0, "fusion_lon": 0.0, "is_reserved": 0, "name": "a542c93657d2de63ec861e27773dd87f", "type": "electric_scooter", "bike_id": "a542c93657d2de63ec861e27773dd87f", "rental_uris": {"ios": "https://dc.lft.to/lastmile_qr_scan", "android": "https://dc.lft.to/lastmile_qr_scan"}, "fusion_lat": 0.0}, {"lat": 38.887461, "lon": -77.01404133333334, "is_disabled": 0, "fusion_lon": 0.0, "is_reserved": 0, "name": "cd0cfdebd870ee602a95acbd7d55ec3c", "type": "electric_scooter", "bike_id": "cd0cfdebd870ee602a95acbd7d55ec3c", "rental_uris": {"ios": "https://dc.lft.to/lastmile_qr_scan", "android": "https://dc.lft.to/lastmile_qr_scan"}, "fusion_lat": 0.0}, {"lat": 38.878684, "lon": -76.9968005, "is_disabled": 0, "fusion_lon": 0.0, "is_reserved": 0, "name": "64ac112dc0836a83a14e9e4c846a04b0", "type": "electric_scooter", "bike_id": "64ac112dc0836a83a14e9e4c846a04b0", "rental_uris": {"ios": "https://dc.lft.to/lastmile_qr_scan", "android": "https://dc.lft.to/lastmile_qr_scan"}, "fusion_lat": 0.0}, {"lat": 38.897857, "lon": -77.0395635, "is_disabled": 0, "fusion_lon": 0.0, "is_reserved": 0, "name": "375240a1733a884f0a45d763d79d6868", "type": "electric_scooter", "bike_id": "375240a1733a884f0a45d763d79d6868", "rental_uris": {"ios": "https://dc.lft.to/lastmile_qr_scan", "android": "https://dc.lft.to/lastmile_qr_scan"}, "fusion_lat": 0.0}, {"lat": 38.92170516666667, "lon": -77.03831383333333, "is_disabled": 0, "fusion_lon": 0.0, "is_reserved": 0, "name": "e13e5150fc09b3abab68e6ec9a2dbd79", "type": "electric_scooter", "bike_id": "e13e5150fc09b3abab68e6ec9a2dbd79", "rental_uris": {"ios": "https://dc.lft.to/lastmile_qr_scan", "android": "https://dc.lft.to/lastmile_qr_scan"}, "fusion_lat": 0.0}, {"lat": 38.88742933333333, "lon": -77.02126416666667, "is_disabled": 0, "fusion_lon": 0.0, "is_reserved": 0, "name": "03c1daef7f8f8ba68ca98fad4782db5f", "type": "electric_scooter", "bike_id": "03c1daef7f8f8ba68ca98fad4782db5f", "rental_uris": {"ios": "https://dc.lft.to/lastmile_qr_scan", "android": "https://dc.lft.to/lastmile_qr_scan"}, "fusion_lat": 0.0}, {"lat": 38.939867666666665, "lon": -77.02545083333334, "is_disabled": 0, "fusion_lon": 0.0, "is_reserved": 0, "name": "c3f168c279cf37d08cd37a57a9da0a4a", "type": "electric_scooter", "bike_id": "c3f168c279cf37d08cd37a57a9da0a4a", "rental_uris": {"ios": "https://dc.lft.to/lastmile_qr_scan", "android": "https://dc.lft.to/lastmile_qr_scan"}, "fusion_lat": 0.0}, {"lat": 38.92409933333333, "lon": -77.050662, "is_disabled": 0, "fusion_lon": 0.0, "is_reserved": 0, "name": "00a8b90311a084e5c6fd698fea9940b6", "type": "electric_scooter", "bike_id": "00a8b90311a084e5c6fd698fea9940b6", "rental_uris": {"ios": "https://dc.lft.to/lastmile_qr_scan", "android": "https://dc.lft.to/lastmile_qr_scan"}, "fusion_lat": 0.0}, {"lat": 38.920270333333335, "lon": -77.0305955, "is_disabled": 0, "fusion_lon": 0.0, "is_reserved": 0, "name": "52c83803ba0c14495b299e0745541559", "type": "electric_scooter", "bike_id": "52c83803ba0c14495b299e0745541559", "rental_uris": {"ios": "https://dc.lft.to/lastmile_qr_scan", "android": "https://dc.lft.to/lastmile_qr_scan"}, "fusion_lat": 0.0}, {"lat": 38.892659333333334, "lon": -77.04678066666666, "is_disabled": 0, "fusion_lon": 0.0, "is_reserved": 0, "name": "60b75f880ab2f140c7f57ef5fdeb07c1", "type": "electric_scooter", "bike_id": "60b75f880ab2f140c7f57ef5fdeb07c1", "rental_uris": {"ios": "https://dc.lft.to/lastmile_qr_scan", "android": "https://dc.lft.to/lastmile_qr_scan"}, "fusion_lat": 0.0}, {"lat": 38.90288566666667, "lon": -77.027974, "is_disabled": 0, "fusion_lon": 0.0, "is_reserved": 0, "name": "40744943e3bab381d0034f2a07115a34", "type": "electric_scooter", "bike_id": "40744943e3bab381d0034f2a07115a34", "rental_uris": {"ios": "https://dc.lft.to/lastmile_qr_scan", "android": "https://dc.lft.to/lastmile_qr_scan"}, "fusion_lat": 0.0}, {"lat": 38.922889, "lon": -76.99765316666667, "is_disabled": 0, "fusion_lon": 0.0, "is_reserved": 0, "name": "c6e81d95aa922a6e2c93834d9a5c338d", "type": "electric_bike", "bike_id": "c6e81d95aa922a6e2c93834d9a5c338d", "rental_uris": {"ios": "https://dc.lft.to/lastmile_qr_scan", "android": "https://dc.lft.to/lastmile_qr_scan"}, "fusion_lat": 0.0}, {"lat": 38.893489833333334, "lon": -77.0033955, "is_disabled": 0, "fusion_lon": 0.0, "is_reserved": 0, "name": "4d1a5819f98dbac23cafda9c40bbef34", "type": "electric_scooter", "bike_id": "4d1a5819f98dbac23cafda9c40bbef34", "rental_uris": {"ios": "https://dc.lft.to/lastmile_qr_scan", "android": "https://dc.lft.to/lastmile_qr_scan"}, "fusion_lat": 0.0}, {"lat": 38.89733366666667, "lon": -77.00778166666667, "is_disabled": 0, "fusion_lon": 0.0, "is_reserved": 0, "name": "04117b62809b8c2383c2a8160fcdfdef", "type": "electric_scooter", "bike_id": "04117b62809b8c2383c2a8160fcdfdef", "rental_uris": {"ios": "https://dc.lft.to/lastmile_qr_scan", "android": "https://dc.lft.to/lastmile_qr_scan"}, "fusion_lat": 0.0}, {"lat": 38.92014566666667, "lon": -77.021911, "is_disabled": 0, "fusion_lon": 0.0, "is_reserved": 0, "name": "f8c175d0cab531aab13b53ff35abd8a2", "type": "electric_scooter", "bike_id": "f8c175d0cab531aab13b53ff35abd8a2", "rental_uris": {"ios": "https://dc.lft.to/lastmile_qr_scan", "android": "https://dc.lft.to/lastmile_qr_scan"}, "fusion_lat": 0.0}, {"lat": 38.90263566666667, "lon": -77.015407, "is_disabled": 0, "fusion_lon": 0.0, "is_reserved": 0, "name": "ba01157f539b7b9bf16869cb69ca4b4d", "type": "electric_scooter", "bike_id": "ba01157f539b7b9bf16869cb69ca4b4d", "rental_uris": {"ios": "https://dc.lft.to/lastmile_qr_scan", "android": "https://dc.lft.to/lastmile_qr_scan"}, "fusion_lat": 0.0}, {"lat": 38.9055405, "lon": -77.00273916666667, "is_disabled": 0, "fusion_lon": 0.0, "is_reserved": 0, "name": "530a82e6dfb646a241dbbacd02394652", "type": "electric_scooter", "bike_id": "530a82e6dfb646a241dbbacd02394652", "rental_uris": {"ios": "https://dc.lft.to/lastmile_qr_scan", "android": "https://dc.lft.to/lastmile_qr_scan"}, "fusion_lat": 0.0}, {"lat": 38.9233515, "lon": -77.05691816666666, "is_disabled": 0, "fusion_lon": 0.0, "is_reserved": 0, "name": "8543c160787c18b1121724ea65e65b9f", "type": "electric_scooter", "bike_id": "8543c160787c18b1121724ea65e65b9f", "rental_uris": {"ios": "https://dc.lft.to/lastmile_qr_scan", "android": "https://dc.lft.to/lastmile_qr_scan"}, "fusion_lat": 0.0}, {"lat": 38.892183833333334, "lon": -77.041994, "is_disabled": 0, "fusion_lon": 0.0, "is_reserved": 0, "name": "c9022ff3c8c6c1b4fc449818f675941d", "type": "electric_scooter", "bike_id": "c9022ff3c8c6c1b4fc449818f675941d", "rental_uris": {"ios": "https://dc.lft.to/lastmile_qr_scan", "android": "https://dc.lft.to/lastmile_qr_scan"}, "fusion_lat": 0.0}, {"lat": 38.90606483333333, "lon": -77.063792, "is_disabled": 0, "fusion_lon": 0.0, "is_reserved": 0, "name": "ec876ccb874f4206415e8a36524e0bc3", "type": "electric_scooter", "bike_id": "ec876ccb874f4206415e8a36524e0bc3", "rental_uris": {"ios": "https://dc.lft.to/lastmile_qr_scan", "android": "https://dc.lft.to/lastmile_qr_scan"}, "fusion_lat": 0.0}, {"lat": 38.906280333333335, "lon": -77.02500683333334, "is_disabled": 0, "fusion_lon": 0.0, "is_reserved": 0, "name": "15d0a99b8de29069b09e70d13b25737b", "type": "electric_scooter", "bike_id": "15d0a99b8de29069b09e70d13b25737b", "rental_uris": {"ios": "https://dc.lft.to/lastmile_qr_scan", "android": "https://dc.lft.to/lastmile_qr_scan"}, "fusion_lat": 0.0}, {"lat": 38.9231795, "lon": -77.04108883333333, "is_disabled": 0, "fusion_lon": 0.0, "is_reserved": 0, "name": "9cb24a098b92c8dc69762a7a0b2241bb", "type": "electric_scooter", "bike_id": "9cb24a098b92c8dc69762a7a0b2241bb", "rental_uris": {"ios": "https://dc.lft.to/lastmile_qr_scan", "android": "https://dc.lft.to/lastmile_qr_scan"}, "fusion_lat": 0.0}, {"lat": 38.925859, "lon": -77.20988166666666, "is_disabled": 0, "fusion_lon": 0.0, "is_reserved": 0, "name": "b35dfb04868d91ea37369cd0fccb50fa", "type": "electric_bike", "bike_id": "b35dfb04868d91ea37369cd0fccb50fa", "rental_uris": {"ios": "https://dc.lft.to/lastmile_qr_scan", "android": "https://dc.lft.to/lastmile_qr_scan"}, "fusion_lat": 0.0}, {"lat": 38.9150345, "lon": -77.01565183333334, "is_disabled": 0, "fusion_lon": 0.0, "is_reserved": 0, "name": "6154e74c9690c17ffa5f0e23286f1acb", "type": "electric_scooter", "bike_id": "6154e74c9690c17ffa5f0e23286f1acb", "rental_uris": {"ios": "https://dc.lft.to/lastmile_qr_scan", "android": "https://dc.lft.to/lastmile_qr_scan"}, "fusion_lat": 0.0}, {"lat": 38.90079016666667, "lon": -77.02092033333334, "is_disabled": 0, "fusion_lon": 0.0, "is_reserved": 0, "name": "e201cbbb00eff3382d0bc6e84896b1d6", "type": "electric_scooter", "bike_id": "e201cbbb00eff3382d0bc6e84896b1d6", "rental_uris": {"ios": "https://dc.lft.to/lastmile_qr_scan", "android": "https://dc.lft.to/lastmile_qr_scan"}, "fusion_lat": 0.0}, {"lat": 38.924615833333334, "lon": -77.05241316666667, "is_disabled": 0, "fusion_lon": 0.0, "is_reserved": 0, "name": "e3bf87ae88e306c099406f92345f34f1", "type": "electric_scooter", "bike_id": "e3bf87ae88e306c099406f92345f34f1", "rental_uris": {"ios": "https://dc.lft.to/lastmile_qr_scan", "android": "https://dc.lft.to/lastmile_qr_scan"}, "fusion_lat": 0.0}, {"lat": 38.827829333333334, "lon": -77.12490133333333, "is_disabled": 0, "fusion_lon": 0.0, "is_reserved": 0, "name": "6ed7e5936fffaffa73206bb9d35a85ac", "type": "electric_bike", "bike_id": "6ed7e5936fffaffa73206bb9d35a85ac", "rental_uris": {"ios": "https://dc.lft.to/lastmile_qr_scan", "android": "https://dc.lft.to/lastmile_qr_scan"}, "fusion_lat": 0.0}, {"lat": 38.8876545, "lon": -77.01303666666666, "is_disabled": 0, "fusion_lon": 0.0, "is_reserved": 0, "name": "f8f9485434a1460e77f23a58a90fcf95", "type": "electric_scooter", "bike_id": "f8f9485434a1460e77f23a58a90fcf95", "rental_uris": {"ios": "https://dc.lft.to/lastmile_qr_scan", "android": "https://dc.lft.to/lastmile_qr_scan"}, "fusion_lat": 0.0}, {"lat": 38.954244, "lon": -77.02761416666667, "is_disabled": 0, "fusion_lon": 0.0, "is_reserved": 0, "name": "598d5f177dbb6bc7dc27193cfd763548", "type": "electric_scooter", "bike_id": "598d5f177dbb6bc7dc27193cfd763548", "rental_uris": {"ios": "https://dc.lft.to/lastmile_qr_scan", "android": "https://dc.lft.to/lastmile_qr_scan"}, "fusion_lat": 0.0}, {"lat": 38.908151833333335, "lon": -77.038357, "is_disabled": 0, "fusion_lon": 0.0, "is_reserved": 0, "name": "d4dd51065db141fc282c4fcb9226eaa1", "type": "electric_scooter", "bike_id": "d4dd51065db141fc282c4fcb9226eaa1", "rental_uris": {"ios": "https://dc.lft.to/lastmile_qr_scan", "android": "https://dc.lft.to/lastmile_qr_scan"}, "fusion_lat": 0.0}, {"lat": 38.91586816666667, "lon": -77.017264, "is_disabled": 0, "fusion_lon": 0.0, "is_reserved": 0, "name": "6b20aa2c07c45095101b5b9d10a850f3", "type": "electric_scooter", "bike_id": "6b20aa2c07c45095101b5b9d10a850f3", "rental_uris": {"ios": "https://dc.lft.to/lastmile_qr_scan", "android": "https://dc.lft.to/lastmile_qr_scan"}, "fusion_lat": 0.0}, {"lat": 38.899382833333334, "lon": -77.0203585, "is_disabled": 0, "fusion_lon": 0.0, "is_reserved": 0, "name": "855dd1dc57f3ecf90942dff08e7f2bef", "type": "electric_scooter", "bike_id": "855dd1dc57f3ecf90942dff08e7f2bef", "rental_uris": {"ios": "https://dc.lft.to/lastmile_qr_scan", "android": "https://dc.lft.to/lastmile_qr_scan"}, "fusion_lat": 0.0}, {"lat": 38.8922015, "lon": -77.04999283333333, "is_disabled": 0, "fusion_lon": 0.0, "is_reserved": 0, "name": "5d19dc4e5e7307272bb5fbdef15a9aa3", "type": "electric_scooter", "bike_id": "5d19dc4e5e7307272bb5fbdef15a9aa3", "rental_uris": {"ios": "https://dc.lft.to/lastmile_qr_scan", "android": "https://dc.lft.to/lastmile_qr_scan"}, "fusion_lat": 0.0}, {"lat": 38.926772, "lon": -77.02790433333334, "is_disabled": 0, "fusion_lon": 0.0, "is_reserved": 0, "name": "2c37e2253aba07f14950c49f31733ae4", "type": "electric_scooter", "bike_id": "2c37e2253aba07f14950c49f31733ae4", "rental_uris": {"ios": "https://dc.lft.to/lastmile_qr_scan", "android": "https://dc.lft.to/lastmile_qr_scan"}, "fusion_lat": 0.0}, {"lat": 38.9318165, "lon": -77.0429935, "is_disabled": 0, "fusion_lon": 0.0, "is_reserved": 0, "name": "324ab149c21a77db763ef00e6d9e17ed", "type": "electric_scooter", "bike_id": "324ab149c21a77db763ef00e6d9e17ed", "rental_uris": {"ios": "https://dc.lft.to/lastmile_qr_scan", "android": "https://dc.lft.to/lastmile_qr_scan"}, "fusion_lat": 0.0}, {"lat": 38.924404, "lon": -77.0203435, "is_disabled": 0, "fusion_lon": 0.0, "is_reserved": 0, "name": "1c5fc510f7d7a6a35128c91db2e62a46", "type": "electric_scooter", "bike_id": "1c5fc510f7d7a6a35128c91db2e62a46", "rental_uris": {"ios": "https://dc.lft.to/lastmile_qr_scan", "android": "https://dc.lft.to/lastmile_qr_scan"}, "fusion_lat": 0.0}, {"lat": 38.892153, "lon": -77.02657666666667, "is_disabled": 0, "fusion_lon": 0.0, "is_reserved": 0, "name": "1f821027bd6f7bfa8cca779354e49e2b", "type": "electric_scooter", "bike_id": "1f821027bd6f7bfa8cca779354e49e2b", "rental_uris": {"ios": "https://dc.lft.to/lastmile_qr_scan", "android": "https://dc.lft.to/lastmile_qr_scan"}, "fusion_lat": 0.0}, {"lat": 38.911112, "lon": -77.04538066666667, "is_disabled": 0, "fusion_lon": 0.0, "is_reserved": 0, "name": "513bd7fd154267edd0d809d9a7f304cb", "type": "electric_scooter", "bike_id": "513bd7fd154267edd0d809d9a7f304cb", "rental_uris": {"ios": "https://dc.lft.to/lastmile_qr_scan", "android": "https://dc.lft.to/lastmile_qr_scan"}, "fusion_lat": 0.0}, {"lat": 38.874589666666665, "lon": -77.01451333333333, "is_disabled": 0, "fusion_lon": 0.0, "is_reserved": 0, "name": "25a0d4cd26f059403a71c7febcd3aeb4", "type": "electric_scooter", "bike_id": "25a0d4cd26f059403a71c7febcd3aeb4", "rental_uris": {"ios": "https://dc.lft.to/lastmile_qr_scan", "android": "https://dc.lft.to/lastmile_qr_scan"}, "fusion_lat": 0.0}, {"lat": 38.84307183333333, "lon": -76.995382, "is_disabled": 0, "fusion_lon": 0.0, "is_reserved": 0, "name": "ca17b28e43a243e0b1b815f8acaa6cce", "type": "electric_scooter", "bike_id": "ca17b28e43a243e0b1b815f8acaa6cce", "rental_uris": {"ios": "https://dc.lft.to/lastmile_qr_scan", "android": "https://dc.lft.to/lastmile_qr_scan"}, "fusion_lat": 0.0}, {"lat": 38.928951166666664, "lon": -77.05807816666666, "is_disabled": 0, "fusion_lon": 0.0, "is_reserved": 0, "name": "ff9eec3b39c059a898d92ba8d9267a5d", "type": "electric_scooter", "bike_id": "ff9eec3b39c059a898d92ba8d9267a5d", "rental_uris": {"ios": "https://dc.lft.to/lastmile_qr_scan", "android": "https://dc.lft.to/lastmile_qr_scan"}, "fusion_lat": 0.0}, {"lat": 38.933813666666666, "lon": -77.02968633333333, "is_disabled": 0, "fusion_lon": 0.0, "is_reserved": 0, "name": "8481c26ac9ffeb8bbaef688bebebb432", "type": "electric_scooter", "bike_id": "8481c26ac9ffeb8bbaef688bebebb432", "rental_uris": {"ios": "https://dc.lft.to/lastmile_qr_scan", "android": "https://dc.lft.to/lastmile_qr_scan"}, "fusion_lat": 0.0}, {"lat": 38.9181325, "lon": -77.04172183333333, "is_disabled": 0, "fusion_lon": 0.0, "is_reserved": 0, "name": "665e9643cc086c0f1f61b857d8690fd1", "type": "electric_scooter", "bike_id": "665e9643cc086c0f1f61b857d8690fd1", "rental_uris": {"ios": "https://dc.lft.to/lastmile_qr_scan", "android": "https://dc.lft.to/lastmile_qr_scan"}, "fusion_lat": 0.0}, {"lat": 38.855170666666666, "lon": -76.98434716666667, "is_disabled": 0, "fusion_lon": 0.0, "is_reserved": 0, "name": "1f1f16a8407baaafd752e0040113a695", "type": "electric_bike", "bike_id": "1f1f16a8407baaafd752e0040113a695", "rental_uris": {"ios": "https://dc.lft.to/lastmile_qr_scan", "android": "https://dc.lft.to/lastmile_qr_scan"}, "fusion_lat": 0.0}, {"lat": 38.91684583333333, "lon": -77.02951566666667, "is_disabled": 0, "fusion_lon": 0.0, "is_reserved": 0, "name": "6c164d2b59b60cb1133a3224aa83b627", "type": "electric_scooter", "bike_id": "6c164d2b59b60cb1133a3224aa83b627", "rental_uris": {"ios": "https://dc.lft.to/lastmile_qr_scan", "android": "https://dc.lft.to/lastmile_qr_scan"}, "fusion_lat": 0.0}, {"lat": 38.912604333333334, "lon": -77.0448725, "is_disabled": 0, "fusion_lon": 0.0, "is_reserved": 0, "name": "95dd4c8ab07df010eb6256ea9435637e", "type": "electric_scooter", "bike_id": "95dd4c8ab07df010eb6256ea9435637e", "rental_uris": {"ios": "https://dc.lft.to/lastmile_qr_scan", "android": "https://dc.lft.to/lastmile_qr_scan"}, "fusion_lat": 0.0}, {"lat": 38.92878733333333, "lon": -77.03228166666666, "is_disabled": 0, "fusion_lon": 0.0, "is_reserved": 0, "name": "704060046ca55d397ac6c7d22b132a6b", "type": "electric_scooter", "bike_id": "704060046ca55d397ac6c7d22b132a6b", "rental_uris": {"ios": "https://dc.lft.to/lastmile_qr_scan", "android": "https://dc.lft.to/lastmile_qr_scan"}, "fusion_lat": 0.0}, {"lat": 38.876978, "lon": -77.00325333333333, "is_disabled": 0, "fusion_lon": 0.0, "is_reserved": 0, "name": "b82032662ba8a3f3c2375388719de493", "type": "electric_scooter", "bike_id": "b82032662ba8a3f3c2375388719de493", "rental_uris": {"ios": "https://dc.lft.to/lastmile_qr_scan", "android": "https://dc.lft.to/lastmile_qr_scan"}, "fusion_lat": 0.0}, {"lat": 38.89742833333333, "lon": -77.00143983333334, "is_disabled": 0, "fusion_lon": 0.0, "is_reserved": 0, "name": "4305fc12ff80e58d3c32b3248a1673ed", "type": "electric_scooter", "bike_id": "4305fc12ff80e58d3c32b3248a1673ed", "rental_uris": {"ios": "https://dc.lft.to/lastmile_qr_scan", "android": "https://dc.lft.to/lastmile_qr_scan"}, "fusion_lat": 0.0}, {"lat": 38.831028333333336, "lon": -77.11284, "is_disabled": 0, "fusion_lon": 0.0, "is_reserved": 0, "name": "91109799e5a4717323d1b0029a768b51", "type": "electric_bike", "bike_id": "91109799e5a4717323d1b0029a768b51", "rental_uris": {"ios": "https://dc.lft.to/lastmile_qr_scan", "android": "https://dc.lft.to/lastmile_qr_scan"}, "fusion_lat": 0.0}, {"lat": 38.907246666666666, "lon": -77.00954883333333, "is_disabled": 0, "fusion_lon": 0.0, "is_reserved": 0, "name": "c9d3f4b405055ea2063cb79fa273b6c9", "type": "electric_scooter", "bike_id": "c9d3f4b405055ea2063cb79fa273b6c9", "rental_uris": {"ios": "https://dc.lft.to/lastmile_qr_scan", "android": "https://dc.lft.to/lastmile_qr_scan"}, "fusion_lat": 0.0}, {"lat": 38.89711916666667, "lon": -77.0268395, "is_disabled": 0, "fusion_lon": 0.0, "is_reserved": 0, "name": "c3725a9cd56e3a9b6b1f9abed89dde0a", "type": "electric_scooter", "bike_id": "c3725a9cd56e3a9b6b1f9abed89dde0a", "rental_uris": {"ios": "https://dc.lft.to/lastmile_qr_scan", "android": "https://dc.lft.to/lastmile_qr_scan"}, "fusion_lat": 0.0}, {"lat": 38.9111405, "lon": -76.9975645, "is_disabled": 0, "fusion_lon": 0.0, "is_reserved": 0, "name": "de30b21e895fade905d8d5cfc9b01c8d", "type": "electric_scooter", "bike_id": "de30b21e895fade905d8d5cfc9b01c8d", "rental_uris": {"ios": "https://dc.lft.to/lastmile_qr_scan", "android": "https://dc.lft.to/lastmile_qr_scan"}, "fusion_lat": 0.0}, {"lat": 38.9211885, "lon": -77.01213166666666, "is_disabled": 0, "fusion_lon": 0.0, "is_reserved": 0, "name": "0288705371d1d6dfb3d34616d0ed506b", "type": "electric_bike", "bike_id": "0288705371d1d6dfb3d34616d0ed506b", "rental_uris": {"ios": "https://dc.lft.to/lastmile_qr_scan", "android": "https://dc.lft.to/lastmile_qr_scan"}, "fusion_lat": 0.0}, {"lat": 38.9369565, "lon": -77.02397533333334, "is_disabled": 0, "fusion_lon": 0.0, "is_reserved": 0, "name": "a6d31c723c79a78cf2ee88a920127966", "type": "electric_scooter", "bike_id": "a6d31c723c79a78cf2ee88a920127966", "rental_uris": {"ios": "https://dc.lft.to/lastmile_qr_scan", "android": "https://dc.lft.to/lastmile_qr_scan"}, "fusion_lat": 0.0}, {"lat": 38.927922, "lon": -77.0155635, "is_disabled": 0, "fusion_lon": 0.0, "is_reserved": 0, "name": "bf97461cb2a66986f480bbdc6b10c7f1", "type": "electric_scooter", "bike_id": "bf97461cb2a66986f480bbdc6b10c7f1", "rental_uris": {"ios": "https://dc.lft.to/lastmile_qr_scan", "android": "https://dc.lft.to/lastmile_qr_scan"}, "fusion_lat": 0.0}, {"lat": 38.905048, "lon": -77.06467566666667, "is_disabled": 0, "fusion_lon": 0.0, "is_reserved": 0, "name": "7fb25f3a0882f327c4dd3661e7c07d94", "type": "electric_scooter", "bike_id": "7fb25f3a0882f327c4dd3661e7c07d94", "rental_uris": {"ios": "https://dc.lft.to/lastmile_qr_scan", "android": "https://dc.lft.to/lastmile_qr_scan"}, "fusion_lat": 0.0}, {"lat": 38.90250416666667, "lon": -77.035548, "is_disabled": 0, "fusion_lon": 0.0, "is_reserved": 0, "name": "11bfffff3fb44523ba38f48f6dcd1f53", "type": "electric_scooter", "bike_id": "11bfffff3fb44523ba38f48f6dcd1f53", "rental_uris": {"ios": "https://dc.lft.to/lastmile_qr_scan", "android": "https://dc.lft.to/lastmile_qr_scan"}, "fusion_lat": 0.0}, {"lat": 38.87661166666667, "lon": -77.002121, "is_disabled": 0, "fusion_lon": 0.0, "is_reserved": 0, "name": "d28dd121cd89c51abead6f09de96f56b", "type": "electric_scooter", "bike_id": "d28dd121cd89c51abead6f09de96f56b", "rental_uris": {"ios": "https://dc.lft.to/lastmile_qr_scan", "android": "https://dc.lft.to/lastmile_qr_scan"}, "fusion_lat": 0.0}, {"lat": 38.917542, "lon": -77.03186966666667, "is_disabled": 0, "fusion_lon": 0.0, "is_reserved": 0, "name": "257be8a501438bb903d8b97b723fafd2", "type": "electric_scooter", "bike_id": "257be8a501438bb903d8b97b723fafd2", "rental_uris": {"ios": "https://dc.lft.to/lastmile_qr_scan", "android": "https://dc.lft.to/lastmile_qr_scan"}, "fusion_lat": 0.0}, {"lat": 38.90712716666667, "lon": -77.0344375, "is_disabled": 0, "fusion_lon": 0.0, "is_reserved": 0, "name": "35bf3931df93ce0dead269f67bc4a665", "type": "electric_scooter", "bike_id": "35bf3931df93ce0dead269f67bc4a665", "rental_uris": {"ios": "https://dc.lft.to/lastmile_qr_scan", "android": "https://dc.lft.to/lastmile_qr_scan"}, "fusion_lat": 0.0}, {"lat": 38.90427283333333, "lon": -77.04654733333334, "is_disabled": 0, "fusion_lon": 0.0, "is_reserved": 0, "name": "349b1341c8375b2fa3a6ddf85f084dd6", "type": "electric_scooter", "bike_id": "349b1341c8375b2fa3a6ddf85f084dd6", "rental_uris": {"ios": "https://dc.lft.to/lastmile_qr_scan", "android": "https://dc.lft.to/lastmile_qr_scan"}, "fusion_lat": 0.0}, {"lat": 38.956278833333336, "lon": -76.9386535, "is_disabled": 0, "fusion_lon": 0.0, "is_reserved": 0, "name": "819abd65f06b57ee3d2e96757812a514", "type": "electric_bike", "bike_id": "819abd65f06b57ee3d2e96757812a514", "rental_uris": {"ios": "https://dc.lft.to/lastmile_qr_scan", "android": "https://dc.lft.to/lastmile_qr_scan"}, "fusion_lat": 0.0}, {"lat": 38.884980666666664, "lon": -77.0297315, "is_disabled": 0, "fusion_lon": 0.0, "is_reserved": 0, "name": "1955008359d8f35b4e982ce0f2a67d0b", "type": "electric_scooter", "bike_id": "1955008359d8f35b4e982ce0f2a67d0b", "rental_uris": {"ios": "https://dc.lft.to/lastmile_qr_scan", "android": "https://dc.lft.to/lastmile_qr_scan"}, "fusion_lat": 0.0}, {"lat": 38.9002405, "lon": -77.012165, "is_disabled": 0, "fusion_lon": 0.0, "is_reserved": 0, "name": "409e9e5bfdffddef8b8a9dfbeb4864df", "type": "electric_scooter", "bike_id": "409e9e5bfdffddef8b8a9dfbeb4864df", "rental_uris": {"ios": "https://dc.lft.to/lastmile_qr_scan", "android": "https://dc.lft.to/lastmile_qr_scan"}, "fusion_lat": 0.0}, {"lat": 38.922952333333335, "lon": -77.04163516666667, "is_disabled": 0, "fusion_lon": 0.0, "is_reserved": 0, "name": "8e799cf282bac5b46751d321a1ba2670", "type": "electric_scooter", "bike_id": "8e799cf282bac5b46751d321a1ba2670", "rental_uris": {"ios": "https://dc.lft.to/lastmile_qr_scan", "android": "https://dc.lft.to/lastmile_qr_scan"}, "fusion_lat": 0.0}, {"lat": 38.91987183333333, "lon": -77.01798983333333, "is_disabled": 0, "fusion_lon": 0.0, "is_reserved": 0, "name": "caeea6226549580a8ea4e0425c938d32", "type": "electric_scooter", "bike_id": "caeea6226549580a8ea4e0425c938d32", "rental_uris": {"ios": "https://dc.lft.to/lastmile_qr_scan", "android": "https://dc.lft.to/lastmile_qr_scan"}, "fusion_lat": 0.0}, {"lat": 38.90250416666667, "lon": -77.03795966666667, "is_disabled": 0, "fusion_lon": 0.0, "is_reserved": 0, "name": "e807abe10faabb828009bd9e8a6c650b", "type": "electric_scooter", "bike_id": "e807abe10faabb828009bd9e8a6c650b", "rental_uris": {"ios": "https://dc.lft.to/lastmile_qr_scan", "android": "https://dc.lft.to/lastmile_qr_scan"}, "fusion_lat": 0.0}, {"lat": 38.91250616666667, "lon": -77.02221533333334, "is_disabled": 0, "fusion_lon": 0.0, "is_reserved": 0, "name": "13e0e0c9bfe0ad233af4fb42481fb981", "type": "electric_scooter", "bike_id": "13e0e0c9bfe0ad233af4fb42481fb981", "rental_uris": {"ios": "https://dc.lft.to/lastmile_qr_scan", "android": "https://dc.lft.to/lastmile_qr_scan"}, "fusion_lat": 0.0}, {"lat": 38.9000735, "lon": -77.04142816666666, "is_disabled": 0, "fusion_lon": 0.0, "is_reserved": 0, "name": "3901efda6f620ba6e0608c1419b83605", "type": "electric_scooter", "bike_id": "3901efda6f620ba6e0608c1419b83605", "rental_uris": {"ios": "https://dc.lft.to/lastmile_qr_scan", "android": "https://dc.lft.to/lastmile_qr_scan"}, "fusion_lat": 0.0}, {"lat": 38.90994883333333, "lon": -77.032125, "is_disabled": 0, "fusion_lon": 0.0, "is_reserved": 0, "name": "3e10f803f12eb6493087adab6f8f9f35", "type": "electric_scooter", "bike_id": "3e10f803f12eb6493087adab6f8f9f35", "rental_uris": {"ios": "https://dc.lft.to/lastmile_qr_scan", "android": "https://dc.lft.to/lastmile_qr_scan"}, "fusion_lat": 0.0}, {"lat": 38.9065735, "lon": -77.03874533333334, "is_disabled": 0, "fusion_lon": 0.0, "is_reserved": 0, "name": "445d8ef51c49347894f3107098b219c0", "type": "electric_scooter", "bike_id": "445d8ef51c49347894f3107098b219c0", "rental_uris": {"ios": "https://dc.lft.to/lastmile_qr_scan", "android": "https://dc.lft.to/lastmile_qr_scan"}, "fusion_lat": 0.0}, {"lat": 38.91676116666667, "lon": -77.022766, "is_disabled": 0, "fusion_lon": 0.0, "is_reserved": 0, "name": "a4f468b5c2d56702f820e0e2e2850038", "type": "electric_scooter", "bike_id": "a4f468b5c2d56702f820e0e2e2850038", "rental_uris": {"ios": "https://dc.lft.to/lastmile_qr_scan", "android": "https://dc.lft.to/lastmile_qr_scan"}, "fusion_lat": 0.0}, {"lat": 38.900793166666666, "lon": -77.0448705, "is_disabled": 0, "fusion_lon": 0.0, "is_reserved": 0, "name": "6e17ac6a9eec11c0d6e23b12f570b9fd", "type": "electric_scooter", "bike_id": "6e17ac6a9eec11c0d6e23b12f570b9fd", "rental_uris": {"ios": "https://dc.lft.to/lastmile_qr_scan", "android": "https://dc.lft.to/lastmile_qr_scan"}, "fusion_lat": 0.0}, {"lat": 38.9232805, "lon": -77.04187683333333, "is_disabled": 0, "fusion_lon": 0.0, "is_reserved": 0, "name": "f02ee85aea36c462c61b8d573e2cac2b", "type": "electric_scooter", "bike_id": "f02ee85aea36c462c61b8d573e2cac2b", "rental_uris": {"ios": "https://dc.lft.to/lastmile_qr_scan", "android": "https://dc.lft.to/lastmile_qr_scan"}, "fusion_lat": 0.0}, {"lat": 38.90704683333333, "lon": -77.03615266666667, "is_disabled": 0, "fusion_lon": 0.0, "is_reserved": 0, "name": "3b7e467c7118dc24468e8543384aab20", "type": "electric_scooter", "bike_id": "3b7e467c7118dc24468e8543384aab20", "rental_uris": {"ios": "https://dc.lft.to/lastmile_qr_scan", "android": "https://dc.lft.to/lastmile_qr_scan"}, "fusion_lat": 0.0}, {"lat": 38.90558566666667, "lon": -77.0018895, "is_disabled": 0, "fusion_lon": 0.0, "is_reserved": 0, "name": "23956e46b83c54416355aee672acbbbd", "type": "electric_scooter", "bike_id": "23956e46b83c54416355aee672acbbbd", "rental_uris": {"ios": "https://dc.lft.to/lastmile_qr_scan", "android": "https://dc.lft.to/lastmile_qr_scan"}, "fusion_lat": 0.0}, {"lat": 38.907700166666665, "lon": -77.0243545, "is_disabled": 0, "fusion_lon": 0.0, "is_reserved": 0, "name": "774291992c8dbc1bd3c644450c009340", "type": "electric_bike", "bike_id": "774291992c8dbc1bd3c644450c009340", "rental_uris": {"ios": "https://dc.lft.to/lastmile_qr_scan", "android": "https://dc.lft.to/lastmile_qr_scan"}, "fusion_lat": 0.0}, {"lat": 38.91979533333333, "lon": -77.02508183333333, "is_disabled": 0, "fusion_lon": 0.0, "is_reserved": 0, "name": "9f2e2455355ec986495b7fc3ecb3bb84", "type": "electric_scooter", "bike_id": "9f2e2455355ec986495b7fc3ecb3bb84", "rental_uris": {"ios": "https://dc.lft.to/lastmile_qr_scan", "android": "https://dc.lft.to/lastmile_qr_scan"}, "fusion_lat": 0.0}, {"lat": 38.88007133333333, "lon": -77.02479583333333, "is_disabled": 0, "fusion_lon": 0.0, "is_reserved": 0, "name": "6d5890524d5809ca84d32cef662b2bf4", "type": "electric_scooter", "bike_id": "6d5890524d5809ca84d32cef662b2bf4", "rental_uris": {"ios": "https://dc.lft.to/lastmile_qr_scan", "android": "https://dc.lft.to/lastmile_qr_scan"}, "fusion_lat": 0.0}, {"lat": 38.907566, "lon": -77.03578, "is_disabled": 0, "fusion_lon": 0.0, "is_reserved": 0, "name": "1fe459ac0993c9fb104e762ae35ca9d4", "type": "electric_scooter", "bike_id": "1fe459ac0993c9fb104e762ae35ca9d4", "rental_uris": {"ios": "https://dc.lft.to/lastmile_qr_scan", "android": "https://dc.lft.to/lastmile_qr_scan"}, "fusion_lat": 0.0}, {"lat": 38.917350666666664, "lon": -77.02115516666667, "is_disabled": 0, "fusion_lon": 0.0, "is_reserved": 0, "name": "d0f19e27f7faaa815ecc70e8324631e8", "type": "electric_scooter", "bike_id": "d0f19e27f7faaa815ecc70e8324631e8", "rental_uris": {"ios": "https://dc.lft.to/lastmile_qr_scan", "android": "https://dc.lft.to/lastmile_qr_scan"}, "fusion_lat": 0.0}, {"lat": 38.901490333333335, "lon": -77.04491666666667, "is_disabled": 0, "fusion_lon": 0.0, "is_reserved": 0, "name": "aa81d61bae8c1f1f0ea283e67c37221b", "type": "electric_scooter", "bike_id": "aa81d61bae8c1f1f0ea283e67c37221b", "rental_uris": {"ios": "https://dc.lft.to/lastmile_qr_scan", "android": "https://dc.lft.to/lastmile_qr_scan"}, "fusion_lat": 0.0}, {"lat": 38.8943725, "lon": -76.94985866666667, "is_disabled": 0, "fusion_lon": 0.0, "is_reserved": 0, "name": "578c700dc6d0e46db38059d624801119", "type": "electric_scooter", "bike_id": "578c700dc6d0e46db38059d624801119", "rental_uris": {"ios": "https://dc.lft.to/lastmile_qr_scan", "android": "https://dc.lft.to/lastmile_qr_scan"}, "fusion_lat": 0.0}, {"lat": 38.921414, "lon": -77.035086, "is_disabled": 0, "fusion_lon": 0.0, "is_reserved": 0, "name": "92cc0d9b2f31680995c22f6147198881", "type": "electric_scooter", "bike_id": "92cc0d9b2f31680995c22f6147198881", "rental_uris": {"ios": "https://dc.lft.to/lastmile_qr_scan", "android": "https://dc.lft.to/lastmile_qr_scan"}, "fusion_lat": 0.0}, {"lat": 38.9276585, "lon": -77.0206535, "is_disabled": 0, "fusion_lon": 0.0, "is_reserved": 0, "name": "4cddd94c88a4fbf6fe2f92a0c8ad04bc", "type": "electric_scooter", "bike_id": "4cddd94c88a4fbf6fe2f92a0c8ad04bc", "rental_uris": {"ios": "https://dc.lft.to/lastmile_qr_scan", "android": "https://dc.lft.to/lastmile_qr_scan"}, "fusion_lat": 0.0}, {"lat": 38.93398083333334, "lon": -77.039902, "is_disabled": 0, "fusion_lon": 0.0, "is_reserved": 0, "name": "4dc5a81b7e33f88de0dd8c268bf12050", "type": "electric_scooter", "bike_id": "4dc5a81b7e33f88de0dd8c268bf12050", "rental_uris": {"ios": "https://dc.lft.to/lastmile_qr_scan", "android": "https://dc.lft.to/lastmile_qr_scan"}, "fusion_lat": 0.0}, {"lat": 38.9170085, "lon": -77.00712366666667, "is_disabled": 0, "fusion_lon": 0.0, "is_reserved": 0, "name": "7250590c821f2b5757c3d302cb86ed33", "type": "electric_scooter", "bike_id": "7250590c821f2b5757c3d302cb86ed33", "rental_uris": {"ios": "https://dc.lft.to/lastmile_qr_scan", "android": "https://dc.lft.to/lastmile_qr_scan"}, "fusion_lat": 0.0}, {"lat": 38.903355166666664, "lon": -77.04651933333334, "is_disabled": 0, "fusion_lon": 0.0, "is_reserved": 0, "name": "bba20fa7609def9170233bfded498267", "type": "electric_scooter", "bike_id": "bba20fa7609def9170233bfded498267", "rental_uris": {"ios": "https://dc.lft.to/lastmile_qr_scan", "android": "https://dc.lft.to/lastmile_qr_scan"}, "fusion_lat": 0.0}, {"lat": 38.89823233333333, "lon": -77.04679583333333, "is_disabled": 0, "fusion_lon": 0.0, "is_reserved": 0, "name": "5b8ef68bbc7eed88238795a86cd2845e", "type": "electric_bike", "bike_id": "5b8ef68bbc7eed88238795a86cd2845e", "rental_uris": {"ios": "https://dc.lft.to/lastmile_qr_scan", "android": "https://dc.lft.to/lastmile_qr_scan"}, "fusion_lat": 0.0}, {"lat": 38.90383716666667, "lon": -77.03810866666667, "is_disabled": 0, "fusion_lon": 0.0, "is_reserved": 0, "name": "58de081ca4fdc74b1d6e7061cdf6cc6a", "type": "electric_scooter", "bike_id": "58de081ca4fdc74b1d6e7061cdf6cc6a", "rental_uris": {"ios": "https://dc.lft.to/lastmile_qr_scan", "android": "https://dc.lft.to/lastmile_qr_scan"}, "fusion_lat": 0.0}, {"lat": 38.93047083333333, "lon": -77.03263633333333, "is_disabled": 0, "fusion_lon": 0.0, "is_reserved": 0, "name": "38fe6e929acb665d8961f052417d1f45", "type": "electric_scooter", "bike_id": "38fe6e929acb665d8961f052417d1f45", "rental_uris": {"ios": "https://dc.lft.to/lastmile_qr_scan", "android": "https://dc.lft.to/lastmile_qr_scan"}, "fusion_lat": 0.0}, {"lat": 38.892181, "lon": -77.02227183333333, "is_disabled": 0, "fusion_lon": 0.0, "is_reserved": 0, "name": "87b7b975d87cbf7754daf12cf326d4c7", "type": "electric_scooter", "bike_id": "87b7b975d87cbf7754daf12cf326d4c7", "rental_uris": {"ios": "https://dc.lft.to/lastmile_qr_scan", "android": "https://dc.lft.to/lastmile_qr_scan"}, "fusion_lat": 0.0}, {"lat": 38.89900633333333, "lon": -77.0486535, "is_disabled": 0, "fusion_lon": 0.0, "is_reserved": 0, "name": "7300a93ff040463f49fe7002ee4ec433", "type": "electric_bike", "bike_id": "7300a93ff040463f49fe7002ee4ec433", "rental_uris": {"ios": "https://dc.lft.to/lastmile_qr_scan", "android": "https://dc.lft.to/lastmile_qr_scan"}, "fusion_lat": 0.0}, {"lat": 38.9260195, "lon": -77.02155433333333, "is_disabled": 0, "fusion_lon": 0.0, "is_reserved": 0, "name": "b7f40493ca769063e3a8cce0b942ce4b", "type": "electric_scooter", "bike_id": "b7f40493ca769063e3a8cce0b942ce4b", "rental_uris": {"ios": "https://dc.lft.to/lastmile_qr_scan", "android": "https://dc.lft.to/lastmile_qr_scan"}, "fusion_lat": 0.0}, {"lat": 39.03608116666667, "lon": -77.05538333333334, "is_disabled": 0, "fusion_lon": 0.0, "is_reserved": 0, "name": "61969553a26e91f98641cc2bb8f6e7ad", "type": "electric_bike", "bike_id": "61969553a26e91f98641cc2bb8f6e7ad", "rental_uris": {"ios": "https://dc.lft.to/lastmile_qr_scan", "android": "https://dc.lft.to/lastmile_qr_scan"}, "fusion_lat": 0.0}, {"lat": 38.812495, "lon": -77.11783566666666, "is_disabled": 0, "fusion_lon": 0.0, "is_reserved": 0, "name": "cf9fad95bf626fa6988afec8d9d60a3d", "type": "electric_bike", "bike_id": "cf9fad95bf626fa6988afec8d9d60a3d", "rental_uris": {"ios": "https://dc.lft.to/lastmile_qr_scan", "android": "https://dc.lft.to/lastmile_qr_scan"}, "fusion_lat": 0.0}, {"lat": 38.87375383333333, "lon": -77.00126833333333, "is_disabled": 0, "fusion_lon": 0.0, "is_reserved": 0, "name": "81927a36676a2f924661f7c8b47ae676", "type": "electric_scooter", "bike_id": "81927a36676a2f924661f7c8b47ae676", "rental_uris": {"ios": "https://dc.lft.to/lastmile_qr_scan", "android": "https://dc.lft.to/lastmile_qr_scan"}, "fusion_lat": 0.0}, {"lat": 38.93057266666667, "lon": -77.02328433333334, "is_disabled": 0, "fusion_lon": 0.0, "is_reserved": 0, "name": "4f70319663f880f255e259a0df81d720", "type": "electric_scooter", "bike_id": "4f70319663f880f255e259a0df81d720", "rental_uris": {"ios": "https://dc.lft.to/lastmile_qr_scan", "android": "https://dc.lft.to/lastmile_qr_scan"}, "fusion_lat": 0.0}, {"lat": 38.95040133333333, "lon": -77.02720183333334, "is_disabled": 0, "fusion_lon": 0.0, "is_reserved": 0, "name": "cb08a727f719b0d4a157b5fb3b549319", "type": "electric_scooter", "bike_id": "cb08a727f719b0d4a157b5fb3b549319", "rental_uris": {"ios": "https://dc.lft.to/lastmile_qr_scan", "android": "https://dc.lft.to/lastmile_qr_scan"}, "fusion_lat": 0.0}, {"lat": 38.90761916666666, "lon": -77.0374185, "is_disabled": 0, "fusion_lon": 0.0, "is_reserved": 0, "name": "a4fd72e475d9ce34d5c37263d43b93ba", "type": "electric_scooter", "bike_id": "a4fd72e475d9ce34d5c37263d43b93ba", "rental_uris": {"ios": "https://dc.lft.to/lastmile_qr_scan", "android": "https://dc.lft.to/lastmile_qr_scan"}, "fusion_lat": 0.0}, {"lat": 38.9077385, "lon": -77.003938, "is_disabled": 0, "fusion_lon": 0.0, "is_reserved": 0, "name": "652bd146c0f8f6bd2d5a503f4ed08c8b", "type": "electric_scooter", "bike_id": "652bd146c0f8f6bd2d5a503f4ed08c8b", "rental_uris": {"ios": "https://dc.lft.to/lastmile_qr_scan", "android": "https://dc.lft.to/lastmile_qr_scan"}, "fusion_lat": 0.0}, {"lat": 38.96141566666667, "lon": -77.0278445, "is_disabled": 0, "fusion_lon": 0.0, "is_reserved": 0, "name": "e31df51554d9554bc81f9cb6e65e2f60", "type": "electric_scooter", "bike_id": "e31df51554d9554bc81f9cb6e65e2f60", "rental_uris": {"ios": "https://dc.lft.to/lastmile_qr_scan", "android": "https://dc.lft.to/lastmile_qr_scan"}, "fusion_lat": 0.0}, {"lat": 38.898812166666666, "lon": -77.03322816666666, "is_disabled": 0, "fusion_lon": 0.0, "is_reserved": 0, "name": "9285233d94379b40a16f08fd56695c4c", "type": "electric_scooter", "bike_id": "9285233d94379b40a16f08fd56695c4c", "rental_uris": {"ios": "https://dc.lft.to/lastmile_qr_scan", "android": "https://dc.lft.to/lastmile_qr_scan"}, "fusion_lat": 0.0}, {"lat": 38.932158, "lon": -77.0334475, "is_disabled": 0, "fusion_lon": 0.0, "is_reserved": 0, "name": "8853105372371c2f9750a82682cdb6d0", "type": "electric_scooter", "bike_id": "8853105372371c2f9750a82682cdb6d0", "rental_uris": {"ios": "https://dc.lft.to/lastmile_qr_scan", "android": "https://dc.lft.to/lastmile_qr_scan"}, "fusion_lat": 0.0}, {"lat": 38.928531666666665, "lon": -77.0330865, "is_disabled": 0, "fusion_lon": 0.0, "is_reserved": 0, "name": "e8f03ac5a007c8c250a35a73445bda45", "type": "electric_scooter", "bike_id": "e8f03ac5a007c8c250a35a73445bda45", "rental_uris": {"ios": "https://dc.lft.to/lastmile_qr_scan", "android": "https://dc.lft.to/lastmile_qr_scan"}, "fusion_lat": 0.0}, {"lat": 38.904808833333334, "lon": -77.04189433333333, "is_disabled": 0, "fusion_lon": 0.0, "is_reserved": 0, "name": "a27315aa48addbb2a8b21496bfaddf00", "type": "electric_bike", "bike_id": "a27315aa48addbb2a8b21496bfaddf00", "rental_uris": {"ios": "https://dc.lft.to/lastmile_qr_scan", "android": "https://dc.lft.to/lastmile_qr_scan"}, "fusion_lat": 0.0}, {"lat": 38.92224183333333, "lon": -77.0182065, "is_disabled": 0, "fusion_lon": 0.0, "is_reserved": 0, "name": "168dc91159114bdcb6f88a7cc3534305", "type": "electric_scooter", "bike_id": "168dc91159114bdcb6f88a7cc3534305", "rental_uris": {"ios": "https://dc.lft.to/lastmile_qr_scan", "android": "https://dc.lft.to/lastmile_qr_scan"}, "fusion_lat": 0.0}, {"lat": 38.897724333333336, "lon": -77.02730466666667, "is_disabled": 0, "fusion_lon": 0.0, "is_reserved": 0, "name": "cd8b62ce5e2cf6da950c1702406b3117", "type": "electric_scooter", "bike_id": "cd8b62ce5e2cf6da950c1702406b3117", "rental_uris": {"ios": "https://dc.lft.to/lastmile_qr_scan", "android": "https://dc.lft.to/lastmile_qr_scan"}, "fusion_lat": 0.0}, {"lat": 38.9158775, "lon": -77.046563, "is_disabled": 0, "fusion_lon": 0.0, "is_reserved": 0, "name": "9423c2e87bbea00319bb1a347c2df195", "type": "electric_scooter", "bike_id": "9423c2e87bbea00319bb1a347c2df195", "rental_uris": {"ios": "https://dc.lft.to/lastmile_qr_scan", "android": "https://dc.lft.to/lastmile_qr_scan"}, "fusion_lat": 0.0}, {"lat": 38.917818, "lon": -77.02302483333334, "is_disabled": 0, "fusion_lon": 0.0, "is_reserved": 0, "name": "855d1691e3e72f10cbcf4c73c2353871", "type": "electric_scooter", "bike_id": "855d1691e3e72f10cbcf4c73c2353871", "rental_uris": {"ios": "https://dc.lft.to/lastmile_qr_scan", "android": "https://dc.lft.to/lastmile_qr_scan"}, "fusion_lat": 0.0}, {"lat": 38.90612266666667, "lon": -77.03967533333334, "is_disabled": 0, "fusion_lon": 0.0, "is_reserved": 0, "name": "708fd7cac43bbc6d86afc92d67ebd99a", "type": "electric_scooter", "bike_id": "708fd7cac43bbc6d86afc92d67ebd99a", "rental_uris": {"ios": "https://dc.lft.to/lastmile_qr_scan", "android": "https://dc.lft.to/lastmile_qr_scan"}, "fusion_lat": 0.0}, {"lat": 38.8955165, "lon": -77.0112495, "is_disabled": 0, "fusion_lon": 0.0, "is_reserved": 0, "name": "08aba9d7efd4da0b276b1ec841575b3e", "type": "electric_scooter", "bike_id": "08aba9d7efd4da0b276b1ec841575b3e", "rental_uris": {"ios": "https://dc.lft.to/lastmile_qr_scan", "android": "https://dc.lft.to/lastmile_qr_scan"}, "fusion_lat": 0.0}, {"lat": 38.88769083333333, "lon": -77.00036016666667, "is_disabled": 0, "fusion_lon": 0.0, "is_reserved": 0, "name": "c9958acb062c01b04ab19e85d65852a6", "type": "electric_scooter", "bike_id": "c9958acb062c01b04ab19e85d65852a6", "rental_uris": {"ios": "https://dc.lft.to/lastmile_qr_scan", "android": "https://dc.lft.to/lastmile_qr_scan"}, "fusion_lat": 0.0}, {"lat": 38.9009535, "lon": -77.025619, "is_disabled": 0, "fusion_lon": 0.0, "is_reserved": 0, "name": "c7748de83b9465b387143381fb6c5d7f", "type": "electric_scooter", "bike_id": "c7748de83b9465b387143381fb6c5d7f", "rental_uris": {"ios": "https://dc.lft.to/lastmile_qr_scan", "android": "https://dc.lft.to/lastmile_qr_scan"}, "fusion_lat": 0.0}, {"lat": 38.931186333333336, "lon": -77.0210035, "is_disabled": 0, "fusion_lon": 0.0, "is_reserved": 0, "name": "f805e37342785d1d425cafea1569332d", "type": "electric_scooter", "bike_id": "f805e37342785d1d425cafea1569332d", "rental_uris": {"ios": "https://dc.lft.to/lastmile_qr_scan", "android": "https://dc.lft.to/lastmile_qr_scan"}, "fusion_lat": 0.0}, {"lat": 38.903117333333334, "lon": -76.977991, "is_disabled": 0, "fusion_lon": 0.0, "is_reserved": 0, "name": "5b3990def5e55f0085440acb22747d2e", "type": "electric_scooter", "bike_id": "5b3990def5e55f0085440acb22747d2e", "rental_uris": {"ios": "https://dc.lft.to/lastmile_qr_scan", "android": "https://dc.lft.to/lastmile_qr_scan"}, "fusion_lat": 0.0}, {"lat": 38.88716266666667, "lon": -77.02582716666667, "is_disabled": 0, "fusion_lon": 0.0, "is_reserved": 0, "name": "882e80c1559a49c4bdded3707a1fa23a", "type": "electric_scooter", "bike_id": "882e80c1559a49c4bdded3707a1fa23a", "rental_uris": {"ios": "https://dc.lft.to/lastmile_qr_scan", "android": "https://dc.lft.to/lastmile_qr_scan"}, "fusion_lat": 0.0}, {"lat": 38.906951666666664, "lon": -77.06317683333333, "is_disabled": 0, "fusion_lon": 0.0, "is_reserved": 0, "name": "af0fdb274bf92a04ab3a348572cec975", "type": "electric_scooter", "bike_id": "af0fdb274bf92a04ab3a348572cec975", "rental_uris": {"ios": "https://dc.lft.to/lastmile_qr_scan", "android": "https://dc.lft.to/lastmile_qr_scan"}, "fusion_lat": 0.0}, {"lat": 38.92222866666667, "lon": -77.02884983333334, "is_disabled": 0, "fusion_lon": 0.0, "is_reserved": 0, "name": "efe894db25c1f894bd45a40d37b9a946", "type": "electric_scooter", "bike_id": "efe894db25c1f894bd45a40d37b9a946", "rental_uris": {"ios": "https://dc.lft.to/lastmile_qr_scan", "android": "https://dc.lft.to/lastmile_qr_scan"}, "fusion_lat": 0.0}, {"lat": 38.8982755, "lon": -77.0491245, "is_disabled": 0, "fusion_lon": 0.0, "is_reserved": 0, "name": "f3cb555d48e87d9d10684d7a8daa7867", "type": "electric_scooter", "bike_id": "f3cb555d48e87d9d10684d7a8daa7867", "rental_uris": {"ios": "https://dc.lft.to/lastmile_qr_scan", "android": "https://dc.lft.to/lastmile_qr_scan"}, "fusion_lat": 0.0}, {"lat": 38.927560166666666, "lon": -77.03279666666667, "is_disabled": 0, "fusion_lon": 0.0, "is_reserved": 0, "name": "e8c3bbedb094e4d21bb71033c72f107f", "type": "electric_scooter", "bike_id": "e8c3bbedb094e4d21bb71033c72f107f", "rental_uris": {"ios": "https://dc.lft.to/lastmile_qr_scan", "android": "https://dc.lft.to/lastmile_qr_scan"}, "fusion_lat": 0.0}, {"lat": 38.903544333333336, "lon": -77.0294655, "is_disabled": 0, "fusion_lon": 0.0, "is_reserved": 0, "name": "4d7baae16ed03e5e51c4f14c6d140005", "type": "electric_scooter", "bike_id": "4d7baae16ed03e5e51c4f14c6d140005", "rental_uris": {"ios": "https://dc.lft.to/lastmile_qr_scan", "android": "https://dc.lft.to/lastmile_qr_scan"}, "fusion_lat": 0.0}, {"lat": 38.8965625, "lon": -77.05029633333334, "is_disabled": 0, "fusion_lon": 0.0, "is_reserved": 0, "name": "bc52872b8737bcbd2d6346e79d3a79f8", "type": "electric_scooter", "bike_id": "bc52872b8737bcbd2d6346e79d3a79f8", "rental_uris": {"ios": "https://dc.lft.to/lastmile_qr_scan", "android": "https://dc.lft.to/lastmile_qr_scan"}, "fusion_lat": 0.0}, {"lat": 38.92121566666667, "lon": -77.23684216666666, "is_disabled": 0, "fusion_lon": 0.0, "is_reserved": 0, "name": "1a2978f04a8ed092453057e66a4dc371", "type": "electric_bike", "bike_id": "1a2978f04a8ed092453057e66a4dc371", "rental_uris": {"ios": "https://dc.lft.to/lastmile_qr_scan", "android": "https://dc.lft.to/lastmile_qr_scan"}, "fusion_lat": 0.0}, {"lat": 38.87670033333333, "lon": -77.00301666666667, "is_disabled": 0, "fusion_lon": 0.0, "is_reserved": 0, "name": "8c490497c465e025eafc9a3818159a5c", "type": "electric_scooter", "bike_id": "8c490497c465e025eafc9a3818159a5c", "rental_uris": {"ios": "https://dc.lft.to/lastmile_qr_scan", "android": "https://dc.lft.to/lastmile_qr_scan"}, "fusion_lat": 0.0}, {"lat": 38.93966983333333, "lon": -77.03696566666666, "is_disabled": 0, "fusion_lon": 0.0, "is_reserved": 0, "name": "559f6c7aef6fbf3f9f91ed045d31f41b", "type": "electric_scooter", "bike_id": "559f6c7aef6fbf3f9f91ed045d31f41b", "rental_uris": {"ios": "https://dc.lft.to/lastmile_qr_scan", "android": "https://dc.lft.to/lastmile_qr_scan"}, "fusion_lat": 0.0}, {"lat": 38.92082883333333, "lon": -77.02298783333333, "is_disabled": 0, "fusion_lon": 0.0, "is_reserved": 0, "name": "0539623a3da532af5a0b873a6850e170", "type": "electric_scooter", "bike_id": "0539623a3da532af5a0b873a6850e170", "rental_uris": {"ios": "https://dc.lft.to/lastmile_qr_scan", "android": "https://dc.lft.to/lastmile_qr_scan"}, "fusion_lat": 0.0}, {"lat": 38.9126695, "lon": -77.04472333333334, "is_disabled": 0, "fusion_lon": 0.0, "is_reserved": 0, "name": "9e9ca05a1c141340499bb64192431396", "type": "electric_scooter", "bike_id": "9e9ca05a1c141340499bb64192431396", "rental_uris": {"ios": "https://dc.lft.to/lastmile_qr_scan", "android": "https://dc.lft.to/lastmile_qr_scan"}, "fusion_lat": 0.0}, {"lat": 38.89225966666667, "lon": -77.04893966666667, "is_disabled": 0, "fusion_lon": 0.0, "is_reserved": 0, "name": "bb1486e7696f252e89ae0fa1101c71f3", "type": "electric_scooter", "bike_id": "bb1486e7696f252e89ae0fa1101c71f3", "rental_uris": {"ios": "https://dc.lft.to/lastmile_qr_scan", "android": "https://dc.lft.to/lastmile_qr_scan"}, "fusion_lat": 0.0}, {"lat": 38.92482616666667, "lon": -77.02269183333334, "is_disabled": 0, "fusion_lon": 0.0, "is_reserved": 0, "name": "186c58440dcb37f0c3efb38b9e215e87", "type": "electric_scooter", "bike_id": "186c58440dcb37f0c3efb38b9e215e87", "rental_uris": {"ios": "https://dc.lft.to/lastmile_qr_scan", "android": "https://dc.lft.to/lastmile_qr_scan"}, "fusion_lat": 0.0}, {"lat": 38.920152, "lon": -77.02183283333333, "is_disabled": 0, "fusion_lon": 0.0, "is_reserved": 0, "name": "72a904efd5f5346f084190b39d90f693", "type": "electric_scooter", "bike_id": "72a904efd5f5346f084190b39d90f693", "rental_uris": {"ios": "https://dc.lft.to/lastmile_qr_scan", "android": "https://dc.lft.to/lastmile_qr_scan"}, "fusion_lat": 0.0}, {"lat": 38.93840383333333, "lon": -77.0338605, "is_disabled": 0, "fusion_lon": 0.0, "is_reserved": 0, "name": "f591ab15db56ec18e29d6516ed56cd84", "type": "electric_scooter", "bike_id": "f591ab15db56ec18e29d6516ed56cd84", "rental_uris": {"ios": "https://dc.lft.to/lastmile_qr_scan", "android": "https://dc.lft.to/lastmile_qr_scan"}, "fusion_lat": 0.0}, {"lat": 38.90134916666667, "lon": -77.025669, "is_disabled": 0, "fusion_lon": 0.0, "is_reserved": 0, "name": "0c30c88521c09e96c04cfeaced85d9c8", "type": "electric_scooter", "bike_id": "0c30c88521c09e96c04cfeaced85d9c8", "rental_uris": {"ios": "https://dc.lft.to/lastmile_qr_scan", "android": "https://dc.lft.to/lastmile_qr_scan"}, "fusion_lat": 0.0}, {"lat": 38.9179755, "lon": -77.040154, "is_disabled": 0, "fusion_lon": 0.0, "is_reserved": 0, "name": "6328799545d8c1e6eac45b407870ec69", "type": "electric_scooter", "bike_id": "6328799545d8c1e6eac45b407870ec69", "rental_uris": {"ios": "https://dc.lft.to/lastmile_qr_scan", "android": "https://dc.lft.to/lastmile_qr_scan"}, "fusion_lat": 0.0}, {"lat": 38.883364, "lon": -76.93500216666666, "is_disabled": 0, "fusion_lon": 0.0, "is_reserved": 0, "name": "ce435ea36251a14404b855ba2eecc963", "type": "electric_scooter", "bike_id": "ce435ea36251a14404b855ba2eecc963", "rental_uris": {"ios": "https://dc.lft.to/lastmile_qr_scan", "android": "https://dc.lft.to/lastmile_qr_scan"}, "fusion_lat": 0.0}, {"lat": 38.906779, "lon": -77.0376755, "is_disabled": 0, "fusion_lon": 0.0, "is_reserved": 0, "name": "348d0ab892356d60018bd3b38e2cabc7", "type": "electric_scooter", "bike_id": "348d0ab892356d60018bd3b38e2cabc7", "rental_uris": {"ios": "https://dc.lft.to/lastmile_qr_scan", "android": "https://dc.lft.to/lastmile_qr_scan"}, "fusion_lat": 0.0}, {"lat": 38.8991585, "lon": -77.03382533333334, "is_disabled": 0, "fusion_lon": 0.0, "is_reserved": 0, "name": "14f83bc215d9563147063bac77b5af32", "type": "electric_scooter", "bike_id": "14f83bc215d9563147063bac77b5af32", "rental_uris": {"ios": "https://dc.lft.to/lastmile_qr_scan", "android": "https://dc.lft.to/lastmile_qr_scan"}, "fusion_lat": 0.0}, {"lat": 38.905992166666664, "lon": -77.03989483333334, "is_disabled": 0, "fusion_lon": 0.0, "is_reserved": 0, "name": "f8678efea958ba3e550770660985c9ca", "type": "electric_scooter", "bike_id": "f8678efea958ba3e550770660985c9ca", "rental_uris": {"ios": "https://dc.lft.to/lastmile_qr_scan", "android": "https://dc.lft.to/lastmile_qr_scan"}, "fusion_lat": 0.0}, {"lat": 38.90408566666667, "lon": -76.97332316666666, "is_disabled": 0, "fusion_lon": 0.0, "is_reserved": 0, "name": "27ecfb9bc21a3917bcddac1ca4b78a9a", "type": "electric_scooter", "bike_id": "27ecfb9bc21a3917bcddac1ca4b78a9a", "rental_uris": {"ios": "https://dc.lft.to/lastmile_qr_scan", "android": "https://dc.lft.to/lastmile_qr_scan"}, "fusion_lat": 0.0}, {"lat": 38.897478666666665, "lon": -77.03338133333334, "is_disabled": 0, "fusion_lon": 0.0, "is_reserved": 0, "name": "e02f4a92768060e0862ea9fb3b7a43c0", "type": "electric_scooter", "bike_id": "e02f4a92768060e0862ea9fb3b7a43c0", "rental_uris": {"ios": "https://dc.lft.to/lastmile_qr_scan", "android": "https://dc.lft.to/lastmile_qr_scan"}, "fusion_lat": 0.0}, {"lat": 38.9215115, "lon": -77.02515666666666, "is_disabled": 0, "fusion_lon": 0.0, "is_reserved": 0, "name": "0b0c1d6a8a9218a258e6c6122d14dcac", "type": "electric_scooter", "bike_id": "0b0c1d6a8a9218a258e6c6122d14dcac", "rental_uris": {"ios": "https://dc.lft.to/lastmile_qr_scan", "android": "https://dc.lft.to/lastmile_qr_scan"}, "fusion_lat": 0.0}, {"lat": 38.90939316666667, "lon": -77.03052766666667, "is_disabled": 0, "fusion_lon": 0.0, "is_reserved": 0, "name": "1911939c81df6d04eca61e5904ec72da", "type": "electric_scooter", "bike_id": "1911939c81df6d04eca61e5904ec72da", "rental_uris": {"ios": "https://dc.lft.to/lastmile_qr_scan", "android": "https://dc.lft.to/lastmile_qr_scan"}, "fusion_lat": 0.0}, {"lat": 38.92335933333333, "lon": -77.056825, "is_disabled": 0, "fusion_lon": 0.0, "is_reserved": 0, "name": "c01396d0459d8c034ce1bf45b7259b0a", "type": "electric_scooter", "bike_id": "c01396d0459d8c034ce1bf45b7259b0a", "rental_uris": {"ios": "https://dc.lft.to/lastmile_qr_scan", "android": "https://dc.lft.to/lastmile_qr_scan"}, "fusion_lat": 0.0}, {"lat": 38.932862166666666, "lon": -77.02826466666667, "is_disabled": 0, "fusion_lon": 0.0, "is_reserved": 0, "name": "17ebadc393dd748dc68a4df31a92e042", "type": "electric_scooter", "bike_id": "17ebadc393dd748dc68a4df31a92e042", "rental_uris": {"ios": "https://dc.lft.to/lastmile_qr_scan", "android": "https://dc.lft.to/lastmile_qr_scan"}, "fusion_lat": 0.0}, {"lat": 38.92455433333333, "lon": -77.02244666666667, "is_disabled": 0, "fusion_lon": 0.0, "is_reserved": 0, "name": "6fcc35752725b300d4b12dd9ea5f5b0f", "type": "electric_scooter", "bike_id": "6fcc35752725b300d4b12dd9ea5f5b0f", "rental_uris": {"ios": "https://dc.lft.to/lastmile_qr_scan", "android": "https://dc.lft.to/lastmile_qr_scan"}, "fusion_lat": 0.0}, {"lat": 38.922917, "lon": -77.0319765, "is_disabled": 0, "fusion_lon": 0.0, "is_reserved": 0, "name": "505e0fa16c45fc207c12f345732cd82c", "type": "electric_scooter", "bike_id": "505e0fa16c45fc207c12f345732cd82c", "rental_uris": {"ios": "https://dc.lft.to/lastmile_qr_scan", "android": "https://dc.lft.to/lastmile_qr_scan"}, "fusion_lat": 0.0}, {"lat": 38.92961416666667, "lon": -77.01146433333334, "is_disabled": 0, "fusion_lon": 0.0, "is_reserved": 0, "name": "e8aeb847dff4bfcc99521138f4ad2019", "type": "electric_scooter", "bike_id": "e8aeb847dff4bfcc99521138f4ad2019", "rental_uris": {"ios": "https://dc.lft.to/lastmile_qr_scan", "android": "https://dc.lft.to/lastmile_qr_scan"}, "fusion_lat": 0.0}, {"lat": 38.9559305, "lon": -77.01018616666667, "is_disabled": 0, "fusion_lon": 0.0, "is_reserved": 0, "name": "60c1cc5ac563fcc729d00d08206014f2", "type": "electric_bike", "bike_id": "60c1cc5ac563fcc729d00d08206014f2", "rental_uris": {"ios": "https://dc.lft.to/lastmile_qr_scan", "android": "https://dc.lft.to/lastmile_qr_scan"}, "fusion_lat": 0.0}, {"lat": 38.88819383333333, "lon": -76.97719266666667, "is_disabled": 0, "fusion_lon": 0.0, "is_reserved": 0, "name": "8710acda32e3a931037d398df830c032", "type": "electric_scooter", "bike_id": "8710acda32e3a931037d398df830c032", "rental_uris": {"ios": "https://dc.lft.to/lastmile_qr_scan", "android": "https://dc.lft.to/lastmile_qr_scan"}, "fusion_lat": 0.0}, {"lat": 38.918221, "lon": -77.02421016666666, "is_disabled": 0, "fusion_lon": 0.0, "is_reserved": 0, "name": "78d0d048c62e666944d312d8db1a244f", "type": "electric_scooter", "bike_id": "78d0d048c62e666944d312d8db1a244f", "rental_uris": {"ios": "https://dc.lft.to/lastmile_qr_scan", "android": "https://dc.lft.to/lastmile_qr_scan"}, "fusion_lat": 0.0}, {"lat": 38.89198116666667, "lon": -77.00295916666667, "is_disabled": 0, "fusion_lon": 0.0, "is_reserved": 0, "name": "9fd420923571f795ac21e4776975ebfc", "type": "electric_scooter", "bike_id": "9fd420923571f795ac21e4776975ebfc", "rental_uris": {"ios": "https://dc.lft.to/lastmile_qr_scan", "android": "https://dc.lft.to/lastmile_qr_scan"}, "fusion_lat": 0.0}, {"lat": 38.8944005, "lon": -76.97818633333333, "is_disabled": 0, "fusion_lon": 0.0, "is_reserved": 0, "name": "38e00a947c85dfec917ab4c9dfd7dd65", "type": "electric_scooter", "bike_id": "38e00a947c85dfec917ab4c9dfd7dd65", "rental_uris": {"ios": "https://dc.lft.to/lastmile_qr_scan", "android": "https://dc.lft.to/lastmile_qr_scan"}, "fusion_lat": 0.0}, {"lat": 38.90946733333333, "lon": -77.0448155, "is_disabled": 0, "fusion_lon": 0.0, "is_reserved": 0, "name": "b4bc08a322b2e30cdb28ab465d061a8a", "type": "electric_scooter", "bike_id": "b4bc08a322b2e30cdb28ab465d061a8a", "rental_uris": {"ios": "https://dc.lft.to/lastmile_qr_scan", "android": "https://dc.lft.to/lastmile_qr_scan"}, "fusion_lat": 0.0}, {"lat": 38.919891666666665, "lon": -77.02399183333333, "is_disabled": 0, "fusion_lon": 0.0, "is_reserved": 0, "name": "4cefa44f3013aa281f02e128b9ff53dc", "type": "electric_scooter", "bike_id": "4cefa44f3013aa281f02e128b9ff53dc", "rental_uris": {"ios": "https://dc.lft.to/lastmile_qr_scan", "android": "https://dc.lft.to/lastmile_qr_scan"}, "fusion_lat": 0.0}, {"lat": 38.930439666666665, "lon": -77.0556315, "is_disabled": 0, "fusion_lon": 0.0, "is_reserved": 0, "name": "d38ad86f4aae4ebfa3a4021541d519e9", "type": "electric_scooter", "bike_id": "d38ad86f4aae4ebfa3a4021541d519e9", "rental_uris": {"ios": "https://dc.lft.to/lastmile_qr_scan", "android": "https://dc.lft.to/lastmile_qr_scan"}, "fusion_lat": 0.0}, {"lat": 38.895439333333336, "lon": -76.9833645, "is_disabled": 0, "fusion_lon": 0.0, "is_reserved": 0, "name": "6d71175d98d247aaa2c6218a155a6137", "type": "electric_scooter", "bike_id": "6d71175d98d247aaa2c6218a155a6137", "rental_uris": {"ios": "https://dc.lft.to/lastmile_qr_scan", "android": "https://dc.lft.to/lastmile_qr_scan"}, "fusion_lat": 0.0}, {"lat": 38.915632, "lon": -77.02004433333333, "is_disabled": 0, "fusion_lon": 0.0, "is_reserved": 0, "name": "2561aa98882af00452ebe9d494b3914f", "type": "electric_scooter", "bike_id": "2561aa98882af00452ebe9d494b3914f", "rental_uris": {"ios": "https://dc.lft.to/lastmile_qr_scan", "android": "https://dc.lft.to/lastmile_qr_scan"}, "fusion_lat": 0.0}, {"lat": 38.91958283333334, "lon": -77.02383733333333, "is_disabled": 0, "fusion_lon": 0.0, "is_reserved": 0, "name": "e075f22476ffb2aeaa56eb9a63ff7b07", "type": "electric_scooter", "bike_id": "e075f22476ffb2aeaa56eb9a63ff7b07", "rental_uris": {"ios": "https://dc.lft.to/lastmile_qr_scan", "android": "https://dc.lft.to/lastmile_qr_scan"}, "fusion_lat": 0.0}, {"lat": 38.887659166666666, "lon": -77.00190016666667, "is_disabled": 0, "fusion_lon": 0.0, "is_reserved": 0, "name": "bb15bbab3098663d43e3eac42a95b0bb", "type": "electric_scooter", "bike_id": "bb15bbab3098663d43e3eac42a95b0bb", "rental_uris": {"ios": "https://dc.lft.to/lastmile_qr_scan", "android": "https://dc.lft.to/lastmile_qr_scan"}, "fusion_lat": 0.0}, {"lat": 38.916543833333336, "lon": -77.0224265, "is_disabled": 0, "fusion_lon": 0.0, "is_reserved": 0, "name": "c581360e1856d296dc071176328c0699", "type": "electric_scooter", "bike_id": "c581360e1856d296dc071176328c0699", "rental_uris": {"ios": "https://dc.lft.to/lastmile_qr_scan", "android": "https://dc.lft.to/lastmile_qr_scan"}, "fusion_lat": 0.0}, {"lat": 38.91936366666667, "lon": -77.03192983333334, "is_disabled": 0, "fusion_lon": 0.0, "is_reserved": 0, "name": "f0e4c29800472f1c6beedaa9600017d1", "type": "electric_scooter", "bike_id": "f0e4c29800472f1c6beedaa9600017d1", "rental_uris": {"ios": "https://dc.lft.to/lastmile_qr_scan", "android": "https://dc.lft.to/lastmile_qr_scan"}, "fusion_lat": 0.0}, {"lat": 38.898118333333336, "lon": -77.03155416666667, "is_disabled": 0, "fusion_lon": 0.0, "is_reserved": 0, "name": "54d541f2af0a6dce8307a77dabc26094", "type": "electric_scooter", "bike_id": "54d541f2af0a6dce8307a77dabc26094", "rental_uris": {"ios": "https://dc.lft.to/lastmile_qr_scan", "android": "https://dc.lft.to/lastmile_qr_scan"}, "fusion_lat": 0.0}, {"lat": 38.9230875, "lon": -77.03045833333333, "is_disabled": 0, "fusion_lon": 0.0, "is_reserved": 0, "name": "63aa459c145e0b7b59a246b94be4a249", "type": "electric_scooter", "bike_id": "63aa459c145e0b7b59a246b94be4a249", "rental_uris": {"ios": "https://dc.lft.to/lastmile_qr_scan", "android": "https://dc.lft.to/lastmile_qr_scan"}, "fusion_lat": 0.0}, {"lat": 38.92230516666667, "lon": -77.01818383333334, "is_disabled": 0, "fusion_lon": 0.0, "is_reserved": 0, "name": "e749cb0dea76bbbca7cb20a9893c6b1d", "type": "electric_scooter", "bike_id": "e749cb0dea76bbbca7cb20a9893c6b1d", "rental_uris": {"ios": "https://dc.lft.to/lastmile_qr_scan", "android": "https://dc.lft.to/lastmile_qr_scan"}, "fusion_lat": 0.0}, {"lat": 38.906451, "lon": -77.03857366666666, "is_disabled": 0, "fusion_lon": 0.0, "is_reserved": 0, "name": "9f74822a6e8ff1e7a319e9e5fd68c34d", "type": "electric_scooter", "bike_id": "9f74822a6e8ff1e7a319e9e5fd68c34d", "rental_uris": {"ios": "https://dc.lft.to/lastmile_qr_scan", "android": "https://dc.lft.to/lastmile_qr_scan"}, "fusion_lat": 0.0}, {"lat": 38.89693483333333, "lon": -77.04331616666667, "is_disabled": 0, "fusion_lon": 0.0, "is_reserved": 0, "name": "5362e18800f443029328ac8fec7d6de6", "type": "electric_scooter", "bike_id": "5362e18800f443029328ac8fec7d6de6", "rental_uris": {"ios": "https://dc.lft.to/lastmile_qr_scan", "android": "https://dc.lft.to/lastmile_qr_scan"}, "fusion_lat": 0.0}, {"lat": 38.9260115, "lon": -77.02157816666667, "is_disabled": 0, "fusion_lon": 0.0, "is_reserved": 0, "name": "99b17a11fd4143f6cfc1966898ea323b", "type": "electric_scooter", "bike_id": "99b17a11fd4143f6cfc1966898ea323b", "rental_uris": {"ios": "https://dc.lft.to/lastmile_qr_scan", "android": "https://dc.lft.to/lastmile_qr_scan"}, "fusion_lat": 0.0}, {"lat": 38.87558116666666, "lon": -77.00594783333334, "is_disabled": 0, "fusion_lon": 0.0, "is_reserved": 0, "name": "4e3fbe7217f003ebe2f43ab96857345f", "type": "electric_scooter", "bike_id": "4e3fbe7217f003ebe2f43ab96857345f", "rental_uris": {"ios": "https://dc.lft.to/lastmile_qr_scan", "android": "https://dc.lft.to/lastmile_qr_scan"}, "fusion_lat": 0.0}, {"lat": 38.8872745, "lon": -76.98357783333333, "is_disabled": 0, "fusion_lon": 0.0, "is_reserved": 0, "name": "02ce296b06427a203c507be2b3d3f50a", "type": "electric_scooter", "bike_id": "02ce296b06427a203c507be2b3d3f50a", "rental_uris": {"ios": "https://dc.lft.to/lastmile_qr_scan", "android": "https://dc.lft.to/lastmile_qr_scan"}, "fusion_lat": 0.0}, {"lat": 38.92343416666667, "lon": -77.051745, "is_disabled": 0, "fusion_lon": 0.0, "is_reserved": 0, "name": "f0c924b766710651676180645e90a30d", "type": "electric_scooter", "bike_id": "f0c924b766710651676180645e90a30d", "rental_uris": {"ios": "https://dc.lft.to/lastmile_qr_scan", "android": "https://dc.lft.to/lastmile_qr_scan"}, "fusion_lat": 0.0}, {"lat": 38.901275, "lon": -76.99733116666667, "is_disabled": 0, "fusion_lon": 0.0, "is_reserved": 0, "name": "0c86d7b673918f2fbd199785de17e421", "type": "electric_scooter", "bike_id": "0c86d7b673918f2fbd199785de17e421", "rental_uris": {"ios": "https://dc.lft.to/lastmile_qr_scan", "android": "https://dc.lft.to/lastmile_qr_scan"}, "fusion_lat": 0.0}, {"lat": 38.9223755, "lon": -77.0731065, "is_disabled": 0, "fusion_lon": 0.0, "is_reserved": 0, "name": "1bc41c800b39a730540e07787705992a", "type": "electric_scooter", "bike_id": "1bc41c800b39a730540e07787705992a", "rental_uris": {"ios": "https://dc.lft.to/lastmile_qr_scan", "android": "https://dc.lft.to/lastmile_qr_scan"}, "fusion_lat": 0.0}, {"lat": 38.902598, "lon": -77.027844, "is_disabled": 0, "fusion_lon": 0.0, "is_reserved": 0, "name": "f757161bcd6a68407b86a3b1e6cad268", "type": "electric_scooter", "bike_id": "f757161bcd6a68407b86a3b1e6cad268", "rental_uris": {"ios": "https://dc.lft.to/lastmile_qr_scan", "android": "https://dc.lft.to/lastmile_qr_scan"}, "fusion_lat": 0.0}, {"lat": 38.8841185, "lon": -76.94212033333334, "is_disabled": 0, "fusion_lon": 0.0, "is_reserved": 0, "name": "de7b2bf79b6eafa5415c18886658d5ae", "type": "electric_scooter", "bike_id": "de7b2bf79b6eafa5415c18886658d5ae", "rental_uris": {"ios": "https://dc.lft.to/lastmile_qr_scan", "android": "https://dc.lft.to/lastmile_qr_scan"}, "fusion_lat": 0.0}, {"lat": 38.9233035, "lon": -77.02287916666667, "is_disabled": 0, "fusion_lon": 0.0, "is_reserved": 0, "name": "6b07ff6543ac7a15900fb9995e35c880", "type": "electric_scooter", "bike_id": "6b07ff6543ac7a15900fb9995e35c880", "rental_uris": {"ios": "https://dc.lft.to/lastmile_qr_scan", "android": "https://dc.lft.to/lastmile_qr_scan"}, "fusion_lat": 0.0}, {"lat": 38.905353833333336, "lon": -77.05803716666667, "is_disabled": 0, "fusion_lon": 0.0, "is_reserved": 0, "name": "3158cef359abb9bbe9679355ce0661e0", "type": "electric_scooter", "bike_id": "3158cef359abb9bbe9679355ce0661e0", "rental_uris": {"ios": "https://dc.lft.to/lastmile_qr_scan", "android": "https://dc.lft.to/lastmile_qr_scan"}, "fusion_lat": 0.0}, {"lat": 38.86060066666667, "lon": -76.9671645, "is_disabled": 0, "fusion_lon": 0.0, "is_reserved": 0, "name": "10eaf3412c8c32456de5e33b2c3c9015", "type": "electric_scooter", "bike_id": "10eaf3412c8c32456de5e33b2c3c9015", "rental_uris": {"ios": "https://dc.lft.to/lastmile_qr_scan", "android": "https://dc.lft.to/lastmile_qr_scan"}, "fusion_lat": 0.0}, {"lat": 38.90980866666666, "lon": -77.02202216666667, "is_disabled": 0, "fusion_lon": 0.0, "is_reserved": 0, "name": "0c358adadfce6078a1e3e418f151aa27", "type": "electric_scooter", "bike_id": "0c358adadfce6078a1e3e418f151aa27", "rental_uris": {"ios": "https://dc.lft.to/lastmile_qr_scan", "android": "https://dc.lft.to/lastmile_qr_scan"}, "fusion_lat": 0.0}, {"lat": 39.03428183333333, "lon": -77.0430595, "is_disabled": 0, "fusion_lon": 0.0, "is_reserved": 0, "name": "482d7eb501ae5f0e25fd1733901bf8b0", "type": "electric_bike", "bike_id": "482d7eb501ae5f0e25fd1733901bf8b0", "rental_uris": {"ios": "https://dc.lft.to/lastmile_qr_scan", "android": "https://dc.lft.to/lastmile_qr_scan"}, "fusion_lat": 0.0}, {"lat": 38.906707, "lon": -77.0502105, "is_disabled": 0, "fusion_lon": 0.0, "is_reserved": 0, "name": "cdcd0d042d9849f0d2cd5c42cbb1019a", "type": "electric_scooter", "bike_id": "cdcd0d042d9849f0d2cd5c42cbb1019a", "rental_uris": {"ios": "https://dc.lft.to/lastmile_qr_scan", "android": "https://dc.lft.to/lastmile_qr_scan"}, "fusion_lat": 0.0}, {"lat": 38.86888883333334, "lon": -76.98999633333334, "is_disabled": 0, "fusion_lon": 0.0, "is_reserved": 0, "name": "b32938c25e7b9e5157fd7fd725fef218", "type": "electric_scooter", "bike_id": "b32938c25e7b9e5157fd7fd725fef218", "rental_uris": {"ios": "https://dc.lft.to/lastmile_qr_scan", "android": "https://dc.lft.to/lastmile_qr_scan"}, "fusion_lat": 0.0}, {"lat": 38.923836333333334, "lon": -77.0274775, "is_disabled": 0, "fusion_lon": 0.0, "is_reserved": 0, "name": "e369795578da4a26f0ab96a4a4c77937", "type": "electric_scooter", "bike_id": "e369795578da4a26f0ab96a4a4c77937", "rental_uris": {"ios": "https://dc.lft.to/lastmile_qr_scan", "android": "https://dc.lft.to/lastmile_qr_scan"}, "fusion_lat": 0.0}, {"lat": 38.874789166666666, "lon": -77.006098, "is_disabled": 0, "fusion_lon": 0.0, "is_reserved": 0, "name": "6bf146a86c4c34b67f7540d6b5561ac2", "type": "electric_scooter", "bike_id": "6bf146a86c4c34b67f7540d6b5561ac2", "rental_uris": {"ios": "https://dc.lft.to/lastmile_qr_scan", "android": "https://dc.lft.to/lastmile_qr_scan"}, "fusion_lat": 0.0}, {"lat": 38.896610833333334, "lon": -77.0503235, "is_disabled": 0, "fusion_lon": 0.0, "is_reserved": 0, "name": "a7ef52177454eaf63a183332397737df", "type": "electric_scooter", "bike_id": "a7ef52177454eaf63a183332397737df", "rental_uris": {"ios": "https://dc.lft.to/lastmile_qr_scan", "android": "https://dc.lft.to/lastmile_qr_scan"}, "fusion_lat": 0.0}, {"lat": 38.921201, "lon": -77.03657366666667, "is_disabled": 0, "fusion_lon": 0.0, "is_reserved": 0, "name": "ad544d65d125d8dde8b88771231d1088", "type": "electric_scooter", "bike_id": "ad544d65d125d8dde8b88771231d1088", "rental_uris": {"ios": "https://dc.lft.to/lastmile_qr_scan", "android": "https://dc.lft.to/lastmile_qr_scan"}, "fusion_lat": 0.0},