{"data": {"bikes": [{"name": "c9582f457f68bb9e1dda91183fc6b71c", "lon": -77.023461, "lat": 38.93531816666667, "type": "electric_scooter", "is_disabled": 0, "rental_uris": {"android": "https://dc.lft.to/lastmile_qr_scan", "ios": "https://dc.lft.to/lastmile_qr_scan"}, "fusion_lon": 0.0, "bike_id": "c9582f457f68bb9e1dda91183fc6b71c", "fusion_lat": 0.0, "is_reserved": 0}, {"name": "12f8e1f1de193d2c5c3949644156ed31", "lon": -77.01993016666667, "lat": 38.9662115, "type": "electric_scooter", "is_disabled": 0, "rental_uris": {"android": "https://dc.lft.to/lastmile_qr_scan", "ios": "https://dc.lft.to/lastmile_qr_scan"}, "fusion_lon": 0.0, "bike_id": "12f8e1f1de193d2c5c3949644156ed31", "fusion_lat": 0.0, "is_reserved": 0}, {"name": "1b71ecfcc5551236fca7753cc822f9e2", "lon": -77.00554116666666, "lat": 38.87466783333333, "type": "electric_scooter", "is_disabled": 0, "rental_uris": {"android": "https://dc.lft.to/lastmile_qr_scan", "ios": "https://dc.lft.to/lastmile_qr_scan"}, "fusion_lon": 0.0, "bike_id": "1b71ecfcc5551236fca7753cc822f9e2", "fusion_lat": 0.0, "is_reserved": 0}, {"name": "8ae90669f625ad37ae3a0e5c77cb0b94", "lon": -77.04086833333334, "lat": 38.932747, "type": "electric_scooter", "is_disabled": 0, "rental_uris": {"android": "https://dc.lft.to/lastmile_qr_scan", "ios": "https://dc.lft.to/lastmile_qr_scan"}, "fusion_lon": 0.0, "bike_id": "8ae90669f625ad37ae3a0e5c77cb0b94", "fusion_lat": 0.0, "is_reserved": 0}, {"name": "e7275b3900814bff187e3b997e73792d", "lon": -77.00374866666667, "lat": 38.8972775, "type": "electric_scooter", "is_disabled": 0, "rental_uris": {"android": "https://dc.lft.to/lastmile_qr_scan", "ios": "https://dc.lft.to/lastmile_qr_scan"}, "fusion_lon": 0.0, "bike_id": "e7275b3900814bff187e3b997e73792d", "fusion_lat": 0.0, "is_reserved": 0}, {"name": "ad7e5d1c8b932f9cab97395915ea29dc", "lon": -76.99670716666667, "lat": 38.856485666666664, "type": "electric_scooter", "is_disabled": 0, "rental_uris": {"android": "https://dc.lft.to/lastmile_qr_scan", "ios": "https://dc.lft.to/lastmile_qr_scan"}, "fusion_lon": 0.0, "bike_id": "ad7e5d1c8b932f9cab97395915ea29dc", "fusion_lat": 0.0, "is_reserved": 0}, {"name": "c3072107bcc6472231c332898f8cd9be", "lon": -77.02077666666666, "lat": 38.89483466666667, "type": "electric_scooter", "is_disabled": 0, "rental_uris": {"android": "https://dc.lft.to/lastmile_qr_scan", "ios": "https://dc.lft.to/lastmile_qr_scan"}, "fusion_lon": 0.0, "bike_id": "c3072107bcc6472231c332898f8cd9be", "fusion_lat": 0.0, "is_reserved": 0}, {"name": "4a224735412f4c9d09d70cd68c951711", "lon": -77.03948516666667, "lat": 38.919641166666665, "type": "electric_scooter", "is_disabled": 0, "rental_uris": {"android": "https://dc.lft.to/lastmile_qr_scan", "ios": "https://dc.lft.to/lastmile_qr_scan"}, "fusion_lon": 0.0, "bike_id": "4a224735412f4c9d09d70cd68c951711", "fusion_lat": 0.0, "is_reserved": 0}, {"name": "1bcde2ad8be00c74c8b9d8eba2f18b4c", "lon": -77.039315, "lat": 38.916238166666666, "type": "electric_scooter", "is_disabled": 0, "rental_uris": {"android": "https://dc.lft.to/lastmile_qr_scan", "ios": "https://dc.lft.to/lastmile_qr_scan"}, "fusion_lon": 0.0, "bike_id": "1bcde2ad8be00c74c8b9d8eba2f18b4c", "fusion_lat": 0.0, "is_reserved": 0}, {"name": "222c2265827292e19120d3acc0a378d0", "lon": -76.93022683333334, "lat": 38.901635666666664, "type": "electric_scooter", "is_disabled": 0, "rental_uris": {"android": "https://dc.lft.to/lastmile_qr_scan", "ios": "https://dc.lft.to/lastmile_qr_scan"}, "fusion_lon": 0.0, "bike_id": "222c2265827292e19120d3acc0a378d0", "fusion_lat": 0.0, "is_reserved": 0}, {"name": "db8af44af7194c80fc50ece618afbf58", "lon": -76.99172433333334, "lat": 38.900114, "type": "electric_scooter", "is_disabled": 0, "rental_uris": {"android": "https://dc.lft.to/lastmile_qr_scan", "ios": "https://dc.lft.to/lastmile_qr_scan"}, "fusion_lon": 0.0, "bike_id": "db8af44af7194c80fc50ece618afbf58", "fusion_lat": 0.0, "is_reserved": 0}, {"name": "5c20718eeab2a7ee90dcbcb53d0dc747", "lon": -76.9204115, "lat": 38.89730133333333, "type": "electric_bike", "is_disabled": 0, "rental_uris": {"android": "https://dc.lft.to/lastmile_qr_scan", "ios": "https://dc.lft.to/lastmile_qr_scan"}, "fusion_lon": 0.0, "bike_id": "5c20718eeab2a7ee90dcbcb53d0dc747", "fusion_lat": 0.0, "is_reserved": 0}, {"name": "e84a7edf4d2ef29e6c239b597f15f9b3", "lon": -77.03206583333333, "lat": 38.90834533333334, "type": "electric_scooter", "is_disabled": 0, "rental_uris": {"android": "https://dc.lft.to/lastmile_qr_scan", "ios": "https://dc.lft.to/lastmile_qr_scan"}, "fusion_lon": 0.0, "bike_id": "e84a7edf4d2ef29e6c239b597f15f9b3", "fusion_lat": 0.0, "is_reserved": 0}, {"name": "f462d9cc9d135a1d83fc00af6c165570", "lon": -77.0033645, "lat": 38.895043666666666, "type": "electric_scooter", "is_disabled": 0, "rental_uris": {"android": "https://dc.lft.to/lastmile_qr_scan", "ios": "https://dc.lft.to/lastmile_qr_scan"}, "fusion_lon": 0.0, "bike_id": "f462d9cc9d135a1d83fc00af6c165570", "fusion_lat": 0.0, "is_reserved": 0}, {"name": "ade74341447dc450534eed8d9814cdec", "lon": -77.0219095, "lat": 38.90144183333334, "type": "electric_scooter", "is_disabled": 0, "rental_uris": {"android": "https://dc.lft.to/lastmile_qr_scan", "ios": "https://dc.lft.to/lastmile_qr_scan"}, "fusion_lon": 0.0, "bike_id": "ade74341447dc450534eed8d9814cdec", "fusion_lat": 0.0, "is_reserved": 0}, {"name": "1678d3a142879c697386430bad630bae", "lon": -77.03215183333333, "lat": 38.9168525, "type": "electric_scooter", "is_disabled": 0, "rental_uris": {"android": "https://dc.lft.to/lastmile_qr_scan", "ios": "https://dc.lft.to/lastmile_qr_scan"}, "fusion_lon": 0.0, "bike_id": "1678d3a142879c697386430bad630bae", "fusion_lat": 0.0, "is_reserved": 0}, {"name": "565c97396d7f19d6160bf08ae9609e68", "lon": -77.020332, "lat": 38.913025833333336, "type": "electric_scooter", "is_disabled": 0, "rental_uris": {"android": "https://dc.lft.to/lastmile_qr_scan", "ios": "https://dc.lft.to/lastmile_qr_scan"}, "fusion_lon": 0.0, "bike_id": "565c97396d7f19d6160bf08ae9609e68", "fusion_lat": 0.0, "is_reserved": 0}, {"name": "67ea61226e666f1c302dd5f971da28b8", "lon": -77.03783433333334, "lat": 38.9249935, "type": "electric_scooter", "is_disabled": 0, "rental_uris": {"android": "https://dc.lft.to/lastmile_qr_scan", "ios": "https://dc.lft.to/lastmile_qr_scan"}, "fusion_lon": 0.0, "bike_id": "67ea61226e666f1c302dd5f971da28b8", "fusion_lat": 0.0, "is_reserved": 0}, {"name": "61a11565a8cc0125b2b3cb6a5647f466", "lon": -77.03932216666666, "lat": 38.91256516666667, "type": "electric_scooter", "is_disabled": 0, "rental_uris": {"android": "https://dc.lft.to/lastmile_qr_scan", "ios": "https://dc.lft.to/lastmile_qr_scan"}, "fusion_lon": 0.0, "bike_id": "61a11565a8cc0125b2b3cb6a5647f466", "fusion_lat": 0.0, "is_reserved": 0}, {"name": "2cfcc1ce8c64ddb1b16c37a0bf8727ff", "lon": -77.02150316666666, "lat": 38.92464533333333, "type": "electric_scooter", "is_disabled": 0, "rental_uris": {"android": "https://dc.lft.to/lastmile_qr_scan", "ios": "https://dc.lft.to/lastmile_qr_scan"}, "fusion_lon": 0.0, "bike_id": "2cfcc1ce8c64ddb1b16c37a0bf8727ff", "fusion_lat": 0.0, "is_reserved": 0}, {"name": "668c4722956f2ed15a04a14ec771760c", "lon": -77.00001133333333, "lat": 38.833246833333334, "type": "electric_bike", "is_disabled": 0, "rental_uris": {"android": "https://dc.lft.to/lastmile_qr_scan", "ios": "https://dc.lft.to/lastmile_qr_scan"}, "fusion_lon": 0.0, "bike_id": "668c4722956f2ed15a04a14ec771760c", "fusion_lat": 0.0, "is_reserved": 0}, {"name": "49fe71a1657a3c69395e0eba19c512c4", "lon": -76.9496165, "lat": 38.89464783333333, "type": "electric_scooter", "is_disabled": 0, "rental_uris": {"android": "https://dc.lft.to/lastmile_qr_scan", "ios": "https://dc.lft.to/lastmile_qr_scan"}, "fusion_lon": 0.0, "bike_id": "49fe71a1657a3c69395e0eba19c512c4", "fusion_lat": 0.0, "is_reserved": 0}, {"name": "bec822ff7687e8fa76a75adcf3c02098", "lon": -77.1843645, "lat": 38.89062716666667, "type": "electric_bike", "is_disabled": 0, "rental_uris": {"android": "https://dc.lft.to/lastmile_qr_scan", "ios": "https://dc.lft.to/lastmile_qr_scan"}, "fusion_lon": 0.0, "bike_id": "bec822ff7687e8fa76a75adcf3c02098", "fusion_lat": 0.0, "is_reserved": 0}, {"name": "eb40ed426f0482067258b7417b4211c8", "lon": -77.03996466666666, "lat": 38.934241, "type": "electric_scooter", "is_disabled": 0, "rental_uris": {"android": "https://dc.lft.to/lastmile_qr_scan", "ios": "https://dc.lft.to/lastmile_qr_scan"}, "fusion_lon": 0.0, "bike_id": "eb40ed426f0482067258b7417b4211c8", "fusion_lat": 0.0, "is_reserved": 0}, {"name": "73a35716beb15ba83e7ed50931e95e59", "lon": -76.987113, "lat": 38.86629216666667, "type": "electric_scooter", "is_disabled": 0, "rental_uris": {"android": "https://dc.lft.to/lastmile_qr_scan", "ios": "https://dc.lft.to/lastmile_qr_scan"}, "fusion_lon": 0.0, "bike_id": "73a35716beb15ba83e7ed50931e95e59", "fusion_lat": 0.0, "is_reserved": 0}, {"name": "51e02c16e82c48084471e20f07b4d557", "lon": -76.9744955, "lat": 38.86412116666666, "type": "electric_scooter", "is_disabled": 0, "rental_uris": {"android": "https://dc.lft.to/lastmile_qr_scan", "ios": "https://dc.lft.to/lastmile_qr_scan"}, "fusion_lon": 0.0, "bike_id": "51e02c16e82c48084471e20f07b4d557", "fusion_lat": 0.0, "is_reserved": 0}, {"name": "055b50f55fe242cce4173a55f664e8f5", "lon": -77.060177, "lat": 38.90304416666667, "type": "electric_scooter", "is_disabled": 0, "rental_uris": {"android": "https://dc.lft.to/lastmile_qr_scan", "ios": "https://dc.lft.to/lastmile_qr_scan"}, "fusion_lon": 0.0, "bike_id": "055b50f55fe242cce4173a55f664e8f5", "fusion_lat": 0.0, "is_reserved": 0}, {"name": "88d7cd448d2e54d4c946597cebc1e226", "lon": -76.9981195, "lat": 38.81983533333333, "type": "electric_bike", "is_disabled": 0, "rental_uris": {"android": "https://dc.lft.to/lastmile_qr_scan", "ios": "https://dc.lft.to/lastmile_qr_scan"}, "fusion_lon": 0.0, "bike_id": "88d7cd448d2e54d4c946597cebc1e226", "fusion_lat": 0.0, "is_reserved": 0}, {"name": "9d46d227865b01b49e92c005ab11c804", "lon": -77.02327133333333, "lat": 38.87885416666667, "type": "electric_scooter", "is_disabled": 0, "rental_uris": {"android": "https://dc.lft.to/lastmile_qr_scan", "ios": "https://dc.lft.to/lastmile_qr_scan"}, "fusion_lon": 0.0, "bike_id": "9d46d227865b01b49e92c005ab11c804", "fusion_lat": 0.0, "is_reserved": 0}, {"name": "0ab84a2f67347974940f5b7f5671070d", "lon": -76.99245433333333, "lat": 38.79467316666667, "type": "electric_bike", "is_disabled": 0, "rental_uris": {"android": "https://dc.lft.to/lastmile_qr_scan", "ios": "https://dc.lft.to/lastmile_qr_scan"}, "fusion_lon": 0.0, "bike_id": "0ab84a2f67347974940f5b7f5671070d", "fusion_lat": 0.0, "is_reserved": 0}, {"name": "61b00e79ab88ffa8b991686e35a8caec", "lon": -77.022786, "lat": 38.91400083333333, "type": "electric_scooter", "is_disabled": 0, "rental_uris": {"android": "https://dc.lft.to/lastmile_qr_scan", "ios": "https://dc.lft.to/lastmile_qr_scan"}, "fusion_lon": 0.0, "bike_id": "61b00e79ab88ffa8b991686e35a8caec", "fusion_lat": 0.0, "is_reserved": 0}, {"name": "b99357b4247258de67931cc094898d3d", "lon": -77.07699083333333, "lat": 38.94380566666667, "type": "electric_scooter", "is_disabled": 0, "rental_uris": {"android": "https://dc.lft.to/lastmile_qr_scan", "ios": "https://dc.lft.to/lastmile_qr_scan"}, "fusion_lon": 0.0, "bike_id": "b99357b4247258de67931cc094898d3d", "fusion_lat": 0.0, "is_reserved": 0}, {"name": "6adbe850aacc9c7853093c3c8ab9a4f7", "lon": -77.03341866666666, "lat": 38.9350355, "type": "electric_scooter", "is_disabled": 0, "rental_uris": {"android": "https://dc.lft.to/lastmile_qr_scan", "ios": "https://dc.lft.to/lastmile_qr_scan"}, "fusion_lon": 0.0, "bike_id": "6adbe850aacc9c7853093c3c8ab9a4f7", "fusion_lat": 0.0, "is_reserved": 0}, {"name": "8693d6e63d2d48732d4c12f529726622", "lon": -77.08761016666666, "lat": 38.80652966666667, "type": "electric_bike", "is_disabled": 0, "rental_uris": {"android": "https://dc.lft.to/lastmile_qr_scan", "ios": "https://dc.lft.to/lastmile_qr_scan"}, "fusion_lon": 0.0, "bike_id": "8693d6e63d2d48732d4c12f529726622", "fusion_lat": 0.0, "is_reserved": 0}, {"name": "d0586b6cd9c1a760093a82fe444c4289", "lon": -77.031264, "lat": 38.917038166666664, "type": "electric_scooter", "is_disabled": 0, "rental_uris": {"android": "https://dc.lft.to/lastmile_qr_scan", "ios": "https://dc.lft.to/lastmile_qr_scan"}, "fusion_lon": 0.0, "bike_id": "d0586b6cd9c1a760093a82fe444c4289", "fusion_lat": 0.0, "is_reserved": 0}, {"name": "b1fc15a5d123f49e486ab716f74944a9", "lon": -77.05466333333334, "lat": 38.89666016666666, "type": "electric_scooter", "is_disabled": 0, "rental_uris": {"android": "https://dc.lft.to/lastmile_qr_scan", "ios": "https://dc.lft.to/lastmile_qr_scan"}, "fusion_lon": 0.0, "bike_id": "b1fc15a5d123f49e486ab716f74944a9", "fusion_lat": 0.0, "is_reserved": 0}, {"name": "3a229b2f5b86e63416d7bffc51fc513f", "lon": -76.9854395, "lat": 38.86686616666667, "type": "electric_scooter", "is_disabled": 0, "rental_uris": {"android": "https://dc.lft.to/lastmile_qr_scan", "ios": "https://dc.lft.to/lastmile_qr_scan"}, "fusion_lon": 0.0, "bike_id": "3a229b2f5b86e63416d7bffc51fc513f", "fusion_lat": 0.0, "is_reserved": 0}, {"name": "a6d6986da6f587903746ddf84a3564de", "lon": -77.01679366666667, "lat": 38.920412166666665, "type": "electric_scooter", "is_disabled": 0, "rental_uris": {"android": "https://dc.lft.to/lastmile_qr_scan", "ios": "https://dc.lft.to/lastmile_qr_scan"}, "fusion_lon": 0.0, "bike_id": "a6d6986da6f587903746ddf84a3564de", "fusion_lat": 0.0, "is_reserved": 0}, {"name": "d7c498080ab12c6e27a00fcbff1d4230", "lon": -77.0092875, "lat": 38.896015166666665, "type": "electric_scooter", "is_disabled": 0, "rental_uris": {"android": "https://dc.lft.to/lastmile_qr_scan", "ios": "https://dc.lft.to/lastmile_qr_scan"}, "fusion_lon": 0.0, "bike_id": "d7c498080ab12c6e27a00fcbff1d4230", "fusion_lat": 0.0, "is_reserved": 0}, {"name": "229c80a7b28c71641170b987700da0e3", "lon": -77.01427216666667, "lat": 38.97213516666667, "type": "electric_bike", "is_disabled": 0, "rental_uris": {"android": "https://dc.lft.to/lastmile_qr_scan", "ios": "https://dc.lft.to/lastmile_qr_scan"}, "fusion_lon": 0.0, "bike_id": "229c80a7b28c71641170b987700da0e3", "fusion_lat": 0.0, "is_reserved": 0}, {"name": "bc22555e53cfee1b7546081e21dba788", "lon": -77.02719316666666, "lat": 38.89699683333333, "type": "electric_scooter", "is_disabled": 0, "rental_uris": {"android": "https://dc.lft.to/lastmile_qr_scan", "ios": "https://dc.lft.to/lastmile_qr_scan"}, "fusion_lon": 0.0, "bike_id": "bc22555e53cfee1b7546081e21dba788", "fusion_lat": 0.0, "is_reserved": 0}, {"name": "85df9ad8617c153f918db700d248400c", "lon": -77.04228466666666, "lat": 38.902800166666665, "type": "electric_scooter", "is_disabled": 0, "rental_uris": {"android": "https://dc.lft.to/lastmile_qr_scan", "ios": "https://dc.lft.to/lastmile_qr_scan"}, "fusion_lon": 0.0, "bike_id": "85df9ad8617c153f918db700d248400c", "fusion_lat": 0.0, "is_reserved": 0}, {"name": "c31b9ef1650d963bc66f6e57f595da1c", "lon": -77.02381733333333, "lat": 38.892239000000004, "type": "electric_scooter", "is_disabled": 0, "rental_uris": {"android": "https://dc.lft.to/lastmile_qr_scan", "ios": "https://dc.lft.to/lastmile_qr_scan"}, "fusion_lon": 0.0, "bike_id": "c31b9ef1650d963bc66f6e57f595da1c", "fusion_lat": 0.0, "is_reserved": 0}, {"name": "71f90f2febcd25292a453440ffe0e222", "lon": -77.041965, "lat": 38.8922085, "type": "electric_scooter", "is_disabled": 0, "rental_uris": {"android": "https://dc.lft.to/lastmile_qr_scan", "ios": "https://dc.lft.to/lastmile_qr_scan"}, "fusion_lon": 0.0, "bike_id": "71f90f2febcd25292a453440ffe0e222", "fusion_lat": 0.0, "is_reserved": 0}, {"name": "28fb944b603c6412be085ea9adca9ae2", "lon": -77.029662, "lat": 38.90727966666667, "type": "electric_scooter", "is_disabled": 0, "rental_uris": {"android": "https://dc.lft.to/lastmile_qr_scan", "ios": "https://dc.lft.to/lastmile_qr_scan"}, "fusion_lon": 0.0, "bike_id": "28fb944b603c6412be085ea9adca9ae2", "fusion_lat": 0.0, "is_reserved": 0}, {"name": "c7aa9a61a76c974034866589c3184408", "lon": -76.98722933333333, "lat": 38.83542633333333, "type": "electric_bike", "is_disabled": 0, "rental_uris": {"android": "https://dc.lft.to/lastmile_qr_scan", "ios": "https://dc.lft.to/lastmile_qr_scan"}, "fusion_lon": 0.0, "bike_id": "c7aa9a61a76c974034866589c3184408", "fusion_lat": 0.0, "is_reserved": 0}, {"name": "c5ab4aa0645ad6c37d9d55cb18e0327f", "lon": -77.01143516666667, "lat": 38.929587, "type": "electric_scooter", "is_disabled": 0, "rental_uris": {"android": "https://dc.lft.to/lastmile_qr_scan", "ios": "https://dc.lft.to/lastmile_qr_scan"}, "fusion_lon": 0.0, "bike_id": "c5ab4aa0645ad6c37d9d55cb18e0327f", "fusion_lat": 0.0, "is_reserved": 0}, {"name": "54041d0823a5f56b0e5405998d2023ff", "lon": -77.02702683333334, "lat": 38.9497255, "type": "electric_scooter", "is_disabled": 0, "rental_uris": {"android": "https://dc.lft.to/lastmile_qr_scan", "ios": "https://dc.lft.to/lastmile_qr_scan"}, "fusion_lon": 0.0, "bike_id": "54041d0823a5f56b0e5405998d2023ff", "fusion_lat": 0.0, "is_reserved": 0}, {"name": "9d50763f288165a9ca5e62b6f8cd8bf2", "lon": -77.02195466666667, "lat": 38.901453833333335, "type": "electric_scooter", "is_disabled": 0, "rental_uris": {"android": "https://dc.lft.to/lastmile_qr_scan", "ios": "https://dc.lft.to/lastmile_qr_scan"}, "fusion_lon": 0.0, "bike_id": "9d50763f288165a9ca5e62b6f8cd8bf2", "fusion_lat": 0.0, "is_reserved": 0}, {"name": "4c9ba17a18bf341906894f76184dfdbc", "lon": -77.0386585, "lat": 38.9904995, "type": "electric_bike", "is_disabled": 0, "rental_uris": {"android": "https://dc.lft.to/lastmile_qr_scan", "ios": "https://dc.lft.to/lastmile_qr_scan"}, "fusion_lon": 0.0, "bike_id": "4c9ba17a18bf341906894f76184dfdbc", "fusion_lat": 0.0, "is_reserved": 0}, {"name": "459999c7b99d112d781b76e3cde58c77", "lon": -76.98792766666666, "lat": 38.84485, "type": "electric_scooter", "is_disabled": 0, "rental_uris": {"android": "https://dc.lft.to/lastmile_qr_scan", "ios": "https://dc.lft.to/lastmile_qr_scan"}, "fusion_lon": 0.0, "bike_id": "459999c7b99d112d781b76e3cde58c77", "fusion_lat": 0.0, "is_reserved": 0}, {"name": "2e2133570ae5ebf4d7b74f675ad62848", "lon": -77.0194735, "lat": 38.923226, "type": "electric_scooter", "is_disabled": 0, "rental_uris": {"android": "https://dc.lft.to/lastmile_qr_scan", "ios": "https://dc.lft.to/lastmile_qr_scan"}, "fusion_lon": 0.0, "bike_id": "2e2133570ae5ebf4d7b74f675ad62848", "fusion_lat": 0.0, "is_reserved": 0}, {"name": "426a78c8b39d45ab4c5ffeb1d48b79df", "lon": -77.03885316666667, "lat": 38.922543, "type": "electric_scooter", "is_disabled": 0, "rental_uris": {"android": "https://dc.lft.to/lastmile_qr_scan", "ios": "https://dc.lft.to/lastmile_qr_scan"}, "fusion_lon": 0.0, "bike_id": "426a78c8b39d45ab4c5ffeb1d48b79df", "fusion_lat": 0.0, "is_reserved": 0}, {"name": "f8658a4db2fcf3fcaa313d491d60427f", "lon": -76.99893566666667, "lat": 38.909433166666666, "type": "electric_bike", "is_disabled": 0, "rental_uris": {"android": "https://dc.lft.to/lastmile_qr_scan", "ios": "https://dc.lft.to/lastmile_qr_scan"}, "fusion_lon": 0.0, "bike_id": "f8658a4db2fcf3fcaa313d491d60427f", "fusion_lat": 0.0, "is_reserved": 0}, {"name": "309637e51910f9898c80039cbbc21fc3", "lon": -77.00393683333333, "lat": 38.905610333333335, "type": "electric_scooter", "is_disabled": 0, "rental_uris": {"android": "https://dc.lft.to/lastmile_qr_scan", "ios": "https://dc.lft.to/lastmile_qr_scan"}, "fusion_lon": 0.0, "bike_id": "309637e51910f9898c80039cbbc21fc3", "fusion_lat": 0.0, "is_reserved": 0}, {"name": "71ce768e1aeabfd121433774532478ed", "lon": -77.036559, "lat": 38.9099745, "type": "electric_scooter", "is_disabled": 0, "rental_uris": {"android": "https://dc.lft.to/lastmile_qr_scan", "ios": "https://dc.lft.to/lastmile_qr_scan"}, "fusion_lon": 0.0, "bike_id": "71ce768e1aeabfd121433774532478ed", "fusion_lat": 0.0, "is_reserved": 0}, {"name": "a62acf2874c7c0d253201f472f0c1fe8", "lon": -77.02137266666666, "lat": 38.9251285, "type": "electric_scooter", "is_disabled": 0, "rental_uris": {"android": "https://dc.lft.to/lastmile_qr_scan", "ios": "https://dc.lft.to/lastmile_qr_scan"}, "fusion_lon": 0.0, "bike_id": "a62acf2874c7c0d253201f472f0c1fe8", "fusion_lat": 0.0, "is_reserved": 0}, {"name": "b022a21504926ad813ffba287659b9b3", "lon": -77.0433745, "lat": 38.90403466666667, "type": "electric_scooter", "is_disabled": 0, "rental_uris": {"android": "https://dc.lft.to/lastmile_qr_scan", "ios": "https://dc.lft.to/lastmile_qr_scan"}, "fusion_lon": 0.0, "bike_id": "b022a21504926ad813ffba287659b9b3", "fusion_lat": 0.0, "is_reserved": 0}, {"name": "960fd74afcea9aed7916003f59ed7b54", "lon": -77.02393966666666, "lat": 38.91968633333333, "type": "electric_scooter", "is_disabled": 0, "rental_uris": {"android": "https://dc.lft.to/lastmile_qr_scan", "ios": "https://dc.lft.to/lastmile_qr_scan"}, "fusion_lon": 0.0, "bike_id": "960fd74afcea9aed7916003f59ed7b54", "fusion_lat": 0.0, "is_reserved": 0}, {"name": "dd1229883dd531aa7cbfd35a2beadb82", "lon": -77.03225933333333, "lat": 38.91035016666667, "type": "electric_scooter", "is_disabled": 0, "rental_uris": {"android": "https://dc.lft.to/lastmile_qr_scan", "ios": "https://dc.lft.to/lastmile_qr_scan"}, "fusion_lon": 0.0, "bike_id": "dd1229883dd531aa7cbfd35a2beadb82", "fusion_lat": 0.0, "is_reserved": 0}, {"name": "d688a0c2e3039d3a67cc56d3c3f05f6f", "lon": -77.02784333333334, "lat": 38.92952016666667, "type": "electric_scooter", "is_disabled": 0, "rental_uris": {"android": "https://dc.lft.to/lastmile_qr_scan", "ios": "https://dc.lft.to/lastmile_qr_scan"}, "fusion_lon": 0.0, "bike_id": "d688a0c2e3039d3a67cc56d3c3f05f6f", "fusion_lat": 0.0, "is_reserved": 0}, {"name": "76a1147e2128d6a8330dc748254bf35f", "lon": -76.970542, "lat": 38.98455966666667, "type": "electric_bike", "is_disabled": 0, "rental_uris": {"android": "https://dc.lft.to/lastmile_qr_scan", "ios": "https://dc.lft.to/lastmile_qr_scan"}, "fusion_lon": 0.0, "bike_id": "76a1147e2128d6a8330dc748254bf35f", "fusion_lat": 0.0, "is_reserved": 0}, {"name": "a0d7d2be7c904606edaa4812f5e0044c", "lon": -77.0559715, "lat": 38.93694816666667, "type": "electric_scooter", "is_disabled": 0, "rental_uris": {"android": "https://dc.lft.to/lastmile_qr_scan", "ios": "https://dc.lft.to/lastmile_qr_scan"}, "fusion_lon": 0.0, "bike_id": "a0d7d2be7c904606edaa4812f5e0044c", "fusion_lat": 0.0, "is_reserved": 0}, {"name": "17b14c7b9ea5b17c4fe7a2242cc8461f", "lon": -77.01754866666667, "lat": 38.876828, "type": "electric_scooter", "is_disabled": 0, "rental_uris": {"android": "https://dc.lft.to/lastmile_qr_scan", "ios": "https://dc.lft.to/lastmile_qr_scan"}, "fusion_lon": 0.0, "bike_id": "17b14c7b9ea5b17c4fe7a2242cc8461f", "fusion_lat": 0.0, "is_reserved": 0}, {"name": "514b0f608d57f804df72a8c1a5937a3a", "lon": -77.0240825, "lat": 38.9120895, "type": "electric_scooter", "is_disabled": 0, "rental_uris": {"android": "https://dc.lft.to/lastmile_qr_scan", "ios": "https://dc.lft.to/lastmile_qr_scan"}, "fusion_lon": 0.0, "bike_id": "514b0f608d57f804df72a8c1a5937a3a", "fusion_lat": 0.0, "is_reserved": 0}, {"name": "c82cf062a0a6e50ccb813af336c3afc9", "lon": -77.044974, "lat": 39.014143, "type": "electric_bike", "is_disabled": 0, "rental_uris": {"android": "https://dc.lft.to/lastmile_qr_scan", "ios": "https://dc.lft.to/lastmile_qr_scan"}, "fusion_lon": 0.0, "bike_id": "c82cf062a0a6e50ccb813af336c3afc9", "fusion_lat": 0.0, "is_reserved": 0}, {"name": "b8b2890b6b90ea395d371a5401093e53", "lon": -76.97237033333333, "lat": 38.9041975, "type": "electric_bike", "is_disabled": 0, "rental_uris": {"android": "https://dc.lft.to/lastmile_qr_scan", "ios": "https://dc.lft.to/lastmile_qr_scan"}, "fusion_lon": 0.0, "bike_id": "b8b2890b6b90ea395d371a5401093e53", "fusion_lat": 0.0, "is_reserved": 0}, {"name": "8c6ea1cddc5221475d93246e29991e06", "lon": -77.0224045, "lat": 38.98104816666667, "type": "electric_scooter", "is_disabled": 0, "rental_uris": {"android": "https://dc.lft.to/lastmile_qr_scan", "ios": "https://dc.lft.to/lastmile_qr_scan"}, "fusion_lon": 0.0, "bike_id": "8c6ea1cddc5221475d93246e29991e06", "fusion_lat": 0.0, "is_reserved": 0}, {"name": "bea164c97634f55df1f3577d44f0985d", "lon": -77.09960233333334, "lat": 38.8579015, "type": "electric_bike", "is_disabled": 0, "rental_uris": {"android": "https://dc.lft.to/lastmile_qr_scan", "ios": "https://dc.lft.to/lastmile_qr_scan"}, "fusion_lon": 0.0, "bike_id": "bea164c97634f55df1f3577d44f0985d", "fusion_lat": 0.0, "is_reserved": 0}, {"name": "d77d86199ad24774b85c3b87aab9ead3", "lon": -77.01304616666667, "lat": 38.9073155, "type": "electric_scooter", "is_disabled": 0, "rental_uris": {"android": "https://dc.lft.to/lastmile_qr_scan", "ios": "https://dc.lft.to/lastmile_qr_scan"}, "fusion_lon": 0.0, "bike_id": "d77d86199ad24774b85c3b87aab9ead3", "fusion_lat": 0.0, "is_reserved": 0}, {"name": "c027244313759d7dfb5e4ae9d337df8a", "lon": -77.02929216666666, "lat": 38.89820066666667, "type": "electric_scooter", "is_disabled": 0, "rental_uris": {"android": "https://dc.lft.to/lastmile_qr_scan", "ios": "https://dc.lft.to/lastmile_qr_scan"}, "fusion_lon": 0.0, "bike_id": "c027244313759d7dfb5e4ae9d337df8a", "fusion_lat": 0.0, "is_reserved": 0}, {"name": "49cd599737acf0a85d1e74e603396397", "lon": -76.98764366666667, "lat": 38.900241, "type": "electric_scooter", "is_disabled": 0, "rental_uris": {"android": "https://dc.lft.to/lastmile_qr_scan", "ios": "https://dc.lft.to/lastmile_qr_scan"}, "fusion_lon": 0.0, "bike_id": "49cd599737acf0a85d1e74e603396397", "fusion_lat": 0.0, "is_reserved": 0}, {"name": "a6b8c3ede90c72d19851a83f5e8e7235", "lon": -77.0211555, "lat": 38.91736316666667, "type": "electric_scooter", "is_disabled": 0, "rental_uris": {"android": "https://dc.lft.to/lastmile_qr_scan", "ios": "https://dc.lft.to/lastmile_qr_scan"}, "fusion_lon": 0.0, "bike_id": "a6b8c3ede90c72d19851a83f5e8e7235", "fusion_lat": 0.0, "is_reserved": 0}, {"name": "9e2775679daa26c8ccfccaad4a3de1de", "lon": -76.99651116666666, "lat": 38.816039, "type": "electric_bike", "is_disabled": 0, "rental_uris": {"android": "https://dc.lft.to/lastmile_qr_scan", "ios": "https://dc.lft.to/lastmile_qr_scan"}, "fusion_lon": 0.0, "bike_id": "9e2775679daa26c8ccfccaad4a3de1de", "fusion_lat": 0.0, "is_reserved": 0}, {"name": "4f28a75a5f17a27b5ee60273b5455724", "lon": -76.958367, "lat": 38.930439666666665, "type": "electric_bike", "is_disabled": 0, "rental_uris": {"android": "https://dc.lft.to/lastmile_qr_scan", "ios": "https://dc.lft.to/lastmile_qr_scan"}, "fusion_lon": 0.0, "bike_id": "4f28a75a5f17a27b5ee60273b5455724", "fusion_lat": 0.0, "is_reserved": 0}, {"name": "3ea57c49ee536f5e288a67c2e2c4dfcd", "lon": -76.96911016666667, "lat": 38.846088333333334, "type": "electric_bike", "is_disabled": 0, "rental_uris": {"android": "https://dc.lft.to/lastmile_qr_scan", "ios": "https://dc.lft.to/lastmile_qr_scan"}, "fusion_lon": 0.0, "bike_id": "3ea57c49ee536f5e288a67c2e2c4dfcd", "fusion_lat": 0.0, "is_reserved": 0}, {"name": "1a62929f30263b722073303225eb0716", "lon": -77.05750283333333, "lat": 38.92496166666667, "type": "electric_scooter", "is_disabled": 0, "rental_uris": {"android": "https://dc.lft.to/lastmile_qr_scan", "ios": "https://dc.lft.to/lastmile_qr_scan"}, "fusion_lon": 0.0, "bike_id": "1a62929f30263b722073303225eb0716", "fusion_lat": 0.0, "is_reserved": 0}, {"name": "495cdc4173253f8e2ce540b5796e1f17", "lon": -76.907338, "lat": 38.89612566666667, "type": "electric_bike", "is_disabled": 0, "rental_uris": {"android": "https://dc.lft.to/lastmile_qr_scan", "ios": "https://dc.lft.to/lastmile_qr_scan"}, "fusion_lon": 0.0, "bike_id": "495cdc4173253f8e2ce540b5796e1f17", "fusion_lat": 0.0, "is_reserved": 0}, {"name": "f16a8f8d07a127858f6bd06d84884c91", "lon": -76.9906975, "lat": 38.898272, "type": "electric_bike", "is_disabled": 0, "rental_uris": {"android": "https://dc.lft.to/lastmile_qr_scan", "ios": "https://dc.lft.to/lastmile_qr_scan"}, "fusion_lon": 0.0, "bike_id": "f16a8f8d07a127858f6bd06d84884c91", "fusion_lat": 0.0, "is_reserved": 0}, {"name": "1b5560c276cc4bee9c5404c5f6b20e25", "lon": -77.0334425, "lat": 38.89741733333334, "type": "electric_scooter", "is_disabled": 0, "rental_uris": {"android": "https://dc.lft.to/lastmile_qr_scan", "ios": "https://dc.lft.to/lastmile_qr_scan"}, "fusion_lon": 0.0, "bike_id": "1b5560c276cc4bee9c5404c5f6b20e25", "fusion_lat": 0.0, "is_reserved": 0}, {"name": "fcacd1f884167cd7ec029c08614d9fdd", "lon": -77.0376175, "lat": 38.91681666666667, "type": "electric_scooter", "is_disabled": 0, "rental_uris": {"android": "https://dc.lft.to/lastmile_qr_scan", "ios": "https://dc.lft.to/lastmile_qr_scan"}, "fusion_lon": 0.0, "bike_id": "fcacd1f884167cd7ec029c08614d9fdd", "fusion_lat": 0.0, "is_reserved": 0}, {"name": "71ca4ccacd7cb0f7599d8c33b16a287a", "lon": -77.02406983333333, "lat": 38.92081916666667, "type": "electric_scooter", "is_disabled": 0, "rental_uris": {"android": "https://dc.lft.to/lastmile_qr_scan", "ios": "https://dc.lft.to/lastmile_qr_scan"}, "fusion_lon": 0.0, "bike_id": "71ca4ccacd7cb0f7599d8c33b16a287a", "fusion_lat": 0.0, "is_reserved": 0}, {"name": "ca2ef9a70caa2e21a4e1e9ec6327e89b", "lon": -77.211249, "lat": 38.874892333333335, "type": "electric_bike", "is_disabled": 0, "rental_uris": {"android": "https://dc.lft.to/lastmile_qr_scan", "ios": "https://dc.lft.to/lastmile_qr_scan"}, "fusion_lon": 0.0, "bike_id": "ca2ef9a70caa2e21a4e1e9ec6327e89b", "fusion_lat": 0.0, "is_reserved": 0}, {"name": "19c7daf8812e49ca83102d23dea936e2", "lon": -77.02556666666666, "lat": 38.91632116666667, "type": "electric_scooter", "is_disabled": 0, "rental_uris": {"android": "https://dc.lft.to/lastmile_qr_scan", "ios": "https://dc.lft.to/lastmile_qr_scan"}, "fusion_lon": 0.0, "bike_id": "19c7daf8812e49ca83102d23dea936e2", "fusion_lat": 0.0, "is_reserved": 0}, {"name": "0189c8c8bc6a5dfbc8fb1ae4c9d8ba12", "lon": -76.9375455, "lat": 38.890427833333334, "type": "electric_bike", "is_disabled": 0, "rental_uris": {"android": "https://dc.lft.to/lastmile_qr_scan", "ios": "https://dc.lft.to/lastmile_qr_scan"}, "fusion_lon": 0.0, "bike_id": "0189c8c8bc6a5dfbc8fb1ae4c9d8ba12", "fusion_lat": 0.0, "is_reserved": 0}, {"name": "9451de6fd841ceee87236ec8a470a22b", "lon": -77.1069685, "lat": 38.875549, "type": "electric_bike", "is_disabled": 0, "rental_uris": {"android": "https://dc.lft.to/lastmile_qr_scan", "ios": "https://dc.lft.to/lastmile_qr_scan"}, "fusion_lon": 0.0, "bike_id": "9451de6fd841ceee87236ec8a470a22b", "fusion_lat": 0.0, "is_reserved": 0}, {"name": "b25de3cf4f11d0ff87875512300eb8dc", "lon": -77.02587066666666, "lat": 38.91412183333333, "type": "electric_scooter", "is_disabled": 0, "rental_uris": {"android": "https://dc.lft.to/lastmile_qr_scan", "ios": "https://dc.lft.to/lastmile_qr_scan"}, "fusion_lon": 0.0, "bike_id": "b25de3cf4f11d0ff87875512300eb8dc", "fusion_lat": 0.0, "is_reserved": 0}, {"name": "66268f499ab5e107323dd532b307e70d", "lon": -77.0218385, "lat": 38.918799, "type": "electric_scooter", "is_disabled": 0, "rental_uris": {"android": "https://dc.lft.to/lastmile_qr_scan", "ios": "https://dc.lft.to/lastmile_qr_scan"}, "fusion_lon": 0.0, "bike_id": "66268f499ab5e107323dd532b307e70d", "fusion_lat": 0.0, "is_reserved": 0}, {"name": "d873b65035ca8d51b937eed4ad95a8b8", "lon": -77.08566, "lat": 38.8741985, "type": "electric_bike", "is_disabled": 0, "rental_uris": {"android": "https://dc.lft.to/lastmile_qr_scan", "ios": "https://dc.lft.to/lastmile_qr_scan"}, "fusion_lon": 0.0, "bike_id": "d873b65035ca8d51b937eed4ad95a8b8", "fusion_lat": 0.0, "is_reserved": 0}, {"name": "0cb6ca2f0ea829643342de064c310ed1", "lon": -77.03867866666667, "lat": 38.90650433333333, "type": "electric_scooter", "is_disabled": 0, "rental_uris": {"android": "https://dc.lft.to/lastmile_qr_scan", "ios": "https://dc.lft.to/lastmile_qr_scan"}, "fusion_lon": 0.0, "bike_id": "0cb6ca2f0ea829643342de064c310ed1", "fusion_lat": 0.0, "is_reserved": 0}, {"name": "777b30ea0dbbd952d6c9465f1a15b753", "lon": -77.00392483333333, "lat": 38.90567083333333, "type": "electric_scooter", "is_disabled": 0, "rental_uris": {"android": "https://dc.lft.to/lastmile_qr_scan", "ios": "https://dc.lft.to/lastmile_qr_scan"}, "fusion_lon": 0.0, "bike_id": "777b30ea0dbbd952d6c9465f1a15b753", "fusion_lat": 0.0, "is_reserved": 0}, {"name": "78bd7b5b43c143adc9ecbbf53ff5001a", "lon": -77.043311, "lat": 38.90323083333333, "type": "electric_scooter", "is_disabled": 0, "rental_uris": {"android": "https://dc.lft.to/lastmile_qr_scan", "ios": "https://dc.lft.to/lastmile_qr_scan"}, "fusion_lon": 0.0, "bike_id": "78bd7b5b43c143adc9ecbbf53ff5001a", "fusion_lat": 0.0, "is_reserved": 0}, {"name": "9e9b03ccbcf01e24b5e956ad862bc94c", "lon": -77.021175, "lat": 38.8874, "type": "electric_scooter", "is_disabled": 0, "rental_uris": {"android": "https://dc.lft.to/lastmile_qr_scan", "ios": "https://dc.lft.to/lastmile_qr_scan"}, "fusion_lon": 0.0, "bike_id": "9e9b03ccbcf01e24b5e956ad862bc94c", "fusion_lat": 0.0, "is_reserved": 0}, {"name": "ef1d4f24686dfb9294103806e604df26", "lon": -76.989635, "lat": 38.865315833333334, "type": "electric_scooter", "is_disabled": 0, "rental_uris": {"android": "https://dc.lft.to/lastmile_qr_scan", "ios": "https://dc.lft.to/lastmile_qr_scan"}, "fusion_lon": 0.0, "bike_id": "ef1d4f24686dfb9294103806e604df26", "fusion_lat": 0.0, "is_reserved": 0}, {"name": "49d76e9ba716ead6b25c4911622fbd9c", "lon": -76.95419966666667, "lat": 38.883979333333336, "type": "electric_bike", "is_disabled": 0, "rental_uris": {"android": "https://dc.lft.to/lastmile_qr_scan", "ios": "https://dc.lft.to/lastmile_qr_scan"}, "fusion_lon": 0.0, "bike_id": "49d76e9ba716ead6b25c4911622fbd9c", "fusion_lat": 0.0, "is_reserved": 0}, {"name": "07ce1b0d4675732abe33286a9c1755b0", "lon": -77.01342466666667, "lat": 38.92640816666667, "type": "electric_scooter", "is_disabled": 0, "rental_uris": {"android": "https://dc.lft.to/lastmile_qr_scan", "ios": "https://dc.lft.to/lastmile_qr_scan"}, "fusion_lon": 0.0, "bike_id": "07ce1b0d4675732abe33286a9c1755b0", "fusion_lat": 0.0, "is_reserved": 0}, {"name": "9953147b10af958a15b00358be09ed43", "lon": -77.027236, "lat": 38.89821216666667, "type": "electric_scooter", "is_disabled": 0, "rental_uris": {"android": "https://dc.lft.to/lastmile_qr_scan", "ios": "https://dc.lft.to/lastmile_qr_scan"}, "fusion_lon": 0.0, "bike_id": "9953147b10af958a15b00358be09ed43", "fusion_lat": 0.0, "is_reserved": 0}, {"name": "cf2c050f2731e37522ba04d3dcbf00bd", "lon": -77.046222, "lat": 38.9144755, "type": "electric_scooter", "is_disabled": 0, "rental_uris": {"android": "https://dc.lft.to/lastmile_qr_scan", "ios": "https://dc.lft.to/lastmile_qr_scan"}, "fusion_lon": 0.0, "bike_id": "cf2c050f2731e37522ba04d3dcbf00bd", "fusion_lat": 0.0, "is_reserved": 0}, {"name": "11453b7bfd8029c5893662239f509f54", "lon": -77.0237345, "lat": 38.90732033333333, "type": "electric_scooter", "is_disabled": 0, "rental_uris": {"android": "https://dc.lft.to/lastmile_qr_scan", "ios": "https://dc.lft.to/lastmile_qr_scan"}, "fusion_lon": 0.0, "bike_id": "11453b7bfd8029c5893662239f509f54", "fusion_lat": 0.0, "is_reserved": 0}, {"name": "fb5e3cccc9966723913687280faccbb0", "lon": -77.03406683333333, "lat": 38.92262633333333, "type": "electric_scooter", "is_disabled": 0, "rental_uris": {"android": "https://dc.lft.to/lastmile_qr_scan", "ios": "https://dc.lft.to/lastmile_qr_scan"}, "fusion_lon": 0.0, "bike_id": "fb5e3cccc9966723913687280faccbb0", "fusion_lat": 0.0, "is_reserved": 0}, {"name": "95850cf326a65c4aecc84986aa323cc1", "lon": -77.03965916666667, "lat": 38.9022645, "type": "electric_scooter", "is_disabled": 0, "rental_uris": {"android": "https://dc.lft.to/lastmile_qr_scan", "ios": "https://dc.lft.to/lastmile_qr_scan"}, "fusion_lon": 0.0, "bike_id": "95850cf326a65c4aecc84986aa323cc1", "fusion_lat": 0.0, "is_reserved": 0}, {"name": "33a5c12c9b8112da944bdd57232988bd", "lon": -77.03965416666666, "lat": 38.902335666666666, "type": "electric_scooter", "is_disabled": 0, "rental_uris": {"android": "https://dc.lft.to/lastmile_qr_scan", "ios": "https://dc.lft.to/lastmile_qr_scan"}, "fusion_lon": 0.0, "bike_id": "33a5c12c9b8112da944bdd57232988bd", "fusion_lat": 0.0, "is_reserved": 0}, {"name": "4e3ba414675211ba3314a0a1aa4dae1b", "lon": -77.04226816666667, "lat": 38.91101583333333, "type": "electric_scooter", "is_disabled": 0, "rental_uris": {"android": "https://dc.lft.to/lastmile_qr_scan", "ios": "https://dc.lft.to/lastmile_qr_scan"}, "fusion_lon": 0.0, "bike_id": "4e3ba414675211ba3314a0a1aa4dae1b", "fusion_lat": 0.0, "is_reserved": 0}, {"name": "ea03751acf1c2d96917aecb5d9ec744e", "lon": -77.038674, "lat": 38.932629166666665, "type": "electric_scooter", "is_disabled": 0, "rental_uris": {"android": "https://dc.lft.to/lastmile_qr_scan", "ios": "https://dc.lft.to/lastmile_qr_scan"}, "fusion_lon": 0.0, "bike_id": "ea03751acf1c2d96917aecb5d9ec744e", "fusion_lat": 0.0, "is_reserved": 0}, {"name": "480076e5af7763cd596a24830569d78f", "lon": -77.007022, "lat": 38.91740133333333, "type": "electric_scooter", "is_disabled": 0, "rental_uris": {"android": "https://dc.lft.to/lastmile_qr_scan", "ios": "https://dc.lft.to/lastmile_qr_scan"}, "fusion_lon": 0.0, "bike_id": "480076e5af7763cd596a24830569d78f", "fusion_lat": 0.0, "is_reserved": 0}, {"name": "b43c0a04e00c199ffdc171e2b6437890", "lon": -76.910668, "lat": 39.01075933333333, "type": "electric_bike", "is_disabled": 0, "rental_uris": {"android": "https://dc.lft.to/lastmile_qr_scan", "ios": "https://dc.lft.to/lastmile_qr_scan"}, "fusion_lon": 0.0, "bike_id": "b43c0a04e00c199ffdc171e2b6437890", "fusion_lat": 0.0, "is_reserved": 0}, {"name": "9372f3fbd32f970b4080efbac73eccde", "lon": -77.04431783333334, "lat": 38.90977066666667, "type": "electric_scooter", "is_disabled": 0, "rental_uris": {"android": "https://dc.lft.to/lastmile_qr_scan", "ios": "https://dc.lft.to/lastmile_qr_scan"}, "fusion_lon": 0.0, "bike_id": "9372f3fbd32f970b4080efbac73eccde", "fusion_lat": 0.0, "is_reserved": 0}, {"name": "8cdb224d9b3e66bd99bee82b2dfd320f", "lon": -77.064067, "lat": 38.94438183333333, "type": "electric_scooter", "is_disabled": 0, "rental_uris": {"android": "https://dc.lft.to/lastmile_qr_scan", "ios": "https://dc.lft.to/lastmile_qr_scan"}, "fusion_lon": 0.0, "bike_id": "8cdb224d9b3e66bd99bee82b2dfd320f", "fusion_lat": 0.0, "is_reserved": 0}, {"name": "9dbf9bc167a1ca86343d044537481f14", "lon": -77.02048716666667, "lat": 38.894630166666666, "type": "electric_scooter", "is_disabled": 0, "rental_uris": {"android": "https://dc.lft.to/lastmile_qr_scan", "ios": "https://dc.lft.to/lastmile_qr_scan"}, "fusion_lon": 0.0, "bike_id": "9dbf9bc167a1ca86343d044537481f14", "fusion_lat": 0.0, "is_reserved": 0}, {"name": "14b7ab28dce66f0649ff9de299e6ec2a", "lon": -77.02093233333333, "lat": 38.92113916666667, "type": "electric_scooter", "is_disabled": 0, "rental_uris": {"android": "https://dc.lft.to/lastmile_qr_scan", "ios": "https://dc.lft.to/lastmile_qr_scan"}, "fusion_lon": 0.0, "bike_id": "14b7ab28dce66f0649ff9de299e6ec2a", "fusion_lat": 0.0, "is_reserved": 0}, {"name": "e9ecf198148cf7af70efecfc4a83ebb6", "lon": -77.02191066666667, "lat": 38.90147566666667, "type": "electric_scooter", "is_disabled": 0, "rental_uris": {"android": "https://dc.lft.to/lastmile_qr_scan", "ios": "https://dc.lft.to/lastmile_qr_scan"}, "fusion_lon": 0.0, "bike_id": "e9ecf198148cf7af70efecfc4a83ebb6", "fusion_lat": 0.0, "is_reserved": 0}, {"name": "298960b75b87eb5af850634199f6992f", "lon": -76.939666, "lat": 38.893421333333336, "type": "electric_scooter", "is_disabled": 0, "rental_uris": {"android": "https://dc.lft.to/lastmile_qr_scan", "ios": "https://dc.lft.to/lastmile_qr_scan"}, "fusion_lon": 0.0, "bike_id": "298960b75b87eb5af850634199f6992f", "fusion_lat": 0.0, "is_reserved": 0}, {"name": "a6ed623b87e797772dfc12c441f68472", "lon": -77.02204866666666, "lat": 38.91034833333333, "type": "electric_scooter", "is_disabled": 0, "rental_uris": {"android": "https://dc.lft.to/lastmile_qr_scan", "ios": "https://dc.lft.to/lastmile_qr_scan"}, "fusion_lon": 0.0, "bike_id": "a6ed623b87e797772dfc12c441f68472", "fusion_lat": 0.0, "is_reserved": 0}, {"name": "7b744536c722fb685a099fd1f46214ed", "lon": -77.00684433333333, "lat": 38.871694833333336, "type": "electric_scooter", "is_disabled": 0, "rental_uris": {"android": "https://dc.lft.to/lastmile_qr_scan", "ios": "https://dc.lft.to/lastmile_qr_scan"}, "fusion_lon": 0.0, "bike_id": "7b744536c722fb685a099fd1f46214ed", "fusion_lat": 0.0, "is_reserved": 0}, {"name": "299fdd5793165f1fbea0db96b2ff1680", "lon": -77.00694616666667, "lat": 38.905916500000004, "type": "electric_scooter", "is_disabled": 0, "rental_uris": {"android": "https://dc.lft.to/lastmile_qr_scan", "ios": "https://dc.lft.to/lastmile_qr_scan"}, "fusion_lon": 0.0, "bike_id": "299fdd5793165f1fbea0db96b2ff1680", "fusion_lat": 0.0, "is_reserved": 0}, {"name": "fdcd5872064a8f1a4517b45bd2f7f36b", "lon": -77.0296245, "lat": 38.907271, "type": "electric_scooter", "is_disabled": 0, "rental_uris": {"android": "https://dc.lft.to/lastmile_qr_scan", "ios": "https://dc.lft.to/lastmile_qr_scan"}, "fusion_lon": 0.0, "bike_id": "fdcd5872064a8f1a4517b45bd2f7f36b", "fusion_lat": 0.0, "is_reserved": 0}, {"name": "1c2a1d536ca49f9ea6c5c6340740b585", "lon": -76.98653416666667, "lat": 38.858037, "type": "electric_scooter", "is_disabled": 0, "rental_uris": {"android": "https://dc.lft.to/lastmile_qr_scan", "ios": "https://dc.lft.to/lastmile_qr_scan"}, "fusion_lon": 0.0, "bike_id": "1c2a1d536ca49f9ea6c5c6340740b585", "fusion_lat": 0.0, "is_reserved": 0}, {"name": "a990d81d5273b8089b59602fae274f2e", "lon": -77.03196166666666, "lat": 38.917541, "type": "electric_scooter", "is_disabled": 0, "rental_uris": {"android": "https://dc.lft.to/lastmile_qr_scan", "ios": "https://dc.lft.to/lastmile_qr_scan"}, "fusion_lon": 0.0, "bike_id": "a990d81d5273b8089b59602fae274f2e", "fusion_lat": 0.0, "is_reserved": 0}, {"name": "9cff0ec964ff9c41329afb212bdf4ccc", "lon": -77.0427065, "lat": 38.907296, "type": "electric_scooter", "is_disabled": 0, "rental_uris": {"android": "https://dc.lft.to/lastmile_qr_scan", "ios": "https://dc.lft.to/lastmile_qr_scan"}, "fusion_lon": 0.0, "bike_id": "9cff0ec964ff9c41329afb212bdf4ccc", "fusion_lat": 0.0, "is_reserved": 0}, {"name": "e18522889b0b545d2f2de809204901af", "lon": -77.00201816666667, "lat": 38.90234783333333, "type": "electric_scooter", "is_disabled": 0, "rental_uris": {"android": "https://dc.lft.to/lastmile_qr_scan", "ios": "https://dc.lft.to/lastmile_qr_scan"}, "fusion_lon": 0.0, "bike_id": "e18522889b0b545d2f2de809204901af", "fusion_lat": 0.0, "is_reserved": 0}, {"name": "c0cd8c494c0bad9d776e7223ec6464b3", "lon": -77.0355785, "lat": 38.90834533333334, "type": "electric_scooter", "is_disabled": 0, "rental_uris": {"android": "https://dc.lft.to/lastmile_qr_scan", "ios": "https://dc.lft.to/lastmile_qr_scan"}, "fusion_lon": 0.0, "bike_id": "c0cd8c494c0bad9d776e7223ec6464b3", "fusion_lat": 0.0, "is_reserved": 0}, {"name": "03fa075674654aa09609870aa9fbaf32", "lon": -77.04121983333333, "lat": 38.89991966666667, "type": "electric_scooter", "is_disabled": 0, "rental_uris": {"android": "https://dc.lft.to/lastmile_qr_scan", "ios": "https://dc.lft.to/lastmile_qr_scan"}, "fusion_lon": 0.0, "bike_id": "03fa075674654aa09609870aa9fbaf32", "fusion_lat": 0.0, "is_reserved": 0}, {"name": "3b36b8cd2381b893848a7ded5dd44b90", "lon": -77.03267233333334, "lat": 38.93096383333334, "type": "electric_scooter", "is_disabled": 0, "rental_uris": {"android": "https://dc.lft.to/lastmile_qr_scan", "ios": "https://dc.lft.to/lastmile_qr_scan"}, "fusion_lon": 0.0, "bike_id": "3b36b8cd2381b893848a7ded5dd44b90", "fusion_lat": 0.0, "is_reserved": 0}, {"name": "4a66b7d089c4474f2e92b93a2173bfc2", "lon": -77.0176045, "lat": 38.877076, "type": "electric_scooter", "is_disabled": 0, "rental_uris": {"android": "https://dc.lft.to/lastmile_qr_scan", "ios": "https://dc.lft.to/lastmile_qr_scan"}, "fusion_lon": 0.0, "bike_id": "4a66b7d089c4474f2e92b93a2173bfc2", "fusion_lat": 0.0, "is_reserved": 0}, {"name": "a30213fe82b1a18ecb3cfa1c4eef4857", "lon": -76.995842, "lat": 38.85179683333333, "type": "electric_scooter", "is_disabled": 0, "rental_uris": {"android": "https://dc.lft.to/lastmile_qr_scan", "ios": "https://dc.lft.to/lastmile_qr_scan"}, "fusion_lon": 0.0, "bike_id": "a30213fe82b1a18ecb3cfa1c4eef4857", "fusion_lat": 0.0, "is_reserved": 0}, {"name": "4edfdd431ae4c4b6786dcbc9f84ab69d", "lon": -77.00369416666666, "lat": 38.8972755, "type": "electric_scooter", "is_disabled": 0, "rental_uris": {"android": "https://dc.lft.to/lastmile_qr_scan", "ios": "https://dc.lft.to/lastmile_qr_scan"}, "fusion_lon": 0.0, "bike_id": "4edfdd431ae4c4b6786dcbc9f84ab69d", "fusion_lat": 0.0, "is_reserved": 0}, {"name": "a595e4663f3bd54d916f969180bb249b", "lon": -77.0467205, "lat": 38.89550116666667, "type": "electric_scooter", "is_disabled": 0, "rental_uris": {"android": "https://dc.lft.to/lastmile_qr_scan", "ios": "https://dc.lft.to/lastmile_qr_scan"}, "fusion_lon": 0.0, "bike_id": "a595e4663f3bd54d916f969180bb249b", "fusion_lat": 0.0, "is_reserved": 0}, {"name": "7516d7c7fc1e984c0da4cadbfda3115f", "lon": -77.0486245, "lat": 38.90463366666667, "type": "electric_scooter", "is_disabled": 0, "rental_uris": {"android": "https://dc.lft.to/lastmile_qr_scan", "ios": "https://dc.lft.to/lastmile_qr_scan"}, "fusion_lon": 0.0, "bike_id": "7516d7c7fc1e984c0da4cadbfda3115f", "fusion_lat": 0.0, "is_reserved": 0}, {"name": "d071730274f40a20dc6bda58d70753f2", "lon": -77.03611266666667, "lat": 38.931569333333336, "type": "electric_scooter", "is_disabled": 0, "rental_uris": {"android": "https://dc.lft.to/lastmile_qr_scan", "ios": "https://dc.lft.to/lastmile_qr_scan"}, "fusion_lon": 0.0, "bike_id": "d071730274f40a20dc6bda58d70753f2", "fusion_lat": 0.0, "is_reserved": 0}, {"name": "68ea2ed4db9bfaeded595e2d837bc251", "lon": -77.0176415, "lat": 38.878962, "type": "electric_scooter", "is_disabled": 0, "rental_uris": {"android": "https://dc.lft.to/lastmile_qr_scan", "ios": "https://dc.lft.to/lastmile_qr_scan"}, "fusion_lon": 0.0, "bike_id": "68ea2ed4db9bfaeded595e2d837bc251", "fusion_lat": 0.0, "is_reserved": 0}, {"name": "b1ec5328a0f33df544d43673f1463dcb", "lon": -77.00156066666666, "lat": 38.907192333333334, "type": "electric_scooter", "is_disabled": 0, "rental_uris": {"android": "https://dc.lft.to/lastmile_qr_scan", "ios": "https://dc.lft.to/lastmile_qr_scan"}, "fusion_lon": 0.0, "bike_id": "b1ec5328a0f33df544d43673f1463dcb", "fusion_lat": 0.0, "is_reserved": 0}, {"name": "01bb137a0b2b763961ee1cc194f6228f", "lon": -76.98719566666666, "lat": 38.866254166666664, "type": "electric_scooter", "is_disabled": 0, "rental_uris": {"android": "https://dc.lft.to/lastmile_qr_scan", "ios": "https://dc.lft.to/lastmile_qr_scan"}, "fusion_lon": 0.0, "bike_id": "01bb137a0b2b763961ee1cc194f6228f", "fusion_lat": 0.0, "is_reserved": 0}, {"name": "f73d89275159499f73a834238af67b30", "lon": -77.01945716666667, "lat": 38.924073, "type": "electric_scooter", "is_disabled": 0, "rental_uris": {"android": "https://dc.lft.to/lastmile_qr_scan", "ios": "https://dc.lft.to/lastmile_qr_scan"}, "fusion_lon": 0.0, "bike_id": "f73d89275159499f73a834238af67b30", "fusion_lat": 0.0, "is_reserved": 0}, {"name": "eb6f7bdd8d4dc96e59651e868805695f", "lon": -77.03442533333333, "lat": 38.903398833333334, "type": "electric_scooter", "is_disabled": 0, "rental_uris": {"android": "https://dc.lft.to/lastmile_qr_scan", "ios": "https://dc.lft.to/lastmile_qr_scan"}, "fusion_lon": 0.0, "bike_id": "eb6f7bdd8d4dc96e59651e868805695f", "fusion_lat": 0.0, "is_reserved": 0}, {"name": "414d4ac347731a562d7fc141a59342c2", "lon": -77.03308716666666, "lat": 38.898133333333334, "type": "electric_scooter", "is_disabled": 0, "rental_uris": {"android": "https://dc.lft.to/lastmile_qr_scan", "ios": "https://dc.lft.to/lastmile_qr_scan"}, "fusion_lon": 0.0, "bike_id": "414d4ac347731a562d7fc141a59342c2", "fusion_lat": 0.0, "is_reserved": 0}, {"name": "c0b4a0e0fab783fdfcea89a4cab77f9d", "lon": -76.956957, "lat": 38.89200566666667, "type": "electric_scooter", "is_disabled": 0, "rental_uris": {"android": "https://dc.lft.to/lastmile_qr_scan", "ios": "https://dc.lft.to/lastmile_qr_scan"}, "fusion_lon": 0.0, "bike_id": "c0b4a0e0fab783fdfcea89a4cab77f9d", "fusion_lat": 0.0, "is_reserved": 0}, {"name": "4d691870118672f811a84b95e6733541", "lon": -77.0439735, "lat": 38.913468, "type": "electric_scooter", "is_disabled": 0, "rental_uris": {"android": "https://dc.lft.to/lastmile_qr_scan", "ios": "https://dc.lft.to/lastmile_qr_scan"}, "fusion_lon": 0.0, "bike_id": "4d691870118672f811a84b95e6733541", "fusion_lat": 0.0, "is_reserved": 0}, {"name": "ea3a380a59cc6d00e9474cf93944996e", "lon": -77.02573666666666, "lat": 38.92042, "type": "electric_scooter", "is_disabled": 0, "rental_uris": {"android": "https://dc.lft.to/lastmile_qr_scan", "ios": "https://dc.lft.to/lastmile_qr_scan"}, "fusion_lon": 0.0, "bike_id": "ea3a380a59cc6d00e9474cf93944996e", "fusion_lat": 0.0, "is_reserved": 0}, {"name": "e299a82ba4ab5691c579a0de90b21248", "lon": -77.02571383333333, "lat": 38.895611833333334, "type": "electric_scooter", "is_disabled": 0, "rental_uris": {"android": "https://dc.lft.to/lastmile_qr_scan", "ios": "https://dc.lft.to/lastmile_qr_scan"}, "fusion_lon": 0.0, "bike_id": "e299a82ba4ab5691c579a0de90b21248", "fusion_lat": 0.0, "is_reserved": 0}, {"name": "4e66f9c3c919be5b13898afbaff7209e", "lon": -77.0117005, "lat": 38.921350333333336, "type": "electric_scooter", "is_disabled": 0, "rental_uris": {"android": "https://dc.lft.to/lastmile_qr_scan", "ios": "https://dc.lft.to/lastmile_qr_scan"}, "fusion_lon": 0.0, "bike_id": "4e66f9c3c919be5b13898afbaff7209e", "fusion_lat": 0.0, "is_reserved": 0}, {"name": "aeb67ec91b0e78042b7c9ac3845d9c46", "lon": -76.99942266666666, "lat": 38.940602, "type": "electric_scooter", "is_disabled": 0, "rental_uris": {"android": "https://dc.lft.to/lastmile_qr_scan", "ios": "https://dc.lft.to/lastmile_qr_scan"}, "fusion_lon": 0.0, "bike_id": "aeb67ec91b0e78042b7c9ac3845d9c46", "fusion_lat": 0.0, "is_reserved": 0}, {"name": "fe035c1482b43d8d7d5f880001073ae4", "lon": -77.0116405, "lat": 38.900187, "type": "electric_scooter", "is_disabled": 0, "rental_uris": {"android": "https://dc.lft.to/lastmile_qr_scan", "ios": "https://dc.lft.to/lastmile_qr_scan"}, "fusion_lon": 0.0, "bike_id": "fe035c1482b43d8d7d5f880001073ae4", "fusion_lat": 0.0, "is_reserved": 0}, {"name": "5f2aae7eb420ccff3cea8afd7ad82992", "lon": -76.9440905, "lat": 38.99223966666667, "type": "electric_bike", "is_disabled": 0, "rental_uris": {"android": "https://dc.lft.to/lastmile_qr_scan", "ios": "https://dc.lft.to/lastmile_qr_scan"}, "fusion_lon": 0.0, "bike_id": "5f2aae7eb420ccff3cea8afd7ad82992", "fusion_lat": 0.0, "is_reserved": 0}, {"name": "a8aed040e34387f36d485dab50f2a6b0", "lon": -77.03810883333334, "lat": 38.92552716666667, "type": "electric_scooter", "is_disabled": 0, "rental_uris": {"android": "https://dc.lft.to/lastmile_qr_scan", "ios": "https://dc.lft.to/lastmile_qr_scan"}, "fusion_lon": 0.0, "bike_id": "a8aed040e34387f36d485dab50f2a6b0", "fusion_lat": 0.0, "is_reserved": 0}, {"name": "0ac87c927243838b19b928e8220348d6", "lon": -77.0270775, "lat": 38.916586, "type": "electric_scooter", "is_disabled": 0, "rental_uris": {"android": "https://dc.lft.to/lastmile_qr_scan", "ios": "https://dc.lft.to/lastmile_qr_scan"}, "fusion_lon": 0.0, "bike_id": "0ac87c927243838b19b928e8220348d6", "fusion_lat": 0.0, "is_reserved": 0}, {"name": "fea616885db46c4c3804941c70c8459e", "lon": -77.040062, "lat": 38.9027595, "type": "electric_scooter", "is_disabled": 0, "rental_uris": {"android": "https://dc.lft.to/lastmile_qr_scan", "ios": "https://dc.lft.to/lastmile_qr_scan"}, "fusion_lon": 0.0, "bike_id": "fea616885db46c4c3804941c70c8459e", "fusion_lat": 0.0, "is_reserved": 0}, {"name": "8d06c92bf7145795964ff461f9cc8b51", "lon": -77.12019016666666, "lat": 38.85778366666667, "type": "electric_bike", "is_disabled": 0, "rental_uris": {"android": "https://dc.lft.to/lastmile_qr_scan", "ios": "https://dc.lft.to/lastmile_qr_scan"}, "fusion_lon": 0.0, "bike_id": "8d06c92bf7145795964ff461f9cc8b51", "fusion_lat": 0.0, "is_reserved": 0}, {"name": "e0717199331a53cf3075e740eeafadc6", "lon": -77.00865483333334, "lat": 38.967358833333336, "type": "electric_scooter", "is_disabled": 0, "rental_uris": {"android": "https://dc.lft.to/lastmile_qr_scan", "ios": "https://dc.lft.to/lastmile_qr_scan"}, "fusion_lon": 0.0, "bike_id": "e0717199331a53cf3075e740eeafadc6", "fusion_lat": 0.0, "is_reserved": 0}, {"name": "eb8911b00a273cac6f195c4d52167675", "lon": -77.120221, "lat": 38.855259333333336, "type": "electric_bike", "is_disabled": 0, "rental_uris": {"android": "https://dc.lft.to/lastmile_qr_scan", "ios": "https://dc.lft.to/lastmile_qr_scan"}, "fusion_lon": 0.0, "bike_id": "eb8911b00a273cac6f195c4d52167675", "fusion_lat": 0.0, "is_reserved": 0}, {"name": "f00b1ef365dabf25c93facfb25e2faf1", "lon": -77.045486, "lat": 38.898257666666666, "type": "electric_scooter", "is_disabled": 0, "rental_uris": {"android": "https://dc.lft.to/lastmile_qr_scan", "ios": "https://dc.lft.to/lastmile_qr_scan"}, "fusion_lon": 0.0, "bike_id": "f00b1ef365dabf25c93facfb25e2faf1", "fusion_lat": 0.0, "is_reserved": 0}, {"name": "428e6888f7fc8b373f9d7097d3977d9b", "lon": -77.01244483333333, "lat": 38.91567666666667, "type": "electric_scooter", "is_disabled": 0, "rental_uris": {"android": "https://dc.lft.to/lastmile_qr_scan", "ios": "https://dc.lft.to/lastmile_qr_scan"}, "fusion_lon": 0.0, "bike_id": "428e6888f7fc8b373f9d7097d3977d9b", "fusion_lat": 0.0, "is_reserved": 0}, {"name": "57b695cac1a4e5e7e8c889dce50bc1e1", "lon": -77.00004816666667, "lat": 38.92394916666667, "type": "electric_bike", "is_disabled": 0, "rental_uris": {"android": "https://dc.lft.to/lastmile_qr_scan", "ios": "https://dc.lft.to/lastmile_qr_scan"}, "fusion_lon": 0.0, "bike_id": "57b695cac1a4e5e7e8c889dce50bc1e1", "fusion_lat": 0.0, "is_reserved": 0}, {"name": "3295a7dab5be08cfd3064f886574e3c9", "lon": -77.04214816666666, "lat": 38.92436883333333, "type": "electric_scooter", "is_disabled": 0, "rental_uris": {"android": "https://dc.lft.to/lastmile_qr_scan", "ios": "https://dc.lft.to/lastmile_qr_scan"}, "fusion_lon": 0.0, "bike_id": "3295a7dab5be08cfd3064f886574e3c9", "fusion_lat": 0.0, "is_reserved": 0}, {"name": "5912c94868227e9ee67b90b507dd09a5", "lon": -77.0434375, "lat": 38.9039615, "type": "electric_scooter", "is_disabled": 0, "rental_uris": {"android": "https://dc.lft.to/lastmile_qr_scan", "ios": "https://dc.lft.to/lastmile_qr_scan"}, "fusion_lon": 0.0, "bike_id": "5912c94868227e9ee67b90b507dd09a5", "fusion_lat": 0.0, "is_reserved": 0}, {"name": "253635a921fbb0a85babdee5cd82a5bb", "lon": -77.02385283333334, "lat": 38.892259333333335, "type": "electric_scooter", "is_disabled": 0, "rental_uris": {"android": "https://dc.lft.to/lastmile_qr_scan", "ios": "https://dc.lft.to/lastmile_qr_scan"}, "fusion_lon": 0.0, "bike_id": "253635a921fbb0a85babdee5cd82a5bb", "fusion_lat": 0.0, "is_reserved": 0}, {"name": "8ed90021399d1f765a1e1a7b19700a77", "lon": -77.04334283333333, "lat": 38.914236333333335, "type": "electric_scooter", "is_disabled": 0, "rental_uris": {"android": "https://dc.lft.to/lastmile_qr_scan", "ios": "https://dc.lft.to/lastmile_qr_scan"}, "fusion_lon": 0.0, "bike_id": "8ed90021399d1f765a1e1a7b19700a77", "fusion_lat": 0.0, "is_reserved": 0}, {"name": "ccccdf5438d749c5055e91f29157b028", "lon": -77.03204666666667, "lat": 38.92858716666667, "type": "electric_scooter", "is_disabled": 0, "rental_uris": {"android": "https://dc.lft.to/lastmile_qr_scan", "ios": "https://dc.lft.to/lastmile_qr_scan"}, "fusion_lon": 0.0, "bike_id": "ccccdf5438d749c5055e91f29157b028", "fusion_lat": 0.0, "is_reserved": 0}, {"name": "7d1819fe4f43d2ec43ce6fa0f2c46360", "lon": -77.00922116666666, "lat": 38.968165666666664, "type": "electric_scooter", "is_disabled": 0, "rental_uris": {"android": "https://dc.lft.to/lastmile_qr_scan", "ios": "https://dc.lft.to/lastmile_qr_scan"}, "fusion_lon": 0.0, "bike_id": "7d1819fe4f43d2ec43ce6fa0f2c46360", "fusion_lat": 0.0, "is_reserved": 0}, {"name": "03895af0a13a6a66085f4890d068c281", "lon": -77.029677, "lat": 38.900415333333335, "type": "electric_scooter", "is_disabled": 0, "rental_uris": {"android": "https://dc.lft.to/lastmile_qr_scan", "ios": "https://dc.lft.to/lastmile_qr_scan"}, "fusion_lon": 0.0, "bike_id": "03895af0a13a6a66085f4890d068c281", "fusion_lat": 0.0, "is_reserved": 0}, {"name": "763816e59a2b42436b635c999e1af080", "lon": -77.031836, "lat": 38.88466566666666, "type": "electric_scooter", "is_disabled": 0, "rental_uris": {"android": "https://dc.lft.to/lastmile_qr_scan", "ios": "https://dc.lft.to/lastmile_qr_scan"}, "fusion_lon": 0.0, "bike_id": "763816e59a2b42436b635c999e1af080", "fusion_lat": 0.0, "is_reserved": 0}, {"name": "b3af4029ec6faa6222a872d34a263a59", "lon": -77.01611583333333, "lat": 38.89955783333333, "type": "electric_scooter", "is_disabled": 0, "rental_uris": {"android": "https://dc.lft.to/lastmile_qr_scan", "ios": "https://dc.lft.to/lastmile_qr_scan"}, "fusion_lon": 0.0, "bike_id": "b3af4029ec6faa6222a872d34a263a59", "fusion_lat": 0.0, "is_reserved": 0}, {"name": "cbd707488a7d81288f206f1e80fe16c6", "lon": -77.02798616666666, "lat": 38.960478333333334, "type": "electric_scooter", "is_disabled": 0, "rental_uris": {"android": "https://dc.lft.to/lastmile_qr_scan", "ios": "https://dc.lft.to/lastmile_qr_scan"}, "fusion_lon": 0.0, "bike_id": "cbd707488a7d81288f206f1e80fe16c6", "fusion_lat": 0.0, "is_reserved": 0}, {"name": "2b8141f0e70a97fbcc0485fdb82cfd8a", "lon": -76.98670816666667, "lat": 38.906748, "type": "electric_scooter", "is_disabled": 0, "rental_uris": {"android": "https://dc.lft.to/lastmile_qr_scan", "ios": "https://dc.lft.to/lastmile_qr_scan"}, "fusion_lon": 0.0, "bike_id": "2b8141f0e70a97fbcc0485fdb82cfd8a", "fusion_lat": 0.0, "is_reserved": 0}, {"name": "7902752bc28f87796ee7191b349f7e05", "lon": -77.012864, "lat": 38.91817366666667, "type": "electric_scooter", "is_disabled": 0, "rental_uris": {"android": "https://dc.lft.to/lastmile_qr_scan", "ios": "https://dc.lft.to/lastmile_qr_scan"}, "fusion_lon": 0.0, "bike_id": "7902752bc28f87796ee7191b349f7e05", "fusion_lat": 0.0, "is_reserved": 0}, {"name": "727983fb232dc2afb3a76465ca1fcec8", "lon": -77.04201083333334, "lat": 38.905575166666665, "type": "electric_scooter", "is_disabled": 0, "rental_uris": {"android": "https://dc.lft.to/lastmile_qr_scan", "ios": "https://dc.lft.to/lastmile_qr_scan"}, "fusion_lon": 0.0, "bike_id": "727983fb232dc2afb3a76465ca1fcec8", "fusion_lat": 0.0, "is_reserved": 0}, {"name": "8506675677c9d2583f8b2501340e5346", "lon": -77.02955433333334, "lat": 38.94298466666667, "type": "electric_scooter", "is_disabled": 0, "rental_uris": {"android": "https://dc.lft.to/lastmile_qr_scan", "ios": "https://dc.lft.to/lastmile_qr_scan"}, "fusion_lon": 0.0, "bike_id": "8506675677c9d2583f8b2501340e5346", "fusion_lat": 0.0, "is_reserved": 0}, {"name": "33a85f4574777bd5acc94987aa31ea82", "lon": -77.03169033333333, "lat": 38.895305, "type": "electric_scooter", "is_disabled": 0, "rental_uris": {"android": "https://dc.lft.to/lastmile_qr_scan", "ios": "https://dc.lft.to/lastmile_qr_scan"}, "fusion_lon": 0.0, "bike_id": "33a85f4574777bd5acc94987aa31ea82", "fusion_lat": 0.0, "is_reserved": 0}, {"name": "49f5a52c7700ee4ee9c0924b014ceb88", "lon": -77.22889783333333, "lat": 38.9095615, "type": "electric_bike", "is_disabled": 0, "rental_uris": {"android": "https://dc.lft.to/lastmile_qr_scan", "ios": "https://dc.lft.to/lastmile_qr_scan"}, "fusion_lon": 0.0, "bike_id": "49f5a52c7700ee4ee9c0924b014ceb88", "fusion_lat": 0.0, "is_reserved": 0}, {"name": "40796e9f0208400488b9a6fc2c2c27f5", "lon": -77.05986733333333, "lat": 38.90232783333333, "type": "electric_scooter", "is_disabled": 0, "rental_uris": {"android": "https://dc.lft.to/lastmile_qr_scan", "ios": "https://dc.lft.to/lastmile_qr_scan"}, "fusion_lon": 0.0, "bike_id": "40796e9f0208400488b9a6fc2c2c27f5", "fusion_lat": 0.0, "is_reserved": 0}, {"name": "1269c47db523d8327039119f81a175ff", "lon": -76.98879633333334, "lat": 38.866582333333334, "type": "electric_scooter", "is_disabled": 0, "rental_uris": {"android": "https://dc.lft.to/lastmile_qr_scan", "ios": "https://dc.lft.to/lastmile_qr_scan"}, "fusion_lon": 0.0, "bike_id": "1269c47db523d8327039119f81a175ff", "fusion_lat": 0.0, "is_reserved": 0}, {"name": "f15f8809c29b73ccbd67e9a161a2cf01", "lon": -77.0033405, "lat": 38.89352983333333, "type": "electric_scooter", "is_disabled": 0, "rental_uris": {"android": "https://dc.lft.to/lastmile_qr_scan", "ios": "https://dc.lft.to/lastmile_qr_scan"}, "fusion_lon": 0.0, "bike_id": "f15f8809c29b73ccbd67e9a161a2cf01", "fusion_lat": 0.0, "is_reserved": 0}, {"name": "8c40b5e19778d09c635deb7a4ab4d9da", "lon": -77.044066, "lat": 38.93415533333334, "type": "electric_scooter", "is_disabled": 0, "rental_uris": {"android": "https://dc.lft.to/lastmile_qr_scan", "ios": "https://dc.lft.to/lastmile_qr_scan"}, "fusion_lon": 0.0, "bike_id": "8c40b5e19778d09c635deb7a4ab4d9da", "fusion_lat": 0.0, "is_reserved": 0}, {"name": "5c6e260e289b029942e0473b874da327", "lon": -77.03323, "lat": 38.898260666666665, "type": "electric_scooter", "is_disabled": 0, "rental_uris": {"android": "https://dc.lft.to/lastmile_qr_scan", "ios": "https://dc.lft.to/lastmile_qr_scan"}, "fusion_lon": 0.0, "bike_id": "5c6e260e289b029942e0473b874da327", "fusion_lat": 0.0, "is_reserved": 0}, {"name": "d3a463a32383e8f0c12ee0fb85a7ed87", "lon": -77.03099666666667, "lat": 38.923783, "type": "electric_scooter", "is_disabled": 0, "rental_uris": {"android": "https://dc.lft.to/lastmile_qr_scan", "ios": "https://dc.lft.to/lastmile_qr_scan"}, "fusion_lon": 0.0, "bike_id": "d3a463a32383e8f0c12ee0fb85a7ed87", "fusion_lat": 0.0, "is_reserved": 0}, {"name": "a1b7de2b0d4acbf8ee04bb3357b90e4c", "lon": -77.02179033333333, "lat": 38.91980233333334, "type": "electric_scooter", "is_disabled": 0, "rental_uris": {"android": "https://dc.lft.to/lastmile_qr_scan", "ios": "https://dc.lft.to/lastmile_qr_scan"}, "fusion_lon": 0.0, "bike_id": "a1b7de2b0d4acbf8ee04bb3357b90e4c", "fusion_lat": 0.0, "is_reserved": 0}, {"name": "4cbaeb34b2f6aef1ee44095e8f6bbee1", "lon": -77.00913333333334, "lat": 38.921055833333334, "type": "electric_scooter", "is_disabled": 0, "rental_uris": {"android": "https://dc.lft.to/lastmile_qr_scan", "ios": "https://dc.lft.to/lastmile_qr_scan"}, "fusion_lon": 0.0, "bike_id": "4cbaeb34b2f6aef1ee44095e8f6bbee1", "fusion_lat": 0.0, "is_reserved": 0}, {"name": "ff1849a4de48b04b19fde1d0bba5214d", "lon": -76.990297, "lat": 38.901444166666664, "type": "electric_scooter", "is_disabled": 0, "rental_uris": {"android": "https://dc.lft.to/lastmile_qr_scan", "ios": "https://dc.lft.to/lastmile_qr_scan"}, "fusion_lon": 0.0, "bike_id": "ff1849a4de48b04b19fde1d0bba5214d", "fusion_lat": 0.0, "is_reserved": 0}, {"name": "c285411e22945a10c1135819156c2a82", "lon": -76.999586, "lat": 38.874123833333336, "type": "electric_scooter", "is_disabled": 0, "rental_uris": {"android": "https://dc.lft.to/lastmile_qr_scan", "ios": "https://dc.lft.to/lastmile_qr_scan"}, "fusion_lon": 0.0, "bike_id": "c285411e22945a10c1135819156c2a82", "fusion_lat": 0.0, "is_reserved": 0}, {"name": "04f04f7147ecd01b048e625e8b99f136", "lon": -77.04340983333333, "lat": 38.908694833333335, "type": "electric_scooter", "is_disabled": 0, "rental_uris": {"android": "https://dc.lft.to/lastmile_qr_scan", "ios": "https://dc.lft.to/lastmile_qr_scan"}, "fusion_lon": 0.0, "bike_id": "04f04f7147ecd01b048e625e8b99f136", "fusion_lat": 0.0, "is_reserved": 0}, {"name": "b611e44967604a7a1fbefc8fe0685acc", "lon": -77.0148275, "lat": 38.9141145, "type": "electric_scooter", "is_disabled": 0, "rental_uris": {"android": "https://dc.lft.to/lastmile_qr_scan", "ios": "https://dc.lft.to/lastmile_qr_scan"}, "fusion_lon": 0.0, "bike_id": "b611e44967604a7a1fbefc8fe0685acc", "fusion_lat": 0.0, "is_reserved": 0}, {"name": "b40035e4fd95a9d737477668c4f2e735", "lon": -77.000723, "lat": 38.92545766666667, "type": "electric_scooter", "is_disabled": 0, "rental_uris": {"android": "https://dc.lft.to/lastmile_qr_scan", "ios": "https://dc.lft.to/lastmile_qr_scan"}, "fusion_lon": 0.0, "bike_id": "b40035e4fd95a9d737477668c4f2e735", "fusion_lat": 0.0, "is_reserved": 0}, {"name": "953a962da33d6c9098513f7156a77e74", "lon": -76.97252033333334, "lat": 38.95738566666667, "type": "electric_bike", "is_disabled": 0, "rental_uris": {"android": "https://dc.lft.to/lastmile_qr_scan", "ios": "https://dc.lft.to/lastmile_qr_scan"}, "fusion_lon": 0.0, "bike_id": "953a962da33d6c9098513f7156a77e74", "fusion_lat": 0.0, "is_reserved": 0}, {"name": "50860a42c4d22ffe524fafd87eaf2077", "lon": -76.972553, "lat": 38.9574115, "type": "electric_bike", "is_disabled": 0, "rental_uris": {"android": "https://dc.lft.to/lastmile_qr_scan", "ios": "https://dc.lft.to/lastmile_qr_scan"}, "fusion_lon": 0.0, "bike_id": "50860a42c4d22ffe524fafd87eaf2077", "fusion_lat": 0.0, "is_reserved": 0}, {"name": "d9f70ae249837021cc8ac01b63356da5", "lon": -77.01070483333334, "lat": 38.90951966666667, "type": "electric_scooter", "is_disabled": 0, "rental_uris": {"android": "https://dc.lft.to/lastmile_qr_scan", "ios": "https://dc.lft.to/lastmile_qr_scan"}, "fusion_lon": 0.0, "bike_id": "d9f70ae249837021cc8ac01b63356da5", "fusion_lat": 0.0, "is_reserved": 0}, {"name": "f19c19cac8f758f4db84550d3eec8d2f", "lon": -77.03889366666667, "lat": 38.90125583333333, "type": "electric_scooter", "is_disabled": 0, "rental_uris": {"android": "https://dc.lft.to/lastmile_qr_scan", "ios": "https://dc.lft.to/lastmile_qr_scan"}, "fusion_lon": 0.0, "bike_id": "f19c19cac8f758f4db84550d3eec8d2f", "fusion_lat": 0.0, "is_reserved": 0}, {"name": "55797055a915d52e705a046883490272", "lon": -77.00537533333333, "lat": 38.90030483333334, "type": "electric_scooter", "is_disabled": 0, "rental_uris": {"android": "https://dc.lft.to/lastmile_qr_scan", "ios": "https://dc.lft.to/lastmile_qr_scan"}, "fusion_lon": 0.0, "bike_id": "55797055a915d52e705a046883490272", "fusion_lat": 0.0, "is_reserved": 0}, {"name": "761c33c2087d3ac725ba090630dee986", "lon": -77.029703, "lat": 38.916756166666666, "type": "electric_scooter", "is_disabled": 0, "rental_uris": {"android": "https://dc.lft.to/lastmile_qr_scan", "ios": "https://dc.lft.to/lastmile_qr_scan"}, "fusion_lon": 0.0, "bike_id": "761c33c2087d3ac725ba090630dee986", "fusion_lat": 0.0, "is_reserved": 0}, {"name": "9e2d79a2dc8e5b3411513233f6392758", "lon": -77.029673, "lat": 38.905019, "type": "electric_scooter", "is_disabled": 0, "rental_uris": {"android": "https://dc.lft.to/lastmile_qr_scan", "ios": "https://dc.lft.to/lastmile_qr_scan"}, "fusion_lon": 0.0, "bike_id": "9e2d79a2dc8e5b3411513233f6392758", "fusion_lat": 0.0, "is_reserved": 0}, {"name": "076644826fe69eb3ef8d066b50722720", "lon": -77.08208833333333, "lat": 38.9332125, "type": "electric_scooter", "is_disabled": 0, "rental_uris": {"android": "https://dc.lft.to/lastmile_qr_scan", "ios": "https://dc.lft.to/lastmile_qr_scan"}, "fusion_lon": 0.0, "bike_id": "076644826fe69eb3ef8d066b50722720", "fusion_lat": 0.0, "is_reserved": 0}, {"name": "2ea27ddf70e51fb20a86412b94f74ba8", "lon": -77.02635283333333, "lat": 38.8943605, "type": "electric_scooter", "is_disabled": 0, "rental_uris": {"android": "https://dc.lft.to/lastmile_qr_scan", "ios": "https://dc.lft.to/lastmile_qr_scan"}, "fusion_lon": 0.0, "bike_id": "2ea27ddf70e51fb20a86412b94f74ba8", "fusion_lat": 0.0, "is_reserved": 0}, {"name": "b4edfd06c3ed2caf8f4a9329e9cdf645", "lon": -76.99411983333333, "lat": 38.87783, "type": "electric_scooter", "is_disabled": 0, "rental_uris": {"android": "https://dc.lft.to/lastmile_qr_scan", "ios": "https://dc.lft.to/lastmile_qr_scan"}, "fusion_lon": 0.0, "bike_id": "b4edfd06c3ed2caf8f4a9329e9cdf645", "fusion_lat": 0.0, "is_reserved": 0}, {"name": "9c16458688f3094dc025b1c98f2b99ca", "lon": -77.02814616666667, "lat": 38.898984666666664, "type": "electric_scooter", "is_disabled": 0, "rental_uris": {"android": "https://dc.lft.to/lastmile_qr_scan", "ios": "https://dc.lft.to/lastmile_qr_scan"}, "fusion_lon": 0.0, "bike_id": "9c16458688f3094dc025b1c98f2b99ca", "fusion_lat": 0.0, "is_reserved": 0}, {"name": "8fdb8fc74a392d94247285d0363cca46", "lon": -77.03440233333333, "lat": 38.920510666666665, "type": "electric_scooter", "is_disabled": 0, "rental_uris": {"android": "https://dc.lft.to/lastmile_qr_scan", "ios": "https://dc.lft.to/lastmile_qr_scan"}, "fusion_lon": 0.0, "bike_id": "8fdb8fc74a392d94247285d0363cca46", "fusion_lat": 0.0, "is_reserved": 0}, {"name": "ce34b712e89a17397cfd821e5c83a092", "lon": -77.00211816666666, "lat": 38.907045, "type": "electric_scooter", "is_disabled": 0, "rental_uris": {"android": "https://dc.lft.to/lastmile_qr_scan", "ios": "https://dc.lft.to/lastmile_qr_scan"}, "fusion_lon": 0.0, "bike_id": "ce34b712e89a17397cfd821e5c83a092", "fusion_lat": 0.0, "is_reserved": 0}, {"name": "88e2860e3747e52ff29e8f66acddce90", "lon": -77.078402, "lat": 38.9492175, "type": "electric_bike", "is_disabled": 0, "rental_uris": {"android": "https://dc.lft.to/lastmile_qr_scan", "ios": "https://dc.lft.to/lastmile_qr_scan"}, "fusion_lon": 0.0, "bike_id": "88e2860e3747e52ff29e8f66acddce90", "fusion_lat": 0.0, "is_reserved": 0}, {"name": "212417a4c345605e8c5212a44ee93fa0", "lon": -77.050259, "lat": 38.89654933333333, "type": "electric_scooter", "is_disabled": 0, "rental_uris": {"android": "https://dc.lft.to/lastmile_qr_scan", "ios": "https://dc.lft.to/lastmile_qr_scan"}, "fusion_lon": 0.0, "bike_id": "212417a4c345605e8c5212a44ee93fa0", "fusion_lat": 0.0, "is_reserved": 0}, {"name": "939e00a28442148719ebcf27b61dcfa8", "lon": -77.03510866666667, "lat": 38.918321166666665, "type": "electric_scooter", "is_disabled": 0, "rental_uris": {"android": "https://dc.lft.to/lastmile_qr_scan", "ios": "https://dc.lft.to/lastmile_qr_scan"}, "fusion_lon": 0.0, "bike_id": "939e00a28442148719ebcf27b61dcfa8", "fusion_lat": 0.0, "is_reserved": 0}, {"name": "d8c42629bc8016ad0b9d2838d1a63f90", "lon": -77.03869166666667, "lat": 38.906518166666665, "type": "electric_scooter", "is_disabled": 0, "rental_uris": {"android": "https://dc.lft.to/lastmile_qr_scan", "ios": "https://dc.lft.to/lastmile_qr_scan"}, "fusion_lon": 0.0, "bike_id": "d8c42629bc8016ad0b9d2838d1a63f90", "fusion_lat": 0.0, "is_reserved": 0}, {"name": "ae48fe597ee94a5dfa31490e22e9ed3d", "lon": -76.99407416666666, "lat": 38.877799, "type": "electric_scooter", "is_disabled": 0, "rental_uris": {"android": "https://dc.lft.to/lastmile_qr_scan", "ios": "https://dc.lft.to/lastmile_qr_scan"}, "fusion_lon": 0.0, "bike_id": "ae48fe597ee94a5dfa31490e22e9ed3d", "fusion_lat": 0.0, "is_reserved": 0}, {"name": "2a3bb2fdafe9901dee59e872984b504b", "lon": -77.04153733333334, "lat": 38.92351766666667, "type": "electric_scooter", "is_disabled": 0, "rental_uris": {"android": "https://dc.lft.to/lastmile_qr_scan", "ios": "https://dc.lft.to/lastmile_qr_scan"}, "fusion_lon": 0.0, "bike_id": "2a3bb2fdafe9901dee59e872984b504b", "fusion_lat": 0.0, "is_reserved": 0}, {"name": "2b53919698abc850258c3e872b61a321", "lon": -76.97329933333333, "lat": 38.904092166666665, "type": "electric_scooter", "is_disabled": 0, "rental_uris": {"android": "https://dc.lft.to/lastmile_qr_scan", "ios": "https://dc.lft.to/lastmile_qr_scan"}, "fusion_lon": 0.0, "bike_id": "2b53919698abc850258c3e872b61a321", "fusion_lat": 0.0, "is_reserved": 0}, {"name": "b74d76ef2ed0ded0ec5dd0d05a0bcc0b", "lon": -77.01956233333334, "lat": 38.92319033333333, "type": "electric_scooter", "is_disabled": 0, "rental_uris": {"android": "https://dc.lft.to/lastmile_qr_scan", "ios": "https://dc.lft.to/lastmile_qr_scan"}, "fusion_lon": 0.0, "bike_id": "b74d76ef2ed0ded0ec5dd0d05a0bcc0b", "fusion_lat": 0.0, "is_reserved": 0}, {"name": "c1cf95cce1abea600fe375e7e04ea2b1", "lon": -77.0196945, "lat": 38.90851116666666, "type": "electric_scooter", "is_disabled": 0, "rental_uris": {"android": "https://dc.lft.to/lastmile_qr_scan", "ios": "https://dc.lft.to/lastmile_qr_scan"}, "fusion_lon": 0.0, "bike_id": "c1cf95cce1abea600fe375e7e04ea2b1", "fusion_lat": 0.0, "is_reserved": 0}, {"name": "7ca9479cadbbb9f436ebf1e8d1c2c6c6", "lon": -77.03629, "lat": 38.90381383333333, "type": "electric_scooter", "is_disabled": 0, "rental_uris": {"android": "https://dc.lft.to/lastmile_qr_scan", "ios": "https://dc.lft.to/lastmile_qr_scan"}, "fusion_lon": 0.0, "bike_id": "7ca9479cadbbb9f436ebf1e8d1c2c6c6", "fusion_lat": 0.0, "is_reserved": 0}, {"name": "c5c9ade3e0f3a7da1e8e34af9ee219a0", "lon": -77.03211833333333, "lat": 38.892299333333334, "type": "electric_scooter", "is_disabled": 0, "rental_uris": {"android": "https://dc.lft.to/lastmile_qr_scan", "ios": "https://dc.lft.to/lastmile_qr_scan"}, "fusion_lon": 0.0, "bike_id": "c5c9ade3e0f3a7da1e8e34af9ee219a0", "fusion_lat": 0.0, "is_reserved": 0}, {"name": "4ca43a8cbedc5f09a65852a6ae002b7f", "lon": -77.0437425, "lat": 38.9104465, "type": "electric_scooter", "is_disabled": 0, "rental_uris": {"android": "https://dc.lft.to/lastmile_qr_scan", "ios": "https://dc.lft.to/lastmile_qr_scan"}, "fusion_lon": 0.0, "bike_id": "4ca43a8cbedc5f09a65852a6ae002b7f", "fusion_lat": 0.0, "is_reserved": 0}, {"name": "c1fbfdfd32d0737a94dc83c017c24733", "lon": -77.04859783333333, "lat": 38.916076, "type": "electric_scooter", "is_disabled": 0, "rental_uris": {"android": "https://dc.lft.to/lastmile_qr_scan", "ios": "https://dc.lft.to/lastmile_qr_scan"}, "fusion_lon": 0.0, "bike_id": "c1fbfdfd32d0737a94dc83c017c24733", "fusion_lat": 0.0, "is_reserved": 0}, {"name": "2bd20204c10f5174eb3c856976fb49c5", "lon": -77.0346445, "lat": 38.90635283333334, "type": "electric_scooter", "is_disabled": 0, "rental_uris": {"android": "https://dc.lft.to/lastmile_qr_scan", "ios": "https://dc.lft.to/lastmile_qr_scan"}, "fusion_lon": 0.0, "bike_id": "2bd20204c10f5174eb3c856976fb49c5", "fusion_lat": 0.0, "is_reserved": 0}, {"name": "2dedfabf24a8c570b8ad611c0c19f799", "lon": -77.06468266666667, "lat": 38.97377183333333, "type": "electric_bike", "is_disabled": 0, "rental_uris": {"android": "https://dc.lft.to/lastmile_qr_scan", "ios": "https://dc.lft.to/lastmile_qr_scan"}, "fusion_lon": 0.0, "bike_id": "2dedfabf24a8c570b8ad611c0c19f799", "fusion_lat": 0.0, "is_reserved": 0}, {"name": "0b903233a47a15653ee5ea5adf31e0d9", "lon": -76.9462975, "lat": 38.898601666666664, "type": "electric_scooter", "is_disabled": 0, "rental_uris": {"android": "https://dc.lft.to/lastmile_qr_scan", "ios": "https://dc.lft.to/lastmile_qr_scan"}, "fusion_lon": 0.0, "bike_id": "0b903233a47a15653ee5ea5adf31e0d9", "fusion_lat": 0.0, "is_reserved": 0}, {"name": "0ae3bff5f6c0de09762652545a0b83c3", "lon": -77.03274616666667, "lat": 38.89882566666667, "type": "electric_scooter", "is_disabled": 0, "rental_uris": {"android": "https://dc.lft.to/lastmile_qr_scan", "ios": "https://dc.lft.to/lastmile_qr_scan"}, "fusion_lon": 0.0, "bike_id": "0ae3bff5f6c0de09762652545a0b83c3", "fusion_lat": 0.0, "is_reserved": 0}, {"name": "c5e7e4a727d8ab81f5f5430188c96950", "lon": -77.0237955, "lat": 38.9115365, "type": "electric_scooter", "is_disabled": 0, "rental_uris": {"android": "https://dc.lft.to/lastmile_qr_scan", "ios": "https://dc.lft.to/lastmile_qr_scan"}, "fusion_lon": 0.0, "bike_id": "c5e7e4a727d8ab81f5f5430188c96950", "fusion_lat": 0.0, "is_reserved": 0}, {"name": "143921b849841a20a4fbc2ffd775ad34", "lon": -77.04564016666667, "lat": 38.898822, "type": "electric_scooter", "is_disabled": 0, "rental_uris": {"android": "https://dc.lft.to/lastmile_qr_scan", "ios": "https://dc.lft.to/lastmile_qr_scan"}, "fusion_lon": 0.0, "bike_id": "143921b849841a20a4fbc2ffd775ad34", "fusion_lat": 0.0, "is_reserved": 0}, {"name": "ef014f93914527dac2ba7740e1f195e1", "lon": -77.05744133333333, "lat": 38.93392016666667, "type": "electric_scooter", "is_disabled": 0, "rental_uris": {"android": "https://dc.lft.to/lastmile_qr_scan", "ios": "https://dc.lft.to/lastmile_qr_scan"}, "fusion_lon": 0.0, "bike_id": "ef014f93914527dac2ba7740e1f195e1", "fusion_lat": 0.0, "is_reserved": 0}, {"name": "7bf7501553ce08cb1fc3c1efec3c1e0b", "lon": -76.9806485, "lat": 38.88810133333333, "type": "electric_scooter", "is_disabled": 0, "rental_uris": {"android": "https://dc.lft.to/lastmile_qr_scan", "ios": "https://dc.lft.to/lastmile_qr_scan"}, "fusion_lon": 0.0, "bike_id": "7bf7501553ce08cb1fc3c1efec3c1e0b", "fusion_lat": 0.0, "is_reserved": 0}, {"name": "d59463d4aee02458a87fe390856c5c3d", "lon": -77.055239, "lat": 38.89730816666667, "type": "electric_scooter", "is_disabled": 0, "rental_uris": {"android": "https://dc.lft.to/lastmile_qr_scan", "ios": "https://dc.lft.to/lastmile_qr_scan"}, "fusion_lon": 0.0, "bike_id": "d59463d4aee02458a87fe390856c5c3d", "fusion_lat": 0.0, "is_reserved": 0}, {"name": "c42cdfb6711815ccf0cc1c9d36469166", "lon": -77.04365583333333, "lat": 38.898379, "type": "electric_scooter", "is_disabled": 0, "rental_uris": {"android": "https://dc.lft.to/lastmile_qr_scan", "ios": "https://dc.lft.to/lastmile_qr_scan"}, "fusion_lon": 0.0, "bike_id": "c42cdfb6711815ccf0cc1c9d36469166", "fusion_lat": 0.0, "is_reserved": 0}, {"name": "9632d6702c51ccbec7475f1136940882", "lon": -77.0288415, "lat": 38.994487166666666, "type": "electric_bike", "is_disabled": 0, "rental_uris": {"android": "https://dc.lft.to/lastmile_qr_scan", "ios": "https://dc.lft.to/lastmile_qr_scan"}, "fusion_lon": 0.0, "bike_id": "9632d6702c51ccbec7475f1136940882", "fusion_lat": 0.0, "is_reserved": 0}, {"name": "f06f409e3a662159c5f832491d3eb4c8", "lon": -77.03845566666666, "lat": 38.902686833333334, "type": "electric_scooter", "is_disabled": 0, "rental_uris": {"android": "https://dc.lft.to/lastmile_qr_scan", "ios": "https://dc.lft.to/lastmile_qr_scan"}, "fusion_lon": 0.0, "bike_id": "f06f409e3a662159c5f832491d3eb4c8", "fusion_lat": 0.0, "is_reserved": 0}, {"name": "eb11362d737d2d5b3e497460233e2ad5", "lon": -77.022255, "lat": 38.912550333333336, "type": "electric_scooter", "is_disabled": 0, "rental_uris": {"android": "https://dc.lft.to/lastmile_qr_scan", "ios": "https://dc.lft.to/lastmile_qr_scan"}, "fusion_lon": 0.0, "bike_id": "eb11362d737d2d5b3e497460233e2ad5", "fusion_lat": 0.0, "is_reserved": 0}, {"name": "39adda177fb0b388fa6ce2e7a5181a5d", "lon": -77.0317995, "lat": 38.90118366666667, "type": "electric_scooter", "is_disabled": 0, "rental_uris": {"android": "https://dc.lft.to/lastmile_qr_scan", "ios": "https://dc.lft.to/lastmile_qr_scan"}, "fusion_lon": 0.0, "bike_id": "39adda177fb0b388fa6ce2e7a5181a5d", "fusion_lat": 0.0, "is_reserved": 0}, {"name": "0f1ff635c07cee569d6159a95476a83b", "lon": -77.0451935, "lat": 38.923154, "type": "electric_scooter", "is_disabled": 0, "rental_uris": {"android": "https://dc.lft.to/lastmile_qr_scan", "ios": "https://dc.lft.to/lastmile_qr_scan"}, "fusion_lon": 0.0, "bike_id": "0f1ff635c07cee569d6159a95476a83b", "fusion_lat": 0.0, "is_reserved": 0}, {"name": "cce5c755ee86b912e8fab6956bbf1e61", "lon": -77.00004533333333, "lat": 38.8739425, "type": "electric_scooter", "is_disabled": 0, "rental_uris": {"android": "https://dc.lft.to/lastmile_qr_scan", "ios": "https://dc.lft.to/lastmile_qr_scan"}, "fusion_lon": 0.0, "bike_id": "cce5c755ee86b912e8fab6956bbf1e61", "fusion_lat": 0.0, "is_reserved": 0}, {"name": "8400dad74a72f2c233446769a305ac8b", "lon": -77.03955133333334, "lat": 38.8923985, "type": "electric_scooter", "is_disabled": 0, "rental_uris": {"android": "https://dc.lft.to/lastmile_qr_scan", "ios": "https://dc.lft.to/lastmile_qr_scan"}, "fusion_lon": 0.0, "bike_id": "8400dad74a72f2c233446769a305ac8b", "fusion_lat": 0.0, "is_reserved": 0}, {"name": "d83b8ba15317637414da7702af72ec92", "lon": -76.9424655, "lat": 38.893016333333335, "type": "electric_scooter", "is_disabled": 0, "rental_uris": {"android": "https://dc.lft.to/lastmile_qr_scan", "ios": "https://dc.lft.to/lastmile_qr_scan"}, "fusion_lon": 0.0, "bike_id": "d83b8ba15317637414da7702af72ec92", "fusion_lat": 0.0, "is_reserved": 0}, {"name": "f031ead787b6dc36f3adee19b36f0ddb", "lon": -76.95748033333334, "lat": 38.884199833333334, "type": "electric_scooter", "is_disabled": 0, "rental_uris": {"android": "https://dc.lft.to/lastmile_qr_scan", "ios": "https://dc.lft.to/lastmile_qr_scan"}, "fusion_lon": 0.0, "bike_id": "f031ead787b6dc36f3adee19b36f0ddb", "fusion_lat": 0.0, "is_reserved": 0}, {"name": "3fbfbe6e337a23fd633084db5a8cdfa3", "lon": -77.03303366666667, "lat": 38.927464666666665, "type": "electric_scooter", "is_disabled": 0, "rental_uris": {"android": "https://dc.lft.to/lastmile_qr_scan", "ios": "https://dc.lft.to/lastmile_qr_scan"}, "fusion_lon": 0.0, "bike_id": "3fbfbe6e337a23fd633084db5a8cdfa3", "fusion_lat": 0.0, "is_reserved": 0}, {"name": "970b7eafdcd8648d9bc71fc99b0b9272", "lon": -77.03191183333334, "lat": 38.9091835, "type": "electric_scooter", "is_disabled": 0, "rental_uris": {"android": "https://dc.lft.to/lastmile_qr_scan", "ios": "https://dc.lft.to/lastmile_qr_scan"}, "fusion_lon": 0.0, "bike_id": "970b7eafdcd8648d9bc71fc99b0b9272", "fusion_lat": 0.0, "is_reserved": 0}, {"name": "e4cdf91f667c0f48f8a4f2d9f8de5eb6", "lon": -77.00484666666667, "lat": 38.87464, "type": "electric_scooter", "is_disabled": 0, "rental_uris": {"android": "https://dc.lft.to/lastmile_qr_scan", "ios": "https://dc.lft.to/lastmile_qr_scan"}, "fusion_lon": 0.0, "bike_id": "e4cdf91f667c0f48f8a4f2d9f8de5eb6", "fusion_lat": 0.0, "is_reserved": 0}, {"name": "d0b72a157c66ac74c83b3cad6246e56b", "lon": -77.024112, "lat": 38.8922245, "type": "electric_scooter", "is_disabled": 0, "rental_uris": {"android": "https://dc.lft.to/lastmile_qr_scan", "ios": "https://dc.lft.to/lastmile_qr_scan"}, "fusion_lon": 0.0, "bike_id": "d0b72a157c66ac74c83b3cad6246e56b", "fusion_lat": 0.0, "is_reserved": 0}, {"name": "768bd510f2ec1f8bbe1c2219e6a03764", "lon": -77.0381645, "lat": 38.9305505, "type": "electric_scooter", "is_disabled": 0, "rental_uris": {"android": "https://dc.lft.to/lastmile_qr_scan", "ios": "https://dc.lft.to/lastmile_qr_scan"}, "fusion_lon": 0.0, "bike_id": "768bd510f2ec1f8bbe1c2219e6a03764", "fusion_lat": 0.0, "is_reserved": 0}, {"name": "6f94602b8c3f349150b07a3739996afb", "lon": -77.0273125, "lat": 38.9520015, "type": "electric_scooter", "is_disabled": 0, "rental_uris": {"android": "https://dc.lft.to/lastmile_qr_scan", "ios": "https://dc.lft.to/lastmile_qr_scan"}, "fusion_lon": 0.0, "bike_id": "6f94602b8c3f349150b07a3739996afb", "fusion_lat": 0.0, "is_reserved": 0}, {"name": "5c1212bb425d9420303ef66b742d590a", "lon": -77.02212966666667, "lat": 38.92463583333333, "type": "electric_scooter", "is_disabled": 0, "rental_uris": {"android": "https://dc.lft.to/lastmile_qr_scan", "ios": "https://dc.lft.to/lastmile_qr_scan"}, "fusion_lon": 0.0, "bike_id": "5c1212bb425d9420303ef66b742d590a", "fusion_lat": 0.0, "is_reserved": 0}, {"name": "dc3c79b99c956bbae5e199e0f2c708ac", "lon": -77.0211085, "lat": 38.927508, "type": "electric_scooter", "is_disabled": 0, "rental_uris": {"android": "https://dc.lft.to/lastmile_qr_scan", "ios": "https://dc.lft.to/lastmile_qr_scan"}, "fusion_lon": 0.0, "bike_id": "dc3c79b99c956bbae5e199e0f2c708ac", "fusion_lat": 0.0, "is_reserved": 0}, {"name": "920d87af708d0b0e53c2bb01da9229b0", "lon": -77.07184266666667, "lat": 38.909083333333335, "type": "electric_scooter", "is_disabled": 0, "rental_uris": {"android": "https://dc.lft.to/lastmile_qr_scan", "ios": "https://dc.lft.to/lastmile_qr_scan"}, "fusion_lon": 0.0, "bike_id": "920d87af708d0b0e53c2bb01da9229b0", "fusion_lat": 0.0, "is_reserved": 0}, {"name": "c16f2a2ddbbaf0d7a3b2971775128468", "lon": -77.034553, "lat": 38.90299516666666, "type": "electric_scooter", "is_disabled": 0, "rental_uris": {"android": "https://dc.lft.to/lastmile_qr_scan", "ios": "https://dc.lft.to/lastmile_qr_scan"}, "fusion_lon": 0.0, "bike_id": "c16f2a2ddbbaf0d7a3b2971775128468", "fusion_lat": 0.0, "is_reserved": 0}, {"name": "f255abcbaea500f824f3212d95e978da", "lon": -77.03219, "lat": 38.9170155, "type": "electric_scooter", "is_disabled": 0, "rental_uris": {"android": "https://dc.lft.to/lastmile_qr_scan", "ios": "https://dc.lft.to/lastmile_qr_scan"}, "fusion_lon": 0.0, "bike_id": "f255abcbaea500f824f3212d95e978da", "fusion_lat": 0.0, "is_reserved": 0}, {"name": "22114395d9c692eeaeebdefa65bf3a62", "lon": -77.2340985, "lat": 38.875772, "type": "electric_bike", "is_disabled": 0, "rental_uris": {"android": "https://dc.lft.to/lastmile_qr_scan", "ios": "https://dc.lft.to/lastmile_qr_scan"}, "fusion_lon": 0.0, "bike_id": "22114395d9c692eeaeebdefa65bf3a62", "fusion_lat": 0.0, "is_reserved": 0}, {"name": "fa05e25cb248f31af695597aabf9a81b", "lon": -77.00562166666667, "lat": 38.905396333333336, "type": "electric_scooter", "is_disabled": 0, "rental_uris": {"android": "https://dc.lft.to/lastmile_qr_scan", "ios": "https://dc.lft.to/lastmile_qr_scan"}, "fusion_lon": 0.0, "bike_id": "fa05e25cb248f31af695597aabf9a81b", "fusion_lat": 0.0, "is_reserved": 0}, {"name": "63d5055524a83e4b8ef27dada60b07e7", "lon": -77.0423645, "lat": 38.9108815, "type": "electric_scooter", "is_disabled": 0, "rental_uris": {"android": "https://dc.lft.to/lastmile_qr_scan", "ios": "https://dc.lft.to/lastmile_qr_scan"}, "fusion_lon": 0.0, "bike_id": "63d5055524a83e4b8ef27dada60b07e7", "fusion_lat": 0.0, "is_reserved": 0}, {"name": "4aeb74bab2c4c2bf8b2bf450a1a109b5", "lon": -77.0441685, "lat": 38.90901016666667, "type": "electric_scooter", "is_disabled": 0, "rental_uris": {"android": "https://dc.lft.to/lastmile_qr_scan", "ios": "https://dc.lft.to/lastmile_qr_scan"}, "fusion_lon": 0.0, "bike_id": "4aeb74bab2c4c2bf8b2bf450a1a109b5", "fusion_lat": 0.0, "is_reserved": 0}, {"name": "7cd9412052d43f7bca7d5311a84daf1f", "lon": -76.98506216666667, "lat": 38.8606035, "type": "electric_scooter", "is_disabled": 0, "rental_uris": {"android": "https://dc.lft.to/lastmile_qr_scan", "ios": "https://dc.lft.to/lastmile_qr_scan"}, "fusion_lon": 0.0, "bike_id": "7cd9412052d43f7bca7d5311a84daf1f", "fusion_lat": 0.0, "is_reserved": 0}, {"name": "c6bb7dabbacbe969ca546dfba2712227", "lon": -77.04225216666667, "lat": 38.91101616666667, "type": "electric_scooter", "is_disabled": 0, "rental_uris": {"android": "https://dc.lft.to/lastmile_qr_scan", "ios": "https://dc.lft.to/lastmile_qr_scan"}, "fusion_lon": 0.0, "bike_id": "c6bb7dabbacbe969ca546dfba2712227", "fusion_lat": 0.0, "is_reserved": 0}, {"name": "534c010baa57f51cc146f3d11706368d", "lon": -77.03824766666666, "lat": 38.912564, "type": "electric_scooter", "is_disabled": 0, "rental_uris": {"android": "https://dc.lft.to/lastmile_qr_scan", "ios": "https://dc.lft.to/lastmile_qr_scan"}, "fusion_lon": 0.0, "bike_id": "534c010baa57f51cc146f3d11706368d", "fusion_lat": 0.0, "is_reserved": 0}, {"name": "07ba2bbd5fe0462d0507c5dcb795237e", "lon": -77.0211695, "lat": 38.92358733333333, "type": "electric_scooter", "is_disabled": 0, "rental_uris": {"android": "https://dc.lft.to/lastmile_qr_scan", "ios": "https://dc.lft.to/lastmile_qr_scan"}, "fusion_lon": 0.0, "bike_id": "07ba2bbd5fe0462d0507c5dcb795237e", "fusion_lat": 0.0, "is_reserved": 0}, {"name": "1c1489273097b2460cb620b7bfdd29a1", "lon": -77.01187033333333, "lat": 38.90021, "type": "electric_scooter", "is_disabled": 0, "rental_uris": {"android": "https://dc.lft.to/lastmile_qr_scan", "ios": "https://dc.lft.to/lastmile_qr_scan"}, "fusion_lon": 0.0, "bike_id": "1c1489273097b2460cb620b7bfdd29a1", "fusion_lat": 0.0, "is_reserved": 0}, {"name": "c2aeebeb6b86c807ca6649516ad99d7f", "lon": -76.98355133333334, "lat": 38.914866833333335, "type": "electric_scooter", "is_disabled": 0, "rental_uris": {"android": "https://dc.lft.to/lastmile_qr_scan", "ios": "https://dc.lft.to/lastmile_qr_scan"}, "fusion_lon": 0.0, "bike_id": "c2aeebeb6b86c807ca6649516ad99d7f", "fusion_lat": 0.0, "is_reserved": 0}, {"name": "1f82bc780cba0de2b2963b8695b36143", "lon": -77.03145466666666, "lat": 38.916033666666664, "type": "electric_scooter", "is_disabled": 0, "rental_uris": {"android": "https://dc.lft.to/lastmile_qr_scan", "ios": "https://dc.lft.to/lastmile_qr_scan"}, "fusion_lon": 0.0, "bike_id": "1f82bc780cba0de2b2963b8695b36143", "fusion_lat": 0.0, "is_reserved": 0}, {"name": "dcb1e58c5756d4c69eda0e57d53935a3", "lon": -77.01373066666666, "lat": 38.88701833333333, "type": "electric_scooter", "is_disabled": 0, "rental_uris": {"android": "https://dc.lft.to/lastmile_qr_scan", "ios": "https://dc.lft.to/lastmile_qr_scan"}, "fusion_lon": 0.0, "bike_id": "dcb1e58c5756d4c69eda0e57d53935a3", "fusion_lat": 0.0, "is_reserved": 0}, {"name": "b3891c1c5e616444607271fa3faa9578", "lon": -77.0356195, "lat": 38.926931333333336, "type": "electric_scooter", "is_disabled": 0, "rental_uris": {"android": "https://dc.lft.to/lastmile_qr_scan", "ios": "https://dc.lft.to/lastmile_qr_scan"}, "fusion_lon": 0.0, "bike_id": "b3891c1c5e616444607271fa3faa9578", "fusion_lat": 0.0, "is_reserved": 0}, {"name": "e56debee98eb36f10acd7b756a2ea879", "lon": -76.9872405, "lat": 38.8559215, "type": "electric_scooter", "is_disabled": 0, "rental_uris": {"android": "https://dc.lft.to/lastmile_qr_scan", "ios": "https://dc.lft.to/lastmile_qr_scan"}, "fusion_lon": 0.0, "bike_id": "e56debee98eb36f10acd7b756a2ea879", "fusion_lat": 0.0, "is_reserved": 0}, {"name": "ab5625d86c1f115878c9cbb32678cca5", "lon": -77.02573033333333, "lat": 38.92041833333333, "type": "electric_scooter", "is_disabled": 0, "rental_uris": {"android": "https://dc.lft.to/lastmile_qr_scan", "ios": "https://dc.lft.to/lastmile_qr_scan"}, "fusion_lon": 0.0, "bike_id": "ab5625d86c1f115878c9cbb32678cca5", "fusion_lat": 0.0, "is_reserved": 0}, {"name": "f1c04880a8a0d5989c00d09a9abe8389", "lon": -77.00736616666667, "lat": 38.89845616666667, "type": "electric_scooter", "is_disabled": 0, "rental_uris": {"android": "https://dc.lft.to/lastmile_qr_scan", "ios": "https://dc.lft.to/lastmile_qr_scan"}, "fusion_lon": 0.0, "bike_id": "f1c04880a8a0d5989c00d09a9abe8389", "fusion_lat": 0.0, "is_reserved": 0}, {"name": "64e45242f58e156750889b566aedffc9", "lon": -77.03190616666667, "lat": 38.91634283333333, "type": "electric_scooter", "is_disabled": 0, "rental_uris": {"android": "https://dc.lft.to/lastmile_qr_scan", "ios": "https://dc.lft.to/lastmile_qr_scan"}, "fusion_lon": 0.0, "bike_id": "64e45242f58e156750889b566aedffc9", "fusion_lat": 0.0, "is_reserved": 0}, {"name": "64e0c9aff8d2298e0b330d862d68b3e4", "lon": -77.0322995, "lat": 38.92149283333333, "type": "electric_scooter", "is_disabled": 0, "rental_uris": {"android": "https://dc.lft.to/lastmile_qr_scan", "ios": "https://dc.lft.to/lastmile_qr_scan"}, "fusion_lon": 0.0, "bike_id": "64e0c9aff8d2298e0b330d862d68b3e4", "fusion_lat": 0.0, "is_reserved": 0}, {"name": "977e87e849a27adef868921470e60aa5", "lon": -77.04041183333334, "lat": 38.89930566666666, "type": "electric_scooter", "is_disabled": 0, "rental_uris": {"android": "https://dc.lft.to/lastmile_qr_scan", "ios": "https://dc.lft.to/lastmile_qr_scan"}, "fusion_lon": 0.0, "bike_id": "977e87e849a27adef868921470e60aa5", "fusion_lat": 0.0, "is_reserved": 0}, {"name": "52b22167f810233ac99271b81303e1f9", "lon": -77.03281883333334, "lat": 38.92042, "type": "electric_scooter", "is_disabled": 0, "rental_uris": {"android": "https://dc.lft.to/lastmile_qr_scan", "ios": "https://dc.lft.to/lastmile_qr_scan"}, "fusion_lon": 0.0, "bike_id": "52b22167f810233ac99271b81303e1f9", "fusion_lat": 0.0, "is_reserved": 0}, {"name": "3a1590b644317834bec29ead57ef6662", "lon": -77.02672216666667, "lat": 38.897201, "type": "electric_scooter", "is_disabled": 0, "rental_uris": {"android": "https://dc.lft.to/lastmile_qr_scan", "ios": "https://dc.lft.to/lastmile_qr_scan"}, "fusion_lon": 0.0, "bike_id": "3a1590b644317834bec29ead57ef6662", "fusion_lat": 0.0, "is_reserved": 0}, {"name": "d9c058b36883e6bbfa25a4657756d5a3", "lon": -77.01484516666666, "lat": 38.92671166666667, "type": "electric_scooter", "is_disabled": 0, "rental_uris": {"android": "https://dc.lft.to/lastmile_qr_scan", "ios": "https://dc.lft.to/lastmile_qr_scan"}, "fusion_lon": 0.0, "bike_id": "d9c058b36883e6bbfa25a4657756d5a3", "fusion_lat": 0.0, "is_reserved": 0}, {"name": "8d6f8b4979717a540cbae6d5ae4366c0", "lon": -77.04163, "lat": 38.89835866666667, "type": "electric_scooter", "is_disabled": 0, "rental_uris": {"android": "https://dc.lft.to/lastmile_qr_scan", "ios": "https://dc.lft.to/lastmile_qr_scan"}, "fusion_lon": 0.0, "bike_id": "8d6f8b4979717a540cbae6d5ae4366c0", "fusion_lat": 0.0, "is_reserved": 0}, {"name": "9240f7f947922e41264cf38f6e0604af", "lon": -76.90741566666667, "lat": 38.8961295, "type": "electric_bike", "is_disabled": 0, "rental_uris": {"android": "https://dc.lft.to/lastmile_qr_scan", "ios": "https://dc.lft.to/lastmile_qr_scan"}, "fusion_lon": 0.0, "bike_id": "9240f7f947922e41264cf38f6e0604af", "fusion_lat": 0.0, "is_reserved": 0}, {"name": "9310178050eb9df75877343a82ce5428", "lon": -77.02297066666667, "lat": 38.90861183333333, "type": "electric_scooter", "is_disabled": 0, "rental_uris": {"android": "https://dc.lft.to/lastmile_qr_scan", "ios": "https://dc.lft.to/lastmile_qr_scan"}, "fusion_lon": 0.0, "bike_id": "9310178050eb9df75877343a82ce5428", "fusion_lat": 0.0, "is_reserved": 0}, {"name": "1079cf7b1c7c0393e8805b0fc5e2ec73", "lon": -77.05395383333334, "lat": 38.80447433333333, "type": "electric_bike", "is_disabled": 0, "rental_uris": {"android": "https://dc.lft.to/lastmile_qr_scan", "ios": "https://dc.lft.to/lastmile_qr_scan"}, "fusion_lon": 0.0, "bike_id": "1079cf7b1c7c0393e8805b0fc5e2ec73", "fusion_lat": 0.0, "is_reserved": 0}, {"name": "cb8aa85e20f54e736b081fb68a163a51", "lon": -76.97952783333334, "lat": 38.904304833333335, "type": "electric_scooter", "is_disabled": 0, "rental_uris": {"android": "https://dc.lft.to/lastmile_qr_scan", "ios": "https://dc.lft.to/lastmile_qr_scan"}, "fusion_lon": 0.0, "bike_id": "cb8aa85e20f54e736b081fb68a163a51", "fusion_lat": 0.0, "is_reserved": 0}, {"name": "d76deaacd03906a4712a82a5127a5792", "lon": -77.03445733333334, "lat": 38.9031345, "type": "electric_scooter", "is_disabled": 0, "rental_uris": {"android": "https://dc.lft.to/lastmile_qr_scan", "ios": "https://dc.lft.to/lastmile_qr_scan"}, "fusion_lon": 0.0, "bike_id": "d76deaacd03906a4712a82a5127a5792", "fusion_lat": 0.0, "is_reserved": 0}, {"name": "caefb6cb96d8e9ef0a8f0ec695e57193", "lon": -77.03934966666667, "lat": 38.90833633333333, "type": "electric_scooter", "is_disabled": 0, "rental_uris": {"android": "https://dc.lft.to/lastmile_qr_scan", "ios": "https://dc.lft.to/lastmile_qr_scan"}, "fusion_lon": 0.0, "bike_id": "caefb6cb96d8e9ef0a8f0ec695e57193", "fusion_lat": 0.0, "is_reserved": 0}, {"name": "b10442b51c7cbfdb15a483f1da85d952", "lon": -77.04172416666667, "lat": 38.91391133333333, "type": "electric_scooter", "is_disabled": 0, "rental_uris": {"android": "https://dc.lft.to/lastmile_qr_scan", "ios": "https://dc.lft.to/lastmile_qr_scan"}, "fusion_lon": 0.0, "bike_id": "b10442b51c7cbfdb15a483f1da85d952", "fusion_lat": 0.0, "is_reserved": 0}, {"name": "7cca7325da74ef497e7297c61088da58", "lon": -77.03841883333334, "lat": 38.90273, "type": "electric_scooter", "is_disabled": 0, "rental_uris": {"android": "https://dc.lft.to/lastmile_qr_scan", "ios": "https://dc.lft.to/lastmile_qr_scan"}, "fusion_lon": 0.0, "bike_id": "7cca7325da74ef497e7297c61088da58", "fusion_lat": 0.0, "is_reserved": 0}, {"name": "273e43980e731eb2a1f95eb5c2392c91", "lon": -77.031562, "lat": 38.895331666666664, "type": "electric_scooter", "is_disabled": 0, "rental_uris": {"android": "https://dc.lft.to/lastmile_qr_scan", "ios": "https://dc.lft.to/lastmile_qr_scan"}, "fusion_lon": 0.0, "bike_id": "273e43980e731eb2a1f95eb5c2392c91", "fusion_lat": 0.0, "is_reserved": 0}, {"name": "4506341e27074c42559533324a3831b4", "lon": -77.04186083333333, "lat": 38.90132216666667, "type": "electric_bike", "is_disabled": 0, "rental_uris": {"android": "https://dc.lft.to/lastmile_qr_scan", "ios": "https://dc.lft.to/lastmile_qr_scan"}, "fusion_lon": 0.0, "bike_id": "4506341e27074c42559533324a3831b4", "fusion_lat": 0.0, "is_reserved": 0}, {"name": "537d29c8f27414d196b344783c9649d0", "lon": -77.04151, "lat": 38.9051065, "type": "electric_scooter", "is_disabled": 0, "rental_uris": {"android": "https://dc.lft.to/lastmile_qr_scan", "ios": "https://dc.lft.to/lastmile_qr_scan"}, "fusion_lon": 0.0, "bike_id": "537d29c8f27414d196b344783c9649d0", "fusion_lat": 0.0, "is_reserved": 0}, {"name": "6f75473e149970a35cd66ee680a19574", "lon": -76.9733, "lat": 38.904070833333336, "type": "electric_scooter", "is_disabled": 0, "rental_uris": {"android": "https://dc.lft.to/lastmile_qr_scan", "ios": "https://dc.lft.to/lastmile_qr_scan"}, "fusion_lon": 0.0, "bike_id": "6f75473e149970a35cd66ee680a19574", "fusion_lat": 0.0, "is_reserved": 0}, {"name": "7c9c192dba162cb3130affbe709a67f4", "lon": -77.046977, "lat": 38.9215675, "type": "electric_scooter", "is_disabled": 0, "rental_uris": {"android": "https://dc.lft.to/lastmile_qr_scan", "ios": "https://dc.lft.to/lastmile_qr_scan"}, "fusion_lon": 0.0, "bike_id": "7c9c192dba162cb3130affbe709a67f4", "fusion_lat": 0.0, "is_reserved": 0}, {"name": "aeb0d72a378574ad8a99dc2573c3d99f", "lon": -77.037978, "lat": 38.9206675, "type": "electric_scooter", "is_disabled": 0, "rental_uris": {"android": "https://dc.lft.to/lastmile_qr_scan", "ios": "https://dc.lft.to/lastmile_qr_scan"}, "fusion_lon": 0.0, "bike_id": "aeb0d72a378574ad8a99dc2573c3d99f", "fusion_lat": 0.0, "is_reserved": 0}, {"name": "74c5349794dadca7036a8714b0036e31", "lon": -77.02580033333334, "lat": 38.887293, "type": "electric_scooter", "is_disabled": 0, "rental_uris": {"android": "https://dc.lft.to/lastmile_qr_scan", "ios": "https://dc.lft.to/lastmile_qr_scan"}, "fusion_lon": 0.0, "bike_id": "74c5349794dadca7036a8714b0036e31", "fusion_lat": 0.0, "is_reserved": 0}, {"name": "b1131ad7ea193103cb1cfcdbdd36e78e", "lon": -77.003053, "lat": 38.920275, "type": "electric_scooter", "is_disabled": 0, "rental_uris": {"android": "https://dc.lft.to/lastmile_qr_scan", "ios": "https://dc.lft.to/lastmile_qr_scan"}, "fusion_lon": 0.0, "bike_id": "b1131ad7ea193103cb1cfcdbdd36e78e", "fusion_lat": 0.0, "is_reserved": 0}, {"name": "c4c789bf88cbbb4a234bf7541de8aeb1", "lon": -76.98690966666666, "lat": 38.867180833333336, "type": "electric_scooter", "is_disabled": 0, "rental_uris": {"android": "https://dc.lft.to/lastmile_qr_scan", "ios": "https://dc.lft.to/lastmile_qr_scan"}, "fusion_lon": 0.0, "bike_id": "c4c789bf88cbbb4a234bf7541de8aeb1", "fusion_lat": 0.0, "is_reserved": 0}, {"name": "c60c574553a75bcb8fce256e1c6eb0bd", "lon": -77.04451483333334, "lat": 38.902337833333334, "type": "electric_scooter", "is_disabled": 0, "rental_uris": {"android": "https://dc.lft.to/lastmile_qr_scan", "ios": "https://dc.lft.to/lastmile_qr_scan"}, "fusion_lon": 0.0, "bike_id": "c60c574553a75bcb8fce256e1c6eb0bd", "fusion_lat": 0.0, "is_reserved": 0}, {"name": "56510d504a42f558340f7ec5aacd38fe", "lon": -77.14053483333333, "lat": 38.987643166666665, "type": "electric_bike", "is_disabled": 0, "rental_uris": {"android": "https://dc.lft.to/lastmile_qr_scan", "ios": "https://dc.lft.to/lastmile_qr_scan"}, "fusion_lon": 0.0, "bike_id": "56510d504a42f558340f7ec5aacd38fe", "fusion_lat": 0.0, "is_reserved": 0}, {"name": "46bb6d8cc59e2ecae5632cbaad194371", "lon": -77.05131066666667, "lat": 38.923592666666664, "type": "electric_scooter", "is_disabled": 0, "rental_uris": {"android": "https://dc.lft.to/lastmile_qr_scan", "ios": "https://dc.lft.to/lastmile_qr_scan"}, "fusion_lon": 0.0, "bike_id": "46bb6d8cc59e2ecae5632cbaad194371", "fusion_lat": 0.0, "is_reserved": 0}, {"name": "49a76a7dd444ee2a8a2d576b659a4a40", "lon": -77.00711066666666, "lat": 38.8848455, "type": "electric_scooter", "is_disabled": 0, "rental_uris": {"android": "https://dc.lft.to/lastmile_qr_scan", "ios": "https://dc.lft.to/lastmile_qr_scan"}, "fusion_lon": 0.0, "bike_id": "49a76a7dd444ee2a8a2d576b659a4a40", "fusion_lat": 0.0, "is_reserved": 0}, {"name": "d6b3a571e94d721942a639899f9f42fc", "lon": -77.0059205, "lat": 38.8757545, "type": "electric_scooter", "is_disabled": 0, "rental_uris": {"android": "https://dc.lft.to/lastmile_qr_scan", "ios": "https://dc.lft.to/lastmile_qr_scan"}, "fusion_lon": 0.0, "bike_id": "d6b3a571e94d721942a639899f9f42fc", "fusion_lat": 0.0, "is_reserved": 0}, {"name": "0af68a2647d535612c9b2c9b41d78f84", "lon": -77.04336166666667, "lat": 38.908723333333334, "type": "electric_scooter", "is_disabled": 0, "rental_uris": {"android": "https://dc.lft.to/lastmile_qr_scan", "ios": "https://dc.lft.to/lastmile_qr_scan"}, "fusion_lon": 0.0, "bike_id": "0af68a2647d535612c9b2c9b41d78f84", "fusion_lat": 0.0, "is_reserved": 0},