{"data": {"bikes": [{"bike_id": "9b1bd295ce30e4d9f079916ff3f9ee25", "type": "electric_scooter", "is_disabled": 0, "lat": 38.93472883333333, "rental_uris": {"ios": "https://dc.lft.to/lastmile_qr_scan", "android": "https://dc.lft.to/lastmile_qr_scan"}, "is_reserved": 0, "fusion_lon": 0.0, "fusion_lat": 0.0, "lon": -77.07284183333333, "name": "9b1bd295ce30e4d9f079916ff3f9ee25"}, {"bike_id": "ddf364a8a32b60dd41f93b5f4572b354", "type": "electric_bike", "is_disabled": 0, "lat": 38.90866366666667, "rental_uris": {"ios": "https://dc.lft.to/lastmile_qr_scan", "android": "https://dc.lft.to/lastmile_qr_scan"}, "is_reserved": 0, "fusion_lon": 0.0, "fusion_lat": 0.0, "lon": -76.9913235, "name": "ddf364a8a32b60dd41f93b5f4572b354"}, {"bike_id": "945fd2970bbc5e7d55a04b1a5f2567b9", "type": "electric_scooter", "is_disabled": 0, "lat": 38.924954666666665, "rental_uris": {"ios": "https://dc.lft.to/lastmile_qr_scan", "android": "https://dc.lft.to/lastmile_qr_scan"}, "is_reserved": 0, "fusion_lon": 0.0, "fusion_lat": 0.0, "lon": -77.0380715, "name": "945fd2970bbc5e7d55a04b1a5f2567b9"}, {"bike_id": "783e2c9e304226ebe4a1dd06a0b8d46c", "type": "electric_scooter", "is_disabled": 0, "lat": 38.898429, "rental_uris": {"ios": "https://dc.lft.to/lastmile_qr_scan", "android": "https://dc.lft.to/lastmile_qr_scan"}, "is_reserved": 0, "fusion_lon": 0.0, "fusion_lat": 0.0, "lon": -77.022195, "name": "783e2c9e304226ebe4a1dd06a0b8d46c"}, {"bike_id": "96bc65091776a4f3e5dbaf55088ad48f", "type": "electric_scooter", "is_disabled": 0, "lat": 38.9110845, "rental_uris": {"ios": "https://dc.lft.to/lastmile_qr_scan", "android": "https://dc.lft.to/lastmile_qr_scan"}, "is_reserved": 0, "fusion_lon": 0.0, "fusion_lat": 0.0, "lon": -77.03834216666667, "name": "96bc65091776a4f3e5dbaf55088ad48f"}, {"bike_id": "27dc42ef4d5f3bbe084b691ff343a20f", "type": "electric_scooter", "is_disabled": 0, "lat": 38.922375, "rental_uris": {"ios": "https://dc.lft.to/lastmile_qr_scan", "android": "https://dc.lft.to/lastmile_qr_scan"}, "is_reserved": 0, "fusion_lon": 0.0, "fusion_lat": 0.0, "lon": -77.07314466666666, "name": "27dc42ef4d5f3bbe084b691ff343a20f"}, {"bike_id": "ccf59c4af80e69a491c68a7abbea0241", "type": "electric_scooter", "is_disabled": 0, "lat": 38.9110515, "rental_uris": {"ios": "https://dc.lft.to/lastmile_qr_scan", "android": "https://dc.lft.to/lastmile_qr_scan"}, "is_reserved": 0, "fusion_lon": 0.0, "fusion_lat": 0.0, "lon": -77.0022985, "name": "ccf59c4af80e69a491c68a7abbea0241"}, {"bike_id": "230932dd571509adc912391b9bb00ce7", "type": "electric_scooter", "is_disabled": 0, "lat": 38.8764855, "rental_uris": {"ios": "https://dc.lft.to/lastmile_qr_scan", "android": "https://dc.lft.to/lastmile_qr_scan"}, "is_reserved": 0, "fusion_lon": 0.0, "fusion_lat": 0.0, "lon": -76.965082, "name": "230932dd571509adc912391b9bb00ce7"}, {"bike_id": "2e2e954511126579d91272aed820fc40", "type": "electric_scooter", "is_disabled": 0, "lat": 38.9120315, "rental_uris": {"ios": "https://dc.lft.to/lastmile_qr_scan", "android": "https://dc.lft.to/lastmile_qr_scan"}, "is_reserved": 0, "fusion_lon": 0.0, "fusion_lat": 0.0, "lon": -77.01900016666667, "name": "2e2e954511126579d91272aed820fc40"}, {"bike_id": "2fa57645d2869c79d4017c74fe68d017", "type": "electric_scooter", "is_disabled": 0, "lat": 38.924843, "rental_uris": {"ios": "https://dc.lft.to/lastmile_qr_scan", "android": "https://dc.lft.to/lastmile_qr_scan"}, "is_reserved": 0, "fusion_lon": 0.0, "fusion_lat": 0.0, "lon": -77.0272375, "name": "2fa57645d2869c79d4017c74fe68d017"}, {"bike_id": "ea04e174c0a4ee897209a008d3a30e8c", "type": "electric_scooter", "is_disabled": 0, "lat": 38.89898733333333, "rental_uris": {"ios": "https://dc.lft.to/lastmile_qr_scan", "android": "https://dc.lft.to/lastmile_qr_scan"}, "is_reserved": 0, "fusion_lon": 0.0, "fusion_lat": 0.0, "lon": -77.02727616666667, "name": "ea04e174c0a4ee897209a008d3a30e8c"}, {"bike_id": "79b69c41540b18529c7c7e41524079eb", "type": "electric_scooter", "is_disabled": 0, "lat": 38.921331, "rental_uris": {"ios": "https://dc.lft.to/lastmile_qr_scan", "android": "https://dc.lft.to/lastmile_qr_scan"}, "is_reserved": 0, "fusion_lon": 0.0, "fusion_lat": 0.0, "lon": -77.041309, "name": "79b69c41540b18529c7c7e41524079eb"}, {"bike_id": "d85e2b36b8f1f6d99fa26539c098ce76", "type": "electric_scooter", "is_disabled": 0, "lat": 38.96138416666667, "rental_uris": {"ios": "https://dc.lft.to/lastmile_qr_scan", "android": "https://dc.lft.to/lastmile_qr_scan"}, "is_reserved": 0, "fusion_lon": 0.0, "fusion_lat": 0.0, "lon": -77.029905, "name": "d85e2b36b8f1f6d99fa26539c098ce76"}, {"bike_id": "5ab61c05d102d6168fcf6cf4b6d2a513", "type": "electric_scooter", "is_disabled": 0, "lat": 38.900538833333336, "rental_uris": {"ios": "https://dc.lft.to/lastmile_qr_scan", "android": "https://dc.lft.to/lastmile_qr_scan"}, "is_reserved": 0, "fusion_lon": 0.0, "fusion_lat": 0.0, "lon": -77.036674, "name": "5ab61c05d102d6168fcf6cf4b6d2a513"}, {"bike_id": "e39e031914ed13339177add3bb9f5474", "type": "electric_scooter", "is_disabled": 0, "lat": 38.89228933333333, "rental_uris": {"ios": "https://dc.lft.to/lastmile_qr_scan", "android": "https://dc.lft.to/lastmile_qr_scan"}, "is_reserved": 0, "fusion_lon": 0.0, "fusion_lat": 0.0, "lon": -77.049989, "name": "e39e031914ed13339177add3bb9f5474"}, {"bike_id": "5066b25df749c23fa62b591beed8c51b", "type": "electric_bike", "is_disabled": 0, "lat": 38.92899283333333, "rental_uris": {"ios": "https://dc.lft.to/lastmile_qr_scan", "android": "https://dc.lft.to/lastmile_qr_scan"}, "is_reserved": 0, "fusion_lon": 0.0, "fusion_lat": 0.0, "lon": -77.03261983333333, "name": "5066b25df749c23fa62b591beed8c51b"}, {"bike_id": "cc87f53f3877ba4a019cefde345322db", "type": "electric_scooter", "is_disabled": 0, "lat": 38.9221405, "rental_uris": {"ios": "https://dc.lft.to/lastmile_qr_scan", "android": "https://dc.lft.to/lastmile_qr_scan"}, "is_reserved": 0, "fusion_lon": 0.0, "fusion_lat": 0.0, "lon": -77.03463383333333, "name": "cc87f53f3877ba4a019cefde345322db"}, {"bike_id": "04829264beb321a3b6c9eaf4c5b367ba", "type": "electric_scooter", "is_disabled": 0, "lat": 38.902583166666666, "rental_uris": {"ios": "https://dc.lft.to/lastmile_qr_scan", "android": "https://dc.lft.to/lastmile_qr_scan"}, "is_reserved": 0, "fusion_lon": 0.0, "fusion_lat": 0.0, "lon": -76.975501, "name": "04829264beb321a3b6c9eaf4c5b367ba"}, {"bike_id": "6e48f920c9a8831cbd45bb137e406b65", "type": "electric_scooter", "is_disabled": 0, "lat": 38.904900833333336, "rental_uris": {"ios": "https://dc.lft.to/lastmile_qr_scan", "android": "https://dc.lft.to/lastmile_qr_scan"}, "is_reserved": 0, "fusion_lon": 0.0, "fusion_lat": 0.0, "lon": -76.98689733333333, "name": "6e48f920c9a8831cbd45bb137e406b65"}, {"bike_id": "ce2e45ca8001d1284b3ba205bd9eb09a", "type": "electric_bike", "is_disabled": 0, "lat": 39.039888166666664, "rental_uris": {"ios": "https://dc.lft.to/lastmile_qr_scan", "android": "https://dc.lft.to/lastmile_qr_scan"}, "is_reserved": 0, "fusion_lon": 0.0, "fusion_lat": 0.0, "lon": -76.99931283333333, "name": "ce2e45ca8001d1284b3ba205bd9eb09a"}, {"bike_id": "9aabdfda99bea91e261ba041c6ad1026", "type": "electric_scooter", "is_disabled": 0, "lat": 38.9004215, "rental_uris": {"ios": "https://dc.lft.to/lastmile_qr_scan", "android": "https://dc.lft.to/lastmile_qr_scan"}, "is_reserved": 0, "fusion_lon": 0.0, "fusion_lat": 0.0, "lon": -77.02406366666666, "name": "9aabdfda99bea91e261ba041c6ad1026"}, {"bike_id": "deda5f87568d6e5395205b060dafc7f2", "type": "electric_scooter", "is_disabled": 0, "lat": 38.905161166666666, "rental_uris": {"ios": "https://dc.lft.to/lastmile_qr_scan", "android": "https://dc.lft.to/lastmile_qr_scan"}, "is_reserved": 0, "fusion_lon": 0.0, "fusion_lat": 0.0, "lon": -77.04788833333333, "name": "deda5f87568d6e5395205b060dafc7f2"}, {"bike_id": "36143187498990c3eaf61729d73120ab", "type": "electric_scooter", "is_disabled": 0, "lat": 38.916486166666665, "rental_uris": {"ios": "https://dc.lft.to/lastmile_qr_scan", "android": "https://dc.lft.to/lastmile_qr_scan"}, "is_reserved": 0, "fusion_lon": 0.0, "fusion_lat": 0.0, "lon": -77.04631266666667, "name": "36143187498990c3eaf61729d73120ab"}, {"bike_id": "aa3a6ed6b767ced8a7d93ac21902bcdf", "type": "electric_scooter", "is_disabled": 0, "lat": 38.92477866666667, "rental_uris": {"ios": "https://dc.lft.to/lastmile_qr_scan", "android": "https://dc.lft.to/lastmile_qr_scan"}, "is_reserved": 0, "fusion_lon": 0.0, "fusion_lat": 0.0, "lon": -77.02837633333333, "name": "aa3a6ed6b767ced8a7d93ac21902bcdf"}, {"bike_id": "060980eb0a33d2995df750bd0810c35c", "type": "electric_scooter", "is_disabled": 0, "lat": 38.87863766666667, "rental_uris": {"ios": "https://dc.lft.to/lastmile_qr_scan", "android": "https://dc.lft.to/lastmile_qr_scan"}, "is_reserved": 0, "fusion_lon": 0.0, "fusion_lat": 0.0, "lon": -76.96982616666666, "name": "060980eb0a33d2995df750bd0810c35c"}, {"bike_id": "74e828453ca2ade1d3aaaf461708ed84", "type": "electric_scooter", "is_disabled": 0, "lat": 38.87419233333333, "rental_uris": {"ios": "https://dc.lft.to/lastmile_qr_scan", "android": "https://dc.lft.to/lastmile_qr_scan"}, "is_reserved": 0, "fusion_lon": 0.0, "fusion_lat": 0.0, "lon": -76.96911966666667, "name": "74e828453ca2ade1d3aaaf461708ed84"}, {"bike_id": "df4659f9d72400ae2f266f20044335f2", "type": "electric_scooter", "is_disabled": 0, "lat": 38.90860883333333, "rental_uris": {"ios": "https://dc.lft.to/lastmile_qr_scan", "android": "https://dc.lft.to/lastmile_qr_scan"}, "is_reserved": 0, "fusion_lon": 0.0, "fusion_lat": 0.0, "lon": -76.99945383333333, "name": "df4659f9d72400ae2f266f20044335f2"}, {"bike_id": "5a9c3f45c64d66df71a2f46d27fd0fc5", "type": "electric_scooter", "is_disabled": 0, "lat": 38.91403966666667, "rental_uris": {"ios": "https://dc.lft.to/lastmile_qr_scan", "android": "https://dc.lft.to/lastmile_qr_scan"}, "is_reserved": 0, "fusion_lon": 0.0, "fusion_lat": 0.0, "lon": -77.03267616666666, "name": "5a9c3f45c64d66df71a2f46d27fd0fc5"}, {"bike_id": "e918e52a66e4678179c11e3ab99c3029", "type": "electric_scooter", "is_disabled": 0, "lat": 38.91565833333333, "rental_uris": {"ios": "https://dc.lft.to/lastmile_qr_scan", "android": "https://dc.lft.to/lastmile_qr_scan"}, "is_reserved": 0, "fusion_lon": 0.0, "fusion_lat": 0.0, "lon": -77.0206725, "name": "e918e52a66e4678179c11e3ab99c3029"}, {"bike_id": "b50142700b84b2662baee40511f74d45", "type": "electric_scooter", "is_disabled": 0, "lat": 38.89608466666667, "rental_uris": {"ios": "https://dc.lft.to/lastmile_qr_scan", "android": "https://dc.lft.to/lastmile_qr_scan"}, "is_reserved": 0, "fusion_lon": 0.0, "fusion_lat": 0.0, "lon": -77.02415866666666, "name": "b50142700b84b2662baee40511f74d45"}, {"bike_id": "4f4adbe3bba815051b83be665629b867", "type": "electric_scooter", "is_disabled": 0, "lat": 38.95471883333333, "rental_uris": {"ios": "https://dc.lft.to/lastmile_qr_scan", "android": "https://dc.lft.to/lastmile_qr_scan"}, "is_reserved": 0, "fusion_lon": 0.0, "fusion_lat": 0.0, "lon": -77.08222183333334, "name": "4f4adbe3bba815051b83be665629b867"}, {"bike_id": "718444d05d92602ece06aebd083cad69", "type": "electric_scooter", "is_disabled": 0, "lat": 38.866873166666664, "rental_uris": {"ios": "https://dc.lft.to/lastmile_qr_scan", "android": "https://dc.lft.to/lastmile_qr_scan"}, "is_reserved": 0, "fusion_lon": 0.0, "fusion_lat": 0.0, "lon": -76.985879, "name": "718444d05d92602ece06aebd083cad69"}, {"bike_id": "ad8690dab67dbafc4853213b651462e8", "type": "electric_scooter", "is_disabled": 0, "lat": 38.942704, "rental_uris": {"ios": "https://dc.lft.to/lastmile_qr_scan", "android": "https://dc.lft.to/lastmile_qr_scan"}, "is_reserved": 0, "fusion_lon": 0.0, "fusion_lat": 0.0, "lon": -77.03258616666666, "name": "ad8690dab67dbafc4853213b651462e8"}, {"bike_id": "f9c3b57d1cbc27a31212ec60814bd409", "type": "electric_scooter", "is_disabled": 0, "lat": 38.853166333333334, "rental_uris": {"ios": "https://dc.lft.to/lastmile_qr_scan", "android": "https://dc.lft.to/lastmile_qr_scan"}, "is_reserved": 0, "fusion_lon": 0.0, "fusion_lat": 0.0, "lon": -76.98009616666667, "name": "f9c3b57d1cbc27a31212ec60814bd409"}, {"bike_id": "a2a5d85746387dd38bed70b7032f8a84", "type": "electric_scooter", "is_disabled": 0, "lat": 38.91397216666667, "rental_uris": {"ios": "https://dc.lft.to/lastmile_qr_scan", "android": "https://dc.lft.to/lastmile_qr_scan"}, "is_reserved": 0, "fusion_lon": 0.0, "fusion_lat": 0.0, "lon": -77.0413655, "name": "a2a5d85746387dd38bed70b7032f8a84"}, {"bike_id": "ef11bcc36146a6433a3deccbcfdfe981", "type": "electric_scooter", "is_disabled": 0, "lat": 38.89000683333333, "rental_uris": {"ios": "https://dc.lft.to/lastmile_qr_scan", "android": "https://dc.lft.to/lastmile_qr_scan"}, "is_reserved": 0, "fusion_lon": 0.0, "fusion_lat": 0.0, "lon": -76.937496, "name": "ef11bcc36146a6433a3deccbcfdfe981"}, {"bike_id": "90909aa59bf75239240a450ad7a37271", "type": "electric_scooter", "is_disabled": 0, "lat": 38.922869166666665, "rental_uris": {"ios": "https://dc.lft.to/lastmile_qr_scan", "android": "https://dc.lft.to/lastmile_qr_scan"}, "is_reserved": 0, "fusion_lon": 0.0, "fusion_lat": 0.0, "lon": -77.042285, "name": "90909aa59bf75239240a450ad7a37271"}, {"bike_id": "07c5b08642faac792556af0827a9f113", "type": "electric_bike", "is_disabled": 0, "lat": 38.859351333333336, "rental_uris": {"ios": "https://dc.lft.to/lastmile_qr_scan", "android": "https://dc.lft.to/lastmile_qr_scan"}, "is_reserved": 0, "fusion_lon": 0.0, "fusion_lat": 0.0, "lon": -77.118334, "name": "07c5b08642faac792556af0827a9f113"}, {"bike_id": "0b62873e703c8815a7e1ae9b31326c61", "type": "electric_bike", "is_disabled": 0, "lat": 38.823672, "rental_uris": {"ios": "https://dc.lft.to/lastmile_qr_scan", "android": "https://dc.lft.to/lastmile_qr_scan"}, "is_reserved": 0, "fusion_lon": 0.0, "fusion_lat": 0.0, "lon": -77.0021875, "name": "0b62873e703c8815a7e1ae9b31326c61"}, {"bike_id": "d6177f1ae99fac0663ff8337450f8134", "type": "electric_scooter", "is_disabled": 0, "lat": 38.907879666666666, "rental_uris": {"ios": "https://dc.lft.to/lastmile_qr_scan", "android": "https://dc.lft.to/lastmile_qr_scan"}, "is_reserved": 0, "fusion_lon": 0.0, "fusion_lat": 0.0, "lon": -77.0347245, "name": "d6177f1ae99fac0663ff8337450f8134"}, {"bike_id": "9738240dee4752b3fd3fe46148b4e6be", "type": "electric_scooter", "is_disabled": 0, "lat": 38.9149815, "rental_uris": {"ios": "https://dc.lft.to/lastmile_qr_scan", "android": "https://dc.lft.to/lastmile_qr_scan"}, "is_reserved": 0, "fusion_lon": 0.0, "fusion_lat": 0.0, "lon": -77.03212083333334, "name": "9738240dee4752b3fd3fe46148b4e6be"}, {"bike_id": "1c8664a9d698eec3ba101929c72a2e87", "type": "electric_bike", "is_disabled": 0, "lat": 38.89812833333333, "rental_uris": {"ios": "https://dc.lft.to/lastmile_qr_scan", "android": "https://dc.lft.to/lastmile_qr_scan"}, "is_reserved": 0, "fusion_lon": 0.0, "fusion_lat": 0.0, "lon": -76.9908465, "name": "1c8664a9d698eec3ba101929c72a2e87"}, {"bike_id": "87206714ab6adcf27534cd2bc1f81728", "type": "electric_scooter", "is_disabled": 0, "lat": 38.905825166666666, "rental_uris": {"ios": "https://dc.lft.to/lastmile_qr_scan", "android": "https://dc.lft.to/lastmile_qr_scan"}, "is_reserved": 0, "fusion_lon": 0.0, "fusion_lat": 0.0, "lon": -77.06808616666666, "name": "87206714ab6adcf27534cd2bc1f81728"}, {"bike_id": "1252e91452b1c4453b136974f8aa6753", "type": "electric_scooter", "is_disabled": 0, "lat": 38.947914, "rental_uris": {"ios": "https://dc.lft.to/lastmile_qr_scan", "android": "https://dc.lft.to/lastmile_qr_scan"}, "is_reserved": 0, "fusion_lon": 0.0, "fusion_lat": 0.0, "lon": -77.02135766666666, "name": "1252e91452b1c4453b136974f8aa6753"}, {"bike_id": "b24c5101a79095e8c7ead242a8bf74e4", "type": "electric_scooter", "is_disabled": 0, "lat": 38.9137085, "rental_uris": {"ios": "https://dc.lft.to/lastmile_qr_scan", "android": "https://dc.lft.to/lastmile_qr_scan"}, "is_reserved": 0, "fusion_lon": 0.0, "fusion_lat": 0.0, "lon": -77.07268616666667, "name": "b24c5101a79095e8c7ead242a8bf74e4"}, {"bike_id": "aaf0ed64c7aec781c173134146cc4601", "type": "electric_scooter", "is_disabled": 0, "lat": 38.869773, "rental_uris": {"ios": "https://dc.lft.to/lastmile_qr_scan", "android": "https://dc.lft.to/lastmile_qr_scan"}, "is_reserved": 0, "fusion_lon": 0.0, "fusion_lat": 0.0, "lon": -76.98180016666667, "name": "aaf0ed64c7aec781c173134146cc4601"}, {"bike_id": "3da66c9ae588c101cdddf83d7a668ada", "type": "electric_bike", "is_disabled": 0, "lat": 38.910136333333334, "rental_uris": {"ios": "https://dc.lft.to/lastmile_qr_scan", "android": "https://dc.lft.to/lastmile_qr_scan"}, "is_reserved": 0, "fusion_lon": 0.0, "fusion_lat": 0.0, "lon": -77.22806916666667, "name": "3da66c9ae588c101cdddf83d7a668ada"}, {"bike_id": "9780afed7fee1da4001b86c13b6cd9ba", "type": "electric_scooter", "is_disabled": 0, "lat": 38.935217333333334, "rental_uris": {"ios": "https://dc.lft.to/lastmile_qr_scan", "android": "https://dc.lft.to/lastmile_qr_scan"}, "is_reserved": 0, "fusion_lon": 0.0, "fusion_lat": 0.0, "lon": -77.0236355, "name": "9780afed7fee1da4001b86c13b6cd9ba"}, {"bike_id": "2accbfe6081b83f6877905b8884093d8", "type": "electric_scooter", "is_disabled": 0, "lat": 38.92821466666667, "rental_uris": {"ios": "https://dc.lft.to/lastmile_qr_scan", "android": "https://dc.lft.to/lastmile_qr_scan"}, "is_reserved": 0, "fusion_lon": 0.0, "fusion_lat": 0.0, "lon": -77.006044, "name": "2accbfe6081b83f6877905b8884093d8"}, {"bike_id": "0232f017935c9d6b92434234e2fd0f58", "type": "electric_bike", "is_disabled": 0, "lat": 38.913679, "rental_uris": {"ios": "https://dc.lft.to/lastmile_qr_scan", "android": "https://dc.lft.to/lastmile_qr_scan"}, "is_reserved": 0, "fusion_lon": 0.0, "fusion_lat": 0.0, "lon": -76.98552316666667, "name": "0232f017935c9d6b92434234e2fd0f58"}, {"bike_id": "feeb78a71f4674a4159952098f0d0a39", "type": "electric_scooter", "is_disabled": 0, "lat": 38.905703, "rental_uris": {"ios": "https://dc.lft.to/lastmile_qr_scan", "android": "https://dc.lft.to/lastmile_qr_scan"}, "is_reserved": 0, "fusion_lon": 0.0, "fusion_lat": 0.0, "lon": -77.03819683333333, "name": "feeb78a71f4674a4159952098f0d0a39"}, {"bike_id": "c7dcb73e07ac98baa39bcbda7691e95e", "type": "electric_scooter", "is_disabled": 0, "lat": 38.90515383333333, "rental_uris": {"ios": "https://dc.lft.to/lastmile_qr_scan", "android": "https://dc.lft.to/lastmile_qr_scan"}, "is_reserved": 0, "fusion_lon": 0.0, "fusion_lat": 0.0, "lon": -77.04178733333333, "name": "c7dcb73e07ac98baa39bcbda7691e95e"}, {"bike_id": "e906517345648db991459aeefccdeba8", "type": "electric_bike", "is_disabled": 0, "lat": 38.88057166666667, "rental_uris": {"ios": "https://dc.lft.to/lastmile_qr_scan", "android": "https://dc.lft.to/lastmile_qr_scan"}, "is_reserved": 0, "fusion_lon": 0.0, "fusion_lat": 0.0, "lon": -76.9624505, "name": "e906517345648db991459aeefccdeba8"}, {"bike_id": "8c9d40b10e912de1c0bda97b572157b8", "type": "electric_scooter", "is_disabled": 0, "lat": 38.922893, "rental_uris": {"ios": "https://dc.lft.to/lastmile_qr_scan", "android": "https://dc.lft.to/lastmile_qr_scan"}, "is_reserved": 0, "fusion_lon": 0.0, "fusion_lat": 0.0, "lon": -77.0426735, "name": "8c9d40b10e912de1c0bda97b572157b8"}, {"bike_id": "88bfc9d16bbb9eeb3d3d18b35bad7271", "type": "electric_scooter", "is_disabled": 0, "lat": 38.956487333333335, "rental_uris": {"ios": "https://dc.lft.to/lastmile_qr_scan", "android": "https://dc.lft.to/lastmile_qr_scan"}, "is_reserved": 0, "fusion_lon": 0.0, "fusion_lat": 0.0, "lon": -77.01318533333334, "name": "88bfc9d16bbb9eeb3d3d18b35bad7271"}, {"bike_id": "8ef5eca3584a3e65a09b4a928226c5e7", "type": "electric_scooter", "is_disabled": 0, "lat": 38.928526833333336, "rental_uris": {"ios": "https://dc.lft.to/lastmile_qr_scan", "android": "https://dc.lft.to/lastmile_qr_scan"}, "is_reserved": 0, "fusion_lon": 0.0, "fusion_lat": 0.0, "lon": -77.01949883333333, "name": "8ef5eca3584a3e65a09b4a928226c5e7"}, {"bike_id": "747e5432806d8c3136cb5f608c48f0b5", "type": "electric_scooter", "is_disabled": 0, "lat": 38.91414816666666, "rental_uris": {"ios": "https://dc.lft.to/lastmile_qr_scan", "android": "https://dc.lft.to/lastmile_qr_scan"}, "is_reserved": 0, "fusion_lon": 0.0, "fusion_lat": 0.0, "lon": -77.04812, "name": "747e5432806d8c3136cb5f608c48f0b5"}, {"bike_id": "8b1760c5784f79e3ed2d62df923cb49f", "type": "electric_scooter", "is_disabled": 0, "lat": 38.903958833333334, "rental_uris": {"ios": "https://dc.lft.to/lastmile_qr_scan", "android": "https://dc.lft.to/lastmile_qr_scan"}, "is_reserved": 0, "fusion_lon": 0.0, "fusion_lat": 0.0, "lon": -77.042074, "name": "8b1760c5784f79e3ed2d62df923cb49f"}, {"bike_id": "fa76e4aa7de38b7520a5db0903d3587b", "type": "electric_scooter", "is_disabled": 0, "lat": 38.92147383333333, "rental_uris": {"ios": "https://dc.lft.to/lastmile_qr_scan", "android": "https://dc.lft.to/lastmile_qr_scan"}, "is_reserved": 0, "fusion_lon": 0.0, "fusion_lat": 0.0, "lon": -77.03534533333334, "name": "fa76e4aa7de38b7520a5db0903d3587b"}, {"bike_id": "5679be04664bc89e37738bbbe238a059", "type": "electric_scooter", "is_disabled": 0, "lat": 38.90525566666667, "rental_uris": {"ios": "https://dc.lft.to/lastmile_qr_scan", "android": "https://dc.lft.to/lastmile_qr_scan"}, "is_reserved": 0, "fusion_lon": 0.0, "fusion_lat": 0.0, "lon": -77.059326, "name": "5679be04664bc89e37738bbbe238a059"}, {"bike_id": "e4dd0d81d3c380510e9b3423294002ff", "type": "electric_scooter", "is_disabled": 0, "lat": 38.844362, "rental_uris": {"ios": "https://dc.lft.to/lastmile_qr_scan", "android": "https://dc.lft.to/lastmile_qr_scan"}, "is_reserved": 0, "fusion_lon": 0.0, "fusion_lat": 0.0, "lon": -76.99868233333333, "name": "e4dd0d81d3c380510e9b3423294002ff"}, {"bike_id": "2bd8303b74bcd7ca0921c290c42015d6", "type": "electric_scooter", "is_disabled": 0, "lat": 38.938436, "rental_uris": {"ios": "https://dc.lft.to/lastmile_qr_scan", "android": "https://dc.lft.to/lastmile_qr_scan"}, "is_reserved": 0, "fusion_lon": 0.0, "fusion_lat": 0.0, "lon": -77.07237, "name": "2bd8303b74bcd7ca0921c290c42015d6"}, {"bike_id": "3e90e7da6848f588a1d293ee1fe17553", "type": "electric_scooter", "is_disabled": 0, "lat": 38.933998333333335, "rental_uris": {"ios": "https://dc.lft.to/lastmile_qr_scan", "android": "https://dc.lft.to/lastmile_qr_scan"}, "is_reserved": 0, "fusion_lon": 0.0, "fusion_lat": 0.0, "lon": -77.035243, "name": "3e90e7da6848f588a1d293ee1fe17553"}, {"bike_id": "a5d250a26b9ea10881a7d0780779c72a", "type": "electric_scooter", "is_disabled": 0, "lat": 38.93885783333333, "rental_uris": {"ios": "https://dc.lft.to/lastmile_qr_scan", "android": "https://dc.lft.to/lastmile_qr_scan"}, "is_reserved": 0, "fusion_lon": 0.0, "fusion_lat": 0.0, "lon": -77.02494916666667, "name": "a5d250a26b9ea10881a7d0780779c72a"}, {"bike_id": "0013798931afa5cab58050d5684436de", "type": "electric_scooter", "is_disabled": 0, "lat": 38.909294, "rental_uris": {"ios": "https://dc.lft.to/lastmile_qr_scan", "android": "https://dc.lft.to/lastmile_qr_scan"}, "is_reserved": 0, "fusion_lon": 0.0, "fusion_lat": 0.0, "lon": -77.06406883333334, "name": "0013798931afa5cab58050d5684436de"}, {"bike_id": "9d6d1d32b81ad6549296b5ee63b8cb5f", "type": "electric_scooter", "is_disabled": 0, "lat": 38.902649833333335, "rental_uris": {"ios": "https://dc.lft.to/lastmile_qr_scan", "android": "https://dc.lft.to/lastmile_qr_scan"}, "is_reserved": 0, "fusion_lon": 0.0, "fusion_lat": 0.0, "lon": -77.03853583333333, "name": "9d6d1d32b81ad6549296b5ee63b8cb5f"}, {"bike_id": "3cf3cde1eb1401fa15aac3d5df53bc15", "type": "electric_scooter", "is_disabled": 0, "lat": 38.924841, "rental_uris": {"ios": "https://dc.lft.to/lastmile_qr_scan", "android": "https://dc.lft.to/lastmile_qr_scan"}, "is_reserved": 0, "fusion_lon": 0.0, "fusion_lat": 0.0, "lon": -77.0521915, "name": "3cf3cde1eb1401fa15aac3d5df53bc15"}, {"bike_id": "4d3cf6f1f49c1ae33ac47ea388222659", "type": "electric_scooter", "is_disabled": 0, "lat": 38.89748183333333, "rental_uris": {"ios": "https://dc.lft.to/lastmile_qr_scan", "android": "https://dc.lft.to/lastmile_qr_scan"}, "is_reserved": 0, "fusion_lon": 0.0, "fusion_lat": 0.0, "lon": -77.0270985, "name": "4d3cf6f1f49c1ae33ac47ea388222659"}, {"bike_id": "7b7a8cab5204fc3f03e674b9ad88529e", "type": "electric_scooter", "is_disabled": 0, "lat": 38.87197166666667, "rental_uris": {"ios": "https://dc.lft.to/lastmile_qr_scan", "android": "https://dc.lft.to/lastmile_qr_scan"}, "is_reserved": 0, "fusion_lon": 0.0, "fusion_lat": 0.0, "lon": -77.009324, "name": "7b7a8cab5204fc3f03e674b9ad88529e"}, {"bike_id": "ab7c3f6c9163fdb04d4fcc1a09f8870f", "type": "electric_scooter", "is_disabled": 0, "lat": 38.8764935, "rental_uris": {"ios": "https://dc.lft.to/lastmile_qr_scan", "android": "https://dc.lft.to/lastmile_qr_scan"}, "is_reserved": 0, "fusion_lon": 0.0, "fusion_lat": 0.0, "lon": -76.96507266666667, "name": "ab7c3f6c9163fdb04d4fcc1a09f8870f"}, {"bike_id": "28a49cc2c5caf5c9d89dd9761bd867ee", "type": "electric_scooter", "is_disabled": 0, "lat": 38.927414666666664, "rental_uris": {"ios": "https://dc.lft.to/lastmile_qr_scan", "android": "https://dc.lft.to/lastmile_qr_scan"}, "is_reserved": 0, "fusion_lon": 0.0, "fusion_lat": 0.0, "lon": -77.00596566666667, "name": "28a49cc2c5caf5c9d89dd9761bd867ee"}, {"bike_id": "12996922be48ab47351a4690a0c5db92", "type": "electric_scooter", "is_disabled": 0, "lat": 38.9065955, "rental_uris": {"ios": "https://dc.lft.to/lastmile_qr_scan", "android": "https://dc.lft.to/lastmile_qr_scan"}, "is_reserved": 0, "fusion_lon": 0.0, "fusion_lat": 0.0, "lon": -77.07192083333334, "name": "12996922be48ab47351a4690a0c5db92"}, {"bike_id": "d92c0bcdacbf446eca4074d3011358c0", "type": "electric_scooter", "is_disabled": 0, "lat": 38.9073485, "rental_uris": {"ios": "https://dc.lft.to/lastmile_qr_scan", "android": "https://dc.lft.to/lastmile_qr_scan"}, "is_reserved": 0, "fusion_lon": 0.0, "fusion_lat": 0.0, "lon": -77.02950533333333, "name": "d92c0bcdacbf446eca4074d3011358c0"}, {"bike_id": "febf42aea7bbde822d59445c1ab34ea2", "type": "electric_scooter", "is_disabled": 0, "lat": 38.98430583333333, "rental_uris": {"ios": "https://dc.lft.to/lastmile_qr_scan", "android": "https://dc.lft.to/lastmile_qr_scan"}, "is_reserved": 0, "fusion_lon": 0.0, "fusion_lat": 0.0, "lon": -77.02672816666667, "name": "febf42aea7bbde822d59445c1ab34ea2"}, {"bike_id": "c6e1fa4b3af0f3b2a9903c1d97776b25", "type": "electric_scooter", "is_disabled": 0, "lat": 38.9064915, "rental_uris": {"ios": "https://dc.lft.to/lastmile_qr_scan", "android": "https://dc.lft.to/lastmile_qr_scan"}, "is_reserved": 0, "fusion_lon": 0.0, "fusion_lat": 0.0, "lon": -77.0146155, "name": "c6e1fa4b3af0f3b2a9903c1d97776b25"}, {"bike_id": "c15d7f5febe59fd51f2d6323a1a7fc0a", "type": "electric_scooter", "is_disabled": 0, "lat": 38.925825333333336, "rental_uris": {"ios": "https://dc.lft.to/lastmile_qr_scan", "android": "https://dc.lft.to/lastmile_qr_scan"}, "is_reserved": 0, "fusion_lon": 0.0, "fusion_lat": 0.0, "lon": -77.03753133333333, "name": "c15d7f5febe59fd51f2d6323a1a7fc0a"}, {"bike_id": "20706b2c6fb727d780348c15f54ccc4f", "type": "electric_scooter", "is_disabled": 0, "lat": 38.895076833333334, "rental_uris": {"ios": "https://dc.lft.to/lastmile_qr_scan", "android": "https://dc.lft.to/lastmile_qr_scan"}, "is_reserved": 0, "fusion_lon": 0.0, "fusion_lat": 0.0, "lon": -77.0111935, "name": "20706b2c6fb727d780348c15f54ccc4f"}, {"bike_id": "e73c6a35a542aba0d82241ecfb24d5c3", "type": "electric_scooter", "is_disabled": 0, "lat": 38.9656425, "rental_uris": {"ios": "https://dc.lft.to/lastmile_qr_scan", "android": "https://dc.lft.to/lastmile_qr_scan"}, "is_reserved": 0, "fusion_lon": 0.0, "fusion_lat": 0.0, "lon": -77.027801, "name": "e73c6a35a542aba0d82241ecfb24d5c3"}, {"bike_id": "fe5f5df940b15acbf8f003c02f3a5f1a", "type": "electric_scooter", "is_disabled": 0, "lat": 38.90332733333334, "rental_uris": {"ios": "https://dc.lft.to/lastmile_qr_scan", "android": "https://dc.lft.to/lastmile_qr_scan"}, "is_reserved": 0, "fusion_lon": 0.0, "fusion_lat": 0.0, "lon": -77.06929216666667, "name": "fe5f5df940b15acbf8f003c02f3a5f1a"}, {"bike_id": "a0f1cf9941de6e9aa9e8123ba4be2261", "type": "electric_scooter", "is_disabled": 0, "lat": 38.86244466666667, "rental_uris": {"ios": "https://dc.lft.to/lastmile_qr_scan", "android": "https://dc.lft.to/lastmile_qr_scan"}, "is_reserved": 0, "fusion_lon": 0.0, "fusion_lat": 0.0, "lon": -76.99502916666667, "name": "a0f1cf9941de6e9aa9e8123ba4be2261"}, {"bike_id": "1667733dc98db8afebbbb3fcb8924286", "type": "electric_bike", "is_disabled": 0, "lat": 38.87299566666667, "rental_uris": {"ios": "https://dc.lft.to/lastmile_qr_scan", "android": "https://dc.lft.to/lastmile_qr_scan"}, "is_reserved": 0, "fusion_lon": 0.0, "fusion_lat": 0.0, "lon": -77.13930783333333, "name": "1667733dc98db8afebbbb3fcb8924286"}, {"bike_id": "4ea0c22aa44f4b3d03fe5c5105db9ef4", "type": "electric_scooter", "is_disabled": 0, "lat": 38.93269766666667, "rental_uris": {"ios": "https://dc.lft.to/lastmile_qr_scan", "android": "https://dc.lft.to/lastmile_qr_scan"}, "is_reserved": 0, "fusion_lon": 0.0, "fusion_lat": 0.0, "lon": -77.04540183333333, "name": "4ea0c22aa44f4b3d03fe5c5105db9ef4"}, {"bike_id": "6933f174d8a282bedb4d246f3d73a452", "type": "electric_scooter", "is_disabled": 0, "lat": 38.902838333333335, "rental_uris": {"ios": "https://dc.lft.to/lastmile_qr_scan", "android": "https://dc.lft.to/lastmile_qr_scan"}, "is_reserved": 0, "fusion_lon": 0.0, "fusion_lat": 0.0, "lon": -77.0439885, "name": "6933f174d8a282bedb4d246f3d73a452"}, {"bike_id": "cf2f1c9cc279f4feeb773789ec12a7d5", "type": "electric_scooter", "is_disabled": 0, "lat": 38.9038575, "rental_uris": {"ios": "https://dc.lft.to/lastmile_qr_scan", "android": "https://dc.lft.to/lastmile_qr_scan"}, "is_reserved": 0, "fusion_lon": 0.0, "fusion_lat": 0.0, "lon": -76.98202666666667, "name": "cf2f1c9cc279f4feeb773789ec12a7d5"}, {"bike_id": "248e4aa334fb640ef59b8bb5c157799f", "type": "electric_scooter", "is_disabled": 0, "lat": 38.91635133333333, "rental_uris": {"ios": "https://dc.lft.to/lastmile_qr_scan", "android": "https://dc.lft.to/lastmile_qr_scan"}, "is_reserved": 0, "fusion_lon": 0.0, "fusion_lat": 0.0, "lon": -77.02563566666667, "name": "248e4aa334fb640ef59b8bb5c157799f"}, {"bike_id": "c9c7266ba49f857c0d7cad19c68ea902", "type": "electric_bike", "is_disabled": 0, "lat": 38.837839, "rental_uris": {"ios": "https://dc.lft.to/lastmile_qr_scan", "android": "https://dc.lft.to/lastmile_qr_scan"}, "is_reserved": 0, "fusion_lon": 0.0, "fusion_lat": 0.0, "lon": -77.0934975, "name": "c9c7266ba49f857c0d7cad19c68ea902"}, {"bike_id": "a1ff9f061dd6c4cec9091b8831267c72", "type": "electric_scooter", "is_disabled": 0, "lat": 38.89234066666667, "rental_uris": {"ios": "https://dc.lft.to/lastmile_qr_scan", "android": "https://dc.lft.to/lastmile_qr_scan"}, "is_reserved": 0, "fusion_lon": 0.0, "fusion_lat": 0.0, "lon": -77.02829883333334, "name": "a1ff9f061dd6c4cec9091b8831267c72"}, {"bike_id": "59ef010dac5abcc5496013a6a7f62ab1", "type": "electric_scooter", "is_disabled": 0, "lat": 38.9392135, "rental_uris": {"ios": "https://dc.lft.to/lastmile_qr_scan", "android": "https://dc.lft.to/lastmile_qr_scan"}, "is_reserved": 0, "fusion_lon": 0.0, "fusion_lat": 0.0, "lon": -77.060512, "name": "59ef010dac5abcc5496013a6a7f62ab1"}, {"bike_id": "9dc0e76e18332b82cabe7f34ba093fa0", "type": "electric_scooter", "is_disabled": 0, "lat": 38.9224945, "rental_uris": {"ios": "https://dc.lft.to/lastmile_qr_scan", "android": "https://dc.lft.to/lastmile_qr_scan"}, "is_reserved": 0, "fusion_lon": 0.0, "fusion_lat": 0.0, "lon": -77.03905966666666, "name": "9dc0e76e18332b82cabe7f34ba093fa0"}, {"bike_id": "a70f881f47db0a3dcc97775384bed62c", "type": "electric_scooter", "is_disabled": 0, "lat": 38.932449166666665, "rental_uris": {"ios": "https://dc.lft.to/lastmile_qr_scan", "android": "https://dc.lft.to/lastmile_qr_scan"}, "is_reserved": 0, "fusion_lon": 0.0, "fusion_lat": 0.0, "lon": -77.029667, "name": "a70f881f47db0a3dcc97775384bed62c"}, {"bike_id": "a6ca084a649e08e7f58d0507d89a88bc", "type": "electric_scooter", "is_disabled": 0, "lat": 38.942050333333334, "rental_uris": {"ios": "https://dc.lft.to/lastmile_qr_scan", "android": "https://dc.lft.to/lastmile_qr_scan"}, "is_reserved": 0, "fusion_lon": 0.0, "fusion_lat": 0.0, "lon": -77.01747183333333, "name": "a6ca084a649e08e7f58d0507d89a88bc"}, {"bike_id": "8c3aceb8a255bcae674fb7f2b51cba7d", "type": "electric_scooter", "is_disabled": 0, "lat": 38.923998833333336, "rental_uris": {"ios": "https://dc.lft.to/lastmile_qr_scan", "android": "https://dc.lft.to/lastmile_qr_scan"}, "is_reserved": 0, "fusion_lon": 0.0, "fusion_lat": 0.0, "lon": -76.99370133333333, "name": "8c3aceb8a255bcae674fb7f2b51cba7d"}, {"bike_id": "589aaf5132715a7eb6bbdb51bd064f91", "type": "electric_scooter", "is_disabled": 0, "lat": 38.88134, "rental_uris": {"ios": "https://dc.lft.to/lastmile_qr_scan", "android": "https://dc.lft.to/lastmile_qr_scan"}, "is_reserved": 0, "fusion_lon": 0.0, "fusion_lat": 0.0, "lon": -77.01657033333333, "name": "589aaf5132715a7eb6bbdb51bd064f91"}, {"bike_id": "cd6e8fe09768cca21c76279b1b57f023", "type": "electric_scooter", "is_disabled": 0, "lat": 38.922667833333335, "rental_uris": {"ios": "https://dc.lft.to/lastmile_qr_scan", "android": "https://dc.lft.to/lastmile_qr_scan"}, "is_reserved": 0, "fusion_lon": 0.0, "fusion_lat": 0.0, "lon": -77.02979716666667, "name": "cd6e8fe09768cca21c76279b1b57f023"}, {"bike_id": "1dc6fe25553c5e4fb4ff3d840795cf9e", "type": "electric_scooter", "is_disabled": 0, "lat": 38.90878333333333, "rental_uris": {"ios": "https://dc.lft.to/lastmile_qr_scan", "android": "https://dc.lft.to/lastmile_qr_scan"}, "is_reserved": 0, "fusion_lon": 0.0, "fusion_lat": 0.0, "lon": -77.002687, "name": "1dc6fe25553c5e4fb4ff3d840795cf9e"}, {"bike_id": "bdd16a2ff02cb8a35d4e5f3329e47043", "type": "electric_scooter", "is_disabled": 0, "lat": 38.90421333333333, "rental_uris": {"ios": "https://dc.lft.to/lastmile_qr_scan", "android": "https://dc.lft.to/lastmile_qr_scan"}, "is_reserved": 0, "fusion_lon": 0.0, "fusion_lat": 0.0, "lon": -77.06889866666667, "name": "bdd16a2ff02cb8a35d4e5f3329e47043"}, {"bike_id": "5fffea76460ddd646462af820251d5d1", "type": "electric_bike", "is_disabled": 0, "lat": 38.94469566666667, "rental_uris": {"ios": "https://dc.lft.to/lastmile_qr_scan", "android": "https://dc.lft.to/lastmile_qr_scan"}, "is_reserved": 0, "fusion_lon": 0.0, "fusion_lat": 0.0, "lon": -76.9869125, "name": "5fffea76460ddd646462af820251d5d1"}, {"bike_id": "b067405594334608b114025db248c2b0", "type": "electric_scooter", "is_disabled": 0, "lat": 38.910259333333336, "rental_uris": {"ios": "https://dc.lft.to/lastmile_qr_scan", "android": "https://dc.lft.to/lastmile_qr_scan"}, "is_reserved": 0, "fusion_lon": 0.0, "fusion_lat": 0.0, "lon": -76.98670883333334, "name": "b067405594334608b114025db248c2b0"}, {"bike_id": "33d7d64112959ceb4895ef11fa865638", "type": "electric_scooter", "is_disabled": 0, "lat": 38.90728716666667, "rental_uris": {"ios": "https://dc.lft.to/lastmile_qr_scan", "android": "https://dc.lft.to/lastmile_qr_scan"}, "is_reserved": 0, "fusion_lon": 0.0, "fusion_lat": 0.0, "lon": -77.04158416666667, "name": "33d7d64112959ceb4895ef11fa865638"}, {"bike_id": "a1b7202e7e6b9ece088901b66515ca5e", "type": "electric_scooter", "is_disabled": 0, "lat": 38.90401983333334, "rental_uris": {"ios": "https://dc.lft.to/lastmile_qr_scan", "android": "https://dc.lft.to/lastmile_qr_scan"}, "is_reserved": 0, "fusion_lon": 0.0, "fusion_lat": 0.0, "lon": -77.04851116666667, "name": "a1b7202e7e6b9ece088901b66515ca5e"}, {"bike_id": "4946d47442b876e6c8713eb8c1290676", "type": "electric_scooter", "is_disabled": 0, "lat": 38.86655783333333, "rental_uris": {"ios": "https://dc.lft.to/lastmile_qr_scan", "android": "https://dc.lft.to/lastmile_qr_scan"}, "is_reserved": 0, "fusion_lon": 0.0, "fusion_lat": 0.0, "lon": -76.988882, "name": "4946d47442b876e6c8713eb8c1290676"}, {"bike_id": "baf8d9f5575fb05948b2d17811ff6aad", "type": "electric_scooter", "is_disabled": 0, "lat": 38.934365, "rental_uris": {"ios": "https://dc.lft.to/lastmile_qr_scan", "android": "https://dc.lft.to/lastmile_qr_scan"}, "is_reserved": 0, "fusion_lon": 0.0, "fusion_lat": 0.0, "lon": -77.07253366666667, "name": "baf8d9f5575fb05948b2d17811ff6aad"}, {"bike_id": "e40e3a64a99022621af98c014e5b9eeb", "type": "electric_scooter", "is_disabled": 0, "lat": 38.928799166666664, "rental_uris": {"ios": "https://dc.lft.to/lastmile_qr_scan", "android": "https://dc.lft.to/lastmile_qr_scan"}, "is_reserved": 0, "fusion_lon": 0.0, "fusion_lat": 0.0, "lon": -77.03739133333333, "name": "e40e3a64a99022621af98c014e5b9eeb"}, {"bike_id": "d9e54a847714668d057cd81b753b6f15", "type": "electric_scooter", "is_disabled": 0, "lat": 38.92858566666666, "rental_uris": {"ios": "https://dc.lft.to/lastmile_qr_scan", "android": "https://dc.lft.to/lastmile_qr_scan"}, "is_reserved": 0, "fusion_lon": 0.0, "fusion_lat": 0.0, "lon": -77.054398, "name": "d9e54a847714668d057cd81b753b6f15"}, {"bike_id": "de453c28988a04a55bdd7c6ecd32b0fa", "type": "electric_scooter", "is_disabled": 0, "lat": 38.93315883333333, "rental_uris": {"ios": "https://dc.lft.to/lastmile_qr_scan", "android": "https://dc.lft.to/lastmile_qr_scan"}, "is_reserved": 0, "fusion_lon": 0.0, "fusion_lat": 0.0, "lon": -77.0276195, "name": "de453c28988a04a55bdd7c6ecd32b0fa"}, {"bike_id": "65e52b006b684d16bfea52405ee9e2b6", "type": "electric_scooter", "is_disabled": 0, "lat": 38.882498166666664, "rental_uris": {"ios": "https://dc.lft.to/lastmile_qr_scan", "android": "https://dc.lft.to/lastmile_qr_scan"}, "is_reserved": 0, "fusion_lon": 0.0, "fusion_lat": 0.0, "lon": -76.995118, "name": "65e52b006b684d16bfea52405ee9e2b6"}, {"bike_id": "3c97de38a0384fc0ee75bfb37e6cddde", "type": "electric_scooter", "is_disabled": 0, "lat": 38.9196695, "rental_uris": {"ios": "https://dc.lft.to/lastmile_qr_scan", "android": "https://dc.lft.to/lastmile_qr_scan"}, "is_reserved": 0, "fusion_lon": 0.0, "fusion_lat": 0.0, "lon": -77.042398, "name": "3c97de38a0384fc0ee75bfb37e6cddde"}, {"bike_id": "dce7680777fc2ac2e9be192ae41c32ad", "type": "electric_scooter", "is_disabled": 0, "lat": 38.92230416666666, "rental_uris": {"ios": "https://dc.lft.to/lastmile_qr_scan", "android": "https://dc.lft.to/lastmile_qr_scan"}, "is_reserved": 0, "fusion_lon": 0.0, "fusion_lat": 0.0, "lon": -76.97534816666666, "name": "dce7680777fc2ac2e9be192ae41c32ad"}, {"bike_id": "8ab03f38879e81b4ab9fb341af244b35", "type": "electric_scooter", "is_disabled": 0, "lat": 38.909074, "rental_uris": {"ios": "https://dc.lft.to/lastmile_qr_scan", "android": "https://dc.lft.to/lastmile_qr_scan"}, "is_reserved": 0, "fusion_lon": 0.0, "fusion_lat": 0.0, "lon": -77.03182916666667, "name": "8ab03f38879e81b4ab9fb341af244b35"}, {"bike_id": "fe8b432d47d57962ad6ccdf59235d9bd", "type": "electric_scooter", "is_disabled": 0, "lat": 38.87659566666667, "rental_uris": {"ios": "https://dc.lft.to/lastmile_qr_scan", "android": "https://dc.lft.to/lastmile_qr_scan"}, "is_reserved": 0, "fusion_lon": 0.0, "fusion_lat": 0.0, "lon": -76.996424, "name": "fe8b432d47d57962ad6ccdf59235d9bd"}, {"bike_id": "eebf965d9170fab61bbf45de793b4d77", "type": "electric_bike", "is_disabled": 0, "lat": 39.05109683333333, "rental_uris": {"ios": "https://dc.lft.to/lastmile_qr_scan", "android": "https://dc.lft.to/lastmile_qr_scan"}, "is_reserved": 0, "fusion_lon": 0.0, "fusion_lat": 0.0, "lon": -77.1173235, "name": "eebf965d9170fab61bbf45de793b4d77"}, {"bike_id": "3ea417b2f949989c2fa6a96351cb77d0", "type": "electric_scooter", "is_disabled": 0, "lat": 38.9209175, "rental_uris": {"ios": "https://dc.lft.to/lastmile_qr_scan", "android": "https://dc.lft.to/lastmile_qr_scan"}, "is_reserved": 0, "fusion_lon": 0.0, "fusion_lat": 0.0, "lon": -77.01672716666667, "name": "3ea417b2f949989c2fa6a96351cb77d0"}, {"bike_id": "262413d68aa106bfd7581564a1868bc9", "type": "electric_scooter", "is_disabled": 0, "lat": 38.91504916666667, "rental_uris": {"ios": "https://dc.lft.to/lastmile_qr_scan", "android": "https://dc.lft.to/lastmile_qr_scan"}, "is_reserved": 0, "fusion_lon": 0.0, "fusion_lat": 0.0, "lon": -77.0177975, "name": "262413d68aa106bfd7581564a1868bc9"}, {"bike_id": "f0aec777adf6b52f524644f7aeefe738", "type": "electric_scooter", "is_disabled": 0, "lat": 38.918132666666665, "rental_uris": {"ios": "https://dc.lft.to/lastmile_qr_scan", "android": "https://dc.lft.to/lastmile_qr_scan"}, "is_reserved": 0, "fusion_lon": 0.0, "fusion_lat": 0.0, "lon": -77.0319505, "name": "f0aec777adf6b52f524644f7aeefe738"}, {"bike_id": "671a211dd3d97a2626a46750af56f31a", "type": "electric_scooter", "is_disabled": 0, "lat": 38.92155983333333, "rental_uris": {"ios": "https://dc.lft.to/lastmile_qr_scan", "android": "https://dc.lft.to/lastmile_qr_scan"}, "is_reserved": 0, "fusion_lon": 0.0, "fusion_lat": 0.0, "lon": -77.03381783333333, "name": "671a211dd3d97a2626a46750af56f31a"}, {"bike_id": "5d6d2cdd1d50667cee08546d5c8f3ad0", "type": "electric_scooter", "is_disabled": 0, "lat": 38.90560033333333, "rental_uris": {"ios": "https://dc.lft.to/lastmile_qr_scan", "android": "https://dc.lft.to/lastmile_qr_scan"}, "is_reserved": 0, "fusion_lon": 0.0, "fusion_lat": 0.0, "lon": -77.04441033333333, "name": "5d6d2cdd1d50667cee08546d5c8f3ad0"}, {"bike_id": "cda503659797644781642da058f5eb69", "type": "electric_scooter", "is_disabled": 0, "lat": 38.87175766666667, "rental_uris": {"ios": "https://dc.lft.to/lastmile_qr_scan", "android": "https://dc.lft.to/lastmile_qr_scan"}, "is_reserved": 0, "fusion_lon": 0.0, "fusion_lat": 0.0, "lon": -77.00612416666667, "name": "cda503659797644781642da058f5eb69"}, {"bike_id": "1117022b57cffbee113196a98667ca22", "type": "electric_scooter", "is_disabled": 0, "lat": 38.91814933333333, "rental_uris": {"ios": "https://dc.lft.to/lastmile_qr_scan", "android": "https://dc.lft.to/lastmile_qr_scan"}, "is_reserved": 0, "fusion_lon": 0.0, "fusion_lat": 0.0, "lon": -77.03195133333334, "name": "1117022b57cffbee113196a98667ca22"}, {"bike_id": "52c8595543ff3d5e7ddce6d918f9883e", "type": "electric_scooter", "is_disabled": 0, "lat": 38.920576, "rental_uris": {"ios": "https://dc.lft.to/lastmile_qr_scan", "android": "https://dc.lft.to/lastmile_qr_scan"}, "is_reserved": 0, "fusion_lon": 0.0, "fusion_lat": 0.0, "lon": -77.032249, "name": "52c8595543ff3d5e7ddce6d918f9883e"}, {"bike_id": "465c018e41249d8b9943f325788f8b5d", "type": "electric_scooter", "is_disabled": 0, "lat": 38.8826815, "rental_uris": {"ios": "https://dc.lft.to/lastmile_qr_scan", "android": "https://dc.lft.to/lastmile_qr_scan"}, "is_reserved": 0, "fusion_lon": 0.0, "fusion_lat": 0.0, "lon": -76.99362366666666, "name": "465c018e41249d8b9943f325788f8b5d"}, {"bike_id": "ef069dfac7829d838d8c89a8a9f17afc", "type": "electric_scooter", "is_disabled": 0, "lat": 38.9051105, "rental_uris": {"ios": "https://dc.lft.to/lastmile_qr_scan", "android": "https://dc.lft.to/lastmile_qr_scan"}, "is_reserved": 0, "fusion_lon": 0.0, "fusion_lat": 0.0, "lon": -77.0687625, "name": "ef069dfac7829d838d8c89a8a9f17afc"}, {"bike_id": "0885594250f0e2ec4daa4273bff06dde", "type": "electric_scooter", "is_disabled": 0, "lat": 38.912786833333335, "rental_uris": {"ios": "https://dc.lft.to/lastmile_qr_scan", "android": "https://dc.lft.to/lastmile_qr_scan"}, "is_reserved": 0, "fusion_lon": 0.0, "fusion_lat": 0.0, "lon": -77.02240316666666, "name": "0885594250f0e2ec4daa4273bff06dde"}, {"bike_id": "a563ebdfcf0eb788ee4b3035f61260bf", "type": "electric_scooter", "is_disabled": 0, "lat": 38.902604833333335, "rental_uris": {"ios": "https://dc.lft.to/lastmile_qr_scan", "android": "https://dc.lft.to/lastmile_qr_scan"}, "is_reserved": 0, "fusion_lon": 0.0, "fusion_lat": 0.0, "lon": -77.017527, "name": "a563ebdfcf0eb788ee4b3035f61260bf"}, {"bike_id": "df1af1fa6e196f6e9cf7a702eb6d2c59", "type": "electric_scooter", "is_disabled": 0, "lat": 38.930647666666665, "rental_uris": {"ios": "https://dc.lft.to/lastmile_qr_scan", "android": "https://dc.lft.to/lastmile_qr_scan"}, "is_reserved": 0, "fusion_lon": 0.0, "fusion_lat": 0.0, "lon": -77.01992, "name": "df1af1fa6e196f6e9cf7a702eb6d2c59"}, {"bike_id": "e81d5e29d9ca24eab47691ee5bd37249", "type": "electric_scooter", "is_disabled": 0, "lat": 38.9421045, "rental_uris": {"ios": "https://dc.lft.to/lastmile_qr_scan", "android": "https://dc.lft.to/lastmile_qr_scan"}, "is_reserved": 0, "fusion_lon": 0.0, "fusion_lat": 0.0, "lon": -77.02584333333333, "name": "e81d5e29d9ca24eab47691ee5bd37249"}, {"bike_id": "4cff5055db7fdbf78feb5073745eb5c6", "type": "electric_scooter", "is_disabled": 0, "lat": 38.928631333333335, "rental_uris": {"ios": "https://dc.lft.to/lastmile_qr_scan", "android": "https://dc.lft.to/lastmile_qr_scan"}, "is_reserved": 0, "fusion_lon": 0.0, "fusion_lat": 0.0, "lon": -77.03724833333334, "name": "4cff5055db7fdbf78feb5073745eb5c6"}, {"bike_id": "7682f629925fec46ff04639ba22451d7", "type": "electric_scooter", "is_disabled": 0, "lat": 38.941747, "rental_uris": {"ios": "https://dc.lft.to/lastmile_qr_scan", "android": "https://dc.lft.to/lastmile_qr_scan"}, "is_reserved": 0, "fusion_lon": 0.0, "fusion_lat": 0.0, "lon": -77.0288835, "name": "7682f629925fec46ff04639ba22451d7"}, {"bike_id": "ea582ce64d4ba8a70ed57cc4578ae80c", "type": "electric_scooter", "is_disabled": 0, "lat": 38.91111166666666, "rental_uris": {"ios": "https://dc.lft.to/lastmile_qr_scan", "android": "https://dc.lft.to/lastmile_qr_scan"}, "is_reserved": 0, "fusion_lon": 0.0, "fusion_lat": 0.0, "lon": -77.03733283333334, "name": "ea582ce64d4ba8a70ed57cc4578ae80c"}, {"bike_id": "a0d2bad8c289102af232e45232fb554c", "type": "electric_bike", "is_disabled": 0, "lat": 38.861923833333336, "rental_uris": {"ios": "https://dc.lft.to/lastmile_qr_scan", "android": "https://dc.lft.to/lastmile_qr_scan"}, "is_reserved": 0, "fusion_lon": 0.0, "fusion_lat": 0.0, "lon": -76.94811066666666, "name": "a0d2bad8c289102af232e45232fb554c"}, {"bike_id": "fb7f80e4751328aa1656fecc0279d7dd", "type": "electric_scooter", "is_disabled": 0, "lat": 38.8820885, "rental_uris": {"ios": "https://dc.lft.to/lastmile_qr_scan", "android": "https://dc.lft.to/lastmile_qr_scan"}, "is_reserved": 0, "fusion_lon": 0.0, "fusion_lat": 0.0, "lon": -76.989204, "name": "fb7f80e4751328aa1656fecc0279d7dd"}, {"bike_id": "f353a86448670a52743688bb633a6aac", "type": "electric_scooter", "is_disabled": 0, "lat": 38.923737, "rental_uris": {"ios": "https://dc.lft.to/lastmile_qr_scan", "android": "https://dc.lft.to/lastmile_qr_scan"}, "is_reserved": 0, "fusion_lon": 0.0, "fusion_lat": 0.0, "lon": -77.0298855, "name": "f353a86448670a52743688bb633a6aac"}, {"bike_id": "2be3ef39bcf704fb448a08b340349b6a", "type": "electric_scooter", "is_disabled": 0, "lat": 38.938474666666664, "rental_uris": {"ios": "https://dc.lft.to/lastmile_qr_scan", "android": "https://dc.lft.to/lastmile_qr_scan"}, "is_reserved": 0, "fusion_lon": 0.0, "fusion_lat": 0.0, "lon": -77.032631, "name": "2be3ef39bcf704fb448a08b340349b6a"}, {"bike_id": "d4d66121c6d6f0384b00acb33576cb8a", "type": "electric_scooter", "is_disabled": 0, "lat": 38.9134205, "rental_uris": {"ios": "https://dc.lft.to/lastmile_qr_scan", "android": "https://dc.lft.to/lastmile_qr_scan"}, "is_reserved": 0, "fusion_lon": 0.0, "fusion_lat": 0.0, "lon": -77.0423055, "name": "d4d66121c6d6f0384b00acb33576cb8a"}, {"bike_id": "f9d6b57bfa3c0c2e96182fd465012642", "type": "electric_scooter", "is_disabled": 0, "lat": 38.898758666666666, "rental_uris": {"ios": "https://dc.lft.to/lastmile_qr_scan", "android": "https://dc.lft.to/lastmile_qr_scan"}, "is_reserved": 0, "fusion_lon": 0.0, "fusion_lat": 0.0, "lon": -76.931852, "name": "f9d6b57bfa3c0c2e96182fd465012642"}, {"bike_id": "6cb75d761c639a490d18cf2a2f505506", "type": "electric_bike", "is_disabled": 0, "lat": 38.9396715, "rental_uris": {"ios": "https://dc.lft.to/lastmile_qr_scan", "android": "https://dc.lft.to/lastmile_qr_scan"}, "is_reserved": 0, "fusion_lon": 0.0, "fusion_lat": 0.0, "lon": -77.05259466666666, "name": "6cb75d761c639a490d18cf2a2f505506"}, {"bike_id": "c21607d5494ac62ada00f99e5273d6de", "type": "electric_scooter", "is_disabled": 0, "lat": 38.90364066666667, "rental_uris": {"ios": "https://dc.lft.to/lastmile_qr_scan", "android": "https://dc.lft.to/lastmile_qr_scan"}, "is_reserved": 0, "fusion_lon": 0.0, "fusion_lat": 0.0, "lon": -77.01761683333334, "name": "c21607d5494ac62ada00f99e5273d6de"}, {"bike_id": "e8f9fa4be7150b12e7be2f52d9c6a67b", "type": "electric_scooter", "is_disabled": 0, "lat": 38.922626, "rental_uris": {"ios": "https://dc.lft.to/lastmile_qr_scan", "android": "https://dc.lft.to/lastmile_qr_scan"}, "is_reserved": 0, "fusion_lon": 0.0, "fusion_lat": 0.0, "lon": -77.00047616666667, "name": "e8f9fa4be7150b12e7be2f52d9c6a67b"}, {"bike_id": "5433fff68ebfbb136fdda1e421e6812e", "type": "electric_scooter", "is_disabled": 0, "lat": 38.92474716666667, "rental_uris": {"ios": "https://dc.lft.to/lastmile_qr_scan", "android": "https://dc.lft.to/lastmile_qr_scan"}, "is_reserved": 0, "fusion_lon": 0.0, "fusion_lat": 0.0, "lon": -77.028366, "name": "5433fff68ebfbb136fdda1e421e6812e"}, {"bike_id": "768266cb0844c57cb00e0546a475d388", "type": "electric_scooter", "is_disabled": 0, "lat": 38.90502716666667, "rental_uris": {"ios": "https://dc.lft.to/lastmile_qr_scan", "android": "https://dc.lft.to/lastmile_qr_scan"}, "is_reserved": 0, "fusion_lon": 0.0, "fusion_lat": 0.0, "lon": -77.029483, "name": "768266cb0844c57cb00e0546a475d388"}, {"bike_id": "0ed412c444300360eff78bbef40386ee", "type": "electric_scooter", "is_disabled": 0, "lat": 38.915619666666665, "rental_uris": {"ios": "https://dc.lft.to/lastmile_qr_scan", "android": "https://dc.lft.to/lastmile_qr_scan"}, "is_reserved": 0, "fusion_lon": 0.0, "fusion_lat": 0.0, "lon": -77.02075783333333, "name": "0ed412c444300360eff78bbef40386ee"}, {"bike_id": "818158439e082869f38d11d656a28ef5", "type": "electric_bike", "is_disabled": 0, "lat": 38.862650333333335, "rental_uris": {"ios": "https://dc.lft.to/lastmile_qr_scan", "android": "https://dc.lft.to/lastmile_qr_scan"}, "is_reserved": 0, "fusion_lon": 0.0, "fusion_lat": 0.0, "lon": -76.98349816666666, "name": "818158439e082869f38d11d656a28ef5"}, {"bike_id": "66ba9cb0c02216889b8edfa27243ecd9", "type": "electric_scooter", "is_disabled": 0, "lat": 38.91611016666667, "rental_uris": {"ios": "https://dc.lft.to/lastmile_qr_scan", "android": "https://dc.lft.to/lastmile_qr_scan"}, "is_reserved": 0, "fusion_lon": 0.0, "fusion_lat": 0.0, "lon": -77.02173516666667, "name": "66ba9cb0c02216889b8edfa27243ecd9"}, {"bike_id": "b531c1a51ff2e3e9e8036c7dc0da75cb", "type": "electric_scooter", "is_disabled": 0, "lat": 38.91764333333333, "rental_uris": {"ios": "https://dc.lft.to/lastmile_qr_scan", "android": "https://dc.lft.to/lastmile_qr_scan"}, "is_reserved": 0, "fusion_lon": 0.0, "fusion_lat": 0.0, "lon": -77.04767083333333, "name": "b531c1a51ff2e3e9e8036c7dc0da75cb"}, {"bike_id": "1826fb28167b3e84e252d9c80d52c8df", "type": "electric_scooter", "is_disabled": 0, "lat": 38.91352166666667, "rental_uris": {"ios": "https://dc.lft.to/lastmile_qr_scan", "android": "https://dc.lft.to/lastmile_qr_scan"}, "is_reserved": 0, "fusion_lon": 0.0, "fusion_lat": 0.0, "lon": -77.025669, "name": "1826fb28167b3e84e252d9c80d52c8df"}, {"bike_id": "d2861653b874be44b53fe2dc09f75d78", "type": "electric_scooter", "is_disabled": 0, "lat": 38.91142383333333, "rental_uris": {"ios": "https://dc.lft.to/lastmile_qr_scan", "android": "https://dc.lft.to/lastmile_qr_scan"}, "is_reserved": 0, "fusion_lon": 0.0, "fusion_lat": 0.0, "lon": -77.02387433333334, "name": "d2861653b874be44b53fe2dc09f75d78"}, {"bike_id": "dccd296a55494daed83ee186a27b98ec", "type": "electric_scooter", "is_disabled": 0, "lat": 38.901571833333335, "rental_uris": {"ios": "https://dc.lft.to/lastmile_qr_scan", "android": "https://dc.lft.to/lastmile_qr_scan"}, "is_reserved": 0, "fusion_lon": 0.0, "fusion_lat": 0.0, "lon": -77.02181983333334, "name": "dccd296a55494daed83ee186a27b98ec"}, {"bike_id": "7af74c1481353441c34891a0ebc29ea9", "type": "electric_scooter", "is_disabled": 0, "lat": 38.91490566666667, "rental_uris": {"ios": "https://dc.lft.to/lastmile_qr_scan", "android": "https://dc.lft.to/lastmile_qr_scan"}, "is_reserved": 0, "fusion_lon": 0.0, "fusion_lat": 0.0, "lon": -77.04567533333334, "name": "7af74c1481353441c34891a0ebc29ea9"}, {"bike_id": "58dab9c05ef785fa3c62366e86be6fd2", "type": "electric_scooter", "is_disabled": 0, "lat": 38.90720616666667, "rental_uris": {"ios": "https://dc.lft.to/lastmile_qr_scan", "android": "https://dc.lft.to/lastmile_qr_scan"}, "is_reserved": 0, "fusion_lon": 0.0, "fusion_lat": 0.0, "lon": -77.04489016666666, "name": "58dab9c05ef785fa3c62366e86be6fd2"}, {"bike_id": "3870e1beac74af854abe9d5db9a62126", "type": "electric_scooter", "is_disabled": 0, "lat": 38.925792, "rental_uris": {"ios": "https://dc.lft.to/lastmile_qr_scan", "android": "https://dc.lft.to/lastmile_qr_scan"}, "is_reserved": 0, "fusion_lon": 0.0, "fusion_lat": 0.0, "lon": -77.030557, "name": "3870e1beac74af854abe9d5db9a62126"}, {"bike_id": "d0ab03dc6742db4999ca9ef2b3f333aa", "type": "electric_scooter", "is_disabled": 0, "lat": 38.923723333333335, "rental_uris": {"ios": "https://dc.lft.to/lastmile_qr_scan", "android": "https://dc.lft.to/lastmile_qr_scan"}, "is_reserved": 0, "fusion_lon": 0.0, "fusion_lat": 0.0, "lon": -77.01226933333334, "name": "d0ab03dc6742db4999ca9ef2b3f333aa"}, {"bike_id": "475f06e18daafac3a5bf130e903138fa", "type": "electric_scooter", "is_disabled": 0, "lat": 38.935950166666665, "rental_uris": {"ios": "https://dc.lft.to/lastmile_qr_scan", "android": "https://dc.lft.to/lastmile_qr_scan"}, "is_reserved": 0, "fusion_lon": 0.0, "fusion_lat": 0.0, "lon": -77.038101, "name": "475f06e18daafac3a5bf130e903138fa"}, {"bike_id": "5cfbf2c9d4179910e78670a3474c0f3a", "type": "electric_scooter", "is_disabled": 0, "lat": 38.941131166666665, "rental_uris": {"ios": "https://dc.lft.to/lastmile_qr_scan", "android": "https://dc.lft.to/lastmile_qr_scan"}, "is_reserved": 0, "fusion_lon": 0.0, "fusion_lat": 0.0, "lon": -77.02542233333334, "name": "5cfbf2c9d4179910e78670a3474c0f3a"}, {"bike_id": "b6aa7649d4187ad782c092656f801772", "type": "electric_scooter", "is_disabled": 0, "lat": 38.92486016666667, "rental_uris": {"ios": "https://dc.lft.to/lastmile_qr_scan", "android": "https://dc.lft.to/lastmile_qr_scan"}, "is_reserved": 0, "fusion_lon": 0.0, "fusion_lat": 0.0, "lon": -77.03182466666667, "name": "b6aa7649d4187ad782c092656f801772"}, {"bike_id": "bbb08156a36195dd1ba4ddbbd1dcc70c", "type": "electric_scooter", "is_disabled": 0, "lat": 38.91406, "rental_uris": {"ios": "https://dc.lft.to/lastmile_qr_scan", "android": "https://dc.lft.to/lastmile_qr_scan"}, "is_reserved": 0, "fusion_lon": 0.0, "fusion_lat": 0.0, "lon": -77.01366816666666, "name": "bbb08156a36195dd1ba4ddbbd1dcc70c"}, {"bike_id": "26f6a7a7528dcd50d4210fda303566d2", "type": "electric_scooter", "is_disabled": 0, "lat": 38.90490966666667, "rental_uris": {"ios": "https://dc.lft.to/lastmile_qr_scan", "android": "https://dc.lft.to/lastmile_qr_scan"}, "is_reserved": 0, "fusion_lon": 0.0, "fusion_lat": 0.0, "lon": -76.9497595, "name": "26f6a7a7528dcd50d4210fda303566d2"}, {"bike_id": "23f4756e0f4fa06938c4275df62a5321", "type": "electric_scooter", "is_disabled": 0, "lat": 38.900509, "rental_uris": {"ios": "https://dc.lft.to/lastmile_qr_scan", "android": "https://dc.lft.to/lastmile_qr_scan"}, "is_reserved": 0, "fusion_lon": 0.0, "fusion_lat": 0.0, "lon": -77.01737366666667, "name": "23f4756e0f4fa06938c4275df62a5321"}, {"bike_id": "0f778b774dbac9faab44129cc3956a4f", "type": "electric_bike", "is_disabled": 0, "lat": 38.951712666666666, "rental_uris": {"ios": "https://dc.lft.to/lastmile_qr_scan", "android": "https://dc.lft.to/lastmile_qr_scan"}, "is_reserved": 0, "fusion_lon": 0.0, "fusion_lat": 0.0, "lon": -76.97732166666667, "name": "0f778b774dbac9faab44129cc3956a4f"}, {"bike_id": "0ff0665e8e39ac2ce5904e8130fee8b9", "type": "electric_scooter", "is_disabled": 0, "lat": 38.911333, "rental_uris": {"ios": "https://dc.lft.to/lastmile_qr_scan", "android": "https://dc.lft.to/lastmile_qr_scan"}, "is_reserved": 0, "fusion_lon": 0.0, "fusion_lat": 0.0, "lon": -77.04415633333333, "name": "0ff0665e8e39ac2ce5904e8130fee8b9"}, {"bike_id": "540e11a1b8516206a0dded733a5f2a6d", "type": "electric_bike", "is_disabled": 0, "lat": 38.96317616666666, "rental_uris": {"ios": "https://dc.lft.to/lastmile_qr_scan", "android": "https://dc.lft.to/lastmile_qr_scan"}, "is_reserved": 0, "fusion_lon": 0.0, "fusion_lat": 0.0, "lon": -76.973627, "name": "540e11a1b8516206a0dded733a5f2a6d"}, {"bike_id": "894be56c974847b6881065fd8d402d85", "type": "electric_scooter", "is_disabled": 0, "lat": 38.90522583333333, "rental_uris": {"ios": "https://dc.lft.to/lastmile_qr_scan", "android": "https://dc.lft.to/lastmile_qr_scan"}, "is_reserved": 0, "fusion_lon": 0.0, "fusion_lat": 0.0, "lon": -77.05932333333334, "name": "894be56c974847b6881065fd8d402d85"}, {"bike_id": "2beb2a2d4565b99ff7b6c9962a34df82", "type": "electric_bike", "is_disabled": 0, "lat": 38.952265, "rental_uris": {"ios": "https://dc.lft.to/lastmile_qr_scan", "android": "https://dc.lft.to/lastmile_qr_scan"}, "is_reserved": 0, "fusion_lon": 0.0, "fusion_lat": 0.0, "lon": -76.970141, "name": "2beb2a2d4565b99ff7b6c9962a34df82"}, {"bike_id": "f0f359cb9e48128ec883c690bb55fe8a", "type": "electric_scooter", "is_disabled": 0, "lat": 38.90513883333333, "rental_uris": {"ios": "https://dc.lft.to/lastmile_qr_scan", "android": "https://dc.lft.to/lastmile_qr_scan"}, "is_reserved": 0, "fusion_lon": 0.0, "fusion_lat": 0.0, "lon": -77.06240016666666, "name": "f0f359cb9e48128ec883c690bb55fe8a"}, {"bike_id": "bfb5d959d499e5d42fe8129c89a65f6a", "type": "electric_scooter", "is_disabled": 0, "lat": 38.8741835, "rental_uris": {"ios": "https://dc.lft.to/lastmile_qr_scan", "android": "https://dc.lft.to/lastmile_qr_scan"}, "is_reserved": 0, "fusion_lon": 0.0, "fusion_lat": 0.0, "lon": -76.96911933333334, "name": "bfb5d959d499e5d42fe8129c89a65f6a"}, {"bike_id": "a271d46001dd80171a3f28b1aff121fe", "type": "electric_scooter", "is_disabled": 0, "lat": 38.89719616666667, "rental_uris": {"ios": "https://dc.lft.to/lastmile_qr_scan", "android": "https://dc.lft.to/lastmile_qr_scan"}, "is_reserved": 0, "fusion_lon": 0.0, "fusion_lat": 0.0, "lon": -77.0085725, "name": "a271d46001dd80171a3f28b1aff121fe"}, {"bike_id": "02890f38bdd0bcc75acf290ab258b3dd", "type": "electric_scooter", "is_disabled": 0, "lat": 38.923407833333336, "rental_uris": {"ios": "https://dc.lft.to/lastmile_qr_scan", "android": "https://dc.lft.to/lastmile_qr_scan"}, "is_reserved": 0, "fusion_lon": 0.0, "fusion_lat": 0.0, "lon": -77.0418165, "name": "02890f38bdd0bcc75acf290ab258b3dd"}, {"bike_id": "09d0be5531f946caeb396648ff1fe0ca", "type": "electric_bike", "is_disabled": 0, "lat": 38.96306716666667, "rental_uris": {"ios": "https://dc.lft.to/lastmile_qr_scan", "android": "https://dc.lft.to/lastmile_qr_scan"}, "is_reserved": 0, "fusion_lon": 0.0, "fusion_lat": 0.0, "lon": -77.01107366666666, "name": "09d0be5531f946caeb396648ff1fe0ca"}, {"bike_id": "9ba1a830af5eef8d1c44c72f2f94950a", "type": "electric_scooter", "is_disabled": 0, "lat": 38.92465683333333, "rental_uris": {"ios": "https://dc.lft.to/lastmile_qr_scan", "android": "https://dc.lft.to/lastmile_qr_scan"}, "is_reserved": 0, "fusion_lon": 0.0, "fusion_lat": 0.0, "lon": -77.02243516666667, "name": "9ba1a830af5eef8d1c44c72f2f94950a"}, {"bike_id": "f4bd6f43b59eeb928dd1c7cfd67da558", "type": "electric_scooter", "is_disabled": 0, "lat": 38.9285505, "rental_uris": {"ios": "https://dc.lft.to/lastmile_qr_scan", "android": "https://dc.lft.to/lastmile_qr_scan"}, "is_reserved": 0, "fusion_lon": 0.0, "fusion_lat": 0.0, "lon": -77.031082, "name": "f4bd6f43b59eeb928dd1c7cfd67da558"}, {"bike_id": "17e990b8edc5e9356610b94e1e2ee2b5", "type": "electric_scooter", "is_disabled": 0, "lat": 38.87644233333333, "rental_uris": {"ios": "https://dc.lft.to/lastmile_qr_scan", "android": "https://dc.lft.to/lastmile_qr_scan"}, "is_reserved": 0, "fusion_lon": 0.0, "fusion_lat": 0.0, "lon": -77.0082025, "name": "17e990b8edc5e9356610b94e1e2ee2b5"}, {"bike_id": "1236522e5aa19d12f3152d04f1e8f85e", "type": "electric_scooter", "is_disabled": 0, "lat": 38.916991333333335, "rental_uris": {"ios": "https://dc.lft.to/lastmile_qr_scan", "android": "https://dc.lft.to/lastmile_qr_scan"}, "is_reserved": 0, "fusion_lon": 0.0, "fusion_lat": 0.0, "lon": -77.01015683333334, "name": "1236522e5aa19d12f3152d04f1e8f85e"}, {"bike_id": "bec5399593e7d8983e9e75d9903febff", "type": "electric_scooter", "is_disabled": 0, "lat": 38.90845633333333, "rental_uris": {"ios": "https://dc.lft.to/lastmile_qr_scan", "android": "https://dc.lft.to/lastmile_qr_scan"}, "is_reserved": 0, "fusion_lon": 0.0, "fusion_lat": 0.0, "lon": -76.99801733333334, "name": "bec5399593e7d8983e9e75d9903febff"}, {"bike_id": "a04536ad1db4288cd59f655c26428890", "type": "electric_scooter", "is_disabled": 0, "lat": 38.9003315, "rental_uris": {"ios": "https://dc.lft.to/lastmile_qr_scan", "android": "https://dc.lft.to/lastmile_qr_scan"}, "is_reserved": 0, "fusion_lon": 0.0, "fusion_lat": 0.0, "lon": -77.01281883333333, "name": "a04536ad1db4288cd59f655c26428890"}, {"bike_id": "5e5d472a67bb76d2277ff9d6acfdcd6f", "type": "electric_scooter", "is_disabled": 0, "lat": 38.90626366666667, "rental_uris": {"ios": "https://dc.lft.to/lastmile_qr_scan", "android": "https://dc.lft.to/lastmile_qr_scan"}, "is_reserved": 0, "fusion_lon": 0.0, "fusion_lat": 0.0, "lon": -77.05559066666666, "name": "5e5d472a67bb76d2277ff9d6acfdcd6f"}, {"bike_id": "451164bc7f8c0bfc1686cc913191b313", "type": "electric_scooter", "is_disabled": 0, "lat": 38.89916316666667, "rental_uris": {"ios": "https://dc.lft.to/lastmile_qr_scan", "android": "https://dc.lft.to/lastmile_qr_scan"}, "is_reserved": 0, "fusion_lon": 0.0, "fusion_lat": 0.0, "lon": -76.9337055, "name": "451164bc7f8c0bfc1686cc913191b313"}, {"bike_id": "849753fcaf597df1e0690c5d4c2a101b", "type": "electric_scooter", "is_disabled": 0, "lat": 38.911874166666664, "rental_uris": {"ios": "https://dc.lft.to/lastmile_qr_scan", "android": "https://dc.lft.to/lastmile_qr_scan"}, "is_reserved": 0, "fusion_lon": 0.0, "fusion_lat": 0.0, "lon": -77.0386515, "name": "849753fcaf597df1e0690c5d4c2a101b"}, {"bike_id": "5426023ba2019c1a9868627afc689078", "type": "electric_scooter", "is_disabled": 0, "lat": 38.90818933333333, "rental_uris": {"ios": "https://dc.lft.to/lastmile_qr_scan", "android": "https://dc.lft.to/lastmile_qr_scan"}, "is_reserved": 0, "fusion_lon": 0.0, "fusion_lat": 0.0, "lon": -77.06371866666667, "name": "5426023ba2019c1a9868627afc689078"}, {"bike_id": "f2bd16bb822ed7fc2fe9582338aa8b81", "type": "electric_scooter", "is_disabled": 0, "lat": 38.91693766666667, "rental_uris": {"ios": "https://dc.lft.to/lastmile_qr_scan", "android": "https://dc.lft.to/lastmile_qr_scan"}, "is_reserved": 0, "fusion_lon": 0.0, "fusion_lat": 0.0, "lon": -77.03156366666667, "name": "f2bd16bb822ed7fc2fe9582338aa8b81"}, {"bike_id": "ea48e68f1f32a72793dc7e1fe5f2bf7d", "type": "electric_scooter", "is_disabled": 0, "lat": 38.92371216666667, "rental_uris": {"ios": "https://dc.lft.to/lastmile_qr_scan", "android": "https://dc.lft.to/lastmile_qr_scan"}, "is_reserved": 0, "fusion_lon": 0.0, "fusion_lat": 0.0, "lon": -77.04123516666667, "name": "ea48e68f1f32a72793dc7e1fe5f2bf7d"}, {"bike_id": "0b1e4961e7e3f38496a5608496e8ab52", "type": "electric_scooter", "is_disabled": 0, "lat": 38.92137966666667, "rental_uris": {"ios": "https://dc.lft.to/lastmile_qr_scan", "android": "https://dc.lft.to/lastmile_qr_scan"}, "is_reserved": 0, "fusion_lon": 0.0, "fusion_lat": 0.0, "lon": -77.01807633333334, "name": "0b1e4961e7e3f38496a5608496e8ab52"}, {"bike_id": "a56a989eecd7b17e3487b43b85de79a2", "type": "electric_scooter", "is_disabled": 0, "lat": 38.91649966666667, "rental_uris": {"ios": "https://dc.lft.to/lastmile_qr_scan", "android": "https://dc.lft.to/lastmile_qr_scan"}, "is_reserved": 0, "fusion_lon": 0.0, "fusion_lat": 0.0, "lon": -77.0228715, "name": "a56a989eecd7b17e3487b43b85de79a2"}, {"bike_id": "4056fc33acb597c20438c9d7099011d5", "type": "electric_scooter", "is_disabled": 0, "lat": 38.924809833333335, "rental_uris": {"ios": "https://dc.lft.to/lastmile_qr_scan", "android": "https://dc.lft.to/lastmile_qr_scan"}, "is_reserved": 0, "fusion_lon": 0.0, "fusion_lat": 0.0, "lon": -77.05757133333333, "name": "4056fc33acb597c20438c9d7099011d5"}, {"bike_id": "aaaf25bf5a7b8cf6166b11355bbe1b3b", "type": "electric_scooter", "is_disabled": 0, "lat": 38.9052025, "rental_uris": {"ios": "https://dc.lft.to/lastmile_qr_scan", "android": "https://dc.lft.to/lastmile_qr_scan"}, "is_reserved": 0, "fusion_lon": 0.0, "fusion_lat": 0.0, "lon": -77.06451566666667, "name": "aaaf25bf5a7b8cf6166b11355bbe1b3b"}, {"bike_id": "c0deb06285b56a0bb5593fad9521bf35", "type": "electric_scooter", "is_disabled": 0, "lat": 38.936375166666664, "rental_uris": {"ios": "https://dc.lft.to/lastmile_qr_scan", "android": "https://dc.lft.to/lastmile_qr_scan"}, "is_reserved": 0, "fusion_lon": 0.0, "fusion_lat": 0.0, "lon": -77.05888416666667, "name": "c0deb06285b56a0bb5593fad9521bf35"}, {"bike_id": "09cd719d0ffae9cdbcd93808fef79566", "type": "electric_scooter", "is_disabled": 0, "lat": 38.914051, "rental_uris": {"ios": "https://dc.lft.to/lastmile_qr_scan", "android": "https://dc.lft.to/lastmile_qr_scan"}, "is_reserved": 0, "fusion_lon": 0.0, "fusion_lat": 0.0, "lon": -77.0327125, "name": "09cd719d0ffae9cdbcd93808fef79566"}, {"bike_id": "8330945d2a7958ea6adab066e43b5baf", "type": "electric_scooter", "is_disabled": 0, "lat": 38.94208283333333, "rental_uris": {"ios": "https://dc.lft.to/lastmile_qr_scan", "android": "https://dc.lft.to/lastmile_qr_scan"}, "is_reserved": 0, "fusion_lon": 0.0, "fusion_lat": 0.0, "lon": -77.025838, "name": "8330945d2a7958ea6adab066e43b5baf"}, {"bike_id": "68b3c71945b024e7017abf92725106d7", "type": "electric_scooter", "is_disabled": 0, "lat": 38.912664166666666, "rental_uris": {"ios": "https://dc.lft.to/lastmile_qr_scan", "android": "https://dc.lft.to/lastmile_qr_scan"}, "is_reserved": 0, "fusion_lon": 0.0, "fusion_lat": 0.0, "lon": -77.01462183333334, "name": "68b3c71945b024e7017abf92725106d7"}, {"bike_id": "387a11e0770240e6a0da54f97b98d1c8", "type": "electric_scooter", "is_disabled": 0, "lat": 38.929766, "rental_uris": {"ios": "https://dc.lft.to/lastmile_qr_scan", "android": "https://dc.lft.to/lastmile_qr_scan"}, "is_reserved": 0, "fusion_lon": 0.0, "fusion_lat": 0.0, "lon": -77.03260683333333, "name": "387a11e0770240e6a0da54f97b98d1c8"}, {"bike_id": "e9e38464e06d601f7563d0da6fca89cf", "type": "electric_scooter", "is_disabled": 0, "lat": 38.91170366666667, "rental_uris": {"ios": "https://dc.lft.to/lastmile_qr_scan", "android": "https://dc.lft.to/lastmile_qr_scan"}, "is_reserved": 0, "fusion_lon": 0.0, "fusion_lat": 0.0, "lon": -77.03197116666666, "name": "e9e38464e06d601f7563d0da6fca89cf"}, {"bike_id": "b27cfac4eec6c54986497db14cc8a27b", "type": "electric_scooter", "is_disabled": 0, "lat": 38.92480883333333, "rental_uris": {"ios": "https://dc.lft.to/lastmile_qr_scan", "android": "https://dc.lft.to/lastmile_qr_scan"}, "is_reserved": 0, "fusion_lon": 0.0, "fusion_lat": 0.0, "lon": -77.02721766666667, "name": "b27cfac4eec6c54986497db14cc8a27b"}, {"bike_id": "29c69c428cc16c1ecf0ca874a2bbdc5d", "type": "electric_scooter", "is_disabled": 0, "lat": 38.90525866666667, "rental_uris": {"ios": "https://dc.lft.to/lastmile_qr_scan", "android": "https://dc.lft.to/lastmile_qr_scan"}, "is_reserved": 0, "fusion_lon": 0.0, "fusion_lat": 0.0, "lon": -77.05678983333334, "name": "29c69c428cc16c1ecf0ca874a2bbdc5d"}, {"bike_id": "4c6f597573caf7b14a4e4a3f0c56f49a", "type": "electric_scooter", "is_disabled": 0, "lat": 38.91741316666667, "rental_uris": {"ios": "https://dc.lft.to/lastmile_qr_scan", "android": "https://dc.lft.to/lastmile_qr_scan"}, "is_reserved": 0, "fusion_lon": 0.0, "fusion_lat": 0.0, "lon": -77.02394116666666, "name": "4c6f597573caf7b14a4e4a3f0c56f49a"}, {"bike_id": "71df8c132a17b965abffbc34ab853efe", "type": "electric_scooter", "is_disabled": 0, "lat": 38.92449366666666, "rental_uris": {"ios": "https://dc.lft.to/lastmile_qr_scan", "android": "https://dc.lft.to/lastmile_qr_scan"}, "is_reserved": 0, "fusion_lon": 0.0, "fusion_lat": 0.0, "lon": -77.02414816666666, "name": "71df8c132a17b965abffbc34ab853efe"}, {"bike_id": "80b89454e78cb59207864308cf11cf36", "type": "electric_scooter", "is_disabled": 0, "lat": 38.862445666666666, "rental_uris": {"ios": "https://dc.lft.to/lastmile_qr_scan", "android": "https://dc.lft.to/lastmile_qr_scan"}, "is_reserved": 0, "fusion_lon": 0.0, "fusion_lat": 0.0, "lon": -76.9950305, "name": "80b89454e78cb59207864308cf11cf36"}, {"bike_id": "4efe917aa5a678347f2192e1e9a82f3f", "type": "electric_scooter", "is_disabled": 0, "lat": 38.94288533333334, "rental_uris": {"ios": "https://dc.lft.to/lastmile_qr_scan", "android": "https://dc.lft.to/lastmile_qr_scan"}, "is_reserved": 0, "fusion_lon": 0.0, "fusion_lat": 0.0, "lon": -77.02177216666666, "name": "4efe917aa5a678347f2192e1e9a82f3f"}, {"bike_id": "45c274de6791778c755ff848b2de3126", "type": "electric_bike", "is_disabled": 0, "lat": 38.85414633333333, "rental_uris": {"ios": "https://dc.lft.to/lastmile_qr_scan", "android": "https://dc.lft.to/lastmile_qr_scan"}, "is_reserved": 0, "fusion_lon": 0.0, "fusion_lat": 0.0, "lon": -77.12077266666667, "name": "45c274de6791778c755ff848b2de3126"}, {"bike_id": "13860fc4cd41343d36e5d0d3326e7c11", "type": "electric_scooter", "is_disabled": 0, "lat": 38.915561333333336, "rental_uris": {"ios": "https://dc.lft.to/lastmile_qr_scan", "android": "https://dc.lft.to/lastmile_qr_scan"}, "is_reserved": 0, "fusion_lon": 0.0, "fusion_lat": 0.0, "lon": -77.033429, "name": "13860fc4cd41343d36e5d0d3326e7c11"}, {"bike_id": "066a0cce2a622bbded3c03c01840fb91", "type": "electric_scooter", "is_disabled": 0, "lat": 38.93413366666667, "rental_uris": {"ios": "https://dc.lft.to/lastmile_qr_scan", "android": "https://dc.lft.to/lastmile_qr_scan"}, "is_reserved": 0, "fusion_lon": 0.0, "fusion_lat": 0.0, "lon": -77.03918883333333, "name": "066a0cce2a622bbded3c03c01840fb91"}, {"bike_id": "4df3e86abb29b273539157984dfcba54", "type": "electric_scooter", "is_disabled": 0, "lat": 38.94839416666667, "rental_uris": {"ios": "https://dc.lft.to/lastmile_qr_scan", "android": "https://dc.lft.to/lastmile_qr_scan"}, "is_reserved": 0, "fusion_lon": 0.0, "fusion_lat": 0.0, "lon": -77.02544883333333, "name": "4df3e86abb29b273539157984dfcba54"}, {"bike_id": "2e7d855192d1404ab541a286f1dfabb9", "type": "electric_scooter", "is_disabled": 0, "lat": 38.933223, "rental_uris": {"ios": "https://dc.lft.to/lastmile_qr_scan", "android": "https://dc.lft.to/lastmile_qr_scan"}, "is_reserved": 0, "fusion_lon": 0.0, "fusion_lat": 0.0, "lon": -77.0292885, "name": "2e7d855192d1404ab541a286f1dfabb9"}, {"bike_id": "44d55e4cc9590005880b613b9eacd41d", "type": "electric_scooter", "is_disabled": 0, "lat": 38.9016705, "rental_uris": {"ios": "https://dc.lft.to/lastmile_qr_scan", "android": "https://dc.lft.to/lastmile_qr_scan"}, "is_reserved": 0, "fusion_lon": 0.0, "fusion_lat": 0.0, "lon": -76.98449683333334, "name": "44d55e4cc9590005880b613b9eacd41d"}, {"bike_id": "5250a8fd4d98ba89ee3420ec33cdc667", "type": "electric_scooter", "is_disabled": 0, "lat": 38.90418966666667, "rental_uris": {"ios": "https://dc.lft.to/lastmile_qr_scan", "android": "https://dc.lft.to/lastmile_qr_scan"}, "is_reserved": 0, "fusion_lon": 0.0, "fusion_lat": 0.0, "lon": -76.973793, "name": "5250a8fd4d98ba89ee3420ec33cdc667"}, {"bike_id": "c52d745e2379b3d3dc36b23f847a3a61", "type": "electric_scooter", "is_disabled": 0, "lat": 38.85441, "rental_uris": {"ios": "https://dc.lft.to/lastmile_qr_scan", "android": "https://dc.lft.to/lastmile_qr_scan"}, "is_reserved": 0, "fusion_lon": 0.0, "fusion_lat": 0.0, "lon": -76.98609183333333, "name": "c52d745e2379b3d3dc36b23f847a3a61"}, {"bike_id": "ceadd1a2a6324015f6b8ac183b45bd20", "type": "electric_scooter", "is_disabled": 0, "lat": 38.915533833333335, "rental_uris": {"ios": "https://dc.lft.to/lastmile_qr_scan", "android": "https://dc.lft.to/lastmile_qr_scan"}, "is_reserved": 0, "fusion_lon": 0.0, "fusion_lat": 0.0, "lon": -77.0418235, "name": "ceadd1a2a6324015f6b8ac183b45bd20"}, {"bike_id": "b5c783de44b86bb15dfc783ff18915f7", "type": "electric_scooter", "is_disabled": 0, "lat": 38.887400166666666, "rental_uris": {"ios": "https://dc.lft.to/lastmile_qr_scan", "android": "https://dc.lft.to/lastmile_qr_scan"}, "is_reserved": 0, "fusion_lon": 0.0, "fusion_lat": 0.0, "lon": -76.9963155, "name": "b5c783de44b86bb15dfc783ff18915f7"}, {"bike_id": "a093754c2c09a9acdd707c35315ff7ab", "type": "electric_scooter", "is_disabled": 0, "lat": 38.9050395, "rental_uris": {"ios": "https://dc.lft.to/lastmile_qr_scan", "android": "https://dc.lft.to/lastmile_qr_scan"}, "is_reserved": 0, "fusion_lon": 0.0, "fusion_lat": 0.0, "lon": -77.06741583333333, "name": "a093754c2c09a9acdd707c35315ff7ab"}, {"bike_id": "0ebe7894c9c853f78deac4d84c522380", "type": "electric_scooter", "is_disabled": 0, "lat": 38.884934, "rental_uris": {"ios": "https://dc.lft.to/lastmile_qr_scan", "android": "https://dc.lft.to/lastmile_qr_scan"}, "is_reserved": 0, "fusion_lon": 0.0, "fusion_lat": 0.0, "lon": -77.00712266666666, "name": "0ebe7894c9c853f78deac4d84c522380"}, {"bike_id": "13d17038f59d439b9868e6ceb2fd8dd2", "type": "electric_scooter", "is_disabled": 0, "lat": 38.88408616666667, "rental_uris": {"ios": "https://dc.lft.to/lastmile_qr_scan", "android": "https://dc.lft.to/lastmile_qr_scan"}, "is_reserved": 0, "fusion_lon": 0.0, "fusion_lat": 0.0, "lon": -77.031923, "name": "13d17038f59d439b9868e6ceb2fd8dd2"}, {"bike_id": "f1e663affd3d63eb4b5269635ca6600c", "type": "electric_scooter", "is_disabled": 0, "lat": 38.89738933333334, "rental_uris": {"ios": "https://dc.lft.to/lastmile_qr_scan", "android": "https://dc.lft.to/lastmile_qr_scan"}, "is_reserved": 0, "fusion_lon": 0.0, "fusion_lat": 0.0, "lon": -77.00012033333333, "name": "f1e663affd3d63eb4b5269635ca6600c"}, {"bike_id": "91fbc2c9681a2aad295fdd3457217e64", "type": "electric_scooter", "is_disabled": 0, "lat": 38.93290533333333, "rental_uris": {"ios": "https://dc.lft.to/lastmile_qr_scan", "android": "https://dc.lft.to/lastmile_qr_scan"}, "is_reserved": 0, "fusion_lon": 0.0, "fusion_lat": 0.0, "lon": -77.04126866666667, "name": "91fbc2c9681a2aad295fdd3457217e64"}, {"bike_id": "647e68b1a0123274599920738b8591ef", "type": "electric_scooter", "is_disabled": 0, "lat": 38.89541116666667, "rental_uris": {"ios": "https://dc.lft.to/lastmile_qr_scan", "android": "https://dc.lft.to/lastmile_qr_scan"}, "is_reserved": 0, "fusion_lon": 0.0, "fusion_lat": 0.0, "lon": -76.929548, "name": "647e68b1a0123274599920738b8591ef"}, {"bike_id": "bc0b1946ff5203d6986769bc8fef885a", "type": "electric_scooter", "is_disabled": 0, "lat": 38.920449, "rental_uris": {"ios": "https://dc.lft.to/lastmile_qr_scan", "android": "https://dc.lft.to/lastmile_qr_scan"}, "is_reserved": 0, "fusion_lon": 0.0, "fusion_lat": 0.0, "lon": -77.03389133333333, "name": "bc0b1946ff5203d6986769bc8fef885a"}, {"bike_id": "c499d15fec8d0d56891a3e18b198b36d", "type": "electric_scooter", "is_disabled": 0, "lat": 38.87284983333333, "rental_uris": {"ios": "https://dc.lft.to/lastmile_qr_scan", "android": "https://dc.lft.to/lastmile_qr_scan"}, "is_reserved": 0, "fusion_lon": 0.0, "fusion_lat": 0.0, "lon": -76.97732816666667, "name": "c499d15fec8d0d56891a3e18b198b36d"}, {"bike_id": "006cf3586aa6863890727b860a5f24fd", "type": "electric_scooter", "is_disabled": 0, "lat": 38.89497433333333, "rental_uris": {"ios": "https://dc.lft.to/lastmile_qr_scan", "android": "https://dc.lft.to/lastmile_qr_scan"}, "is_reserved": 0, "fusion_lon": 0.0, "fusion_lat": 0.0, "lon": -77.00057883333334, "name": "006cf3586aa6863890727b860a5f24fd"}, {"bike_id": "3dec44f332558d23f30bb1c5478c8464", "type": "electric_scooter", "is_disabled": 0, "lat": 38.90287033333333, "rental_uris": {"ios": "https://dc.lft.to/lastmile_qr_scan", "android": "https://dc.lft.to/lastmile_qr_scan"}, "is_reserved": 0, "fusion_lon": 0.0, "fusion_lat": 0.0, "lon": -77.044672, "name": "3dec44f332558d23f30bb1c5478c8464"}, {"bike_id": "e054a378ff6bff092effbbd3a64795d4", "type": "electric_scooter", "is_disabled": 0, "lat": 38.905007166666664, "rental_uris": {"ios": "https://dc.lft.to/lastmile_qr_scan", "android": "https://dc.lft.to/lastmile_qr_scan"}, "is_reserved": 0, "fusion_lon": 0.0, "fusion_lat": 0.0, "lon": -77.06887283333333, "name": "e054a378ff6bff092effbbd3a64795d4"}, {"bike_id": "1fa941546a988224c614805754600fc1", "type": "electric_scooter", "is_disabled": 0, "lat": 38.8762415, "rental_uris": {"ios": "https://dc.lft.to/lastmile_qr_scan", "android": "https://dc.lft.to/lastmile_qr_scan"}, "is_reserved": 0, "fusion_lon": 0.0, "fusion_lat": 0.0, "lon": -76.96527166666667, "name": "1fa941546a988224c614805754600fc1"}, {"bike_id": "03ade9f0e46d7631d6f15a16bece3730", "type": "electric_scooter", "is_disabled": 0, "lat": 38.90061633333333, "rental_uris": {"ios": "https://dc.lft.to/lastmile_qr_scan", "android": "https://dc.lft.to/lastmile_qr_scan"}, "is_reserved": 0, "fusion_lon": 0.0, "fusion_lat": 0.0, "lon": -76.92740783333333, "name": "03ade9f0e46d7631d6f15a16bece3730"}, {"bike_id": "a4d6cef3aa8b4c49e0312054543d18a5", "type": "electric_scooter", "is_disabled": 0, "lat": 38.91348583333333, "rental_uris": {"ios": "https://dc.lft.to/lastmile_qr_scan", "android": "https://dc.lft.to/lastmile_qr_scan"}, "is_reserved": 0, "fusion_lon": 0.0, "fusion_lat": 0.0, "lon": -77.03189966666666, "name": "a4d6cef3aa8b4c49e0312054543d18a5"}, {"bike_id": "ab5af56439d288ebbe00ab6adede3d9a", "type": "electric_scooter", "is_disabled": 0, "lat": 38.920817666666665, "rental_uris": {"ios": "https://dc.lft.to/lastmile_qr_scan", "android": "https://dc.lft.to/lastmile_qr_scan"}, "is_reserved": 0, "fusion_lon": 0.0, "fusion_lat": 0.0, "lon": -77.02384483333333, "name": "ab5af56439d288ebbe00ab6adede3d9a"}, {"bike_id": "744c4efd0187a6bfec63638f1c8539cf", "type": "electric_scooter", "is_disabled": 0, "lat": 38.937524833333335, "rental_uris": {"ios": "https://dc.lft.to/lastmile_qr_scan", "android": "https://dc.lft.to/lastmile_qr_scan"}, "is_reserved": 0, "fusion_lon": 0.0, "fusion_lat": 0.0, "lon": -77.02445416666667, "name": "744c4efd0187a6bfec63638f1c8539cf"}, {"bike_id": "bc2c982d64c81542cd7bed634063b90c", "type": "electric_scooter", "is_disabled": 0, "lat": 38.902795833333336, "rental_uris": {"ios": "https://dc.lft.to/lastmile_qr_scan", "android": "https://dc.lft.to/lastmile_qr_scan"}, "is_reserved": 0, "fusion_lon": 0.0, "fusion_lat": 0.0, "lon": -77.04463666666666, "name": "bc2c982d64c81542cd7bed634063b90c"}, {"bike_id": "d02714f91166dde076b4aa94f34727a1", "type": "electric_scooter", "is_disabled": 0, "lat": 38.98425783333333, "rental_uris": {"ios": "https://dc.lft.to/lastmile_qr_scan", "android": "https://dc.lft.to/lastmile_qr_scan"}, "is_reserved": 0, "fusion_lon": 0.0, "fusion_lat": 0.0, "lon": -77.02668383333334, "name": "d02714f91166dde076b4aa94f34727a1"}, {"bike_id": "02edb665824c1aea5b246e8913408f35", "type": "electric_scooter", "is_disabled": 0, "lat": 38.87060733333333, "rental_uris": {"ios": "https://dc.lft.to/lastmile_qr_scan", "android": "https://dc.lft.to/lastmile_qr_scan"}, "is_reserved": 0, "fusion_lon": 0.0, "fusion_lat": 0.0, "lon": -77.0074215, "name": "02edb665824c1aea5b246e8913408f35"}, {"bike_id": "476fd02e1369c82e03b5510f590cc9f6", "type": "electric_scooter", "is_disabled": 0, "lat": 38.90244116666667, "rental_uris": {"ios": "https://dc.lft.to/lastmile_qr_scan", "android": "https://dc.lft.to/lastmile_qr_scan"}, "is_reserved": 0, "fusion_lon": 0.0, "fusion_lat": 0.0, "lon": -77.00077233333333, "name": "476fd02e1369c82e03b5510f590cc9f6"}, {"bike_id": "f835b732c20221da9707ff1701c414f6", "type": "electric_scooter", "is_disabled": 0, "lat": 38.92129583333333, "rental_uris": {"ios": "https://dc.lft.to/lastmile_qr_scan", "android": "https://dc.lft.to/lastmile_qr_scan"}, "is_reserved": 0, "fusion_lon": 0.0, "fusion_lat": 0.0, "lon": -77.01807566666666, "name": "f835b732c20221da9707ff1701c414f6"}, {"bike_id": "d6152c557f707a114330507a497d1b45", "type": "electric_scooter", "is_disabled": 0, "lat": 38.928311666666666, "rental_uris": {"ios": "https://dc.lft.to/lastmile_qr_scan", "android": "https://dc.lft.to/lastmile_qr_scan"}, "is_reserved": 0, "fusion_lon": 0.0, "fusion_lat": 0.0, "lon": -77.05515183333333, "name": "d6152c557f707a114330507a497d1b45"}, {"bike_id": "1d1056aa82b93166ea04f3ff70e2b323", "type": "electric_scooter", "is_disabled": 0, "lat": 38.86371916666667, "rental_uris": {"ios": "https://dc.lft.to/lastmile_qr_scan", "android": "https://dc.lft.to/lastmile_qr_scan"}, "is_reserved": 0, "fusion_lon": 0.0, "fusion_lat": 0.0, "lon": -76.99056183333333, "name": "1d1056aa82b93166ea04f3ff70e2b323"}, {"bike_id": "c6dde1fd6ef8d12cb65e307ec3fc9c9b", "type": "electric_scooter", "is_disabled": 0, "lat": 38.8841725, "rental_uris": {"ios": "https://dc.lft.to/lastmile_qr_scan", "android": "https://dc.lft.to/lastmile_qr_scan"}, "is_reserved": 0, "fusion_lon": 0.0, "fusion_lat": 0.0, "lon": -77.00743533333333, "name": "c6dde1fd6ef8d12cb65e307ec3fc9c9b"}, {"bike_id": "394d6751aa4d962b9d67f7dcd679b1ad", "type": "electric_scooter", "is_disabled": 0, "lat": 38.916338833333334, "rental_uris": {"ios": "https://dc.lft.to/lastmile_qr_scan", "android": "https://dc.lft.to/lastmile_qr_scan"}, "is_reserved": 0, "fusion_lon": 0.0, "fusion_lat": 0.0, "lon": -77.0321845, "name": "394d6751aa4d962b9d67f7dcd679b1ad"}, {"bike_id": "59d067f3f9a436e8c5216d234dae3ba1", "type": "electric_bike", "is_disabled": 0, "lat": 38.9401795, "rental_uris": {"ios": "https://dc.lft.to/lastmile_qr_scan", "android": "https://dc.lft.to/lastmile_qr_scan"}, "is_reserved": 0, "fusion_lon": 0.0, "fusion_lat": 0.0, "lon": -76.9761405, "name": "59d067f3f9a436e8c5216d234dae3ba1"}, {"bike_id": "9d2a4ce10064820edab501f4cac1edbe", "type": "electric_bike", "is_disabled": 0, "lat": 38.9563205, "rental_uris": {"ios": "https://dc.lft.to/lastmile_qr_scan", "android": "https://dc.lft.to/lastmile_qr_scan"}, "is_reserved": 0, "fusion_lon": 0.0, "fusion_lat": 0.0, "lon": -76.9387415, "name": "9d2a4ce10064820edab501f4cac1edbe"}, {"bike_id": "d4cf702093dc1970ee819c5c05c2dd5b", "type": "electric_scooter", "is_disabled": 0, "lat": 38.917653666666666, "rental_uris": {"ios": "https://dc.lft.to/lastmile_qr_scan", "android": "https://dc.lft.to/lastmile_qr_scan"}, "is_reserved": 0, "fusion_lon": 0.0, "fusion_lat": 0.0, "lon": -77.047714, "name": "d4cf702093dc1970ee819c5c05c2dd5b"}, {"bike_id": "5a24c8e690c25a121c4dc8e670c892c5", "type": "electric_scooter", "is_disabled": 0, "lat": 38.92798166666667, "rental_uris": {"ios": "https://dc.lft.to/lastmile_qr_scan", "android": "https://dc.lft.to/lastmile_qr_scan"}, "is_reserved": 0, "fusion_lon": 0.0, "fusion_lat": 0.0, "lon": -77.025987, "name": "5a24c8e690c25a121c4dc8e670c892c5"}, {"bike_id": "146f76402f3400ef554fa0e7e5b8327a", "type": "electric_scooter", "is_disabled": 0, "lat": 38.929708166666664, "rental_uris": {"ios": "https://dc.lft.to/lastmile_qr_scan", "android": "https://dc.lft.to/lastmile_qr_scan"}, "is_reserved": 0, "fusion_lon": 0.0, "fusion_lat": 0.0, "lon": -77.02802583333333, "name": "146f76402f3400ef554fa0e7e5b8327a"}, {"bike_id": "57443929a40f362c2836ef3c9ec775ff", "type": "electric_scooter", "is_disabled": 0, "lat": 38.9120725, "rental_uris": {"ios": "https://dc.lft.to/lastmile_qr_scan", "android": "https://dc.lft.to/lastmile_qr_scan"}, "is_reserved": 0, "fusion_lon": 0.0, "fusion_lat": 0.0, "lon": -77.0345975, "name": "57443929a40f362c2836ef3c9ec775ff"}, {"bike_id": "3b3d4cc66369c7c1e6c519c0b7569544", "type": "electric_scooter", "is_disabled": 0, "lat": 38.893212, "rental_uris": {"ios": "https://dc.lft.to/lastmile_qr_scan", "android": "https://dc.lft.to/lastmile_qr_scan"}, "is_reserved": 0, "fusion_lon": 0.0, "fusion_lat": 0.0, "lon": -77.04877066666667, "name": "3b3d4cc66369c7c1e6c519c0b7569544"}, {"bike_id": "e04c6c6f20b85b5e6b75d906def496fd", "type": "electric_scooter", "is_disabled": 0, "lat": 38.93107416666667, "rental_uris": {"ios": "https://dc.lft.to/lastmile_qr_scan", "android": "https://dc.lft.to/lastmile_qr_scan"}, "is_reserved": 0, "fusion_lon": 0.0, "fusion_lat": 0.0, "lon": -77.03473783333334, "name": "e04c6c6f20b85b5e6b75d906def496fd"}, {"bike_id": "b053769d68a89092a4d939fa3820bbf4", "type": "electric_scooter", "is_disabled": 0, "lat": 38.874549, "rental_uris": {"ios": "https://dc.lft.to/lastmile_qr_scan", "android": "https://dc.lft.to/lastmile_qr_scan"}, "is_reserved": 0, "fusion_lon": 0.0, "fusion_lat": 0.0, "lon": -77.00942316666666, "name": "b053769d68a89092a4d939fa3820bbf4"}, {"bike_id": "bb2400bb1afe024e3539fa8411464240", "type": "electric_scooter", "is_disabled": 0, "lat": 38.922979, "rental_uris": {"ios": "https://dc.lft.to/lastmile_qr_scan", "android": "https://dc.lft.to/lastmile_qr_scan"}, "is_reserved": 0, "fusion_lon": 0.0, "fusion_lat": 0.0, "lon": -77.0729195, "name": "bb2400bb1afe024e3539fa8411464240"}, {"bike_id": "3fe7c1686a8b077649fa4704d089425b", "type": "electric_scooter", "is_disabled": 0, "lat": 38.87883516666667, "rental_uris": {"ios": "https://dc.lft.to/lastmile_qr_scan", "android": "https://dc.lft.to/lastmile_qr_scan"}, "is_reserved": 0, "fusion_lon": 0.0, "fusion_lat": 0.0, "lon": -77.022443, "name": "3fe7c1686a8b077649fa4704d089425b"}, {"bike_id": "5ab1f639694d280902b15b0e319cc00d", "type": "electric_scooter", "is_disabled": 0, "lat": 38.9088985, "rental_uris": {"ios": "https://dc.lft.to/lastmile_qr_scan", "android": "https://dc.lft.to/lastmile_qr_scan"}, "is_reserved": 0, "fusion_lon": 0.0, "fusion_lat": 0.0, "lon": -77.04497066666667, "name": "5ab1f639694d280902b15b0e319cc00d"}, {"bike_id": "3f671e5332f76265f72d2ad4123ecfe1", "type": "electric_scooter", "is_disabled": 0, "lat": 38.913328, "rental_uris": {"ios": "https://dc.lft.to/lastmile_qr_scan", "android": "https://dc.lft.to/lastmile_qr_scan"}, "is_reserved": 0, "fusion_lon": 0.0, "fusion_lat": 0.0, "lon": -77.02520016666666, "name": "3f671e5332f76265f72d2ad4123ecfe1"}, {"bike_id": "df9fa4f04425da56a395421381452946", "type": "electric_scooter", "is_disabled": 0, "lat": 38.9055295, "rental_uris": {"ios": "https://dc.lft.to/lastmile_qr_scan", "android": "https://dc.lft.to/lastmile_qr_scan"}, "is_reserved": 0, "fusion_lon": 0.0, "fusion_lat": 0.0, "lon": -76.99794716666666, "name": "df9fa4f04425da56a395421381452946"}, {"bike_id": "123db3357ba6d91678be96cd288afac5", "type": "electric_scooter", "is_disabled": 0, "lat": 38.935284833333334, "rental_uris": {"ios": "https://dc.lft.to/lastmile_qr_scan", "android": "https://dc.lft.to/lastmile_qr_scan"}, "is_reserved": 0, "fusion_lon": 0.0, "fusion_lat": 0.0, "lon": -77.02361766666667, "name": "123db3357ba6d91678be96cd288afac5"}, {"bike_id": "d2ae96771fecd850c2da0c3cd30726ab", "type": "electric_scooter", "is_disabled": 0, "lat": 38.89476766666667, "rental_uris": {"ios": "https://dc.lft.to/lastmile_qr_scan", "android": "https://dc.lft.to/lastmile_qr_scan"}, "is_reserved": 0, "fusion_lon": 0.0, "fusion_lat": 0.0, "lon": -76.94863116666667, "name": "d2ae96771fecd850c2da0c3cd30726ab"}, {"bike_id": "ae4e697e5af26af126de1fde799b2ec8", "type": "electric_scooter", "is_disabled": 0, "lat": 38.93731483333333, "rental_uris": {"ios": "https://dc.lft.to/lastmile_qr_scan", "android": "https://dc.lft.to/lastmile_qr_scan"}, "is_reserved": 0, "fusion_lon": 0.0, "fusion_lat": 0.0, "lon": -77.02456916666667, "name": "ae4e697e5af26af126de1fde799b2ec8"}, {"bike_id": "2607ff38dda46fb2bcd0a8236a3161ef", "type": "electric_bike", "is_disabled": 0, "lat": 38.97878383333333, "rental_uris": {"ios": "https://dc.lft.to/lastmile_qr_scan", "android": "https://dc.lft.to/lastmile_qr_scan"}, "is_reserved": 0, "fusion_lon": 0.0, "fusion_lat": 0.0, "lon": -77.0603405, "name": "2607ff38dda46fb2bcd0a8236a3161ef"}, {"bike_id": "1f168277f28359d6a1a709da99f37727", "type": "electric_scooter", "is_disabled": 0, "lat": 38.92497483333333, "rental_uris": {"ios": "https://dc.lft.to/lastmile_qr_scan", "android": "https://dc.lft.to/lastmile_qr_scan"}, "is_reserved": 0, "fusion_lon": 0.0, "fusion_lat": 0.0, "lon": -77.02161733333334, "name": "1f168277f28359d6a1a709da99f37727"}, {"bike_id": "056bcef5677509fce0e53f53b2c3b641", "type": "electric_scooter", "is_disabled": 0, "lat": 38.92767966666667, "rental_uris": {"ios": "https://dc.lft.to/lastmile_qr_scan", "android": "https://dc.lft.to/lastmile_qr_scan"}, "is_reserved": 0, "fusion_lon": 0.0, "fusion_lat": 0.0, "lon": -76.9876485, "name": "056bcef5677509fce0e53f53b2c3b641"}, {"bike_id": "d506e58dbaa3ab90a08a487b527cc4c3", "type": "electric_scooter", "is_disabled": 0, "lat": 38.90981883333333, "rental_uris": {"ios": "https://dc.lft.to/lastmile_qr_scan", "android": "https://dc.lft.to/lastmile_qr_scan"}, "is_reserved": 0, "fusion_lon": 0.0, "fusion_lat": 0.0, "lon": -77.0226845, "name": "d506e58dbaa3ab90a08a487b527cc4c3"}, {"bike_id": "e4b7f08098435252cfe67348ddb7baf9", "type": "electric_scooter", "is_disabled": 0, "lat": 38.9096025, "rental_uris": {"ios": "https://dc.lft.to/lastmile_qr_scan", "android": "https://dc.lft.to/lastmile_qr_scan"}, "is_reserved": 0, "fusion_lon": 0.0, "fusion_lat": 0.0, "lon": -77.04791083333333, "name": "e4b7f08098435252cfe67348ddb7baf9"}, {"bike_id": "0dd9e575acbb1a151ba38f1b9d614a1b", "type": "electric_scooter", "is_disabled": 0, "lat": 38.91193916666667, "rental_uris": {"ios": "https://dc.lft.to/lastmile_qr_scan", "android": "https://dc.lft.to/lastmile_qr_scan"}, "is_reserved": 0, "fusion_lon": 0.0, "fusion_lat": 0.0, "lon": -77.03204833333334, "name": "0dd9e575acbb1a151ba38f1b9d614a1b"}, {"bike_id": "af14f5cd87f34ae5a5c15a00b26236cb", "type": "electric_scooter", "is_disabled": 0, "lat": 38.899849333333336, "rental_uris": {"ios": "https://dc.lft.to/lastmile_qr_scan", "android": "https://dc.lft.to/lastmile_qr_scan"}, "is_reserved": 0, "fusion_lon": 0.0, "fusion_lat": 0.0, "lon": -76.94999533333333, "name": "af14f5cd87f34ae5a5c15a00b26236cb"}, {"bike_id": "61f87edc0d09135729e577509a4d4d18", "type": "electric_scooter", "is_disabled": 0, "lat": 38.87811516666667, "rental_uris": {"ios": "https://dc.lft.to/lastmile_qr_scan", "android": "https://dc.lft.to/lastmile_qr_scan"}, "is_reserved": 0, "fusion_lon": 0.0, "fusion_lat": 0.0, "lon": -76.9717325, "name": "61f87edc0d09135729e577509a4d4d18"}, {"bike_id": "26831d150ce2abce81d7f0f8d907fc08", "type": "electric_scooter", "is_disabled": 0, "lat": 38.937670833333335, "rental_uris": {"ios": "https://dc.lft.to/lastmile_qr_scan", "android": "https://dc.lft.to/lastmile_qr_scan"}, "is_reserved": 0, "fusion_lon": 0.0, "fusion_lat": 0.0, "lon": -77.01972083333334, "name": "26831d150ce2abce81d7f0f8d907fc08"}, {"bike_id": "6033a7c13d42b8dac6789077c92f38ad", "type": "electric_bike", "is_disabled": 0, "lat": 38.86365216666667, "rental_uris": {"ios": "https://dc.lft.to/lastmile_qr_scan", "android": "https://dc.lft.to/lastmile_qr_scan"}, "is_reserved": 0, "fusion_lon": 0.0, "fusion_lat": 0.0, "lon": -76.97019766666666, "name": "6033a7c13d42b8dac6789077c92f38ad"}, {"bike_id": "716292648809ee4bd15b84dac8cfe8bd", "type": "electric_scooter", "is_disabled": 0, "lat": 38.8589245, "rental_uris": {"ios": "https://dc.lft.to/lastmile_qr_scan", "android": "https://dc.lft.to/lastmile_qr_scan"}, "is_reserved": 0, "fusion_lon": 0.0, "fusion_lat": 0.0, "lon": -76.99727983333334, "name": "716292648809ee4bd15b84dac8cfe8bd"}, {"bike_id": "d56489b209cced160376d69f2d2f6dfd", "type": "electric_scooter", "is_disabled": 0, "lat": 38.921791999999996, "rental_uris": {"ios": "https://dc.lft.to/lastmile_qr_scan", "android": "https://dc.lft.to/lastmile_qr_scan"}, "is_reserved": 0, "fusion_lon": 0.0, "fusion_lat": 0.0, "lon": -76.99793666666666, "name": "d56489b209cced160376d69f2d2f6dfd"}, {"bike_id": "058009d3078e93c6535fc76a75ef0aa7", "type": "electric_bike", "is_disabled": 0, "lat": 38.863314833333334, "rental_uris": {"ios": "https://dc.lft.to/lastmile_qr_scan", "android": "https://dc.lft.to/lastmile_qr_scan"}, "is_reserved": 0, "fusion_lon": 0.0, "fusion_lat": 0.0, "lon": -76.98722983333333, "name": "058009d3078e93c6535fc76a75ef0aa7"}, {"bike_id": "7c0b4457a5bb43bc17c179fa73ddcb5d", "type": "electric_scooter", "is_disabled": 0, "lat": 38.94462016666667, "rental_uris": {"ios": "https://dc.lft.to/lastmile_qr_scan", "android": "https://dc.lft.to/lastmile_qr_scan"}, "is_reserved": 0, "fusion_lon": 0.0, "fusion_lat": 0.0, "lon": -77.0065905, "name": "7c0b4457a5bb43bc17c179fa73ddcb5d"}, {"bike_id": "ab4adbef3e44ac9bcef68e392d22ba6a", "type": "electric_scooter", "is_disabled": 0, "lat": 38.90145366666667, "rental_uris": {"ios": "https://dc.lft.to/lastmile_qr_scan", "android": "https://dc.lft.to/lastmile_qr_scan"}, "is_reserved": 0, "fusion_lon": 0.0, "fusion_lat": 0.0, "lon": -77.02588966666667, "name": "ab4adbef3e44ac9bcef68e392d22ba6a"}, {"bike_id": "6d5c0e055e1042daa092687447d9290a", "type": "electric_scooter", "is_disabled": 0, "lat": 38.90683766666667, "rental_uris": {"ios": "https://dc.lft.to/lastmile_qr_scan", "android": "https://dc.lft.to/lastmile_qr_scan"}, "is_reserved": 0, "fusion_lon": 0.0, "fusion_lat": 0.0, "lon": -77.05324066666667, "name": "6d5c0e055e1042daa092687447d9290a"}, {"bike_id": "fad17cda4cc833b3f54a8500184da392", "type": "electric_bike", "is_disabled": 0, "lat": 38.80904266666667, "rental_uris": {"ios": "https://dc.lft.to/lastmile_qr_scan", "android": "https://dc.lft.to/lastmile_qr_scan"}, "is_reserved": 0, "fusion_lon": 0.0, "fusion_lat": 0.0, "lon": -77.086614, "name": "fad17cda4cc833b3f54a8500184da392"}, {"bike_id": "7f07a9d5b423bdae878b38f15fe96b1c", "type": "electric_scooter", "is_disabled": 0, "lat": 38.920822333333334, "rental_uris": {"ios": "https://dc.lft.to/lastmile_qr_scan", "android": "https://dc.lft.to/lastmile_qr_scan"}, "is_reserved": 0, "fusion_lon": 0.0, "fusion_lat": 0.0, "lon": -77.02538016666666, "name": "7f07a9d5b423bdae878b38f15fe96b1c"}, {"bike_id": "1acf2e219e328f01a474c795bce0d336", "type": "electric_scooter", "is_disabled": 0, "lat": 38.924231166666665, "rental_uris": {"ios": "https://dc.lft.to/lastmile_qr_scan", "android": "https://dc.lft.to/lastmile_qr_scan"}, "is_reserved": 0, "fusion_lon": 0.0, "fusion_lat": 0.0, "lon": -77.02971183333334, "name": "1acf2e219e328f01a474c795bce0d336"}, {"bike_id": "e267034b731c14641d9cb9e305b1d1d0", "type": "electric_scooter", "is_disabled": 0, "lat": 38.904922166666665, "rental_uris": {"ios": "https://dc.lft.to/lastmile_qr_scan", "android": "https://dc.lft.to/lastmile_qr_scan"}, "is_reserved": 0, "fusion_lon": 0.0, "fusion_lat": 0.0, "lon": -77.028195, "name": "e267034b731c14641d9cb9e305b1d1d0"}, {"bike_id": "a220189501fb0490f4e69eda8d74e88d", "type": "electric_bike", "is_disabled": 0, "lat": 38.911102666666665, "rental_uris": {"ios": "https://dc.lft.to/lastmile_qr_scan", "android": "https://dc.lft.to/lastmile_qr_scan"}, "is_reserved": 0, "fusion_lon": 0.0, "fusion_lat": 0.0, "lon": -77.03255566666667, "name": "a220189501fb0490f4e69eda8d74e88d"}, {"bike_id": "b8f3fa9ed872fbbd41d9647a283f63ad", "type": "electric_scooter", "is_disabled": 0, "lat": 38.9167735, "rental_uris": {"ios": "https://dc.lft.to/lastmile_qr_scan", "android": "https://dc.lft.to/lastmile_qr_scan"}, "is_reserved": 0, "fusion_lon": 0.0, "fusion_lat": 0.0, "lon": -77.02979633333334, "name": "b8f3fa9ed872fbbd41d9647a283f63ad"}, {"bike_id": "f33a2aabe62313b6a98d5c91bb5ae733", "type": "electric_scooter", "is_disabled": 0, "lat": 38.8988505, "rental_uris": {"ios": "https://dc.lft.to/lastmile_qr_scan", "android": "https://dc.lft.to/lastmile_qr_scan"}, "is_reserved": 0, "fusion_lon": 0.0, "fusion_lat": 0.0, "lon": -76.93178016666667, "name": "f33a2aabe62313b6a98d5c91bb5ae733"}, {"bike_id": "b769cf49f63c0d0526d5191e4d1a94f2", "type": "electric_scooter", "is_disabled": 0, "lat": 38.9027645, "rental_uris": {"ios": "https://dc.lft.to/lastmile_qr_scan", "android": "https://dc.lft.to/lastmile_qr_scan"}, "is_reserved": 0, "fusion_lon": 0.0, "fusion_lat": 0.0, "lon": -77.003445, "name": "b769cf49f63c0d0526d5191e4d1a94f2"}, {"bike_id": "4bf8f5fbaaada8fe79aaa5c76103926b", "type": "electric_scooter", "is_disabled": 0, "lat": 38.90810483333333, "rental_uris": {"ios": "https://dc.lft.to/lastmile_qr_scan", "android": "https://dc.lft.to/lastmile_qr_scan"}, "is_reserved": 0, "fusion_lon": 0.0, "fusion_lat": 0.0, "lon": -77.06385466666667, "name": "4bf8f5fbaaada8fe79aaa5c76103926b"}, {"bike_id": "61bf1022dc077896afc1af56d45921ef", "type": "electric_scooter", "is_disabled": 0, "lat": 38.933733833333335, "rental_uris": {"ios": "https://dc.lft.to/lastmile_qr_scan", "android": "https://dc.lft.to/lastmile_qr_scan"}, "is_reserved": 0, "fusion_lon": 0.0, "fusion_lat": 0.0, "lon": -77.05735483333333, "name": "61bf1022dc077896afc1af56d45921ef"}, {"bike_id": "e872b1f02343725eef6320e2f8fefd9a", "type": "electric_scooter", "is_disabled": 0, "lat": 38.925815666666665, "rental_uris": {"ios": "https://dc.lft.to/lastmile_qr_scan", "android": "https://dc.lft.to/lastmile_qr_scan"}, "is_reserved": 0, "fusion_lon": 0.0, "fusion_lat": 0.0, "lon": -77.03058433333334, "name": "e872b1f02343725eef6320e2f8fefd9a"}, {"bike_id": "277696f542e39fccebed9fbaedfe1d8b", "type": "electric_scooter", "is_disabled": 0, "lat": 38.91615733333333, "rental_uris": {"ios": "https://dc.lft.to/lastmile_qr_scan", "android": "https://dc.lft.to/lastmile_qr_scan"}, "is_reserved": 0, "fusion_lon": 0.0, "fusion_lat": 0.0, "lon": -77.0220595, "name": "277696f542e39fccebed9fbaedfe1d8b"}, {"bike_id": "8e2e2df2c23319d8fd3d026e3b38ae0f", "type": "electric_scooter", "is_disabled": 0, "lat": 38.929739166666664, "rental_uris": {"ios": "https://dc.lft.to/lastmile_qr_scan", "android": "https://dc.lft.to/lastmile_qr_scan"}, "is_reserved": 0, "fusion_lon": 0.0, "fusion_lat": 0.0, "lon": -77.03948416666667, "name": "8e2e2df2c23319d8fd3d026e3b38ae0f"}, {"bike_id": "b63fbb82e1bce1f15c3d6ecd750c6d28", "type": "electric_scooter", "is_disabled": 0, "lat": 38.9232375, "rental_uris": {"ios": "https://dc.lft.to/lastmile_qr_scan", "android": "https://dc.lft.to/lastmile_qr_scan"}, "is_reserved": 0, "fusion_lon": 0.0, "fusion_lat": 0.0, "lon": -77.03809183333334, "name": "b63fbb82e1bce1f15c3d6ecd750c6d28"}, {"bike_id": "d6fa822b89ce5c77daf643faea120619", "type": "electric_scooter", "is_disabled": 0, "lat": 38.9478595, "rental_uris": {"ios": "https://dc.lft.to/lastmile_qr_scan", "android": "https://dc.lft.to/lastmile_qr_scan"}, "is_reserved": 0, "fusion_lon": 0.0, "fusion_lat": 0.0, "lon": -77.07936116666667, "name": "d6fa822b89ce5c77daf643faea120619"}, {"bike_id": "ebd28dc080dbfc798ed52d77db2ae570", "type": "electric_scooter", "is_disabled": 0, "lat": 38.9421095, "rental_uris": {"ios": "https://dc.lft.to/lastmile_qr_scan", "android": "https://dc.lft.to/lastmile_qr_scan"}, "is_reserved": 0, "fusion_lon": 0.0, "fusion_lat": 0.0, "lon": -77.02583933333334, "name": "ebd28dc080dbfc798ed52d77db2ae570"}, {"bike_id": "fea2b00128db9ce52b9e36df6831a48b", "type": "electric_scooter", "is_disabled": 0, "lat": 38.9369365, "rental_uris": {"ios": "https://dc.lft.to/lastmile_qr_scan", "android": "https://dc.lft.to/lastmile_qr_scan"}, "is_reserved": 0, "fusion_lon": 0.0, "fusion_lat": 0.0, "lon": -77.05669283333333, "name": "fea2b00128db9ce52b9e36df6831a48b"}, {"bike_id": "d928fa1a5313cde4c2ea90dd75d43a5d", "type": "electric_scooter", "is_disabled": 0, "lat": 38.92985683333333, "rental_uris": {"ios": "https://dc.lft.to/lastmile_qr_scan", "android": "https://dc.lft.to/lastmile_qr_scan"}, "is_reserved": 0, "fusion_lon": 0.0, "fusion_lat": 0.0, "lon": -77.03475833333333, "name": "d928fa1a5313cde4c2ea90dd75d43a5d"}, {"bike_id": "a17e5d1a0439fa651dddedf25064460f", "type": "electric_scooter", "is_disabled": 0, "lat": 38.90730816666667, "rental_uris": {"ios": "https://dc.lft.to/lastmile_qr_scan", "android": "https://dc.lft.to/lastmile_qr_scan"}, "is_reserved": 0, "fusion_lon": 0.0, "fusion_lat": 0.0, "lon": -77.01488333333333, "name": "a17e5d1a0439fa651dddedf25064460f"}, {"bike_id": "03f812000df6f8a5a04f9e42481228e9", "type": "electric_scooter", "is_disabled": 0, "lat": 38.906784, "rental_uris": {"ios": "https://dc.lft.to/lastmile_qr_scan", "android": "https://dc.lft.to/lastmile_qr_scan"}, "is_reserved": 0, "fusion_lon": 0.0, "fusion_lat": 0.0, "lon": -77.07180166666667, "name": "03f812000df6f8a5a04f9e42481228e9"},